{"last_updated":1706727943,"ttl":30,"version":"2.2","data":{"bikes":[{"bike_id":"450fa1a0-90ea-4ea4-a12d-07545216ba0d","system_id":"levelo_inurba_marseille","lat":43.31221,"lon":5.36862,"is_reserved":false,"is_disabled":false,"rental_uris":{"android":"levelo://app?vid=450fa1a0-90ea-4ea4-a12d-07545216ba0d","ios":"levelo://app?vid=450fa1a0-90ea-4ea4-a12d-07545216ba0d"},"vehicle_type_id":"4","last_reported":1706727943,"current_range_meters":0,"station_id":"ce4bgl92rcd13ifvqbq0","pricing_plan_id":"free"},{"bike_id":"28920aab-b574-4238-b0ab-309b8075afbf","system_id":"levelo_inurba_marseille","lat":43.312239,"lon":5.368562,"is_reserved":false,"is_disabled":false,"rental_uris":{"android":"levelo://app?vid=28920aab-b574-4238-b0ab-309b8075afbf","ios":"levelo://app?vid=28920aab-b574-4238-b0ab-309b8075afbf"},"vehicle_type_id":"4","last_reported":1706727943,"current_range_meters":11200,"station_id":"ce4bgl92rcd13ifvqbq0","pricing_plan_id":"free"},{"bike_id":"e32a548f-1b20-4f4b-a7fe-a541488834f2","system_id":"levelo_inurba_marseille","lat":43.309076,"lon":5.368465,"is_reserved":false,"is_disabled":false,"rental_uris":{"android":"levelo://app?vid=e32a548f-1b20-4f4b-a7fe-a541488834f2","ios":"levelo://app?vid=e32a548f-1b20-4f4b-a7fe-a541488834f2"},"vehicle_type_id":"4","last_reported":1706727943,"current_range_meters":12000,"station_id":"ce4bgn92rcd13ifvqbvg","pricing_plan_id":"free"},{"bike_id":"ceb7f526-2fa4-4dc1-8f7e-a7dcbc05b447","system_id":"levelo_inurba_marseille","lat":43.309076,"lon":5.368465,"is_reserved":false,"is_disabled":false,"rental_uris":{"android":"levelo://app?vid=ceb7f526-2fa4-4dc1-8f7e-a7dcbc05b447","ios":"levelo://app?vid=ceb7f526-2fa4-4dc1-8f7e-a7dcbc05b447"},"vehicle_type_id":"4","last_reported":1706727943,"current_range_meters":14400,"station_id":"ce4bgn92rcd13ifvqbvg","pricing_plan_id":"free"},{"bike_id":"29fb83f3-6754-472a-aefb-f7ed62bb1199","system_id":"levelo_inurba_marseille","lat":43.314811,"lon":5.373104,"is_reserved":false,"is_disabled":false,"rental_uris":{"android":"levelo://app?vid=29fb83f3-6754-472a-aefb-f7ed62bb1199","ios":"levelo://app?vid=29fb83f3-6754-472a-aefb-f7ed62bb1199"},"vehicle_type_id":"4","last_reported":1706727943,"current_range_meters":0,"station_id":"ce4bgt12rcd13ifvqcd0","pricing_plan_id":"free"},{"bike_id":"230463cc-3d88-4c19-bc3e-ae1652b28b31","system_id":"levelo_inurba_marseille","lat":43.309039,"lon":5.371797,"is_reserved":false,"is_disabled":false,"rental_uris":{"android":"levelo://app?vid=230463cc-3d88-4c19-bc3e-ae1652b28b31","ios":"levelo://app?vid=230463cc-3d88-4c19-bc3e-ae1652b28b31"},"vehicle_type_id":"4","last_reported":1706727943,"current_range_meters":2000,"station_id":"ce4bguh2rcd13ifvqckg","pricing_plan_id":"free"},{"bike_id":"2d96c2be-c98f-448b-9056-e6b4399d5025","system_id":"levelo_inurba_marseille","lat":43.308799,"lon":5.371978,"is_reserved":false,"is_disabled":false,"rental_uris":{"android":"levelo://app?vid=2d96c2be-c98f-448b-9056-e6b4399d5025","ios":"levelo://app?vid=2d96c2be-c98f-448b-9056-e6b4399d5025"},"vehicle_type_id":"4","last_reported":1706727943,"current_range_meters":0,"station_id":"ce4bguh2rcd13ifvqckg","pricing_plan_id":"free"},{"bike_id":"1228eefe-15d0-4bc8-a98c-36f6b0b849d6","system_id":"levelo_inurba_marseille","lat":43.309039,"lon":5.371797,"is_reserved":false,"is_disabled":false,"rental_uris":{"android":"levelo://app?vid=1228eefe-15d0-4bc8-a98c-36f6b0b849d6","ios":"levelo://app?vid=1228eefe-15d0-4bc8-a98c-36f6b0b849d6"},"vehicle_type_id":"4","last_reported":1706727943,"current_range_meters":16800,"station_id":"ce4bguh2rcd13ifvqckg","pricing_plan_id":"free"},{"bike_id":"98d085c8-fbb6-4526-979b-cedc30409b30","system_id":"levelo_inurba_marseille","lat":43.308768,"lon":5.371953,"is_reserved":false,"is_disabled":false,"rental_uris":{"android":"levelo://app?vid=98d085c8-fbb6-4526-979b-cedc30409b30","ios":"levelo://app?vid=98d085c8-fbb6-4526-979b-cedc30409b30"},"vehicle_type_id":"4","last_reported":1706727943,"current_range_meters":0,"station_id":"ce4bguh2rcd13ifvqckg","pricing_plan_id":"free"},{"bike_id":"1bb15905-7bd9-4940-9e53-f735d5435464","system_id":"levelo_inurba_marseille","lat":43.305567,"lon":5.366969,"is_reserved":false,"is_disabled":false,"rental_uris":{"android":"levelo://app?vid=1bb15905-7bd9-4940-9e53-f735d5435464","ios":"levelo://app?vid=1bb15905-7bd9-4940-9e53-f735d5435464"},"vehicle_type_id":"4","last_reported":1706727943,"current_range_meters":24800,"station_id":"ce4bgrp2rcd13ifvqc9g","pricing_plan_id":"free"},{"bike_id":"3e7b7343-3449-4ea2-b586-5fb36f3f0c95","system_id":"levelo_inurba_marseille","lat":43.305712,"lon":5.365641,"is_reserved":false,"is_disabled":false,"rental_uris":{"android":"levelo://app?vid=3e7b7343-3449-4ea2-b586-5fb36f3f0c95","ios":"levelo://app?vid=3e7b7343-3449-4ea2-b586-5fb36f3f0c95"},"vehicle_type_id":"4","last_reported":1706727943,"current_range_meters":4400,"station_id":"ce4bgs12rcd13ifvqcag","pricing_plan_id":"free"},{"bike_id":"0e96b132-c82b-4876-bd3a-eae100c4bb81","system_id":"levelo_inurba_marseille","lat":43.305989,"lon":5.37225,"is_reserved":false,"is_disabled":false,"rental_uris":{"android":"levelo://app?vid=0e96b132-c82b-4876-bd3a-eae100c4bb81","ios":"levelo://app?vid=0e96b132-c82b-4876-bd3a-eae100c4bb81"},"vehicle_type_id":"4","last_reported":1706727943,"current_range_meters":0,"station_id":"ce4bgqh2rcd13ifvqc4g","pricing_plan_id":"free"},{"bike_id":"d1e1b20f-4c8f-4fbc-8af6-91933073a7f2","system_id":"levelo_inurba_marseille","lat":43.305989,"lon":5.37225,"is_reserved":false,"is_disabled":false,"rental_uris":{"android":"levelo://app?vid=d1e1b20f-4c8f-4fbc-8af6-91933073a7f2","ios":"levelo://app?vid=d1e1b20f-4c8f-4fbc-8af6-91933073a7f2"},"vehicle_type_id":"4","last_reported":1706727943,"current_range_meters":11200,"station_id":"ce4bgqh2rcd13ifvqc4g","pricing_plan_id":"free"},{"bike_id":"c3d39840-9734-47b9-9543-f104595caeaa","system_id":"levelo_inurba_marseille","lat":43.307945,"lon":5.376487,"is_reserved":false,"is_disabled":false,"rental_uris":{"android":"levelo://app?vid=c3d39840-9734-47b9-9543-f104595caeaa","ios":"levelo://app?vid=c3d39840-9734-47b9-9543-f104595caeaa"},"vehicle_type_id":"4","last_reported":1706727943,"current_range_meters":9200,"station_id":"ce4bgv92rcd13ifvqcq0","pricing_plan_id":"free"},{"bike_id":"f33f70d5-46c2-4de5-ac55-7370e52b4850","system_id":"levelo_inurba_marseille","lat":43.307945,"lon":5.376487,"is_reserved":false,"is_disabled":false,"rental_uris":{"android":"levelo://app?vid=f33f70d5-46c2-4de5-ac55-7370e52b4850","ios":"levelo://app?vid=f33f70d5-46c2-4de5-ac55-7370e52b4850"},"vehicle_type_id":"4","last_reported":1706727943,"current_range_meters":0,"station_id":"ce4bgv92rcd13ifvqcq0","pricing_plan_id":"free"},{"bike_id":"b63a0619-c8c5-454e-be3d-7d4e8d9e522f","system_id":"levelo_inurba_marseille","lat":43.317075,"lon":5.377367,"is_reserved":false,"is_disabled":false,"rental_uris":{"android":"levelo://app?vid=b63a0619-c8c5-454e-be3d-7d4e8d9e522f","ios":"levelo://app?vid=b63a0619-c8c5-454e-be3d-7d4e8d9e522f"},"vehicle_type_id":"4","last_reported":1706727943,"current_range_meters":4000,"station_id":"ce4bgth2rcd13ifvqch0","pricing_plan_id":"free"},{"bike_id":"18a7ab6b-e68c-44de-99bd-cd4b624a0994","system_id":"levelo_inurba_marseille","lat":43.317075,"lon":5.377367,"is_reserved":false,"is_disabled":false,"rental_uris":{"android":"levelo://app?vid=18a7ab6b-e68c-44de-99bd-cd4b624a0994","ios":"levelo://app?vid=18a7ab6b-e68c-44de-99bd-cd4b624a0994"},"vehicle_type_id":"4","last_reported":1706727943,"current_range_meters":4800,"station_id":"ce4bgth2rcd13ifvqch0","pricing_plan_id":"free"},{"bike_id":"939d97a5-2ccb-4ff6-8e74-847cf8201e56","system_id":"levelo_inurba_marseille","lat":43.317075,"lon":5.377367,"is_reserved":false,"is_disabled":false,"rental_uris":{"android":"levelo://app?vid=939d97a5-2ccb-4ff6-8e74-847cf8201e56","ios":"levelo://app?vid=939d97a5-2ccb-4ff6-8e74-847cf8201e56"},"vehicle_type_id":"4","last_reported":1706727943,"current_range_meters":20800,"station_id":"ce4bgth2rcd13ifvqch0","pricing_plan_id":"free"},{"bike_id":"15a31d30-d482-4345-a27a-e66a496d23c3","system_id":"levelo_inurba_marseille","lat":43.301939,"lon":5.366286,"is_reserved":false,"is_disabled":false,"rental_uris":{"android":"levelo://app?vid=15a31d30-d482-4345-a27a-e66a496d23c3","ios":"levelo://app?vid=15a31d30-d482-4345-a27a-e66a496d23c3"},"vehicle_type_id":"4","last_reported":1706727943,"current_range_meters":26800,"station_id":"ce4bgrh2rcd13ifvqc8g","pricing_plan_id":"free"},{"bike_id":"d621c7c6-f8f7-4aff-8255-da4375603046","system_id":"levelo_inurba_marseille","lat":43.301939,"lon":5.366286,"is_reserved":false,"is_disabled":false,"rental_uris":{"android":"levelo://app?vid=d621c7c6-f8f7-4aff-8255-da4375603046","ios":"levelo://app?vid=d621c7c6-f8f7-4aff-8255-da4375603046"},"vehicle_type_id":"4","last_reported":1706727943,"current_range_meters":4400,"station_id":"ce4bgrh2rcd13ifvqc8g","pricing_plan_id":"free"},{"bike_id":"67fe6d91-fbb2-4852-b633-df7915d92774","system_id":"levelo_inurba_marseille","lat":43.30193,"lon":5.3662,"is_reserved":false,"is_disabled":false,"rental_uris":{"android":"levelo://app?vid=67fe6d91-fbb2-4852-b633-df7915d92774","ios":"levelo://app?vid=67fe6d91-fbb2-4852-b633-df7915d92774"},"vehicle_type_id":"4","last_reported":1706727943,"current_range_meters":13600,"station_id":"ce4bgrh2rcd13ifvqc8g","pricing_plan_id":"free"},{"bike_id":"ffa57d7c-ae26-4f89-b094-80344814ee4f","system_id":"levelo_inurba_marseille","lat":43.30187,"lon":5.36611,"is_reserved":false,"is_disabled":false,"rental_uris":{"android":"levelo://app?vid=ffa57d7c-ae26-4f89-b094-80344814ee4f","ios":"levelo://app?vid=ffa57d7c-ae26-4f89-b094-80344814ee4f"},"vehicle_type_id":"4","last_reported":1706727943,"current_range_meters":31200,"station_id":"ce4bgrh2rcd13ifvqc8g","pricing_plan_id":"free"},{"bike_id":"f9b3aa5a-40af-4040-a917-268c7acc95ae","system_id":"levelo_inurba_marseille","lat":43.32478,"lon":5.3658,"is_reserved":false,"is_disabled":false,"rental_uris":{"android":"levelo://app?vid=f9b3aa5a-40af-4040-a917-268c7acc95ae","ios":"levelo://app?vid=f9b3aa5a-40af-4040-a917-268c7acc95ae"},"vehicle_type_id":"4","last_reported":1706727943,"current_range_meters":16000,"station_id":"ce4bhs12rcd13ifvqhvg","pricing_plan_id":"free"},{"bike_id":"4c1d912b-8425-4b28-bcd4-0691a1724560","system_id":"levelo_inurba_marseille","lat":43.324812,"lon":5.365771,"is_reserved":false,"is_disabled":false,"rental_uris":{"android":"levelo://app?vid=4c1d912b-8425-4b28-bcd4-0691a1724560","ios":"levelo://app?vid=4c1d912b-8425-4b28-bcd4-0691a1724560"},"vehicle_type_id":"4","last_reported":1706727943,"current_range_meters":17600,"station_id":"ce4bhs12rcd13ifvqhvg","pricing_plan_id":"free"},{"bike_id":"bdaa086c-9c28-4ebe-8009-147b50409baf","system_id":"levelo_inurba_marseille","lat":43.324771,"lon":5.36557,"is_reserved":false,"is_disabled":false,"rental_uris":{"android":"levelo://app?vid=bdaa086c-9c28-4ebe-8009-147b50409baf","ios":"levelo://app?vid=bdaa086c-9c28-4ebe-8009-147b50409baf"},"vehicle_type_id":"4","last_reported":1706727943,"current_range_meters":7600,"station_id":"ce4bhs12rcd13ifvqhvg","pricing_plan_id":"free"},{"bike_id":"01e399bb-1b7e-4e67-83fb-10f0f85b1324","system_id":"levelo_inurba_marseille","lat":43.31076,"lon":5.38368,"is_reserved":false,"is_disabled":false,"rental_uris":{"android":"levelo://app?vid=01e399bb-1b7e-4e67-83fb-10f0f85b1324","ios":"levelo://app?vid=01e399bb-1b7e-4e67-83fb-10f0f85b1324"},"vehicle_type_id":"4","last_reported":1706727943,"current_range_meters":12000,"station_id":"ce4bgv92rcd13ifvqcr0","pricing_plan_id":"free"},{"bike_id":"b6a27ef5-c24a-41bb-8660-01c51af87bb9","system_id":"levelo_inurba_marseille","lat":43.319935,"lon":5.381699,"is_reserved":false,"is_disabled":false,"rental_uris":{"android":"levelo://app?vid=b6a27ef5-c24a-41bb-8660-01c51af87bb9","ios":"levelo://app?vid=b6a27ef5-c24a-41bb-8660-01c51af87bb9"},"vehicle_type_id":"4","last_reported":1706727943,"current_range_meters":9600,"station_id":"ce4bhr12rcd13ifvqhpg","pricing_plan_id":"free"},{"bike_id":"74a5bc9b-7b98-4c08-b89d-ae418136b231","system_id":"levelo_inurba_marseille","lat":43.310222,"lon":5.384516,"is_reserved":false,"is_disabled":false,"rental_uris":{"android":"levelo://app?vid=74a5bc9b-7b98-4c08-b89d-ae418136b231","ios":"levelo://app?vid=74a5bc9b-7b98-4c08-b89d-ae418136b231"},"vehicle_type_id":"4","last_reported":1706727943,"current_range_meters":6400,"station_id":"","pricing_plan_id":"free"},{"bike_id":"c7dd2fa6-5f1f-4de8-b4e5-c162a055fcec","system_id":"levelo_inurba_marseille","lat":43.313571,"lon":5.384829,"is_reserved":false,"is_disabled":false,"rental_uris":{"android":"levelo://app?vid=c7dd2fa6-5f1f-4de8-b4e5-c162a055fcec","ios":"levelo://app?vid=c7dd2fa6-5f1f-4de8-b4e5-c162a055fcec"},"vehicle_type_id":"4","last_reported":1706727943,"current_range_meters":8400,"station_id":"ce4bgt92rcd13ifvqcf0","pricing_plan_id":"free"},{"bike_id":"ec607dda-2133-4c95-bd1d-acc31389c6b6","system_id":"levelo_inurba_marseille","lat":43.299222,"lon":5.365554,"is_reserved":false,"is_disabled":false,"rental_uris":{"android":"levelo://app?vid=ec607dda-2133-4c95-bd1d-acc31389c6b6","ios":"levelo://app?vid=ec607dda-2133-4c95-bd1d-acc31389c6b6"},"vehicle_type_id":"4","last_reported":1706727943,"current_range_meters":26000,"station_id":"ce4bgm92rcd13ifvqbr0","pricing_plan_id":"free"},{"bike_id":"befa0c5d-654b-4cfd-8583-d7ce96f5f1c6","system_id":"levelo_inurba_marseille","lat":43.299724,"lon":5.371829,"is_reserved":false,"is_disabled":false,"rental_uris":{"android":"levelo://app?vid=befa0c5d-654b-4cfd-8583-d7ce96f5f1c6","ios":"levelo://app?vid=befa0c5d-654b-4cfd-8583-d7ce96f5f1c6"},"vehicle_type_id":"4","last_reported":1706727943,"current_range_meters":8400,"station_id":"ce4bgr92rcd13ifvqc7g","pricing_plan_id":"free"},{"bike_id":"e9002e49-741b-43b5-af9b-7e872c49ea27","system_id":"levelo_inurba_marseille","lat":43.299209,"lon":5.365547,"is_reserved":false,"is_disabled":false,"rental_uris":{"android":"levelo://app?vid=e9002e49-741b-43b5-af9b-7e872c49ea27","ios":"levelo://app?vid=e9002e49-741b-43b5-af9b-7e872c49ea27"},"vehicle_type_id":"4","last_reported":1706727943,"current_range_meters":0,"station_id":"ce4bgm92rcd13ifvqbr0","pricing_plan_id":"free"},{"bike_id":"71e597a8-899a-4076-ba9e-3d4dd41c3883","system_id":"levelo_inurba_marseille","lat":43.296131,"lon":5.370773,"is_reserved":false,"is_disabled":false,"rental_uris":{"android":"levelo://app?vid=71e597a8-899a-4076-ba9e-3d4dd41c3883","ios":"levelo://app?vid=71e597a8-899a-4076-ba9e-3d4dd41c3883"},"vehicle_type_id":"4","last_reported":1706727943,"current_range_meters":20000,"station_id":"ce4bgnh2rcd13ifvqc0g","pricing_plan_id":"free"},{"bike_id":"efa6bd51-c94f-4107-9e97-437d3697b8cb","system_id":"levelo_inurba_marseille","lat":43.31215,"lon":5.38677,"is_reserved":false,"is_disabled":false,"rental_uris":{"android":"levelo://app?vid=efa6bd51-c94f-4107-9e97-437d3697b8cb","ios":"levelo://app?vid=efa6bd51-c94f-4107-9e97-437d3697b8cb"},"vehicle_type_id":"4","last_reported":1706727943,"current_range_meters":16800,"station_id":"","pricing_plan_id":"free"},{"bike_id":"b076c492-6d76-4870-957f-6a1c76e3466d","system_id":"levelo_inurba_marseille","lat":43.305364,"lon":5.384119,"is_reserved":false,"is_disabled":false,"rental_uris":{"android":"levelo://app?vid=b076c492-6d76-4870-957f-6a1c76e3466d","ios":"levelo://app?vid=b076c492-6d76-4870-957f-6a1c76e3466d"},"vehicle_type_id":"4","last_reported":1706727943,"current_range_meters":0,"station_id":"ce4bgg92rcd13ifvqb30","pricing_plan_id":"free"},{"bike_id":"df80f563-4824-4704-8d6e-ee634777bb15","system_id":"levelo_inurba_marseille","lat":43.311722,"lon":5.387247,"is_reserved":false,"is_disabled":false,"rental_uris":{"android":"levelo://app?vid=df80f563-4824-4704-8d6e-ee634777bb15","ios":"levelo://app?vid=df80f563-4824-4704-8d6e-ee634777bb15"},"vehicle_type_id":"4","last_reported":1706727943,"current_range_meters":20400,"station_id":"ce4bgv12rcd13ifvqcp0","pricing_plan_id":"free"},{"bike_id":"a2e10512-574f-47fd-baca-a1ce6651d91d","system_id":"levelo_inurba_marseille","lat":43.311722,"lon":5.387247,"is_reserved":false,"is_disabled":false,"rental_uris":{"android":"levelo://app?vid=a2e10512-574f-47fd-baca-a1ce6651d91d","ios":"levelo://app?vid=a2e10512-574f-47fd-baca-a1ce6651d91d"},"vehicle_type_id":"4","last_reported":1706727943,"current_range_meters":4000,"station_id":"ce4bgv12rcd13ifvqcp0","pricing_plan_id":"free"},{"bike_id":"ea5ad0a1-27e3-47c4-89a1-e718950473b9","system_id":"levelo_inurba_marseille","lat":43.322872,"lon":5.382756,"is_reserved":false,"is_disabled":false,"rental_uris":{"android":"levelo://app?vid=ea5ad0a1-27e3-47c4-89a1-e718950473b9","ios":"levelo://app?vid=ea5ad0a1-27e3-47c4-89a1-e718950473b9"},"vehicle_type_id":"4","last_reported":1706727943,"current_range_meters":400,"station_id":"ce4bhr12rcd13ifvqhqg","pricing_plan_id":"free"},{"bike_id":"b804f899-963d-4bd6-b3dd-e2781b06570a","system_id":"levelo_inurba_marseille","lat":43.322872,"lon":5.382756,"is_reserved":false,"is_disabled":false,"rental_uris":{"android":"levelo://app?vid=b804f899-963d-4bd6-b3dd-e2781b06570a","ios":"levelo://app?vid=b804f899-963d-4bd6-b3dd-e2781b06570a"},"vehicle_type_id":"4","last_reported":1706727943,"current_range_meters":800,"station_id":"ce4bhr12rcd13ifvqhqg","pricing_plan_id":"free"},{"bike_id":"2b65db30-3315-4a51-a4c6-1bedc9bd51c7","system_id":"levelo_inurba_marseille","lat":43.322872,"lon":5.382756,"is_reserved":false,"is_disabled":false,"rental_uris":{"android":"levelo://app?vid=2b65db30-3315-4a51-a4c6-1bedc9bd51c7","ios":"levelo://app?vid=2b65db30-3315-4a51-a4c6-1bedc9bd51c7"},"vehicle_type_id":"4","last_reported":1706727943,"current_range_meters":30400,"station_id":"ce4bhr12rcd13ifvqhqg","pricing_plan_id":"free"},{"bike_id":"19e08926-8857-44b7-a342-a968b5312c1d","system_id":"levelo_inurba_marseille","lat":43.322872,"lon":5.382756,"is_reserved":false,"is_disabled":false,"rental_uris":{"android":"levelo://app?vid=19e08926-8857-44b7-a342-a968b5312c1d","ios":"levelo://app?vid=19e08926-8857-44b7-a342-a968b5312c1d"},"vehicle_type_id":"4","last_reported":1706727943,"current_range_meters":9600,"station_id":"ce4bhr12rcd13ifvqhqg","pricing_plan_id":"free"},{"bike_id":"639a58a8-5679-4a20-9014-ed1eb921742b","system_id":"levelo_inurba_marseille","lat":43.322872,"lon":5.382756,"is_reserved":false,"is_disabled":false,"rental_uris":{"android":"levelo://app?vid=639a58a8-5679-4a20-9014-ed1eb921742b","ios":"levelo://app?vid=639a58a8-5679-4a20-9014-ed1eb921742b"},"vehicle_type_id":"4","last_reported":1706727943,"current_range_meters":20000,"station_id":"ce4bhr12rcd13ifvqhqg","pricing_plan_id":"free"},{"bike_id":"d54749f2-afe6-40a1-a18e-d1935eb8f708","system_id":"levelo_inurba_marseille","lat":43.328371,"lon":5.366909,"is_reserved":false,"is_disabled":false,"rental_uris":{"android":"levelo://app?vid=d54749f2-afe6-40a1-a18e-d1935eb8f708","ios":"levelo://app?vid=d54749f2-afe6-40a1-a18e-d1935eb8f708"},"vehicle_type_id":"4","last_reported":1706727943,"current_range_meters":24400,"station_id":"ce4bhs92rcd13ifvqi0g","pricing_plan_id":"free"},{"bike_id":"1b9d27f3-da12-436d-bafd-e23fca05f539","system_id":"levelo_inurba_marseille","lat":43.297163,"lon":5.365866,"is_reserved":false,"is_disabled":false,"rental_uris":{"android":"levelo://app?vid=1b9d27f3-da12-436d-bafd-e23fca05f539","ios":"levelo://app?vid=1b9d27f3-da12-436d-bafd-e23fca05f539"},"vehicle_type_id":"4","last_reported":1706727943,"current_range_meters":4000,"station_id":"ce4bgn12rcd13ifvqbt0","pricing_plan_id":"free"},{"bike_id":"e2d16666-91e2-4a89-8cf5-ec01f19a59f8","system_id":"levelo_inurba_marseille","lat":43.297163,"lon":5.365866,"is_reserved":false,"is_disabled":false,"rental_uris":{"android":"levelo://app?vid=e2d16666-91e2-4a89-8cf5-ec01f19a59f8","ios":"levelo://app?vid=e2d16666-91e2-4a89-8cf5-ec01f19a59f8"},"vehicle_type_id":"4","last_reported":1706727943,"current_range_meters":2800,"station_id":"ce4bgn12rcd13ifvqbt0","pricing_plan_id":"free"},{"bike_id":"9f158f6e-bebf-4e16-a920-4a5ab4eb6921","system_id":"levelo_inurba_marseille","lat":43.328544,"lon":5.366881,"is_reserved":false,"is_disabled":false,"rental_uris":{"android":"levelo://app?vid=9f158f6e-bebf-4e16-a920-4a5ab4eb6921","ios":"levelo://app?vid=9f158f6e-bebf-4e16-a920-4a5ab4eb6921"},"vehicle_type_id":"4","last_reported":1706727943,"current_range_meters":19200,"station_id":"","pricing_plan_id":"free"},{"bike_id":"359edfee-a8b5-4e14-8bc4-a7fa356532b9","system_id":"levelo_inurba_marseille","lat":43.31751,"lon":5.38907,"is_reserved":false,"is_disabled":false,"rental_uris":{"android":"levelo://app?vid=359edfee-a8b5-4e14-8bc4-a7fa356532b9","ios":"levelo://app?vid=359edfee-a8b5-4e14-8bc4-a7fa356532b9"},"vehicle_type_id":"4","last_reported":1706727943,"current_range_meters":26800,"station_id":"","pricing_plan_id":"free"},{"bike_id":"aeb37ffb-0ce3-4394-a9b5-42b8df399495","system_id":"levelo_inurba_marseille","lat":43.309589,"lon":5.390258,"is_reserved":false,"is_disabled":false,"rental_uris":{"android":"levelo://app?vid=aeb37ffb-0ce3-4394-a9b5-42b8df399495","ios":"levelo://app?vid=aeb37ffb-0ce3-4394-a9b5-42b8df399495"},"vehicle_type_id":"4","last_reported":1706727943,"current_range_meters":800,"station_id":"ce4bgup2rcd13ifvqco0","pricing_plan_id":"free"},{"bike_id":"7afe9903-ce72-4c33-9428-a620b7908559","system_id":"levelo_inurba_marseille","lat":43.30946,"lon":5.39033,"is_reserved":false,"is_disabled":false,"rental_uris":{"android":"levelo://app?vid=7afe9903-ce72-4c33-9428-a620b7908559","ios":"levelo://app?vid=7afe9903-ce72-4c33-9428-a620b7908559"},"vehicle_type_id":"4","last_reported":1706727943,"current_range_meters":0,"station_id":"ce4bgup2rcd13ifvqco0","pricing_plan_id":"free"},{"bike_id":"6242b800-4253-4cb6-a80b-1255fb07d8f5","system_id":"levelo_inurba_marseille","lat":43.30944,"lon":5.39037,"is_reserved":false,"is_disabled":false,"rental_uris":{"android":"levelo://app?vid=6242b800-4253-4cb6-a80b-1255fb07d8f5","ios":"levelo://app?vid=6242b800-4253-4cb6-a80b-1255fb07d8f5"},"vehicle_type_id":"4","last_reported":1706727943,"current_range_meters":0,"station_id":"ce4bgup2rcd13ifvqco0","pricing_plan_id":"free"},{"bike_id":"071244f1-5189-40c4-bbc7-acdf97e09958","system_id":"levelo_inurba_marseille","lat":43.317557,"lon":5.390173,"is_reserved":false,"is_disabled":false,"rental_uris":{"android":"levelo://app?vid=071244f1-5189-40c4-bbc7-acdf97e09958","ios":"levelo://app?vid=071244f1-5189-40c4-bbc7-acdf97e09958"},"vehicle_type_id":"4","last_reported":1706727943,"current_range_meters":18000,"station_id":"ce4bhqp2rcd13ifvqhng","pricing_plan_id":"free"},{"bike_id":"f6fea7bb-175a-4094-86b5-dd2cf3f3ae6c","system_id":"levelo_inurba_marseille","lat":43.317557,"lon":5.390173,"is_reserved":false,"is_disabled":false,"rental_uris":{"android":"levelo://app?vid=f6fea7bb-175a-4094-86b5-dd2cf3f3ae6c","ios":"levelo://app?vid=f6fea7bb-175a-4094-86b5-dd2cf3f3ae6c"},"vehicle_type_id":"4","last_reported":1706727943,"current_range_meters":1200,"station_id":"ce4bhqp2rcd13ifvqhng","pricing_plan_id":"free"},{"bike_id":"7b0b5cba-eb9a-451b-aa6e-d8ab9d68cc97","system_id":"levelo_inurba_marseille","lat":43.29574,"lon":5.37508,"is_reserved":false,"is_disabled":false,"rental_uris":{"android":"levelo://app?vid=7b0b5cba-eb9a-451b-aa6e-d8ab9d68cc97","ios":"levelo://app?vid=7b0b5cba-eb9a-451b-aa6e-d8ab9d68cc97"},"vehicle_type_id":"4","last_reported":1706727943,"current_range_meters":0,"station_id":"ce4bgh92rcd13ifvqb50","pricing_plan_id":"free"},{"bike_id":"034674a7-f99c-4717-8175-c49c264531b7","system_id":"levelo_inurba_marseille","lat":43.30434,"lon":5.38884,"is_reserved":false,"is_disabled":false,"rental_uris":{"android":"levelo://app?vid=034674a7-f99c-4717-8175-c49c264531b7","ios":"levelo://app?vid=034674a7-f99c-4717-8175-c49c264531b7"},"vehicle_type_id":"4","last_reported":1706727943,"current_range_meters":0,"station_id":"ce4bgk12rcd13ifvqbi0","pricing_plan_id":"free"},{"bike_id":"4e4159e9-c454-4ddb-9095-8fc6caf1aee9","system_id":"levelo_inurba_marseille","lat":43.296263,"lon":5.377094,"is_reserved":false,"is_disabled":false,"rental_uris":{"android":"levelo://app?vid=4e4159e9-c454-4ddb-9095-8fc6caf1aee9","ios":"levelo://app?vid=4e4159e9-c454-4ddb-9095-8fc6caf1aee9"},"vehicle_type_id":"4","last_reported":1706727943,"current_range_meters":0,"station_id":"ce4bgi92rcd13ifvqb90","pricing_plan_id":"free"},{"bike_id":"1f145ca5-f3c2-4f39-82f8-f379bb046cbd","system_id":"levelo_inurba_marseille","lat":43.29975,"lon":5.38485,"is_reserved":false,"is_disabled":false,"rental_uris":{"android":"levelo://app?vid=1f145ca5-f3c2-4f39-82f8-f379bb046cbd","ios":"levelo://app?vid=1f145ca5-f3c2-4f39-82f8-f379bb046cbd"},"vehicle_type_id":"4","last_reported":1706727943,"current_range_meters":0,"station_id":"ce4bgj92rcd13ifvqbd0","pricing_plan_id":"free"},{"bike_id":"62f1202c-3887-41cf-ae44-f51fc7dcb791","system_id":"levelo_inurba_marseille","lat":43.29978,"lon":5.38493,"is_reserved":false,"is_disabled":false,"rental_uris":{"android":"levelo://app?vid=62f1202c-3887-41cf-ae44-f51fc7dcb791","ios":"levelo://app?vid=62f1202c-3887-41cf-ae44-f51fc7dcb791"},"vehicle_type_id":"4","last_reported":1706727943,"current_range_meters":0,"station_id":"ce4bgj92rcd13ifvqbd0","pricing_plan_id":"free"},{"bike_id":"34582793-307e-45d0-a01e-3715bc0e2f9d","system_id":"levelo_inurba_marseille","lat":43.29972,"lon":5.38487,"is_reserved":false,"is_disabled":false,"rental_uris":{"android":"levelo://app?vid=34582793-307e-45d0-a01e-3715bc0e2f9d","ios":"levelo://app?vid=34582793-307e-45d0-a01e-3715bc0e2f9d"},"vehicle_type_id":"4","last_reported":1706727943,"current_range_meters":0,"station_id":"ce4bgj92rcd13ifvqbd0","pricing_plan_id":"free"},{"bike_id":"e14278bb-f76e-4524-a985-417bd9353a2d","system_id":"levelo_inurba_marseille","lat":43.29978,"lon":5.38496,"is_reserved":false,"is_disabled":false,"rental_uris":{"android":"levelo://app?vid=e14278bb-f76e-4524-a985-417bd9353a2d","ios":"levelo://app?vid=e14278bb-f76e-4524-a985-417bd9353a2d"},"vehicle_type_id":"4","last_reported":1706727943,"current_range_meters":0,"station_id":"ce4bgj92rcd13ifvqbd0","pricing_plan_id":"free"},{"bike_id":"d06df43c-f52a-4832-beca-10935790d507","system_id":"levelo_inurba_marseille","lat":43.29974,"lon":5.38494,"is_reserved":false,"is_disabled":false,"rental_uris":{"android":"levelo://app?vid=d06df43c-f52a-4832-beca-10935790d507","ios":"levelo://app?vid=d06df43c-f52a-4832-beca-10935790d507"},"vehicle_type_id":"4","last_reported":1706727943,"current_range_meters":0,"station_id":"ce4bgj92rcd13ifvqbd0","pricing_plan_id":"free"},{"bike_id":"22824f72-7d74-464f-85c8-9f03cc10eb65","system_id":"levelo_inurba_marseille","lat":43.2997,"lon":5.3849,"is_reserved":false,"is_disabled":false,"rental_uris":{"android":"levelo://app?vid=22824f72-7d74-464f-85c8-9f03cc10eb65","ios":"levelo://app?vid=22824f72-7d74-464f-85c8-9f03cc10eb65"},"vehicle_type_id":"4","last_reported":1706727943,"current_range_meters":0,"station_id":"ce4bgj92rcd13ifvqbd0","pricing_plan_id":"free"},{"bike_id":"8d1b387f-dad2-4eca-b89d-15a2990580a2","system_id":"levelo_inurba_marseille","lat":43.29966,"lon":5.38499,"is_reserved":false,"is_disabled":false,"rental_uris":{"android":"levelo://app?vid=8d1b387f-dad2-4eca-b89d-15a2990580a2","ios":"levelo://app?vid=8d1b387f-dad2-4eca-b89d-15a2990580a2"},"vehicle_type_id":"4","last_reported":1706727943,"current_range_meters":0,"station_id":"ce4bgj92rcd13ifvqbd0","pricing_plan_id":"free"},{"bike_id":"33c8dbb2-a98a-4adc-b9e1-028746d5ff0a","system_id":"levelo_inurba_marseille","lat":43.295279,"lon":5.375048,"is_reserved":false,"is_disabled":false,"rental_uris":{"android":"levelo://app?vid=33c8dbb2-a98a-4adc-b9e1-028746d5ff0a","ios":"levelo://app?vid=33c8dbb2-a98a-4adc-b9e1-028746d5ff0a"},"vehicle_type_id":"4","last_reported":1706727943,"current_range_meters":1200,"station_id":"ce4bgkp2rcd13ifvqbmg","pricing_plan_id":"free"},{"bike_id":"de25d637-84ec-4203-b892-3e1c2d7c4ddb","system_id":"levelo_inurba_marseille","lat":43.331701,"lon":5.364439,"is_reserved":false,"is_disabled":false,"rental_uris":{"android":"levelo://app?vid=de25d637-84ec-4203-b892-3e1c2d7c4ddb","ios":"levelo://app?vid=de25d637-84ec-4203-b892-3e1c2d7c4ddb"},"vehicle_type_id":"4","last_reported":1706727943,"current_range_meters":6000,"station_id":"","pricing_plan_id":"free"},{"bike_id":"3304c29f-fdd7-464a-8890-39b8a8474937","system_id":"levelo_inurba_marseille","lat":43.30275,"lon":5.38944,"is_reserved":false,"is_disabled":false,"rental_uris":{"android":"levelo://app?vid=3304c29f-fdd7-464a-8890-39b8a8474937","ios":"levelo://app?vid=3304c29f-fdd7-464a-8890-39b8a8474937"},"vehicle_type_id":"4","last_reported":1706727943,"current_range_meters":8800,"station_id":"","pricing_plan_id":"free"},{"bike_id":"fa3d4808-eb27-4a37-a159-8401d77aea42","system_id":"levelo_inurba_marseille","lat":43.32367,"lon":5.388836,"is_reserved":false,"is_disabled":false,"rental_uris":{"android":"levelo://app?vid=fa3d4808-eb27-4a37-a159-8401d77aea42","ios":"levelo://app?vid=fa3d4808-eb27-4a37-a159-8401d77aea42"},"vehicle_type_id":"4","last_reported":1706727943,"current_range_meters":12800,"station_id":"ce4bhqp2rcd13ifvqhog","pricing_plan_id":"free"},{"bike_id":"202df9dd-3b20-4310-9dde-7a88eca4db2d","system_id":"levelo_inurba_marseille","lat":43.32365,"lon":5.38889,"is_reserved":false,"is_disabled":false,"rental_uris":{"android":"levelo://app?vid=202df9dd-3b20-4310-9dde-7a88eca4db2d","ios":"levelo://app?vid=202df9dd-3b20-4310-9dde-7a88eca4db2d"},"vehicle_type_id":"4","last_reported":1706727943,"current_range_meters":8400,"station_id":"ce4bhqp2rcd13ifvqhog","pricing_plan_id":"free"},{"bike_id":"991180ec-17db-49f7-8e0e-22d22351c380","system_id":"levelo_inurba_marseille","lat":43.307281,"lon":5.392491,"is_reserved":false,"is_disabled":false,"rental_uris":{"android":"levelo://app?vid=991180ec-17db-49f7-8e0e-22d22351c380","ios":"levelo://app?vid=991180ec-17db-49f7-8e0e-22d22351c380"},"vehicle_type_id":"4","last_reported":1706727943,"current_range_meters":18800,"station_id":"","pricing_plan_id":"free"},{"bike_id":"2c40c46f-02cb-43c2-83b5-fbb01a53ee33","system_id":"levelo_inurba_marseille","lat":43.292749,"lon":5.368402,"is_reserved":false,"is_disabled":false,"rental_uris":{"android":"levelo://app?vid=2c40c46f-02cb-43c2-83b5-fbb01a53ee33","ios":"levelo://app?vid=2c40c46f-02cb-43c2-83b5-fbb01a53ee33"},"vehicle_type_id":"4","last_reported":1706727943,"current_range_meters":12000,"station_id":"ce4bhbp2rcd13ifvqesg","pricing_plan_id":"free"},{"bike_id":"3a5fcedf-9fc7-4ed9-a563-1f3d2dec2d94","system_id":"levelo_inurba_marseille","lat":43.29302,"lon":5.37162,"is_reserved":false,"is_disabled":false,"rental_uris":{"android":"levelo://app?vid=3a5fcedf-9fc7-4ed9-a563-1f3d2dec2d94","ios":"levelo://app?vid=3a5fcedf-9fc7-4ed9-a563-1f3d2dec2d94"},"vehicle_type_id":"4","last_reported":1706727943,"current_range_meters":4400,"station_id":"ce4bgh92rcd13ifvqb40","pricing_plan_id":"free"},{"bike_id":"e6fd944d-8e8b-4a20-a5e2-235d8278a620","system_id":"levelo_inurba_marseille","lat":43.292749,"lon":5.368402,"is_reserved":false,"is_disabled":false,"rental_uris":{"android":"levelo://app?vid=e6fd944d-8e8b-4a20-a5e2-235d8278a620","ios":"levelo://app?vid=e6fd944d-8e8b-4a20-a5e2-235d8278a620"},"vehicle_type_id":"4","last_reported":1706727943,"current_range_meters":0,"station_id":"ce4bhbp2rcd13ifvqesg","pricing_plan_id":"free"},{"bike_id":"fea24239-bd8e-4a4d-b8fa-8d535edc205d","system_id":"levelo_inurba_marseille","lat":43.29305,"lon":5.3748,"is_reserved":false,"is_disabled":false,"rental_uris":{"android":"levelo://app?vid=fea24239-bd8e-4a4d-b8fa-8d535edc205d","ios":"levelo://app?vid=fea24239-bd8e-4a4d-b8fa-8d535edc205d"},"vehicle_type_id":"4","last_reported":1706727943,"current_range_meters":0,"station_id":"ce4bgi12rcd13ifvqb70","pricing_plan_id":"free"},{"bike_id":"7cc00cef-f13d-4b9b-ad52-4090def52b1d","system_id":"levelo_inurba_marseille","lat":43.305981,"lon":5.393594,"is_reserved":false,"is_disabled":false,"rental_uris":{"android":"levelo://app?vid=7cc00cef-f13d-4b9b-ad52-4090def52b1d","ios":"levelo://app?vid=7cc00cef-f13d-4b9b-ad52-4090def52b1d"},"vehicle_type_id":"4","last_reported":1706727943,"current_range_meters":0,"station_id":"ce4bh0p2rcd13ifvqd80","pricing_plan_id":"free"},{"bike_id":"ae074af2-d2d8-493e-ad57-e323a3723d64","system_id":"levelo_inurba_marseille","lat":43.293009,"lon":5.374584,"is_reserved":false,"is_disabled":false,"rental_uris":{"android":"levelo://app?vid=ae074af2-d2d8-493e-ad57-e323a3723d64","ios":"levelo://app?vid=ae074af2-d2d8-493e-ad57-e323a3723d64"},"vehicle_type_id":"4","last_reported":1706727943,"current_range_meters":0,"station_id":"ce4bgi12rcd13ifvqb70","pricing_plan_id":"free"},{"bike_id":"3f0114e7-c247-421d-9348-5c3b2a0a8e70","system_id":"levelo_inurba_marseille","lat":43.293009,"lon":5.374584,"is_reserved":false,"is_disabled":false,"rental_uris":{"android":"levelo://app?vid=3f0114e7-c247-421d-9348-5c3b2a0a8e70","ios":"levelo://app?vid=3f0114e7-c247-421d-9348-5c3b2a0a8e70"},"vehicle_type_id":"4","last_reported":1706727943,"current_range_meters":0,"station_id":"ce4bgi12rcd13ifvqb70","pricing_plan_id":"free"},{"bike_id":"408a03a9-f9cd-470a-9a7d-6db8f86cac3c","system_id":"levelo_inurba_marseille","lat":43.302992,"lon":5.392136,"is_reserved":false,"is_disabled":false,"rental_uris":{"android":"levelo://app?vid=408a03a9-f9cd-470a-9a7d-6db8f86cac3c","ios":"levelo://app?vid=408a03a9-f9cd-470a-9a7d-6db8f86cac3c"},"vehicle_type_id":"4","last_reported":1706727943,"current_range_meters":4000,"station_id":"ce4bgkh2rcd13ifvqbk0","pricing_plan_id":"free"},{"bike_id":"8f59af45-88d1-4902-bef9-a4b9d12db2db","system_id":"levelo_inurba_marseille","lat":43.302992,"lon":5.392136,"is_reserved":false,"is_disabled":false,"rental_uris":{"android":"levelo://app?vid=8f59af45-88d1-4902-bef9-a4b9d12db2db","ios":"levelo://app?vid=8f59af45-88d1-4902-bef9-a4b9d12db2db"},"vehicle_type_id":"4","last_reported":1706727943,"current_range_meters":8800,"station_id":"ce4bgkh2rcd13ifvqbk0","pricing_plan_id":"free"},{"bike_id":"e54f2c8b-8a74-41b6-8751-80c63b57ef60","system_id":"levelo_inurba_marseille","lat":43.2936,"lon":5.37835,"is_reserved":false,"is_disabled":false,"rental_uris":{"android":"levelo://app?vid=e54f2c8b-8a74-41b6-8751-80c63b57ef60","ios":"levelo://app?vid=e54f2c8b-8a74-41b6-8751-80c63b57ef60"},"vehicle_type_id":"4","last_reported":1706727943,"current_range_meters":4800,"station_id":"ce4bgjh2rcd13ifvqbf0","pricing_plan_id":"free"},{"bike_id":"5f6d30d0-9af9-42b8-9ee0-406e802d1e00","system_id":"levelo_inurba_marseille","lat":43.2936,"lon":5.37835,"is_reserved":false,"is_disabled":false,"rental_uris":{"android":"levelo://app?vid=5f6d30d0-9af9-42b8-9ee0-406e802d1e00","ios":"levelo://app?vid=5f6d30d0-9af9-42b8-9ee0-406e802d1e00"},"vehicle_type_id":"4","last_reported":1706727943,"current_range_meters":9200,"station_id":"ce4bgjh2rcd13ifvqbf0","pricing_plan_id":"free"},{"bike_id":"107bd944-459a-4ea1-a3f7-09f2d96cc030","system_id":"levelo_inurba_marseille","lat":43.30095,"lon":5.39076,"is_reserved":false,"is_disabled":false,"rental_uris":{"android":"levelo://app?vid=107bd944-459a-4ea1-a3f7-09f2d96cc030","ios":"levelo://app?vid=107bd944-459a-4ea1-a3f7-09f2d96cc030"},"vehicle_type_id":"4","last_reported":1706727943,"current_range_meters":0,"station_id":"ce4bh192rcd13ifvqdb0","pricing_plan_id":"free"},{"bike_id":"81681c36-90c0-49a0-8db9-49a0df457fae","system_id":"levelo_inurba_marseille","lat":43.292311,"lon":5.360731,"is_reserved":false,"is_disabled":false,"rental_uris":{"android":"levelo://app?vid=81681c36-90c0-49a0-8db9-49a0df457fae","ios":"levelo://app?vid=81681c36-90c0-49a0-8db9-49a0df457fae"},"vehicle_type_id":"4","last_reported":1706727943,"current_range_meters":0,"station_id":"ce4bhbh2rcd13ifvqeqg","pricing_plan_id":"free"},{"bike_id":"9010475e-9b25-45cb-8d7c-bf75bb9eaad4","system_id":"levelo_inurba_marseille","lat":43.300852,"lon":5.390859,"is_reserved":false,"is_disabled":false,"rental_uris":{"android":"levelo://app?vid=9010475e-9b25-45cb-8d7c-bf75bb9eaad4","ios":"levelo://app?vid=9010475e-9b25-45cb-8d7c-bf75bb9eaad4"},"vehicle_type_id":"4","last_reported":1706727943,"current_range_meters":23600,"station_id":"ce4bh192rcd13ifvqdb0","pricing_plan_id":"free"},{"bike_id":"eabfdc20-ca58-4e13-8fef-9ceefcf31aeb","system_id":"levelo_inurba_marseille","lat":43.298764,"lon":5.388973,"is_reserved":false,"is_disabled":false,"rental_uris":{"android":"levelo://app?vid=eabfdc20-ca58-4e13-8fef-9ceefcf31aeb","ios":"levelo://app?vid=eabfdc20-ca58-4e13-8fef-9ceefcf31aeb"},"vehicle_type_id":"4","last_reported":1706727943,"current_range_meters":15600,"station_id":"ce4bh392rcd13ifvqdl0","pricing_plan_id":"free"},{"bike_id":"bc59a319-d450-4c00-93f2-37d9808d6223","system_id":"levelo_inurba_marseille","lat":43.298764,"lon":5.388973,"is_reserved":false,"is_disabled":false,"rental_uris":{"android":"levelo://app?vid=bc59a319-d450-4c00-93f2-37d9808d6223","ios":"levelo://app?vid=bc59a319-d450-4c00-93f2-37d9808d6223"},"vehicle_type_id":"4","last_reported":1706727943,"current_range_meters":0,"station_id":"ce4bh392rcd13ifvqdl0","pricing_plan_id":"free"},{"bike_id":"a8693ff5-816b-48dc-a357-881e19dbd998","system_id":"levelo_inurba_marseille","lat":43.298764,"lon":5.388973,"is_reserved":false,"is_disabled":false,"rental_uris":{"android":"levelo://app?vid=a8693ff5-816b-48dc-a357-881e19dbd998","ios":"levelo://app?vid=a8693ff5-816b-48dc-a357-881e19dbd998"},"vehicle_type_id":"4","last_reported":1706727943,"current_range_meters":19200,"station_id":"ce4bh392rcd13ifvqdl0","pricing_plan_id":"free"},{"bike_id":"37b9ced1-7b2d-401d-b720-fcffffed3178","system_id":"levelo_inurba_marseille","lat":43.298764,"lon":5.388973,"is_reserved":false,"is_disabled":false,"rental_uris":{"android":"levelo://app?vid=37b9ced1-7b2d-401d-b720-fcffffed3178","ios":"levelo://app?vid=37b9ced1-7b2d-401d-b720-fcffffed3178"},"vehicle_type_id":"4","last_reported":1706727943,"current_range_meters":16800,"station_id":"ce4bh392rcd13ifvqdl0","pricing_plan_id":"free"},{"bike_id":"d5a0cc54-b66d-409c-9127-f068bdd1f22c","system_id":"levelo_inurba_marseille","lat":43.29253,"lon":5.37634,"is_reserved":false,"is_disabled":false,"rental_uris":{"android":"levelo://app?vid=d5a0cc54-b66d-409c-9127-f068bdd1f22c","ios":"levelo://app?vid=d5a0cc54-b66d-409c-9127-f068bdd1f22c"},"vehicle_type_id":"4","last_reported":1706727943,"current_range_meters":14000,"station_id":"","pricing_plan_id":"free"},{"bike_id":"78f3c2d9-a08f-45c9-a860-8dbae5071766","system_id":"levelo_inurba_marseille","lat":43.298764,"lon":5.388973,"is_reserved":false,"is_disabled":false,"rental_uris":{"android":"levelo://app?vid=78f3c2d9-a08f-45c9-a860-8dbae5071766","ios":"levelo://app?vid=78f3c2d9-a08f-45c9-a860-8dbae5071766"},"vehicle_type_id":"4","last_reported":1706727943,"current_range_meters":20400,"station_id":"ce4bh392rcd13ifvqdl0","pricing_plan_id":"free"},{"bike_id":"2bd35c8d-d398-46d0-bfce-42acf09a3b2c","system_id":"levelo_inurba_marseille","lat":43.291675,"lon":5.371583,"is_reserved":false,"is_disabled":false,"rental_uris":{"android":"levelo://app?vid=2bd35c8d-d398-46d0-bfce-42acf09a3b2c","ios":"levelo://app?vid=2bd35c8d-d398-46d0-bfce-42acf09a3b2c"},"vehicle_type_id":"4","last_reported":1706727943,"current_range_meters":0,"station_id":"ce4bha92rcd13ifvqeh0","pricing_plan_id":"free"},{"bike_id":"c6f1702e-3b77-407e-907d-84b7347518c1","system_id":"levelo_inurba_marseille","lat":43.298764,"lon":5.388973,"is_reserved":false,"is_disabled":false,"rental_uris":{"android":"levelo://app?vid=c6f1702e-3b77-407e-907d-84b7347518c1","ios":"levelo://app?vid=c6f1702e-3b77-407e-907d-84b7347518c1"},"vehicle_type_id":"4","last_reported":1706727943,"current_range_meters":14800,"station_id":"ce4bh392rcd13ifvqdl0","pricing_plan_id":"free"},{"bike_id":"5abc0860-6b57-4e64-bd45-9976ead10d0e","system_id":"levelo_inurba_marseille","lat":43.298764,"lon":5.388973,"is_reserved":false,"is_disabled":false,"rental_uris":{"android":"levelo://app?vid=5abc0860-6b57-4e64-bd45-9976ead10d0e","ios":"levelo://app?vid=5abc0860-6b57-4e64-bd45-9976ead10d0e"},"vehicle_type_id":"4","last_reported":1706727943,"current_range_meters":20400,"station_id":"ce4bh392rcd13ifvqdl0","pricing_plan_id":"free"},{"bike_id":"d61d5bf2-30cc-49c9-a2ed-f96af34b1ed9","system_id":"levelo_inurba_marseille","lat":43.291994,"lon":5.357886,"is_reserved":false,"is_disabled":false,"rental_uris":{"android":"levelo://app?vid=d61d5bf2-30cc-49c9-a2ed-f96af34b1ed9","ios":"levelo://app?vid=d61d5bf2-30cc-49c9-a2ed-f96af34b1ed9"},"vehicle_type_id":"4","last_reported":1706727943,"current_range_meters":18000,"station_id":"ce4bhb12rcd13ifvqel0","pricing_plan_id":"free"},{"bike_id":"8c8d8c96-3354-4eab-808f-3cabd988aa4b","system_id":"levelo_inurba_marseille","lat":43.313291,"lon":5.396838,"is_reserved":false,"is_disabled":false,"rental_uris":{"android":"levelo://app?vid=8c8d8c96-3354-4eab-808f-3cabd988aa4b","ios":"levelo://app?vid=8c8d8c96-3354-4eab-808f-3cabd988aa4b"},"vehicle_type_id":"4","last_reported":1706727943,"current_range_meters":23200,"station_id":"ce4bgvp2rcd13ifvqcu0","pricing_plan_id":"free"},{"bike_id":"06afb280-d542-4dd5-b60e-b7d3d296fbee","system_id":"levelo_inurba_marseille","lat":43.309038,"lon":5.396546,"is_reserved":false,"is_disabled":false,"rental_uris":{"android":"levelo://app?vid=06afb280-d542-4dd5-b60e-b7d3d296fbee","ios":"levelo://app?vid=06afb280-d542-4dd5-b60e-b7d3d296fbee"},"vehicle_type_id":"4","last_reported":1706727943,"current_range_meters":16400,"station_id":"ce4bh012rcd13ifvqcv0","pricing_plan_id":"free"},{"bike_id":"153ed029-925b-404c-a29f-63f526ab6166","system_id":"levelo_inurba_marseille","lat":43.313291,"lon":5.396838,"is_reserved":false,"is_disabled":false,"rental_uris":{"android":"levelo://app?vid=153ed029-925b-404c-a29f-63f526ab6166","ios":"levelo://app?vid=153ed029-925b-404c-a29f-63f526ab6166"},"vehicle_type_id":"4","last_reported":1706727943,"current_range_meters":9600,"station_id":"ce4bgvp2rcd13ifvqcu0","pricing_plan_id":"free"},{"bike_id":"a92478ed-9637-41c6-a66e-55d91dc9a78d","system_id":"levelo_inurba_marseille","lat":43.313291,"lon":5.396838,"is_reserved":false,"is_disabled":false,"rental_uris":{"android":"levelo://app?vid=a92478ed-9637-41c6-a66e-55d91dc9a78d","ios":"levelo://app?vid=a92478ed-9637-41c6-a66e-55d91dc9a78d"},"vehicle_type_id":"4","last_reported":1706727943,"current_range_meters":0,"station_id":"ce4bgvp2rcd13ifvqcu0","pricing_plan_id":"free"},{"bike_id":"4544aa02-15cb-442f-bf95-dda24b00f359","system_id":"levelo_inurba_marseille","lat":43.309038,"lon":5.396546,"is_reserved":false,"is_disabled":false,"rental_uris":{"android":"levelo://app?vid=4544aa02-15cb-442f-bf95-dda24b00f359","ios":"levelo://app?vid=4544aa02-15cb-442f-bf95-dda24b00f359"},"vehicle_type_id":"4","last_reported":1706727943,"current_range_meters":18000,"station_id":"ce4bh012rcd13ifvqcv0","pricing_plan_id":"free"},{"bike_id":"a53b1ff3-4836-4608-9f9e-a3e15bb84ca2","system_id":"levelo_inurba_marseille","lat":43.31331,"lon":5.39696,"is_reserved":false,"is_disabled":false,"rental_uris":{"android":"levelo://app?vid=a53b1ff3-4836-4608-9f9e-a3e15bb84ca2","ios":"levelo://app?vid=a53b1ff3-4836-4608-9f9e-a3e15bb84ca2"},"vehicle_type_id":"4","last_reported":1706727943,"current_range_meters":1600,"station_id":"ce4bgvp2rcd13ifvqcu0","pricing_plan_id":"free"},{"bike_id":"14fbdf76-be31-46db-b40f-b4a171537918","system_id":"levelo_inurba_marseille","lat":43.309047,"lon":5.396551,"is_reserved":false,"is_disabled":false,"rental_uris":{"android":"levelo://app?vid=14fbdf76-be31-46db-b40f-b4a171537918","ios":"levelo://app?vid=14fbdf76-be31-46db-b40f-b4a171537918"},"vehicle_type_id":"4","last_reported":1706727943,"current_range_meters":5600,"station_id":"ce4bh012rcd13ifvqcv0","pricing_plan_id":"free"},{"bike_id":"616adcec-eabb-4a02-8ecf-11e4fbc220cf","system_id":"levelo_inurba_marseille","lat":43.29529,"lon":5.385581,"is_reserved":false,"is_disabled":false,"rental_uris":{"android":"levelo://app?vid=616adcec-eabb-4a02-8ecf-11e4fbc220cf","ios":"levelo://app?vid=616adcec-eabb-4a02-8ecf-11e4fbc220cf"},"vehicle_type_id":"4","last_reported":1706727943,"current_range_meters":0,"station_id":"ce4bgih2rcd13ifvqba0","pricing_plan_id":"free"},{"bike_id":"127690b2-1170-4012-af8c-6f3e2e6e645b","system_id":"levelo_inurba_marseille","lat":43.29529,"lon":5.385581,"is_reserved":false,"is_disabled":false,"rental_uris":{"android":"levelo://app?vid=127690b2-1170-4012-af8c-6f3e2e6e645b","ios":"levelo://app?vid=127690b2-1170-4012-af8c-6f3e2e6e645b"},"vehicle_type_id":"4","last_reported":1706727943,"current_range_meters":4000,"station_id":"ce4bgih2rcd13ifvqba0","pricing_plan_id":"free"},{"bike_id":"f9662a96-84d0-4812-824e-68b1772c5ed3","system_id":"levelo_inurba_marseille","lat":43.29529,"lon":5.385581,"is_reserved":false,"is_disabled":false,"rental_uris":{"android":"levelo://app?vid=f9662a96-84d0-4812-824e-68b1772c5ed3","ios":"levelo://app?vid=f9662a96-84d0-4812-824e-68b1772c5ed3"},"vehicle_type_id":"4","last_reported":1706727943,"current_range_meters":6400,"station_id":"ce4bgih2rcd13ifvqba0","pricing_plan_id":"free"},{"bike_id":"ab12ea50-7449-4efc-8f77-89ec66ee1556","system_id":"levelo_inurba_marseille","lat":43.29527,"lon":5.385433,"is_reserved":false,"is_disabled":false,"rental_uris":{"android":"levelo://app?vid=ab12ea50-7449-4efc-8f77-89ec66ee1556","ios":"levelo://app?vid=ab12ea50-7449-4efc-8f77-89ec66ee1556"},"vehicle_type_id":"4","last_reported":1706727943,"current_range_meters":0,"station_id":"ce4bgih2rcd13ifvqba0","pricing_plan_id":"free"},{"bike_id":"9204efed-1635-4897-aa06-1f184de6b459","system_id":"levelo_inurba_marseille","lat":43.2953,"lon":5.38549,"is_reserved":false,"is_disabled":false,"rental_uris":{"android":"levelo://app?vid=9204efed-1635-4897-aa06-1f184de6b459","ios":"levelo://app?vid=9204efed-1635-4897-aa06-1f184de6b459"},"vehicle_type_id":"4","last_reported":1706727943,"current_range_meters":0,"station_id":"ce4bgih2rcd13ifvqba0","pricing_plan_id":"free"},{"bike_id":"90231a53-f8d3-4a57-a06f-946d4ec3dfee","system_id":"levelo_inurba_marseille","lat":43.29529,"lon":5.385581,"is_reserved":false,"is_disabled":false,"rental_uris":{"android":"levelo://app?vid=90231a53-f8d3-4a57-a06f-946d4ec3dfee","ios":"levelo://app?vid=90231a53-f8d3-4a57-a06f-946d4ec3dfee"},"vehicle_type_id":"4","last_reported":1706727943,"current_range_meters":0,"station_id":"ce4bgih2rcd13ifvqba0","pricing_plan_id":"free"},{"bike_id":"1f336b02-f060-4f5f-80f1-134dee4311bf","system_id":"levelo_inurba_marseille","lat":43.29529,"lon":5.38549,"is_reserved":false,"is_disabled":false,"rental_uris":{"android":"levelo://app?vid=1f336b02-f060-4f5f-80f1-134dee4311bf","ios":"levelo://app?vid=1f336b02-f060-4f5f-80f1-134dee4311bf"},"vehicle_type_id":"4","last_reported":1706727943,"current_range_meters":0,"station_id":"ce4bgih2rcd13ifvqba0","pricing_plan_id":"free"},{"bike_id":"b3894075-4d78-4f2b-ac94-359a123cb540","system_id":"levelo_inurba_marseille","lat":43.290104,"lon":5.356111,"is_reserved":false,"is_disabled":false,"rental_uris":{"android":"levelo://app?vid=b3894075-4d78-4f2b-ac94-359a123cb540","ios":"levelo://app?vid=b3894075-4d78-4f2b-ac94-359a123cb540"},"vehicle_type_id":"4","last_reported":1706727943,"current_range_meters":19600,"station_id":"ce4bhb92rcd13ifvqen0","pricing_plan_id":"free"},{"bike_id":"b3f507d3-b731-4eb6-bb0f-2df076a9d5f9","system_id":"levelo_inurba_marseille","lat":43.30228,"lon":5.39468,"is_reserved":false,"is_disabled":false,"rental_uris":{"android":"levelo://app?vid=b3f507d3-b731-4eb6-bb0f-2df076a9d5f9","ios":"levelo://app?vid=b3f507d3-b731-4eb6-bb0f-2df076a9d5f9"},"vehicle_type_id":"4","last_reported":1706727943,"current_range_meters":14800,"station_id":"ce4bh0p2rcd13ifvqd70","pricing_plan_id":"free"},{"bike_id":"e7dcdd9b-b073-4352-8ebe-7f512d5522b9","system_id":"levelo_inurba_marseille","lat":43.30221,"lon":5.39469,"is_reserved":false,"is_disabled":false,"rental_uris":{"android":"levelo://app?vid=e7dcdd9b-b073-4352-8ebe-7f512d5522b9","ios":"levelo://app?vid=e7dcdd9b-b073-4352-8ebe-7f512d5522b9"},"vehicle_type_id":"4","last_reported":1706727943,"current_range_meters":21600,"station_id":"ce4bh0p2rcd13ifvqd70","pricing_plan_id":"free"},{"bike_id":"71983818-e9b2-47ce-a350-84451725dd36","system_id":"levelo_inurba_marseille","lat":43.30219,"lon":5.39474,"is_reserved":false,"is_disabled":false,"rental_uris":{"android":"levelo://app?vid=71983818-e9b2-47ce-a350-84451725dd36","ios":"levelo://app?vid=71983818-e9b2-47ce-a350-84451725dd36"},"vehicle_type_id":"4","last_reported":1706727943,"current_range_meters":1200,"station_id":"ce4bh0p2rcd13ifvqd70","pricing_plan_id":"free"},{"bike_id":"85d26d74-98c6-4005-8d22-0246ed297cd0","system_id":"levelo_inurba_marseille","lat":43.30224,"lon":5.3948,"is_reserved":false,"is_disabled":false,"rental_uris":{"android":"levelo://app?vid=85d26d74-98c6-4005-8d22-0246ed297cd0","ios":"levelo://app?vid=85d26d74-98c6-4005-8d22-0246ed297cd0"},"vehicle_type_id":"4","last_reported":1706727943,"current_range_meters":23600,"station_id":"ce4bh0p2rcd13ifvqd70","pricing_plan_id":"free"},{"bike_id":"7137ffbd-1cc9-4c4a-a9ad-e5317a59f5e7","system_id":"levelo_inurba_marseille","lat":43.30208,"lon":5.39469,"is_reserved":false,"is_disabled":false,"rental_uris":{"android":"levelo://app?vid=7137ffbd-1cc9-4c4a-a9ad-e5317a59f5e7","ios":"levelo://app?vid=7137ffbd-1cc9-4c4a-a9ad-e5317a59f5e7"},"vehicle_type_id":"4","last_reported":1706727943,"current_range_meters":20800,"station_id":"ce4bh0p2rcd13ifvqd70","pricing_plan_id":"free"},{"bike_id":"fec50300-a1e2-4c2d-bcc7-c2136a2de304","system_id":"levelo_inurba_marseille","lat":43.30208,"lon":5.39478,"is_reserved":false,"is_disabled":false,"rental_uris":{"android":"levelo://app?vid=fec50300-a1e2-4c2d-bcc7-c2136a2de304","ios":"levelo://app?vid=fec50300-a1e2-4c2d-bcc7-c2136a2de304"},"vehicle_type_id":"4","last_reported":1706727943,"current_range_meters":4000,"station_id":"ce4bh0p2rcd13ifvqd70","pricing_plan_id":"free"},{"bike_id":"2f446ea8-41f6-4ffb-9528-ea9085b78d17","system_id":"levelo_inurba_marseille","lat":43.294337,"lon":5.385781,"is_reserved":false,"is_disabled":false,"rental_uris":{"android":"levelo://app?vid=2f446ea8-41f6-4ffb-9528-ea9085b78d17","ios":"levelo://app?vid=2f446ea8-41f6-4ffb-9528-ea9085b78d17"},"vehicle_type_id":"4","last_reported":1706727943,"current_range_meters":1600,"station_id":"ce4bh2h2rcd13ifvqdh0","pricing_plan_id":"free"},{"bike_id":"7999414f-6546-439b-b701-0027b24c97fd","system_id":"levelo_inurba_marseille","lat":43.290624,"lon":5.359245,"is_reserved":false,"is_disabled":false,"rental_uris":{"android":"levelo://app?vid=7999414f-6546-439b-b701-0027b24c97fd","ios":"levelo://app?vid=7999414f-6546-439b-b701-0027b24c97fd"},"vehicle_type_id":"4","last_reported":1706727943,"current_range_meters":0,"station_id":"ce4bha92rcd13ifvqeg0","pricing_plan_id":"free"},{"bike_id":"c2d86e6d-af06-4187-95e1-cc39799d7238","system_id":"levelo_inurba_marseille","lat":43.290624,"lon":5.359245,"is_reserved":false,"is_disabled":false,"rental_uris":{"android":"levelo://app?vid=c2d86e6d-af06-4187-95e1-cc39799d7238","ios":"levelo://app?vid=c2d86e6d-af06-4187-95e1-cc39799d7238"},"vehicle_type_id":"4","last_reported":1706727943,"current_range_meters":21200,"station_id":"ce4bha92rcd13ifvqeg0","pricing_plan_id":"free"},{"bike_id":"2c1e47ad-3478-424c-8c66-23a600b1f0dc","system_id":"levelo_inurba_marseille","lat":43.290441,"lon":5.359123,"is_reserved":false,"is_disabled":false,"rental_uris":{"android":"levelo://app?vid=2c1e47ad-3478-424c-8c66-23a600b1f0dc","ios":"levelo://app?vid=2c1e47ad-3478-424c-8c66-23a600b1f0dc"},"vehicle_type_id":"4","last_reported":1706727943,"current_range_meters":13200,"station_id":"","pricing_plan_id":"free"},{"bike_id":"f871dd82-c736-47b6-8da4-07c72500ac98","system_id":"levelo_inurba_marseille","lat":43.290624,"lon":5.359245,"is_reserved":false,"is_disabled":false,"rental_uris":{"android":"levelo://app?vid=f871dd82-c736-47b6-8da4-07c72500ac98","ios":"levelo://app?vid=f871dd82-c736-47b6-8da4-07c72500ac98"},"vehicle_type_id":"4","last_reported":1706727943,"current_range_meters":2400,"station_id":"ce4bha92rcd13ifvqeg0","pricing_plan_id":"free"},{"bike_id":"f7d8ae8b-84ee-4df8-bb44-f21c5fd7fb89","system_id":"levelo_inurba_marseille","lat":43.290327,"lon":5.375711,"is_reserved":false,"is_disabled":false,"rental_uris":{"android":"levelo://app?vid=f7d8ae8b-84ee-4df8-bb44-f21c5fd7fb89","ios":"levelo://app?vid=f7d8ae8b-84ee-4df8-bb44-f21c5fd7fb89"},"vehicle_type_id":"4","last_reported":1706727943,"current_range_meters":12000,"station_id":"ce4bh692rcd13ifvqe90","pricing_plan_id":"free"},{"bike_id":"3ec5be11-0d25-4ea0-84ce-58546eb94924","system_id":"levelo_inurba_marseille","lat":43.2942,"lon":5.38618,"is_reserved":false,"is_disabled":false,"rental_uris":{"android":"levelo://app?vid=3ec5be11-0d25-4ea0-84ce-58546eb94924","ios":"levelo://app?vid=3ec5be11-0d25-4ea0-84ce-58546eb94924"},"vehicle_type_id":"4","last_reported":1706727943,"current_range_meters":2800,"station_id":"ce4bh2h2rcd13ifvqdh0","pricing_plan_id":"free"},{"bike_id":"0b5d7cb2-82b1-4f96-a504-146b3e8b7ce3","system_id":"levelo_inurba_marseille","lat":43.29421,"lon":5.3862,"is_reserved":false,"is_disabled":false,"rental_uris":{"android":"levelo://app?vid=0b5d7cb2-82b1-4f96-a504-146b3e8b7ce3","ios":"levelo://app?vid=0b5d7cb2-82b1-4f96-a504-146b3e8b7ce3"},"vehicle_type_id":"4","last_reported":1706727943,"current_range_meters":12400,"station_id":"ce4bh2h2rcd13ifvqdh0","pricing_plan_id":"free"},{"bike_id":"198a9b99-0674-4643-81ce-607598364fae","system_id":"levelo_inurba_marseille","lat":43.29419,"lon":5.38618,"is_reserved":false,"is_disabled":false,"rental_uris":{"android":"levelo://app?vid=198a9b99-0674-4643-81ce-607598364fae","ios":"levelo://app?vid=198a9b99-0674-4643-81ce-607598364fae"},"vehicle_type_id":"4","last_reported":1706727943,"current_range_meters":6000,"station_id":"ce4bh2h2rcd13ifvqdh0","pricing_plan_id":"free"},{"bike_id":"07c78788-2f68-4a23-829a-4857bd46995b","system_id":"levelo_inurba_marseille","lat":43.29423,"lon":5.38628,"is_reserved":false,"is_disabled":false,"rental_uris":{"android":"levelo://app?vid=07c78788-2f68-4a23-829a-4857bd46995b","ios":"levelo://app?vid=07c78788-2f68-4a23-829a-4857bd46995b"},"vehicle_type_id":"4","last_reported":1706727943,"current_range_meters":7200,"station_id":"ce4bh2h2rcd13ifvqdh0","pricing_plan_id":"free"},{"bike_id":"3c610381-857a-42c3-a7c3-20040c0a943f","system_id":"levelo_inurba_marseille","lat":43.2942,"lon":5.38623,"is_reserved":false,"is_disabled":false,"rental_uris":{"android":"levelo://app?vid=3c610381-857a-42c3-a7c3-20040c0a943f","ios":"levelo://app?vid=3c610381-857a-42c3-a7c3-20040c0a943f"},"vehicle_type_id":"4","last_reported":1706727943,"current_range_meters":1600,"station_id":"ce4bh2h2rcd13ifvqdh0","pricing_plan_id":"free"},{"bike_id":"9397cc24-5686-485d-bcb8-d2123a099d94","system_id":"levelo_inurba_marseille","lat":43.294153,"lon":5.386305,"is_reserved":false,"is_disabled":false,"rental_uris":{"android":"levelo://app?vid=9397cc24-5686-485d-bcb8-d2123a099d94","ios":"levelo://app?vid=9397cc24-5686-485d-bcb8-d2123a099d94"},"vehicle_type_id":"4","last_reported":1706727943,"current_range_meters":14000,"station_id":"ce4bh2h2rcd13ifvqdh0","pricing_plan_id":"free"},{"bike_id":"4c86dc04-08c4-402d-9f0d-79418cc6c39f","system_id":"levelo_inurba_marseille","lat":43.2942,"lon":5.38625,"is_reserved":false,"is_disabled":false,"rental_uris":{"android":"levelo://app?vid=4c86dc04-08c4-402d-9f0d-79418cc6c39f","ios":"levelo://app?vid=4c86dc04-08c4-402d-9f0d-79418cc6c39f"},"vehicle_type_id":"4","last_reported":1706727943,"current_range_meters":8000,"station_id":"ce4bh2h2rcd13ifvqdh0","pricing_plan_id":"free"},{"bike_id":"886bfb12-b794-4840-b490-20b768e73389","system_id":"levelo_inurba_marseille","lat":43.29418,"lon":5.38622,"is_reserved":false,"is_disabled":false,"rental_uris":{"android":"levelo://app?vid=886bfb12-b794-4840-b490-20b768e73389","ios":"levelo://app?vid=886bfb12-b794-4840-b490-20b768e73389"},"vehicle_type_id":"4","last_reported":1706727943,"current_range_meters":1600,"station_id":"ce4bh2h2rcd13ifvqdh0","pricing_plan_id":"free"},{"bike_id":"592a499f-813a-4e2a-acb6-d79996e5c52a","system_id":"levelo_inurba_marseille","lat":43.29419,"lon":5.38624,"is_reserved":false,"is_disabled":false,"rental_uris":{"android":"levelo://app?vid=592a499f-813a-4e2a-acb6-d79996e5c52a","ios":"levelo://app?vid=592a499f-813a-4e2a-acb6-d79996e5c52a"},"vehicle_type_id":"4","last_reported":1706727943,"current_range_meters":3200,"station_id":"ce4bh2h2rcd13ifvqdh0","pricing_plan_id":"free"},{"bike_id":"ea889406-3c5e-4512-98a2-1127d886f24e","system_id":"levelo_inurba_marseille","lat":43.29418,"lon":5.38626,"is_reserved":false,"is_disabled":false,"rental_uris":{"android":"levelo://app?vid=ea889406-3c5e-4512-98a2-1127d886f24e","ios":"levelo://app?vid=ea889406-3c5e-4512-98a2-1127d886f24e"},"vehicle_type_id":"4","last_reported":1706727943,"current_range_meters":2800,"station_id":"ce4bh2h2rcd13ifvqdh0","pricing_plan_id":"free"},{"bike_id":"fd678c68-6897-4ec9-afdb-c0f3750ae455","system_id":"levelo_inurba_marseille","lat":43.29417,"lon":5.38625,"is_reserved":false,"is_disabled":false,"rental_uris":{"android":"levelo://app?vid=fd678c68-6897-4ec9-afdb-c0f3750ae455","ios":"levelo://app?vid=fd678c68-6897-4ec9-afdb-c0f3750ae455"},"vehicle_type_id":"4","last_reported":1706727943,"current_range_meters":3200,"station_id":"ce4bh2h2rcd13ifvqdh0","pricing_plan_id":"free"},{"bike_id":"3b64dcfa-5892-4fd7-b4e4-bba67e0ecde9","system_id":"levelo_inurba_marseille","lat":43.29423,"lon":5.38639,"is_reserved":false,"is_disabled":false,"rental_uris":{"android":"levelo://app?vid=3b64dcfa-5892-4fd7-b4e4-bba67e0ecde9","ios":"levelo://app?vid=3b64dcfa-5892-4fd7-b4e4-bba67e0ecde9"},"vehicle_type_id":"4","last_reported":1706727943,"current_range_meters":5200,"station_id":"ce4bh2h2rcd13ifvqdh0","pricing_plan_id":"free"},{"bike_id":"1d1f0791-6e49-4bd0-8307-a43c57b72eaa","system_id":"levelo_inurba_marseille","lat":43.29411,"lon":5.3862,"is_reserved":false,"is_disabled":false,"rental_uris":{"android":"levelo://app?vid=1d1f0791-6e49-4bd0-8307-a43c57b72eaa","ios":"levelo://app?vid=1d1f0791-6e49-4bd0-8307-a43c57b72eaa"},"vehicle_type_id":"4","last_reported":1706727943,"current_range_meters":0,"station_id":"ce4bh2h2rcd13ifvqdh0","pricing_plan_id":"free"},{"bike_id":"a05f4dd0-260a-4190-916e-9ef07e4bc05b","system_id":"levelo_inurba_marseille","lat":43.29415,"lon":5.38628,"is_reserved":false,"is_disabled":false,"rental_uris":{"android":"levelo://app?vid=a05f4dd0-260a-4190-916e-9ef07e4bc05b","ios":"levelo://app?vid=a05f4dd0-260a-4190-916e-9ef07e4bc05b"},"vehicle_type_id":"4","last_reported":1706727943,"current_range_meters":0,"station_id":"ce4bh2h2rcd13ifvqdh0","pricing_plan_id":"free"},{"bike_id":"edca5b5f-b0cc-46a8-9e30-bcf1b73fe563","system_id":"levelo_inurba_marseille","lat":43.294153,"lon":5.386305,"is_reserved":false,"is_disabled":false,"rental_uris":{"android":"levelo://app?vid=edca5b5f-b0cc-46a8-9e30-bcf1b73fe563","ios":"levelo://app?vid=edca5b5f-b0cc-46a8-9e30-bcf1b73fe563"},"vehicle_type_id":"4","last_reported":1706727943,"current_range_meters":0,"station_id":"ce4bh2h2rcd13ifvqdh0","pricing_plan_id":"free"},{"bike_id":"49f74e21-ea92-4777-ad29-ac25c0db7f87","system_id":"levelo_inurba_marseille","lat":43.289184,"lon":5.366408,"is_reserved":false,"is_disabled":false,"rental_uris":{"android":"levelo://app?vid=49f74e21-ea92-4777-ad29-ac25c0db7f87","ios":"levelo://app?vid=49f74e21-ea92-4777-ad29-ac25c0db7f87"},"vehicle_type_id":"4","last_reported":1706727943,"current_range_meters":12800,"station_id":"ce4bhap2rcd13ifvqek0","pricing_plan_id":"free"},{"bike_id":"28f3da58-5aff-488f-a9b4-60d8b6efe704","system_id":"levelo_inurba_marseille","lat":43.294153,"lon":5.386305,"is_reserved":false,"is_disabled":false,"rental_uris":{"android":"levelo://app?vid=28f3da58-5aff-488f-a9b4-60d8b6efe704","ios":"levelo://app?vid=28f3da58-5aff-488f-a9b4-60d8b6efe704"},"vehicle_type_id":"4","last_reported":1706727943,"current_range_meters":800,"station_id":"ce4bh2h2rcd13ifvqdh0","pricing_plan_id":"free"},{"bike_id":"015e5cec-6f94-417f-9915-6f7d80d43033","system_id":"levelo_inurba_marseille","lat":43.289184,"lon":5.366408,"is_reserved":false,"is_disabled":false,"rental_uris":{"android":"levelo://app?vid=015e5cec-6f94-417f-9915-6f7d80d43033","ios":"levelo://app?vid=015e5cec-6f94-417f-9915-6f7d80d43033"},"vehicle_type_id":"4","last_reported":1706727943,"current_range_meters":400,"station_id":"ce4bhap2rcd13ifvqek0","pricing_plan_id":"free"},{"bike_id":"267c4fb6-cce5-4224-9f79-ddf50aacbc65","system_id":"levelo_inurba_marseille","lat":43.289468,"lon":5.363719,"is_reserved":false,"is_disabled":false,"rental_uris":{"android":"levelo://app?vid=267c4fb6-cce5-4224-9f79-ddf50aacbc65","ios":"levelo://app?vid=267c4fb6-cce5-4224-9f79-ddf50aacbc65"},"vehicle_type_id":"4","last_reported":1706727943,"current_range_meters":24800,"station_id":"ce4bhc92rcd13ifvqetg","pricing_plan_id":"free"},{"bike_id":"b9c12e9a-1940-4a2c-8358-a01503ce6424","system_id":"levelo_inurba_marseille","lat":43.289184,"lon":5.366408,"is_reserved":false,"is_disabled":false,"rental_uris":{"android":"levelo://app?vid=b9c12e9a-1940-4a2c-8358-a01503ce6424","ios":"levelo://app?vid=b9c12e9a-1940-4a2c-8358-a01503ce6424"},"vehicle_type_id":"4","last_reported":1706727943,"current_range_meters":16400,"station_id":"ce4bhap2rcd13ifvqek0","pricing_plan_id":"free"},{"bike_id":"6fc3d050-3a5f-4361-b561-6bf2b9b8074f","system_id":"levelo_inurba_marseille","lat":43.289468,"lon":5.363719,"is_reserved":false,"is_disabled":false,"rental_uris":{"android":"levelo://app?vid=6fc3d050-3a5f-4361-b561-6bf2b9b8074f","ios":"levelo://app?vid=6fc3d050-3a5f-4361-b561-6bf2b9b8074f"},"vehicle_type_id":"4","last_reported":1706727943,"current_range_meters":15600,"station_id":"ce4bhc92rcd13ifvqetg","pricing_plan_id":"free"},{"bike_id":"b08446d7-2439-4f96-8ace-944b29af1f0b","system_id":"levelo_inurba_marseille","lat":43.289468,"lon":5.363719,"is_reserved":false,"is_disabled":false,"rental_uris":{"android":"levelo://app?vid=b08446d7-2439-4f96-8ace-944b29af1f0b","ios":"levelo://app?vid=b08446d7-2439-4f96-8ace-944b29af1f0b"},"vehicle_type_id":"4","last_reported":1706727943,"current_range_meters":4800,"station_id":"ce4bhc92rcd13ifvqetg","pricing_plan_id":"free"},{"bike_id":"2d18ab25-689c-45a3-8604-eb3f93206bd3","system_id":"levelo_inurba_marseille","lat":43.2893,"lon":5.363973,"is_reserved":false,"is_disabled":false,"rental_uris":{"android":"levelo://app?vid=2d18ab25-689c-45a3-8604-eb3f93206bd3","ios":"levelo://app?vid=2d18ab25-689c-45a3-8604-eb3f93206bd3"},"vehicle_type_id":"4","last_reported":1706727943,"current_range_meters":2800,"station_id":"ce4bhc92rcd13ifvqetg","pricing_plan_id":"free"},{"bike_id":"7372e840-88b8-4f45-a6f9-95607e9241b6","system_id":"levelo_inurba_marseille","lat":43.29273,"lon":5.38428,"is_reserved":false,"is_disabled":false,"rental_uris":{"android":"levelo://app?vid=7372e840-88b8-4f45-a6f9-95607e9241b6","ios":"levelo://app?vid=7372e840-88b8-4f45-a6f9-95607e9241b6"},"vehicle_type_id":"4","last_reported":1706727943,"current_range_meters":800,"station_id":"ce4bh692rcd13ifvqea0","pricing_plan_id":"free"},{"bike_id":"064bb0ed-8775-4f24-968a-c06aee99b668","system_id":"levelo_inurba_marseille","lat":43.292642,"lon":5.384254,"is_reserved":false,"is_disabled":false,"rental_uris":{"android":"levelo://app?vid=064bb0ed-8775-4f24-968a-c06aee99b668","ios":"levelo://app?vid=064bb0ed-8775-4f24-968a-c06aee99b668"},"vehicle_type_id":"4","last_reported":1706727943,"current_range_meters":11600,"station_id":"ce4bh692rcd13ifvqea0","pricing_plan_id":"free"},{"bike_id":"70956856-b160-4b16-9d30-43148f90e84b","system_id":"levelo_inurba_marseille","lat":43.304274,"lon":5.397513,"is_reserved":false,"is_disabled":false,"rental_uris":{"android":"levelo://app?vid=70956856-b160-4b16-9d30-43148f90e84b","ios":"levelo://app?vid=70956856-b160-4b16-9d30-43148f90e84b"},"vehicle_type_id":"4","last_reported":1706727943,"current_range_meters":2800,"station_id":"ce4bh092rcd13ifvqd20","pricing_plan_id":"free"},{"bike_id":"15f14774-323f-46b3-b8bc-d4bf01100cc9","system_id":"levelo_inurba_marseille","lat":43.292751,"lon":5.384427,"is_reserved":false,"is_disabled":false,"rental_uris":{"android":"levelo://app?vid=15f14774-323f-46b3-b8bc-d4bf01100cc9","ios":"levelo://app?vid=15f14774-323f-46b3-b8bc-d4bf01100cc9"},"vehicle_type_id":"4","last_reported":1706727943,"current_range_meters":21600,"station_id":"ce4bh692rcd13ifvqea0","pricing_plan_id":"free"},{"bike_id":"6dc46c2a-e3dc-434f-a6a0-da0325e5cd49","system_id":"levelo_inurba_marseille","lat":43.29272,"lon":5.38438,"is_reserved":false,"is_disabled":false,"rental_uris":{"android":"levelo://app?vid=6dc46c2a-e3dc-434f-a6a0-da0325e5cd49","ios":"levelo://app?vid=6dc46c2a-e3dc-434f-a6a0-da0325e5cd49"},"vehicle_type_id":"4","last_reported":1706727943,"current_range_meters":6400,"station_id":"ce4bh692rcd13ifvqea0","pricing_plan_id":"free"},{"bike_id":"0264069d-612f-4151-927b-a5c66b80ca19","system_id":"levelo_inurba_marseille","lat":43.304274,"lon":5.397513,"is_reserved":false,"is_disabled":false,"rental_uris":{"android":"levelo://app?vid=0264069d-612f-4151-927b-a5c66b80ca19","ios":"levelo://app?vid=0264069d-612f-4151-927b-a5c66b80ca19"},"vehicle_type_id":"4","last_reported":1706727943,"current_range_meters":400,"station_id":"ce4bh092rcd13ifvqd20","pricing_plan_id":"free"},{"bike_id":"6566743e-d117-43bb-bd07-11dd73c309de","system_id":"levelo_inurba_marseille","lat":43.30435,"lon":5.39746,"is_reserved":false,"is_disabled":false,"rental_uris":{"android":"levelo://app?vid=6566743e-d117-43bb-bd07-11dd73c309de","ios":"levelo://app?vid=6566743e-d117-43bb-bd07-11dd73c309de"},"vehicle_type_id":"4","last_reported":1706727943,"current_range_meters":4800,"station_id":"","pricing_plan_id":"free"},{"bike_id":"d0796a25-87a7-4830-9c31-ae81d4193175","system_id":"levelo_inurba_marseille","lat":43.292642,"lon":5.384254,"is_reserved":false,"is_disabled":false,"rental_uris":{"android":"levelo://app?vid=d0796a25-87a7-4830-9c31-ae81d4193175","ios":"levelo://app?vid=d0796a25-87a7-4830-9c31-ae81d4193175"},"vehicle_type_id":"4","last_reported":1706727943,"current_range_meters":21200,"station_id":"ce4bh692rcd13ifvqea0","pricing_plan_id":"free"},{"bike_id":"834c5836-566f-47b6-a503-bcc40cc73e04","system_id":"levelo_inurba_marseille","lat":43.304296,"lon":5.397513,"is_reserved":false,"is_disabled":false,"rental_uris":{"android":"levelo://app?vid=834c5836-566f-47b6-a503-bcc40cc73e04","ios":"levelo://app?vid=834c5836-566f-47b6-a503-bcc40cc73e04"},"vehicle_type_id":"4","last_reported":1706727943,"current_range_meters":23200,"station_id":"ce4bh092rcd13ifvqd20","pricing_plan_id":"free"},{"bike_id":"fe585eb4-e793-44fa-afb4-5866ec924e94","system_id":"levelo_inurba_marseille","lat":43.304296,"lon":5.397513,"is_reserved":false,"is_disabled":false,"rental_uris":{"android":"levelo://app?vid=fe585eb4-e793-44fa-afb4-5866ec924e94","ios":"levelo://app?vid=fe585eb4-e793-44fa-afb4-5866ec924e94"},"vehicle_type_id":"4","last_reported":1706727943,"current_range_meters":15200,"station_id":"ce4bh092rcd13ifvqd20","pricing_plan_id":"free"},{"bike_id":"a1cc3db0-35ee-4576-ae5b-04287e51bd73","system_id":"levelo_inurba_marseille","lat":43.292642,"lon":5.384254,"is_reserved":false,"is_disabled":false,"rental_uris":{"android":"levelo://app?vid=a1cc3db0-35ee-4576-ae5b-04287e51bd73","ios":"levelo://app?vid=a1cc3db0-35ee-4576-ae5b-04287e51bd73"},"vehicle_type_id":"4","last_reported":1706727943,"current_range_meters":18000,"station_id":"ce4bh692rcd13ifvqea0","pricing_plan_id":"free"},{"bike_id":"0a352360-a512-46ff-9310-4cefd6265f09","system_id":"levelo_inurba_marseille","lat":43.292642,"lon":5.384254,"is_reserved":false,"is_disabled":false,"rental_uris":{"android":"levelo://app?vid=0a352360-a512-46ff-9310-4cefd6265f09","ios":"levelo://app?vid=0a352360-a512-46ff-9310-4cefd6265f09"},"vehicle_type_id":"4","last_reported":1706727943,"current_range_meters":28800,"station_id":"ce4bh692rcd13ifvqea0","pricing_plan_id":"free"},{"bike_id":"2b9e1ded-add9-4af3-b289-52fa6e84c06d","system_id":"levelo_inurba_marseille","lat":43.292642,"lon":5.384254,"is_reserved":false,"is_disabled":false,"rental_uris":{"android":"levelo://app?vid=2b9e1ded-add9-4af3-b289-52fa6e84c06d","ios":"levelo://app?vid=2b9e1ded-add9-4af3-b289-52fa6e84c06d"},"vehicle_type_id":"4","last_reported":1706727943,"current_range_meters":4800,"station_id":"ce4bh692rcd13ifvqea0","pricing_plan_id":"free"},{"bike_id":"9d04630c-3cac-442c-a8c3-ea5d2d008f72","system_id":"levelo_inurba_marseille","lat":43.292642,"lon":5.384254,"is_reserved":false,"is_disabled":false,"rental_uris":{"android":"levelo://app?vid=9d04630c-3cac-442c-a8c3-ea5d2d008f72","ios":"levelo://app?vid=9d04630c-3cac-442c-a8c3-ea5d2d008f72"},"vehicle_type_id":"4","last_reported":1706727943,"current_range_meters":27600,"station_id":"ce4bh692rcd13ifvqea0","pricing_plan_id":"free"},{"bike_id":"351d5353-6ae3-4ed6-9348-83c45c7bc141","system_id":"levelo_inurba_marseille","lat":43.304274,"lon":5.397513,"is_reserved":false,"is_disabled":false,"rental_uris":{"android":"levelo://app?vid=351d5353-6ae3-4ed6-9348-83c45c7bc141","ios":"levelo://app?vid=351d5353-6ae3-4ed6-9348-83c45c7bc141"},"vehicle_type_id":"4","last_reported":1706727943,"current_range_meters":18800,"station_id":"ce4bh092rcd13ifvqd20","pricing_plan_id":"free"},{"bike_id":"a4b9a111-8c4b-4e88-b65c-86535cdb6fbe","system_id":"levelo_inurba_marseille","lat":43.292642,"lon":5.384254,"is_reserved":false,"is_disabled":false,"rental_uris":{"android":"levelo://app?vid=a4b9a111-8c4b-4e88-b65c-86535cdb6fbe","ios":"levelo://app?vid=a4b9a111-8c4b-4e88-b65c-86535cdb6fbe"},"vehicle_type_id":"4","last_reported":1706727943,"current_range_meters":800,"station_id":"ce4bh692rcd13ifvqea0","pricing_plan_id":"free"},{"bike_id":"1e559c23-3008-486f-8daa-c3f143aca671","system_id":"levelo_inurba_marseille","lat":43.29266,"lon":5.38444,"is_reserved":false,"is_disabled":false,"rental_uris":{"android":"levelo://app?vid=1e559c23-3008-486f-8daa-c3f143aca671","ios":"levelo://app?vid=1e559c23-3008-486f-8daa-c3f143aca671"},"vehicle_type_id":"4","last_reported":1706727943,"current_range_meters":8400,"station_id":"ce4bh692rcd13ifvqea0","pricing_plan_id":"free"},{"bike_id":"91026319-f18b-476d-af5c-220b2f1ba1d2","system_id":"levelo_inurba_marseille","lat":43.29263,"lon":5.38439,"is_reserved":false,"is_disabled":false,"rental_uris":{"android":"levelo://app?vid=91026319-f18b-476d-af5c-220b2f1ba1d2","ios":"levelo://app?vid=91026319-f18b-476d-af5c-220b2f1ba1d2"},"vehicle_type_id":"4","last_reported":1706727943,"current_range_meters":0,"station_id":"ce4bh692rcd13ifvqea0","pricing_plan_id":"free"},{"bike_id":"b43ca8a3-6430-4a02-991f-e2bd6cdc041a","system_id":"levelo_inurba_marseille","lat":43.29262,"lon":5.38439,"is_reserved":false,"is_disabled":false,"rental_uris":{"android":"levelo://app?vid=b43ca8a3-6430-4a02-991f-e2bd6cdc041a","ios":"levelo://app?vid=b43ca8a3-6430-4a02-991f-e2bd6cdc041a"},"vehicle_type_id":"4","last_reported":1706727943,"current_range_meters":7200,"station_id":"ce4bh692rcd13ifvqea0","pricing_plan_id":"free"},{"bike_id":"ecc67b76-3aa0-41a6-a333-43d2b0ee9da9","system_id":"levelo_inurba_marseille","lat":43.292642,"lon":5.384254,"is_reserved":false,"is_disabled":false,"rental_uris":{"android":"levelo://app?vid=ecc67b76-3aa0-41a6-a333-43d2b0ee9da9","ios":"levelo://app?vid=ecc67b76-3aa0-41a6-a333-43d2b0ee9da9"},"vehicle_type_id":"4","last_reported":1706727943,"current_range_meters":0,"station_id":"ce4bh692rcd13ifvqea0","pricing_plan_id":"free"},{"bike_id":"7359d797-4afe-4dd9-b537-07212dc9c3f6","system_id":"levelo_inurba_marseille","lat":43.29262,"lon":5.38442,"is_reserved":false,"is_disabled":false,"rental_uris":{"android":"levelo://app?vid=7359d797-4afe-4dd9-b537-07212dc9c3f6","ios":"levelo://app?vid=7359d797-4afe-4dd9-b537-07212dc9c3f6"},"vehicle_type_id":"4","last_reported":1706727943,"current_range_meters":19600,"station_id":"ce4bh692rcd13ifvqea0","pricing_plan_id":"free"},{"bike_id":"7b0a071a-0244-42d3-8ad8-5377ee9f8507","system_id":"levelo_inurba_marseille","lat":43.29259,"lon":5.38439,"is_reserved":false,"is_disabled":false,"rental_uris":{"android":"levelo://app?vid=7b0a071a-0244-42d3-8ad8-5377ee9f8507","ios":"levelo://app?vid=7b0a071a-0244-42d3-8ad8-5377ee9f8507"},"vehicle_type_id":"4","last_reported":1706727943,"current_range_meters":22000,"station_id":"ce4bh692rcd13ifvqea0","pricing_plan_id":"free"},{"bike_id":"62c924c3-e4dc-47cb-9f82-b63132622a92","system_id":"levelo_inurba_marseille","lat":43.304274,"lon":5.397513,"is_reserved":false,"is_disabled":false,"rental_uris":{"android":"levelo://app?vid=62c924c3-e4dc-47cb-9f82-b63132622a92","ios":"levelo://app?vid=62c924c3-e4dc-47cb-9f82-b63132622a92"},"vehicle_type_id":"4","last_reported":1706727943,"current_range_meters":4000,"station_id":"ce4bh092rcd13ifvqd20","pricing_plan_id":"free"},{"bike_id":"480394ad-bc92-4bca-98c5-605a02056b72","system_id":"levelo_inurba_marseille","lat":43.290104,"lon":5.356111,"is_reserved":false,"is_disabled":false,"rental_uris":{"android":"levelo://app?vid=480394ad-bc92-4bca-98c5-605a02056b72","ios":"levelo://app?vid=480394ad-bc92-4bca-98c5-605a02056b72"},"vehicle_type_id":"4","last_reported":1706727943,"current_range_meters":25200,"station_id":"ce4bhb92rcd13ifvqen0","pricing_plan_id":"free"},{"bike_id":"2379e296-6fd3-4197-b8cf-710c08b36467","system_id":"levelo_inurba_marseille","lat":43.290103,"lon":5.356114,"is_reserved":false,"is_disabled":false,"rental_uris":{"android":"levelo://app?vid=2379e296-6fd3-4197-b8cf-710c08b36467","ios":"levelo://app?vid=2379e296-6fd3-4197-b8cf-710c08b36467"},"vehicle_type_id":"4","last_reported":1706727943,"current_range_meters":23600,"station_id":"ce4bhb92rcd13ifvqen0","pricing_plan_id":"free"},{"bike_id":"1ebe42b4-7a7e-40a3-9a38-3e0214c33f36","system_id":"levelo_inurba_marseille","lat":43.290104,"lon":5.356111,"is_reserved":false,"is_disabled":false,"rental_uris":{"android":"levelo://app?vid=1ebe42b4-7a7e-40a3-9a38-3e0214c33f36","ios":"levelo://app?vid=1ebe42b4-7a7e-40a3-9a38-3e0214c33f36"},"vehicle_type_id":"4","last_reported":1706727943,"current_range_meters":26800,"station_id":"ce4bhb92rcd13ifvqen0","pricing_plan_id":"free"},{"bike_id":"b1b57834-00dc-438d-b743-ac1f3f46543b","system_id":"levelo_inurba_marseille","lat":43.290995,"lon":5.381361,"is_reserved":false,"is_disabled":false,"rental_uris":{"android":"levelo://app?vid=b1b57834-00dc-438d-b743-ac1f3f46543b","ios":"levelo://app?vid=b1b57834-00dc-438d-b743-ac1f3f46543b"},"vehicle_type_id":"4","last_reported":1706727943,"current_range_meters":7200,"station_id":"ce4bh512rcd13ifvqe2g","pricing_plan_id":"free"},{"bike_id":"1268fac9-5b9f-4002-b26d-c73c46fe2738","system_id":"levelo_inurba_marseille","lat":43.290995,"lon":5.381361,"is_reserved":false,"is_disabled":false,"rental_uris":{"android":"levelo://app?vid=1268fac9-5b9f-4002-b26d-c73c46fe2738","ios":"levelo://app?vid=1268fac9-5b9f-4002-b26d-c73c46fe2738"},"vehicle_type_id":"4","last_reported":1706727943,"current_range_meters":3200,"station_id":"ce4bh512rcd13ifvqe2g","pricing_plan_id":"free"},{"bike_id":"541d52be-7965-4caf-9f0d-d84983cfe50f","system_id":"levelo_inurba_marseille","lat":43.290995,"lon":5.381361,"is_reserved":false,"is_disabled":false,"rental_uris":{"android":"levelo://app?vid=541d52be-7965-4caf-9f0d-d84983cfe50f","ios":"levelo://app?vid=541d52be-7965-4caf-9f0d-d84983cfe50f"},"vehicle_type_id":"4","last_reported":1706727943,"current_range_meters":28400,"station_id":"ce4bh512rcd13ifvqe2g","pricing_plan_id":"free"},{"bike_id":"b10cd022-88c7-40bf-afe1-8bbef32aeb10","system_id":"levelo_inurba_marseille","lat":43.290995,"lon":5.381361,"is_reserved":false,"is_disabled":false,"rental_uris":{"android":"levelo://app?vid=b10cd022-88c7-40bf-afe1-8bbef32aeb10","ios":"levelo://app?vid=b10cd022-88c7-40bf-afe1-8bbef32aeb10"},"vehicle_type_id":"4","last_reported":1706727943,"current_range_meters":16000,"station_id":"ce4bh512rcd13ifvqe2g","pricing_plan_id":"free"},{"bike_id":"bd3e0c59-9432-4d28-8408-0358549511b4","system_id":"levelo_inurba_marseille","lat":43.290995,"lon":5.381361,"is_reserved":false,"is_disabled":false,"rental_uris":{"android":"levelo://app?vid=bd3e0c59-9432-4d28-8408-0358549511b4","ios":"levelo://app?vid=bd3e0c59-9432-4d28-8408-0358549511b4"},"vehicle_type_id":"4","last_reported":1706727943,"current_range_meters":0,"station_id":"ce4bh512rcd13ifvqe2g","pricing_plan_id":"free"},{"bike_id":"46f3ee7f-1d9a-4a66-a416-44f8962d2889","system_id":"levelo_inurba_marseille","lat":43.289743,"lon":5.378304,"is_reserved":false,"is_disabled":false,"rental_uris":{"android":"levelo://app?vid=46f3ee7f-1d9a-4a66-a416-44f8962d2889","ios":"levelo://app?vid=46f3ee7f-1d9a-4a66-a416-44f8962d2889"},"vehicle_type_id":"4","last_reported":1706727943,"current_range_meters":16800,"station_id":"ce4bh9p2rcd13ifvqed0","pricing_plan_id":"free"},{"bike_id":"9383a6a4-26f7-457e-892e-c4c24f622a73","system_id":"levelo_inurba_marseille","lat":43.297886,"lon":5.393458,"is_reserved":false,"is_disabled":false,"rental_uris":{"android":"levelo://app?vid=9383a6a4-26f7-457e-892e-c4c24f622a73","ios":"levelo://app?vid=9383a6a4-26f7-457e-892e-c4c24f622a73"},"vehicle_type_id":"4","last_reported":1706727943,"current_range_meters":0,"station_id":"chh1huq6cuj3fo74tm60","pricing_plan_id":"free"},{"bike_id":"ceb7badd-552e-48af-bdc1-94aa2c3427cc","system_id":"levelo_inurba_marseille","lat":43.297815,"lon":5.393548,"is_reserved":false,"is_disabled":false,"rental_uris":{"android":"levelo://app?vid=ceb7badd-552e-48af-bdc1-94aa2c3427cc","ios":"levelo://app?vid=ceb7badd-552e-48af-bdc1-94aa2c3427cc"},"vehicle_type_id":"4","last_reported":1706727943,"current_range_meters":12800,"station_id":"chh1huq6cuj3fo74tm60","pricing_plan_id":"free"},{"bike_id":"a1628774-e704-4959-ab9c-73aec3699341","system_id":"levelo_inurba_marseille","lat":43.289743,"lon":5.378304,"is_reserved":false,"is_disabled":false,"rental_uris":{"android":"levelo://app?vid=a1628774-e704-4959-ab9c-73aec3699341","ios":"levelo://app?vid=a1628774-e704-4959-ab9c-73aec3699341"},"vehicle_type_id":"4","last_reported":1706727943,"current_range_meters":0,"station_id":"ce4bh9p2rcd13ifvqed0","pricing_plan_id":"free"},{"bike_id":"8e2a75d9-d954-4dce-a114-01a90cc13b7a","system_id":"levelo_inurba_marseille","lat":43.33023,"lon":5.3904,"is_reserved":false,"is_disabled":false,"rental_uris":{"android":"levelo://app?vid=8e2a75d9-d954-4dce-a114-01a90cc13b7a","ios":"levelo://app?vid=8e2a75d9-d954-4dce-a114-01a90cc13b7a"},"vehicle_type_id":"4","last_reported":1706727943,"current_range_meters":0,"station_id":"ce4bhr92rcd13ifvqhrg","pricing_plan_id":"free"},{"bike_id":"d2372041-4402-41ea-9751-062c81e19171","system_id":"levelo_inurba_marseille","lat":43.295169,"lon":5.390426,"is_reserved":false,"is_disabled":false,"rental_uris":{"android":"levelo://app?vid=d2372041-4402-41ea-9751-062c81e19171","ios":"levelo://app?vid=d2372041-4402-41ea-9751-062c81e19171"},"vehicle_type_id":"4","last_reported":1706727943,"current_range_meters":22000,"station_id":"ce4bh3p2rcd13ifvqdp0","pricing_plan_id":"free"},{"bike_id":"ef109737-e05b-4ca5-9b8a-bfb6fc12a66e","system_id":"levelo_inurba_marseille","lat":43.289743,"lon":5.378304,"is_reserved":false,"is_disabled":false,"rental_uris":{"android":"levelo://app?vid=ef109737-e05b-4ca5-9b8a-bfb6fc12a66e","ios":"levelo://app?vid=ef109737-e05b-4ca5-9b8a-bfb6fc12a66e"},"vehicle_type_id":"4","last_reported":1706727943,"current_range_meters":17600,"station_id":"ce4bh9p2rcd13ifvqed0","pricing_plan_id":"free"},{"bike_id":"df18ea1c-2359-434e-81ea-e89c813faea1","system_id":"levelo_inurba_marseille","lat":43.295169,"lon":5.390426,"is_reserved":false,"is_disabled":false,"rental_uris":{"android":"levelo://app?vid=df18ea1c-2359-434e-81ea-e89c813faea1","ios":"levelo://app?vid=df18ea1c-2359-434e-81ea-e89c813faea1"},"vehicle_type_id":"4","last_reported":1706727943,"current_range_meters":19200,"station_id":"ce4bh3p2rcd13ifvqdp0","pricing_plan_id":"free"},{"bike_id":"61f9c16a-6f7d-49e6-841a-ee9e79722ac0","system_id":"levelo_inurba_marseille","lat":43.2954,"lon":5.39093,"is_reserved":false,"is_disabled":false,"rental_uris":{"android":"levelo://app?vid=61f9c16a-6f7d-49e6-841a-ee9e79722ac0","ios":"levelo://app?vid=61f9c16a-6f7d-49e6-841a-ee9e79722ac0"},"vehicle_type_id":"4","last_reported":1706727943,"current_range_meters":3600,"station_id":"","pricing_plan_id":"free"},{"bike_id":"8b5c3664-99b2-465d-a369-1fa8f55dfd92","system_id":"levelo_inurba_marseille","lat":43.295713,"lon":5.399639,"is_reserved":false,"is_disabled":false,"rental_uris":{"android":"levelo://app?vid=8b5c3664-99b2-465d-a369-1fa8f55dfd92","ios":"levelo://app?vid=8b5c3664-99b2-465d-a369-1fa8f55dfd92"},"vehicle_type_id":"4","last_reported":1706727943,"current_range_meters":25200,"station_id":"ce4bh312rcd13ifvqdj0","pricing_plan_id":"free"},{"bike_id":"cfc3800b-d573-4bbb-8c9f-fbfa04d258fb","system_id":"levelo_inurba_marseille","lat":43.28856,"lon":5.358371,"is_reserved":false,"is_disabled":false,"rental_uris":{"android":"levelo://app?vid=cfc3800b-d573-4bbb-8c9f-fbfa04d258fb","ios":"levelo://app?vid=cfc3800b-d573-4bbb-8c9f-fbfa04d258fb"},"vehicle_type_id":"4","last_reported":1706727943,"current_range_meters":16000,"station_id":"ce4bhb12rcd13ifvqem0","pricing_plan_id":"free"},{"bike_id":"f65842d3-f24d-4288-ae2d-51b4beb20fe8","system_id":"levelo_inurba_marseille","lat":43.29018,"lon":5.38128,"is_reserved":false,"is_disabled":false,"rental_uris":{"android":"levelo://app?vid=f65842d3-f24d-4288-ae2d-51b4beb20fe8","ios":"levelo://app?vid=f65842d3-f24d-4288-ae2d-51b4beb20fe8"},"vehicle_type_id":"4","last_reported":1706727943,"current_range_meters":0,"station_id":"ce4bh4p2rcd13ifvqe1g","pricing_plan_id":"free"},{"bike_id":"5a1a2280-1233-41e1-b8ca-a8ebc291b34c","system_id":"levelo_inurba_marseille","lat":43.28856,"lon":5.358371,"is_reserved":false,"is_disabled":false,"rental_uris":{"android":"levelo://app?vid=5a1a2280-1233-41e1-b8ca-a8ebc291b34c","ios":"levelo://app?vid=5a1a2280-1233-41e1-b8ca-a8ebc291b34c"},"vehicle_type_id":"4","last_reported":1706727943,"current_range_meters":16400,"station_id":"ce4bhb12rcd13ifvqem0","pricing_plan_id":"free"},{"bike_id":"09ffc386-82f9-44ac-a2a8-b7ea475096cf","system_id":"levelo_inurba_marseille","lat":43.28856,"lon":5.358371,"is_reserved":false,"is_disabled":false,"rental_uris":{"android":"levelo://app?vid=09ffc386-82f9-44ac-a2a8-b7ea475096cf","ios":"levelo://app?vid=09ffc386-82f9-44ac-a2a8-b7ea475096cf"},"vehicle_type_id":"4","last_reported":1706727943,"current_range_meters":31200,"station_id":"ce4bhb12rcd13ifvqem0","pricing_plan_id":"free"},{"bike_id":"abfe1efa-c58d-485e-9965-49f1107e9644","system_id":"levelo_inurba_marseille","lat":43.28859,"lon":5.358553,"is_reserved":false,"is_disabled":false,"rental_uris":{"android":"levelo://app?vid=abfe1efa-c58d-485e-9965-49f1107e9644","ios":"levelo://app?vid=abfe1efa-c58d-485e-9965-49f1107e9644"},"vehicle_type_id":"4","last_reported":1706727943,"current_range_meters":27600,"station_id":"ce4bhb12rcd13ifvqem0","pricing_plan_id":"free"},{"bike_id":"59b7b843-f242-48ca-b87c-21f005f48f05","system_id":"levelo_inurba_marseille","lat":43.28856,"lon":5.358371,"is_reserved":false,"is_disabled":false,"rental_uris":{"android":"levelo://app?vid=59b7b843-f242-48ca-b87c-21f005f48f05","ios":"levelo://app?vid=59b7b843-f242-48ca-b87c-21f005f48f05"},"vehicle_type_id":"4","last_reported":1706727943,"current_range_meters":16800,"station_id":"ce4bhb12rcd13ifvqem0","pricing_plan_id":"free"},{"bike_id":"a560cc0d-391b-4d22-a9df-71c761011448","system_id":"levelo_inurba_marseille","lat":43.28856,"lon":5.358371,"is_reserved":false,"is_disabled":false,"rental_uris":{"android":"levelo://app?vid=a560cc0d-391b-4d22-a9df-71c761011448","ios":"levelo://app?vid=a560cc0d-391b-4d22-a9df-71c761011448"},"vehicle_type_id":"4","last_reported":1706727943,"current_range_meters":18800,"station_id":"ce4bhb12rcd13ifvqem0","pricing_plan_id":"free"},{"bike_id":"d85e73cc-0091-45d8-b104-cfa06fbfa938","system_id":"levelo_inurba_marseille","lat":43.28857,"lon":5.35843,"is_reserved":false,"is_disabled":false,"rental_uris":{"android":"levelo://app?vid=d85e73cc-0091-45d8-b104-cfa06fbfa938","ios":"levelo://app?vid=d85e73cc-0091-45d8-b104-cfa06fbfa938"},"vehicle_type_id":"4","last_reported":1706727943,"current_range_meters":31200,"station_id":"ce4bhb12rcd13ifvqem0","pricing_plan_id":"free"},{"bike_id":"972acf2a-459b-4109-984d-7d1b99b2d973","system_id":"levelo_inurba_marseille","lat":43.28856,"lon":5.358371,"is_reserved":false,"is_disabled":false,"rental_uris":{"android":"levelo://app?vid=972acf2a-459b-4109-984d-7d1b99b2d973","ios":"levelo://app?vid=972acf2a-459b-4109-984d-7d1b99b2d973"},"vehicle_type_id":"4","last_reported":1706727943,"current_range_meters":31200,"station_id":"ce4bhb12rcd13ifvqem0","pricing_plan_id":"free"},{"bike_id":"f7bcc24b-317a-4f37-a99b-5e688e57824a","system_id":"levelo_inurba_marseille","lat":43.2885,"lon":5.35844,"is_reserved":false,"is_disabled":false,"rental_uris":{"android":"levelo://app?vid=f7bcc24b-317a-4f37-a99b-5e688e57824a","ios":"levelo://app?vid=f7bcc24b-317a-4f37-a99b-5e688e57824a"},"vehicle_type_id":"4","last_reported":1706727943,"current_range_meters":28400,"station_id":"ce4bhb12rcd13ifvqem0","pricing_plan_id":"free"},{"bike_id":"69fc39f7-326e-4127-8377-bfb3e3304975","system_id":"levelo_inurba_marseille","lat":43.33723,"lon":5.37438,"is_reserved":false,"is_disabled":false,"rental_uris":{"android":"levelo://app?vid=69fc39f7-326e-4127-8377-bfb3e3304975","ios":"levelo://app?vid=69fc39f7-326e-4127-8377-bfb3e3304975"},"vehicle_type_id":"4","last_reported":1706727943,"current_range_meters":28400,"station_id":"","pricing_plan_id":"free"},{"bike_id":"3a9fbb0e-5c5a-4876-817e-0d05a9186890","system_id":"levelo_inurba_marseille","lat":43.308186,"lon":5.401106,"is_reserved":false,"is_disabled":false,"rental_uris":{"android":"levelo://app?vid=3a9fbb0e-5c5a-4876-817e-0d05a9186890","ios":"levelo://app?vid=3a9fbb0e-5c5a-4876-817e-0d05a9186890"},"vehicle_type_id":"4","last_reported":1706727943,"current_range_meters":0,"station_id":"","pricing_plan_id":"free"},{"bike_id":"cd8f3763-b032-4955-a0e0-e221c2ca01f5","system_id":"levelo_inurba_marseille","lat":43.309371,"lon":5.401449,"is_reserved":false,"is_disabled":false,"rental_uris":{"android":"levelo://app?vid=cd8f3763-b032-4955-a0e0-e221c2ca01f5","ios":"levelo://app?vid=cd8f3763-b032-4955-a0e0-e221c2ca01f5"},"vehicle_type_id":"4","last_reported":1706727943,"current_range_meters":6000,"station_id":"ce4bgvp2rcd13ifvqct0","pricing_plan_id":"free"},{"bike_id":"b4d85829-ffae-4a59-aa2a-c43afc09c240","system_id":"levelo_inurba_marseille","lat":43.33745,"lon":5.37446,"is_reserved":false,"is_disabled":false,"rental_uris":{"android":"levelo://app?vid=b4d85829-ffae-4a59-aa2a-c43afc09c240","ios":"levelo://app?vid=b4d85829-ffae-4a59-aa2a-c43afc09c240"},"vehicle_type_id":"4","last_reported":1706727943,"current_range_meters":22000,"station_id":"","pricing_plan_id":"free"},{"bike_id":"286f917e-0a5a-4a5d-a8b9-fc4f7abedf84","system_id":"levelo_inurba_marseille","lat":43.33746,"lon":5.37459,"is_reserved":false,"is_disabled":false,"rental_uris":{"android":"levelo://app?vid=286f917e-0a5a-4a5d-a8b9-fc4f7abedf84","ios":"levelo://app?vid=286f917e-0a5a-4a5d-a8b9-fc4f7abedf84"},"vehicle_type_id":"4","last_reported":1706727943,"current_range_meters":18400,"station_id":"","pricing_plan_id":"free"},{"bike_id":"cbd12b3e-0f58-4f59-8dd8-549dff1ca7e4","system_id":"levelo_inurba_marseille","lat":43.309371,"lon":5.401449,"is_reserved":false,"is_disabled":false,"rental_uris":{"android":"levelo://app?vid=cbd12b3e-0f58-4f59-8dd8-549dff1ca7e4","ios":"levelo://app?vid=cbd12b3e-0f58-4f59-8dd8-549dff1ca7e4"},"vehicle_type_id":"4","last_reported":1706727943,"current_range_meters":26000,"station_id":"ce4bgvp2rcd13ifvqct0","pricing_plan_id":"free"},{"bike_id":"b4486dfa-f3ee-47cf-b969-3c790573346a","system_id":"levelo_inurba_marseille","lat":43.309371,"lon":5.401449,"is_reserved":false,"is_disabled":false,"rental_uris":{"android":"levelo://app?vid=b4486dfa-f3ee-47cf-b969-3c790573346a","ios":"levelo://app?vid=b4486dfa-f3ee-47cf-b969-3c790573346a"},"vehicle_type_id":"4","last_reported":1706727943,"current_range_meters":0,"station_id":"ce4bgvp2rcd13ifvqct0","pricing_plan_id":"free"},{"bike_id":"b964d9fd-972c-4750-b880-29a57e9d7707","system_id":"levelo_inurba_marseille","lat":43.312609,"lon":5.401662,"is_reserved":false,"is_disabled":false,"rental_uris":{"android":"levelo://app?vid=b964d9fd-972c-4750-b880-29a57e9d7707","ios":"levelo://app?vid=b964d9fd-972c-4750-b880-29a57e9d7707"},"vehicle_type_id":"4","last_reported":1706727943,"current_range_meters":0,"station_id":"ce4bh092rcd13ifvqd30","pricing_plan_id":"free"},{"bike_id":"0a9c8c4f-b8ab-4fd4-b079-61a852011143","system_id":"levelo_inurba_marseille","lat":43.33019,"lon":5.392287,"is_reserved":false,"is_disabled":false,"rental_uris":{"android":"levelo://app?vid=0a9c8c4f-b8ab-4fd4-b079-61a852011143","ios":"levelo://app?vid=0a9c8c4f-b8ab-4fd4-b079-61a852011143"},"vehicle_type_id":"4","last_reported":1706727943,"current_range_meters":24000,"station_id":"","pricing_plan_id":"free"},{"bike_id":"57a821f3-e268-424e-912b-f0d22e26b6e7","system_id":"levelo_inurba_marseille","lat":43.309371,"lon":5.401449,"is_reserved":false,"is_disabled":false,"rental_uris":{"android":"levelo://app?vid=57a821f3-e268-424e-912b-f0d22e26b6e7","ios":"levelo://app?vid=57a821f3-e268-424e-912b-f0d22e26b6e7"},"vehicle_type_id":"4","last_reported":1706727943,"current_range_meters":0,"station_id":"ce4bgvp2rcd13ifvqct0","pricing_plan_id":"free"},{"bike_id":"b7d3b81d-d85a-44b5-a0c7-8f9c9f74639e","system_id":"levelo_inurba_marseille","lat":43.337587,"lon":5.374576,"is_reserved":false,"is_disabled":false,"rental_uris":{"android":"levelo://app?vid=b7d3b81d-d85a-44b5-a0c7-8f9c9f74639e","ios":"levelo://app?vid=b7d3b81d-d85a-44b5-a0c7-8f9c9f74639e"},"vehicle_type_id":"4","last_reported":1706727943,"current_range_meters":14400,"station_id":"","pricing_plan_id":"free"},{"bike_id":"12568932-a9a7-4d52-8b2c-668683b75358","system_id":"levelo_inurba_marseille","lat":43.33754,"lon":5.375013,"is_reserved":false,"is_disabled":false,"rental_uris":{"android":"levelo://app?vid=12568932-a9a7-4d52-8b2c-668683b75358","ios":"levelo://app?vid=12568932-a9a7-4d52-8b2c-668683b75358"},"vehicle_type_id":"4","last_reported":1706727943,"current_range_meters":16400,"station_id":"","pricing_plan_id":"free"},{"bike_id":"2a8b4939-3db7-4350-a850-1e5cbc6b54f7","system_id":"levelo_inurba_marseille","lat":43.3093,"lon":5.40165,"is_reserved":false,"is_disabled":false,"rental_uris":{"android":"levelo://app?vid=2a8b4939-3db7-4350-a850-1e5cbc6b54f7","ios":"levelo://app?vid=2a8b4939-3db7-4350-a850-1e5cbc6b54f7"},"vehicle_type_id":"4","last_reported":1706727943,"current_range_meters":0,"station_id":"ce4bgvp2rcd13ifvqct0","pricing_plan_id":"free"},{"bike_id":"b04801a5-6a54-417c-b092-8f5791bc7287","system_id":"levelo_inurba_marseille","lat":43.30642,"lon":5.401031,"is_reserved":false,"is_disabled":false,"rental_uris":{"android":"levelo://app?vid=b04801a5-6a54-417c-b092-8f5791bc7287","ios":"levelo://app?vid=b04801a5-6a54-417c-b092-8f5791bc7287"},"vehicle_type_id":"4","last_reported":1706727943,"current_range_meters":6800,"station_id":"ce4bh112rcd13ifvqda0","pricing_plan_id":"free"},{"bike_id":"1facbbf3-baac-42f8-85eb-cb1e36f3e4b9","system_id":"levelo_inurba_marseille","lat":43.337623,"lon":5.374883,"is_reserved":false,"is_disabled":false,"rental_uris":{"android":"levelo://app?vid=1facbbf3-baac-42f8-85eb-cb1e36f3e4b9","ios":"levelo://app?vid=1facbbf3-baac-42f8-85eb-cb1e36f3e4b9"},"vehicle_type_id":"4","last_reported":1706727943,"current_range_meters":3200,"station_id":"","pricing_plan_id":"free"},{"bike_id":"cef74c65-cf09-469f-ae05-a7ebdbf5e18a","system_id":"levelo_inurba_marseille","lat":43.30141,"lon":5.39873,"is_reserved":false,"is_disabled":false,"rental_uris":{"android":"levelo://app?vid=cef74c65-cf09-469f-ae05-a7ebdbf5e18a","ios":"levelo://app?vid=cef74c65-cf09-469f-ae05-a7ebdbf5e18a"},"vehicle_type_id":"4","last_reported":1706727943,"current_range_meters":8800,"station_id":"ce4bh0h2rcd13ifvqd40","pricing_plan_id":"free"},{"bike_id":"fc8f7230-c127-43bb-a083-7e16494fc81e","system_id":"levelo_inurba_marseille","lat":43.30138,"lon":5.398767,"is_reserved":false,"is_disabled":false,"rental_uris":{"android":"levelo://app?vid=fc8f7230-c127-43bb-a083-7e16494fc81e","ios":"levelo://app?vid=fc8f7230-c127-43bb-a083-7e16494fc81e"},"vehicle_type_id":"4","last_reported":1706727943,"current_range_meters":0,"station_id":"ce4bh0h2rcd13ifvqd40","pricing_plan_id":"free"},{"bike_id":"76a76d72-876d-4eba-ab4b-c16c5ef84b37","system_id":"levelo_inurba_marseille","lat":43.30132,"lon":5.39877,"is_reserved":false,"is_disabled":false,"rental_uris":{"android":"levelo://app?vid=76a76d72-876d-4eba-ab4b-c16c5ef84b37","ios":"levelo://app?vid=76a76d72-876d-4eba-ab4b-c16c5ef84b37"},"vehicle_type_id":"4","last_reported":1706727943,"current_range_meters":0,"station_id":"ce4bh0h2rcd13ifvqd40","pricing_plan_id":"free"},{"bike_id":"303023ad-204c-4a03-bb4b-a6511d42bbc0","system_id":"levelo_inurba_marseille","lat":43.28727,"lon":5.36078,"is_reserved":false,"is_disabled":false,"rental_uris":{"android":"levelo://app?vid=303023ad-204c-4a03-bb4b-a6511d42bbc0","ios":"levelo://app?vid=303023ad-204c-4a03-bb4b-a6511d42bbc0"},"vehicle_type_id":"4","last_reported":1706727943,"current_range_meters":26800,"station_id":"cki0cbj6b192h4jlfktg","pricing_plan_id":"free"},{"bike_id":"0c57ca09-8143-44e5-94a8-ff344ab6f432","system_id":"levelo_inurba_marseille","lat":43.28719,"lon":5.36088,"is_reserved":false,"is_disabled":false,"rental_uris":{"android":"levelo://app?vid=0c57ca09-8143-44e5-94a8-ff344ab6f432","ios":"levelo://app?vid=0c57ca09-8143-44e5-94a8-ff344ab6f432"},"vehicle_type_id":"4","last_reported":1706727943,"current_range_meters":0,"station_id":"cki0cbj6b192h4jlfktg","pricing_plan_id":"free"},{"bike_id":"d6ca0e63-4859-46cf-94cb-7580308ad83f","system_id":"levelo_inurba_marseille","lat":43.301117,"lon":5.398795,"is_reserved":false,"is_disabled":false,"rental_uris":{"android":"levelo://app?vid=d6ca0e63-4859-46cf-94cb-7580308ad83f","ios":"levelo://app?vid=d6ca0e63-4859-46cf-94cb-7580308ad83f"},"vehicle_type_id":"4","last_reported":1706727943,"current_range_meters":800,"station_id":"ce4bh0h2rcd13ifvqd40","pricing_plan_id":"free"},{"bike_id":"81010007-2eb1-47dd-950c-77415511d9c7","system_id":"levelo_inurba_marseille","lat":43.298681,"lon":5.397225,"is_reserved":false,"is_disabled":false,"rental_uris":{"android":"levelo://app?vid=81010007-2eb1-47dd-950c-77415511d9c7","ios":"levelo://app?vid=81010007-2eb1-47dd-950c-77415511d9c7"},"vehicle_type_id":"4","last_reported":1706727943,"current_range_meters":10400,"station_id":"ce4bh0h2rcd13ifvqd50","pricing_plan_id":"free"},{"bike_id":"90d06b13-6b45-4f00-af12-ae7d9325353a","system_id":"levelo_inurba_marseille","lat":43.298681,"lon":5.397225,"is_reserved":false,"is_disabled":false,"rental_uris":{"android":"levelo://app?vid=90d06b13-6b45-4f00-af12-ae7d9325353a","ios":"levelo://app?vid=90d06b13-6b45-4f00-af12-ae7d9325353a"},"vehicle_type_id":"4","last_reported":1706727943,"current_range_meters":18400,"station_id":"ce4bh0h2rcd13ifvqd50","pricing_plan_id":"free"},{"bike_id":"456b3784-619c-48b2-9c63-3e4ab48d83c6","system_id":"levelo_inurba_marseille","lat":43.298681,"lon":5.397225,"is_reserved":false,"is_disabled":false,"rental_uris":{"android":"levelo://app?vid=456b3784-619c-48b2-9c63-3e4ab48d83c6","ios":"levelo://app?vid=456b3784-619c-48b2-9c63-3e4ab48d83c6"},"vehicle_type_id":"4","last_reported":1706727943,"current_range_meters":800,"station_id":"ce4bh0h2rcd13ifvqd50","pricing_plan_id":"free"},{"bike_id":"266f4ac6-777f-4446-9c7e-df24c735e7ab","system_id":"levelo_inurba_marseille","lat":43.298681,"lon":5.397225,"is_reserved":false,"is_disabled":false,"rental_uris":{"android":"levelo://app?vid=266f4ac6-777f-4446-9c7e-df24c735e7ab","ios":"levelo://app?vid=266f4ac6-777f-4446-9c7e-df24c735e7ab"},"vehicle_type_id":"4","last_reported":1706727943,"current_range_meters":18800,"station_id":"ce4bh0h2rcd13ifvqd50","pricing_plan_id":"free"},{"bike_id":"14d0ef62-1764-41e7-af4c-4664d45255ba","system_id":"levelo_inurba_marseille","lat":43.295748,"lon":5.37522,"is_reserved":false,"is_disabled":false,"rental_uris":{"android":"levelo://app?vid=14d0ef62-1764-41e7-af4c-4664d45255ba","ios":"levelo://app?vid=14d0ef62-1764-41e7-af4c-4664d45255ba"},"vehicle_type_id":"4","last_reported":1706727943,"current_range_meters":20800,"station_id":"ce4bgh92rcd13ifvqb50","pricing_plan_id":"free"},{"bike_id":"7869142d-4a88-4e51-bfb7-fcda9675011a","system_id":"levelo_inurba_marseille","lat":43.298681,"lon":5.397225,"is_reserved":false,"is_disabled":false,"rental_uris":{"android":"levelo://app?vid=7869142d-4a88-4e51-bfb7-fcda9675011a","ios":"levelo://app?vid=7869142d-4a88-4e51-bfb7-fcda9675011a"},"vehicle_type_id":"4","last_reported":1706727943,"current_range_meters":1600,"station_id":"ce4bh0h2rcd13ifvqd50","pricing_plan_id":"free"},{"bike_id":"ce9e77d2-ffa4-400e-a193-59528db8e58a","system_id":"levelo_inurba_marseille","lat":43.28663,"lon":5.36354,"is_reserved":false,"is_disabled":false,"rental_uris":{"android":"levelo://app?vid=ce9e77d2-ffa4-400e-a193-59528db8e58a","ios":"levelo://app?vid=ce9e77d2-ffa4-400e-a193-59528db8e58a"},"vehicle_type_id":"4","last_reported":1706727943,"current_range_meters":5600,"station_id":"ce4bhah2rcd13ifvqej0","pricing_plan_id":"free"},{"bike_id":"d54dab59-3766-4136-af1f-1157ddaa937a","system_id":"levelo_inurba_marseille","lat":43.295194,"lon":5.39397,"is_reserved":false,"is_disabled":false,"rental_uris":{"android":"levelo://app?vid=d54dab59-3766-4136-af1f-1157ddaa937a","ios":"levelo://app?vid=d54dab59-3766-4136-af1f-1157ddaa937a"},"vehicle_type_id":"4","last_reported":1706727943,"current_range_meters":800,"station_id":"ce4bh292rcd13ifvqdf0","pricing_plan_id":"free"},{"bike_id":"3c21c4b8-62fa-48d1-b255-86ba95fd4f1a","system_id":"levelo_inurba_marseille","lat":43.295196,"lon":5.39397,"is_reserved":false,"is_disabled":false,"rental_uris":{"android":"levelo://app?vid=3c21c4b8-62fa-48d1-b255-86ba95fd4f1a","ios":"levelo://app?vid=3c21c4b8-62fa-48d1-b255-86ba95fd4f1a"},"vehicle_type_id":"4","last_reported":1706727943,"current_range_meters":30400,"station_id":"ce4bh292rcd13ifvqdf0","pricing_plan_id":"free"},{"bike_id":"ba2323e1-96e6-499e-9cc4-64c45a72213c","system_id":"levelo_inurba_marseille","lat":43.295194,"lon":5.39397,"is_reserved":false,"is_disabled":false,"rental_uris":{"android":"levelo://app?vid=ba2323e1-96e6-499e-9cc4-64c45a72213c","ios":"levelo://app?vid=ba2323e1-96e6-499e-9cc4-64c45a72213c"},"vehicle_type_id":"4","last_reported":1706727943,"current_range_meters":6800,"station_id":"ce4bh292rcd13ifvqdf0","pricing_plan_id":"free"},{"bike_id":"e82841c7-c916-4ed1-b381-4a67877359dc","system_id":"levelo_inurba_marseille","lat":43.295068,"lon":5.394063,"is_reserved":false,"is_disabled":false,"rental_uris":{"android":"levelo://app?vid=e82841c7-c916-4ed1-b381-4a67877359dc","ios":"levelo://app?vid=e82841c7-c916-4ed1-b381-4a67877359dc"},"vehicle_type_id":"4","last_reported":1706727943,"current_range_meters":7200,"station_id":"ce4bh292rcd13ifvqdf0","pricing_plan_id":"free"},{"bike_id":"9198179b-0a59-4c9c-9498-d226b82725d9","system_id":"levelo_inurba_marseille","lat":43.30249,"lon":5.40057,"is_reserved":false,"is_disabled":false,"rental_uris":{"android":"levelo://app?vid=9198179b-0a59-4c9c-9498-d226b82725d9","ios":"levelo://app?vid=9198179b-0a59-4c9c-9498-d226b82725d9"},"vehicle_type_id":"4","last_reported":1706727943,"current_range_meters":0,"station_id":"ce4bgvh2rcd13ifvqcs0","pricing_plan_id":"free"},{"bike_id":"1314c929-1682-46e9-afc7-bd0ec0a669cd","system_id":"levelo_inurba_marseille","lat":43.290345,"lon":5.38646,"is_reserved":false,"is_disabled":false,"rental_uris":{"android":"levelo://app?vid=1314c929-1682-46e9-afc7-bd0ec0a669cd","ios":"levelo://app?vid=1314c929-1682-46e9-afc7-bd0ec0a669cd"},"vehicle_type_id":"4","last_reported":1706727943,"current_range_meters":17600,"station_id":"ce4bh4p2rcd13ifvqe0g","pricing_plan_id":"free"},