{"last_updated":1773661083,"ttl":60,"version":"2.2","data":{"bikes":[{"bike_id":"f18077e7-a01f-4bdc-8d1a-e93985fb7e36","system_id":"levelo_inurba_marseille","lat":43.30321,"lon":5.36909,"is_reserved":false,"is_disabled":false,"rental_uris":{"android":"levelo://app?vid=f18077e7-a01f-4bdc-8d1a-e93985fb7e36","ios":"levelo://app?vid=f18077e7-a01f-4bdc-8d1a-e93985fb7e36"},"vehicle_type_id":"4","last_reported":1773661083,"current_range_meters":39200,"station_id":"ce4bgqh2rcd13ifvqc5g","pricing_plan_id":"cebpf4jnsgd1na2vs0mg"},{"bike_id":"3b2bdc32-9d02-4e50-90eb-b900d9d29264","system_id":"levelo_inurba_marseille","lat":43.3096,"lon":5.39049,"is_reserved":false,"is_disabled":false,"rental_uris":{"android":"levelo://app?vid=3b2bdc32-9d02-4e50-90eb-b900d9d29264","ios":"levelo://app?vid=3b2bdc32-9d02-4e50-90eb-b900d9d29264"},"vehicle_type_id":"4","last_reported":1773661083,"current_range_meters":18800,"station_id":"ce4bgup2rcd13ifvqco0","pricing_plan_id":"cebpf4jnsgd1na2vs0mg"},{"bike_id":"a4ca7329-3ac2-44ac-9c8b-c3829e8c8f46","system_id":"levelo_inurba_marseille","lat":43.28485,"lon":5.38998,"is_reserved":false,"is_disabled":true,"rental_uris":{"android":"levelo://app?vid=a4ca7329-3ac2-44ac-9c8b-c3829e8c8f46","ios":"levelo://app?vid=a4ca7329-3ac2-44ac-9c8b-c3829e8c8f46"},"vehicle_type_id":"4","last_reported":1773661083,"current_range_meters":6800,"station_id":"","pricing_plan_id":"cebpf4jnsgd1na2vs0mg"},{"bike_id":"8f1c7724-8913-4e35-b4b9-9b66e640d009","system_id":"levelo_inurba_marseille","lat":43.29801,"lon":5.38098,"is_reserved":false,"is_disabled":false,"rental_uris":{"android":"levelo://app?vid=8f1c7724-8913-4e35-b4b9-9b66e640d009","ios":"levelo://app?vid=8f1c7724-8913-4e35-b4b9-9b66e640d009"},"vehicle_type_id":"4","last_reported":1773661083,"current_range_meters":9600,"station_id":"ce4bgip2rcd13ifvqbb0","pricing_plan_id":"cebpf4jnsgd1na2vs0mg"},{"bike_id":"0ae745ab-afb8-4357-87b5-3deaa4ba80bf","system_id":"levelo_inurba_marseille","lat":43.2573,"lon":5.41078,"is_reserved":false,"is_disabled":false,"rental_uris":{"android":"levelo://app?vid=0ae745ab-afb8-4357-87b5-3deaa4ba80bf","ios":"levelo://app?vid=0ae745ab-afb8-4357-87b5-3deaa4ba80bf"},"vehicle_type_id":"4","last_reported":1773661083,"current_range_meters":28400,"station_id":"ce4bhkp2rcd13ifvqgd0","pricing_plan_id":"cebpf4jnsgd1na2vs0mg"},{"bike_id":"7ea6be57-26f9-4545-a645-092474974232","system_id":"levelo_inurba_marseille","lat":43.2466,"lon":5.38888,"is_reserved":false,"is_disabled":false,"rental_uris":{"android":"levelo://app?vid=7ea6be57-26f9-4545-a645-092474974232","ios":"levelo://app?vid=7ea6be57-26f9-4545-a645-092474974232"},"vehicle_type_id":"4","last_reported":1773661083,"current_range_meters":38000,"station_id":"ce4bhg12rcd13ifvqf60","pricing_plan_id":"cebpf4jnsgd1na2vs0mg"},{"bike_id":"0af203fb-c1fe-4f43-a9a2-b6b372ffe20c","system_id":"levelo_inurba_marseille","lat":43.28494,"lon":5.48373,"is_reserved":false,"is_disabled":false,"rental_uris":{"android":"levelo://app?vid=0af203fb-c1fe-4f43-a9a2-b6b372ffe20c","ios":"levelo://app?vid=0af203fb-c1fe-4f43-a9a2-b6b372ffe20c"},"vehicle_type_id":"4","last_reported":1773661083,"current_range_meters":19200,"station_id":"","pricing_plan_id":"cebpf4jnsgd1na2vs0mg"},{"bike_id":"0ecd47cf-a7b9-4223-8093-c6087cb3bd4a","system_id":"levelo_inurba_marseille","lat":43.28429,"lon":5.34997,"is_reserved":false,"is_disabled":false,"rental_uris":{"android":"levelo://app?vid=0ecd47cf-a7b9-4223-8093-c6087cb3bd4a","ios":"levelo://app?vid=0ecd47cf-a7b9-4223-8093-c6087cb3bd4a"},"vehicle_type_id":"4","last_reported":1773661083,"current_range_meters":20400,"station_id":"ce4bhbh2rcd13ifvqepg","pricing_plan_id":"cebpf4jnsgd1na2vs0mg"},{"bike_id":"319b1581-475f-4797-be0a-0bd4a5861756","system_id":"levelo_inurba_marseille","lat":43.31327,"lon":5.36713,"is_reserved":false,"is_disabled":true,"rental_uris":{"android":"levelo://app?vid=319b1581-475f-4797-be0a-0bd4a5861756","ios":"levelo://app?vid=319b1581-475f-4797-be0a-0bd4a5861756"},"vehicle_type_id":"4","last_reported":1773661083,"current_range_meters":33600,"station_id":"ce4bgr92rcd13ifvqc6g","pricing_plan_id":"cebpf4jnsgd1na2vs0mg"},{"bike_id":"e4cf0b84-eff9-4db0-a015-7cb21f6dc8b2","system_id":"levelo_inurba_marseille","lat":43.25835,"lon":5.39452,"is_reserved":false,"is_disabled":false,"rental_uris":{"android":"levelo://app?vid=e4cf0b84-eff9-4db0-a015-7cb21f6dc8b2","ios":"levelo://app?vid=e4cf0b84-eff9-4db0-a015-7cb21f6dc8b2"},"vehicle_type_id":"4","last_reported":1773661083,"current_range_meters":6800,"station_id":"ce4bhip2rcd13ifvqft0","pricing_plan_id":"cebpf4jnsgd1na2vs0mg"},{"bike_id":"ee3a78bd-9b7f-41d0-9f1d-2dcc5ec6f6cf","system_id":"levelo_inurba_marseille","lat":43.27301,"lon":5.39114,"is_reserved":false,"is_disabled":false,"rental_uris":{"android":"levelo://app?vid=ee3a78bd-9b7f-41d0-9f1d-2dcc5ec6f6cf","ios":"levelo://app?vid=ee3a78bd-9b7f-41d0-9f1d-2dcc5ec6f6cf"},"vehicle_type_id":"4","last_reported":1773661083,"current_range_meters":38400,"station_id":"ce4bhgp2rcd13ifvqfe0","pricing_plan_id":"cebpf4jnsgd1na2vs0mg"},{"bike_id":"e06b6f91-93be-4271-a893-ca5b609ebf7f","system_id":"levelo_inurba_marseille","lat":43.30541,"lon":5.36537,"is_reserved":false,"is_disabled":false,"rental_uris":{"android":"levelo://app?vid=e06b6f91-93be-4271-a893-ca5b609ebf7f","ios":"levelo://app?vid=e06b6f91-93be-4271-a893-ca5b609ebf7f"},"vehicle_type_id":"4","last_reported":1773661083,"current_range_meters":20000,"station_id":"ce4bgs12rcd13ifvqcag","pricing_plan_id":"cebpf4jnsgd1na2vs0mg"},{"bike_id":"28a8752b-e59a-4b10-b32f-45f3a0be1d2f","system_id":"levelo_inurba_marseille","lat":43.3279,"lon":5.35951,"is_reserved":false,"is_disabled":false,"rental_uris":{"android":"levelo://app?vid=28a8752b-e59a-4b10-b32f-45f3a0be1d2f","ios":"levelo://app?vid=28a8752b-e59a-4b10-b32f-45f3a0be1d2f"},"vehicle_type_id":"4","last_reported":1773661083,"current_range_meters":17200,"station_id":"","pricing_plan_id":"cebpf4jnsgd1na2vs0mg"},{"bike_id":"7e113368-8b43-4dc9-a7d3-1b200ce7f912","system_id":"levelo_inurba_marseille","lat":43.27095,"lon":5.38398,"is_reserved":false,"is_disabled":false,"rental_uris":{"android":"levelo://app?vid=7e113368-8b43-4dc9-a7d3-1b200ce7f912","ios":"levelo://app?vid=7e113368-8b43-4dc9-a7d3-1b200ce7f912"},"vehicle_type_id":"4","last_reported":1773661083,"current_range_meters":28800,"station_id":"st_d3n2fo6cfp8s73cte1j0","pricing_plan_id":"cebpf4jnsgd1na2vs0mg"},{"bike_id":"ff630ac9-3879-47ac-9e5a-425f1a8a4498","system_id":"levelo_inurba_marseille","lat":43.30173,"lon":5.36615,"is_reserved":false,"is_disabled":false,"rental_uris":{"android":"levelo://app?vid=ff630ac9-3879-47ac-9e5a-425f1a8a4498","ios":"levelo://app?vid=ff630ac9-3879-47ac-9e5a-425f1a8a4498"},"vehicle_type_id":"4","last_reported":1773661083,"current_range_meters":37600,"station_id":"ce4bgrh2rcd13ifvqc8g","pricing_plan_id":"cebpf4jnsgd1na2vs0mg"},{"bike_id":"ee0cf3c9-e978-4094-86ec-91b1d823e957","system_id":"levelo_inurba_marseille","lat":43.30544,"lon":5.36528,"is_reserved":false,"is_disabled":false,"rental_uris":{"android":"levelo://app?vid=ee0cf3c9-e978-4094-86ec-91b1d823e957","ios":"levelo://app?vid=ee0cf3c9-e978-4094-86ec-91b1d823e957"},"vehicle_type_id":"4","last_reported":1773661083,"current_range_meters":30400,"station_id":"ce4bgs12rcd13ifvqcag","pricing_plan_id":"cebpf4jnsgd1na2vs0mg"},{"bike_id":"19abd266-dbc3-445e-b45a-6ed02e732436","system_id":"levelo_inurba_marseille","lat":43.30464,"lon":5.41194,"is_reserved":false,"is_disabled":false,"rental_uris":{"android":"levelo://app?vid=19abd266-dbc3-445e-b45a-6ed02e732436","ios":"levelo://app?vid=19abd266-dbc3-445e-b45a-6ed02e732436"},"vehicle_type_id":"4","last_reported":1773661083,"current_range_meters":34800,"station_id":"ce4bhop2rcd13ifvqh8g","pricing_plan_id":"cebpf4jnsgd1na2vs0mg"},{"bike_id":"8fc40567-b791-4317-b952-acc2abec6d07","system_id":"levelo_inurba_marseille","lat":43.27509,"lon":5.41566,"is_reserved":false,"is_disabled":false,"rental_uris":{"android":"levelo://app?vid=8fc40567-b791-4317-b952-acc2abec6d07","ios":"levelo://app?vid=8fc40567-b791-4317-b952-acc2abec6d07"},"vehicle_type_id":"4","last_reported":1773661083,"current_range_meters":14800,"station_id":"st_d6im8g6chgec73a5pndg","pricing_plan_id":"cebpf4jnsgd1na2vs0mg"},{"bike_id":"772463ed-7cb1-4997-b1e8-cc819038b901","system_id":"levelo_inurba_marseille","lat":43.30177,"lon":5.38103,"is_reserved":false,"is_disabled":false,"rental_uris":{"android":"levelo://app?vid=772463ed-7cb1-4997-b1e8-cc819038b901","ios":"levelo://app?vid=772463ed-7cb1-4997-b1e8-cc819038b901"},"vehicle_type_id":"4","last_reported":1773661083,"current_range_meters":35600,"station_id":"ce4bgjp2rcd13ifvqbh0","pricing_plan_id":"cebpf4jnsgd1na2vs0mg"},{"bike_id":"33b379ce-d494-49de-b41e-73252b8b97f6","system_id":"levelo_inurba_marseille","lat":43.29787,"lon":5.37109,"is_reserved":false,"is_disabled":false,"rental_uris":{"android":"levelo://app?vid=33b379ce-d494-49de-b41e-73252b8b97f6","ios":"levelo://app?vid=33b379ce-d494-49de-b41e-73252b8b97f6"},"vehicle_type_id":"4","last_reported":1773661083,"current_range_meters":28400,"station_id":"ce4bgop2rcd13ifvqc1g","pricing_plan_id":"cebpf4jnsgd1na2vs0mg"},{"bike_id":"8acdbfcd-8604-4639-b956-e17d0d7838e3","system_id":"levelo_inurba_marseille","lat":43.27221,"lon":5.40943,"is_reserved":false,"is_disabled":false,"rental_uris":{"android":"levelo://app?vid=8acdbfcd-8604-4639-b956-e17d0d7838e3","ios":"levelo://app?vid=8acdbfcd-8604-4639-b956-e17d0d7838e3"},"vehicle_type_id":"4","last_reported":1773661083,"current_range_meters":39200,"station_id":"ce4bhl12rcd13ifvqgf0","pricing_plan_id":"cebpf4jnsgd1na2vs0mg"},{"bike_id":"4a8d7a43-5dbb-42a2-b5ca-8c6627ac6666","system_id":"levelo_inurba_marseille","lat":43.30187,"lon":5.36598,"is_reserved":false,"is_disabled":false,"rental_uris":{"android":"levelo://app?vid=4a8d7a43-5dbb-42a2-b5ca-8c6627ac6666","ios":"levelo://app?vid=4a8d7a43-5dbb-42a2-b5ca-8c6627ac6666"},"vehicle_type_id":"4","last_reported":1773661083,"current_range_meters":40000,"station_id":"ce4bgrh2rcd13ifvqc8g","pricing_plan_id":"cebpf4jnsgd1na2vs0mg"},{"bike_id":"6c4422a0-8a53-4aa3-92c0-f5cd5ad78b41","system_id":"levelo_inurba_marseille","lat":43.2904,"lon":5.37571,"is_reserved":false,"is_disabled":false,"rental_uris":{"android":"levelo://app?vid=6c4422a0-8a53-4aa3-92c0-f5cd5ad78b41","ios":"levelo://app?vid=6c4422a0-8a53-4aa3-92c0-f5cd5ad78b41"},"vehicle_type_id":"4","last_reported":1773661083,"current_range_meters":33600,"station_id":"ce4bh692rcd13ifvqe90","pricing_plan_id":"cebpf4jnsgd1na2vs0mg"},{"bike_id":"323b9fc3-d412-4d63-9085-b7d5e8c05c0b","system_id":"levelo_inurba_marseille","lat":43.28484,"lon":5.38416,"is_reserved":false,"is_disabled":false,"rental_uris":{"android":"levelo://app?vid=323b9fc3-d412-4d63-9085-b7d5e8c05c0b","ios":"levelo://app?vid=323b9fc3-d412-4d63-9085-b7d5e8c05c0b"},"vehicle_type_id":"4","last_reported":1773661083,"current_range_meters":22400,"station_id":"ce4bh512rcd13ifvqe3g","pricing_plan_id":"cebpf4jnsgd1na2vs0mg"},{"bike_id":"7d5b997f-5115-45cd-8ced-c8507a994f25","system_id":"levelo_inurba_marseille","lat":43.30156,"lon":5.36646,"is_reserved":false,"is_disabled":false,"rental_uris":{"android":"levelo://app?vid=7d5b997f-5115-45cd-8ced-c8507a994f25","ios":"levelo://app?vid=7d5b997f-5115-45cd-8ced-c8507a994f25"},"vehicle_type_id":"4","last_reported":1773661083,"current_range_meters":23200,"station_id":"ce4bgrh2rcd13ifvqc8g","pricing_plan_id":"cebpf4jnsgd1na2vs0mg"},{"bike_id":"9d81edfa-23b4-4c0f-b037-c83b4deb804a","system_id":"levelo_inurba_marseille","lat":43.24388,"lon":5.37063,"is_reserved":false,"is_disabled":false,"rental_uris":{"android":"levelo://app?vid=9d81edfa-23b4-4c0f-b037-c83b4deb804a","ios":"levelo://app?vid=9d81edfa-23b4-4c0f-b037-c83b4deb804a"},"vehicle_type_id":"4","last_reported":1773661083,"current_range_meters":17200,"station_id":"ce4bhhh2rcd13ifvqfk0","pricing_plan_id":"cebpf4jnsgd1na2vs0mg"},{"bike_id":"857d9d84-b979-4df9-97d5-8847208cbe90","system_id":"levelo_inurba_marseille","lat":43.2862,"lon":5.35099,"is_reserved":false,"is_disabled":false,"rental_uris":{"android":"levelo://app?vid=857d9d84-b979-4df9-97d5-8847208cbe90","ios":"levelo://app?vid=857d9d84-b979-4df9-97d5-8847208cbe90"},"vehicle_type_id":"4","last_reported":1773661083,"current_range_meters":28800,"station_id":"ce4bhch2rcd13ifvqeug","pricing_plan_id":"cebpf4jnsgd1na2vs0mg"},{"bike_id":"bf35deae-c02e-4382-b944-c4bbe450d63e","system_id":"levelo_inurba_marseille","lat":43.26684,"lon":5.38271,"is_reserved":false,"is_disabled":false,"rental_uris":{"android":"levelo://app?vid=bf35deae-c02e-4382-b944-c4bbe450d63e","ios":"levelo://app?vid=bf35deae-c02e-4382-b944-c4bbe450d63e"},"vehicle_type_id":"4","last_reported":1773661083,"current_range_meters":40000,"station_id":"ce4bhg92rcd13ifvqf90","pricing_plan_id":"cebpf4jnsgd1na2vs0mg"},{"bike_id":"dde154cb-ca64-42e5-8030-61b3e61d8774","system_id":"levelo_inurba_marseille","lat":43.29571,"lon":5.37499,"is_reserved":false,"is_disabled":false,"rental_uris":{"android":"levelo://app?vid=dde154cb-ca64-42e5-8030-61b3e61d8774","ios":"levelo://app?vid=dde154cb-ca64-42e5-8030-61b3e61d8774"},"vehicle_type_id":"4","last_reported":1773661083,"current_range_meters":38400,"station_id":"ce4bgh92rcd13ifvqb50","pricing_plan_id":"cebpf4jnsgd1na2vs0mg"},{"bike_id":"c5f68eaa-d3dc-425f-a69c-13a6f9f5140a","system_id":"levelo_inurba_marseille","lat":43.32549,"lon":5.41446,"is_reserved":false,"is_disabled":false,"rental_uris":{"android":"levelo://app?vid=c5f68eaa-d3dc-425f-a69c-13a6f9f5140a","ios":"levelo://app?vid=c5f68eaa-d3dc-425f-a69c-13a6f9f5140a"},"vehicle_type_id":"4","last_reported":1773661083,"current_range_meters":36400,"station_id":"ce4bhq12rcd13ifvqhhg","pricing_plan_id":"cebpf4jnsgd1na2vs0mg"},{"bike_id":"933a2485-1198-4e3d-a3be-1c25ad5c0c97","system_id":"levelo_inurba_marseille","lat":43.25932,"lon":5.4091,"is_reserved":false,"is_disabled":false,"rental_uris":{"android":"levelo://app?vid=933a2485-1198-4e3d-a3be-1c25ad5c0c97","ios":"levelo://app?vid=933a2485-1198-4e3d-a3be-1c25ad5c0c97"},"vehicle_type_id":"4","last_reported":1773661083,"current_range_meters":12400,"station_id":"ce4bhm92rcd13ifvqglg","pricing_plan_id":"cebpf4jnsgd1na2vs0mg"},{"bike_id":"9e9d573a-2c65-4533-b6fa-aed42697d03e","system_id":"levelo_inurba_marseille","lat":43.29965,"lon":5.41313,"is_reserved":false,"is_disabled":false,"rental_uris":{"android":"levelo://app?vid=9e9d573a-2c65-4533-b6fa-aed42697d03e","ios":"levelo://app?vid=9e9d573a-2c65-4533-b6fa-aed42697d03e"},"vehicle_type_id":"4","last_reported":1773661083,"current_range_meters":36400,"station_id":"ce4bhp12rcd13ifvqh9g","pricing_plan_id":"cebpf4jnsgd1na2vs0mg"},{"bike_id":"b278ad17-e09c-46d1-95da-e7299e72a641","system_id":"levelo_inurba_marseille","lat":43.22563,"lon":5.4163,"is_reserved":false,"is_disabled":false,"rental_uris":{"android":"levelo://app?vid=b278ad17-e09c-46d1-95da-e7299e72a641","ios":"levelo://app?vid=b278ad17-e09c-46d1-95da-e7299e72a641"},"vehicle_type_id":"4","last_reported":1773661083,"current_range_meters":30800,"station_id":"st_d2o4gvlbi1j2169b742g","pricing_plan_id":"cebpf4jnsgd1na2vs0mg"},{"bike_id":"7e55300e-c6ce-4cea-b352-04866308b200","system_id":"levelo_inurba_marseille","lat":43.29624,"lon":5.42155,"is_reserved":false,"is_disabled":false,"rental_uris":{"android":"levelo://app?vid=7e55300e-c6ce-4cea-b352-04866308b200","ios":"levelo://app?vid=7e55300e-c6ce-4cea-b352-04866308b200"},"vehicle_type_id":"4","last_reported":1773661083,"current_range_meters":20400,"station_id":"","pricing_plan_id":"cebpf4jnsgd1na2vs0mg"},{"bike_id":"46a3f799-3d16-4ebc-8d36-021e91ac0103","system_id":"levelo_inurba_marseille","lat":43.29797,"lon":5.38108,"is_reserved":false,"is_disabled":false,"rental_uris":{"android":"levelo://app?vid=46a3f799-3d16-4ebc-8d36-021e91ac0103","ios":"levelo://app?vid=46a3f799-3d16-4ebc-8d36-021e91ac0103"},"vehicle_type_id":"4","last_reported":1773661083,"current_range_meters":16000,"station_id":"ce4bgip2rcd13ifvqbb0","pricing_plan_id":"cebpf4jnsgd1na2vs0mg"},{"bike_id":"b873da24-1045-4d09-b91f-3e423eac7b45","system_id":"levelo_inurba_marseille","lat":43.33169,"lon":5.37693,"is_reserved":false,"is_disabled":false,"rental_uris":{"android":"levelo://app?vid=b873da24-1045-4d09-b91f-3e423eac7b45","ios":"levelo://app?vid=b873da24-1045-4d09-b91f-3e423eac7b45"},"vehicle_type_id":"4","last_reported":1773661083,"current_range_meters":4800,"station_id":"st_d46cu089ee8s73dldbu0","pricing_plan_id":"cebpf4jnsgd1na2vs0mg"},{"bike_id":"54f965b4-98fe-41df-a421-e7a9058d140b","system_id":"levelo_inurba_marseille","lat":43.3056,"lon":5.36525,"is_reserved":false,"is_disabled":false,"rental_uris":{"android":"levelo://app?vid=54f965b4-98fe-41df-a421-e7a9058d140b","ios":"levelo://app?vid=54f965b4-98fe-41df-a421-e7a9058d140b"},"vehicle_type_id":"4","last_reported":1773661083,"current_range_meters":8800,"station_id":"ce4bgs12rcd13ifvqcag","pricing_plan_id":"cebpf4jnsgd1na2vs0mg"},{"bike_id":"6451d17f-d1b7-49ca-bcb9-e39c1e229018","system_id":"levelo_inurba_marseille","lat":43.28427,"lon":5.35002,"is_reserved":false,"is_disabled":false,"rental_uris":{"android":"levelo://app?vid=6451d17f-d1b7-49ca-bcb9-e39c1e229018","ios":"levelo://app?vid=6451d17f-d1b7-49ca-bcb9-e39c1e229018"},"vehicle_type_id":"4","last_reported":1773661083,"current_range_meters":39200,"station_id":"ce4bhbh2rcd13ifvqepg","pricing_plan_id":"cebpf4jnsgd1na2vs0mg"},{"bike_id":"28c9c9bb-a40d-4b63-a12b-d6e8281724a0","system_id":"levelo_inurba_marseille","lat":43.27678,"lon":5.38939,"is_reserved":false,"is_disabled":false,"rental_uris":{"android":"levelo://app?vid=28c9c9bb-a40d-4b63-a12b-d6e8281724a0","ios":"levelo://app?vid=28c9c9bb-a40d-4b63-a12b-d6e8281724a0"},"vehicle_type_id":"4","last_reported":1773661083,"current_range_meters":7200,"station_id":"ce4bhi12rcd13ifvqfo0","pricing_plan_id":"cebpf4jnsgd1na2vs0mg"},{"bike_id":"86843bd2-ebe9-41dd-8112-a901fe1ee64a","system_id":"levelo_inurba_marseille","lat":43.30134,"lon":5.39881,"is_reserved":false,"is_disabled":false,"rental_uris":{"android":"levelo://app?vid=86843bd2-ebe9-41dd-8112-a901fe1ee64a","ios":"levelo://app?vid=86843bd2-ebe9-41dd-8112-a901fe1ee64a"},"vehicle_type_id":"4","last_reported":1773661083,"current_range_meters":31200,"station_id":"ce4bh0h2rcd13ifvqd40","pricing_plan_id":"cebpf4jnsgd1na2vs0mg"},{"bike_id":"b992d013-31c6-40e6-b76c-ffb49d136524","system_id":"levelo_inurba_marseille","lat":43.3238,"lon":5.38874,"is_reserved":false,"is_disabled":false,"rental_uris":{"android":"levelo://app?vid=b992d013-31c6-40e6-b76c-ffb49d136524","ios":"levelo://app?vid=b992d013-31c6-40e6-b76c-ffb49d136524"},"vehicle_type_id":"4","last_reported":1773661083,"current_range_meters":39200,"station_id":"ce4bhqp2rcd13ifvqhog","pricing_plan_id":"cebpf4jnsgd1na2vs0mg"},{"bike_id":"c9355ea2-c7fd-482e-ae9f-1d6d049604d9","system_id":"levelo_inurba_marseille","lat":43.28618,"lon":5.3987,"is_reserved":false,"is_disabled":false,"rental_uris":{"android":"levelo://app?vid=c9355ea2-c7fd-482e-ae9f-1d6d049604d9","ios":"levelo://app?vid=c9355ea2-c7fd-482e-ae9f-1d6d049604d9"},"vehicle_type_id":"4","last_reported":1773661083,"current_range_meters":24800,"station_id":"st_d4a7ka997mjs738ck50g","pricing_plan_id":"cebpf4jnsgd1na2vs0mg"},{"bike_id":"77216a7f-364c-4873-bc97-ce369405114b","system_id":"levelo_inurba_marseille","lat":43.30128,"lon":5.43106,"is_reserved":false,"is_disabled":false,"rental_uris":{"android":"levelo://app?vid=77216a7f-364c-4873-bc97-ce369405114b","ios":"levelo://app?vid=77216a7f-364c-4873-bc97-ce369405114b"},"vehicle_type_id":"4","last_reported":1773661083,"current_range_meters":4000,"station_id":"st_d3js3co5814s73ftftug","pricing_plan_id":"cebpf4jnsgd1na2vs0mg"},{"bike_id":"6a4f4a2a-66e3-4916-8695-45549b884152","system_id":"levelo_inurba_marseille","lat":43.24,"lon":5.36709,"is_reserved":false,"is_disabled":false,"rental_uris":{"android":"levelo://app?vid=6a4f4a2a-66e3-4916-8695-45549b884152","ios":"levelo://app?vid=6a4f4a2a-66e3-4916-8695-45549b884152"},"vehicle_type_id":"4","last_reported":1773661083,"current_range_meters":31200,"station_id":"","pricing_plan_id":"cebpf4jnsgd1na2vs0mg"},{"bike_id":"9b239944-ef15-4318-90d7-ee3527eb9d62","system_id":"levelo_inurba_marseille","lat":43.2637,"lon":5.41058,"is_reserved":false,"is_disabled":false,"rental_uris":{"android":"levelo://app?vid=9b239944-ef15-4318-90d7-ee3527eb9d62","ios":"levelo://app?vid=9b239944-ef15-4318-90d7-ee3527eb9d62"},"vehicle_type_id":"4","last_reported":1773661083,"current_range_meters":26000,"station_id":"st_d4e5ca6na9uc73bfl5fg","pricing_plan_id":"cebpf4jnsgd1na2vs0mg"},{"bike_id":"0daf6109-b8b0-47a6-a266-d3ab8c2a01a8","system_id":"levelo_inurba_marseille","lat":43.26576,"lon":5.40298,"is_reserved":false,"is_disabled":false,"rental_uris":{"android":"levelo://app?vid=0daf6109-b8b0-47a6-a266-d3ab8c2a01a8","ios":"levelo://app?vid=0daf6109-b8b0-47a6-a266-d3ab8c2a01a8"},"vehicle_type_id":"4","last_reported":1773661083,"current_range_meters":30400,"station_id":"ce4bhmp2rcd13ifvqgng","pricing_plan_id":"cebpf4jnsgd1na2vs0mg"},{"bike_id":"052a698f-0c12-45bf-8237-a646d214139c","system_id":"levelo_inurba_marseille","lat":43.30549,"lon":5.36549,"is_reserved":false,"is_disabled":false,"rental_uris":{"android":"levelo://app?vid=052a698f-0c12-45bf-8237-a646d214139c","ios":"levelo://app?vid=052a698f-0c12-45bf-8237-a646d214139c"},"vehicle_type_id":"4","last_reported":1773661083,"current_range_meters":16000,"station_id":"ce4bgs12rcd13ifvqcag","pricing_plan_id":"cebpf4jnsgd1na2vs0mg"},{"bike_id":"014fbe6d-acef-4024-b919-caaae3fc7ea1","system_id":"levelo_inurba_marseille","lat":43.28615,"lon":5.35095,"is_reserved":false,"is_disabled":false,"rental_uris":{"android":"levelo://app?vid=014fbe6d-acef-4024-b919-caaae3fc7ea1","ios":"levelo://app?vid=014fbe6d-acef-4024-b919-caaae3fc7ea1"},"vehicle_type_id":"4","last_reported":1773661083,"current_range_meters":28400,"station_id":"ce4bhch2rcd13ifvqeug","pricing_plan_id":"cebpf4jnsgd1na2vs0mg"},{"bike_id":"b5f02cd4-343e-4cdc-ba83-b9e2daa6537f","system_id":"levelo_inurba_marseille","lat":43.26712,"lon":5.38259,"is_reserved":false,"is_disabled":false,"rental_uris":{"android":"levelo://app?vid=b5f02cd4-343e-4cdc-ba83-b9e2daa6537f","ios":"levelo://app?vid=b5f02cd4-343e-4cdc-ba83-b9e2daa6537f"},"vehicle_type_id":"4","last_reported":1773661083,"current_range_meters":35200,"station_id":"ce4bhg92rcd13ifvqf90","pricing_plan_id":"cebpf4jnsgd1na2vs0mg"},{"bike_id":"19373765-144a-4790-8089-8a5de9544f1f","system_id":"levelo_inurba_marseille","lat":43.24181,"lon":5.3972,"is_reserved":false,"is_disabled":false,"rental_uris":{"android":"levelo://app?vid=19373765-144a-4790-8089-8a5de9544f1f","ios":"levelo://app?vid=19373765-144a-4790-8089-8a5de9544f1f"},"vehicle_type_id":"4","last_reported":1773661083,"current_range_meters":28800,"station_id":"ce4bhn12rcd13ifvqgpg","pricing_plan_id":"cebpf4jnsgd1na2vs0mg"},{"bike_id":"78a6e7e4-db75-49f3-bc09-e3ca70238c57","system_id":"levelo_inurba_marseille","lat":43.29372,"lon":5.37844,"is_reserved":false,"is_disabled":false,"rental_uris":{"android":"levelo://app?vid=78a6e7e4-db75-49f3-bc09-e3ca70238c57","ios":"levelo://app?vid=78a6e7e4-db75-49f3-bc09-e3ca70238c57"},"vehicle_type_id":"4","last_reported":1773661083,"current_range_meters":36000,"station_id":"ce4bgjh2rcd13ifvqbf0","pricing_plan_id":"cebpf4jnsgd1na2vs0mg"},{"bike_id":"d0dab2fa-d617-4c19-a612-133b45b47130","system_id":"levelo_inurba_marseille","lat":43.23205,"lon":5.35544,"is_reserved":false,"is_disabled":false,"rental_uris":{"android":"levelo://app?vid=d0dab2fa-d617-4c19-a612-133b45b47130","ios":"levelo://app?vid=d0dab2fa-d617-4c19-a612-133b45b47130"},"vehicle_type_id":"4","last_reported":1773661083,"current_range_meters":21600,"station_id":"ce4bhu92rcd13ifvqi70","pricing_plan_id":"cebpf4jnsgd1na2vs0mg"},{"bike_id":"491ba74c-a458-433d-a534-dfa81b7720cd","system_id":"levelo_inurba_marseille","lat":43.21749,"lon":5.34592,"is_reserved":false,"is_disabled":false,"rental_uris":{"android":"levelo://app?vid=491ba74c-a458-433d-a534-dfa81b7720cd","ios":"levelo://app?vid=491ba74c-a458-433d-a534-dfa81b7720cd"},"vehicle_type_id":"4","last_reported":1773661083,"current_range_meters":9600,"station_id":"st_cvj6r9ubvosntc0bgbag","pricing_plan_id":"cebpf4jnsgd1na2vs0mg"},{"bike_id":"4933ac27-248a-4686-b475-7cc87b6d5074","system_id":"levelo_inurba_marseille","lat":43.2409,"lon":5.37743,"is_reserved":false,"is_disabled":false,"rental_uris":{"android":"levelo://app?vid=4933ac27-248a-4686-b475-7cc87b6d5074","ios":"levelo://app?vid=4933ac27-248a-4686-b475-7cc87b6d5074"},"vehicle_type_id":"4","last_reported":1773661083,"current_range_meters":38400,"station_id":"ce4bhnp2rcd13ifvqgvg","pricing_plan_id":"cebpf4jnsgd1na2vs0mg"},{"bike_id":"c2d75a77-7dda-428e-bdbd-a97c9d7e2102","system_id":"levelo_inurba_marseille","lat":43.27087,"lon":5.38276,"is_reserved":false,"is_disabled":true,"rental_uris":{"android":"levelo://app?vid=c2d75a77-7dda-428e-bdbd-a97c9d7e2102","ios":"levelo://app?vid=c2d75a77-7dda-428e-bdbd-a97c9d7e2102"},"vehicle_type_id":"4","last_reported":1773661083,"current_range_meters":36000,"station_id":"st_d3n2fo6cfp8s73cte1j0","pricing_plan_id":"cebpf4jnsgd1na2vs0mg"},{"bike_id":"857b6928-ed90-4f6e-a6cf-93ba460b7680","system_id":"levelo_inurba_marseille","lat":43.32361,"lon":5.38888,"is_reserved":false,"is_disabled":false,"rental_uris":{"android":"levelo://app?vid=857b6928-ed90-4f6e-a6cf-93ba460b7680","ios":"levelo://app?vid=857b6928-ed90-4f6e-a6cf-93ba460b7680"},"vehicle_type_id":"4","last_reported":1773661083,"current_range_meters":38800,"station_id":"ce4bhqp2rcd13ifvqhog","pricing_plan_id":"cebpf4jnsgd1na2vs0mg"},{"bike_id":"147d9e2e-4d7d-4c39-81db-3a5e5196e84c","system_id":"levelo_inurba_marseille","lat":43.30182,"lon":5.36587,"is_reserved":false,"is_disabled":false,"rental_uris":{"android":"levelo://app?vid=147d9e2e-4d7d-4c39-81db-3a5e5196e84c","ios":"levelo://app?vid=147d9e2e-4d7d-4c39-81db-3a5e5196e84c"},"vehicle_type_id":"4","last_reported":1773661083,"current_range_meters":29600,"station_id":"ce4bgrh2rcd13ifvqc8g","pricing_plan_id":"cebpf4jnsgd1na2vs0mg"},{"bike_id":"e378ab9d-c754-4563-b960-fd5460f9bff6","system_id":"levelo_inurba_marseille","lat":43.29917,"lon":5.3758,"is_reserved":false,"is_disabled":false,"rental_uris":{"android":"levelo://app?vid=e378ab9d-c754-4563-b960-fd5460f9bff6","ios":"levelo://app?vid=e378ab9d-c754-4563-b960-fd5460f9bff6"},"vehicle_type_id":"4","last_reported":1773661083,"current_range_meters":38800,"station_id":"","pricing_plan_id":"cebpf4jnsgd1na2vs0mg"},{"bike_id":"dea631f7-42a0-4fc4-b750-984aa138e4f3","system_id":"levelo_inurba_marseille","lat":43.32368,"lon":5.38838,"is_reserved":false,"is_disabled":false,"rental_uris":{"android":"levelo://app?vid=dea631f7-42a0-4fc4-b750-984aa138e4f3","ios":"levelo://app?vid=dea631f7-42a0-4fc4-b750-984aa138e4f3"},"vehicle_type_id":"4","last_reported":1773661083,"current_range_meters":33200,"station_id":"ce4bhqp2rcd13ifvqhog","pricing_plan_id":"cebpf4jnsgd1na2vs0mg"},{"bike_id":"12bb0608-da9d-4e04-8f31-0e077a96fffb","system_id":"levelo_inurba_marseille","lat":43.25578,"lon":5.38229,"is_reserved":false,"is_disabled":false,"rental_uris":{"android":"levelo://app?vid=12bb0608-da9d-4e04-8f31-0e077a96fffb","ios":"levelo://app?vid=12bb0608-da9d-4e04-8f31-0e077a96fffb"},"vehicle_type_id":"4","last_reported":1773661083,"current_range_meters":28400,"station_id":"ce4bhih2rcd13ifvqfs0","pricing_plan_id":"cebpf4jnsgd1na2vs0mg"},{"bike_id":"ef124b6c-1864-4cf0-9457-14566d1138f0","system_id":"levelo_inurba_marseille","lat":43.26355,"lon":5.41066,"is_reserved":false,"is_disabled":false,"rental_uris":{"android":"levelo://app?vid=ef124b6c-1864-4cf0-9457-14566d1138f0","ios":"levelo://app?vid=ef124b6c-1864-4cf0-9457-14566d1138f0"},"vehicle_type_id":"4","last_reported":1773661083,"current_range_meters":26800,"station_id":"st_d4e5ca6na9uc73bfl5fg","pricing_plan_id":"cebpf4jnsgd1na2vs0mg"},{"bike_id":"87961bc8-b9ec-434a-9714-7ea7cf0235a9","system_id":"levelo_inurba_marseille","lat":43.29045,"lon":5.39966,"is_reserved":false,"is_disabled":false,"rental_uris":{"android":"levelo://app?vid=87961bc8-b9ec-434a-9714-7ea7cf0235a9","ios":"levelo://app?vid=87961bc8-b9ec-434a-9714-7ea7cf0235a9"},"vehicle_type_id":"4","last_reported":1773661083,"current_range_meters":14400,"station_id":"ce4bh392rcd13ifvqdm0","pricing_plan_id":"cebpf4jnsgd1na2vs0mg"},{"bike_id":"1dbc2359-923d-4f88-a168-a5102060bfcb","system_id":"levelo_inurba_marseille","lat":43.28284,"lon":5.35084,"is_reserved":false,"is_disabled":false,"rental_uris":{"android":"levelo://app?vid=1dbc2359-923d-4f88-a168-a5102060bfcb","ios":"levelo://app?vid=1dbc2359-923d-4f88-a168-a5102060bfcb"},"vehicle_type_id":"4","last_reported":1773661083,"current_range_meters":16000,"station_id":"ce4bhbp2rcd13ifvqerg","pricing_plan_id":"cebpf4jnsgd1na2vs0mg"},{"bike_id":"badacbb6-0c1f-4bd5-900a-66dcf61f42d5","system_id":"levelo_inurba_marseille","lat":43.26065,"lon":5.39379,"is_reserved":false,"is_disabled":false,"rental_uris":{"android":"levelo://app?vid=badacbb6-0c1f-4bd5-900a-66dcf61f42d5","ios":"levelo://app?vid=badacbb6-0c1f-4bd5-900a-66dcf61f42d5"},"vehicle_type_id":"4","last_reported":1773661083,"current_range_meters":35600,"station_id":"ce4bhh92rcd13ifvqfj0","pricing_plan_id":"cebpf4jnsgd1na2vs0mg"},{"bike_id":"f85f9766-0c59-47a0-aa84-124bac8ee080","system_id":"levelo_inurba_marseille","lat":43.26361,"lon":5.41089,"is_reserved":false,"is_disabled":false,"rental_uris":{"android":"levelo://app?vid=f85f9766-0c59-47a0-aa84-124bac8ee080","ios":"levelo://app?vid=f85f9766-0c59-47a0-aa84-124bac8ee080"},"vehicle_type_id":"4","last_reported":1773661083,"current_range_meters":38400,"station_id":"st_d4e5ca6na9uc73bfl5fg","pricing_plan_id":"cebpf4jnsgd1na2vs0mg"},{"bike_id":"5dedbb18-e988-4c62-a1b7-6082fc58ac3f","system_id":"levelo_inurba_marseille","lat":43.25095,"lon":5.39509,"is_reserved":false,"is_disabled":false,"rental_uris":{"android":"levelo://app?vid=5dedbb18-e988-4c62-a1b7-6082fc58ac3f","ios":"levelo://app?vid=5dedbb18-e988-4c62-a1b7-6082fc58ac3f"},"vehicle_type_id":"4","last_reported":1773661083,"current_range_meters":4400,"station_id":"ce4bhm12rcd13ifvqgkg","pricing_plan_id":"cebpf4jnsgd1na2vs0mg"},{"bike_id":"eae93aa7-3e13-4cee-88a1-0399616b2ef4","system_id":"levelo_inurba_marseille","lat":43.30957,"lon":5.39035,"is_reserved":false,"is_disabled":false,"rental_uris":{"android":"levelo://app?vid=eae93aa7-3e13-4cee-88a1-0399616b2ef4","ios":"levelo://app?vid=eae93aa7-3e13-4cee-88a1-0399616b2ef4"},"vehicle_type_id":"4","last_reported":1773661083,"current_range_meters":30800,"station_id":"ce4bgup2rcd13ifvqco0","pricing_plan_id":"cebpf4jnsgd1na2vs0mg"},{"bike_id":"7d0d6579-73dd-45b7-81e1-90af3d6ef163","system_id":"levelo_inurba_marseille","lat":43.22574,"lon":5.41641,"is_reserved":false,"is_disabled":false,"rental_uris":{"android":"levelo://app?vid=7d0d6579-73dd-45b7-81e1-90af3d6ef163","ios":"levelo://app?vid=7d0d6579-73dd-45b7-81e1-90af3d6ef163"},"vehicle_type_id":"4","last_reported":1773661083,"current_range_meters":6800,"station_id":"st_d2o4gvlbi1j2169b742g","pricing_plan_id":"cebpf4jnsgd1na2vs0mg"},{"bike_id":"2ab628f4-4cfd-478e-9f06-4eed69164c58","system_id":"levelo_inurba_marseille","lat":43.3137,"lon":5.36708,"is_reserved":false,"is_disabled":false,"rental_uris":{"android":"levelo://app?vid=2ab628f4-4cfd-478e-9f06-4eed69164c58","ios":"levelo://app?vid=2ab628f4-4cfd-478e-9f06-4eed69164c58"},"vehicle_type_id":"4","last_reported":1773661083,"current_range_meters":30800,"station_id":"ce4bgr92rcd13ifvqc6g","pricing_plan_id":"cebpf4jnsgd1na2vs0mg"},{"bike_id":"73431468-79e0-4469-ab68-4890a6f11228","system_id":"levelo_inurba_marseille","lat":43.30927,"lon":5.40136,"is_reserved":false,"is_disabled":false,"rental_uris":{"android":"levelo://app?vid=73431468-79e0-4469-ab68-4890a6f11228","ios":"levelo://app?vid=73431468-79e0-4469-ab68-4890a6f11228"},"vehicle_type_id":"4","last_reported":1773661083,"current_range_meters":22400,"station_id":"ce4bgvp2rcd13ifvqct0","pricing_plan_id":"cebpf4jnsgd1na2vs0mg"},{"bike_id":"6bd46585-7360-490f-b2a6-8e61e6304105","system_id":"levelo_inurba_marseille","lat":43.29764,"lon":5.4278,"is_reserved":false,"is_disabled":false,"rental_uris":{"android":"levelo://app?vid=6bd46585-7360-490f-b2a6-8e61e6304105","ios":"levelo://app?vid=6bd46585-7360-490f-b2a6-8e61e6304105"},"vehicle_type_id":"4","last_reported":1773661083,"current_range_meters":14800,"station_id":"st_d3md5207bmas73dh9klg","pricing_plan_id":"cebpf4jnsgd1na2vs0mg"},{"bike_id":"4c177e21-a8fe-4f57-a94f-d114f72249f7","system_id":"levelo_inurba_marseille","lat":43.31858,"lon":5.3697,"is_reserved":false,"is_disabled":false,"rental_uris":{"android":"levelo://app?vid=4c177e21-a8fe-4f57-a94f-d114f72249f7","ios":"levelo://app?vid=4c177e21-a8fe-4f57-a94f-d114f72249f7"},"vehicle_type_id":"4","last_reported":1773661083,"current_range_meters":36400,"station_id":"","pricing_plan_id":"cebpf4jnsgd1na2vs0mg"},{"bike_id":"962cd1c7-7f8e-4808-ad6d-1605d16400d7","system_id":"levelo_inurba_marseille","lat":43.26524,"lon":5.39028,"is_reserved":false,"is_disabled":false,"rental_uris":{"android":"levelo://app?vid=962cd1c7-7f8e-4808-ad6d-1605d16400d7","ios":"levelo://app?vid=962cd1c7-7f8e-4808-ad6d-1605d16400d7"},"vehicle_type_id":"4","last_reported":1773661083,"current_range_meters":13600,"station_id":"ce4bhe12rcd13ifvqf30","pricing_plan_id":"cebpf4jnsgd1na2vs0mg"},{"bike_id":"2ddea2f7-7908-44db-867a-af9c041d553c","system_id":"levelo_inurba_marseille","lat":43.30802,"lon":5.38141,"is_reserved":false,"is_disabled":false,"rental_uris":{"android":"levelo://app?vid=2ddea2f7-7908-44db-867a-af9c041d553c","ios":"levelo://app?vid=2ddea2f7-7908-44db-867a-af9c041d553c"},"vehicle_type_id":"4","last_reported":1773661083,"current_range_meters":19600,"station_id":"ce4bgt12rcd13ifvqce0","pricing_plan_id":"cebpf4jnsgd1na2vs0mg"},{"bike_id":"0b9e6f94-b95b-4d89-846b-aef87824983f","system_id":"levelo_inurba_marseille","lat":43.29235,"lon":5.3611,"is_reserved":false,"is_disabled":false,"rental_uris":{"android":"levelo://app?vid=0b9e6f94-b95b-4d89-846b-aef87824983f","ios":"levelo://app?vid=0b9e6f94-b95b-4d89-846b-aef87824983f"},"vehicle_type_id":"4","last_reported":1773661083,"current_range_meters":9200,"station_id":"ce4bhbh2rcd13ifvqeqg","pricing_plan_id":"cebpf4jnsgd1na2vs0mg"},{"bike_id":"ef951b85-4708-4028-a818-d2cffff93ec5","system_id":"levelo_inurba_marseille","lat":43.30574,"lon":5.3723,"is_reserved":false,"is_disabled":true,"rental_uris":{"android":"levelo://app?vid=ef951b85-4708-4028-a818-d2cffff93ec5","ios":"levelo://app?vid=ef951b85-4708-4028-a818-d2cffff93ec5"},"vehicle_type_id":"4","last_reported":1773661083,"current_range_meters":28000,"station_id":"ce4bgqh2rcd13ifvqc4g","pricing_plan_id":"cebpf4jnsgd1na2vs0mg"},{"bike_id":"b775ba00-6949-40df-9603-1e36a7545ad4","system_id":"levelo_inurba_marseille","lat":43.30415,"lon":5.41281,"is_reserved":false,"is_disabled":false,"rental_uris":{"android":"levelo://app?vid=b775ba00-6949-40df-9603-1e36a7545ad4","ios":"levelo://app?vid=b775ba00-6949-40df-9603-1e36a7545ad4"},"vehicle_type_id":"4","last_reported":1773661083,"current_range_meters":40000,"station_id":"ce4bhop2rcd13ifvqh8g","pricing_plan_id":"cebpf4jnsgd1na2vs0mg"},{"bike_id":"90006b8d-6aa9-4ebe-9082-e177c10b421a","system_id":"levelo_inurba_marseille","lat":43.31343,"lon":5.36885,"is_reserved":false,"is_disabled":false,"rental_uris":{"android":"levelo://app?vid=90006b8d-6aa9-4ebe-9082-e177c10b421a","ios":"levelo://app?vid=90006b8d-6aa9-4ebe-9082-e177c10b421a"},"vehicle_type_id":"4","last_reported":1773661083,"current_range_meters":36800,"station_id":"","pricing_plan_id":"cebpf4jnsgd1na2vs0mg"},{"bike_id":"584f7aa0-b582-45fa-adcb-d34128f4ce54","system_id":"levelo_inurba_marseille","lat":43.27817,"lon":5.40718,"is_reserved":false,"is_disabled":true,"rental_uris":{"android":"levelo://app?vid=584f7aa0-b582-45fa-adcb-d34128f4ce54","ios":"levelo://app?vid=584f7aa0-b582-45fa-adcb-d34128f4ce54"},"vehicle_type_id":"4","last_reported":1773661083,"current_range_meters":9200,"station_id":"ce4bhnh2rcd13ifvqgtg","pricing_plan_id":"cebpf4jnsgd1na2vs0mg"},{"bike_id":"155b0320-79c3-41cb-91e9-f84de49ff2b3","system_id":"levelo_inurba_marseille","lat":43.25934,"lon":5.40912,"is_reserved":false,"is_disabled":false,"rental_uris":{"android":"levelo://app?vid=155b0320-79c3-41cb-91e9-f84de49ff2b3","ios":"levelo://app?vid=155b0320-79c3-41cb-91e9-f84de49ff2b3"},"vehicle_type_id":"4","last_reported":1773661083,"current_range_meters":22400,"station_id":"ce4bhm92rcd13ifvqglg","pricing_plan_id":"cebpf4jnsgd1na2vs0mg"},{"bike_id":"8ae3cd93-1df5-4c86-a3cd-ea1407ea9258","system_id":"levelo_inurba_marseille","lat":43.30744,"lon":5.42452,"is_reserved":false,"is_disabled":false,"rental_uris":{"android":"levelo://app?vid=8ae3cd93-1df5-4c86-a3cd-ea1407ea9258","ios":"levelo://app?vid=8ae3cd93-1df5-4c86-a3cd-ea1407ea9258"},"vehicle_type_id":"4","last_reported":1773661083,"current_range_meters":32400,"station_id":"st_cvj6ca6bvosntc0bfgr0","pricing_plan_id":"cebpf4jnsgd1na2vs0mg"},{"bike_id":"0bd699b8-0f51-4e7d-b635-e29484ca415b","system_id":"levelo_inurba_marseille","lat":43.25577,"lon":5.38229,"is_reserved":false,"is_disabled":false,"rental_uris":{"android":"levelo://app?vid=0bd699b8-0f51-4e7d-b635-e29484ca415b","ios":"levelo://app?vid=0bd699b8-0f51-4e7d-b635-e29484ca415b"},"vehicle_type_id":"4","last_reported":1773661083,"current_range_meters":19200,"station_id":"ce4bhih2rcd13ifvqfs0","pricing_plan_id":"cebpf4jnsgd1na2vs0mg"},{"bike_id":"a1a487e0-263f-4bcb-a083-313a46d262d6","system_id":"levelo_inurba_marseille","lat":43.29116,"lon":5.43276,"is_reserved":false,"is_disabled":true,"rental_uris":{"android":"levelo://app?vid=a1a487e0-263f-4bcb-a083-313a46d262d6","ios":"levelo://app?vid=a1a487e0-263f-4bcb-a083-313a46d262d6"},"vehicle_type_id":"4","last_reported":1773661083,"current_range_meters":22400,"station_id":"","pricing_plan_id":"cebpf4jnsgd1na2vs0mg"},{"bike_id":"80349c10-4722-47ae-a549-f9c542386094","system_id":"levelo_inurba_marseille","lat":43.30539,"lon":5.36541,"is_reserved":false,"is_disabled":false,"rental_uris":{"android":"levelo://app?vid=80349c10-4722-47ae-a549-f9c542386094","ios":"levelo://app?vid=80349c10-4722-47ae-a549-f9c542386094"},"vehicle_type_id":"4","last_reported":1773661083,"current_range_meters":39200,"station_id":"ce4bgs12rcd13ifvqcag","pricing_plan_id":"cebpf4jnsgd1na2vs0mg"},{"bike_id":"6b24d631-d5b9-47e8-921a-18505da85c70","system_id":"levelo_inurba_marseille","lat":43.2708,"lon":5.40252,"is_reserved":false,"is_disabled":false,"rental_uris":{"android":"levelo://app?vid=6b24d631-d5b9-47e8-921a-18505da85c70","ios":"levelo://app?vid=6b24d631-d5b9-47e8-921a-18505da85c70"},"vehicle_type_id":"4","last_reported":1773661083,"current_range_meters":35200,"station_id":"ce4bhk92rcd13ifvqgc0","pricing_plan_id":"cebpf4jnsgd1na2vs0mg"},{"bike_id":"a1bfb5aa-59ee-4cf4-a5b6-4c3297f8b37c","system_id":"levelo_inurba_marseille","lat":43.2721,"lon":5.39185,"is_reserved":false,"is_disabled":false,"rental_uris":{"android":"levelo://app?vid=a1bfb5aa-59ee-4cf4-a5b6-4c3297f8b37c","ios":"levelo://app?vid=a1bfb5aa-59ee-4cf4-a5b6-4c3297f8b37c"},"vehicle_type_id":"4","last_reported":1773661083,"current_range_meters":32000,"station_id":"ce4bhhp2rcd13ifvqfm0","pricing_plan_id":"cebpf4jnsgd1na2vs0mg"},{"bike_id":"ddd64a40-0275-4ca7-a97f-2eff5d3e514a","system_id":"levelo_inurba_marseille","lat":43.28484,"lon":5.48401,"is_reserved":false,"is_disabled":false,"rental_uris":{"android":"levelo://app?vid=ddd64a40-0275-4ca7-a97f-2eff5d3e514a","ios":"levelo://app?vid=ddd64a40-0275-4ca7-a97f-2eff5d3e514a"},"vehicle_type_id":"4","last_reported":1773661083,"current_range_meters":8400,"station_id":"","pricing_plan_id":"cebpf4jnsgd1na2vs0mg"},{"bike_id":"f03d42bd-e59e-431d-98b7-8ac35bb3732a","system_id":"levelo_inurba_marseille","lat":43.28939,"lon":5.36624,"is_reserved":false,"is_disabled":false,"rental_uris":{"android":"levelo://app?vid=f03d42bd-e59e-431d-98b7-8ac35bb3732a","ios":"levelo://app?vid=f03d42bd-e59e-431d-98b7-8ac35bb3732a"},"vehicle_type_id":"4","last_reported":1773661083,"current_range_meters":36400,"station_id":"ce4bhap2rcd13ifvqek0","pricing_plan_id":"cebpf4jnsgd1na2vs0mg"},{"bike_id":"81467cca-3c71-4094-a5dc-2ce923c92b67","system_id":"levelo_inurba_marseille","lat":43.26695,"lon":5.38258,"is_reserved":false,"is_disabled":false,"rental_uris":{"android":"levelo://app?vid=81467cca-3c71-4094-a5dc-2ce923c92b67","ios":"levelo://app?vid=81467cca-3c71-4094-a5dc-2ce923c92b67"},"vehicle_type_id":"4","last_reported":1773661083,"current_range_meters":27600,"station_id":"ce4bhg92rcd13ifvqf90","pricing_plan_id":"cebpf4jnsgd1na2vs0mg"},{"bike_id":"f0752db4-9746-4f09-a991-9d3088a31eb9","system_id":"levelo_inurba_marseille","lat":43.28623,"lon":5.35103,"is_reserved":false,"is_disabled":false,"rental_uris":{"android":"levelo://app?vid=f0752db4-9746-4f09-a991-9d3088a31eb9","ios":"levelo://app?vid=f0752db4-9746-4f09-a991-9d3088a31eb9"},"vehicle_type_id":"4","last_reported":1773661083,"current_range_meters":12800,"station_id":"ce4bhch2rcd13ifvqeug","pricing_plan_id":"cebpf4jnsgd1na2vs0mg"},{"bike_id":"7459a8ce-4c42-4485-90ec-512304b48dd0","system_id":"levelo_inurba_marseille","lat":43.24176,"lon":5.39727,"is_reserved":false,"is_disabled":false,"rental_uris":{"android":"levelo://app?vid=7459a8ce-4c42-4485-90ec-512304b48dd0","ios":"levelo://app?vid=7459a8ce-4c42-4485-90ec-512304b48dd0"},"vehicle_type_id":"4","last_reported":1773661083,"current_range_meters":35200,"station_id":"ce4bhn12rcd13ifvqgpg","pricing_plan_id":"cebpf4jnsgd1na2vs0mg"},{"bike_id":"1a2ad8e0-25f4-4b1d-a268-792ddb756ae5","system_id":"levelo_inurba_marseille","lat":43.33533,"lon":5.37466,"is_reserved":false,"is_disabled":false,"rental_uris":{"android":"levelo://app?vid=1a2ad8e0-25f4-4b1d-a268-792ddb756ae5","ios":"levelo://app?vid=1a2ad8e0-25f4-4b1d-a268-792ddb756ae5"},"vehicle_type_id":"4","last_reported":1773661083,"current_range_meters":14400,"station_id":"st_d46tts09ee8s73dlu43g","pricing_plan_id":"cebpf4jnsgd1na2vs0mg"},{"bike_id":"5dea7ece-1d9b-471d-a08a-4a42d6f62761","system_id":"levelo_inurba_marseille","lat":43.28607,"lon":5.35084,"is_reserved":false,"is_disabled":false,"rental_uris":{"android":"levelo://app?vid=5dea7ece-1d9b-471d-a08a-4a42d6f62761","ios":"levelo://app?vid=5dea7ece-1d9b-471d-a08a-4a42d6f62761"},"vehicle_type_id":"4","last_reported":1773661083,"current_range_meters":32800,"station_id":"ce4bhch2rcd13ifvqeug","pricing_plan_id":"cebpf4jnsgd1na2vs0mg"},{"bike_id":"62a968e7-817d-43b4-aded-c3ea6cb5a0b3","system_id":"levelo_inurba_marseille","lat":43.2668,"lon":5.38262,"is_reserved":false,"is_disabled":false,"rental_uris":{"android":"levelo://app?vid=62a968e7-817d-43b4-aded-c3ea6cb5a0b3","ios":"levelo://app?vid=62a968e7-817d-43b4-aded-c3ea6cb5a0b3"},"vehicle_type_id":"4","last_reported":1773661083,"current_range_meters":28000,"station_id":"ce4bhg92rcd13ifvqf90","pricing_plan_id":"cebpf4jnsgd1na2vs0mg"},{"bike_id":"32344c74-1154-4ea4-8d10-eee4123f8fff","system_id":"levelo_inurba_marseille","lat":43.27488,"lon":5.42455,"is_reserved":false,"is_disabled":false,"rental_uris":{"android":"levelo://app?vid=32344c74-1154-4ea4-8d10-eee4123f8fff","ios":"levelo://app?vid=32344c74-1154-4ea4-8d10-eee4123f8fff"},"vehicle_type_id":"4","last_reported":1773661083,"current_range_meters":14400,"station_id":"ce4bhn92rcd13ifvqgrg","pricing_plan_id":"cebpf4jnsgd1na2vs0mg"},{"bike_id":"c6ce2f3f-0453-4328-a49f-66cb28be7e0d","system_id":"levelo_inurba_marseille","lat":43.26806,"lon":5.40267,"is_reserved":false,"is_disabled":false,"rental_uris":{"android":"levelo://app?vid=c6ce2f3f-0453-4328-a49f-66cb28be7e0d","ios":"levelo://app?vid=c6ce2f3f-0453-4328-a49f-66cb28be7e0d"},"vehicle_type_id":"4","last_reported":1773661083,"current_range_meters":26800,"station_id":"ce501612rcd8frsf0b60","pricing_plan_id":"cebpf4jnsgd1na2vs0mg"},{"bike_id":"d1141fb4-59b4-44f4-91cc-49a601f9de2f","system_id":"levelo_inurba_marseille","lat":43.25105,"lon":5.40326,"is_reserved":false,"is_disabled":false,"rental_uris":{"android":"levelo://app?vid=d1141fb4-59b4-44f4-91cc-49a601f9de2f","ios":"levelo://app?vid=d1141fb4-59b4-44f4-91cc-49a601f9de2f"},"vehicle_type_id":"4","last_reported":1773661083,"current_range_meters":10800,"station_id":"ce4bhlh2rcd13ifvqgig","pricing_plan_id":"cebpf4jnsgd1na2vs0mg"},{"bike_id":"ab254f0f-6223-4ab3-84a5-b7f85602871b","system_id":"levelo_inurba_marseille","lat":43.28716,"lon":5.37944,"is_reserved":false,"is_disabled":true,"rental_uris":{"android":"levelo://app?vid=ab254f0f-6223-4ab3-84a5-b7f85602871b","ios":"levelo://app?vid=ab254f0f-6223-4ab3-84a5-b7f85602871b"},"vehicle_type_id":"4","last_reported":1773661083,"current_range_meters":32400,"station_id":"ce4bh9p2rcd13ifvqec0","pricing_plan_id":"cebpf4jnsgd1na2vs0mg"},{"bike_id":"529a3fba-c634-4c3b-b494-ce629a839a61","system_id":"levelo_inurba_marseille","lat":43.24552,"lon":5.39519,"is_reserved":false,"is_disabled":false,"rental_uris":{"android":"levelo://app?vid=529a3fba-c634-4c3b-b494-ce629a839a61","ios":"levelo://app?vid=529a3fba-c634-4c3b-b494-ce629a839a61"},"vehicle_type_id":"4","last_reported":1773661083,"current_range_meters":20000,"station_id":"ce4bhlp2rcd13ifvqgjg","pricing_plan_id":"cebpf4jnsgd1na2vs0mg"},{"bike_id":"f02856c4-b13a-4b32-86db-9b67745d621b","system_id":"levelo_inurba_marseille","lat":43.284848,"lon":5.384159,"is_reserved":false,"is_disabled":false,"rental_uris":{"android":"levelo://app?vid=f02856c4-b13a-4b32-86db-9b67745d621b","ios":"levelo://app?vid=f02856c4-b13a-4b32-86db-9b67745d621b"},"vehicle_type_id":"4","last_reported":1773661083,"current_range_meters":36800,"station_id":"ce4bh512rcd13ifvqe3g","pricing_plan_id":"cebpf4jnsgd1na2vs0mg"},{"bike_id":"6d532b04-367b-4be0-875e-89c2edd1dea6","system_id":"levelo_inurba_marseille","lat":43.31367,"lon":5.38488,"is_reserved":false,"is_disabled":false,"rental_uris":{"android":"levelo://app?vid=6d532b04-367b-4be0-875e-89c2edd1dea6","ios":"levelo://app?vid=6d532b04-367b-4be0-875e-89c2edd1dea6"},"vehicle_type_id":"4","last_reported":1773661083,"current_range_meters":6400,"station_id":"ce4bgt92rcd13ifvqcf0","pricing_plan_id":"cebpf4jnsgd1na2vs0mg"},{"bike_id":"143d16da-44d6-45e7-a9ae-c2ad8ff29ee0","system_id":"levelo_inurba_marseille","lat":43.24802,"lon":5.37443,"is_reserved":false,"is_disabled":false,"rental_uris":{"android":"levelo://app?vid=143d16da-44d6-45e7-a9ae-c2ad8ff29ee0","ios":"levelo://app?vid=143d16da-44d6-45e7-a9ae-c2ad8ff29ee0"},"vehicle_type_id":"4","last_reported":1773661083,"current_range_meters":27200,"station_id":"ce4bhgh2rcd13ifvqfb0","pricing_plan_id":"cebpf4jnsgd1na2vs0mg"},{"bike_id":"cf06ecdc-d7d2-4b2c-a4eb-57228cb64b36","system_id":"levelo_inurba_marseille","lat":43.28976,"lon":5.37836,"is_reserved":false,"is_disabled":false,"rental_uris":{"android":"levelo://app?vid=cf06ecdc-d7d2-4b2c-a4eb-57228cb64b36","ios":"levelo://app?vid=cf06ecdc-d7d2-4b2c-a4eb-57228cb64b36"},"vehicle_type_id":"4","last_reported":1773661083,"current_range_meters":12000,"station_id":"ce4bh9p2rcd13ifvqed0","pricing_plan_id":"cebpf4jnsgd1na2vs0mg"},{"bike_id":"f311a1fb-52bc-4166-a754-b5b996b07e1e","system_id":"levelo_inurba_marseille","lat":43.29295,"lon":5.37459,"is_reserved":false,"is_disabled":false,"rental_uris":{"android":"levelo://app?vid=f311a1fb-52bc-4166-a754-b5b996b07e1e","ios":"levelo://app?vid=f311a1fb-52bc-4166-a754-b5b996b07e1e"},"vehicle_type_id":"4","last_reported":1773661083,"current_range_meters":24400,"station_id":"ce4bgi12rcd13ifvqb70","pricing_plan_id":"cebpf4jnsgd1na2vs0mg"},{"bike_id":"adb2885c-29cc-4e43-b36c-488c895a7480","system_id":"levelo_inurba_marseille","lat":43.28421,"lon":5.34996,"is_reserved":false,"is_disabled":false,"rental_uris":{"android":"levelo://app?vid=adb2885c-29cc-4e43-b36c-488c895a7480","ios":"levelo://app?vid=adb2885c-29cc-4e43-b36c-488c895a7480"},"vehicle_type_id":"4","last_reported":1773661083,"current_range_meters":20000,"station_id":"ce4bhbh2rcd13ifvqepg","pricing_plan_id":"cebpf4jnsgd1na2vs0mg"},{"bike_id":"e842dc60-ab62-4379-a0ed-030031db5b1e","system_id":"levelo_inurba_marseille","lat":43.21223,"lon":5.35046,"is_reserved":false,"is_disabled":false,"rental_uris":{"android":"levelo://app?vid=e842dc60-ab62-4379-a0ed-030031db5b1e","ios":"levelo://app?vid=e842dc60-ab62-4379-a0ed-030031db5b1e"},"vehicle_type_id":"4","last_reported":1773661083,"current_range_meters":11200,"station_id":"","pricing_plan_id":"cebpf4jnsgd1na2vs0mg"},{"bike_id":"70014854-acff-49ca-9046-c49e81b9ca34","system_id":"levelo_inurba_marseille","lat":43.21758,"lon":5.34593,"is_reserved":false,"is_disabled":false,"rental_uris":{"android":"levelo://app?vid=70014854-acff-49ca-9046-c49e81b9ca34","ios":"levelo://app?vid=70014854-acff-49ca-9046-c49e81b9ca34"},"vehicle_type_id":"4","last_reported":1773661083,"current_range_meters":26000,"station_id":"st_cvj6r9ubvosntc0bgbag","pricing_plan_id":"cebpf4jnsgd1na2vs0mg"},{"bike_id":"ebae0e78-6890-4e81-8932-827cabc0dcd4","system_id":"levelo_inurba_marseille","lat":43.30311,"lon":5.36892,"is_reserved":false,"is_disabled":false,"rental_uris":{"android":"levelo://app?vid=ebae0e78-6890-4e81-8932-827cabc0dcd4","ios":"levelo://app?vid=ebae0e78-6890-4e81-8932-827cabc0dcd4"},"vehicle_type_id":"4","last_reported":1773661083,"current_range_meters":40000,"station_id":"ce4bgqh2rcd13ifvqc5g","pricing_plan_id":"cebpf4jnsgd1na2vs0mg"},{"bike_id":"03b94259-1207-488d-a813-437afdfe11d4","system_id":"levelo_inurba_marseille","lat":43.27206,"lon":5.3919,"is_reserved":false,"is_disabled":false,"rental_uris":{"android":"levelo://app?vid=03b94259-1207-488d-a813-437afdfe11d4","ios":"levelo://app?vid=03b94259-1207-488d-a813-437afdfe11d4"},"vehicle_type_id":"4","last_reported":1773661083,"current_range_meters":39200,"station_id":"ce4bhhp2rcd13ifvqfm0","pricing_plan_id":"cebpf4jnsgd1na2vs0mg"},{"bike_id":"2050ce33-2827-4000-b3fe-0468d5a91e0d","system_id":"levelo_inurba_marseille","lat":43.21743,"lon":5.34611,"is_reserved":false,"is_disabled":false,"rental_uris":{"android":"levelo://app?vid=2050ce33-2827-4000-b3fe-0468d5a91e0d","ios":"levelo://app?vid=2050ce33-2827-4000-b3fe-0468d5a91e0d"},"vehicle_type_id":"4","last_reported":1773661083,"current_range_meters":9600,"station_id":"st_cvj6r9ubvosntc0bgbag","pricing_plan_id":"cebpf4jnsgd1na2vs0mg"},{"bike_id":"f390fab6-52a0-4bcf-a47e-3a9e67e606d0","system_id":"levelo_inurba_marseille","lat":43.31442,"lon":5.37299,"is_reserved":false,"is_disabled":false,"rental_uris":{"android":"levelo://app?vid=f390fab6-52a0-4bcf-a47e-3a9e67e606d0","ios":"levelo://app?vid=f390fab6-52a0-4bcf-a47e-3a9e67e606d0"},"vehicle_type_id":"4","last_reported":1773661083,"current_range_meters":35200,"station_id":"ce4bgt12rcd13ifvqcd0","pricing_plan_id":"cebpf4jnsgd1na2vs0mg"},{"bike_id":"177dde7b-d2de-4c6f-a770-315c66758692","system_id":"levelo_inurba_marseille","lat":43.28485,"lon":5.48386,"is_reserved":false,"is_disabled":false,"rental_uris":{"android":"levelo://app?vid=177dde7b-d2de-4c6f-a770-315c66758692","ios":"levelo://app?vid=177dde7b-d2de-4c6f-a770-315c66758692"},"vehicle_type_id":"4","last_reported":1773661083,"current_range_meters":33200,"station_id":"","pricing_plan_id":"cebpf4jnsgd1na2vs0mg"},{"bike_id":"6f54e01c-8e88-4d8b-ae33-a3d8388a376b","system_id":"levelo_inurba_marseille","lat":43.24994,"lon":5.38898,"is_reserved":false,"is_disabled":false,"rental_uris":{"android":"levelo://app?vid=6f54e01c-8e88-4d8b-ae33-a3d8388a376b","ios":"levelo://app?vid=6f54e01c-8e88-4d8b-ae33-a3d8388a376b"},"vehicle_type_id":"4","last_reported":1773661083,"current_range_meters":25200,"station_id":"ce4bhgp2rcd13ifvqfd0","pricing_plan_id":"cebpf4jnsgd1na2vs0mg"},{"bike_id":"a051cb11-967e-431a-9bb7-b0327fee3e80","system_id":"levelo_inurba_marseille","lat":43.31646,"lon":5.40533,"is_reserved":false,"is_disabled":false,"rental_uris":{"android":"levelo://app?vid=a051cb11-967e-431a-9bb7-b0327fee3e80","ios":"levelo://app?vid=a051cb11-967e-431a-9bb7-b0327fee3e80"},"vehicle_type_id":"4","last_reported":1773661083,"current_range_meters":26000,"station_id":"","pricing_plan_id":"cebpf4jnsgd1na2vs0mg"},{"bike_id":"5b8559b0-3e9d-4180-86ed-03032c99a483","system_id":"levelo_inurba_marseille","lat":43.23383,"lon":5.41238,"is_reserved":false,"is_disabled":false,"rental_uris":{"android":"levelo://app?vid=5b8559b0-3e9d-4180-86ed-03032c99a483","ios":"levelo://app?vid=5b8559b0-3e9d-4180-86ed-03032c99a483"},"vehicle_type_id":"4","last_reported":1773661083,"current_range_meters":17600,"station_id":"","pricing_plan_id":"cebpf4jnsgd1na2vs0mg"},{"bike_id":"1741325f-8422-4356-83e0-b5761d6e485a","system_id":"levelo_inurba_marseille","lat":43.31369,"lon":5.36729,"is_reserved":false,"is_disabled":false,"rental_uris":{"android":"levelo://app?vid=1741325f-8422-4356-83e0-b5761d6e485a","ios":"levelo://app?vid=1741325f-8422-4356-83e0-b5761d6e485a"},"vehicle_type_id":"4","last_reported":1773661083,"current_range_meters":38800,"station_id":"ce4bgr92rcd13ifvqc6g","pricing_plan_id":"cebpf4jnsgd1na2vs0mg"},{"bike_id":"43918b9b-ff13-4bbb-ac03-aa8307d32985","system_id":"levelo_inurba_marseille","lat":43.232,"lon":5.3554,"is_reserved":false,"is_disabled":false,"rental_uris":{"android":"levelo://app?vid=43918b9b-ff13-4bbb-ac03-aa8307d32985","ios":"levelo://app?vid=43918b9b-ff13-4bbb-ac03-aa8307d32985"},"vehicle_type_id":"4","last_reported":1773661083,"current_range_meters":28400,"station_id":"ce4bhu92rcd13ifvqi70","pricing_plan_id":"cebpf4jnsgd1na2vs0mg"},{"bike_id":"f4b7fd6d-fc43-40a0-9444-97cda83baecc","system_id":"levelo_inurba_marseille","lat":43.28482,"lon":5.48389,"is_reserved":false,"is_disabled":false,"rental_uris":{"android":"levelo://app?vid=f4b7fd6d-fc43-40a0-9444-97cda83baecc","ios":"levelo://app?vid=f4b7fd6d-fc43-40a0-9444-97cda83baecc"},"vehicle_type_id":"4","last_reported":1773661083,"current_range_meters":25600,"station_id":"","pricing_plan_id":"cebpf4jnsgd1na2vs0mg"},{"bike_id":"ad5d6575-373a-4626-b109-e5e54a834cdc","system_id":"levelo_inurba_marseille","lat":43.30931,"lon":5.401406,"is_reserved":false,"is_disabled":true,"rental_uris":{"android":"levelo://app?vid=ad5d6575-373a-4626-b109-e5e54a834cdc","ios":"levelo://app?vid=ad5d6575-373a-4626-b109-e5e54a834cdc"},"vehicle_type_id":"4","last_reported":1773661083,"current_range_meters":28400,"station_id":"ce4bgvp2rcd13ifvqct0","pricing_plan_id":"cebpf4jnsgd1na2vs0mg"},{"bike_id":"06e2f918-f90a-467d-8613-9c86e6e485be","system_id":"levelo_inurba_marseille","lat":43.29622,"lon":5.37137,"is_reserved":false,"is_disabled":true,"rental_uris":{"android":"levelo://app?vid=06e2f918-f90a-467d-8613-9c86e6e485be","ios":"levelo://app?vid=06e2f918-f90a-467d-8613-9c86e6e485be"},"vehicle_type_id":"4","last_reported":1773661083,"current_range_meters":37600,"station_id":"ce4bgnh2rcd13ifvqc0g","pricing_plan_id":"cebpf4jnsgd1na2vs0mg"},{"bike_id":"8cf11af3-a06c-4250-b156-2ebe886a2214","system_id":"levelo_inurba_marseille","lat":43.23157,"lon":5.43688,"is_reserved":false,"is_disabled":false,"rental_uris":{"android":"levelo://app?vid=8cf11af3-a06c-4250-b156-2ebe886a2214","ios":"levelo://app?vid=8cf11af3-a06c-4250-b156-2ebe886a2214"},"vehicle_type_id":"4","last_reported":1773661083,"current_range_meters":21600,"station_id":"ce4bhmp2rcd13ifvqgog","pricing_plan_id":"cebpf4jnsgd1na2vs0mg"},{"bike_id":"47437dbd-a43a-491e-9da9-be7faee139eb","system_id":"levelo_inurba_marseille","lat":43.32481,"lon":5.36547,"is_reserved":false,"is_disabled":false,"rental_uris":{"android":"levelo://app?vid=47437dbd-a43a-491e-9da9-be7faee139eb","ios":"levelo://app?vid=47437dbd-a43a-491e-9da9-be7faee139eb"},"vehicle_type_id":"4","last_reported":1773661083,"current_range_meters":39200,"station_id":"ce4bhs12rcd13ifvqhvg","pricing_plan_id":"cebpf4jnsgd1na2vs0mg"},{"bike_id":"df0f97d1-38d2-45a7-9aa3-c3af0692daea","system_id":"levelo_inurba_marseille","lat":43.26769,"lon":5.39426,"is_reserved":false,"is_disabled":false,"rental_uris":{"android":"levelo://app?vid=df0f97d1-38d2-45a7-9aa3-c3af0692daea","ios":"levelo://app?vid=df0f97d1-38d2-45a7-9aa3-c3af0692daea"},"vehicle_type_id":"4","last_reported":1773661083,"current_range_meters":6800,"station_id":"ce4bhh12rcd13ifvqfg0","pricing_plan_id":"cebpf4jnsgd1na2vs0mg"},{"bike_id":"119a192a-68c8-4937-b929-2eba08e28111","system_id":"levelo_inurba_marseille","lat":43.30182,"lon":5.36599,"is_reserved":false,"is_disabled":false,"rental_uris":{"android":"levelo://app?vid=119a192a-68c8-4937-b929-2eba08e28111","ios":"levelo://app?vid=119a192a-68c8-4937-b929-2eba08e28111"},"vehicle_type_id":"4","last_reported":1773661083,"current_range_meters":36400,"station_id":"ce4bgrh2rcd13ifvqc8g","pricing_plan_id":"cebpf4jnsgd1na2vs0mg"},{"bike_id":"a337c444-d955-42a9-9ab5-59bda235775a","system_id":"levelo_inurba_marseille","lat":43.29906,"lon":5.37468,"is_reserved":false,"is_disabled":false,"rental_uris":{"android":"levelo://app?vid=a337c444-d955-42a9-9ab5-59bda235775a","ios":"levelo://app?vid=a337c444-d955-42a9-9ab5-59bda235775a"},"vehicle_type_id":"4","last_reported":1773661083,"current_range_meters":39200,"station_id":"ce4bgjh2rcd13ifvqbg0","pricing_plan_id":"cebpf4jnsgd1na2vs0mg"},{"bike_id":"49fc7284-9e84-4e41-b11a-a6f445433570","system_id":"levelo_inurba_marseille","lat":43.28103,"lon":5.39618,"is_reserved":false,"is_disabled":true,"rental_uris":{"android":"levelo://app?vid=49fc7284-9e84-4e41-b11a-a6f445433570","ios":"levelo://app?vid=49fc7284-9e84-4e41-b11a-a6f445433570"},"vehicle_type_id":"4","last_reported":1773661083,"current_range_meters":32000,"station_id":"ce4bho12rcd13ifvqh2g","pricing_plan_id":"cebpf4jnsgd1na2vs0mg"},{"bike_id":"d704426a-1f6b-4db1-a876-d214da7986d1","system_id":"levelo_inurba_marseille","lat":43.29439,"lon":5.39744,"is_reserved":false,"is_disabled":false,"rental_uris":{"android":"levelo://app?vid=d704426a-1f6b-4db1-a876-d214da7986d1","ios":"levelo://app?vid=d704426a-1f6b-4db1-a876-d214da7986d1"},"vehicle_type_id":"4","last_reported":1773661083,"current_range_meters":19600,"station_id":"ce4bh3h2rcd13ifvqdo0","pricing_plan_id":"cebpf4jnsgd1na2vs0mg"},{"bike_id":"4f8a8f64-0cea-447a-a6cb-ea09d24d6c0e","system_id":"levelo_inurba_marseille","lat":43.22572,"lon":5.41619,"is_reserved":false,"is_disabled":false,"rental_uris":{"android":"levelo://app?vid=4f8a8f64-0cea-447a-a6cb-ea09d24d6c0e","ios":"levelo://app?vid=4f8a8f64-0cea-447a-a6cb-ea09d24d6c0e"},"vehicle_type_id":"4","last_reported":1773661083,"current_range_meters":36000,"station_id":"st_d2o4gvlbi1j2169b742g","pricing_plan_id":"cebpf4jnsgd1na2vs0mg"},{"bike_id":"0adcc58c-e2a2-4863-ace0-5a79a2514524","system_id":"levelo_inurba_marseille","lat":43.30152,"lon":5.37367,"is_reserved":false,"is_disabled":false,"rental_uris":{"android":"levelo://app?vid=0adcc58c-e2a2-4863-ace0-5a79a2514524","ios":"levelo://app?vid=0adcc58c-e2a2-4863-ace0-5a79a2514524"},"vehicle_type_id":"4","last_reported":1773661083,"current_range_meters":39200,"station_id":"ce4bgs92rcd13ifvqcc0","pricing_plan_id":"cebpf4jnsgd1na2vs0mg"},{"bike_id":"1f487b11-fe62-48c6-bc95-ef78a3a9fd4e","system_id":"levelo_inurba_marseille","lat":43.29787,"lon":5.41332,"is_reserved":false,"is_disabled":false,"rental_uris":{"android":"levelo://app?vid=1f487b11-fe62-48c6-bc95-ef78a3a9fd4e","ios":"levelo://app?vid=1f487b11-fe62-48c6-bc95-ef78a3a9fd4e"},"vehicle_type_id":"4","last_reported":1773661083,"current_range_meters":38800,"station_id":"","pricing_plan_id":"cebpf4jnsgd1na2vs0mg"},{"bike_id":"fae7e927-24da-4d38-910e-c7296d949fc4","system_id":"levelo_inurba_marseille","lat":43.31364,"lon":5.36685,"is_reserved":false,"is_disabled":false,"rental_uris":{"android":"levelo://app?vid=fae7e927-24da-4d38-910e-c7296d949fc4","ios":"levelo://app?vid=fae7e927-24da-4d38-910e-c7296d949fc4"},"vehicle_type_id":"4","last_reported":1773661083,"current_range_meters":30800,"station_id":"ce4bgr92rcd13ifvqc6g","pricing_plan_id":"cebpf4jnsgd1na2vs0mg"},{"bike_id":"34257e2b-5da9-4af1-bdd7-664aa8db6834","system_id":"levelo_inurba_marseille","lat":43.23207,"lon":5.3556,"is_reserved":false,"is_disabled":false,"rental_uris":{"android":"levelo://app?vid=34257e2b-5da9-4af1-bdd7-664aa8db6834","ios":"levelo://app?vid=34257e2b-5da9-4af1-bdd7-664aa8db6834"},"vehicle_type_id":"4","last_reported":1773661083,"current_range_meters":35200,"station_id":"ce4bhu92rcd13ifvqi70","pricing_plan_id":"cebpf4jnsgd1na2vs0mg"},{"bike_id":"288bcbf7-3a52-4b2b-9af2-61f8cf367965","system_id":"levelo_inurba_marseille","lat":43.25739,"lon":5.41119,"is_reserved":false,"is_disabled":false,"rental_uris":{"android":"levelo://app?vid=288bcbf7-3a52-4b2b-9af2-61f8cf367965","ios":"levelo://app?vid=288bcbf7-3a52-4b2b-9af2-61f8cf367965"},"vehicle_type_id":"4","last_reported":1773661083,"current_range_meters":34800,"station_id":"ce4bhkp2rcd13ifvqgd0","pricing_plan_id":"cebpf4jnsgd1na2vs0mg"},{"bike_id":"fec66160-eca4-4055-a135-94a62af705e8","system_id":"levelo_inurba_marseille","lat":43.25,"lon":5.38972,"is_reserved":false,"is_disabled":false,"rental_uris":{"android":"levelo://app?vid=fec66160-eca4-4055-a135-94a62af705e8","ios":"levelo://app?vid=fec66160-eca4-4055-a135-94a62af705e8"},"vehicle_type_id":"4","last_reported":1773661083,"current_range_meters":8800,"station_id":"ce4bhgp2rcd13ifvqfd0","pricing_plan_id":"cebpf4jnsgd1na2vs0mg"},{"bike_id":"491cd09c-e0c2-44f1-852f-8525d428457d","system_id":"levelo_inurba_marseille","lat":43.3109,"lon":5.42434,"is_reserved":false,"is_disabled":false,"rental_uris":{"android":"levelo://app?vid=491cd09c-e0c2-44f1-852f-8525d428457d","ios":"levelo://app?vid=491cd09c-e0c2-44f1-852f-8525d428457d"},"vehicle_type_id":"4","last_reported":1773661083,"current_range_meters":22400,"station_id":"ce4bhp92rcd13ifvqhag","pricing_plan_id":"cebpf4jnsgd1na2vs0mg"},{"bike_id":"ec6aecc9-6355-43c0-b67e-09bbbeca1a71","system_id":"levelo_inurba_marseille","lat":43.30154,"lon":5.38105,"is_reserved":false,"is_disabled":false,"rental_uris":{"android":"levelo://app?vid=ec6aecc9-6355-43c0-b67e-09bbbeca1a71","ios":"levelo://app?vid=ec6aecc9-6355-43c0-b67e-09bbbeca1a71"},"vehicle_type_id":"4","last_reported":1773661083,"current_range_meters":28400,"station_id":"ce4bgjp2rcd13ifvqbh0","pricing_plan_id":"cebpf4jnsgd1na2vs0mg"},{"bike_id":"8efb579a-a563-4156-bc48-a4542721ceab","system_id":"levelo_inurba_marseille","lat":43.232,"lon":5.35548,"is_reserved":false,"is_disabled":false,"rental_uris":{"android":"levelo://app?vid=8efb579a-a563-4156-bc48-a4542721ceab","ios":"levelo://app?vid=8efb579a-a563-4156-bc48-a4542721ceab"},"vehicle_type_id":"4","last_reported":1773661083,"current_range_meters":17200,"station_id":"ce4bhu92rcd13ifvqi70","pricing_plan_id":"cebpf4jnsgd1na2vs0mg"},{"bike_id":"531cc776-0c51-4b8e-a023-d103a1a12f70","system_id":"levelo_inurba_marseille","lat":43.26944,"lon":5.40243,"is_reserved":false,"is_disabled":false,"rental_uris":{"android":"levelo://app?vid=531cc776-0c51-4b8e-a023-d103a1a12f70","ios":"levelo://app?vid=531cc776-0c51-4b8e-a023-d103a1a12f70"},"vehicle_type_id":"4","last_reported":1773661083,"current_range_meters":39200,"station_id":"cjm6bp8fraef2m0cb0m0","pricing_plan_id":"cebpf4jnsgd1na2vs0mg"},{"bike_id":"31a448d8-19ad-4ac0-9d1d-8f147ffd5b0f","system_id":"levelo_inurba_marseille","lat":43.31367,"lon":5.38497,"is_reserved":false,"is_disabled":false,"rental_uris":{"android":"levelo://app?vid=31a448d8-19ad-4ac0-9d1d-8f147ffd5b0f","ios":"levelo://app?vid=31a448d8-19ad-4ac0-9d1d-8f147ffd5b0f"},"vehicle_type_id":"4","last_reported":1773661083,"current_range_meters":38800,"station_id":"ce4bgt92rcd13ifvqcf0","pricing_plan_id":"cebpf4jnsgd1na2vs0mg"},{"bike_id":"e59ffb01-b028-44ab-a5e5-5d8f6dba3aee","system_id":"levelo_inurba_marseille","lat":43.29787,"lon":5.37077,"is_reserved":false,"is_disabled":false,"rental_uris":{"android":"levelo://app?vid=e59ffb01-b028-44ab-a5e5-5d8f6dba3aee","ios":"levelo://app?vid=e59ffb01-b028-44ab-a5e5-5d8f6dba3aee"},"vehicle_type_id":"4","last_reported":1773661083,"current_range_meters":38000,"station_id":"ce4bgop2rcd13ifvqc1g","pricing_plan_id":"cebpf4jnsgd1na2vs0mg"},{"bike_id":"f10523e5-8852-4b92-a3d2-5f484309f0c9","system_id":"levelo_inurba_marseille","lat":43.30376,"lon":5.42475,"is_reserved":false,"is_disabled":false,"rental_uris":{"android":"levelo://app?vid=f10523e5-8852-4b92-a3d2-5f484309f0c9","ios":"levelo://app?vid=f10523e5-8852-4b92-a3d2-5f484309f0c9"},"vehicle_type_id":"4","last_reported":1773661083,"current_range_meters":12000,"station_id":"ce4bhoh2rcd13ifvqh6g","pricing_plan_id":"cebpf4jnsgd1na2vs0mg"},{"bike_id":"c53fbb2a-979a-463a-b9d8-b70e0a06d8d0","system_id":"levelo_inurba_marseille","lat":43.28627,"lon":5.35126,"is_reserved":false,"is_disabled":false,"rental_uris":{"android":"levelo://app?vid=c53fbb2a-979a-463a-b9d8-b70e0a06d8d0","ios":"levelo://app?vid=c53fbb2a-979a-463a-b9d8-b70e0a06d8d0"},"vehicle_type_id":"4","last_reported":1773661083,"current_range_meters":34000,"station_id":"ce4bhch2rcd13ifvqeug","pricing_plan_id":"cebpf4jnsgd1na2vs0mg"},{"bike_id":"ade1d7aa-8d5f-45bd-adf3-7ab026b96602","system_id":"levelo_inurba_marseille","lat":43.28267,"lon":5.35065,"is_reserved":false,"is_disabled":false,"rental_uris":{"android":"levelo://app?vid=ade1d7aa-8d5f-45bd-adf3-7ab026b96602","ios":"levelo://app?vid=ade1d7aa-8d5f-45bd-adf3-7ab026b96602"},"vehicle_type_id":"4","last_reported":1773661083,"current_range_meters":3600,"station_id":"ce4bhbp2rcd13ifvqerg","pricing_plan_id":"cebpf4jnsgd1na2vs0mg"},{"bike_id":"eb1d1e5d-c035-4be2-ab4f-714082cc667f","system_id":"levelo_inurba_marseille","lat":43.25086,"lon":5.39529,"is_reserved":false,"is_disabled":false,"rental_uris":{"android":"levelo://app?vid=eb1d1e5d-c035-4be2-ab4f-714082cc667f","ios":"levelo://app?vid=eb1d1e5d-c035-4be2-ab4f-714082cc667f"},"vehicle_type_id":"4","last_reported":1773661083,"current_range_meters":18000,"station_id":"ce4bhm12rcd13ifvqgkg","pricing_plan_id":"cebpf4jnsgd1na2vs0mg"},{"bike_id":"cf3d27ef-91c6-429a-962e-d10a32a01938","system_id":"levelo_inurba_marseille","lat":43.29805,"lon":5.44014,"is_reserved":false,"is_disabled":false,"rental_uris":{"android":"levelo://app?vid=cf3d27ef-91c6-429a-962e-d10a32a01938","ios":"levelo://app?vid=cf3d27ef-91c6-429a-962e-d10a32a01938"},"vehicle_type_id":"4","last_reported":1773661083,"current_range_meters":8400,"station_id":"st_d3jp68qikq2c7381ktn0","pricing_plan_id":"cebpf4jnsgd1na2vs0mg"},{"bike_id":"6d0a1d1d-62d9-4b05-b15c-9b1404f11361","system_id":"levelo_inurba_marseille","lat":43.23967,"lon":5.36628,"is_reserved":false,"is_disabled":false,"rental_uris":{"android":"levelo://app?vid=6d0a1d1d-62d9-4b05-b15c-9b1404f11361","ios":"levelo://app?vid=6d0a1d1d-62d9-4b05-b15c-9b1404f11361"},"vehicle_type_id":"4","last_reported":1773661083,"current_range_meters":37600,"station_id":"ce4bhi12rcd13ifvqfp0","pricing_plan_id":"cebpf4jnsgd1na2vs0mg"},{"bike_id":"ff3c80d4-6915-439d-8d4f-2189798176f6","system_id":"levelo_inurba_marseille","lat":43.29925,"lon":5.36532,"is_reserved":false,"is_disabled":false,"rental_uris":{"android":"levelo://app?vid=ff3c80d4-6915-439d-8d4f-2189798176f6","ios":"levelo://app?vid=ff3c80d4-6915-439d-8d4f-2189798176f6"},"vehicle_type_id":"4","last_reported":1773661083,"current_range_meters":8800,"station_id":"ce4bgm92rcd13ifvqbr0","pricing_plan_id":"cebpf4jnsgd1na2vs0mg"},{"bike_id":"fb26e4bc-a6b0-4c55-a381-444e2c65af1e","system_id":"levelo_inurba_marseille","lat":43.29791,"lon":5.39356,"is_reserved":false,"is_disabled":false,"rental_uris":{"android":"levelo://app?vid=fb26e4bc-a6b0-4c55-a381-444e2c65af1e","ios":"levelo://app?vid=fb26e4bc-a6b0-4c55-a381-444e2c65af1e"},"vehicle_type_id":"4","last_reported":1773661083,"current_range_meters":40000,"station_id":"chh1huq6cuj3fo74tm60","pricing_plan_id":"cebpf4jnsgd1na2vs0mg"},{"bike_id":"88bd1de4-947e-43e7-996f-b3a6c434223c","system_id":"levelo_inurba_marseille","lat":43.25824,"lon":5.39414,"is_reserved":false,"is_disabled":true,"rental_uris":{"android":"levelo://app?vid=88bd1de4-947e-43e7-996f-b3a6c434223c","ios":"levelo://app?vid=88bd1de4-947e-43e7-996f-b3a6c434223c"},"vehicle_type_id":"4","last_reported":1773661083,"current_range_meters":33600,"station_id":"ce4bhip2rcd13ifvqft0","pricing_plan_id":"cebpf4jnsgd1na2vs0mg"},{"bike_id":"05f50eb5-8d59-44ce-ba20-2d5c1a8a4c7b","system_id":"levelo_inurba_marseille","lat":43.31718,"lon":5.4242,"is_reserved":false,"is_disabled":false,"rental_uris":{"android":"levelo://app?vid=05f50eb5-8d59-44ce-ba20-2d5c1a8a4c7b","ios":"levelo://app?vid=05f50eb5-8d59-44ce-ba20-2d5c1a8a4c7b"},"vehicle_type_id":"4","last_reported":1773661083,"current_range_meters":19200,"station_id":"ce4bhp92rcd13ifvqhbg","pricing_plan_id":"cebpf4jnsgd1na2vs0mg"},{"bike_id":"693953b5-d1a2-4ed9-9673-97b8ea6995fa","system_id":"levelo_inurba_marseille","lat":43.30547,"lon":5.36529,"is_reserved":false,"is_disabled":false,"rental_uris":{"android":"levelo://app?vid=693953b5-d1a2-4ed9-9673-97b8ea6995fa","ios":"levelo://app?vid=693953b5-d1a2-4ed9-9673-97b8ea6995fa"},"vehicle_type_id":"4","last_reported":1773661083,"current_range_meters":34000,"station_id":"ce4bgs12rcd13ifvqcag","pricing_plan_id":"cebpf4jnsgd1na2vs0mg"},{"bike_id":"fb32a1c0-e487-43ab-b761-dcce914aad54","system_id":"levelo_inurba_marseille","lat":43.25115,"lon":5.40294,"is_reserved":false,"is_disabled":false,"rental_uris":{"android":"levelo://app?vid=fb32a1c0-e487-43ab-b761-dcce914aad54","ios":"levelo://app?vid=fb32a1c0-e487-43ab-b761-dcce914aad54"},"vehicle_type_id":"4","last_reported":1773661083,"current_range_meters":39200,"station_id":"ce4bhlh2rcd13ifvqgig","pricing_plan_id":"cebpf4jnsgd1na2vs0mg"},{"bike_id":"3affc09d-1cbf-494b-a8a8-1e12543e0e71","system_id":"levelo_inurba_marseille","lat":43.31377,"lon":5.38494,"is_reserved":false,"is_disabled":false,"rental_uris":{"android":"levelo://app?vid=3affc09d-1cbf-494b-a8a8-1e12543e0e71","ios":"levelo://app?vid=3affc09d-1cbf-494b-a8a8-1e12543e0e71"},"vehicle_type_id":"4","last_reported":1773661083,"current_range_meters":32400,"station_id":"ce4bgt92rcd13ifvqcf0","pricing_plan_id":"cebpf4jnsgd1na2vs0mg"},{"bike_id":"cfbbae9e-650f-48ab-92e2-75d0f7cb2be9","system_id":"levelo_inurba_marseille","lat":43.3054,"lon":5.36554,"is_reserved":false,"is_disabled":false,"rental_uris":{"android":"levelo://app?vid=cfbbae9e-650f-48ab-92e2-75d0f7cb2be9","ios":"levelo://app?vid=cfbbae9e-650f-48ab-92e2-75d0f7cb2be9"},"vehicle_type_id":"4","last_reported":1773661083,"current_range_meters":40000,"station_id":"ce4bgs12rcd13ifvqcag","pricing_plan_id":"cebpf4jnsgd1na2vs0mg"},{"bike_id":"b62acf11-2308-4a20-baab-6b62da62f978","system_id":"levelo_inurba_marseille","lat":43.27839,"lon":5.40684,"is_reserved":false,"is_disabled":true,"rental_uris":{"android":"levelo://app?vid=b62acf11-2308-4a20-baab-6b62da62f978","ios":"levelo://app?vid=b62acf11-2308-4a20-baab-6b62da62f978"},"vehicle_type_id":"4","last_reported":1773661083,"current_range_meters":29600,"station_id":"ce4bhnh2rcd13ifvqgtg","pricing_plan_id":"cebpf4jnsgd1na2vs0mg"},{"bike_id":"0c8bc945-f98e-4148-ac18-caefb213f997","system_id":"levelo_inurba_marseille","lat":43.28157,"lon":5.42647,"is_reserved":false,"is_disabled":false,"rental_uris":{"android":"levelo://app?vid=0c8bc945-f98e-4148-ac18-caefb213f997","ios":"levelo://app?vid=0c8bc945-f98e-4148-ac18-caefb213f997"},"vehicle_type_id":"4","last_reported":1773661083,"current_range_meters":38400,"station_id":"ce4bhnh2rcd13ifvqgug","pricing_plan_id":"cebpf4jnsgd1na2vs0mg"},{"bike_id":"58f111c3-d4d8-401b-b1de-be436e4b63d6","system_id":"levelo_inurba_marseille","lat":43.23195,"lon":5.39977,"is_reserved":false,"is_disabled":false,"rental_uris":{"android":"levelo://app?vid=58f111c3-d4d8-401b-b1de-be436e4b63d6","ios":"levelo://app?vid=58f111c3-d4d8-401b-b1de-be436e4b63d6"},"vehicle_type_id":"4","last_reported":1773661083,"current_range_meters":29600,"station_id":"ce4bhn12rcd13ifvqgqg","pricing_plan_id":"cebpf4jnsgd1na2vs0mg"},{"bike_id":"e6d9e185-de29-413a-8517-3942df1a652a","system_id":"levelo_inurba_marseille","lat":43.29838,"lon":5.36265,"is_reserved":false,"is_disabled":false,"rental_uris":{"android":"levelo://app?vid=e6d9e185-de29-413a-8517-3942df1a652a","ios":"levelo://app?vid=e6d9e185-de29-413a-8517-3942df1a652a"},"vehicle_type_id":"4","last_reported":1773661083,"current_range_meters":31200,"station_id":"ce4bgpp2rcd13ifvqc3g","pricing_plan_id":"cebpf4jnsgd1na2vs0mg"},{"bike_id":"707b4e7c-9ed9-40fb-b867-fd5b1cf65eae","system_id":"levelo_inurba_marseille","lat":43.27933,"lon":5.38718,"is_reserved":false,"is_disabled":false,"rental_uris":{"android":"levelo://app?vid=707b4e7c-9ed9-40fb-b867-fd5b1cf65eae","ios":"levelo://app?vid=707b4e7c-9ed9-40fb-b867-fd5b1cf65eae"},"vehicle_type_id":"4","last_reported":1773661083,"current_range_meters":30400,"station_id":"","pricing_plan_id":"cebpf4jnsgd1na2vs0mg"},{"bike_id":"a55b836b-10e1-42bf-bf55-59908437d126","system_id":"levelo_inurba_marseille","lat":43.29792,"lon":5.38098,"is_reserved":false,"is_disabled":false,"rental_uris":{"android":"levelo://app?vid=a55b836b-10e1-42bf-bf55-59908437d126","ios":"levelo://app?vid=a55b836b-10e1-42bf-bf55-59908437d126"},"vehicle_type_id":"4","last_reported":1773661083,"current_range_meters":27600,"station_id":"ce4bgip2rcd13ifvqbb0","pricing_plan_id":"cebpf4jnsgd1na2vs0mg"},{"bike_id":"ffd2aa79-124b-40e3-b74b-93a25fcdb83f","system_id":"levelo_inurba_marseille","lat":43.23179,"lon":5.39991,"is_reserved":false,"is_disabled":false,"rental_uris":{"android":"levelo://app?vid=ffd2aa79-124b-40e3-b74b-93a25fcdb83f","ios":"levelo://app?vid=ffd2aa79-124b-40e3-b74b-93a25fcdb83f"},"vehicle_type_id":"4","last_reported":1773661083,"current_range_meters":27200,"station_id":"ce4bhn12rcd13ifvqgqg","pricing_plan_id":"cebpf4jnsgd1na2vs0mg"},{"bike_id":"40450e44-cc9d-407c-957a-1aeb6f187932","system_id":"levelo_inurba_marseille","lat":43.22555,"lon":5.41628,"is_reserved":false,"is_disabled":false,"rental_uris":{"android":"levelo://app?vid=40450e44-cc9d-407c-957a-1aeb6f187932","ios":"levelo://app?vid=40450e44-cc9d-407c-957a-1aeb6f187932"},"vehicle_type_id":"4","last_reported":1773661083,"current_range_meters":8000,"station_id":"st_d2o4gvlbi1j2169b742g","pricing_plan_id":"cebpf4jnsgd1na2vs0mg"},{"bike_id":"e24aa91d-22b2-440b-bc6d-25ab2b336b7a","system_id":"levelo_inurba_marseille","lat":43.23209,"lon":5.35511,"is_reserved":false,"is_disabled":false,"rental_uris":{"android":"levelo://app?vid=e24aa91d-22b2-440b-bc6d-25ab2b336b7a","ios":"levelo://app?vid=e24aa91d-22b2-440b-bc6d-25ab2b336b7a"},"vehicle_type_id":"4","last_reported":1773661083,"current_range_meters":39200,"station_id":"ce4bhu92rcd13ifvqi70","pricing_plan_id":"cebpf4jnsgd1na2vs0mg"},{"bike_id":"bc4f7328-cab9-4fcd-8fd6-48b670075c96","system_id":"levelo_inurba_marseille","lat":43.30559,"lon":5.36515,"is_reserved":false,"is_disabled":false,"rental_uris":{"android":"levelo://app?vid=bc4f7328-cab9-4fcd-8fd6-48b670075c96","ios":"levelo://app?vid=bc4f7328-cab9-4fcd-8fd6-48b670075c96"},"vehicle_type_id":"4","last_reported":1773661083,"current_range_meters":39200,"station_id":"ce4bgs12rcd13ifvqcag","pricing_plan_id":"cebpf4jnsgd1na2vs0mg"},{"bike_id":"8439959a-aa48-4561-86c2-9e9a8b3321dc","system_id":"levelo_inurba_marseille","lat":43.31766,"lon":5.39006,"is_reserved":false,"is_disabled":false,"rental_uris":{"android":"levelo://app?vid=8439959a-aa48-4561-86c2-9e9a8b3321dc","ios":"levelo://app?vid=8439959a-aa48-4561-86c2-9e9a8b3321dc"},"vehicle_type_id":"4","last_reported":1773661083,"current_range_meters":36800,"station_id":"ce4bhqp2rcd13ifvqhng","pricing_plan_id":"cebpf4jnsgd1na2vs0mg"},{"bike_id":"eaa5390d-2d68-4739-8254-52f983e127b1","system_id":"levelo_inurba_marseille","lat":43.28471,"lon":5.48401,"is_reserved":false,"is_disabled":false,"rental_uris":{"android":"levelo://app?vid=eaa5390d-2d68-4739-8254-52f983e127b1","ios":"levelo://app?vid=eaa5390d-2d68-4739-8254-52f983e127b1"},"vehicle_type_id":"4","last_reported":1773661083,"current_range_meters":22000,"station_id":"","pricing_plan_id":"cebpf4jnsgd1na2vs0mg"},{"bike_id":"f53ed231-3e48-421e-91cb-581c11eece38","system_id":"levelo_inurba_marseille","lat":43.24957,"lon":5.40502,"is_reserved":false,"is_disabled":false,"rental_uris":{"android":"levelo://app?vid=f53ed231-3e48-421e-91cb-581c11eece38","ios":"levelo://app?vid=f53ed231-3e48-421e-91cb-581c11eece38"},"vehicle_type_id":"4","last_reported":1773661083,"current_range_meters":9200,"station_id":"st_d2ngiaodas8pm72gd1h0","pricing_plan_id":"cebpf4jnsgd1na2vs0mg"},{"bike_id":"aeebba76-acfc-4eb8-9604-d13ad2c48a6a","system_id":"levelo_inurba_marseille","lat":43.31751,"lon":5.39029,"is_reserved":false,"is_disabled":false,"rental_uris":{"android":"levelo://app?vid=aeebba76-acfc-4eb8-9604-d13ad2c48a6a","ios":"levelo://app?vid=aeebba76-acfc-4eb8-9604-d13ad2c48a6a"},"vehicle_type_id":"4","last_reported":1773661083,"current_range_meters":33600,"station_id":"ce4bhqp2rcd13ifvqhng","pricing_plan_id":"cebpf4jnsgd1na2vs0mg"},{"bike_id":"eba7007a-22fe-4603-b600-e6d79c47801e","system_id":"levelo_inurba_marseille","lat":43.27199,"lon":5.40982,"is_reserved":false,"is_disabled":false,"rental_uris":{"android":"levelo://app?vid=eba7007a-22fe-4603-b600-e6d79c47801e","ios":"levelo://app?vid=eba7007a-22fe-4603-b600-e6d79c47801e"},"vehicle_type_id":"4","last_reported":1773661083,"current_range_meters":28400,"station_id":"ce4bhl12rcd13ifvqgf0","pricing_plan_id":"cebpf4jnsgd1na2vs0mg"},{"bike_id":"963aea0f-edfd-42fe-bb5c-9e3909fc1c6c","system_id":"levelo_inurba_marseille","lat":43.25588,"lon":5.38217,"is_reserved":false,"is_disabled":false,"rental_uris":{"android":"levelo://app?vid=963aea0f-edfd-42fe-bb5c-9e3909fc1c6c","ios":"levelo://app?vid=963aea0f-edfd-42fe-bb5c-9e3909fc1c6c"},"vehicle_type_id":"4","last_reported":1773661083,"current_range_meters":39200,"station_id":"ce4bhih2rcd13ifvqfs0","pricing_plan_id":"cebpf4jnsgd1na2vs0mg"},{"bike_id":"8aaf525a-2438-4977-86b2-70256683bfeb","system_id":"levelo_inurba_marseille","lat":43.28538,"lon":5.44078,"is_reserved":false,"is_disabled":false,"rental_uris":{"android":"levelo://app?vid=8aaf525a-2438-4977-86b2-70256683bfeb","ios":"levelo://app?vid=8aaf525a-2438-4977-86b2-70256683bfeb"},"vehicle_type_id":"4","last_reported":1773661083,"current_range_meters":32400,"station_id":"st_d3j3df2ikq2c7380ej80","pricing_plan_id":"cebpf4jnsgd1na2vs0mg"},{"bike_id":"085c5bb5-85ae-49c1-a127-07fab03a2d5e","system_id":"levelo_inurba_marseille","lat":43.24663,"lon":5.38176,"is_reserved":false,"is_disabled":false,"rental_uris":{"android":"levelo://app?vid=085c5bb5-85ae-49c1-a127-07fab03a2d5e","ios":"levelo://app?vid=085c5bb5-85ae-49c1-a127-07fab03a2d5e"},"vehicle_type_id":"4","last_reported":1773661083,"current_range_meters":6800,"station_id":"ce4bhih2rcd13ifvqfr0","pricing_plan_id":"cebpf4jnsgd1na2vs0mg"},{"bike_id":"85384336-ec8c-4d14-8cf7-dd1704f5ada9","system_id":"levelo_inurba_marseille","lat":43.28426,"lon":5.34972,"is_reserved":false,"is_disabled":false,"rental_uris":{"android":"levelo://app?vid=85384336-ec8c-4d14-8cf7-dd1704f5ada9","ios":"levelo://app?vid=85384336-ec8c-4d14-8cf7-dd1704f5ada9"},"vehicle_type_id":"4","last_reported":1773661083,"current_range_meters":36400,"station_id":"ce4bhbh2rcd13ifvqepg","pricing_plan_id":"cebpf4jnsgd1na2vs0mg"},{"bike_id":"64bbf5db-f1ed-46fb-8f3f-5a1a519fb92d","system_id":"levelo_inurba_marseille","lat":43.29911,"lon":5.3747,"is_reserved":false,"is_disabled":false,"rental_uris":{"android":"levelo://app?vid=64bbf5db-f1ed-46fb-8f3f-5a1a519fb92d","ios":"levelo://app?vid=64bbf5db-f1ed-46fb-8f3f-5a1a519fb92d"},"vehicle_type_id":"4","last_reported":1773661083,"current_range_meters":34000,"station_id":"ce4bgjh2rcd13ifvqbg0","pricing_plan_id":"cebpf4jnsgd1na2vs0mg"},{"bike_id":"595f9878-31d2-4c93-8b8e-9fa0ff0679bb","system_id":"levelo_inurba_marseille","lat":43.30373,"lon":5.42471,"is_reserved":false,"is_disabled":false,"rental_uris":{"android":"levelo://app?vid=595f9878-31d2-4c93-8b8e-9fa0ff0679bb","ios":"levelo://app?vid=595f9878-31d2-4c93-8b8e-9fa0ff0679bb"},"vehicle_type_id":"4","last_reported":1773661083,"current_range_meters":27200,"station_id":"ce4bhoh2rcd13ifvqh6g","pricing_plan_id":"cebpf4jnsgd1na2vs0mg"},{"bike_id":"e1a4d46a-c23c-441f-8d70-9dc1a65b67f9","system_id":"levelo_inurba_marseille","lat":43.2174,"lon":5.34617,"is_reserved":false,"is_disabled":false,"rental_uris":{"android":"levelo://app?vid=e1a4d46a-c23c-441f-8d70-9dc1a65b67f9","ios":"levelo://app?vid=e1a4d46a-c23c-441f-8d70-9dc1a65b67f9"},"vehicle_type_id":"4","last_reported":1773661083,"current_range_meters":35600,"station_id":"st_cvj6r9ubvosntc0bgbag","pricing_plan_id":"cebpf4jnsgd1na2vs0mg"},{"bike_id":"592a7547-d375-47f5-a92c-507aad4780b8","system_id":"levelo_inurba_marseille","lat":43.22569,"lon":5.41635,"is_reserved":false,"is_disabled":false,"rental_uris":{"android":"levelo://app?vid=592a7547-d375-47f5-a92c-507aad4780b8","ios":"levelo://app?vid=592a7547-d375-47f5-a92c-507aad4780b8"},"vehicle_type_id":"4","last_reported":1773661083,"current_range_meters":33600,"station_id":"st_d2o4gvlbi1j2169b742g","pricing_plan_id":"cebpf4jnsgd1na2vs0mg"},{"bike_id":"b51100a3-5fc1-439d-aae8-1f50eba7a69f","system_id":"levelo_inurba_marseille","lat":43.26197,"lon":5.37918,"is_reserved":false,"is_disabled":false,"rental_uris":{"android":"levelo://app?vid=b51100a3-5fc1-439d-aae8-1f50eba7a69f","ios":"levelo://app?vid=b51100a3-5fc1-439d-aae8-1f50eba7a69f"},"vehicle_type_id":"4","last_reported":1773661083,"current_range_meters":38000,"station_id":"ce4bhjp2rcd13ifvqg90","pricing_plan_id":"cebpf4jnsgd1na2vs0mg"},{"bike_id":"66238237-b0ff-4d4c-9fd0-1d54f6552b47","system_id":"levelo_inurba_marseille","lat":43.21754,"lon":5.34595,"is_reserved":false,"is_disabled":false,"rental_uris":{"android":"levelo://app?vid=66238237-b0ff-4d4c-9fd0-1d54f6552b47","ios":"levelo://app?vid=66238237-b0ff-4d4c-9fd0-1d54f6552b47"},"vehicle_type_id":"4","last_reported":1773661083,"current_range_meters":11200,"station_id":"st_cvj6r9ubvosntc0bgbag","pricing_plan_id":"cebpf4jnsgd1na2vs0mg"},{"bike_id":"0261f6e5-2774-40dd-b946-99be025dda00","system_id":"levelo_inurba_marseille","lat":43.24076,"lon":5.37723,"is_reserved":false,"is_disabled":false,"rental_uris":{"android":"levelo://app?vid=0261f6e5-2774-40dd-b946-99be025dda00","ios":"levelo://app?vid=0261f6e5-2774-40dd-b946-99be025dda00"},"vehicle_type_id":"4","last_reported":1773661083,"current_range_meters":28000,"station_id":"ce4bhnp2rcd13ifvqgvg","pricing_plan_id":"cebpf4jnsgd1na2vs0mg"},{"bike_id":"10815e11-61cb-415f-8a36-f29cace97448","system_id":"levelo_inurba_marseille","lat":43.30553,"lon":5.36726,"is_reserved":false,"is_disabled":false,"rental_uris":{"android":"levelo://app?vid=10815e11-61cb-415f-8a36-f29cace97448","ios":"levelo://app?vid=10815e11-61cb-415f-8a36-f29cace97448"},"vehicle_type_id":"4","last_reported":1773661083,"current_range_meters":30800,"station_id":"ce4bgrp2rcd13ifvqc9g","pricing_plan_id":"cebpf4jnsgd1na2vs0mg"},{"bike_id":"72e248b9-3433-4c84-9cdf-83a90cf0f4a9","system_id":"levelo_inurba_marseille","lat":43.29191,"lon":5.39325,"is_reserved":false,"is_disabled":true,"rental_uris":{"android":"levelo://app?vid=72e248b9-3433-4c84-9cdf-83a90cf0f4a9","ios":"levelo://app?vid=72e248b9-3433-4c84-9cdf-83a90cf0f4a9"},"vehicle_type_id":"4","last_reported":1773661083,"current_range_meters":11600,"station_id":"ce4bh192rcd13ifvqdd0","pricing_plan_id":"cebpf4jnsgd1na2vs0mg"},{"bike_id":"1e4b6d08-d88d-4a13-8c98-44800c1e0ab2","system_id":"levelo_inurba_marseille","lat":43.31121,"lon":5.37769,"is_reserved":false,"is_disabled":false,"rental_uris":{"android":"levelo://app?vid=1e4b6d08-d88d-4a13-8c98-44800c1e0ab2","ios":"levelo://app?vid=1e4b6d08-d88d-4a13-8c98-44800c1e0ab2"},"vehicle_type_id":"4","last_reported":1773661083,"current_range_meters":34800,"station_id":"ce4bgt92rcd13ifvqcg0","pricing_plan_id":"cebpf4jnsgd1na2vs0mg"},{"bike_id":"223ebef5-f566-4137-830f-56647cde50d8","system_id":"levelo_inurba_marseille","lat":43.3117,"lon":5.3871,"is_reserved":false,"is_disabled":true,"rental_uris":{"android":"levelo://app?vid=223ebef5-f566-4137-830f-56647cde50d8","ios":"levelo://app?vid=223ebef5-f566-4137-830f-56647cde50d8"},"vehicle_type_id":"4","last_reported":1773661083,"current_range_meters":39200,"station_id":"ce4bgv12rcd13ifvqcp0","pricing_plan_id":"cebpf4jnsgd1na2vs0mg"},{"bike_id":"8aafbcd1-e0fe-4ef4-b089-a98b4c86c0ee","system_id":"levelo_inurba_marseille","lat":43.26191,"lon":5.37443,"is_reserved":false,"is_disabled":true,"rental_uris":{"android":"levelo://app?vid=8aafbcd1-e0fe-4ef4-b089-a98b4c86c0ee","ios":"levelo://app?vid=8aafbcd1-e0fe-4ef4-b089-a98b4c86c0ee"},"vehicle_type_id":"4","last_reported":1773661083,"current_range_meters":26800,"station_id":"ce4bhgp2rcd13ifvqfc0","pricing_plan_id":"cebpf4jnsgd1na2vs0mg"},{"bike_id":"deca76b1-7d82-4cda-9d78-923f62bd21c3","system_id":"levelo_inurba_marseille","lat":43.337444,"lon":5.374475,"is_reserved":false,"is_disabled":false,"rental_uris":{"android":"levelo://app?vid=deca76b1-7d82-4cda-9d78-923f62bd21c3","ios":"levelo://app?vid=deca76b1-7d82-4cda-9d78-923f62bd21c3"},"vehicle_type_id":"4","last_reported":1773661083,"current_range_meters":38400,"station_id":"","pricing_plan_id":"cebpf4jnsgd1na2vs0mg"},{"bike_id":"b3e8b3aa-26db-449c-8162-0ed85a2bc616","system_id":"levelo_inurba_marseille","lat":43.31602,"lon":5.40633,"is_reserved":false,"is_disabled":false,"rental_uris":{"android":"levelo://app?vid=b3e8b3aa-26db-449c-8162-0ed85a2bc616","ios":"levelo://app?vid=b3e8b3aa-26db-449c-8162-0ed85a2bc616"},"vehicle_type_id":"4","last_reported":1773661083,"current_range_meters":20800,"station_id":"","pricing_plan_id":"cebpf4jnsgd1na2vs0mg"},{"bike_id":"0415130a-da16-48a1-9d0b-27915824da9e","system_id":"levelo_inurba_marseille","lat":43.29985,"lon":5.37165,"is_reserved":false,"is_disabled":false,"rental_uris":{"android":"levelo://app?vid=0415130a-da16-48a1-9d0b-27915824da9e","ios":"levelo://app?vid=0415130a-da16-48a1-9d0b-27915824da9e"},"vehicle_type_id":"4","last_reported":1773661083,"current_range_meters":5600,"station_id":"ce4bgr92rcd13ifvqc7g","pricing_plan_id":"cebpf4jnsgd1na2vs0mg"},{"bike_id":"7cf4be83-26ac-4c93-9356-1166c34c70ba","system_id":"levelo_inurba_marseille","lat":43.32996,"lon":5.4128,"is_reserved":false,"is_disabled":false,"rental_uris":{"android":"levelo://app?vid=7cf4be83-26ac-4c93-9356-1166c34c70ba","ios":"levelo://app?vid=7cf4be83-26ac-4c93-9356-1166c34c70ba"},"vehicle_type_id":"4","last_reported":1773661083,"current_range_meters":10000,"station_id":"","pricing_plan_id":"cebpf4jnsgd1na2vs0mg"},{"bike_id":"d03f9bdb-4ab4-4e1f-ae03-3cffd5c48c8d","system_id":"levelo_inurba_marseille","lat":43.22934,"lon":5.35376,"is_reserved":false,"is_disabled":false,"rental_uris":{"android":"levelo://app?vid=d03f9bdb-4ab4-4e1f-ae03-3cffd5c48c8d","ios":"levelo://app?vid=d03f9bdb-4ab4-4e1f-ae03-3cffd5c48c8d"},"vehicle_type_id":"4","last_reported":1773661083,"current_range_meters":10000,"station_id":"cpo3532slgdg3j2ikp40","pricing_plan_id":"cebpf4jnsgd1na2vs0mg"},{"bike_id":"dc59c3f3-da49-4d63-8a76-f483748daf43","system_id":"levelo_inurba_marseille","lat":43.28711,"lon":5.39995,"is_reserved":false,"is_disabled":false,"rental_uris":{"android":"levelo://app?vid=dc59c3f3-da49-4d63-8a76-f483748daf43","ios":"levelo://app?vid=dc59c3f3-da49-4d63-8a76-f483748daf43"},"vehicle_type_id":"4","last_reported":1773661083,"current_range_meters":40000,"station_id":"ce4bho92rcd13ifvqh3g","pricing_plan_id":"cebpf4jnsgd1na2vs0mg"},{"bike_id":"d232d5fc-6ad9-455f-bf08-6b0518291104","system_id":"levelo_inurba_marseille","lat":43.2958,"lon":5.36732,"is_reserved":false,"is_disabled":false,"rental_uris":{"android":"levelo://app?vid=d232d5fc-6ad9-455f-bf08-6b0518291104","ios":"levelo://app?vid=d232d5fc-6ad9-455f-bf08-6b0518291104"},"vehicle_type_id":"4","last_reported":1773661083,"current_range_meters":35200,"station_id":"ce4bgph2rcd13ifvqc2g","pricing_plan_id":"cebpf4jnsgd1na2vs0mg"},{"bike_id":"0aa11af6-4a66-4b65-b781-8959dd3e1b05","system_id":"levelo_inurba_marseille","lat":43.2991,"lon":5.38077,"is_reserved":false,"is_disabled":false,"rental_uris":{"android":"levelo://app?vid=0aa11af6-4a66-4b65-b781-8959dd3e1b05","ios":"levelo://app?vid=0aa11af6-4a66-4b65-b781-8959dd3e1b05"},"vehicle_type_id":"4","last_reported":1773661083,"current_range_meters":28400,"station_id":"","pricing_plan_id":"cebpf4jnsgd1na2vs0mg"},{"bike_id":"418580e6-fe33-4376-9e32-1b7fa7c3dab5","system_id":"levelo_inurba_marseille","lat":43.24664,"lon":5.38874,"is_reserved":false,"is_disabled":false,"rental_uris":{"android":"levelo://app?vid=418580e6-fe33-4376-9e32-1b7fa7c3dab5","ios":"levelo://app?vid=418580e6-fe33-4376-9e32-1b7fa7c3dab5"},"vehicle_type_id":"4","last_reported":1773661083,"current_range_meters":21600,"station_id":"ce4bhg12rcd13ifvqf60","pricing_plan_id":"cebpf4jnsgd1na2vs0mg"},{"bike_id":"4be2f4b3-57e8-4b87-8156-822e826b6809","system_id":"levelo_inurba_marseille","lat":43.27423,"lon":5.39392,"is_reserved":false,"is_disabled":false,"rental_uris":{"android":"levelo://app?vid=4be2f4b3-57e8-4b87-8156-822e826b6809","ios":"levelo://app?vid=4be2f4b3-57e8-4b87-8156-822e826b6809"},"vehicle_type_id":"4","last_reported":1773661083,"current_range_meters":37600,"station_id":"ce4bhdp2rcd13ifvqf20","pricing_plan_id":"cebpf4jnsgd1na2vs0mg"},{"bike_id":"b573ef7e-3ef0-492b-a282-15d0167477a9","system_id":"levelo_inurba_marseille","lat":43.30173,"lon":5.37386,"is_reserved":false,"is_disabled":false,"rental_uris":{"android":"levelo://app?vid=b573ef7e-3ef0-492b-a282-15d0167477a9","ios":"levelo://app?vid=b573ef7e-3ef0-492b-a282-15d0167477a9"},"vehicle_type_id":"4","last_reported":1773661083,"current_range_meters":17600,"station_id":"ce4bgs92rcd13ifvqcc0","pricing_plan_id":"cebpf4jnsgd1na2vs0mg"},{"bike_id":"ae5def3c-7543-49c4-bc07-b307fc0d383c","system_id":"levelo_inurba_marseille","lat":43.32349,"lon":5.38901,"is_reserved":false,"is_disabled":false,"rental_uris":{"android":"levelo://app?vid=ae5def3c-7543-49c4-bc07-b307fc0d383c","ios":"levelo://app?vid=ae5def3c-7543-49c4-bc07-b307fc0d383c"},"vehicle_type_id":"4","last_reported":1773661083,"current_range_meters":39200,"station_id":"ce4bhqp2rcd13ifvqhog","pricing_plan_id":"cebpf4jnsgd1na2vs0mg"},{"bike_id":"070475bf-1a52-421a-820b-baec73f3c197","system_id":"levelo_inurba_marseille","lat":43.26573,"lon":5.39011,"is_reserved":false,"is_disabled":false,"rental_uris":{"android":"levelo://app?vid=070475bf-1a52-421a-820b-baec73f3c197","ios":"levelo://app?vid=070475bf-1a52-421a-820b-baec73f3c197"},"vehicle_type_id":"4","last_reported":1773661083,"current_range_meters":36000,"station_id":"ce4bhe12rcd13ifvqf30","pricing_plan_id":"cebpf4jnsgd1na2vs0mg"},{"bike_id":"5660b7c9-4215-4c98-8d02-03986140ce02","system_id":"levelo_inurba_marseille","lat":43.27183,"lon":5.39207,"is_reserved":false,"is_disabled":false,"rental_uris":{"android":"levelo://app?vid=5660b7c9-4215-4c98-8d02-03986140ce02","ios":"levelo://app?vid=5660b7c9-4215-4c98-8d02-03986140ce02"},"vehicle_type_id":"4","last_reported":1773661083,"current_range_meters":27600,"station_id":"ce4bhhp2rcd13ifvqfm0","pricing_plan_id":"cebpf4jnsgd1na2vs0mg"},{"bike_id":"c5301128-1c98-473f-b471-0306f238104d","system_id":"levelo_inurba_marseille","lat":43.23969,"lon":5.36631,"is_reserved":false,"is_disabled":false,"rental_uris":{"android":"levelo://app?vid=c5301128-1c98-473f-b471-0306f238104d","ios":"levelo://app?vid=c5301128-1c98-473f-b471-0306f238104d"},"vehicle_type_id":"4","last_reported":1773661083,"current_range_meters":37600,"station_id":"ce4bhi12rcd13ifvqfp0","pricing_plan_id":"cebpf4jnsgd1na2vs0mg"},{"bike_id":"c8f5ec7e-ccc6-49f8-b39a-2f757784a180","system_id":"levelo_inurba_marseille","lat":43.31442,"lon":5.37328,"is_reserved":false,"is_disabled":false,"rental_uris":{"android":"levelo://app?vid=c8f5ec7e-ccc6-49f8-b39a-2f757784a180","ios":"levelo://app?vid=c8f5ec7e-ccc6-49f8-b39a-2f757784a180"},"vehicle_type_id":"4","last_reported":1773661083,"current_range_meters":8400,"station_id":"ce4bgt12rcd13ifvqcd0","pricing_plan_id":"cebpf4jnsgd1na2vs0mg"},{"bike_id":"e47c06f6-667b-4954-b2c2-648a512dfc30","system_id":"levelo_inurba_marseille","lat":43.23167,"lon":5.43693,"is_reserved":false,"is_disabled":false,"rental_uris":{"android":"levelo://app?vid=e47c06f6-667b-4954-b2c2-648a512dfc30","ios":"levelo://app?vid=e47c06f6-667b-4954-b2c2-648a512dfc30"},"vehicle_type_id":"4","last_reported":1773661083,"current_range_meters":18800,"station_id":"ce4bhmp2rcd13ifvqgog","pricing_plan_id":"cebpf4jnsgd1na2vs0mg"},{"bike_id":"0e2d76bc-ad8a-465a-92cd-b9cc312fd614","system_id":"levelo_inurba_marseille","lat":43.27944,"lon":5.41034,"is_reserved":false,"is_disabled":false,"rental_uris":{"android":"levelo://app?vid=0e2d76bc-ad8a-465a-92cd-b9cc312fd614","ios":"levelo://app?vid=0e2d76bc-ad8a-465a-92cd-b9cc312fd614"},"vehicle_type_id":"4","last_reported":1773661083,"current_range_meters":17200,"station_id":"ce4bhnp2rcd13ifvqh0g","pricing_plan_id":"cebpf4jnsgd1na2vs0mg"},{"bike_id":"f505b7fb-59c0-4e9b-9f6b-da16344a75a6","system_id":"levelo_inurba_marseille","lat":43.2864,"lon":5.35105,"is_reserved":false,"is_disabled":false,"rental_uris":{"android":"levelo://app?vid=f505b7fb-59c0-4e9b-9f6b-da16344a75a6","ios":"levelo://app?vid=f505b7fb-59c0-4e9b-9f6b-da16344a75a6"},"vehicle_type_id":"4","last_reported":1773661083,"current_range_meters":36800,"station_id":"ce4bhch2rcd13ifvqeug","pricing_plan_id":"cebpf4jnsgd1na2vs0mg"},{"bike_id":"a3c5b423-a9fa-4272-80e8-5e01ae0ee9f8","system_id":"levelo_inurba_marseille","lat":43.26072,"lon":5.39406,"is_reserved":false,"is_disabled":false,"rental_uris":{"android":"levelo://app?vid=a3c5b423-a9fa-4272-80e8-5e01ae0ee9f8","ios":"levelo://app?vid=a3c5b423-a9fa-4272-80e8-5e01ae0ee9f8"},"vehicle_type_id":"4","last_reported":1773661083,"current_range_meters":11200,"station_id":"ce4bhh92rcd13ifvqfj0","pricing_plan_id":"cebpf4jnsgd1na2vs0mg"},{"bike_id":"37e19328-4ae9-45ba-b251-97d4e8eb9e8f","system_id":"levelo_inurba_marseille","lat":43.25578,"lon":5.38224,"is_reserved":false,"is_disabled":false,"rental_uris":{"android":"levelo://app?vid=37e19328-4ae9-45ba-b251-97d4e8eb9e8f","ios":"levelo://app?vid=37e19328-4ae9-45ba-b251-97d4e8eb9e8f"},"vehicle_type_id":"4","last_reported":1773661083,"current_range_meters":39200,"station_id":"ce4bhih2rcd13ifvqfs0","pricing_plan_id":"cebpf4jnsgd1na2vs0mg"},{"bike_id":"1a015caf-5869-4f89-80f8-4ca2a3c0d8ad","system_id":"levelo_inurba_marseille","lat":43.24859,"lon":5.37423,"is_reserved":false,"is_disabled":false,"rental_uris":{"android":"levelo://app?vid=1a015caf-5869-4f89-80f8-4ca2a3c0d8ad","ios":"levelo://app?vid=1a015caf-5869-4f89-80f8-4ca2a3c0d8ad"},"vehicle_type_id":"4","last_reported":1773661083,"current_range_meters":39200,"station_id":"","pricing_plan_id":"cebpf4jnsgd1na2vs0mg"},{"bike_id":"23e678b2-1f77-49cd-b6e6-b676bf50bd0d","system_id":"levelo_inurba_marseille","lat":43.28347,"lon":5.38112,"is_reserved":false,"is_disabled":true,"rental_uris":{"android":"levelo://app?vid=23e678b2-1f77-49cd-b6e6-b676bf50bd0d","ios":"levelo://app?vid=23e678b2-1f77-49cd-b6e6-b676bf50bd0d"},"vehicle_type_id":"4","last_reported":1773661083,"current_range_meters":28400,"station_id":"ce4bh412rcd13ifvqdr0","pricing_plan_id":"cebpf4jnsgd1na2vs0mg"},{"bike_id":"e2a03a7f-5648-4f9b-ac20-b0e493b7b350","system_id":"levelo_inurba_marseille","lat":43.32352,"lon":5.36749,"is_reserved":false,"is_disabled":false,"rental_uris":{"android":"levelo://app?vid=e2a03a7f-5648-4f9b-ac20-b0e493b7b350","ios":"levelo://app?vid=e2a03a7f-5648-4f9b-ac20-b0e493b7b350"},"vehicle_type_id":"4","last_reported":1773661083,"current_range_meters":39200,"station_id":"ce4bhsh2rcd13ifvqi2g","pricing_plan_id":"cebpf4jnsgd1na2vs0mg"},{"bike_id":"b231ffc4-58c5-4eee-8a96-e0228790bd5e","system_id":"levelo_inurba_marseille","lat":43.30548,"lon":5.36545,"is_reserved":false,"is_disabled":false,"rental_uris":{"android":"levelo://app?vid=b231ffc4-58c5-4eee-8a96-e0228790bd5e","ios":"levelo://app?vid=b231ffc4-58c5-4eee-8a96-e0228790bd5e"},"vehicle_type_id":"4","last_reported":1773661083,"current_range_meters":20400,"station_id":"ce4bgs12rcd13ifvqcag","pricing_plan_id":"cebpf4jnsgd1na2vs0mg"},{"bike_id":"9c2486c2-e062-4581-a21f-f081ce0fb87f","system_id":"levelo_inurba_marseille","lat":43.29812,"lon":5.44067,"is_reserved":false,"is_disabled":false,"rental_uris":{"android":"levelo://app?vid=9c2486c2-e062-4581-a21f-f081ce0fb87f","ios":"levelo://app?vid=9c2486c2-e062-4581-a21f-f081ce0fb87f"},"vehicle_type_id":"4","last_reported":1773661083,"current_range_meters":16400,"station_id":"st_d3jp68qikq2c7381ktn0","pricing_plan_id":"cebpf4jnsgd1na2vs0mg"},{"bike_id":"3f484f2e-0b76-41f3-9fe3-3db907fd108c","system_id":"levelo_inurba_marseille","lat":43.24818,"lon":5.37445,"is_reserved":false,"is_disabled":false,"rental_uris":{"android":"levelo://app?vid=3f484f2e-0b76-41f3-9fe3-3db907fd108c","ios":"levelo://app?vid=3f484f2e-0b76-41f3-9fe3-3db907fd108c"},"vehicle_type_id":"4","last_reported":1773661083,"current_range_meters":27200,"station_id":"ce4bhgh2rcd13ifvqfb0","pricing_plan_id":"cebpf4jnsgd1na2vs0mg"},{"bike_id":"ca5596d5-ef65-4751-8bbc-02c0154ab942","system_id":"levelo_inurba_marseille","lat":43.3317,"lon":5.37706,"is_reserved":false,"is_disabled":false,"rental_uris":{"android":"levelo://app?vid=ca5596d5-ef65-4751-8bbc-02c0154ab942","ios":"levelo://app?vid=ca5596d5-ef65-4751-8bbc-02c0154ab942"},"vehicle_type_id":"4","last_reported":1773661083,"current_range_meters":30400,"station_id":"st_d46cu089ee8s73dldbu0","pricing_plan_id":"cebpf4jnsgd1na2vs0mg"},{"bike_id":"a8ffcb99-ce05-4b81-b908-71253449bbc3","system_id":"levelo_inurba_marseille","lat":43.29989,"lon":5.4131,"is_reserved":false,"is_disabled":false,"rental_uris":{"android":"levelo://app?vid=a8ffcb99-ce05-4b81-b908-71253449bbc3","ios":"levelo://app?vid=a8ffcb99-ce05-4b81-b908-71253449bbc3"},"vehicle_type_id":"4","last_reported":1773661083,"current_range_meters":37600,"station_id":"ce4bhp12rcd13ifvqh9g","pricing_plan_id":"cebpf4jnsgd1na2vs0mg"},{"bike_id":"fa4b0550-a256-4e30-bfae-7db9387b3589","system_id":"levelo_inurba_marseille","lat":43.28708,"lon":5.39992,"is_reserved":false,"is_disabled":false,"rental_uris":{"android":"levelo://app?vid=fa4b0550-a256-4e30-bfae-7db9387b3589","ios":"levelo://app?vid=fa4b0550-a256-4e30-bfae-7db9387b3589"},"vehicle_type_id":"4","last_reported":1773661083,"current_range_meters":32000,"station_id":"ce4bho92rcd13ifvqh3g","pricing_plan_id":"cebpf4jnsgd1na2vs0mg"},{"bike_id":"a5d78122-afc3-4205-8807-2b79ba381771","system_id":"levelo_inurba_marseille","lat":43.27205,"lon":5.39195,"is_reserved":false,"is_disabled":false,"rental_uris":{"android":"levelo://app?vid=a5d78122-afc3-4205-8807-2b79ba381771","ios":"levelo://app?vid=a5d78122-afc3-4205-8807-2b79ba381771"},"vehicle_type_id":"4","last_reported":1773661083,"current_range_meters":9600,"station_id":"ce4bhhp2rcd13ifvqfm0","pricing_plan_id":"cebpf4jnsgd1na2vs0mg"},{"bike_id":"57a423db-8929-4509-ac08-b3b87a99ddd9","system_id":"levelo_inurba_marseille","lat":43.31742,"lon":5.42398,"is_reserved":false,"is_disabled":false,"rental_uris":{"android":"levelo://app?vid=57a423db-8929-4509-ac08-b3b87a99ddd9","ios":"levelo://app?vid=57a423db-8929-4509-ac08-b3b87a99ddd9"},"vehicle_type_id":"4","last_reported":1773661083,"current_range_meters":39200,"station_id":"ce4bhp92rcd13ifvqhbg","pricing_plan_id":"cebpf4jnsgd1na2vs0mg"},{"bike_id":"2549d3e1-f693-492a-81e4-d55cbdc452bd","system_id":"levelo_inurba_marseille","lat":43.26092,"lon":5.40151,"is_reserved":false,"is_disabled":false,"rental_uris":{"android":"levelo://app?vid=2549d3e1-f693-492a-81e4-d55cbdc452bd","ios":"levelo://app?vid=2549d3e1-f693-492a-81e4-d55cbdc452bd"},"vehicle_type_id":"4","last_reported":1773661083,"current_range_meters":34000,"station_id":"","pricing_plan_id":"cebpf4jnsgd1na2vs0mg"},{"bike_id":"f5c86632-be3f-4652-9027-ebaab93fb2e7","system_id":"levelo_inurba_marseille","lat":43.25577,"lon":5.38228,"is_reserved":false,"is_disabled":false,"rental_uris":{"android":"levelo://app?vid=f5c86632-be3f-4652-9027-ebaab93fb2e7","ios":"levelo://app?vid=f5c86632-be3f-4652-9027-ebaab93fb2e7"},"vehicle_type_id":"4","last_reported":1773661083,"current_range_meters":24400,"station_id":"ce4bhih2rcd13ifvqfs0","pricing_plan_id":"cebpf4jnsgd1na2vs0mg"},{"bike_id":"d7435bde-7ace-4f4f-88d3-08e0c5541bf5","system_id":"levelo_inurba_marseille","lat":43.298,"lon":5.38138,"is_reserved":false,"is_disabled":true,"rental_uris":{"android":"levelo://app?vid=d7435bde-7ace-4f4f-88d3-08e0c5541bf5","ios":"levelo://app?vid=d7435bde-7ace-4f4f-88d3-08e0c5541bf5"},