{"last_updated":1741767221,"ttl":60,"version":"2.2","data":{"bikes":[{"bike_id":"54ce051a-e565-440d-93a0-55d9d6a5acd4","system_id":"levelo_inurba_marseille","lat":43.24663,"lon":5.38166,"is_reserved":false,"is_disabled":false,"rental_uris":{"android":"levelo://app?vid=54ce051a-e565-440d-93a0-55d9d6a5acd4","ios":"levelo://app?vid=54ce051a-e565-440d-93a0-55d9d6a5acd4"},"vehicle_type_id":"4","last_reported":1741767221,"current_range_meters":2800,"station_id":"ce4bhih2rcd13ifvqfr0","pricing_plan_id":"cebpf4jnsgd1na2vs0mg"},{"bike_id":"5b055b4f-dd33-4bc4-b330-27e5e4b5f6dd","system_id":"levelo_inurba_marseille","lat":43.29434,"lon":5.39755,"is_reserved":false,"is_disabled":false,"rental_uris":{"android":"levelo://app?vid=5b055b4f-dd33-4bc4-b330-27e5e4b5f6dd","ios":"levelo://app?vid=5b055b4f-dd33-4bc4-b330-27e5e4b5f6dd"},"vehicle_type_id":"4","last_reported":1741767221,"current_range_meters":2000,"station_id":"ce4bh3h2rcd13ifvqdo0","pricing_plan_id":"cebpf4jnsgd1na2vs0mg"},{"bike_id":"b4007543-a962-408d-a566-a1835121a217","system_id":"levelo_inurba_marseille","lat":43.29718,"lon":5.37701,"is_reserved":false,"is_disabled":false,"rental_uris":{"android":"levelo://app?vid=b4007543-a962-408d-a566-a1835121a217","ios":"levelo://app?vid=b4007543-a962-408d-a566-a1835121a217"},"vehicle_type_id":"4","last_reported":1741767221,"current_range_meters":2000,"station_id":"ce4bgkh2rcd13ifvqbl0","pricing_plan_id":"cebpf4jnsgd1na2vs0mg"},{"bike_id":"8668d73d-cd4c-4fcf-ad93-a88dd3e98bd7","system_id":"levelo_inurba_marseille","lat":43.2861,"lon":5.37054,"is_reserved":false,"is_disabled":false,"rental_uris":{"android":"levelo://app?vid=8668d73d-cd4c-4fcf-ad93-a88dd3e98bd7","ios":"levelo://app?vid=8668d73d-cd4c-4fcf-ad93-a88dd3e98bd7"},"vehicle_type_id":"4","last_reported":1741767221,"current_range_meters":2800,"station_id":"ce4bht12rcd13ifvqi60","pricing_plan_id":"cebpf4jnsgd1na2vs0mg"},{"bike_id":"7d9e0d4b-bc0f-44ad-886a-8db59566a99d","system_id":"levelo_inurba_marseille","lat":43.24817,"lon":5.37464,"is_reserved":false,"is_disabled":false,"rental_uris":{"android":"levelo://app?vid=7d9e0d4b-bc0f-44ad-886a-8db59566a99d","ios":"levelo://app?vid=7d9e0d4b-bc0f-44ad-886a-8db59566a99d"},"vehicle_type_id":"4","last_reported":1741767221,"current_range_meters":2800,"station_id":"ce4bhgh2rcd13ifvqfb0","pricing_plan_id":"cebpf4jnsgd1na2vs0mg"},{"bike_id":"27f9bfd3-9e8a-4b49-b630-4783a0b4f086","system_id":"levelo_inurba_marseille","lat":43.267191,"lon":5.402418,"is_reserved":false,"is_disabled":false,"rental_uris":{"android":"levelo://app?vid=27f9bfd3-9e8a-4b49-b630-4783a0b4f086","ios":"levelo://app?vid=27f9bfd3-9e8a-4b49-b630-4783a0b4f086"},"vehicle_type_id":"4","last_reported":1741767221,"current_range_meters":3200,"station_id":"ce4bhkp2rcd13ifvqgd0","pricing_plan_id":"cebpf4jnsgd1na2vs0mg"},{"bike_id":"aca9859b-2ce7-4155-a254-93b8c5bf64dc","system_id":"levelo_inurba_marseille","lat":43.27061,"lon":5.40258,"is_reserved":false,"is_disabled":false,"rental_uris":{"android":"levelo://app?vid=aca9859b-2ce7-4155-a254-93b8c5bf64dc","ios":"levelo://app?vid=aca9859b-2ce7-4155-a254-93b8c5bf64dc"},"vehicle_type_id":"4","last_reported":1741767221,"current_range_meters":3200,"station_id":"ce4bhk92rcd13ifvqgc0","pricing_plan_id":"cebpf4jnsgd1na2vs0mg"},{"bike_id":"766adbd8-a527-4af4-b2a6-af964efd9fd5","system_id":"levelo_inurba_marseille","lat":43.336,"lon":5.41032,"is_reserved":false,"is_disabled":false,"rental_uris":{"android":"levelo://app?vid=766adbd8-a527-4af4-b2a6-af964efd9fd5","ios":"levelo://app?vid=766adbd8-a527-4af4-b2a6-af964efd9fd5"},"vehicle_type_id":"4","last_reported":1741767221,"current_range_meters":2800,"station_id":"ce4bhqh2rcd13ifvqhmg","pricing_plan_id":"cebpf4jnsgd1na2vs0mg"},{"bike_id":"cd6f362f-25b2-4037-a5e5-fdc63e984209","system_id":"levelo_inurba_marseille","lat":43.231774,"lon":5.399877,"is_reserved":false,"is_disabled":false,"rental_uris":{"android":"levelo://app?vid=cd6f362f-25b2-4037-a5e5-fdc63e984209","ios":"levelo://app?vid=cd6f362f-25b2-4037-a5e5-fdc63e984209"},"vehicle_type_id":"4","last_reported":1741767221,"current_range_meters":3200,"station_id":"ce4bhmp2rcd13ifvqgog","pricing_plan_id":"cebpf4jnsgd1na2vs0mg"},{"bike_id":"fb52caf8-e791-4659-ba48-f0a236a43929","system_id":"levelo_inurba_marseille","lat":43.30893,"lon":5.38068,"is_reserved":false,"is_disabled":false,"rental_uris":{"android":"levelo://app?vid=fb52caf8-e791-4659-ba48-f0a236a43929","ios":"levelo://app?vid=fb52caf8-e791-4659-ba48-f0a236a43929"},"vehicle_type_id":"4","last_reported":1741767221,"current_range_meters":3200,"station_id":"ce4bgt92rcd13ifvqcg0","pricing_plan_id":"cebpf4jnsgd1na2vs0mg"},{"bike_id":"5af850c6-2e38-404f-87a2-9e59a795b2a9","system_id":"levelo_inurba_marseille","lat":43.25938,"lon":5.40892,"is_reserved":false,"is_disabled":false,"rental_uris":{"android":"levelo://app?vid=5af850c6-2e38-404f-87a2-9e59a795b2a9","ios":"levelo://app?vid=5af850c6-2e38-404f-87a2-9e59a795b2a9"},"vehicle_type_id":"4","last_reported":1741767221,"current_range_meters":3600,"station_id":"ce4bhm92rcd13ifvqglg","pricing_plan_id":"cebpf4jnsgd1na2vs0mg"},{"bike_id":"ef51c1a6-f592-4804-869d-7b05722bdacd","system_id":"levelo_inurba_marseille","lat":43.31482,"lon":5.37311,"is_reserved":false,"is_disabled":false,"rental_uris":{"android":"levelo://app?vid=ef51c1a6-f592-4804-869d-7b05722bdacd","ios":"levelo://app?vid=ef51c1a6-f592-4804-869d-7b05722bdacd"},"vehicle_type_id":"4","last_reported":1741767221,"current_range_meters":3600,"station_id":"ce4bgt12rcd13ifvqcd0","pricing_plan_id":"cebpf4jnsgd1na2vs0mg"},{"bike_id":"dc42e161-3661-4fd6-b581-259d0f327bf6","system_id":"levelo_inurba_marseille","lat":43.2319,"lon":5.39981,"is_reserved":false,"is_disabled":false,"rental_uris":{"android":"levelo://app?vid=dc42e161-3661-4fd6-b581-259d0f327bf6","ios":"levelo://app?vid=dc42e161-3661-4fd6-b581-259d0f327bf6"},"vehicle_type_id":"4","last_reported":1741767221,"current_range_meters":3600,"station_id":"ce4bhn12rcd13ifvqgqg","pricing_plan_id":"cebpf4jnsgd1na2vs0mg"},{"bike_id":"6337bc7d-9c92-4339-b778-937e1bf566f5","system_id":"levelo_inurba_marseille","lat":43.29229,"lon":5.35997,"is_reserved":false,"is_disabled":false,"rental_uris":{"android":"levelo://app?vid=6337bc7d-9c92-4339-b778-937e1bf566f5","ios":"levelo://app?vid=6337bc7d-9c92-4339-b778-937e1bf566f5"},"vehicle_type_id":"4","last_reported":1741767221,"current_range_meters":3600,"station_id":"ce4bhbh2rcd13ifvqeqg","pricing_plan_id":"cebpf4jnsgd1na2vs0mg"},{"bike_id":"3ac71b9e-3b30-457c-8471-e3fc9cbb7fb6","system_id":"levelo_inurba_marseille","lat":43.27332,"lon":5.39079,"is_reserved":false,"is_disabled":false,"rental_uris":{"android":"levelo://app?vid=3ac71b9e-3b30-457c-8471-e3fc9cbb7fb6","ios":"levelo://app?vid=3ac71b9e-3b30-457c-8471-e3fc9cbb7fb6"},"vehicle_type_id":"4","last_reported":1741767221,"current_range_meters":3600,"station_id":"ce4bhgp2rcd13ifvqfe0","pricing_plan_id":"cebpf4jnsgd1na2vs0mg"},{"bike_id":"00559a84-bfdd-4a60-a5de-01556800e8d9","system_id":"levelo_inurba_marseille","lat":43.24179,"lon":5.39721,"is_reserved":false,"is_disabled":false,"rental_uris":{"android":"levelo://app?vid=00559a84-bfdd-4a60-a5de-01556800e8d9","ios":"levelo://app?vid=00559a84-bfdd-4a60-a5de-01556800e8d9"},"vehicle_type_id":"4","last_reported":1741767221,"current_range_meters":3600,"station_id":"ce4bhn12rcd13ifvqgpg","pricing_plan_id":"cebpf4jnsgd1na2vs0mg"},{"bike_id":"69240521-5c86-4da8-9d31-b38720cfb532","system_id":"levelo_inurba_marseille","lat":43.26244,"lon":5.40457,"is_reserved":false,"is_disabled":false,"rental_uris":{"android":"levelo://app?vid=69240521-5c86-4da8-9d31-b38720cfb532","ios":"levelo://app?vid=69240521-5c86-4da8-9d31-b38720cfb532"},"vehicle_type_id":"4","last_reported":1741767221,"current_range_meters":3600,"station_id":"ce4bhmh2rcd13ifvqgmg","pricing_plan_id":"cebpf4jnsgd1na2vs0mg"},{"bike_id":"c86d68f5-55ee-4a68-ba82-758fa1373f1d","system_id":"levelo_inurba_marseille","lat":43.31708,"lon":5.4371,"is_reserved":false,"is_disabled":false,"rental_uris":{"android":"levelo://app?vid=c86d68f5-55ee-4a68-ba82-758fa1373f1d","ios":"levelo://app?vid=c86d68f5-55ee-4a68-ba82-758fa1373f1d"},"vehicle_type_id":"4","last_reported":1741767221,"current_range_meters":4000,"station_id":"ce4bhp92rcd13ifvqhcg","pricing_plan_id":"cebpf4jnsgd1na2vs0mg"},{"bike_id":"6b42988a-de91-4a30-b407-bb1347588844","system_id":"levelo_inurba_marseille","lat":43.27803,"lon":5.40723,"is_reserved":false,"is_disabled":false,"rental_uris":{"android":"levelo://app?vid=6b42988a-de91-4a30-b407-bb1347588844","ios":"levelo://app?vid=6b42988a-de91-4a30-b407-bb1347588844"},"vehicle_type_id":"4","last_reported":1741767221,"current_range_meters":4000,"station_id":"ce4bhnh2rcd13ifvqgtg","pricing_plan_id":"cebpf4jnsgd1na2vs0mg"},{"bike_id":"e24ddfb6-e099-4267-a967-4dfc7294d46d","system_id":"levelo_inurba_marseille","lat":43.29092,"lon":5.38134,"is_reserved":false,"is_disabled":false,"rental_uris":{"android":"levelo://app?vid=e24ddfb6-e099-4267-a967-4dfc7294d46d","ios":"levelo://app?vid=e24ddfb6-e099-4267-a967-4dfc7294d46d"},"vehicle_type_id":"4","last_reported":1741767221,"current_range_meters":4000,"station_id":"ce4bh512rcd13ifvqe2g","pricing_plan_id":"cebpf4jnsgd1na2vs0mg"},{"bike_id":"dae03bcb-f104-4771-bdcb-6beaacd1f883","system_id":"levelo_inurba_marseille","lat":43.29508,"lon":5.37509,"is_reserved":false,"is_disabled":false,"rental_uris":{"android":"levelo://app?vid=dae03bcb-f104-4771-bdcb-6beaacd1f883","ios":"levelo://app?vid=dae03bcb-f104-4771-bdcb-6beaacd1f883"},"vehicle_type_id":"4","last_reported":1741767221,"current_range_meters":4000,"station_id":"ce4bgkp2rcd13ifvqbmg","pricing_plan_id":"cebpf4jnsgd1na2vs0mg"},{"bike_id":"1cccf9ee-139c-4dc2-8dd0-ced14ebbe202","system_id":"levelo_inurba_marseille","lat":43.23965,"lon":5.36629,"is_reserved":false,"is_disabled":false,"rental_uris":{"android":"levelo://app?vid=1cccf9ee-139c-4dc2-8dd0-ced14ebbe202","ios":"levelo://app?vid=1cccf9ee-139c-4dc2-8dd0-ced14ebbe202"},"vehicle_type_id":"4","last_reported":1741767221,"current_range_meters":4000,"station_id":"ce4bhi12rcd13ifvqfp0","pricing_plan_id":"cebpf4jnsgd1na2vs0mg"},{"bike_id":"f817258f-70b5-44a4-9af0-1e740fe81376","system_id":"levelo_inurba_marseille","lat":43.3042,"lon":5.39745,"is_reserved":false,"is_disabled":false,"rental_uris":{"android":"levelo://app?vid=f817258f-70b5-44a4-9af0-1e740fe81376","ios":"levelo://app?vid=f817258f-70b5-44a4-9af0-1e740fe81376"},"vehicle_type_id":"4","last_reported":1741767221,"current_range_meters":4000,"station_id":"ce4bh092rcd13ifvqd20","pricing_plan_id":"cebpf4jnsgd1na2vs0mg"},{"bike_id":"ccb8f097-e0d6-4ee9-9532-3323b77f05c0","system_id":"levelo_inurba_marseille","lat":43.290466,"lon":5.399697,"is_reserved":false,"is_disabled":false,"rental_uris":{"android":"levelo://app?vid=ccb8f097-e0d6-4ee9-9532-3323b77f05c0","ios":"levelo://app?vid=ccb8f097-e0d6-4ee9-9532-3323b77f05c0"},"vehicle_type_id":"4","last_reported":1741767221,"current_range_meters":4400,"station_id":"ce4bh092rcd13ifvqd30","pricing_plan_id":"cebpf4jnsgd1na2vs0mg"},{"bike_id":"8299210e-eab9-4d32-b1b6-08a5ad4b235b","system_id":"levelo_inurba_marseille","lat":43.27964,"lon":5.38744,"is_reserved":false,"is_disabled":false,"rental_uris":{"android":"levelo://app?vid=8299210e-eab9-4d32-b1b6-08a5ad4b235b","ios":"levelo://app?vid=8299210e-eab9-4d32-b1b6-08a5ad4b235b"},"vehicle_type_id":"4","last_reported":1741767221,"current_range_meters":4400,"station_id":"ce4bhg12rcd13ifvqf80","pricing_plan_id":"cebpf4jnsgd1na2vs0mg"},{"bike_id":"03690356-08e9-4ea7-b9a3-8e88bf471e93","system_id":"levelo_inurba_marseille","lat":43.337444,"lon":5.374475,"is_reserved":false,"is_disabled":true,"rental_uris":{"android":"levelo://app?vid=03690356-08e9-4ea7-b9a3-8e88bf471e93","ios":"levelo://app?vid=03690356-08e9-4ea7-b9a3-8e88bf471e93"},"vehicle_type_id":"4","last_reported":1741767221,"current_range_meters":4400,"station_id":"","pricing_plan_id":"cebpf4jnsgd1na2vs0mg"},{"bike_id":"08e71339-29d2-452e-afb8-11ce50b1e1b6","system_id":"levelo_inurba_marseille","lat":43.24083,"lon":5.37761,"is_reserved":false,"is_disabled":false,"rental_uris":{"android":"levelo://app?vid=08e71339-29d2-452e-afb8-11ce50b1e1b6","ios":"levelo://app?vid=08e71339-29d2-452e-afb8-11ce50b1e1b6"},"vehicle_type_id":"4","last_reported":1741767221,"current_range_meters":4800,"station_id":"ce4bhnp2rcd13ifvqgvg","pricing_plan_id":"cebpf4jnsgd1na2vs0mg"},{"bike_id":"61cdbe55-662c-4aa9-8d63-afd5f1618188","system_id":"levelo_inurba_marseille","lat":43.28982,"lon":5.37823,"is_reserved":false,"is_disabled":false,"rental_uris":{"android":"levelo://app?vid=61cdbe55-662c-4aa9-8d63-afd5f1618188","ios":"levelo://app?vid=61cdbe55-662c-4aa9-8d63-afd5f1618188"},"vehicle_type_id":"4","last_reported":1741767221,"current_range_meters":5600,"station_id":"ce4bh9p2rcd13ifvqed0","pricing_plan_id":"cebpf4jnsgd1na2vs0mg"},{"bike_id":"8995567a-bbbb-458e-bafe-9865f80201b0","system_id":"levelo_inurba_marseille","lat":43.30613,"lon":5.39332,"is_reserved":false,"is_disabled":false,"rental_uris":{"android":"levelo://app?vid=8995567a-bbbb-458e-bafe-9865f80201b0","ios":"levelo://app?vid=8995567a-bbbb-458e-bafe-9865f80201b0"},"vehicle_type_id":"4","last_reported":1741767221,"current_range_meters":5600,"station_id":"ce4bh0p2rcd13ifvqd80","pricing_plan_id":"cebpf4jnsgd1na2vs0mg"},{"bike_id":"d3acab28-3125-4afa-b5eb-02e807f46858","system_id":"levelo_inurba_marseille","lat":43.24181,"lon":5.39717,"is_reserved":false,"is_disabled":false,"rental_uris":{"android":"levelo://app?vid=d3acab28-3125-4afa-b5eb-02e807f46858","ios":"levelo://app?vid=d3acab28-3125-4afa-b5eb-02e807f46858"},"vehicle_type_id":"4","last_reported":1741767221,"current_range_meters":5600,"station_id":"ce4bhn12rcd13ifvqgpg","pricing_plan_id":"cebpf4jnsgd1na2vs0mg"},{"bike_id":"09bbb690-af86-458c-bbad-70d10e2033ee","system_id":"levelo_inurba_marseille","lat":43.23066,"lon":5.35493,"is_reserved":false,"is_disabled":false,"rental_uris":{"android":"levelo://app?vid=09bbb690-af86-458c-bbad-70d10e2033ee","ios":"levelo://app?vid=09bbb690-af86-458c-bbad-70d10e2033ee"},"vehicle_type_id":"4","last_reported":1741767221,"current_range_meters":5600,"station_id":"cpo3342slgdg3j2ifvpg","pricing_plan_id":"cebpf4jnsgd1na2vs0mg"},{"bike_id":"e5d9c2ea-d5ab-4517-8c0e-fcf917abd5b9","system_id":"levelo_inurba_marseille","lat":43.32482,"lon":5.36595,"is_reserved":false,"is_disabled":false,"rental_uris":{"android":"levelo://app?vid=e5d9c2ea-d5ab-4517-8c0e-fcf917abd5b9","ios":"levelo://app?vid=e5d9c2ea-d5ab-4517-8c0e-fcf917abd5b9"},"vehicle_type_id":"4","last_reported":1741767221,"current_range_meters":6000,"station_id":"ce4bhs12rcd13ifvqhvg","pricing_plan_id":"cebpf4jnsgd1na2vs0mg"},{"bike_id":"cbd6f8ee-d91a-4c06-a50f-8aefa40d8ceb","system_id":"levelo_inurba_marseille","lat":43.2989,"lon":5.43675,"is_reserved":false,"is_disabled":false,"rental_uris":{"android":"levelo://app?vid=cbd6f8ee-d91a-4c06-a50f-8aefa40d8ceb","ios":"levelo://app?vid=cbd6f8ee-d91a-4c06-a50f-8aefa40d8ceb"},"vehicle_type_id":"4","last_reported":1741767221,"current_range_meters":6000,"station_id":"ce4bhpp2rcd13ifvqhfg","pricing_plan_id":"cebpf4jnsgd1na2vs0mg"},{"bike_id":"74a1feae-7826-497c-8902-71de67cbde10","system_id":"levelo_inurba_marseille","lat":43.2956,"lon":5.39984,"is_reserved":false,"is_disabled":false,"rental_uris":{"android":"levelo://app?vid=74a1feae-7826-497c-8902-71de67cbde10","ios":"levelo://app?vid=74a1feae-7826-497c-8902-71de67cbde10"},"vehicle_type_id":"4","last_reported":1741767221,"current_range_meters":6400,"station_id":"ce4bh312rcd13ifvqdj0","pricing_plan_id":"cebpf4jnsgd1na2vs0mg"},{"bike_id":"d4acb34b-3c11-4c77-a449-917739ce4b7b","system_id":"levelo_inurba_marseille","lat":43.26956,"lon":5.38631,"is_reserved":false,"is_disabled":false,"rental_uris":{"android":"levelo://app?vid=d4acb34b-3c11-4c77-a449-917739ce4b7b","ios":"levelo://app?vid=d4acb34b-3c11-4c77-a449-917739ce4b7b"},"vehicle_type_id":"4","last_reported":1741767221,"current_range_meters":6400,"station_id":"ce4bhh92rcd13ifvqfh0","pricing_plan_id":"cebpf4jnsgd1na2vs0mg"},{"bike_id":"6318c78e-bfc1-4a8f-95ef-68449266320e","system_id":"levelo_inurba_marseille","lat":43.26212,"lon":5.40437,"is_reserved":false,"is_disabled":false,"rental_uris":{"android":"levelo://app?vid=6318c78e-bfc1-4a8f-95ef-68449266320e","ios":"levelo://app?vid=6318c78e-bfc1-4a8f-95ef-68449266320e"},"vehicle_type_id":"4","last_reported":1741767221,"current_range_meters":6400,"station_id":"ce4bhmh2rcd13ifvqgmg","pricing_plan_id":"cebpf4jnsgd1na2vs0mg"},{"bike_id":"bf2feb02-4272-4476-92f9-9420844c4078","system_id":"levelo_inurba_marseille","lat":43.31167,"lon":5.37578,"is_reserved":false,"is_disabled":false,"rental_uris":{"android":"levelo://app?vid=bf2feb02-4272-4476-92f9-9420844c4078","ios":"levelo://app?vid=bf2feb02-4272-4476-92f9-9420844c4078"},"vehicle_type_id":"4","last_reported":1741767221,"current_range_meters":6400,"station_id":"","pricing_plan_id":"cebpf4jnsgd1na2vs0mg"},{"bike_id":"80771939-f406-42f7-81c5-33180fd8a338","system_id":"levelo_inurba_marseille","lat":43.23197,"lon":5.35556,"is_reserved":false,"is_disabled":false,"rental_uris":{"android":"levelo://app?vid=80771939-f406-42f7-81c5-33180fd8a338","ios":"levelo://app?vid=80771939-f406-42f7-81c5-33180fd8a338"},"vehicle_type_id":"4","last_reported":1741767221,"current_range_meters":6400,"station_id":"ce4bhu92rcd13ifvqi70","pricing_plan_id":"cebpf4jnsgd1na2vs0mg"},{"bike_id":"3bfcd74d-53e6-4773-a3ba-ccaff6147af1","system_id":"levelo_inurba_marseille","lat":43.25931,"lon":5.40915,"is_reserved":false,"is_disabled":false,"rental_uris":{"android":"levelo://app?vid=3bfcd74d-53e6-4773-a3ba-ccaff6147af1","ios":"levelo://app?vid=3bfcd74d-53e6-4773-a3ba-ccaff6147af1"},"vehicle_type_id":"4","last_reported":1741767221,"current_range_meters":6800,"station_id":"ce4bhm92rcd13ifvqglg","pricing_plan_id":"cebpf4jnsgd1na2vs0mg"},{"bike_id":"5da83c6c-b448-43ca-8b01-8ecb4a475849","system_id":"levelo_inurba_marseille","lat":43.26948,"lon":5.3863,"is_reserved":false,"is_disabled":false,"rental_uris":{"android":"levelo://app?vid=5da83c6c-b448-43ca-8b01-8ecb4a475849","ios":"levelo://app?vid=5da83c6c-b448-43ca-8b01-8ecb4a475849"},"vehicle_type_id":"4","last_reported":1741767221,"current_range_meters":6800,"station_id":"ce4bhh92rcd13ifvqfh0","pricing_plan_id":"cebpf4jnsgd1na2vs0mg"},{"bike_id":"03cdbfab-81a8-4953-8e07-f8d15232d07b","system_id":"levelo_inurba_marseille","lat":43.31158,"lon":5.38732,"is_reserved":false,"is_disabled":false,"rental_uris":{"android":"levelo://app?vid=03cdbfab-81a8-4953-8e07-f8d15232d07b","ios":"levelo://app?vid=03cdbfab-81a8-4953-8e07-f8d15232d07b"},"vehicle_type_id":"4","last_reported":1741767221,"current_range_meters":6800,"station_id":"ce4bgv12rcd13ifvqcp0","pricing_plan_id":"cebpf4jnsgd1na2vs0mg"},{"bike_id":"a6907114-91e5-4406-958d-4b895c3084d0","system_id":"levelo_inurba_marseille","lat":43.29891,"lon":5.436646,"is_reserved":false,"is_disabled":true,"rental_uris":{"android":"levelo://app?vid=a6907114-91e5-4406-958d-4b895c3084d0","ios":"levelo://app?vid=a6907114-91e5-4406-958d-4b895c3084d0"},"vehicle_type_id":"4","last_reported":1741767221,"current_range_meters":6800,"station_id":"ce4bhpp2rcd13ifvqhfg","pricing_plan_id":"cebpf4jnsgd1na2vs0mg"},{"bike_id":"2a8a3337-0574-405b-ab23-9a1c7c6bbde7","system_id":"levelo_inurba_marseille","lat":43.33606,"lon":5.41032,"is_reserved":false,"is_disabled":false,"rental_uris":{"android":"levelo://app?vid=2a8a3337-0574-405b-ab23-9a1c7c6bbde7","ios":"levelo://app?vid=2a8a3337-0574-405b-ab23-9a1c7c6bbde7"},"vehicle_type_id":"4","last_reported":1741767221,"current_range_meters":6800,"station_id":"ce4bhqh2rcd13ifvqhmg","pricing_plan_id":"cebpf4jnsgd1na2vs0mg"},{"bike_id":"472fc3c9-ff81-4115-97ad-d3af3a7c64d6","system_id":"levelo_inurba_marseille","lat":43.27174,"lon":5.40996,"is_reserved":false,"is_disabled":false,"rental_uris":{"android":"levelo://app?vid=472fc3c9-ff81-4115-97ad-d3af3a7c64d6","ios":"levelo://app?vid=472fc3c9-ff81-4115-97ad-d3af3a7c64d6"},"vehicle_type_id":"4","last_reported":1741767221,"current_range_meters":6800,"station_id":"ce4bhl12rcd13ifvqgf0","pricing_plan_id":"cebpf4jnsgd1na2vs0mg"},{"bike_id":"cec6458d-2bf5-4cc3-b72a-8930c855e1a8","system_id":"levelo_inurba_marseille","lat":43.31087,"lon":5.42431,"is_reserved":false,"is_disabled":false,"rental_uris":{"android":"levelo://app?vid=cec6458d-2bf5-4cc3-b72a-8930c855e1a8","ios":"levelo://app?vid=cec6458d-2bf5-4cc3-b72a-8930c855e1a8"},"vehicle_type_id":"4","last_reported":1741767221,"current_range_meters":6800,"station_id":"ce4bhp92rcd13ifvqhag","pricing_plan_id":"cebpf4jnsgd1na2vs0mg"},{"bike_id":"5543ec7e-79f2-4d30-9cbe-80b37b50c7fc","system_id":"levelo_inurba_marseille","lat":43.32477,"lon":5.36564,"is_reserved":false,"is_disabled":false,"rental_uris":{"android":"levelo://app?vid=5543ec7e-79f2-4d30-9cbe-80b37b50c7fc","ios":"levelo://app?vid=5543ec7e-79f2-4d30-9cbe-80b37b50c7fc"},"vehicle_type_id":"4","last_reported":1741767221,"current_range_meters":6800,"station_id":"ce4bhs12rcd13ifvqhvg","pricing_plan_id":"cebpf4jnsgd1na2vs0mg"},{"bike_id":"5f34d638-1a0b-44ad-9b11-23f80039dc55","system_id":"levelo_inurba_marseille","lat":43.30475,"lon":5.37901,"is_reserved":false,"is_disabled":false,"rental_uris":{"android":"levelo://app?vid=5f34d638-1a0b-44ad-9b11-23f80039dc55","ios":"levelo://app?vid=5f34d638-1a0b-44ad-9b11-23f80039dc55"},"vehicle_type_id":"4","last_reported":1741767221,"current_range_meters":7200,"station_id":"ce4bgup2rcd13ifvqcn0","pricing_plan_id":"cebpf4jnsgd1na2vs0mg"},{"bike_id":"cca0d75c-792f-4b34-827d-4297c6f790de","system_id":"levelo_inurba_marseille","lat":43.29986,"lon":5.3719,"is_reserved":false,"is_disabled":false,"rental_uris":{"android":"levelo://app?vid=cca0d75c-792f-4b34-827d-4297c6f790de","ios":"levelo://app?vid=cca0d75c-792f-4b34-827d-4297c6f790de"},"vehicle_type_id":"4","last_reported":1741767221,"current_range_meters":7200,"station_id":"ce4bgr92rcd13ifvqc7g","pricing_plan_id":"cebpf4jnsgd1na2vs0mg"},{"bike_id":"6396fce7-7962-426c-9e33-bb86b349734d","system_id":"levelo_inurba_marseille","lat":43.30266,"lon":5.3772,"is_reserved":false,"is_disabled":false,"rental_uris":{"android":"levelo://app?vid=6396fce7-7962-426c-9e33-bb86b349734d","ios":"levelo://app?vid=6396fce7-7962-426c-9e33-bb86b349734d"},"vehicle_type_id":"4","last_reported":1741767221,"current_range_meters":7200,"station_id":"ce4bguh2rcd13ifvqcj0","pricing_plan_id":"cebpf4jnsgd1na2vs0mg"},{"bike_id":"4004cd83-7832-479a-b42c-67f973543029","system_id":"levelo_inurba_marseille","lat":43.25733,"lon":5.41086,"is_reserved":false,"is_disabled":false,"rental_uris":{"android":"levelo://app?vid=4004cd83-7832-479a-b42c-67f973543029","ios":"levelo://app?vid=4004cd83-7832-479a-b42c-67f973543029"},"vehicle_type_id":"4","last_reported":1741767221,"current_range_meters":7200,"station_id":"ce4bhkp2rcd13ifvqgd0","pricing_plan_id":"cebpf4jnsgd1na2vs0mg"},{"bike_id":"58d1b5b3-d322-4418-97d0-3066ec3d9afc","system_id":"levelo_inurba_marseille","lat":43.23204,"lon":5.35547,"is_reserved":false,"is_disabled":false,"rental_uris":{"android":"levelo://app?vid=58d1b5b3-d322-4418-97d0-3066ec3d9afc","ios":"levelo://app?vid=58d1b5b3-d322-4418-97d0-3066ec3d9afc"},"vehicle_type_id":"4","last_reported":1741767221,"current_range_meters":7200,"station_id":"ce4bhu92rcd13ifvqi70","pricing_plan_id":"cebpf4jnsgd1na2vs0mg"},{"bike_id":"b9680ac6-d12e-4a12-9dd8-1396db5e067b","system_id":"levelo_inurba_marseille","lat":43.23151,"lon":5.4369,"is_reserved":false,"is_disabled":false,"rental_uris":{"android":"levelo://app?vid=b9680ac6-d12e-4a12-9dd8-1396db5e067b","ios":"levelo://app?vid=b9680ac6-d12e-4a12-9dd8-1396db5e067b"},"vehicle_type_id":"4","last_reported":1741767221,"current_range_meters":8000,"station_id":"ce4bhmp2rcd13ifvqgog","pricing_plan_id":"cebpf4jnsgd1na2vs0mg"},{"bike_id":"9b75f73b-4e4f-4d50-8655-4ca7749a5646","system_id":"levelo_inurba_marseille","lat":43.27837,"lon":5.40727,"is_reserved":false,"is_disabled":false,"rental_uris":{"android":"levelo://app?vid=9b75f73b-4e4f-4d50-8655-4ca7749a5646","ios":"levelo://app?vid=9b75f73b-4e4f-4d50-8655-4ca7749a5646"},"vehicle_type_id":"4","last_reported":1741767221,"current_range_meters":8000,"station_id":"ce4bhnh2rcd13ifvqgtg","pricing_plan_id":"cebpf4jnsgd1na2vs0mg"},{"bike_id":"da5af9b9-469c-4af2-b55a-354ef7dbad11","system_id":"levelo_inurba_marseille","lat":43.2706,"lon":5.40263,"is_reserved":false,"is_disabled":true,"rental_uris":{"android":"levelo://app?vid=da5af9b9-469c-4af2-b55a-354ef7dbad11","ios":"levelo://app?vid=da5af9b9-469c-4af2-b55a-354ef7dbad11"},"vehicle_type_id":"4","last_reported":1741767221,"current_range_meters":8000,"station_id":"ce4bhk92rcd13ifvqgc0","pricing_plan_id":"cebpf4jnsgd1na2vs0mg"},{"bike_id":"bfe76b26-4cce-4a8d-8e2e-190cbae21f24","system_id":"levelo_inurba_marseille","lat":43.271796,"lon":5.409818,"is_reserved":false,"is_disabled":false,"rental_uris":{"android":"levelo://app?vid=bfe76b26-4cce-4a8d-8e2e-190cbae21f24","ios":"levelo://app?vid=bfe76b26-4cce-4a8d-8e2e-190cbae21f24"},"vehicle_type_id":"4","last_reported":1741767221,"current_range_meters":8000,"station_id":"ce4bhl12rcd13ifvqgf0","pricing_plan_id":"cebpf4jnsgd1na2vs0mg"},{"bike_id":"c835eee2-01bf-4ff1-a164-4c90e0a065d9","system_id":"levelo_inurba_marseille","lat":43.2502,"lon":5.3894,"is_reserved":false,"is_disabled":false,"rental_uris":{"android":"levelo://app?vid=c835eee2-01bf-4ff1-a164-4c90e0a065d9","ios":"levelo://app?vid=c835eee2-01bf-4ff1-a164-4c90e0a065d9"},"vehicle_type_id":"4","last_reported":1741767221,"current_range_meters":8000,"station_id":"ce4bhgp2rcd13ifvqfd0","pricing_plan_id":"cebpf4jnsgd1na2vs0mg"},{"bike_id":"f640465e-8c9e-425a-8e36-08d8d5201bf6","system_id":"levelo_inurba_marseille","lat":43.231952,"lon":5.355466,"is_reserved":false,"is_disabled":false,"rental_uris":{"android":"levelo://app?vid=f640465e-8c9e-425a-8e36-08d8d5201bf6","ios":"levelo://app?vid=f640465e-8c9e-425a-8e36-08d8d5201bf6"},"vehicle_type_id":"4","last_reported":1741767221,"current_range_meters":8000,"station_id":"ce4bhu92rcd13ifvqi70","pricing_plan_id":"cebpf4jnsgd1na2vs0mg"},{"bike_id":"7270e3a1-ea48-45d4-aa0e-e1bb1295c598","system_id":"levelo_inurba_marseille","lat":43.24545,"lon":5.39534,"is_reserved":false,"is_disabled":false,"rental_uris":{"android":"levelo://app?vid=7270e3a1-ea48-45d4-aa0e-e1bb1295c598","ios":"levelo://app?vid=7270e3a1-ea48-45d4-aa0e-e1bb1295c598"},"vehicle_type_id":"4","last_reported":1741767221,"current_range_meters":8000,"station_id":"ce4bhlp2rcd13ifvqgjg","pricing_plan_id":"cebpf4jnsgd1na2vs0mg"},{"bike_id":"05388ace-665a-4114-a828-939b708a2589","system_id":"levelo_inurba_marseille","lat":43.23225,"lon":5.39972,"is_reserved":false,"is_disabled":false,"rental_uris":{"android":"levelo://app?vid=05388ace-665a-4114-a828-939b708a2589","ios":"levelo://app?vid=05388ace-665a-4114-a828-939b708a2589"},"vehicle_type_id":"4","last_reported":1741767221,"current_range_meters":8000,"station_id":"","pricing_plan_id":"cebpf4jnsgd1na2vs0mg"},{"bike_id":"55682bf3-991a-44ca-b853-2c49c783eba1","system_id":"levelo_inurba_marseille","lat":43.29874,"lon":5.3974,"is_reserved":false,"is_disabled":false,"rental_uris":{"android":"levelo://app?vid=55682bf3-991a-44ca-b853-2c49c783eba1","ios":"levelo://app?vid=55682bf3-991a-44ca-b853-2c49c783eba1"},"vehicle_type_id":"4","last_reported":1741767221,"current_range_meters":8000,"station_id":"ce4bh0h2rcd13ifvqd50","pricing_plan_id":"cebpf4jnsgd1na2vs0mg"},{"bike_id":"44dbb355-a933-4b4d-98ce-ec6964e918d0","system_id":"levelo_inurba_marseille","lat":43.29632,"lon":5.40601,"is_reserved":false,"is_disabled":false,"rental_uris":{"android":"levelo://app?vid=44dbb355-a933-4b4d-98ce-ec6964e918d0","ios":"levelo://app?vid=44dbb355-a933-4b4d-98ce-ec6964e918d0"},"vehicle_type_id":"4","last_reported":1741767221,"current_range_meters":8400,"station_id":"ce4bh0h2rcd13ifvqd60","pricing_plan_id":"cebpf4jnsgd1na2vs0mg"},{"bike_id":"241d79a7-8164-4ee5-8d3f-2565e2e0b3e8","system_id":"levelo_inurba_marseille","lat":43.313662,"lon":5.379826,"is_reserved":false,"is_disabled":false,"rental_uris":{"android":"levelo://app?vid=241d79a7-8164-4ee5-8d3f-2565e2e0b3e8","ios":"levelo://app?vid=241d79a7-8164-4ee5-8d3f-2565e2e0b3e8"},"vehicle_type_id":"4","last_reported":1741767221,"current_range_meters":8400,"station_id":"","pricing_plan_id":"cebpf4jnsgd1na2vs0mg"},{"bike_id":"f77ea6ba-ef75-40ee-bd2c-696b5827c57e","system_id":"levelo_inurba_marseille","lat":43.29104,"lon":5.38149,"is_reserved":false,"is_disabled":false,"rental_uris":{"android":"levelo://app?vid=f77ea6ba-ef75-40ee-bd2c-696b5827c57e","ios":"levelo://app?vid=f77ea6ba-ef75-40ee-bd2c-696b5827c57e"},"vehicle_type_id":"4","last_reported":1741767221,"current_range_meters":8400,"station_id":"ce4bh512rcd13ifvqe2g","pricing_plan_id":"cebpf4jnsgd1na2vs0mg"},{"bike_id":"85b0920a-8e02-4e8d-a27c-00345c3a7ba7","system_id":"levelo_inurba_marseille","lat":43.29604,"lon":5.38102,"is_reserved":false,"is_disabled":false,"rental_uris":{"android":"levelo://app?vid=85b0920a-8e02-4e8d-a27c-00345c3a7ba7","ios":"levelo://app?vid=85b0920a-8e02-4e8d-a27c-00345c3a7ba7"},"vehicle_type_id":"4","last_reported":1741767221,"current_range_meters":8400,"station_id":"ce4bgl12rcd13ifvqbo0","pricing_plan_id":"cebpf4jnsgd1na2vs0mg"},{"bike_id":"512c4bea-01ec-4a77-9442-bae8cc15ba12","system_id":"levelo_inurba_marseille","lat":43.26063,"lon":5.39397,"is_reserved":false,"is_disabled":false,"rental_uris":{"android":"levelo://app?vid=512c4bea-01ec-4a77-9442-bae8cc15ba12","ios":"levelo://app?vid=512c4bea-01ec-4a77-9442-bae8cc15ba12"},"vehicle_type_id":"4","last_reported":1741767221,"current_range_meters":8400,"station_id":"ce4bhh92rcd13ifvqfj0","pricing_plan_id":"cebpf4jnsgd1na2vs0mg"},{"bike_id":"415e7a31-245d-4ead-9f33-dad092a04302","system_id":"levelo_inurba_marseille","lat":43.23064,"lon":5.35537,"is_reserved":false,"is_disabled":false,"rental_uris":{"android":"levelo://app?vid=415e7a31-245d-4ead-9f33-dad092a04302","ios":"levelo://app?vid=415e7a31-245d-4ead-9f33-dad092a04302"},"vehicle_type_id":"4","last_reported":1741767221,"current_range_meters":8800,"station_id":"cpo3342slgdg3j2ifvpg","pricing_plan_id":"cebpf4jnsgd1na2vs0mg"},{"bike_id":"60ee13cf-44a1-4e0e-9eb6-02f69d58169e","system_id":"levelo_inurba_marseille","lat":43.31392,"lon":5.38486,"is_reserved":false,"is_disabled":false,"rental_uris":{"android":"levelo://app?vid=60ee13cf-44a1-4e0e-9eb6-02f69d58169e","ios":"levelo://app?vid=60ee13cf-44a1-4e0e-9eb6-02f69d58169e"},"vehicle_type_id":"4","last_reported":1741767221,"current_range_meters":8800,"station_id":"ce4bgt92rcd13ifvqcf0","pricing_plan_id":"cebpf4jnsgd1na2vs0mg"},{"bike_id":"a4fb3bcc-4b4c-4854-9e12-99e948ae9c60","system_id":"levelo_inurba_marseille","lat":43.29969,"lon":5.3718,"is_reserved":false,"is_disabled":false,"rental_uris":{"android":"levelo://app?vid=a4fb3bcc-4b4c-4854-9e12-99e948ae9c60","ios":"levelo://app?vid=a4fb3bcc-4b4c-4854-9e12-99e948ae9c60"},"vehicle_type_id":"4","last_reported":1741767221,"current_range_meters":8800,"station_id":"ce4bgr92rcd13ifvqc7g","pricing_plan_id":"cebpf4jnsgd1na2vs0mg"},{"bike_id":"9acab34d-76c9-4fd5-bed6-0265a89df8bb","system_id":"levelo_inurba_marseille","lat":43.25724,"lon":5.41109,"is_reserved":false,"is_disabled":false,"rental_uris":{"android":"levelo://app?vid=9acab34d-76c9-4fd5-bed6-0265a89df8bb","ios":"levelo://app?vid=9acab34d-76c9-4fd5-bed6-0265a89df8bb"},"vehicle_type_id":"4","last_reported":1741767221,"current_range_meters":8800,"station_id":"ce4bhkp2rcd13ifvqgd0","pricing_plan_id":"cebpf4jnsgd1na2vs0mg"},{"bike_id":"ebdc0adc-86d4-4882-8983-2d6c86413625","system_id":"levelo_inurba_marseille","lat":43.23144,"lon":5.43732,"is_reserved":false,"is_disabled":false,"rental_uris":{"android":"levelo://app?vid=ebdc0adc-86d4-4882-8983-2d6c86413625","ios":"levelo://app?vid=ebdc0adc-86d4-4882-8983-2d6c86413625"},"vehicle_type_id":"4","last_reported":1741767221,"current_range_meters":8800,"station_id":"ce4bhmp2rcd13ifvqgog","pricing_plan_id":"cebpf4jnsgd1na2vs0mg"},{"bike_id":"30a3a008-7160-4279-8740-ac0a8591383d","system_id":"levelo_inurba_marseille","lat":43.2455,"lon":5.39539,"is_reserved":false,"is_disabled":false,"rental_uris":{"android":"levelo://app?vid=30a3a008-7160-4279-8740-ac0a8591383d","ios":"levelo://app?vid=30a3a008-7160-4279-8740-ac0a8591383d"},"vehicle_type_id":"4","last_reported":1741767221,"current_range_meters":8800,"station_id":"ce4bhlp2rcd13ifvqgjg","pricing_plan_id":"cebpf4jnsgd1na2vs0mg"},{"bike_id":"885ff003-ec85-480a-9687-77cb94ebb1b4","system_id":"levelo_inurba_marseille","lat":43.33614,"lon":5.41043,"is_reserved":false,"is_disabled":false,"rental_uris":{"android":"levelo://app?vid=885ff003-ec85-480a-9687-77cb94ebb1b4","ios":"levelo://app?vid=885ff003-ec85-480a-9687-77cb94ebb1b4"},"vehicle_type_id":"4","last_reported":1741767221,"current_range_meters":8800,"station_id":"ce4bhqh2rcd13ifvqhmg","pricing_plan_id":"cebpf4jnsgd1na2vs0mg"},{"bike_id":"e684ff0d-ffbb-4303-9c2e-1cebf7f952f3","system_id":"levelo_inurba_marseille","lat":43.26578,"lon":5.39002,"is_reserved":false,"is_disabled":false,"rental_uris":{"android":"levelo://app?vid=e684ff0d-ffbb-4303-9c2e-1cebf7f952f3","ios":"levelo://app?vid=e684ff0d-ffbb-4303-9c2e-1cebf7f952f3"},"vehicle_type_id":"4","last_reported":1741767221,"current_range_meters":9200,"station_id":"ce4bhe12rcd13ifvqf30","pricing_plan_id":"cebpf4jnsgd1na2vs0mg"},{"bike_id":"72ab2c75-5587-494f-826f-81e3a01ecd70","system_id":"levelo_inurba_marseille","lat":43.22948,"lon":5.35405,"is_reserved":false,"is_disabled":false,"rental_uris":{"android":"levelo://app?vid=72ab2c75-5587-494f-826f-81e3a01ecd70","ios":"levelo://app?vid=72ab2c75-5587-494f-826f-81e3a01ecd70"},"vehicle_type_id":"4","last_reported":1741767221,"current_range_meters":9200,"station_id":"cpo3532slgdg3j2ikp40","pricing_plan_id":"cebpf4jnsgd1na2vs0mg"},{"bike_id":"e0882758-540a-4ac9-8b1c-c6cbff85ff33","system_id":"levelo_inurba_marseille","lat":43.29883,"lon":5.39735,"is_reserved":false,"is_disabled":false,"rental_uris":{"android":"levelo://app?vid=e0882758-540a-4ac9-8b1c-c6cbff85ff33","ios":"levelo://app?vid=e0882758-540a-4ac9-8b1c-c6cbff85ff33"},"vehicle_type_id":"4","last_reported":1741767221,"current_range_meters":9200,"station_id":"ce4bh0h2rcd13ifvqd50","pricing_plan_id":"cebpf4jnsgd1na2vs0mg"},{"bike_id":"1e383331-4cf9-4f27-840c-e013f13c25d8","system_id":"levelo_inurba_marseille","lat":43.232,"lon":5.39981,"is_reserved":false,"is_disabled":false,"rental_uris":{"android":"levelo://app?vid=1e383331-4cf9-4f27-840c-e013f13c25d8","ios":"levelo://app?vid=1e383331-4cf9-4f27-840c-e013f13c25d8"},"vehicle_type_id":"4","last_reported":1741767221,"current_range_meters":9200,"station_id":"ce4bhn12rcd13ifvqgqg","pricing_plan_id":"cebpf4jnsgd1na2vs0mg"},{"bike_id":"453f5d19-0c6d-4feb-923e-26ac1adaeb34","system_id":"levelo_inurba_marseille","lat":43.30547,"lon":5.36704,"is_reserved":false,"is_disabled":false,"rental_uris":{"android":"levelo://app?vid=453f5d19-0c6d-4feb-923e-26ac1adaeb34","ios":"levelo://app?vid=453f5d19-0c6d-4feb-923e-26ac1adaeb34"},"vehicle_type_id":"4","last_reported":1741767221,"current_range_meters":9200,"station_id":"ce4bgrp2rcd13ifvqc9g","pricing_plan_id":"cebpf4jnsgd1na2vs0mg"},{"bike_id":"ee4e5f93-680e-4be6-a5df-78e537da61ca","system_id":"levelo_inurba_marseille","lat":43.337444,"lon":5.374475,"is_reserved":false,"is_disabled":false,"rental_uris":{"android":"levelo://app?vid=ee4e5f93-680e-4be6-a5df-78e537da61ca","ios":"levelo://app?vid=ee4e5f93-680e-4be6-a5df-78e537da61ca"},"vehicle_type_id":"4","last_reported":1741767221,"current_range_meters":9200,"station_id":"ce4bgg92rcd13ifvqb30","pricing_plan_id":"cebpf4jnsgd1na2vs0mg"},{"bike_id":"ecd39674-6cb5-4c6e-b403-c71587e02817","system_id":"levelo_inurba_marseille","lat":43.29977,"lon":5.38497,"is_reserved":false,"is_disabled":false,"rental_uris":{"android":"levelo://app?vid=ecd39674-6cb5-4c6e-b403-c71587e02817","ios":"levelo://app?vid=ecd39674-6cb5-4c6e-b403-c71587e02817"},"vehicle_type_id":"4","last_reported":1741767221,"current_range_meters":8800,"station_id":"ce4bgj92rcd13ifvqbd0","pricing_plan_id":"cebpf4jnsgd1na2vs0mg"},{"bike_id":"8dabc24d-4dcb-4954-9ea5-584f283fee4d","system_id":"levelo_inurba_marseille","lat":43.25935,"lon":5.40905,"is_reserved":false,"is_disabled":false,"rental_uris":{"android":"levelo://app?vid=8dabc24d-4dcb-4954-9ea5-584f283fee4d","ios":"levelo://app?vid=8dabc24d-4dcb-4954-9ea5-584f283fee4d"},"vehicle_type_id":"4","last_reported":1741767221,"current_range_meters":9200,"station_id":"ce4bhm92rcd13ifvqglg","pricing_plan_id":"cebpf4jnsgd1na2vs0mg"},{"bike_id":"0d641c97-26ab-4dda-8205-34490528203c","system_id":"levelo_inurba_marseille","lat":43.27669,"lon":5.38885,"is_reserved":false,"is_disabled":false,"rental_uris":{"android":"levelo://app?vid=0d641c97-26ab-4dda-8205-34490528203c","ios":"levelo://app?vid=0d641c97-26ab-4dda-8205-34490528203c"},"vehicle_type_id":"4","last_reported":1741767221,"current_range_meters":9200,"station_id":"ce4bhi12rcd13ifvqfo0","pricing_plan_id":"cebpf4jnsgd1na2vs0mg"},{"bike_id":"ca981dba-ddba-46be-9f7a-ecc196c329e0","system_id":"levelo_inurba_marseille","lat":43.33132,"lon":5.39322,"is_reserved":false,"is_disabled":false,"rental_uris":{"android":"levelo://app?vid=ca981dba-ddba-46be-9f7a-ecc196c329e0","ios":"levelo://app?vid=ca981dba-ddba-46be-9f7a-ecc196c329e0"},"vehicle_type_id":"4","last_reported":1741767221,"current_range_meters":9600,"station_id":"","pricing_plan_id":"cebpf4jnsgd1na2vs0mg"},{"bike_id":"30e5a074-b140-4aee-9d5e-64f614b4a5a8","system_id":"levelo_inurba_marseille","lat":43.24536,"lon":5.39525,"is_reserved":false,"is_disabled":false,"rental_uris":{"android":"levelo://app?vid=30e5a074-b140-4aee-9d5e-64f614b4a5a8","ios":"levelo://app?vid=30e5a074-b140-4aee-9d5e-64f614b4a5a8"},"vehicle_type_id":"4","last_reported":1741767221,"current_range_meters":9600,"station_id":"ce4bhlp2rcd13ifvqgjg","pricing_plan_id":"cebpf4jnsgd1na2vs0mg"},{"bike_id":"9880b3b3-4334-44f1-88d3-e581c8981652","system_id":"levelo_inurba_marseille","lat":43.27065,"lon":5.40268,"is_reserved":false,"is_disabled":false,"rental_uris":{"android":"levelo://app?vid=9880b3b3-4334-44f1-88d3-e581c8981652","ios":"levelo://app?vid=9880b3b3-4334-44f1-88d3-e581c8981652"},"vehicle_type_id":"4","last_reported":1741767221,"current_range_meters":9600,"station_id":"ce4bhk92rcd13ifvqgc0","pricing_plan_id":"cebpf4jnsgd1na2vs0mg"},{"bike_id":"47fa1a31-5bb3-4522-abd9-b87b4a821178","system_id":"levelo_inurba_marseille","lat":43.27821,"lon":5.407,"is_reserved":false,"is_disabled":false,"rental_uris":{"android":"levelo://app?vid=47fa1a31-5bb3-4522-abd9-b87b4a821178","ios":"levelo://app?vid=47fa1a31-5bb3-4522-abd9-b87b4a821178"},"vehicle_type_id":"4","last_reported":1741767221,"current_range_meters":9600,"station_id":"ce4bhnh2rcd13ifvqgtg","pricing_plan_id":"cebpf4jnsgd1na2vs0mg"},{"bike_id":"a5490b0d-6778-4c0c-960c-3aa0b15c8435","system_id":"levelo_inurba_marseille","lat":43.31075,"lon":5.378649,"is_reserved":false,"is_disabled":false,"rental_uris":{"android":"levelo://app?vid=a5490b0d-6778-4c0c-960c-3aa0b15c8435","ios":"levelo://app?vid=a5490b0d-6778-4c0c-960c-3aa0b15c8435"},"vehicle_type_id":"4","last_reported":1741767221,"current_range_meters":9600,"station_id":"","pricing_plan_id":"cebpf4jnsgd1na2vs0mg"},{"bike_id":"9294a26b-c088-4208-917f-c73e3c4f5f46","system_id":"levelo_inurba_marseille","lat":43.30383,"lon":5.407656,"is_reserved":false,"is_disabled":false,"rental_uris":{"android":"levelo://app?vid=9294a26b-c088-4208-917f-c73e3c4f5f46","ios":"levelo://app?vid=9294a26b-c088-4208-917f-c73e3c4f5f46"},"vehicle_type_id":"4","last_reported":1741767221,"current_range_meters":9600,"station_id":"","pricing_plan_id":"cebpf4jnsgd1na2vs0mg"},{"bike_id":"9776d519-3376-4f51-aaa3-2da63911d7cc","system_id":"levelo_inurba_marseille","lat":43.250864,"lon":5.395155,"is_reserved":false,"is_disabled":false,"rental_uris":{"android":"levelo://app?vid=9776d519-3376-4f51-aaa3-2da63911d7cc","ios":"levelo://app?vid=9776d519-3376-4f51-aaa3-2da63911d7cc"},"vehicle_type_id":"4","last_reported":1741767221,"current_range_meters":9600,"station_id":"ce4bhm12rcd13ifvqgkg","pricing_plan_id":"cebpf4jnsgd1na2vs0mg"},{"bike_id":"2931d81f-abb3-45b8-9224-dc3fce2fae31","system_id":"levelo_inurba_marseille","lat":43.3237,"lon":5.36767,"is_reserved":false,"is_disabled":false,"rental_uris":{"android":"levelo://app?vid=2931d81f-abb3-45b8-9224-dc3fce2fae31","ios":"levelo://app?vid=2931d81f-abb3-45b8-9224-dc3fce2fae31"},"vehicle_type_id":"4","last_reported":1741767221,"current_range_meters":9600,"station_id":"ce4bhsh2rcd13ifvqi2g","pricing_plan_id":"cebpf4jnsgd1na2vs0mg"},{"bike_id":"6216841f-c9be-4e6e-bcf4-810c7dd12453","system_id":"levelo_inurba_marseille","lat":43.31206,"lon":5.36852,"is_reserved":false,"is_disabled":false,"rental_uris":{"android":"levelo://app?vid=6216841f-c9be-4e6e-bcf4-810c7dd12453","ios":"levelo://app?vid=6216841f-c9be-4e6e-bcf4-810c7dd12453"},"vehicle_type_id":"4","last_reported":1741767221,"current_range_meters":9600,"station_id":"","pricing_plan_id":"cebpf4jnsgd1na2vs0mg"},{"bike_id":"c1fdf776-5ff6-4f38-96ad-d3bee4a7cebb","system_id":"levelo_inurba_marseille","lat":43.23151,"lon":5.43711,"is_reserved":false,"is_disabled":false,"rental_uris":{"android":"levelo://app?vid=c1fdf776-5ff6-4f38-96ad-d3bee4a7cebb","ios":"levelo://app?vid=c1fdf776-5ff6-4f38-96ad-d3bee4a7cebb"},"vehicle_type_id":"4","last_reported":1741767221,"current_range_meters":9600,"station_id":"ce4bhmp2rcd13ifvqgog","pricing_plan_id":"cebpf4jnsgd1na2vs0mg"},{"bike_id":"9c775991-61d5-42d4-b148-d34afa9109e3","system_id":"levelo_inurba_marseille","lat":43.24073,"lon":5.37744,"is_reserved":false,"is_disabled":false,"rental_uris":{"android":"levelo://app?vid=9c775991-61d5-42d4-b148-d34afa9109e3","ios":"levelo://app?vid=9c775991-61d5-42d4-b148-d34afa9109e3"},"vehicle_type_id":"4","last_reported":1741767221,"current_range_meters":9600,"station_id":"ce4bhnp2rcd13ifvqgvg","pricing_plan_id":"cebpf4jnsgd1na2vs0mg"},{"bike_id":"a06eeb44-515e-480b-982c-4cf1514d53fb","system_id":"levelo_inurba_marseille","lat":43.30795,"lon":5.37654,"is_reserved":false,"is_disabled":false,"rental_uris":{"android":"levelo://app?vid=a06eeb44-515e-480b-982c-4cf1514d53fb","ios":"levelo://app?vid=a06eeb44-515e-480b-982c-4cf1514d53fb"},"vehicle_type_id":"4","last_reported":1741767221,"current_range_meters":8800,"station_id":"ce4bgv92rcd13ifvqcq0","pricing_plan_id":"cebpf4jnsgd1na2vs0mg"},{"bike_id":"0117055b-abaa-4782-a83e-c23d24cb8a2e","system_id":"levelo_inurba_marseille","lat":43.24641,"lon":5.38889,"is_reserved":false,"is_disabled":false,"rental_uris":{"android":"levelo://app?vid=0117055b-abaa-4782-a83e-c23d24cb8a2e","ios":"levelo://app?vid=0117055b-abaa-4782-a83e-c23d24cb8a2e"},"vehicle_type_id":"4","last_reported":1741767221,"current_range_meters":9600,"station_id":"ce4bhg12rcd13ifvqf60","pricing_plan_id":"cebpf4jnsgd1na2vs0mg"},{"bike_id":"71727964-5142-42b5-8c23-f1d0eb55ee48","system_id":"levelo_inurba_marseille","lat":43.27557,"lon":5.38437,"is_reserved":false,"is_disabled":false,"rental_uris":{"android":"levelo://app?vid=71727964-5142-42b5-8c23-f1d0eb55ee48","ios":"levelo://app?vid=71727964-5142-42b5-8c23-f1d0eb55ee48"},"vehicle_type_id":"4","last_reported":1741767221,"current_range_meters":9600,"station_id":"ce4bhh92rcd13ifvqfi0","pricing_plan_id":"cebpf4jnsgd1na2vs0mg"},{"bike_id":"ba18639b-98cc-4ab3-ad63-4ac259cc4916","system_id":"levelo_inurba_marseille","lat":43.23964,"lon":5.36632,"is_reserved":false,"is_disabled":false,"rental_uris":{"android":"levelo://app?vid=ba18639b-98cc-4ab3-ad63-4ac259cc4916","ios":"levelo://app?vid=ba18639b-98cc-4ab3-ad63-4ac259cc4916"},"vehicle_type_id":"4","last_reported":1741767221,"current_range_meters":10000,"station_id":"ce4bhi12rcd13ifvqfp0","pricing_plan_id":"cebpf4jnsgd1na2vs0mg"},{"bike_id":"8dee66dd-a753-4e90-9df0-a75f60b0d66f","system_id":"levelo_inurba_marseille","lat":43.28576,"lon":5.42486,"is_reserved":false,"is_disabled":false,"rental_uris":{"android":"levelo://app?vid=8dee66dd-a753-4e90-9df0-a75f60b0d66f","ios":"levelo://app?vid=8dee66dd-a753-4e90-9df0-a75f60b0d66f"},"vehicle_type_id":"4","last_reported":1741767221,"current_range_meters":10000,"station_id":"","pricing_plan_id":"cebpf4jnsgd1na2vs0mg"},{"bike_id":"c22e1e25-ac9b-41c9-90b8-f1c11c2b80ff","system_id":"levelo_inurba_marseille","lat":43.27054,"lon":5.40258,"is_reserved":false,"is_disabled":false,"rental_uris":{"android":"levelo://app?vid=c22e1e25-ac9b-41c9-90b8-f1c11c2b80ff","ios":"levelo://app?vid=c22e1e25-ac9b-41c9-90b8-f1c11c2b80ff"},"vehicle_type_id":"4","last_reported":1741767221,"current_range_meters":10000,"station_id":"ce4bhk92rcd13ifvqgc0","pricing_plan_id":"cebpf4jnsgd1na2vs0mg"},{"bike_id":"511a478b-16c6-4549-a89d-177a4b1ec633","system_id":"levelo_inurba_marseille","lat":43.26561,"lon":5.37298,"is_reserved":false,"is_disabled":false,"rental_uris":{"android":"levelo://app?vid=511a478b-16c6-4549-a89d-177a4b1ec633","ios":"levelo://app?vid=511a478b-16c6-4549-a89d-177a4b1ec633"},"vehicle_type_id":"4","last_reported":1741767221,"current_range_meters":10000,"station_id":"ce4bhg12rcd13ifvqf70","pricing_plan_id":"cebpf4jnsgd1na2vs0mg"},{"bike_id":"5f3f1a70-0201-4f14-a95d-efec88c05d00","system_id":"levelo_inurba_marseille","lat":43.26961,"lon":5.38629,"is_reserved":false,"is_disabled":false,"rental_uris":{"android":"levelo://app?vid=5f3f1a70-0201-4f14-a95d-efec88c05d00","ios":"levelo://app?vid=5f3f1a70-0201-4f14-a95d-efec88c05d00"},"vehicle_type_id":"4","last_reported":1741767221,"current_range_meters":10800,"station_id":"ce4bhh92rcd13ifvqfh0","pricing_plan_id":"cebpf4jnsgd1na2vs0mg"},{"bike_id":"73e322c8-7ded-47ba-9855-1e50f41f6948","system_id":"levelo_inurba_marseille","lat":43.30461,"lon":5.37908,"is_reserved":false,"is_disabled":false,"rental_uris":{"android":"levelo://app?vid=73e322c8-7ded-47ba-9855-1e50f41f6948","ios":"levelo://app?vid=73e322c8-7ded-47ba-9855-1e50f41f6948"},"vehicle_type_id":"4","last_reported":1741767221,"current_range_meters":10800,"station_id":"ce4bgup2rcd13ifvqcn0","pricing_plan_id":"cebpf4jnsgd1na2vs0mg"},{"bike_id":"f089405c-d65a-4a6b-a39c-5cde3f352c4b","system_id":"levelo_inurba_marseille","lat":43.30534,"lon":5.36701,"is_reserved":false,"is_disabled":false,"rental_uris":{"android":"levelo://app?vid=f089405c-d65a-4a6b-a39c-5cde3f352c4b","ios":"levelo://app?vid=f089405c-d65a-4a6b-a39c-5cde3f352c4b"},"vehicle_type_id":"4","last_reported":1741767221,"current_range_meters":10800,"station_id":"ce4bgrp2rcd13ifvqc9g","pricing_plan_id":"cebpf4jnsgd1na2vs0mg"},{"bike_id":"03fcef79-f017-4d15-a10d-891c5cd96db2","system_id":"levelo_inurba_marseille","lat":43.23062,"lon":5.35492,"is_reserved":false,"is_disabled":false,"rental_uris":{"android":"levelo://app?vid=03fcef79-f017-4d15-a10d-891c5cd96db2","ios":"levelo://app?vid=03fcef79-f017-4d15-a10d-891c5cd96db2"},"vehicle_type_id":"4","last_reported":1741767221,"current_range_meters":10800,"station_id":"cpo3342slgdg3j2ifvpg","pricing_plan_id":"cebpf4jnsgd1na2vs0mg"},{"bike_id":"f829a819-671e-4b71-9c22-56c5f8047725","system_id":"levelo_inurba_marseille","lat":43.32368,"lon":5.3678,"is_reserved":false,"is_disabled":false,"rental_uris":{"android":"levelo://app?vid=f829a819-671e-4b71-9c22-56c5f8047725","ios":"levelo://app?vid=f829a819-671e-4b71-9c22-56c5f8047725"},"vehicle_type_id":"4","last_reported":1741767221,"current_range_meters":10800,"station_id":"ce4bhsh2rcd13ifvqi2g","pricing_plan_id":"cebpf4jnsgd1na2vs0mg"},{"bike_id":"28ddcdf4-024a-4f42-80ff-fb3bac3f5f61","system_id":"levelo_inurba_marseille","lat":43.24175,"lon":5.36402,"is_reserved":false,"is_disabled":false,"rental_uris":{"android":"levelo://app?vid=28ddcdf4-024a-4f42-80ff-fb3bac3f5f61","ios":"levelo://app?vid=28ddcdf4-024a-4f42-80ff-fb3bac3f5f61"},"vehicle_type_id":"4","last_reported":1741767221,"current_range_meters":11200,"station_id":"cpo36qri1sfpv3e86is0","pricing_plan_id":"cebpf4jnsgd1na2vs0mg"},{"bike_id":"fcb04a08-f6ed-4f5a-9cc1-eb836ef3cba6","system_id":"levelo_inurba_marseille","lat":43.25934,"lon":5.4091,"is_reserved":false,"is_disabled":false,"rental_uris":{"android":"levelo://app?vid=fcb04a08-f6ed-4f5a-9cc1-eb836ef3cba6","ios":"levelo://app?vid=fcb04a08-f6ed-4f5a-9cc1-eb836ef3cba6"},"vehicle_type_id":"4","last_reported":1741767221,"current_range_meters":11200,"station_id":"ce4bhm92rcd13ifvqglg","pricing_plan_id":"cebpf4jnsgd1na2vs0mg"},{"bike_id":"9cd9549f-d9ce-4915-97f4-0282e09d4c24","system_id":"levelo_inurba_marseille","lat":43.28982,"lon":5.37832,"is_reserved":false,"is_disabled":false,"rental_uris":{"android":"levelo://app?vid=9cd9549f-d9ce-4915-97f4-0282e09d4c24","ios":"levelo://app?vid=9cd9549f-d9ce-4915-97f4-0282e09d4c24"},"vehicle_type_id":"4","last_reported":1741767221,"current_range_meters":11200,"station_id":"ce4bh9p2rcd13ifvqed0","pricing_plan_id":"cebpf4jnsgd1na2vs0mg"},{"bike_id":"4fc050dc-b7d2-44a5-ae90-666b5d5565d4","system_id":"levelo_inurba_marseille","lat":43.2978,"lon":5.38097,"is_reserved":false,"is_disabled":false,"rental_uris":{"android":"levelo://app?vid=4fc050dc-b7d2-44a5-ae90-666b5d5565d4","ios":"levelo://app?vid=4fc050dc-b7d2-44a5-ae90-666b5d5565d4"},"vehicle_type_id":"4","last_reported":1741767221,"current_range_meters":10800,"station_id":"ce4bgip2rcd13ifvqbb0","pricing_plan_id":"cebpf4jnsgd1na2vs0mg"},{"bike_id":"25937fb7-9dcc-40e4-8919-d293a5121ca0","system_id":"levelo_inurba_marseille","lat":43.28689,"lon":5.3795,"is_reserved":false,"is_disabled":false,"rental_uris":{"android":"levelo://app?vid=25937fb7-9dcc-40e4-8919-d293a5121ca0","ios":"levelo://app?vid=25937fb7-9dcc-40e4-8919-d293a5121ca0"},"vehicle_type_id":"4","last_reported":1741767221,"current_range_meters":11200,"station_id":"ce4bh9p2rcd13ifvqec0","pricing_plan_id":"cebpf4jnsgd1na2vs0mg"},{"bike_id":"2872f208-7a92-4283-a98c-8da021fd4c46","system_id":"levelo_inurba_marseille","lat":43.3027,"lon":5.37706,"is_reserved":false,"is_disabled":false,"rental_uris":{"android":"levelo://app?vid=2872f208-7a92-4283-a98c-8da021fd4c46","ios":"levelo://app?vid=2872f208-7a92-4283-a98c-8da021fd4c46"},"vehicle_type_id":"4","last_reported":1741767221,"current_range_meters":11200,"station_id":"ce4bguh2rcd13ifvqcj0","pricing_plan_id":"cebpf4jnsgd1na2vs0mg"},{"bike_id":"6190eac7-4d69-4aee-8885-569caf678aef","system_id":"levelo_inurba_marseille","lat":43.25727,"lon":5.41108,"is_reserved":false,"is_disabled":false,"rental_uris":{"android":"levelo://app?vid=6190eac7-4d69-4aee-8885-569caf678aef","ios":"levelo://app?vid=6190eac7-4d69-4aee-8885-569caf678aef"},"vehicle_type_id":"4","last_reported":1741767221,"current_range_meters":11200,"station_id":"ce4bhkp2rcd13ifvqgd0","pricing_plan_id":"cebpf4jnsgd1na2vs0mg"},{"bike_id":"a4ce6389-69c8-41eb-a2cb-27e113df5153","system_id":"levelo_inurba_marseille","lat":43.28614,"lon":5.35103,"is_reserved":false,"is_disabled":false,"rental_uris":{"android":"levelo://app?vid=a4ce6389-69c8-41eb-a2cb-27e113df5153","ios":"levelo://app?vid=a4ce6389-69c8-41eb-a2cb-27e113df5153"},"vehicle_type_id":"4","last_reported":1741767221,"current_range_meters":11600,"station_id":"ce4bhch2rcd13ifvqeug","pricing_plan_id":"cebpf4jnsgd1na2vs0mg"},{"bike_id":"51bb4d06-8f06-4c81-9967-3f775de2b65e","system_id":"levelo_inurba_marseille","lat":43.24166,"lon":5.36409,"is_reserved":false,"is_disabled":false,"rental_uris":{"android":"levelo://app?vid=51bb4d06-8f06-4c81-9967-3f775de2b65e","ios":"levelo://app?vid=51bb4d06-8f06-4c81-9967-3f775de2b65e"},"vehicle_type_id":"4","last_reported":1741767221,"current_range_meters":11600,"station_id":"cpo36qri1sfpv3e86is0","pricing_plan_id":"cebpf4jnsgd1na2vs0mg"},{"bike_id":"ec5d08ce-934d-49b5-9a73-c20b44942d11","system_id":"levelo_inurba_marseille","lat":43.31425,"lon":5.37552,"is_reserved":false,"is_disabled":false,"rental_uris":{"android":"levelo://app?vid=ec5d08ce-934d-49b5-9a73-c20b44942d11","ios":"levelo://app?vid=ec5d08ce-934d-49b5-9a73-c20b44942d11"},"vehicle_type_id":"4","last_reported":1741767221,"current_range_meters":11600,"station_id":"","pricing_plan_id":"cebpf4jnsgd1na2vs0mg"},{"bike_id":"2d24c24a-8203-4ed5-9cb1-77fb4086f4ed","system_id":"levelo_inurba_marseille","lat":43.29907,"lon":5.39746,"is_reserved":false,"is_disabled":false,"rental_uris":{"android":"levelo://app?vid=2d24c24a-8203-4ed5-9cb1-77fb4086f4ed","ios":"levelo://app?vid=2d24c24a-8203-4ed5-9cb1-77fb4086f4ed"},"vehicle_type_id":"4","last_reported":1741767221,"current_range_meters":11600,"station_id":"ce4bh0h2rcd13ifvqd50","pricing_plan_id":"cebpf4jnsgd1na2vs0mg"},{"bike_id":"7c736bec-26ec-4643-835d-e0081ef03598","system_id":"levelo_inurba_marseille","lat":43.30143,"lon":5.38088,"is_reserved":false,"is_disabled":false,"rental_uris":{"android":"levelo://app?vid=7c736bec-26ec-4643-835d-e0081ef03598","ios":"levelo://app?vid=7c736bec-26ec-4643-835d-e0081ef03598"},"vehicle_type_id":"4","last_reported":1741767221,"current_range_meters":11600,"station_id":"ce4bgjp2rcd13ifvqbh0","pricing_plan_id":"cebpf4jnsgd1na2vs0mg"},{"bike_id":"61280d30-2090-41a2-bd6e-9011a1f3a8c8","system_id":"levelo_inurba_marseille","lat":43.2418,"lon":5.39729,"is_reserved":false,"is_disabled":false,"rental_uris":{"android":"levelo://app?vid=61280d30-2090-41a2-bd6e-9011a1f3a8c8","ios":"levelo://app?vid=61280d30-2090-41a2-bd6e-9011a1f3a8c8"},"vehicle_type_id":"4","last_reported":1741767221,"current_range_meters":11600,"station_id":"ce4bhn12rcd13ifvqgpg","pricing_plan_id":"cebpf4jnsgd1na2vs0mg"},{"bike_id":"dfebedf4-d78b-4900-b03f-86ea1fb225e4","system_id":"levelo_inurba_marseille","lat":43.24527,"lon":5.373167,"is_reserved":false,"is_disabled":false,"rental_uris":{"android":"levelo://app?vid=dfebedf4-d78b-4900-b03f-86ea1fb225e4","ios":"levelo://app?vid=dfebedf4-d78b-4900-b03f-86ea1fb225e4"},"vehicle_type_id":"4","last_reported":1741767221,"current_range_meters":12000,"station_id":"ce4bhi12rcd13ifvqfp0","pricing_plan_id":"cebpf4jnsgd1na2vs0mg"},{"bike_id":"eb1ba1b6-2e87-45ed-8cf3-925b9709627f","system_id":"levelo_inurba_marseille","lat":43.29351,"lon":5.39274,"is_reserved":false,"is_disabled":false,"rental_uris":{"android":"levelo://app?vid=eb1ba1b6-2e87-45ed-8cf3-925b9709627f","ios":"levelo://app?vid=eb1ba1b6-2e87-45ed-8cf3-925b9709627f"},"vehicle_type_id":"4","last_reported":1741767221,"current_range_meters":12000,"station_id":"ce4bh3p2rcd13ifvqdp0","pricing_plan_id":"cebpf4jnsgd1na2vs0mg"},{"bike_id":"18d2319f-8df9-4031-bdd7-a3e83b042534","system_id":"levelo_inurba_marseille","lat":43.30272,"lon":5.37708,"is_reserved":false,"is_disabled":false,"rental_uris":{"android":"levelo://app?vid=18d2319f-8df9-4031-bdd7-a3e83b042534","ios":"levelo://app?vid=18d2319f-8df9-4031-bdd7-a3e83b042534"},"vehicle_type_id":"4","last_reported":1741767221,"current_range_meters":12000,"station_id":"ce4bguh2rcd13ifvqcj0","pricing_plan_id":"cebpf4jnsgd1na2vs0mg"},{"bike_id":"0a6985ed-b84c-4033-8e3e-05aa091718f5","system_id":"levelo_inurba_marseille","lat":43.298739,"lon":5.397354,"is_reserved":false,"is_disabled":false,"rental_uris":{"android":"levelo://app?vid=0a6985ed-b84c-4033-8e3e-05aa091718f5","ios":"levelo://app?vid=0a6985ed-b84c-4033-8e3e-05aa091718f5"},"vehicle_type_id":"4","last_reported":1741767221,"current_range_meters":12000,"station_id":"ce4bh0h2rcd13ifvqd50","pricing_plan_id":"cebpf4jnsgd1na2vs0mg"},{"bike_id":"d34c486a-1f4c-4633-aedb-8d2096ade05a","system_id":"levelo_inurba_marseille","lat":43.30801,"lon":5.43524,"is_reserved":false,"is_disabled":false,"rental_uris":{"android":"levelo://app?vid=d34c486a-1f4c-4633-aedb-8d2096ade05a","ios":"levelo://app?vid=d34c486a-1f4c-4633-aedb-8d2096ade05a"},"vehicle_type_id":"4","last_reported":1741767221,"current_range_meters":12000,"station_id":"ce4bhph2rcd13ifvqheg","pricing_plan_id":"cebpf4jnsgd1na2vs0mg"},{"bike_id":"dddc6ff3-f1c1-4c01-afae-a0d17be41a72","system_id":"levelo_inurba_marseille","lat":43.30146,"lon":5.37425,"is_reserved":false,"is_disabled":false,"rental_uris":{"android":"levelo://app?vid=dddc6ff3-f1c1-4c01-afae-a0d17be41a72","ios":"levelo://app?vid=dddc6ff3-f1c1-4c01-afae-a0d17be41a72"},"vehicle_type_id":"4","last_reported":1741767221,"current_range_meters":12000,"station_id":"ce4bgs92rcd13ifvqcc0","pricing_plan_id":"cebpf4jnsgd1na2vs0mg"},{"bike_id":"71675af1-eb7f-4644-bb83-88c03d675021","system_id":"levelo_inurba_marseille","lat":43.31496,"lon":5.37274,"is_reserved":false,"is_disabled":false,"rental_uris":{"android":"levelo://app?vid=71675af1-eb7f-4644-bb83-88c03d675021","ios":"levelo://app?vid=71675af1-eb7f-4644-bb83-88c03d675021"},"vehicle_type_id":"4","last_reported":1741767221,"current_range_meters":12000,"station_id":"ce4bgt12rcd13ifvqcd0","pricing_plan_id":"cebpf4jnsgd1na2vs0mg"},{"bike_id":"0a995a9a-6122-4f4b-b298-a8b06cbca7e2","system_id":"levelo_inurba_marseille","lat":43.2501,"lon":5.38916,"is_reserved":false,"is_disabled":false,"rental_uris":{"android":"levelo://app?vid=0a995a9a-6122-4f4b-b298-a8b06cbca7e2","ios":"levelo://app?vid=0a995a9a-6122-4f4b-b298-a8b06cbca7e2"},"vehicle_type_id":"4","last_reported":1741767221,"current_range_meters":12400,"station_id":"ce4bhgp2rcd13ifvqfd0","pricing_plan_id":"cebpf4jnsgd1na2vs0mg"},{"bike_id":"2f8ecfaf-2a87-4f10-80ec-10a7eb94a1da","system_id":"levelo_inurba_marseille","lat":43.31523,"lon":5.380336,"is_reserved":false,"is_disabled":false,"rental_uris":{"android":"levelo://app?vid=2f8ecfaf-2a87-4f10-80ec-10a7eb94a1da","ios":"levelo://app?vid=2f8ecfaf-2a87-4f10-80ec-10a7eb94a1da"},"vehicle_type_id":"4","last_reported":1741767221,"current_range_meters":12400,"station_id":"ce4bhsp2rcd13ifvqi50","pricing_plan_id":"cebpf4jnsgd1na2vs0mg"},{"bike_id":"8afc345b-56b8-46e6-a0b1-6f81dadf6638","system_id":"levelo_inurba_marseille","lat":43.24209,"lon":5.39741,"is_reserved":false,"is_disabled":false,"rental_uris":{"android":"levelo://app?vid=8afc345b-56b8-46e6-a0b1-6f81dadf6638","ios":"levelo://app?vid=8afc345b-56b8-46e6-a0b1-6f81dadf6638"},"vehicle_type_id":"4","last_reported":1741767221,"current_range_meters":12400,"station_id":"ce4bhn12rcd13ifvqgpg","pricing_plan_id":"cebpf4jnsgd1na2vs0mg"},{"bike_id":"45345445-a78a-493f-a730-c619602e3241","system_id":"levelo_inurba_marseille","lat":43.25618,"lon":5.38523,"is_reserved":false,"is_disabled":false,"rental_uris":{"android":"levelo://app?vid=45345445-a78a-493f-a730-c619602e3241","ios":"levelo://app?vid=45345445-a78a-493f-a730-c619602e3241"},"vehicle_type_id":"4","last_reported":1741767221,"current_range_meters":12400,"station_id":"","pricing_plan_id":"cebpf4jnsgd1na2vs0mg"},{"bike_id":"871fa709-b84a-4343-b801-91cb808cfee3","system_id":"levelo_inurba_marseille","lat":43.30434,"lon":5.39732,"is_reserved":false,"is_disabled":false,"rental_uris":{"android":"levelo://app?vid=871fa709-b84a-4343-b801-91cb808cfee3","ios":"levelo://app?vid=871fa709-b84a-4343-b801-91cb808cfee3"},"vehicle_type_id":"4","last_reported":1741767221,"current_range_meters":12800,"station_id":"ce4bh092rcd13ifvqd20","pricing_plan_id":"cebpf4jnsgd1na2vs0mg"},{"bike_id":"a81d7902-8b48-4eec-8665-39e329864078","system_id":"levelo_inurba_marseille","lat":43.30182,"lon":5.36621,"is_reserved":false,"is_disabled":false,"rental_uris":{"android":"levelo://app?vid=a81d7902-8b48-4eec-8665-39e329864078","ios":"levelo://app?vid=a81d7902-8b48-4eec-8665-39e329864078"},"vehicle_type_id":"4","last_reported":1741767221,"current_range_meters":12800,"station_id":"ce4bgrh2rcd13ifvqc8g","pricing_plan_id":"cebpf4jnsgd1na2vs0mg"},{"bike_id":"6dbc9b4a-c5a1-4dbf-a00f-5bb7462d2694","system_id":"levelo_inurba_marseille","lat":43.2811,"lon":5.39855,"is_reserved":false,"is_disabled":true,"rental_uris":{"android":"levelo://app?vid=6dbc9b4a-c5a1-4dbf-a00f-5bb7462d2694","ios":"levelo://app?vid=6dbc9b4a-c5a1-4dbf-a00f-5bb7462d2694"},"vehicle_type_id":"4","last_reported":1741767221,"current_range_meters":12800,"station_id":"","pricing_plan_id":"cebpf4jnsgd1na2vs0mg"},{"bike_id":"601c8bbf-10e2-4e43-ae99-9fe0a98265c5","system_id":"levelo_inurba_marseille","lat":43.2594,"lon":5.40902,"is_reserved":false,"is_disabled":false,"rental_uris":{"android":"levelo://app?vid=601c8bbf-10e2-4e43-ae99-9fe0a98265c5","ios":"levelo://app?vid=601c8bbf-10e2-4e43-ae99-9fe0a98265c5"},"vehicle_type_id":"4","last_reported":1741767221,"current_range_meters":12800,"station_id":"ce4bhm92rcd13ifvqglg","pricing_plan_id":"cebpf4jnsgd1na2vs0mg"},{"bike_id":"b44022d5-a3c8-45f9-9984-eaba76929c7b","system_id":"levelo_inurba_marseille","lat":43.27808,"lon":5.40737,"is_reserved":false,"is_disabled":false,"rental_uris":{"android":"levelo://app?vid=b44022d5-a3c8-45f9-9984-eaba76929c7b","ios":"levelo://app?vid=b44022d5-a3c8-45f9-9984-eaba76929c7b"},"vehicle_type_id":"4","last_reported":1741767221,"current_range_meters":12800,"station_id":"ce4bhnh2rcd13ifvqgtg","pricing_plan_id":"cebpf4jnsgd1na2vs0mg"},{"bike_id":"fb55f9d1-18dc-4569-919c-3c5a2e705317","system_id":"levelo_inurba_marseille","lat":43.32478,"lon":5.366,"is_reserved":false,"is_disabled":false,"rental_uris":{"android":"levelo://app?vid=fb55f9d1-18dc-4569-919c-3c5a2e705317","ios":"levelo://app?vid=fb55f9d1-18dc-4569-919c-3c5a2e705317"},"vehicle_type_id":"4","last_reported":1741767221,"current_range_meters":12800,"station_id":"ce4bhs12rcd13ifvqhvg","pricing_plan_id":"cebpf4jnsgd1na2vs0mg"},{"bike_id":"6c5be0de-7ae5-4443-b67d-718e2bfeb46c","system_id":"levelo_inurba_marseille","lat":43.28634,"lon":5.35097,"is_reserved":false,"is_disabled":false,"rental_uris":{"android":"levelo://app?vid=6c5be0de-7ae5-4443-b67d-718e2bfeb46c","ios":"levelo://app?vid=6c5be0de-7ae5-4443-b67d-718e2bfeb46c"},"vehicle_type_id":"4","last_reported":1741767221,"current_range_meters":12800,"station_id":"ce4bhch2rcd13ifvqeug","pricing_plan_id":"cebpf4jnsgd1na2vs0mg"},{"bike_id":"492fc3bc-ce89-49b5-ac89-f113a8e66333","system_id":"levelo_inurba_marseille","lat":43.24078,"lon":5.37758,"is_reserved":false,"is_disabled":false,"rental_uris":{"android":"levelo://app?vid=492fc3bc-ce89-49b5-ac89-f113a8e66333","ios":"levelo://app?vid=492fc3bc-ce89-49b5-ac89-f113a8e66333"},"vehicle_type_id":"4","last_reported":1741767221,"current_range_meters":12800,"station_id":"ce4bhnp2rcd13ifvqgvg","pricing_plan_id":"cebpf4jnsgd1na2vs0mg"},{"bike_id":"5513c195-ca66-4cb6-ac62-82329b095ea7","system_id":"levelo_inurba_marseille","lat":43.31344,"lon":5.36719,"is_reserved":false,"is_disabled":false,"rental_uris":{"android":"levelo://app?vid=5513c195-ca66-4cb6-ac62-82329b095ea7","ios":"levelo://app?vid=5513c195-ca66-4cb6-ac62-82329b095ea7"},"vehicle_type_id":"4","last_reported":1741767221,"current_range_meters":13600,"station_id":"ce4bgr92rcd13ifvqc6g","pricing_plan_id":"cebpf4jnsgd1na2vs0mg"},{"bike_id":"106062d5-dfc8-41c5-9d93-99ed8ba0bef5","system_id":"levelo_inurba_marseille","lat":43.30543,"lon":5.36528,"is_reserved":false,"is_disabled":false,"rental_uris":{"android":"levelo://app?vid=106062d5-dfc8-41c5-9d93-99ed8ba0bef5","ios":"levelo://app?vid=106062d5-dfc8-41c5-9d93-99ed8ba0bef5"},"vehicle_type_id":"4","last_reported":1741767221,"current_range_meters":10800,"station_id":"ce4bgs12rcd13ifvqcag","pricing_plan_id":"cebpf4jnsgd1na2vs0mg"},{"bike_id":"90c19d0c-ef69-4351-973f-1f233f8cc14d","system_id":"levelo_inurba_marseille","lat":43.27983,"lon":5.41657,"is_reserved":false,"is_disabled":false,"rental_uris":{"android":"levelo://app?vid=90c19d0c-ef69-4351-973f-1f233f8cc14d","ios":"levelo://app?vid=90c19d0c-ef69-4351-973f-1f233f8cc14d"},"vehicle_type_id":"4","last_reported":1741767221,"current_range_meters":13600,"station_id":"ce4bho12rcd13ifvqh1g","pricing_plan_id":"cebpf4jnsgd1na2vs0mg"},{"bike_id":"9cc134b4-3275-4f84-9961-51fb6068a565","system_id":"levelo_inurba_marseille","lat":43.3091,"lon":5.36851,"is_reserved":false,"is_disabled":false,"rental_uris":{"android":"levelo://app?vid=9cc134b4-3275-4f84-9961-51fb6068a565","ios":"levelo://app?vid=9cc134b4-3275-4f84-9961-51fb6068a565"},"vehicle_type_id":"4","last_reported":1741767221,"current_range_meters":13600,"station_id":"ce4bgn92rcd13ifvqbvg","pricing_plan_id":"cebpf4jnsgd1na2vs0mg"},{"bike_id":"a7c2e7e0-7201-4785-9233-c26ab8f60f63","system_id":"levelo_inurba_marseille","lat":43.29908,"lon":5.37471,"is_reserved":false,"is_disabled":false,"rental_uris":{"android":"levelo://app?vid=a7c2e7e0-7201-4785-9233-c26ab8f60f63","ios":"levelo://app?vid=a7c2e7e0-7201-4785-9233-c26ab8f60f63"},"vehicle_type_id":"4","last_reported":1741767221,"current_range_meters":13600,"station_id":"ce4bgjh2rcd13ifvqbg0","pricing_plan_id":"cebpf4jnsgd1na2vs0mg"},{"bike_id":"843c81a9-3053-4a25-8ea4-9fed425794d0","system_id":"levelo_inurba_marseille","lat":43.30469,"lon":5.37908,"is_reserved":false,"is_disabled":false,"rental_uris":{"android":"levelo://app?vid=843c81a9-3053-4a25-8ea4-9fed425794d0","ios":"levelo://app?vid=843c81a9-3053-4a25-8ea4-9fed425794d0"},"vehicle_type_id":"4","last_reported":1741767221,"current_range_meters":13600,"station_id":"ce4bgup2rcd13ifvqcn0","pricing_plan_id":"cebpf4jnsgd1na2vs0mg"},{"bike_id":"c48df662-5b71-424d-adcd-5061f3fda701","system_id":"levelo_inurba_marseille","lat":43.296051,"lon":5.368223,"is_reserved":false,"is_disabled":false,"rental_uris":{"android":"levelo://app?vid=c48df662-5b71-424d-adcd-5061f3fda701","ios":"levelo://app?vid=c48df662-5b71-424d-adcd-5061f3fda701"},"vehicle_type_id":"4","last_reported":1741767221,"current_range_meters":14000,"station_id":"ce4bgn92rcd13ifvqbvg","pricing_plan_id":"cebpf4jnsgd1na2vs0mg"},{"bike_id":"1c01930b-65ad-457e-945b-28c1041e2a4c","system_id":"levelo_inurba_marseille","lat":43.31361,"lon":5.36714,"is_reserved":false,"is_disabled":false,"rental_uris":{"android":"levelo://app?vid=1c01930b-65ad-457e-945b-28c1041e2a4c","ios":"levelo://app?vid=1c01930b-65ad-457e-945b-28c1041e2a4c"},"vehicle_type_id":"4","last_reported":1741767221,"current_range_meters":14000,"station_id":"ce4bgr92rcd13ifvqc6g","pricing_plan_id":"cebpf4jnsgd1na2vs0mg"},{"bike_id":"2292d452-080d-44d7-bf0a-d0e9cf6f1d25","system_id":"levelo_inurba_marseille","lat":43.2803,"lon":5.40016,"is_reserved":false,"is_disabled":false,"rental_uris":{"android":"levelo://app?vid=2292d452-080d-44d7-bf0a-d0e9cf6f1d25","ios":"levelo://app?vid=2292d452-080d-44d7-bf0a-d0e9cf6f1d25"},"vehicle_type_id":"4","last_reported":1741767221,"current_range_meters":14000,"station_id":"ce4bho92rcd13ifvqh4g","pricing_plan_id":"cebpf4jnsgd1na2vs0mg"},{"bike_id":"c2fdc035-3896-46f1-aee2-5294a5907071","system_id":"levelo_inurba_marseille","lat":43.25006,"lon":5.38939,"is_reserved":false,"is_disabled":false,"rental_uris":{"android":"levelo://app?vid=c2fdc035-3896-46f1-aee2-5294a5907071","ios":"levelo://app?vid=c2fdc035-3896-46f1-aee2-5294a5907071"},"vehicle_type_id":"4","last_reported":1741767221,"current_range_meters":14000,"station_id":"ce4bhgp2rcd13ifvqfd0","pricing_plan_id":"cebpf4jnsgd1na2vs0mg"},{"bike_id":"82512acd-d4a4-4e69-ad68-d5bb4078ae7a","system_id":"levelo_inurba_marseille","lat":43.23971,"lon":5.36588,"is_reserved":false,"is_disabled":false,"rental_uris":{"android":"levelo://app?vid=82512acd-d4a4-4e69-ad68-d5bb4078ae7a","ios":"levelo://app?vid=82512acd-d4a4-4e69-ad68-d5bb4078ae7a"},"vehicle_type_id":"4","last_reported":1741767221,"current_range_meters":14400,"station_id":"ce4bhi12rcd13ifvqfp0","pricing_plan_id":"cebpf4jnsgd1na2vs0mg"},{"bike_id":"543bee84-d96b-46ff-b88b-0908fee8b27b","system_id":"levelo_inurba_marseille","lat":43.32541,"lon":5.41439,"is_reserved":false,"is_disabled":false,"rental_uris":{"android":"levelo://app?vid=543bee84-d96b-46ff-b88b-0908fee8b27b","ios":"levelo://app?vid=543bee84-d96b-46ff-b88b-0908fee8b27b"},"vehicle_type_id":"4","last_reported":1741767221,"current_range_meters":14400,"station_id":"ce4bhq12rcd13ifvqhhg","pricing_plan_id":"cebpf4jnsgd1na2vs0mg"},{"bike_id":"d4df08b0-e4dd-4c4b-ac7e-66a43d848ae1","system_id":"levelo_inurba_marseille","lat":43.31254,"lon":5.36843,"is_reserved":false,"is_disabled":false,"rental_uris":{"android":"levelo://app?vid=d4df08b0-e4dd-4c4b-ac7e-66a43d848ae1","ios":"levelo://app?vid=d4df08b0-e4dd-4c4b-ac7e-66a43d848ae1"},"vehicle_type_id":"4","last_reported":1741767221,"current_range_meters":14400,"station_id":"ce4bgl92rcd13ifvqbq0","pricing_plan_id":"cebpf4jnsgd1na2vs0mg"},{"bike_id":"507abd02-8c10-470e-b802-dadd3ef21f5c","system_id":"levelo_inurba_marseille","lat":43.28075,"lon":5.39663,"is_reserved":false,"is_disabled":false,"rental_uris":{"android":"levelo://app?vid=507abd02-8c10-470e-b802-dadd3ef21f5c","ios":"levelo://app?vid=507abd02-8c10-470e-b802-dadd3ef21f5c"},"vehicle_type_id":"4","last_reported":1741767221,"current_range_meters":14400,"station_id":"ce4bho12rcd13ifvqh2g","pricing_plan_id":"cebpf4jnsgd1na2vs0mg"},{"bike_id":"9a60ebff-2d32-45b5-990c-1b6878814c80","system_id":"levelo_inurba_marseille","lat":43.30961,"lon":5.39037,"is_reserved":false,"is_disabled":false,"rental_uris":{"android":"levelo://app?vid=9a60ebff-2d32-45b5-990c-1b6878814c80","ios":"levelo://app?vid=9a60ebff-2d32-45b5-990c-1b6878814c80"},"vehicle_type_id":"4","last_reported":1741767221,"current_range_meters":14800,"station_id":"ce4bgup2rcd13ifvqco0","pricing_plan_id":"cebpf4jnsgd1na2vs0mg"},{"bike_id":"e7e88df6-f1ca-46bb-bd71-ae3d4a6f7eeb","system_id":"levelo_inurba_marseille","lat":43.29917,"lon":5.37478,"is_reserved":false,"is_disabled":false,"rental_uris":{"android":"levelo://app?vid=e7e88df6-f1ca-46bb-bd71-ae3d4a6f7eeb","ios":"levelo://app?vid=e7e88df6-f1ca-46bb-bd71-ae3d4a6f7eeb"},"vehicle_type_id":"4","last_reported":1741767221,"current_range_meters":14800,"station_id":"ce4bgjh2rcd13ifvqbg0","pricing_plan_id":"cebpf4jnsgd1na2vs0mg"},{"bike_id":"e0718395-0e2e-4a7a-a474-5a05d3f79c13","system_id":"levelo_inurba_marseille","lat":43.28434,"lon":5.37524,"is_reserved":false,"is_disabled":true,"rental_uris":{"android":"levelo://app?vid=e0718395-0e2e-4a7a-a474-5a05d3f79c13","ios":"levelo://app?vid=e0718395-0e2e-4a7a-a474-5a05d3f79c13"},"vehicle_type_id":"4","last_reported":1741767221,"current_range_meters":14800,"station_id":"ce4bh412rcd13ifvqds0","pricing_plan_id":"cebpf4jnsgd1na2vs0mg"},{"bike_id":"4c607265-c996-4d9b-81fd-daa80dd99e32","system_id":"levelo_inurba_marseille","lat":43.287662,"lon":5.384216,"is_reserved":false,"is_disabled":false,"rental_uris":{"android":"levelo://app?vid=4c607265-c996-4d9b-81fd-daa80dd99e32","ios":"levelo://app?vid=4c607265-c996-4d9b-81fd-daa80dd99e32"},"vehicle_type_id":"4","last_reported":1741767221,"current_range_meters":14800,"station_id":"","pricing_plan_id":"cebpf4jnsgd1na2vs0mg"},{"bike_id":"4f87b19d-3321-46d5-92d8-8daceda004aa","system_id":"levelo_inurba_marseille","lat":43.29257,"lon":5.40906,"is_reserved":false,"is_disabled":false,"rental_uris":{"android":"levelo://app?vid=4f87b19d-3321-46d5-92d8-8daceda004aa","ios":"levelo://app?vid=4f87b19d-3321-46d5-92d8-8daceda004aa"},"vehicle_type_id":"4","last_reported":1741767221,"current_range_meters":14800,"station_id":"ce4bh192rcd13ifvqdc0","pricing_plan_id":"cebpf4jnsgd1na2vs0mg"},{"bike_id":"55460cd7-9b41-4f6b-8ca9-a135ac7ebf19","system_id":"levelo_inurba_marseille","lat":43.25091,"lon":5.39526,"is_reserved":false,"is_disabled":false,"rental_uris":{"android":"levelo://app?vid=55460cd7-9b41-4f6b-8ca9-a135ac7ebf19","ios":"levelo://app?vid=55460cd7-9b41-4f6b-8ca9-a135ac7ebf19"},"vehicle_type_id":"4","last_reported":1741767221,"current_range_meters":14800,"station_id":"ce4bhm12rcd13ifvqgkg","pricing_plan_id":"cebpf4jnsgd1na2vs0mg"},{"bike_id":"904031c5-5f8d-484b-a8fc-c4ddffb85d28","system_id":"levelo_inurba_marseille","lat":43.29576,"lon":5.3752,"is_reserved":false,"is_disabled":false,"rental_uris":{"android":"levelo://app?vid=904031c5-5f8d-484b-a8fc-c4ddffb85d28","ios":"levelo://app?vid=904031c5-5f8d-484b-a8fc-c4ddffb85d28"},"vehicle_type_id":"4","last_reported":1741767221,"current_range_meters":15200,"station_id":"ce4bgh92rcd13ifvqb50","pricing_plan_id":"cebpf4jnsgd1na2vs0mg"},{"bike_id":"f595a602-36be-42b2-bf6e-1706bf5d1263","system_id":"levelo_inurba_marseille","lat":43.296308,"lon":5.377155,"is_reserved":false,"is_disabled":false,"rental_uris":{"android":"levelo://app?vid=f595a602-36be-42b2-bf6e-1706bf5d1263","ios":"levelo://app?vid=f595a602-36be-42b2-bf6e-1706bf5d1263"},"vehicle_type_id":"4","last_reported":1741767221,"current_range_meters":16000,"station_id":"ce4bgn92rcd13ifvqbvg","pricing_plan_id":"cebpf4jnsgd1na2vs0mg"},{"bike_id":"b66a8cee-7bb3-4101-9453-621e870eb8a2","system_id":"levelo_inurba_marseille","lat":43.27553,"lon":5.38459,"is_reserved":false,"is_disabled":false,"rental_uris":{"android":"levelo://app?vid=b66a8cee-7bb3-4101-9453-621e870eb8a2","ios":"levelo://app?vid=b66a8cee-7bb3-4101-9453-621e870eb8a2"},"vehicle_type_id":"4","last_reported":1741767221,"current_range_meters":15200,"station_id":"ce4bhh92rcd13ifvqfi0","pricing_plan_id":"cebpf4jnsgd1na2vs0mg"},{"bike_id":"fc2a4baf-d2e8-4da2-9d9d-1ac23ba27ff4","system_id":"levelo_inurba_marseille","lat":43.259382,"lon":5.408989,"is_reserved":false,"is_disabled":false,"rental_uris":{"android":"levelo://app?vid=fc2a4baf-d2e8-4da2-9d9d-1ac23ba27ff4","ios":"levelo://app?vid=fc2a4baf-d2e8-4da2-9d9d-1ac23ba27ff4"},"vehicle_type_id":"4","last_reported":1741767221,"current_range_meters":16000,"station_id":"ce4bh692rcd13ifvqea0","pricing_plan_id":"cebpf4jnsgd1na2vs0mg"},{"bike_id":"f56fd108-4f2b-4a8c-8de6-76f811587164","system_id":"levelo_inurba_marseille","lat":43.26782,"lon":5.39429,"is_reserved":false,"is_disabled":false,"rental_uris":{"android":"levelo://app?vid=f56fd108-4f2b-4a8c-8de6-76f811587164","ios":"levelo://app?vid=f56fd108-4f2b-4a8c-8de6-76f811587164"},"vehicle_type_id":"4","last_reported":1741767221,"current_range_meters":16000,"station_id":"ce4bhh12rcd13ifvqfg0","pricing_plan_id":"cebpf4jnsgd1na2vs0mg"},{"bike_id":"7f7e01aa-a99a-4fd2-a897-cffabbe34ef3","system_id":"levelo_inurba_marseille","lat":43.30271,"lon":5.3771,"is_reserved":false,"is_disabled":false,"rental_uris":{"android":"levelo://app?vid=7f7e01aa-a99a-4fd2-a897-cffabbe34ef3","ios":"levelo://app?vid=7f7e01aa-a99a-4fd2-a897-cffabbe34ef3"},"vehicle_type_id":"4","last_reported":1741767221,"current_range_meters":15200,"station_id":"ce4bguh2rcd13ifvqcj0","pricing_plan_id":"cebpf4jnsgd1na2vs0mg"},{"bike_id":"7837d038-7f5f-4d25-b888-4e29f6df4a74","system_id":"levelo_inurba_marseille","lat":43.30808,"lon":5.38158,"is_reserved":false,"is_disabled":false,"rental_uris":{"android":"levelo://app?vid=7837d038-7f5f-4d25-b888-4e29f6df4a74","ios":"levelo://app?vid=7837d038-7f5f-4d25-b888-4e29f6df4a74"},"vehicle_type_id":"4","last_reported":1741767221,"current_range_meters":14000,"station_id":"ce4bgt12rcd13ifvqce0","pricing_plan_id":"cebpf4jnsgd1na2vs0mg"},{"bike_id":"6f4c9526-e882-40d0-bbc5-c3775986ec76","system_id":"levelo_inurba_marseille","lat":43.24076,"lon":5.37764,"is_reserved":false,"is_disabled":false,"rental_uris":{"android":"levelo://app?vid=6f4c9526-e882-40d0-bbc5-c3775986ec76","ios":"levelo://app?vid=6f4c9526-e882-40d0-bbc5-c3775986ec76"},"vehicle_type_id":"4","last_reported":1741767221,"current_range_meters":16000,"station_id":"ce4bhnp2rcd13ifvqgvg","pricing_plan_id":"cebpf4jnsgd1na2vs0mg"},{"bike_id":"5e36b6b8-6e77-45ed-9597-025342e46c0b","system_id":"levelo_inurba_marseille","lat":43.25501,"lon":5.37652,"is_reserved":false,"is_disabled":false,"rental_uris":{"android":"levelo://app?vid=5e36b6b8-6e77-45ed-9597-025342e46c0b","ios":"levelo://app?vid=5e36b6b8-6e77-45ed-9597-025342e46c0b"},"vehicle_type_id":"4","last_reported":1741767221,"current_range_meters":16000,"station_id":"ce4bhh12rcd13ifvqff0","pricing_plan_id":"cebpf4jnsgd1na2vs0mg"},{"bike_id":"af17ab6c-edea-4ca0-b906-4163cd2a8103","system_id":"levelo_inurba_marseille","lat":43.29586,"lon":5.3809,"is_reserved":false,"is_disabled":false,"rental_uris":{"android":"levelo://app?vid=af17ab6c-edea-4ca0-b906-4163cd2a8103","ios":"levelo://app?vid=af17ab6c-edea-4ca0-b906-4163cd2a8103"},"vehicle_type_id":"4","last_reported":1741767221,"current_range_meters":16000,"station_id":"ce4bgl12rcd13ifvqbo0","pricing_plan_id":"cebpf4jnsgd1na2vs0mg"},{"bike_id":"c8f5a7aa-328f-49c1-a785-9624fa888d07","system_id":"levelo_inurba_marseille","lat":43.25016,"lon":5.38925,"is_reserved":false,"is_disabled":false,"rental_uris":{"android":"levelo://app?vid=c8f5a7aa-328f-49c1-a785-9624fa888d07","ios":"levelo://app?vid=c8f5a7aa-328f-49c1-a785-9624fa888d07"},"vehicle_type_id":"4","last_reported":1741767221,"current_range_meters":16000,"station_id":"ce4bhgp2rcd13ifvqfd0","pricing_plan_id":"cebpf4jnsgd1na2vs0mg"},{"bike_id":"583e9a08-8a7b-47cc-aaab-563ec5211ebd","system_id":"levelo_inurba_marseille","lat":43.3055,"lon":5.3654,"is_reserved":false,"is_disabled":false,"rental_uris":{"android":"levelo://app?vid=583e9a08-8a7b-47cc-aaab-563ec5211ebd","ios":"levelo://app?vid=583e9a08-8a7b-47cc-aaab-563ec5211ebd"},"vehicle_type_id":"4","last_reported":1741767221,"current_range_meters":16000,"station_id":"ce4bgs12rcd13ifvqcag","pricing_plan_id":"cebpf4jnsgd1na2vs0mg"},{"bike_id":"9ee3b534-911c-448d-bb36-2434c5536575","system_id":"levelo_inurba_marseille","lat":43.24531,"lon":5.39522,"is_reserved":false,"is_disabled":false,"rental_uris":{"android":"levelo://app?vid=9ee3b534-911c-448d-bb36-2434c5536575","ios":"levelo://app?vid=9ee3b534-911c-448d-bb36-2434c5536575"},"vehicle_type_id":"4","last_reported":1741767221,"current_range_meters":16400,"station_id":"ce4bhlp2rcd13ifvqgjg","pricing_plan_id":"cebpf4jnsgd1na2vs0mg"},{"bike_id":"d3ac1ba6-6349-4d47-99e4-9f85d3ef1aa5","system_id":"levelo_inurba_marseille","lat":43.28495,"lon":5.36864,"is_reserved":false,"is_disabled":false,"rental_uris":{"android":"levelo://app?vid=d3ac1ba6-6349-4d47-99e4-9f85d3ef1aa5","ios":"levelo://app?vid=d3ac1ba6-6349-4d47-99e4-9f85d3ef1aa5"},"vehicle_type_id":"4","last_reported":1741767221,"current_range_meters":16400,"station_id":"","pricing_plan_id":"cebpf4jnsgd1na2vs0mg"},{"bike_id":"23247302-fbc6-4d89-9dd4-420bd938fb15","system_id":"levelo_inurba_marseille","lat":43.29569,"lon":5.37523,"is_reserved":false,"is_disabled":false,"rental_uris":{"android":"levelo://app?vid=23247302-fbc6-4d89-9dd4-420bd938fb15","ios":"levelo://app?vid=23247302-fbc6-4d89-9dd4-420bd938fb15"},"vehicle_type_id":"4","last_reported":1741767221,"current_range_meters":16400,"station_id":"ce4bgh92rcd13ifvqb50","pricing_plan_id":"cebpf4jnsgd1na2vs0mg"},{"bike_id":"16f3eb24-4ec3-48f6-a46c-871ca20a13c8","system_id":"levelo_inurba_marseille","lat":43.29243,"lon":5.37644,"is_reserved":false,"is_disabled":false,"rental_uris":{"android":"levelo://app?vid=16f3eb24-4ec3-48f6-a46c-871ca20a13c8","ios":"levelo://app?vid=16f3eb24-4ec3-48f6-a46c-871ca20a13c8"},"vehicle_type_id":"4","last_reported":1741767221,"current_range_meters":16400,"station_id":"ce4bgi12rcd13ifvqb80","pricing_plan_id":"cebpf4jnsgd1na2vs0mg"},{"bike_id":"671d5723-453a-4594-8849-be0148530d81","system_id":"levelo_inurba_marseille","lat":43.26686,"lon":5.38271,"is_reserved":false,"is_disabled":false,"rental_uris":{"android":"levelo://app?vid=671d5723-453a-4594-8849-be0148530d81","ios":"levelo://app?vid=671d5723-453a-4594-8849-be0148530d81"},"vehicle_type_id":"4","last_reported":1741767221,"current_range_meters":16000,"station_id":"ce4bhg92rcd13ifvqf90","pricing_plan_id":"cebpf4jnsgd1na2vs0mg"},{"bike_id":"7315a875-fa76-4210-b51f-8653ba99a23c","system_id":"levelo_inurba_marseille","lat":43.27328,"lon":5.39114,"is_reserved":false,"is_disabled":false,"rental_uris":{"android":"levelo://app?vid=7315a875-fa76-4210-b51f-8653ba99a23c","ios":"levelo://app?vid=7315a875-fa76-4210-b51f-8653ba99a23c"},"vehicle_type_id":"4","last_reported":1741767221,"current_range_meters":16400,"station_id":"ce4bhgp2rcd13ifvqfe0","pricing_plan_id":"cebpf4jnsgd1na2vs0mg"},{"bike_id":"99a3f406-b0b8-4066-adb6-b7e55216ac38","system_id":"levelo_inurba_marseille","lat":43.30264,"lon":5.3772,"is_reserved":false,"is_disabled":false,"rental_uris":{"android":"levelo://app?vid=99a3f406-b0b8-4066-adb6-b7e55216ac38","ios":"levelo://app?vid=99a3f406-b0b8-4066-adb6-b7e55216ac38"},"vehicle_type_id":"4","last_reported":1741767221,"current_range_meters":16400,"station_id":"ce4bguh2rcd13ifvqcj0","pricing_plan_id":"cebpf4jnsgd1na2vs0mg"},{"bike_id":"e65eeaba-6ddc-4e1d-b451-59b5b5fdeeec","system_id":"levelo_inurba_marseille","lat":43.29057,"lon":5.37771,"is_reserved":false,"is_disabled":false,"rental_uris":{"android":"levelo://app?vid=e65eeaba-6ddc-4e1d-b451-59b5b5fdeeec","ios":"levelo://app?vid=e65eeaba-6ddc-4e1d-b451-59b5b5fdeeec"},"vehicle_type_id":"4","last_reported":1741767221,"current_range_meters":16400,"station_id":"","pricing_plan_id":"cebpf4jnsgd1na2vs0mg"},{"bike_id":"4f845a34-b0f1-4aed-b9a2-399a79dba468","system_id":"levelo_inurba_marseille","lat":43.29739,"lon":5.36547,"is_reserved":false,"is_disabled":false,"rental_uris":{"android":"levelo://app?vid=4f845a34-b0f1-4aed-b9a2-399a79dba468","ios":"levelo://app?vid=4f845a34-b0f1-4aed-b9a2-399a79dba468"},"vehicle_type_id":"4","last_reported":1741767221,"current_range_meters":16400,"station_id":"","pricing_plan_id":"cebpf4jnsgd1na2vs0mg"},{"bike_id":"477f0f7d-623d-4729-bb21-676982812ce6","system_id":"levelo_inurba_marseille","lat":43.30956,"lon":5.39031,"is_reserved":false,"is_disabled":false,"rental_uris":{"android":"levelo://app?vid=477f0f7d-623d-4729-bb21-676982812ce6","ios":"levelo://app?vid=477f0f7d-623d-4729-bb21-676982812ce6"},"vehicle_type_id":"4","last_reported":1741767221,"current_range_meters":16800,"station_id":"ce4bgup2rcd13ifvqco0","pricing_plan_id":"cebpf4jnsgd1na2vs0mg"},{"bike_id":"b479f388-c785-4947-8169-e12f78c8d169","system_id":"levelo_inurba_marseille","lat":43.231887,"lon":5.399859,"is_reserved":false,"is_disabled":false,"rental_uris":{"android":"levelo://app?vid=b479f388-c785-4947-8169-e12f78c8d169","ios":"levelo://app?vid=b479f388-c785-4947-8169-e12f78c8d169"},"vehicle_type_id":"4","last_reported":1741767221,"current_range_meters":16800,"station_id":"ce4bhn12rcd13ifvqgqg","pricing_plan_id":"cebpf4jnsgd1na2vs0mg"},{"bike_id":"e38d4297-35e0-44cf-a972-613dafd56fce","system_id":"levelo_inurba_marseille","lat":43.33605,"lon":5.41018,"is_reserved":false,"is_disabled":false,"rental_uris":{"android":"levelo://app?vid=e38d4297-35e0-44cf-a972-613dafd56fce","ios":"levelo://app?vid=e38d4297-35e0-44cf-a972-613dafd56fce"},"vehicle_type_id":"4","last_reported":1741767221,"current_range_meters":16800,"station_id":"ce4bhqh2rcd13ifvqhmg","pricing_plan_id":"cebpf4jnsgd1na2vs0mg"},{"bike_id":"a68af5e2-435f-4fed-9da4-7cdfafa7e725","system_id":"levelo_inurba_marseille","lat":43.30888,"lon":5.37202,"is_reserved":false,"is_disabled":true,"rental_uris":{"android":"levelo://app?vid=a68af5e2-435f-4fed-9da4-7cdfafa7e725","ios":"levelo://app?vid=a68af5e2-435f-4fed-9da4-7cdfafa7e725"},"vehicle_type_id":"4","last_reported":1741767221,"current_range_meters":16800,"station_id":"ce4bguh2rcd13ifvqckg","pricing_plan_id":"cebpf4jnsgd1na2vs0mg"},{"bike_id":"894adb72-eba3-4c31-be33-a34cdb918fbd","system_id":"levelo_inurba_marseille","lat":43.257194,"lon":5.411228,"is_reserved":false,"is_disabled":false,"rental_uris":{"android":"levelo://app?vid=894adb72-eba3-4c31-be33-a34cdb918fbd","ios":"levelo://app?vid=894adb72-eba3-4c31-be33-a34cdb918fbd"},"vehicle_type_id":"4","last_reported":1741767221,"current_range_meters":16800,"station_id":"ce4bhkp2rcd13ifvqgd0","pricing_plan_id":"cebpf4jnsgd1na2vs0mg"},{"bike_id":"d1235ce3-1007-4d2d-9e28-ea39398a63a8","system_id":"levelo_inurba_marseille","lat":43.23241,"lon":5.35576,"is_reserved":false,"is_disabled":false,"rental_uris":{"android":"levelo://app?vid=d1235ce3-1007-4d2d-9e28-ea39398a63a8","ios":"levelo://app?vid=d1235ce3-1007-4d2d-9e28-ea39398a63a8"},"vehicle_type_id":"4","last_reported":1741767221,"current_range_meters":16800,"station_id":"","pricing_plan_id":"cebpf4jnsgd1na2vs0mg"},{"bike_id":"5675e631-bee5-4037-b81e-7d1567db01ce","system_id":"levelo_inurba_marseille","lat":43.2594,"lon":5.40911,"is_reserved":false,"is_disabled":false,"rental_uris":{"android":"levelo://app?vid=5675e631-bee5-4037-b81e-7d1567db01ce","ios":"levelo://app?vid=5675e631-bee5-4037-b81e-7d1567db01ce"},"vehicle_type_id":"4","last_reported":1741767221,"current_range_meters":16800,"station_id":"ce4bhm92rcd13ifvqglg","pricing_plan_id":"cebpf4jnsgd1na2vs0mg"},{"bike_id":"0118782e-a9be-4c57-a3c6-f989e8d3b9bf","system_id":"levelo_inurba_marseille","lat":43.24178,"lon":5.39682,"is_reserved":false,"is_disabled":false,"rental_uris":{"android":"levelo://app?vid=0118782e-a9be-4c57-a3c6-f989e8d3b9bf","ios":"levelo://app?vid=0118782e-a9be-4c57-a3c6-f989e8d3b9bf"},"vehicle_type_id":"4","last_reported":1741767221,"current_range_meters":16800,"station_id":"ce4bhn12rcd13ifvqgpg","pricing_plan_id":"cebpf4jnsgd1na2vs0mg"},{"bike_id":"ee9efeda-9a15-4e9d-a715-383a5189cf0a","system_id":"levelo_inurba_marseille","lat":43.246613,"lon":5.381607,"is_reserved":false,"is_disabled":false,"rental_uris":{"android":"levelo://app?vid=ee9efeda-9a15-4e9d-a715-383a5189cf0a","ios":"levelo://app?vid=ee9efeda-9a15-4e9d-a715-383a5189cf0a"},"vehicle_type_id":"4","last_reported":1741767221,"current_range_meters":16800,"station_id":"ce4bhhp2rcd13ifvqfm0","pricing_plan_id":"cebpf4jnsgd1na2vs0mg"},{"bike_id":"ca762409-3e9b-49eb-b311-18b138aaa95f","system_id":"levelo_inurba_marseille","lat":43.3372,"lon":5.392,"is_reserved":false,"is_disabled":false,"rental_uris":{"android":"levelo://app?vid=ca762409-3e9b-49eb-b311-18b138aaa95f","ios":"levelo://app?vid=ca762409-3e9b-49eb-b311-18b138aaa95f"},"vehicle_type_id":"4","last_reported":1741767221,"current_range_meters":16800,"station_id":"ce4bhr92rcd13ifvqhsg","pricing_plan_id":"cebpf4jnsgd1na2vs0mg"},{"bike_id":"cefa473e-a97a-4a96-a483-db5a16038982","system_id":"levelo_inurba_marseille","lat":43.26059,"lon":5.3937,"is_reserved":false,"is_disabled":false,"rental_uris":{"android":"levelo://app?vid=cefa473e-a97a-4a96-a483-db5a16038982","ios":"levelo://app?vid=cefa473e-a97a-4a96-a483-db5a16038982"},"vehicle_type_id":"4","last_reported":1741767221,"current_range_meters":16800,"station_id":"ce4bhh92rcd13ifvqfj0","pricing_plan_id":"cebpf4jnsgd1na2vs0mg"},{"bike_id":"67651cb6-eb38-489f-8577-95647d302da8","system_id":"levelo_inurba_marseille","lat":43.28449,"lon":5.37486,"is_reserved":false,"is_disabled":true,"rental_uris":{"android":"levelo://app?vid=67651cb6-eb38-489f-8577-95647d302da8","ios":"levelo://app?vid=67651cb6-eb38-489f-8577-95647d302da8"},"vehicle_type_id":"4","last_reported":1741767221,"current_range_meters":16800,"station_id":"","pricing_plan_id":"cebpf4jnsgd1na2vs0mg"},{"bike_id":"94b30f95-19e8-4b24-809a-d279976d82ea","system_id":"levelo_inurba_marseille","lat":43.31355,"lon":5.39642,"is_reserved":false,"is_disabled":false,"rental_uris":{"android":"levelo://app?vid=94b30f95-19e8-4b24-809a-d279976d82ea","ios":"levelo://app?vid=94b30f95-19e8-4b24-809a-d279976d82ea"},"vehicle_type_id":"4","last_reported":1741767221,"current_range_meters":17200,"station_id":"ce4bgvp2rcd13ifvqcu0","pricing_plan_id":"cebpf4jnsgd1na2vs0mg"},{"bike_id":"06d9bb45-2be6-406a-947a-70159085c00b","system_id":"levelo_inurba_marseille","lat":43.28704,"lon":5.37395,"is_reserved":false,"is_disabled":false,"rental_uris":{"android":"levelo://app?vid=06d9bb45-2be6-406a-947a-70159085c00b","ios":"levelo://app?vid=06d9bb45-2be6-406a-947a-70159085c00b"},"vehicle_type_id":"4","last_reported":1741767221,"current_range_meters":17200,"station_id":"ce4bh3p2rcd13ifvqdq0","pricing_plan_id":"cebpf4jnsgd1na2vs0mg"},{"bike_id":"e85e7281-8ded-4f9f-9074-cd43c73f5f32","system_id":"levelo_inurba_marseille","lat":43.3131,"lon":5.37338,"is_reserved":false,"is_disabled":false,"rental_uris":{"android":"levelo://app?vid=e85e7281-8ded-4f9f-9074-cd43c73f5f32","ios":"levelo://app?vid=e85e7281-8ded-4f9f-9074-cd43c73f5f32"},"vehicle_type_id":"4","last_reported":1741767221,"current_range_meters":17200,"station_id":"","pricing_plan_id":"cebpf4jnsgd1na2vs0mg"},{"bike_id":"96114f57-f074-443d-9ee4-282b0360c01e","system_id":"levelo_inurba_marseille","lat":43.28704,"lon":5.37937,"is_reserved":false,"is_disabled":false,"rental_uris":{"android":"levelo://app?vid=96114f57-f074-443d-9ee4-282b0360c01e","ios":"levelo://app?vid=96114f57-f074-443d-9ee4-282b0360c01e"},"vehicle_type_id":"4","last_reported":1741767221,"current_range_meters":17200,"station_id":"ce4bh9p2rcd13ifvqec0","pricing_plan_id":"cebpf4jnsgd1na2vs0mg"},{"bike_id":"6f8a817b-9683-40fa-bfa4-b740fec02c70","system_id":"levelo_inurba_marseille","lat":43.25002,"lon":5.38929,"is_reserved":false,"is_disabled":false,"rental_uris":{"android":"levelo://app?vid=6f8a817b-9683-40fa-bfa4-b740fec02c70","ios":"levelo://app?vid=6f8a817b-9683-40fa-bfa4-b740fec02c70"},"vehicle_type_id":"4","last_reported":1741767221,"current_range_meters":17200,"station_id":"ce4bhgp2rcd13ifvqfd0","pricing_plan_id":"cebpf4jnsgd1na2vs0mg"},{"bike_id":"8a957f92-edf9-4823-90db-a2195b2951cb","system_id":"levelo_inurba_marseille","lat":43.26822,"lon":5.39365,"is_reserved":false,"is_disabled":false,"rental_uris":{"android":"levelo://app?vid=8a957f92-edf9-4823-90db-a2195b2951cb","ios":"levelo://app?vid=8a957f92-edf9-4823-90db-a2195b2951cb"},"vehicle_type_id":"4","last_reported":1741767221,"current_range_meters":22000,"station_id":"ce4bhhp2rcd13ifvqfm0","pricing_plan_id":"cebpf4jnsgd1na2vs0mg"},{"bike_id":"79b74bcd-c49b-4510-a99f-3aca5daf42c9","system_id":"levelo_inurba_marseille","lat":43.29561,"lon":5.37501,"is_reserved":false,"is_disabled":false,"rental_uris":{"android":"levelo://app?vid=79b74bcd-c49b-4510-a99f-3aca5daf42c9","ios":"levelo://app?vid=79b74bcd-c49b-4510-a99f-3aca5daf42c9"},"vehicle_type_id":"4","last_reported":1741767221,"current_range_meters":17200,"station_id":"ce4bgh92rcd13ifvqb50","pricing_plan_id":"cebpf4jnsgd1na2vs0mg"},{"bike_id":"82a0bebc-1cb5-4e3b-886e-b2c84f24c21e","system_id":"levelo_inurba_marseille","lat":43.28686,"lon":5.37395,"is_reserved":false,"is_disabled":true,"rental_uris":{"android":"levelo://app?vid=82a0bebc-1cb5-4e3b-886e-b2c84f24c21e","ios":"levelo://app?vid=82a0bebc-1cb5-4e3b-886e-b2c84f24c21e"},"vehicle_type_id":"4","last_reported":1741767221,"current_range_meters":17200,"station_id":"ce4bh3p2rcd13ifvqdq0","pricing_plan_id":"cebpf4jnsgd1na2vs0mg"},{"bike_id":"ccb09e4e-a740-41d1-b1c8-47cfb458b73a","system_id":"levelo_inurba_marseille","lat":43.304626,"lon":5.378993,"is_reserved":false,"is_disabled":false,"rental_uris":{"android":"levelo://app?vid=ccb09e4e-a740-41d1-b1c8-47cfb458b73a","ios":"levelo://app?vid=ccb09e4e-a740-41d1-b1c8-47cfb458b73a"},"vehicle_type_id":"4","last_reported":1741767221,"current_range_meters":17600,"station_id":"ce4bgup2rcd13ifvqcn0","pricing_plan_id":"cebpf4jnsgd1na2vs0mg"},{"bike_id":"3296e52c-0431-4bc6-9707-fbc9002adf65","system_id":"levelo_inurba_marseille","lat":43.29093,"lon":5.3812,"is_reserved":false,"is_disabled":false,"rental_uris":{"android":"levelo://app?vid=3296e52c-0431-4bc6-9707-fbc9002adf65","ios":"levelo://app?vid=3296e52c-0431-4bc6-9707-fbc9002adf65"},"vehicle_type_id":"4","last_reported":1741767221,"current_range_meters":17600,"station_id":"ce4bh512rcd13ifvqe2g","pricing_plan_id":"cebpf4jnsgd1na2vs0mg"},{"bike_id":"21046dbc-a06f-469a-816f-2eeb2a6e89a8","system_id":"levelo_inurba_marseille","lat":43.28307,"lon":5.38097,"is_reserved":false,"is_disabled":false,"rental_uris":{"android":"levelo://app?vid=21046dbc-a06f-469a-816f-2eeb2a6e89a8","ios":"levelo://app?vid=21046dbc-a06f-469a-816f-2eeb2a6e89a8"},"vehicle_type_id":"4","last_reported":1741767221,"current_range_meters":17600,"station_id":"ce4bgup2rcd13ifvqco0","pricing_plan_id":"cebpf4jnsgd1na2vs0mg"},{"bike_id":"965c6e2e-00d9-4046-b73d-f62e57eb5592","system_id":"levelo_inurba_marseille","lat":43.30968,"lon":5.39042,"is_reserved":false,"is_disabled":false,"rental_uris":{"android":"levelo://app?vid=965c6e2e-00d9-4046-b73d-f62e57eb5592","ios":"levelo://app?vid=965c6e2e-00d9-4046-b73d-f62e57eb5592"},"vehicle_type_id":"4","last_reported":1741767221,"current_range_meters":17600,"station_id":"ce4bgup2rcd13ifvqco0","pricing_plan_id":"cebpf4jnsgd1na2vs0mg"},{"bike_id":"d635fc4e-d0d5-48cd-9305-906594fe2b69","system_id":"levelo_inurba_marseille","lat":43.29938,"lon":5.36542,"is_reserved":false,"is_disabled":false,"rental_uris":{"android":"levelo://app?vid=d635fc4e-d0d5-48cd-9305-906594fe2b69","ios":"levelo://app?vid=d635fc4e-d0d5-48cd-9305-906594fe2b69"},"vehicle_type_id":"4","last_reported":1741767221,"current_range_meters":17600,"station_id":"ce4bgm92rcd13ifvqbr0","pricing_plan_id":"cebpf4jnsgd1na2vs0mg"},{"bike_id":"f550acae-a478-493d-8418-eb4ab17dc323","system_id":"levelo_inurba_marseille","lat":43.24986,"lon":5.38893,"is_reserved":false,"is_disabled":false,"rental_uris":{"android":"levelo://app?vid=f550acae-a478-493d-8418-eb4ab17dc323","ios":"levelo://app?vid=f550acae-a478-493d-8418-eb4ab17dc323"},"vehicle_type_id":"4","last_reported":1741767221,"current_range_meters":17600,"station_id":"ce4bhgp2rcd13ifvqfd0","pricing_plan_id":"cebpf4jnsgd1na2vs0mg"},{"bike_id":"a6b37f3f-4ea1-4bc0-bfe9-5a7e41257530","system_id":"levelo_inurba_marseille","lat":43.23966,"lon":5.36624,"is_reserved":false,"is_disabled":false,"rental_uris":{"android":"levelo://app?vid=a6b37f3f-4ea1-4bc0-bfe9-5a7e41257530","ios":"levelo://app?vid=a6b37f3f-4ea1-4bc0-bfe9-5a7e41257530"},"vehicle_type_id":"4","last_reported":1741767221,"current_range_meters":18000,"station_id":"ce4bhi12rcd13ifvqfp0","pricing_plan_id":"cebpf4jnsgd1na2vs0mg"},{"bike_id":"1af93f70-afd6-4145-9b60-ff8aff8e87c8","system_id":"levelo_inurba_marseille","lat":43.30909,"lon":5.36851,"is_reserved":false,"is_disabled":false,"rental_uris":{"android":"levelo://app?vid=1af93f70-afd6-4145-9b60-ff8aff8e87c8","ios":"levelo://app?vid=1af93f70-afd6-4145-9b60-ff8aff8e87c8"},"vehicle_type_id":"4","last_reported":1741767221,"current_range_meters":18000,"station_id":"ce4bgn92rcd13ifvqbvg","pricing_plan_id":"cebpf4jnsgd1na2vs0mg"},{"bike_id":"dd728069-2be6-4b0a-931b-c137e799ada3","system_id":"levelo_inurba_marseille","lat":43.25933,"lon":5.40886,"is_reserved":false,"is_disabled":false,"rental_uris":{"android":"levelo://app?vid=dd728069-2be6-4b0a-931b-c137e799ada3","ios":"levelo://app?vid=dd728069-2be6-4b0a-931b-c137e799ada3"},"vehicle_type_id":"4","last_reported":1741767221,"current_range_meters":18000,"station_id":"ce4bhm92rcd13ifvqglg","pricing_plan_id":"cebpf4jnsgd1na2vs0mg"},{"bike_id":"590482e2-f39a-4142-8e09-c9fd321a7d7c","system_id":"levelo_inurba_marseille","lat":43.3155,"lon":5.3804,"is_reserved":false,"is_disabled":true,"rental_uris":{"android":"levelo://app?vid=590482e2-f39a-4142-8e09-c9fd321a7d7c","ios":"levelo://app?vid=590482e2-f39a-4142-8e09-c9fd321a7d7c"},"vehicle_type_id":"4","last_reported":1741767221,"current_range_meters":18000,"station_id":"ce4bhsp2rcd13ifvqi50","pricing_plan_id":"cebpf4jnsgd1na2vs0mg"},{"bike_id":"112c1b63-4abd-4576-a4af-4364f064301f","system_id":"levelo_inurba_marseille","lat":43.30265,"lon":5.3772,"is_reserved":false,"is_disabled":false,"rental_uris":{"android":"levelo://app?vid=112c1b63-4abd-4576-a4af-4364f064301f","ios":"levelo://app?vid=112c1b63-4abd-4576-a4af-4364f064301f"},"vehicle_type_id":"4","last_reported":1741767221,"current_range_meters":17600,"station_id":"ce4bguh2rcd13ifvqcj0","pricing_plan_id":"cebpf4jnsgd1na2vs0mg"},{"bike_id":"f73dca83-e977-4215-ba7b-45cb56e1c018","system_id":"levelo_inurba_marseille","lat":43.25102,"lon":5.39509,"is_reserved":false,"is_disabled":false,"rental_uris":{"android":"levelo://app?vid=f73dca83-e977-4215-ba7b-45cb56e1c018","ios":"levelo://app?vid=f73dca83-e977-4215-ba7b-45cb56e1c018"},"vehicle_type_id":"4","last_reported":1741767221,"current_range_meters":18000,"station_id":"ce4bhm12rcd13ifvqgkg","pricing_plan_id":"cebpf4jnsgd1na2vs0mg"},{"bike_id":"a823fe98-0845-44f0-af70-a3e75e70ed04","system_id":"levelo_inurba_marseille","lat":43.250073,"lon":5.389171,"is_reserved":false,"is_disabled":false,"rental_uris":{"android":"levelo://app?vid=a823fe98-0845-44f0-af70-a3e75e70ed04","ios":"levelo://app?vid=a823fe98-0845-44f0-af70-a3e75e70ed04"},"vehicle_type_id":"4","last_reported":1741767221,"current_range_meters":18800,"station_id":"ce4bhgp2rcd13ifvqfd0","pricing_plan_id":"cebpf4jnsgd1na2vs0mg"},{"bike_id":"138950fe-6475-45f2-9756-9aeb93c609d4","system_id":"levelo_inurba_marseille","lat":43.24174,"lon":5.39732,"is_reserved":false,"is_disabled":false,"rental_uris":{"android":"levelo://app?vid=138950fe-6475-45f2-9756-9aeb93c609d4","ios":"levelo://app?vid=138950fe-6475-45f2-9756-9aeb93c609d4"},"vehicle_type_id":"4","last_reported":1741767221,"current_range_meters":18800,"station_id":"ce4bhn12rcd13ifvqgpg","pricing_plan_id":"cebpf4jnsgd1na2vs0mg"},{"bike_id":"f5f009ed-ba16-4bea-a75e-70c1efffdd50","system_id":"levelo_inurba_marseille","lat":43.28976,"lon":5.37836,"is_reserved":false,"is_disabled":false,"rental_uris":{"android":"levelo://app?vid=f5f009ed-ba16-4bea-a75e-70c1efffdd50","ios":"levelo://app?vid=f5f009ed-ba16-4bea-a75e-70c1efffdd50"},"vehicle_type_id":"4","last_reported":1741767221,"current_range_meters":18000,"station_id":"ce4bh9p2rcd13ifvqed0","pricing_plan_id":"cebpf4jnsgd1na2vs0mg"},{"bike_id":"c44c3a2f-8586-4fcb-b3a5-0545306a41cd","system_id":"levelo_inurba_marseille","lat":43.31354,"lon":5.36726,"is_reserved":false,"is_disabled":false,"rental_uris":{"android":"levelo://app?vid=c44c3a2f-8586-4fcb-b3a5-0545306a41cd","ios":"levelo://app?vid=c44c3a2f-8586-4fcb-b3a5-0545306a41cd"},"vehicle_type_id":"4","last_reported":1741767221,"current_range_meters":18800,"station_id":"ce4bgr92rcd13ifvqc6g","pricing_plan_id":"cebpf4jnsgd1na2vs0mg"},{"bike_id":"8e9d8244-c680-44c6-929f-7188a17b4f8e","system_id":"levelo_inurba_marseille","lat":43.29601,"lon":5.38099,"is_reserved":false,"is_disabled":false,"rental_uris":{"android":"levelo://app?vid=8e9d8244-c680-44c6-929f-7188a17b4f8e","ios":"levelo://app?vid=8e9d8244-c680-44c6-929f-7188a17b4f8e"},"vehicle_type_id":"4","last_reported":1741767221,"current_range_meters":18800,"station_id":"ce4bgl12rcd13ifvqbo0","pricing_plan_id":"cebpf4jnsgd1na2vs0mg"},{"bike_id":"2c542a09-e66b-400a-a635-ed3442b0a9f5","system_id":"levelo_inurba_marseille","lat":43.23973,"lon":5.36627,"is_reserved":false,"is_disabled":false,"rental_uris":{"android":"levelo://app?vid=2c542a09-e66b-400a-a635-ed3442b0a9f5","ios":"levelo://app?vid=2c542a09-e66b-400a-a635-ed3442b0a9f5"},"vehicle_type_id":"4","last_reported":1741767221,"current_range_meters":18800,"station_id":"ce4bhi12rcd13ifvqfp0","pricing_plan_id":"cebpf4jnsgd1na2vs0mg"},{"bike_id":"e403288d-b468-4ea8-b33d-644efb4c82c2","system_id":"levelo_inurba_marseille","lat":43.27828,"lon":5.40719,"is_reserved":false,"is_disabled":false,"rental_uris":{"android":"levelo://app?vid=e403288d-b468-4ea8-b33d-644efb4c82c2","ios":"levelo://app?vid=e403288d-b468-4ea8-b33d-644efb4c82c2"},"vehicle_type_id":"4","last_reported":1741767221,"current_range_meters":18800,"station_id":"ce4bhnh2rcd13ifvqgtg","pricing_plan_id":"cebpf4jnsgd1na2vs0mg"},{"bike_id":"e6ad50b6-fae1-4291-acdf-b4aecdefc1c4","system_id":"levelo_inurba_marseille","lat":43.28938,"lon":5.36402,"is_reserved":false,"is_disabled":false,"rental_uris":{"android":"levelo://app?vid=e6ad50b6-fae1-4291-acdf-b4aecdefc1c4","ios":"levelo://app?vid=e6ad50b6-fae1-4291-acdf-b4aecdefc1c4"},"vehicle_type_id":"4","last_reported":1741767221,"current_range_meters":18800,"station_id":"ce4bhc92rcd13ifvqetg","pricing_plan_id":"cebpf4jnsgd1na2vs0mg"},{"bike_id":"3f5fb6ab-70c9-4053-9048-00f87210aeb7","system_id":"levelo_inurba_marseille","lat":43.24552,"lon":5.39551,"is_reserved":false,"is_disabled":false,"rental_uris":{"android":"levelo://app?vid=3f5fb6ab-70c9-4053-9048-00f87210aeb7","ios":"levelo://app?vid=3f5fb6ab-70c9-4053-9048-00f87210aeb7"},"vehicle_type_id":"4","last_reported":1741767221,"current_range_meters":18800,"station_id":"ce4bhlp2rcd13ifvqgjg","pricing_plan_id":"cebpf4jnsgd1na2vs0mg"},{"bike_id":"5167d198-5092-4014-ae89-548e22f776e7","system_id":"levelo_inurba_marseille","lat":43.258163,"lon":5.394551,"is_reserved":false,"is_disabled":false,"rental_uris":{"android":"levelo://app?vid=5167d198-5092-4014-ae89-548e22f776e7","ios":"levelo://app?vid=5167d198-5092-4014-ae89-548e22f776e7"},"vehicle_type_id":"4","last_reported":1741767221,"current_range_meters":18800,"station_id":"ce4bhip2rcd13ifvqft0","pricing_plan_id":"cebpf4jnsgd1na2vs0mg"},{"bike_id":"7152c299-b250-4ce8-be65-9a627d98d23d","system_id":"levelo_inurba_marseille","lat":43.27219,"lon":5.39182,"is_reserved":false,"is_disabled":false,"rental_uris":{"android":"levelo://app?vid=7152c299-b250-4ce8-be65-9a627d98d23d","ios":"levelo://app?vid=7152c299-b250-4ce8-be65-9a627d98d23d"},