{"last_updated":1736878350,"ttl":60,"version":"2.2","data":{"bikes":[{"bike_id":"ba484e63-4e5e-48df-80e8-717691e650cd","system_id":"levelo_inurba_marseille","lat":43.2559,"lon":5.38232,"is_reserved":false,"is_disabled":false,"rental_uris":{"android":"levelo://app?vid=ba484e63-4e5e-48df-80e8-717691e650cd","ios":"levelo://app?vid=ba484e63-4e5e-48df-80e8-717691e650cd"},"vehicle_type_id":"4","last_reported":1736878350,"current_range_meters":6400,"station_id":"ce4bhih2rcd13ifvqfs0","pricing_plan_id":"cebpf4jnsgd1na2vs0mg"},{"bike_id":"094f2b9d-982b-42a3-8932-981369abda5b","system_id":"levelo_inurba_marseille","lat":43.26935,"lon":5.40245,"is_reserved":false,"is_disabled":false,"rental_uris":{"android":"levelo://app?vid=094f2b9d-982b-42a3-8932-981369abda5b","ios":"levelo://app?vid=094f2b9d-982b-42a3-8932-981369abda5b"},"vehicle_type_id":"4","last_reported":1736878350,"current_range_meters":28400,"station_id":"cjm6bp8fraef2m0cb0m0","pricing_plan_id":"cebpf4jnsgd1na2vs0mg"},{"bike_id":"07a45486-abf7-4a85-9cc0-9ae131ccd9ea","system_id":"levelo_inurba_marseille","lat":43.28438,"lon":5.39198,"is_reserved":false,"is_disabled":false,"rental_uris":{"android":"levelo://app?vid=07a45486-abf7-4a85-9cc0-9ae131ccd9ea","ios":"levelo://app?vid=07a45486-abf7-4a85-9cc0-9ae131ccd9ea"},"vehicle_type_id":"4","last_reported":1736878350,"current_range_meters":38800,"station_id":"ce4bhoh2rcd13ifvqh5g","pricing_plan_id":"cebpf4jnsgd1na2vs0mg"},{"bike_id":"3e8db028-ed7b-4e18-9fc5-444671ac7245","system_id":"levelo_inurba_marseille","lat":43.26059,"lon":5.39397,"is_reserved":false,"is_disabled":false,"rental_uris":{"android":"levelo://app?vid=3e8db028-ed7b-4e18-9fc5-444671ac7245","ios":"levelo://app?vid=3e8db028-ed7b-4e18-9fc5-444671ac7245"},"vehicle_type_id":"4","last_reported":1736878350,"current_range_meters":38400,"station_id":"ce4bhh92rcd13ifvqfj0","pricing_plan_id":"cebpf4jnsgd1na2vs0mg"},{"bike_id":"8b946f40-6c08-4c0a-9db9-872b051c4842","system_id":"levelo_inurba_marseille","lat":43.28411,"lon":5.37509,"is_reserved":false,"is_disabled":false,"rental_uris":{"android":"levelo://app?vid=8b946f40-6c08-4c0a-9db9-872b051c4842","ios":"levelo://app?vid=8b946f40-6c08-4c0a-9db9-872b051c4842"},"vehicle_type_id":"4","last_reported":1736878350,"current_range_meters":23200,"station_id":"ce4bh412rcd13ifvqds0","pricing_plan_id":"cebpf4jnsgd1na2vs0mg"},{"bike_id":"459eda55-c02d-48e5-b482-24c6e37a8793","system_id":"levelo_inurba_marseille","lat":43.28445,"lon":5.39165,"is_reserved":false,"is_disabled":true,"rental_uris":{"android":"levelo://app?vid=459eda55-c02d-48e5-b482-24c6e37a8793","ios":"levelo://app?vid=459eda55-c02d-48e5-b482-24c6e37a8793"},"vehicle_type_id":"4","last_reported":1736878350,"current_range_meters":16000,"station_id":"ce4bhoh2rcd13ifvqh5g","pricing_plan_id":"cebpf4jnsgd1na2vs0mg"},{"bike_id":"a9caf45c-9b62-4fad-bb25-cf9cfd1dff86","system_id":"levelo_inurba_marseille","lat":43.33735,"lon":5.39191,"is_reserved":false,"is_disabled":false,"rental_uris":{"android":"levelo://app?vid=a9caf45c-9b62-4fad-bb25-cf9cfd1dff86","ios":"levelo://app?vid=a9caf45c-9b62-4fad-bb25-cf9cfd1dff86"},"vehicle_type_id":"4","last_reported":1736878350,"current_range_meters":38800,"station_id":"ce4bhr92rcd13ifvqhsg","pricing_plan_id":"cebpf4jnsgd1na2vs0mg"},{"bike_id":"75e972c1-d61c-4de9-b47e-692d5319ad3c","system_id":"levelo_inurba_marseille","lat":43.31169,"lon":5.3872,"is_reserved":false,"is_disabled":false,"rental_uris":{"android":"levelo://app?vid=75e972c1-d61c-4de9-b47e-692d5319ad3c","ios":"levelo://app?vid=75e972c1-d61c-4de9-b47e-692d5319ad3c"},"vehicle_type_id":"4","last_reported":1736878350,"current_range_meters":12800,"station_id":"ce4bgv12rcd13ifvqcp0","pricing_plan_id":"cebpf4jnsgd1na2vs0mg"},{"bike_id":"5e0b46d4-53a6-4a9b-81ed-42b3629948b7","system_id":"levelo_inurba_marseille","lat":43.32101,"lon":5.36781,"is_reserved":false,"is_disabled":false,"rental_uris":{"android":"levelo://app?vid=5e0b46d4-53a6-4a9b-81ed-42b3629948b7","ios":"levelo://app?vid=5e0b46d4-53a6-4a9b-81ed-42b3629948b7"},"vehicle_type_id":"4","last_reported":1736878350,"current_range_meters":37600,"station_id":"ce4bhrh2rcd13ifvqhug","pricing_plan_id":"cebpf4jnsgd1na2vs0mg"},{"bike_id":"90008e08-866e-46c3-96ff-04c849cafc46","system_id":"levelo_inurba_marseille","lat":43.28078,"lon":5.39641,"is_reserved":false,"is_disabled":false,"rental_uris":{"android":"levelo://app?vid=90008e08-866e-46c3-96ff-04c849cafc46","ios":"levelo://app?vid=90008e08-866e-46c3-96ff-04c849cafc46"},"vehicle_type_id":"4","last_reported":1736878350,"current_range_meters":28800,"station_id":"ce4bho12rcd13ifvqh2g","pricing_plan_id":"cebpf4jnsgd1na2vs0mg"},{"bike_id":"5bb5758f-37be-496e-ac0a-3712e6b43125","system_id":"levelo_inurba_marseille","lat":43.26203,"lon":5.37919,"is_reserved":false,"is_disabled":false,"rental_uris":{"android":"levelo://app?vid=5bb5758f-37be-496e-ac0a-3712e6b43125","ios":"levelo://app?vid=5bb5758f-37be-496e-ac0a-3712e6b43125"},"vehicle_type_id":"4","last_reported":1736878350,"current_range_meters":38800,"station_id":"ce4bhjp2rcd13ifvqg90","pricing_plan_id":"cebpf4jnsgd1na2vs0mg"},{"bike_id":"ba72fe0a-d3db-4d59-87cd-e07196e5fd15","system_id":"levelo_inurba_marseille","lat":43.29663,"lon":5.39739,"is_reserved":false,"is_disabled":false,"rental_uris":{"android":"levelo://app?vid=ba72fe0a-d3db-4d59-87cd-e07196e5fd15","ios":"levelo://app?vid=ba72fe0a-d3db-4d59-87cd-e07196e5fd15"},"vehicle_type_id":"4","last_reported":1736878350,"current_range_meters":36400,"station_id":"ce4bh312rcd13ifvqdj0","pricing_plan_id":"cebpf4jnsgd1na2vs0mg"},{"bike_id":"6c72276d-8e89-4c2f-8150-2735b7561b95","system_id":"levelo_inurba_marseille","lat":43.27495,"lon":5.42454,"is_reserved":false,"is_disabled":true,"rental_uris":{"android":"levelo://app?vid=6c72276d-8e89-4c2f-8150-2735b7561b95","ios":"levelo://app?vid=6c72276d-8e89-4c2f-8150-2735b7561b95"},"vehicle_type_id":"4","last_reported":1736878350,"current_range_meters":0,"station_id":"ce4bhn92rcd13ifvqgrg","pricing_plan_id":"cebpf4jnsgd1na2vs0mg"},{"bike_id":"26c3f4e4-d62b-4936-8dce-d464ed87c8b1","system_id":"levelo_inurba_marseille","lat":43.29868,"lon":5.39736,"is_reserved":false,"is_disabled":false,"rental_uris":{"android":"levelo://app?vid=26c3f4e4-d62b-4936-8dce-d464ed87c8b1","ios":"levelo://app?vid=26c3f4e4-d62b-4936-8dce-d464ed87c8b1"},"vehicle_type_id":"4","last_reported":1736878350,"current_range_meters":12400,"station_id":"ce4bh0h2rcd13ifvqd50","pricing_plan_id":"cebpf4jnsgd1na2vs0mg"},{"bike_id":"ee8d0927-a058-45e1-9340-a21be45279dd","system_id":"levelo_inurba_marseille","lat":43.249943,"lon":5.389377,"is_reserved":false,"is_disabled":false,"rental_uris":{"android":"levelo://app?vid=ee8d0927-a058-45e1-9340-a21be45279dd","ios":"levelo://app?vid=ee8d0927-a058-45e1-9340-a21be45279dd"},"vehicle_type_id":"4","last_reported":1736878350,"current_range_meters":8000,"station_id":"ce4bhgp2rcd13ifvqfd0","pricing_plan_id":"cebpf4jnsgd1na2vs0mg"},{"bike_id":"de24f0eb-d07d-4b52-b35d-5a84aaa3df22","system_id":"levelo_inurba_marseille","lat":43.29224,"lon":5.36049,"is_reserved":false,"is_disabled":true,"rental_uris":{"android":"levelo://app?vid=de24f0eb-d07d-4b52-b35d-5a84aaa3df22","ios":"levelo://app?vid=de24f0eb-d07d-4b52-b35d-5a84aaa3df22"},"vehicle_type_id":"4","last_reported":1736878350,"current_range_meters":9600,"station_id":"ce4bhbh2rcd13ifvqeqg","pricing_plan_id":"cebpf4jnsgd1na2vs0mg"},{"bike_id":"242b4ffb-2fbc-4f02-bfd4-50afc7843743","system_id":"levelo_inurba_marseille","lat":43.25124,"lon":5.4032,"is_reserved":false,"is_disabled":false,"rental_uris":{"android":"levelo://app?vid=242b4ffb-2fbc-4f02-bfd4-50afc7843743","ios":"levelo://app?vid=242b4ffb-2fbc-4f02-bfd4-50afc7843743"},"vehicle_type_id":"4","last_reported":1736878350,"current_range_meters":24000,"station_id":"ce4bhlh2rcd13ifvqgig","pricing_plan_id":"cebpf4jnsgd1na2vs0mg"},{"bike_id":"961a1c03-ea05-4b5c-86bd-3e5250b56085","system_id":"levelo_inurba_marseille","lat":43.285754,"lon":5.395005,"is_reserved":false,"is_disabled":false,"rental_uris":{"android":"levelo://app?vid=961a1c03-ea05-4b5c-86bd-3e5250b56085","ios":"levelo://app?vid=961a1c03-ea05-4b5c-86bd-3e5250b56085"},"vehicle_type_id":"4","last_reported":1736878350,"current_range_meters":12400,"station_id":"ce4bh292rcd13ifvqdg0","pricing_plan_id":"cebpf4jnsgd1na2vs0mg"},{"bike_id":"1546f697-d82b-4e5d-a850-a9023302096e","system_id":"levelo_inurba_marseille","lat":43.25011,"lon":5.38921,"is_reserved":false,"is_disabled":false,"rental_uris":{"android":"levelo://app?vid=1546f697-d82b-4e5d-a850-a9023302096e","ios":"levelo://app?vid=1546f697-d82b-4e5d-a850-a9023302096e"},"vehicle_type_id":"4","last_reported":1736878350,"current_range_meters":6800,"station_id":"ce4bhgp2rcd13ifvqfd0","pricing_plan_id":"cebpf4jnsgd1na2vs0mg"},{"bike_id":"3a154d79-06d4-4814-bd52-2ebbe8926e69","system_id":"levelo_inurba_marseille","lat":43.29799,"lon":5.393372,"is_reserved":false,"is_disabled":true,"rental_uris":{"android":"levelo://app?vid=3a154d79-06d4-4814-bd52-2ebbe8926e69","ios":"levelo://app?vid=3a154d79-06d4-4814-bd52-2ebbe8926e69"},"vehicle_type_id":"4","last_reported":1736878350,"current_range_meters":37600,"station_id":"chh1huq6cuj3fo74tm60","pricing_plan_id":"cebpf4jnsgd1na2vs0mg"},{"bike_id":"a05bd889-5f47-4435-a653-f868055678ed","system_id":"levelo_inurba_marseille","lat":43.25005,"lon":5.38927,"is_reserved":false,"is_disabled":false,"rental_uris":{"android":"levelo://app?vid=a05bd889-5f47-4435-a653-f868055678ed","ios":"levelo://app?vid=a05bd889-5f47-4435-a653-f868055678ed"},"vehicle_type_id":"4","last_reported":1736878350,"current_range_meters":30400,"station_id":"ce4bhgp2rcd13ifvqfd0","pricing_plan_id":"cebpf4jnsgd1na2vs0mg"},{"bike_id":"d6d5004e-f401-4743-b020-ebb5bd2111bc","system_id":"levelo_inurba_marseille","lat":43.287123,"lon":5.379434,"is_reserved":false,"is_disabled":false,"rental_uris":{"android":"levelo://app?vid=d6d5004e-f401-4743-b020-ebb5bd2111bc","ios":"levelo://app?vid=d6d5004e-f401-4743-b020-ebb5bd2111bc"},"vehicle_type_id":"4","last_reported":1736878350,"current_range_meters":36800,"station_id":"ce4bh9p2rcd13ifvqec0","pricing_plan_id":"cebpf4jnsgd1na2vs0mg"},{"bike_id":"30be5c4e-066f-4a96-8b48-7cfcb4068f4f","system_id":"levelo_inurba_marseille","lat":43.25823,"lon":5.39443,"is_reserved":false,"is_disabled":false,"rental_uris":{"android":"levelo://app?vid=30be5c4e-066f-4a96-8b48-7cfcb4068f4f","ios":"levelo://app?vid=30be5c4e-066f-4a96-8b48-7cfcb4068f4f"},"vehicle_type_id":"4","last_reported":1736878350,"current_range_meters":15200,"station_id":"ce4bhip2rcd13ifvqft0","pricing_plan_id":"cebpf4jnsgd1na2vs0mg"},{"bike_id":"4de790cd-e5c0-4c64-b26e-cb06d194b0df","system_id":"levelo_inurba_marseille","lat":43.31121,"lon":5.3778,"is_reserved":false,"is_disabled":false,"rental_uris":{"android":"levelo://app?vid=4de790cd-e5c0-4c64-b26e-cb06d194b0df","ios":"levelo://app?vid=4de790cd-e5c0-4c64-b26e-cb06d194b0df"},"vehicle_type_id":"4","last_reported":1736878350,"current_range_meters":4800,"station_id":"ce4bgt92rcd13ifvqcg0","pricing_plan_id":"cebpf4jnsgd1na2vs0mg"},{"bike_id":"4798e150-8109-47ff-94a6-b68035beca33","system_id":"levelo_inurba_marseille","lat":43.28002,"lon":5.40018,"is_reserved":false,"is_disabled":false,"rental_uris":{"android":"levelo://app?vid=4798e150-8109-47ff-94a6-b68035beca33","ios":"levelo://app?vid=4798e150-8109-47ff-94a6-b68035beca33"},"vehicle_type_id":"4","last_reported":1736878350,"current_range_meters":7200,"station_id":"ce4bho92rcd13ifvqh4g","pricing_plan_id":"cebpf4jnsgd1na2vs0mg"},{"bike_id":"4f2d34a7-3342-4e22-a054-687ce7d50b05","system_id":"levelo_inurba_marseille","lat":43.25872,"lon":5.39896,"is_reserved":false,"is_disabled":false,"rental_uris":{"android":"levelo://app?vid=4f2d34a7-3342-4e22-a054-687ce7d50b05","ios":"levelo://app?vid=4f2d34a7-3342-4e22-a054-687ce7d50b05"},"vehicle_type_id":"4","last_reported":1736878350,"current_range_meters":18800,"station_id":"ce4bhl92rcd13ifvqghg","pricing_plan_id":"cebpf4jnsgd1na2vs0mg"},{"bike_id":"6d2e54c1-0c27-453e-88d9-6d899bdc3cfc","system_id":"levelo_inurba_marseille","lat":43.23195,"lon":5.39982,"is_reserved":false,"is_disabled":false,"rental_uris":{"android":"levelo://app?vid=6d2e54c1-0c27-453e-88d9-6d899bdc3cfc","ios":"levelo://app?vid=6d2e54c1-0c27-453e-88d9-6d899bdc3cfc"},"vehicle_type_id":"4","last_reported":1736878350,"current_range_meters":38800,"station_id":"ce4bhn12rcd13ifvqgqg","pricing_plan_id":"cebpf4jnsgd1na2vs0mg"},{"bike_id":"f6ef269a-b659-4932-845a-c7316585b5c0","system_id":"levelo_inurba_marseille","lat":43.29982,"lon":5.38498,"is_reserved":false,"is_disabled":false,"rental_uris":{"android":"levelo://app?vid=f6ef269a-b659-4932-845a-c7316585b5c0","ios":"levelo://app?vid=f6ef269a-b659-4932-845a-c7316585b5c0"},"vehicle_type_id":"4","last_reported":1736878350,"current_range_meters":19200,"station_id":"ce4bgj92rcd13ifvqbd0","pricing_plan_id":"cebpf4jnsgd1na2vs0mg"},{"bike_id":"cdc9bf34-75e5-44bc-8b69-9508e9456c8e","system_id":"levelo_inurba_marseille","lat":43.30857,"lon":5.37159,"is_reserved":false,"is_disabled":false,"rental_uris":{"android":"levelo://app?vid=cdc9bf34-75e5-44bc-8b69-9508e9456c8e","ios":"levelo://app?vid=cdc9bf34-75e5-44bc-8b69-9508e9456c8e"},"vehicle_type_id":"4","last_reported":1736878350,"current_range_meters":38000,"station_id":"ce4bguh2rcd13ifvqckg","pricing_plan_id":"cebpf4jnsgd1na2vs0mg"},{"bike_id":"abf0ee83-7bab-44f7-bed9-fd6daf3b18a1","system_id":"levelo_inurba_marseille","lat":43.28573,"lon":5.39499,"is_reserved":false,"is_disabled":false,"rental_uris":{"android":"levelo://app?vid=abf0ee83-7bab-44f7-bed9-fd6daf3b18a1","ios":"levelo://app?vid=abf0ee83-7bab-44f7-bed9-fd6daf3b18a1"},"vehicle_type_id":"4","last_reported":1736878350,"current_range_meters":36800,"station_id":"ce4bh292rcd13ifvqdg0","pricing_plan_id":"cebpf4jnsgd1na2vs0mg"},{"bike_id":"159da451-10a4-4d37-b106-58731e8d15d4","system_id":"levelo_inurba_marseille","lat":43.28704,"lon":5.39999,"is_reserved":false,"is_disabled":false,"rental_uris":{"android":"levelo://app?vid=159da451-10a4-4d37-b106-58731e8d15d4","ios":"levelo://app?vid=159da451-10a4-4d37-b106-58731e8d15d4"},"vehicle_type_id":"4","last_reported":1736878350,"current_range_meters":39200,"station_id":"ce4bho92rcd13ifvqh3g","pricing_plan_id":"cebpf4jnsgd1na2vs0mg"},{"bike_id":"a402044d-1041-4786-a63f-9d18af3bc82f","system_id":"levelo_inurba_marseille","lat":43.24164,"lon":5.36395,"is_reserved":false,"is_disabled":false,"rental_uris":{"android":"levelo://app?vid=a402044d-1041-4786-a63f-9d18af3bc82f","ios":"levelo://app?vid=a402044d-1041-4786-a63f-9d18af3bc82f"},"vehicle_type_id":"4","last_reported":1736878350,"current_range_meters":38800,"station_id":"cpo36qri1sfpv3e86is0","pricing_plan_id":"cebpf4jnsgd1na2vs0mg"},{"bike_id":"4ae990a2-1900-42b1-9f13-1f3e658accfe","system_id":"levelo_inurba_marseille","lat":43.27999,"lon":5.40047,"is_reserved":false,"is_disabled":false,"rental_uris":{"android":"levelo://app?vid=4ae990a2-1900-42b1-9f13-1f3e658accfe","ios":"levelo://app?vid=4ae990a2-1900-42b1-9f13-1f3e658accfe"},"vehicle_type_id":"4","last_reported":1736878350,"current_range_meters":39200,"station_id":"ce4bho92rcd13ifvqh4g","pricing_plan_id":"cebpf4jnsgd1na2vs0mg"},{"bike_id":"aac8885d-98ab-44b5-a5e4-7f098cde586b","system_id":"levelo_inurba_marseille","lat":43.27187,"lon":5.40982,"is_reserved":false,"is_disabled":false,"rental_uris":{"android":"levelo://app?vid=aac8885d-98ab-44b5-a5e4-7f098cde586b","ios":"levelo://app?vid=aac8885d-98ab-44b5-a5e4-7f098cde586b"},"vehicle_type_id":"4","last_reported":1736878350,"current_range_meters":38800,"station_id":"ce4bhl12rcd13ifvqgf0","pricing_plan_id":"cebpf4jnsgd1na2vs0mg"},{"bike_id":"c8e997c0-8580-4d0f-8d9f-0766596381e1","system_id":"levelo_inurba_marseille","lat":43.33921,"lon":5.37586,"is_reserved":false,"is_disabled":true,"rental_uris":{"android":"levelo://app?vid=c8e997c0-8580-4d0f-8d9f-0766596381e1","ios":"levelo://app?vid=c8e997c0-8580-4d0f-8d9f-0766596381e1"},"vehicle_type_id":"4","last_reported":1736878350,"current_range_meters":0,"station_id":"","pricing_plan_id":"cebpf4jnsgd1na2vs0mg"},{"bike_id":"fb256d3c-e2aa-49c9-ba5c-3108dc3b59c2","system_id":"levelo_inurba_marseille","lat":43.31266,"lon":5.40171,"is_reserved":false,"is_disabled":false,"rental_uris":{"android":"levelo://app?vid=fb256d3c-e2aa-49c9-ba5c-3108dc3b59c2","ios":"levelo://app?vid=fb256d3c-e2aa-49c9-ba5c-3108dc3b59c2"},"vehicle_type_id":"4","last_reported":1736878350,"current_range_meters":26800,"station_id":"ce4bh092rcd13ifvqd30","pricing_plan_id":"cebpf4jnsgd1na2vs0mg"},{"bike_id":"48467493-f1c3-4420-8d40-654841396061","system_id":"levelo_inurba_marseille","lat":43.29455,"lon":5.3975,"is_reserved":false,"is_disabled":false,"rental_uris":{"android":"levelo://app?vid=48467493-f1c3-4420-8d40-654841396061","ios":"levelo://app?vid=48467493-f1c3-4420-8d40-654841396061"},"vehicle_type_id":"4","last_reported":1736878350,"current_range_meters":38800,"station_id":"ce4bh3h2rcd13ifvqdo0","pricing_plan_id":"cebpf4jnsgd1na2vs0mg"},{"bike_id":"ba5df164-d25c-4a1c-8679-1bd1a1db0642","system_id":"levelo_inurba_marseille","lat":43.33718,"lon":5.39197,"is_reserved":false,"is_disabled":false,"rental_uris":{"android":"levelo://app?vid=ba5df164-d25c-4a1c-8679-1bd1a1db0642","ios":"levelo://app?vid=ba5df164-d25c-4a1c-8679-1bd1a1db0642"},"vehicle_type_id":"4","last_reported":1736878350,"current_range_meters":35200,"station_id":"ce4bhr92rcd13ifvqhsg","pricing_plan_id":"cebpf4jnsgd1na2vs0mg"},{"bike_id":"84c14737-c732-47b4-8ed3-09b4b8466aac","system_id":"levelo_inurba_marseille","lat":43.28415,"lon":5.37525,"is_reserved":false,"is_disabled":false,"rental_uris":{"android":"levelo://app?vid=84c14737-c732-47b4-8ed3-09b4b8466aac","ios":"levelo://app?vid=84c14737-c732-47b4-8ed3-09b4b8466aac"},"vehicle_type_id":"4","last_reported":1736878350,"current_range_meters":8000,"station_id":"ce4bh412rcd13ifvqds0","pricing_plan_id":"cebpf4jnsgd1na2vs0mg"},{"bike_id":"570c5c73-d446-4ed1-9976-a6f96df40729","system_id":"levelo_inurba_marseille","lat":43.30952,"lon":5.39032,"is_reserved":false,"is_disabled":false,"rental_uris":{"android":"levelo://app?vid=570c5c73-d446-4ed1-9976-a6f96df40729","ios":"levelo://app?vid=570c5c73-d446-4ed1-9976-a6f96df40729"},"vehicle_type_id":"4","last_reported":1736878350,"current_range_meters":16000,"station_id":"ce4bgup2rcd13ifvqco0","pricing_plan_id":"cebpf4jnsgd1na2vs0mg"},{"bike_id":"6a2b39da-efee-4bc0-be9f-a58db7af0edf","system_id":"levelo_inurba_marseille","lat":43.2846,"lon":5.3589,"is_reserved":false,"is_disabled":false,"rental_uris":{"android":"levelo://app?vid=6a2b39da-efee-4bc0-be9f-a58db7af0edf","ios":"levelo://app?vid=6a2b39da-efee-4bc0-be9f-a58db7af0edf"},"vehicle_type_id":"4","last_reported":1736878350,"current_range_meters":14400,"station_id":"ce4bhah2rcd13ifvqei0","pricing_plan_id":"cebpf4jnsgd1na2vs0mg"},{"bike_id":"ca939829-fffe-4670-b2aa-b9757d203f81","system_id":"levelo_inurba_marseille","lat":43.31307,"lon":5.39696,"is_reserved":false,"is_disabled":false,"rental_uris":{"android":"levelo://app?vid=ca939829-fffe-4670-b2aa-b9757d203f81","ios":"levelo://app?vid=ca939829-fffe-4670-b2aa-b9757d203f81"},"vehicle_type_id":"4","last_reported":1736878350,"current_range_meters":18000,"station_id":"ce4bgvp2rcd13ifvqcu0","pricing_plan_id":"cebpf4jnsgd1na2vs0mg"},{"bike_id":"f0691327-4efc-46db-9653-add386e0e1f0","system_id":"levelo_inurba_marseille","lat":43.28939,"lon":5.36645,"is_reserved":false,"is_disabled":false,"rental_uris":{"android":"levelo://app?vid=f0691327-4efc-46db-9653-add386e0e1f0","ios":"levelo://app?vid=f0691327-4efc-46db-9653-add386e0e1f0"},"vehicle_type_id":"4","last_reported":1736878350,"current_range_meters":37600,"station_id":"ce4bhap2rcd13ifvqek0","pricing_plan_id":"cebpf4jnsgd1na2vs0mg"},{"bike_id":"578e6ad1-c1bc-4e8b-bab7-ecb0fff8827c","system_id":"levelo_inurba_marseille","lat":43.31529,"lon":5.38039,"is_reserved":false,"is_disabled":false,"rental_uris":{"android":"levelo://app?vid=578e6ad1-c1bc-4e8b-bab7-ecb0fff8827c","ios":"levelo://app?vid=578e6ad1-c1bc-4e8b-bab7-ecb0fff8827c"},"vehicle_type_id":"4","last_reported":1736878350,"current_range_meters":12800,"station_id":"ce4bhsp2rcd13ifvqi50","pricing_plan_id":"cebpf4jnsgd1na2vs0mg"},{"bike_id":"56030b9e-68b1-4127-a965-b3d8dac0c886","system_id":"levelo_inurba_marseille","lat":43.24809,"lon":5.37462,"is_reserved":false,"is_disabled":false,"rental_uris":{"android":"levelo://app?vid=56030b9e-68b1-4127-a965-b3d8dac0c886","ios":"levelo://app?vid=56030b9e-68b1-4127-a965-b3d8dac0c886"},"vehicle_type_id":"4","last_reported":1736878350,"current_range_meters":3600,"station_id":"ce4bhgh2rcd13ifvqfb0","pricing_plan_id":"cebpf4jnsgd1na2vs0mg"},{"bike_id":"36030d3e-2a5d-48b3-bbb5-c279e4244537","system_id":"levelo_inurba_marseille","lat":43.29169,"lon":5.37168,"is_reserved":false,"is_disabled":false,"rental_uris":{"android":"levelo://app?vid=36030d3e-2a5d-48b3-bbb5-c279e4244537","ios":"levelo://app?vid=36030d3e-2a5d-48b3-bbb5-c279e4244537"},"vehicle_type_id":"4","last_reported":1736878350,"current_range_meters":19200,"station_id":"ce4bha92rcd13ifvqeh0","pricing_plan_id":"cebpf4jnsgd1na2vs0mg"},{"bike_id":"426ee80e-06b0-4d0f-86a5-ea8ad64aaa11","system_id":"levelo_inurba_marseille","lat":43.28908,"lon":5.43767,"is_reserved":false,"is_disabled":false,"rental_uris":{"android":"levelo://app?vid=426ee80e-06b0-4d0f-86a5-ea8ad64aaa11","ios":"levelo://app?vid=426ee80e-06b0-4d0f-86a5-ea8ad64aaa11"},"vehicle_type_id":"4","last_reported":1736878350,"current_range_meters":4400,"station_id":"","pricing_plan_id":"cebpf4jnsgd1na2vs0mg"},{"bike_id":"192943ff-6579-4067-8b54-834fbf6d8760","system_id":"levelo_inurba_marseille","lat":43.27633,"lon":5.36102,"is_reserved":false,"is_disabled":false,"rental_uris":{"android":"levelo://app?vid=192943ff-6579-4067-8b54-834fbf6d8760","ios":"levelo://app?vid=192943ff-6579-4067-8b54-834fbf6d8760"},"vehicle_type_id":"4","last_reported":1736878350,"current_range_meters":38800,"station_id":"ce4bgj92rcd13ifvqbe0","pricing_plan_id":"cebpf4jnsgd1na2vs0mg"},{"bike_id":"fea1b24d-bbfb-474a-b028-8645483cd7e6","system_id":"levelo_inurba_marseille","lat":43.27377,"lon":5.36242,"is_reserved":false,"is_disabled":false,"rental_uris":{"android":"levelo://app?vid=fea1b24d-bbfb-474a-b028-8645483cd7e6","ios":"levelo://app?vid=fea1b24d-bbfb-474a-b028-8645483cd7e6"},"vehicle_type_id":"4","last_reported":1736878350,"current_range_meters":38800,"station_id":"ce4bhbh2rcd13ifvqeo0","pricing_plan_id":"cebpf4jnsgd1na2vs0mg"},{"bike_id":"e2049f99-cc8a-49cb-b99c-0d1444b5eb86","system_id":"levelo_inurba_marseille","lat":43.22942,"lon":5.35377,"is_reserved":false,"is_disabled":false,"rental_uris":{"android":"levelo://app?vid=e2049f99-cc8a-49cb-b99c-0d1444b5eb86","ios":"levelo://app?vid=e2049f99-cc8a-49cb-b99c-0d1444b5eb86"},"vehicle_type_id":"4","last_reported":1736878350,"current_range_meters":10800,"station_id":"cpo3532slgdg3j2ikp40","pricing_plan_id":"cebpf4jnsgd1na2vs0mg"},{"bike_id":"394c1459-78bd-449f-aeb6-57dbaef6e809","system_id":"levelo_inurba_marseille","lat":43.25822,"lon":5.39446,"is_reserved":false,"is_disabled":false,"rental_uris":{"android":"levelo://app?vid=394c1459-78bd-449f-aeb6-57dbaef6e809","ios":"levelo://app?vid=394c1459-78bd-449f-aeb6-57dbaef6e809"},"vehicle_type_id":"4","last_reported":1736878350,"current_range_meters":31200,"station_id":"ce4bhip2rcd13ifvqft0","pricing_plan_id":"cebpf4jnsgd1na2vs0mg"},{"bike_id":"33599c56-d6e6-4e5d-9218-3b601dbbda24","system_id":"levelo_inurba_marseille","lat":43.30304,"lon":5.39221,"is_reserved":false,"is_disabled":true,"rental_uris":{"android":"levelo://app?vid=33599c56-d6e6-4e5d-9218-3b601dbbda24","ios":"levelo://app?vid=33599c56-d6e6-4e5d-9218-3b601dbbda24"},"vehicle_type_id":"4","last_reported":1736878350,"current_range_meters":6800,"station_id":"ce4bgkh2rcd13ifvqbk0","pricing_plan_id":"cebpf4jnsgd1na2vs0mg"},{"bike_id":"b38bfa33-4907-4ae2-84a9-1929e757eff2","system_id":"levelo_inurba_marseille","lat":43.2606,"lon":5.39398,"is_reserved":false,"is_disabled":false,"rental_uris":{"android":"levelo://app?vid=b38bfa33-4907-4ae2-84a9-1929e757eff2","ios":"levelo://app?vid=b38bfa33-4907-4ae2-84a9-1929e757eff2"},"vehicle_type_id":"4","last_reported":1736878350,"current_range_meters":26800,"station_id":"ce4bhh92rcd13ifvqfj0","pricing_plan_id":"cebpf4jnsgd1na2vs0mg"},{"bike_id":"33948cef-159b-4075-a8c4-dd4eee89856a","system_id":"levelo_inurba_marseille","lat":43.231923,"lon":5.399859,"is_reserved":false,"is_disabled":false,"rental_uris":{"android":"levelo://app?vid=33948cef-159b-4075-a8c4-dd4eee89856a","ios":"levelo://app?vid=33948cef-159b-4075-a8c4-dd4eee89856a"},"vehicle_type_id":"4","last_reported":1736878350,"current_range_meters":26800,"station_id":"ce4bhn12rcd13ifvqgqg","pricing_plan_id":"cebpf4jnsgd1na2vs0mg"},{"bike_id":"39287f93-1476-4515-8f0b-9add0b339e9c","system_id":"levelo_inurba_marseille","lat":43.28442,"lon":5.39169,"is_reserved":false,"is_disabled":false,"rental_uris":{"android":"levelo://app?vid=39287f93-1476-4515-8f0b-9add0b339e9c","ios":"levelo://app?vid=39287f93-1476-4515-8f0b-9add0b339e9c"},"vehicle_type_id":"4","last_reported":1736878350,"current_range_meters":3200,"station_id":"ce4bhoh2rcd13ifvqh5g","pricing_plan_id":"cebpf4jnsgd1na2vs0mg"},{"bike_id":"2f58ef0c-a69a-4c2c-a796-4b193fc22d52","system_id":"levelo_inurba_marseille","lat":43.28104,"lon":5.37841,"is_reserved":false,"is_disabled":false,"rental_uris":{"android":"levelo://app?vid=2f58ef0c-a69a-4c2c-a796-4b193fc22d52","ios":"levelo://app?vid=2f58ef0c-a69a-4c2c-a796-4b193fc22d52"},"vehicle_type_id":"4","last_reported":1736878350,"current_range_meters":20000,"station_id":"ce4bha12rcd13ifvqee0","pricing_plan_id":"cebpf4jnsgd1na2vs0mg"},{"bike_id":"ee74886c-f863-468b-98d4-486d6e358625","system_id":"levelo_inurba_marseille","lat":43.292027,"lon":5.360807,"is_reserved":false,"is_disabled":true,"rental_uris":{"android":"levelo://app?vid=ee74886c-f863-468b-98d4-486d6e358625","ios":"levelo://app?vid=ee74886c-f863-468b-98d4-486d6e358625"},"vehicle_type_id":"4","last_reported":1736878350,"current_range_meters":0,"station_id":"ce4bhbh2rcd13ifvqeqg","pricing_plan_id":"cebpf4jnsgd1na2vs0mg"},{"bike_id":"bfcc016a-5fff-4b80-990c-646d1ab7e8c9","system_id":"levelo_inurba_marseille","lat":43.30329,"lon":5.40434,"is_reserved":false,"is_disabled":false,"rental_uris":{"android":"levelo://app?vid=bfcc016a-5fff-4b80-990c-646d1ab7e8c9","ios":"levelo://app?vid=bfcc016a-5fff-4b80-990c-646d1ab7e8c9"},"vehicle_type_id":"4","last_reported":1736878350,"current_range_meters":4800,"station_id":"ce4bh012rcd13ifvqd10","pricing_plan_id":"cebpf4jnsgd1na2vs0mg"},{"bike_id":"c6caf76e-7f0e-4bae-a0a8-0d4a52a30b46","system_id":"levelo_inurba_marseille","lat":43.2954,"lon":5.39407,"is_reserved":false,"is_disabled":false,"rental_uris":{"android":"levelo://app?vid=c6caf76e-7f0e-4bae-a0a8-0d4a52a30b46","ios":"levelo://app?vid=c6caf76e-7f0e-4bae-a0a8-0d4a52a30b46"},"vehicle_type_id":"4","last_reported":1736878350,"current_range_meters":36400,"station_id":"ce4bh292rcd13ifvqdf0","pricing_plan_id":"cebpf4jnsgd1na2vs0mg"},{"bike_id":"d3b11e01-7152-4baf-ab7f-385f8141146b","system_id":"levelo_inurba_marseille","lat":43.24816,"lon":5.3744,"is_reserved":false,"is_disabled":false,"rental_uris":{"android":"levelo://app?vid=d3b11e01-7152-4baf-ab7f-385f8141146b","ios":"levelo://app?vid=d3b11e01-7152-4baf-ab7f-385f8141146b"},"vehicle_type_id":"4","last_reported":1736878350,"current_range_meters":39200,"station_id":"ce4bhgh2rcd13ifvqfb0","pricing_plan_id":"cebpf4jnsgd1na2vs0mg"},{"bike_id":"36974145-3c31-468b-9760-88b99b61f26c","system_id":"levelo_inurba_marseille","lat":43.27188,"lon":5.40977,"is_reserved":false,"is_disabled":false,"rental_uris":{"android":"levelo://app?vid=36974145-3c31-468b-9760-88b99b61f26c","ios":"levelo://app?vid=36974145-3c31-468b-9760-88b99b61f26c"},"vehicle_type_id":"4","last_reported":1736878350,"current_range_meters":9600,"station_id":"ce4bhl12rcd13ifvqgf0","pricing_plan_id":"cebpf4jnsgd1na2vs0mg"},{"bike_id":"b3ef46ee-af87-4b83-b89f-a4a6c31fc767","system_id":"levelo_inurba_marseille","lat":43.33003,"lon":5.39026,"is_reserved":false,"is_disabled":false,"rental_uris":{"android":"levelo://app?vid=b3ef46ee-af87-4b83-b89f-a4a6c31fc767","ios":"levelo://app?vid=b3ef46ee-af87-4b83-b89f-a4a6c31fc767"},"vehicle_type_id":"4","last_reported":1736878350,"current_range_meters":30000,"station_id":"ce4bhr92rcd13ifvqhrg","pricing_plan_id":"cebpf4jnsgd1na2vs0mg"},{"bike_id":"755e5c0a-8de7-4ee5-9d4e-5ec609711170","system_id":"levelo_inurba_marseille","lat":43.29622,"lon":5.38092,"is_reserved":false,"is_disabled":true,"rental_uris":{"android":"levelo://app?vid=755e5c0a-8de7-4ee5-9d4e-5ec609711170","ios":"levelo://app?vid=755e5c0a-8de7-4ee5-9d4e-5ec609711170"},"vehicle_type_id":"4","last_reported":1736878350,"current_range_meters":30000,"station_id":"ce4bgl12rcd13ifvqbo0","pricing_plan_id":"cebpf4jnsgd1na2vs0mg"},{"bike_id":"a7fbea3a-5a32-40d9-90eb-52f8eeb9302a","system_id":"levelo_inurba_marseille","lat":43.28938,"lon":5.36648,"is_reserved":false,"is_disabled":false,"rental_uris":{"android":"levelo://app?vid=a7fbea3a-5a32-40d9-90eb-52f8eeb9302a","ios":"levelo://app?vid=a7fbea3a-5a32-40d9-90eb-52f8eeb9302a"},"vehicle_type_id":"4","last_reported":1736878350,"current_range_meters":28400,"station_id":"ce4bhap2rcd13ifvqek0","pricing_plan_id":"cebpf4jnsgd1na2vs0mg"},{"bike_id":"293d34e8-cc29-4478-8318-b8afc4f87d7c","system_id":"levelo_inurba_marseille","lat":43.30294,"lon":5.392238,"is_reserved":false,"is_disabled":true,"rental_uris":{"android":"levelo://app?vid=293d34e8-cc29-4478-8318-b8afc4f87d7c","ios":"levelo://app?vid=293d34e8-cc29-4478-8318-b8afc4f87d7c"},"vehicle_type_id":"4","last_reported":1736878350,"current_range_meters":800,"station_id":"ce4bgkh2rcd13ifvqbk0","pricing_plan_id":"cebpf4jnsgd1na2vs0mg"},{"bike_id":"a15980ac-c225-4e68-8982-6cc8c4cbfd79","system_id":"levelo_inurba_marseille","lat":43.23191,"lon":5.35552,"is_reserved":false,"is_disabled":false,"rental_uris":{"android":"levelo://app?vid=a15980ac-c225-4e68-8982-6cc8c4cbfd79","ios":"levelo://app?vid=a15980ac-c225-4e68-8982-6cc8c4cbfd79"},"vehicle_type_id":"4","last_reported":1736878350,"current_range_meters":38800,"station_id":"ce4bhu92rcd13ifvqi70","pricing_plan_id":"cebpf4jnsgd1na2vs0mg"},{"bike_id":"f4acedbd-efad-4ed3-87b6-3302ef76e5a0","system_id":"levelo_inurba_marseille","lat":43.28846,"lon":5.35872,"is_reserved":false,"is_disabled":false,"rental_uris":{"android":"levelo://app?vid=f4acedbd-efad-4ed3-87b6-3302ef76e5a0","ios":"levelo://app?vid=f4acedbd-efad-4ed3-87b6-3302ef76e5a0"},"vehicle_type_id":"4","last_reported":1736878350,"current_range_meters":38800,"station_id":"ce4bhb12rcd13ifvqem0","pricing_plan_id":"cebpf4jnsgd1na2vs0mg"},{"bike_id":"665d259b-317d-40f1-b909-db8fa31f6b35","system_id":"levelo_inurba_marseille","lat":43.2844,"lon":5.39202,"is_reserved":false,"is_disabled":false,"rental_uris":{"android":"levelo://app?vid=665d259b-317d-40f1-b909-db8fa31f6b35","ios":"levelo://app?vid=665d259b-317d-40f1-b909-db8fa31f6b35"},"vehicle_type_id":"4","last_reported":1736878350,"current_range_meters":38000,"station_id":"ce4bhoh2rcd13ifvqh5g","pricing_plan_id":"cebpf4jnsgd1na2vs0mg"},{"bike_id":"3c07fa6e-f4f9-404f-a9a8-7f19979108f6","system_id":"levelo_inurba_marseille","lat":43.32102,"lon":5.36771,"is_reserved":false,"is_disabled":false,"rental_uris":{"android":"levelo://app?vid=3c07fa6e-f4f9-404f-a9a8-7f19979108f6","ios":"levelo://app?vid=3c07fa6e-f4f9-404f-a9a8-7f19979108f6"},"vehicle_type_id":"4","last_reported":1736878350,"current_range_meters":27200,"station_id":"ce4bhrh2rcd13ifvqhug","pricing_plan_id":"cebpf4jnsgd1na2vs0mg"},{"bike_id":"f9d56c30-b886-4540-9acd-8171c4ed22f9","system_id":"levelo_inurba_marseille","lat":43.29223,"lon":5.3607,"is_reserved":false,"is_disabled":false,"rental_uris":{"android":"levelo://app?vid=f9d56c30-b886-4540-9acd-8171c4ed22f9","ios":"levelo://app?vid=f9d56c30-b886-4540-9acd-8171c4ed22f9"},"vehicle_type_id":"4","last_reported":1736878350,"current_range_meters":22800,"station_id":"ce4bhbh2rcd13ifvqeqg","pricing_plan_id":"cebpf4jnsgd1na2vs0mg"},{"bike_id":"64b2cb73-258b-4267-8d3c-722c97ae9969","system_id":"levelo_inurba_marseille","lat":43.29205,"lon":5.35816,"is_reserved":false,"is_disabled":false,"rental_uris":{"android":"levelo://app?vid=64b2cb73-258b-4267-8d3c-722c97ae9969","ios":"levelo://app?vid=64b2cb73-258b-4267-8d3c-722c97ae9969"},"vehicle_type_id":"4","last_reported":1736878350,"current_range_meters":32400,"station_id":"ce4bhb12rcd13ifvqel0","pricing_plan_id":"cebpf4jnsgd1na2vs0mg"},{"bike_id":"3f404148-f2c7-44b8-a466-977741fe2f8d","system_id":"levelo_inurba_marseille","lat":43.27925,"lon":5.39589,"is_reserved":false,"is_disabled":false,"rental_uris":{"android":"levelo://app?vid=3f404148-f2c7-44b8-a466-977741fe2f8d","ios":"levelo://app?vid=3f404148-f2c7-44b8-a466-977741fe2f8d"},"vehicle_type_id":"4","last_reported":1736878350,"current_range_meters":28400,"station_id":"ce4bhf92rcd13ifvqf40","pricing_plan_id":"cebpf4jnsgd1na2vs0mg"},{"bike_id":"51bb6953-dea8-4e82-96bf-52696267905f","system_id":"levelo_inurba_marseille","lat":43.23065,"lon":5.35498,"is_reserved":false,"is_disabled":false,"rental_uris":{"android":"levelo://app?vid=51bb6953-dea8-4e82-96bf-52696267905f","ios":"levelo://app?vid=51bb6953-dea8-4e82-96bf-52696267905f"},"vehicle_type_id":"4","last_reported":1736878350,"current_range_meters":8000,"station_id":"cpo3342slgdg3j2ifvpg","pricing_plan_id":"cebpf4jnsgd1na2vs0mg"},{"bike_id":"b4d2fb64-79fe-432f-80df-64b6718d9f84","system_id":"levelo_inurba_marseille","lat":43.246462,"lon":5.388902,"is_reserved":false,"is_disabled":false,"rental_uris":{"android":"levelo://app?vid=b4d2fb64-79fe-432f-80df-64b6718d9f84","ios":"levelo://app?vid=b4d2fb64-79fe-432f-80df-64b6718d9f84"},"vehicle_type_id":"4","last_reported":1736878350,"current_range_meters":6000,"station_id":"ce4bhg12rcd13ifvqf60","pricing_plan_id":"cebpf4jnsgd1na2vs0mg"},{"bike_id":"eed58033-fa47-4e42-ac28-5d945be79d6b","system_id":"levelo_inurba_marseille","lat":43.28395,"lon":5.37494,"is_reserved":false,"is_disabled":false,"rental_uris":{"android":"levelo://app?vid=eed58033-fa47-4e42-ac28-5d945be79d6b","ios":"levelo://app?vid=eed58033-fa47-4e42-ac28-5d945be79d6b"},"vehicle_type_id":"4","last_reported":1736878350,"current_range_meters":32000,"station_id":"ce4bh412rcd13ifvqds0","pricing_plan_id":"cebpf4jnsgd1na2vs0mg"},{"bike_id":"10fab33a-bfee-4131-a9cd-a86e761b6ad0","system_id":"levelo_inurba_marseille","lat":43.31287,"lon":5.40167,"is_reserved":false,"is_disabled":false,"rental_uris":{"android":"levelo://app?vid=10fab33a-bfee-4131-a9cd-a86e761b6ad0","ios":"levelo://app?vid=10fab33a-bfee-4131-a9cd-a86e761b6ad0"},"vehicle_type_id":"4","last_reported":1736878350,"current_range_meters":39200,"station_id":"ce4bh092rcd13ifvqd30","pricing_plan_id":"cebpf4jnsgd1na2vs0mg"},{"bike_id":"990d110f-0033-4709-aacc-cacb2b86c86b","system_id":"levelo_inurba_marseille","lat":43.25579,"lon":5.38231,"is_reserved":false,"is_disabled":false,"rental_uris":{"android":"levelo://app?vid=990d110f-0033-4709-aacc-cacb2b86c86b","ios":"levelo://app?vid=990d110f-0033-4709-aacc-cacb2b86c86b"},"vehicle_type_id":"4","last_reported":1736878350,"current_range_meters":38800,"station_id":"ce4bhih2rcd13ifvqfs0","pricing_plan_id":"cebpf4jnsgd1na2vs0mg"},{"bike_id":"c4a8dadf-2d26-4438-8022-6780136cb89c","system_id":"levelo_inurba_marseille","lat":43.27614,"lon":5.36109,"is_reserved":false,"is_disabled":false,"rental_uris":{"android":"levelo://app?vid=c4a8dadf-2d26-4438-8022-6780136cb89c","ios":"levelo://app?vid=c4a8dadf-2d26-4438-8022-6780136cb89c"},"vehicle_type_id":"4","last_reported":1736878350,"current_range_meters":35200,"station_id":"ce4bgj92rcd13ifvqbe0","pricing_plan_id":"cebpf4jnsgd1na2vs0mg"},{"bike_id":"83e21ffd-3d88-49ca-b660-3c67971dbbe1","system_id":"levelo_inurba_marseille","lat":43.29029,"lon":5.38632,"is_reserved":false,"is_disabled":false,"rental_uris":{"android":"levelo://app?vid=83e21ffd-3d88-49ca-b660-3c67971dbbe1","ios":"levelo://app?vid=83e21ffd-3d88-49ca-b660-3c67971dbbe1"},"vehicle_type_id":"4","last_reported":1736878350,"current_range_meters":38800,"station_id":"ce4bh4p2rcd13ifvqe0g","pricing_plan_id":"cebpf4jnsgd1na2vs0mg"},{"bike_id":"399477ae-0fdc-4fd6-a2ff-431430209881","system_id":"levelo_inurba_marseille","lat":43.255781,"lon":5.382339,"is_reserved":false,"is_disabled":false,"rental_uris":{"android":"levelo://app?vid=399477ae-0fdc-4fd6-a2ff-431430209881","ios":"levelo://app?vid=399477ae-0fdc-4fd6-a2ff-431430209881"},"vehicle_type_id":"4","last_reported":1736878350,"current_range_meters":6400,"station_id":"ce4bhih2rcd13ifvqfs0","pricing_plan_id":"cebpf4jnsgd1na2vs0mg"},{"bike_id":"19ad764f-36cc-4ec2-9fd2-30d520b9d15e","system_id":"levelo_inurba_marseille","lat":43.23156,"lon":5.43706,"is_reserved":false,"is_disabled":true,"rental_uris":{"android":"levelo://app?vid=19ad764f-36cc-4ec2-9fd2-30d520b9d15e","ios":"levelo://app?vid=19ad764f-36cc-4ec2-9fd2-30d520b9d15e"},"vehicle_type_id":"4","last_reported":1736878350,"current_range_meters":4800,"station_id":"ce4bhmp2rcd13ifvqgog","pricing_plan_id":"cebpf4jnsgd1na2vs0mg"},{"bike_id":"2189381d-9d89-4eb9-a141-46938bb381d6","system_id":"levelo_inurba_marseille","lat":43.26559,"lon":5.39002,"is_reserved":false,"is_disabled":true,"rental_uris":{"android":"levelo://app?vid=2189381d-9d89-4eb9-a141-46938bb381d6","ios":"levelo://app?vid=2189381d-9d89-4eb9-a141-46938bb381d6"},"vehicle_type_id":"4","last_reported":1736878350,"current_range_meters":400,"station_id":"ce4bhe12rcd13ifvqf30","pricing_plan_id":"cebpf4jnsgd1na2vs0mg"},{"bike_id":"a159c46d-7dfe-45f8-a9a5-971fbf06365a","system_id":"levelo_inurba_marseille","lat":43.25083,"lon":5.39541,"is_reserved":false,"is_disabled":false,"rental_uris":{"android":"levelo://app?vid=a159c46d-7dfe-45f8-a9a5-971fbf06365a","ios":"levelo://app?vid=a159c46d-7dfe-45f8-a9a5-971fbf06365a"},"vehicle_type_id":"4","last_reported":1736878350,"current_range_meters":33600,"station_id":"ce4bhm12rcd13ifvqgkg","pricing_plan_id":"cebpf4jnsgd1na2vs0mg"},{"bike_id":"53dc456f-eec2-478f-9652-027f82195721","system_id":"levelo_inurba_marseille","lat":43.28562,"lon":5.39504,"is_reserved":false,"is_disabled":false,"rental_uris":{"android":"levelo://app?vid=53dc456f-eec2-478f-9652-027f82195721","ios":"levelo://app?vid=53dc456f-eec2-478f-9652-027f82195721"},"vehicle_type_id":"4","last_reported":1736878350,"current_range_meters":38800,"station_id":"ce4bh292rcd13ifvqdg0","pricing_plan_id":"cebpf4jnsgd1na2vs0mg"},{"bike_id":"b328758c-1306-4f48-9fa3-7f9b48fccfe1","system_id":"levelo_inurba_marseille","lat":43.23189,"lon":5.399951,"is_reserved":false,"is_disabled":false,"rental_uris":{"android":"levelo://app?vid=b328758c-1306-4f48-9fa3-7f9b48fccfe1","ios":"levelo://app?vid=b328758c-1306-4f48-9fa3-7f9b48fccfe1"},"vehicle_type_id":"4","last_reported":1736878350,"current_range_meters":18000,"station_id":"ce4bhn12rcd13ifvqgqg","pricing_plan_id":"cebpf4jnsgd1na2vs0mg"},{"bike_id":"a56bdef2-14b8-4e02-b3bc-538917283971","system_id":"levelo_inurba_marseille","lat":43.25092,"lon":5.39521,"is_reserved":false,"is_disabled":false,"rental_uris":{"android":"levelo://app?vid=a56bdef2-14b8-4e02-b3bc-538917283971","ios":"levelo://app?vid=a56bdef2-14b8-4e02-b3bc-538917283971"},"vehicle_type_id":"4","last_reported":1736878350,"current_range_meters":30800,"station_id":"ce4bhm12rcd13ifvqgkg","pricing_plan_id":"cebpf4jnsgd1na2vs0mg"},{"bike_id":"1117da68-9532-47e5-be8c-60002606ec1a","system_id":"levelo_inurba_marseille","lat":43.2988,"lon":5.38911,"is_reserved":false,"is_disabled":false,"rental_uris":{"android":"levelo://app?vid=1117da68-9532-47e5-be8c-60002606ec1a","ios":"levelo://app?vid=1117da68-9532-47e5-be8c-60002606ec1a"},"vehicle_type_id":"4","last_reported":1736878350,"current_range_meters":18000,"station_id":"ce4bh392rcd13ifvqdl0","pricing_plan_id":"cebpf4jnsgd1na2vs0mg"},{"bike_id":"d677a909-27ad-4353-b4cf-7fba66a9d9f6","system_id":"levelo_inurba_marseille","lat":43.26561,"lon":5.37293,"is_reserved":false,"is_disabled":false,"rental_uris":{"android":"levelo://app?vid=d677a909-27ad-4353-b4cf-7fba66a9d9f6","ios":"levelo://app?vid=d677a909-27ad-4353-b4cf-7fba66a9d9f6"},"vehicle_type_id":"4","last_reported":1736878350,"current_range_meters":18800,"station_id":"ce4bhg12rcd13ifvqf70","pricing_plan_id":"cebpf4jnsgd1na2vs0mg"},{"bike_id":"e961cde9-05ba-4fa1-a609-74bb51c833c3","system_id":"levelo_inurba_marseille","lat":43.29957,"lon":5.41326,"is_reserved":false,"is_disabled":false,"rental_uris":{"android":"levelo://app?vid=e961cde9-05ba-4fa1-a609-74bb51c833c3","ios":"levelo://app?vid=e961cde9-05ba-4fa1-a609-74bb51c833c3"},"vehicle_type_id":"4","last_reported":1736878350,"current_range_meters":24000,"station_id":"ce4bhp12rcd13ifvqh9g","pricing_plan_id":"cebpf4jnsgd1na2vs0mg"},{"bike_id":"ac72bd68-fe43-417d-8d4d-367f04db8c3c","system_id":"levelo_inurba_marseille","lat":43.3171,"lon":5.43712,"is_reserved":false,"is_disabled":false,"rental_uris":{"android":"levelo://app?vid=ac72bd68-fe43-417d-8d4d-367f04db8c3c","ios":"levelo://app?vid=ac72bd68-fe43-417d-8d4d-367f04db8c3c"},"vehicle_type_id":"4","last_reported":1736878350,"current_range_meters":6800,"station_id":"ce4bhp92rcd13ifvqhcg","pricing_plan_id":"cebpf4jnsgd1na2vs0mg"},{"bike_id":"b51b8509-c21e-40ac-802b-edd56e55cdd0","system_id":"levelo_inurba_marseille","lat":43.30367,"lon":5.41876,"is_reserved":false,"is_disabled":true,"rental_uris":{"android":"levelo://app?vid=b51b8509-c21e-40ac-802b-edd56e55cdd0","ios":"levelo://app?vid=b51b8509-c21e-40ac-802b-edd56e55cdd0"},"vehicle_type_id":"4","last_reported":1736878350,"current_range_meters":19600,"station_id":"ce4bhop2rcd13ifvqh7g","pricing_plan_id":"cebpf4jnsgd1na2vs0mg"},{"bike_id":"2acdbac7-5f78-4dfd-a1a1-90beb93ea510","system_id":"levelo_inurba_marseille","lat":43.28104,"lon":5.3784,"is_reserved":false,"is_disabled":false,"rental_uris":{"android":"levelo://app?vid=2acdbac7-5f78-4dfd-a1a1-90beb93ea510","ios":"levelo://app?vid=2acdbac7-5f78-4dfd-a1a1-90beb93ea510"},"vehicle_type_id":"4","last_reported":1736878350,"current_range_meters":37600,"station_id":"ce4bha12rcd13ifvqee0","pricing_plan_id":"cebpf4jnsgd1na2vs0mg"},{"bike_id":"91faf942-6ac2-4015-8913-27ed845296fd","system_id":"levelo_inurba_marseille","lat":43.28946,"lon":5.36393,"is_reserved":false,"is_disabled":false,"rental_uris":{"android":"levelo://app?vid=91faf942-6ac2-4015-8913-27ed845296fd","ios":"levelo://app?vid=91faf942-6ac2-4015-8913-27ed845296fd"},"vehicle_type_id":"4","last_reported":1736878350,"current_range_meters":38800,"station_id":"ce4bhc92rcd13ifvqetg","pricing_plan_id":"cebpf4jnsgd1na2vs0mg"},{"bike_id":"111be7c2-f906-4453-b3c6-63975cd74396","system_id":"levelo_inurba_marseille","lat":43.28454,"lon":5.35901,"is_reserved":false,"is_disabled":false,"rental_uris":{"android":"levelo://app?vid=111be7c2-f906-4453-b3c6-63975cd74396","ios":"levelo://app?vid=111be7c2-f906-4453-b3c6-63975cd74396"},"vehicle_type_id":"4","last_reported":1736878350,"current_range_meters":24800,"station_id":"ce4bhah2rcd13ifvqei0","pricing_plan_id":"cebpf4jnsgd1na2vs0mg"},{"bike_id":"5a91ba28-6bde-4a64-ab8b-4c3edb00bfd7","system_id":"levelo_inurba_marseille","lat":43.27814,"lon":5.40698,"is_reserved":false,"is_disabled":false,"rental_uris":{"android":"levelo://app?vid=5a91ba28-6bde-4a64-ab8b-4c3edb00bfd7","ios":"levelo://app?vid=5a91ba28-6bde-4a64-ab8b-4c3edb00bfd7"},"vehicle_type_id":"4","last_reported":1736878350,"current_range_meters":11200,"station_id":"ce4bhnh2rcd13ifvqgtg","pricing_plan_id":"cebpf4jnsgd1na2vs0mg"},{"bike_id":"b3e35a67-739e-4943-9329-8541a5d64a33","system_id":"levelo_inurba_marseille","lat":43.25092,"lon":5.39505,"is_reserved":false,"is_disabled":false,"rental_uris":{"android":"levelo://app?vid=b3e35a67-739e-4943-9329-8541a5d64a33","ios":"levelo://app?vid=b3e35a67-739e-4943-9329-8541a5d64a33"},"vehicle_type_id":"4","last_reported":1736878350,"current_range_meters":26800,"station_id":"ce4bhm12rcd13ifvqgkg","pricing_plan_id":"cebpf4jnsgd1na2vs0mg"},{"bike_id":"13d8461e-0932-4011-b23f-f1f784c30a3e","system_id":"levelo_inurba_marseille","lat":43.25004,"lon":5.38912,"is_reserved":false,"is_disabled":true,"rental_uris":{"android":"levelo://app?vid=13d8461e-0932-4011-b23f-f1f784c30a3e","ios":"levelo://app?vid=13d8461e-0932-4011-b23f-f1f784c30a3e"},"vehicle_type_id":"4","last_reported":1736878350,"current_range_meters":7200,"station_id":"ce4bhgp2rcd13ifvqfd0","pricing_plan_id":"cebpf4jnsgd1na2vs0mg"},{"bike_id":"143ffdd8-44cc-474e-8625-ecb7f5e69169","system_id":"levelo_inurba_marseille","lat":43.27564,"lon":5.38421,"is_reserved":false,"is_disabled":false,"rental_uris":{"android":"levelo://app?vid=143ffdd8-44cc-474e-8625-ecb7f5e69169","ios":"levelo://app?vid=143ffdd8-44cc-474e-8625-ecb7f5e69169"},"vehicle_type_id":"4","last_reported":1736878350,"current_range_meters":32400,"station_id":"ce4bhh92rcd13ifvqfi0","pricing_plan_id":"cebpf4jnsgd1na2vs0mg"},{"bike_id":"3c42eb6e-b83c-4077-9ca9-b135c2481755","system_id":"levelo_inurba_marseille","lat":43.2318,"lon":5.39995,"is_reserved":false,"is_disabled":false,"rental_uris":{"android":"levelo://app?vid=3c42eb6e-b83c-4077-9ca9-b135c2481755","ios":"levelo://app?vid=3c42eb6e-b83c-4077-9ca9-b135c2481755"},"vehicle_type_id":"4","last_reported":1736878350,"current_range_meters":38800,"station_id":"ce4bhn12rcd13ifvqgqg","pricing_plan_id":"cebpf4jnsgd1na2vs0mg"},{"bike_id":"b6393df2-502e-49df-b45c-3184705fe1f6","system_id":"levelo_inurba_marseille","lat":43.30799,"lon":5.38162,"is_reserved":false,"is_disabled":false,"rental_uris":{"android":"levelo://app?vid=b6393df2-502e-49df-b45c-3184705fe1f6","ios":"levelo://app?vid=b6393df2-502e-49df-b45c-3184705fe1f6"},"vehicle_type_id":"4","last_reported":1736878350,"current_range_meters":18000,"station_id":"ce4bgt12rcd13ifvqce0","pricing_plan_id":"cebpf4jnsgd1na2vs0mg"},{"bike_id":"f88d1f28-db68-4877-a021-523670b38e29","system_id":"levelo_inurba_marseille","lat":43.30422,"lon":5.39758,"is_reserved":false,"is_disabled":false,"rental_uris":{"android":"levelo://app?vid=f88d1f28-db68-4877-a021-523670b38e29","ios":"levelo://app?vid=f88d1f28-db68-4877-a021-523670b38e29"},"vehicle_type_id":"4","last_reported":1736878350,"current_range_meters":2800,"station_id":"ce4bh092rcd13ifvqd20","pricing_plan_id":"cebpf4jnsgd1na2vs0mg"},{"bike_id":"760957ad-6fa7-4031-b9b3-da1e0249725d","system_id":"levelo_inurba_marseille","lat":43.29417,"lon":5.38625,"is_reserved":false,"is_disabled":false,"rental_uris":{"android":"levelo://app?vid=760957ad-6fa7-4031-b9b3-da1e0249725d","ios":"levelo://app?vid=760957ad-6fa7-4031-b9b3-da1e0249725d"},"vehicle_type_id":"4","last_reported":1736878350,"current_range_meters":10800,"station_id":"ce4bh2h2rcd13ifvqdh0","pricing_plan_id":"cebpf4jnsgd1na2vs0mg"},{"bike_id":"48a23257-c3c3-4e91-be54-40382c9a9d5e","system_id":"levelo_inurba_marseille","lat":43.25865,"lon":5.399015,"is_reserved":false,"is_disabled":false,"rental_uris":{"android":"levelo://app?vid=48a23257-c3c3-4e91-be54-40382c9a9d5e","ios":"levelo://app?vid=48a23257-c3c3-4e91-be54-40382c9a9d5e"},"vehicle_type_id":"4","last_reported":1736878350,"current_range_meters":16800,"station_id":"ce4bhl92rcd13ifvqghg","pricing_plan_id":"cebpf4jnsgd1na2vs0mg"},{"bike_id":"25ced1fd-1070-4641-a495-d7e9933cee7c","system_id":"levelo_inurba_marseille","lat":43.27945,"lon":5.41052,"is_reserved":false,"is_disabled":false,"rental_uris":{"android":"levelo://app?vid=25ced1fd-1070-4641-a495-d7e9933cee7c","ios":"levelo://app?vid=25ced1fd-1070-4641-a495-d7e9933cee7c"},"vehicle_type_id":"4","last_reported":1736878350,"current_range_meters":8800,"station_id":"ce4bhnp2rcd13ifvqh0g","pricing_plan_id":"cebpf4jnsgd1na2vs0mg"},{"bike_id":"3ab26579-f4e3-4bf0-af70-a98271b1c8a7","system_id":"levelo_inurba_marseille","lat":43.32358,"lon":5.3887,"is_reserved":false,"is_disabled":false,"rental_uris":{"android":"levelo://app?vid=3ab26579-f4e3-4bf0-af70-a98271b1c8a7","ios":"levelo://app?vid=3ab26579-f4e3-4bf0-af70-a98271b1c8a7"},"vehicle_type_id":"4","last_reported":1736878350,"current_range_meters":28800,"station_id":"ce4bhqp2rcd13ifvqhog","pricing_plan_id":"cebpf4jnsgd1na2vs0mg"},{"bike_id":"96288e4c-2217-4363-a43b-27b3c199235a","system_id":"levelo_inurba_marseille","lat":43.28441,"lon":5.39213,"is_reserved":false,"is_disabled":false,"rental_uris":{"android":"levelo://app?vid=96288e4c-2217-4363-a43b-27b3c199235a","ios":"levelo://app?vid=96288e4c-2217-4363-a43b-27b3c199235a"},"vehicle_type_id":"4","last_reported":1736878350,"current_range_meters":39200,"station_id":"ce4bhoh2rcd13ifvqh5g","pricing_plan_id":"cebpf4jnsgd1na2vs0mg"},{"bike_id":"fc5a2978-9e81-40aa-befb-f736a12e7b56","system_id":"levelo_inurba_marseille","lat":43.31753,"lon":5.3902,"is_reserved":false,"is_disabled":false,"rental_uris":{"android":"levelo://app?vid=fc5a2978-9e81-40aa-befb-f736a12e7b56","ios":"levelo://app?vid=fc5a2978-9e81-40aa-befb-f736a12e7b56"},"vehicle_type_id":"4","last_reported":1736878350,"current_range_meters":19200,"station_id":"ce4bhqp2rcd13ifvqhng","pricing_plan_id":"cebpf4jnsgd1na2vs0mg"},{"bike_id":"2f6e45dc-8b02-48ec-829a-2aee59c930e5","system_id":"levelo_inurba_marseille","lat":43.2558,"lon":5.38229,"is_reserved":false,"is_disabled":false,"rental_uris":{"android":"levelo://app?vid=2f6e45dc-8b02-48ec-829a-2aee59c930e5","ios":"levelo://app?vid=2f6e45dc-8b02-48ec-829a-2aee59c930e5"},"vehicle_type_id":"4","last_reported":1736878350,"current_range_meters":28000,"station_id":"ce4bhih2rcd13ifvqfs0","pricing_plan_id":"cebpf4jnsgd1na2vs0mg"},{"bike_id":"6aaac62b-46d6-4196-b308-1f0e2230de84","system_id":"levelo_inurba_marseille","lat":43.28931,"lon":5.36624,"is_reserved":false,"is_disabled":false,"rental_uris":{"android":"levelo://app?vid=6aaac62b-46d6-4196-b308-1f0e2230de84","ios":"levelo://app?vid=6aaac62b-46d6-4196-b308-1f0e2230de84"},"vehicle_type_id":"4","last_reported":1736878350,"current_range_meters":38800,"station_id":"ce4bhap2rcd13ifvqek0","pricing_plan_id":"cebpf4jnsgd1na2vs0mg"},{"bike_id":"ab1ef816-831f-4b65-bf44-8a31a38dc1d5","system_id":"levelo_inurba_marseille","lat":43.28465,"lon":5.35881,"is_reserved":false,"is_disabled":false,"rental_uris":{"android":"levelo://app?vid=ab1ef816-831f-4b65-bf44-8a31a38dc1d5","ios":"levelo://app?vid=ab1ef816-831f-4b65-bf44-8a31a38dc1d5"},"vehicle_type_id":"4","last_reported":1736878350,"current_range_meters":38800,"station_id":"ce4bhah2rcd13ifvqei0","pricing_plan_id":"cebpf4jnsgd1na2vs0mg"},{"bike_id":"35d74175-3a17-4a71-a0ff-68fe59869db4","system_id":"levelo_inurba_marseille","lat":43.32041,"lon":5.41525,"is_reserved":false,"is_disabled":false,"rental_uris":{"android":"levelo://app?vid=35d74175-3a17-4a71-a0ff-68fe59869db4","ios":"levelo://app?vid=35d74175-3a17-4a71-a0ff-68fe59869db4"},"vehicle_type_id":"4","last_reported":1736878350,"current_range_meters":13600,"station_id":"ce4bhq92rcd13ifvqhkg","pricing_plan_id":"cebpf4jnsgd1na2vs0mg"},{"bike_id":"58d59913-a7c1-455a-8720-49c6564ff436","system_id":"levelo_inurba_marseille","lat":43.31303,"lon":5.39758,"is_reserved":false,"is_disabled":false,"rental_uris":{"android":"levelo://app?vid=58d59913-a7c1-455a-8720-49c6564ff436","ios":"levelo://app?vid=58d59913-a7c1-455a-8720-49c6564ff436"},"vehicle_type_id":"4","last_reported":1736878350,"current_range_meters":37600,"station_id":"ce4bgvp2rcd13ifvqcu0","pricing_plan_id":"cebpf4jnsgd1na2vs0mg"},{"bike_id":"5f23a61a-7e7d-465e-942d-98e84a6e0f49","system_id":"levelo_inurba_marseille","lat":43.24808,"lon":5.37456,"is_reserved":false,"is_disabled":false,"rental_uris":{"android":"levelo://app?vid=5f23a61a-7e7d-465e-942d-98e84a6e0f49","ios":"levelo://app?vid=5f23a61a-7e7d-465e-942d-98e84a6e0f49"},"vehicle_type_id":"4","last_reported":1736878350,"current_range_meters":37600,"station_id":"ce4bhgh2rcd13ifvqfb0","pricing_plan_id":"cebpf4jnsgd1na2vs0mg"},{"bike_id":"f6449d14-99b5-4769-aa60-681d491580b1","system_id":"levelo_inurba_marseille","lat":43.26929,"lon":5.4027,"is_reserved":false,"is_disabled":false,"rental_uris":{"android":"levelo://app?vid=f6449d14-99b5-4769-aa60-681d491580b1","ios":"levelo://app?vid=f6449d14-99b5-4769-aa60-681d491580b1"},"vehicle_type_id":"4","last_reported":1736878350,"current_range_meters":27200,"station_id":"cjm6bp8fraef2m0cb0m0","pricing_plan_id":"cebpf4jnsgd1na2vs0mg"},{"bike_id":"ab23b203-f502-4079-8a53-37407db9e152","system_id":"levelo_inurba_marseille","lat":43.30073,"lon":5.37284,"is_reserved":false,"is_disabled":false,"rental_uris":{"android":"levelo://app?vid=ab23b203-f502-4079-8a53-37407db9e152","ios":"levelo://app?vid=ab23b203-f502-4079-8a53-37407db9e152"},"vehicle_type_id":"4","last_reported":1736878350,"current_range_meters":14800,"station_id":"","pricing_plan_id":"cebpf4jnsgd1na2vs0mg"},{"bike_id":"26e4ae45-bd9b-45c6-a738-36e38d6c4335","system_id":"levelo_inurba_marseille","lat":43.28941,"lon":5.36399,"is_reserved":false,"is_disabled":false,"rental_uris":{"android":"levelo://app?vid=26e4ae45-bd9b-45c6-a738-36e38d6c4335","ios":"levelo://app?vid=26e4ae45-bd9b-45c6-a738-36e38d6c4335"},"vehicle_type_id":"4","last_reported":1736878350,"current_range_meters":8400,"station_id":"ce4bhc92rcd13ifvqetg","pricing_plan_id":"cebpf4jnsgd1na2vs0mg"},{"bike_id":"08b253e1-f984-44a7-af5f-77a50497e2f5","system_id":"levelo_inurba_marseille","lat":43.27308,"lon":5.39089,"is_reserved":false,"is_disabled":false,"rental_uris":{"android":"levelo://app?vid=08b253e1-f984-44a7-af5f-77a50497e2f5","ios":"levelo://app?vid=08b253e1-f984-44a7-af5f-77a50497e2f5"},"vehicle_type_id":"4","last_reported":1736878350,"current_range_meters":32000,"station_id":"ce4bhgp2rcd13ifvqfe0","pricing_plan_id":"cebpf4jnsgd1na2vs0mg"},{"bike_id":"53806ee3-6706-4d9c-b832-5453d847e548","system_id":"levelo_inurba_marseille","lat":43.30094,"lon":5.39083,"is_reserved":false,"is_disabled":false,"rental_uris":{"android":"levelo://app?vid=53806ee3-6706-4d9c-b832-5453d847e548","ios":"levelo://app?vid=53806ee3-6706-4d9c-b832-5453d847e548"},"vehicle_type_id":"4","last_reported":1736878350,"current_range_meters":38800,"station_id":"ce4bh192rcd13ifvqdb0","pricing_plan_id":"cebpf4jnsgd1na2vs0mg"},{"bike_id":"ae6a24c6-71f9-417a-adfe-c09c90280637","system_id":"levelo_inurba_marseille","lat":43.26551,"lon":5.372909,"is_reserved":false,"is_disabled":false,"rental_uris":{"android":"levelo://app?vid=ae6a24c6-71f9-417a-adfe-c09c90280637","ios":"levelo://app?vid=ae6a24c6-71f9-417a-adfe-c09c90280637"},"vehicle_type_id":"4","last_reported":1736878350,"current_range_meters":38800,"station_id":"ce4bhg12rcd13ifvqf70","pricing_plan_id":"cebpf4jnsgd1na2vs0mg"},{"bike_id":"dd770db1-b2f2-4cec-acb1-fe7079c8ffab","system_id":"levelo_inurba_marseille","lat":43.27669,"lon":5.38933,"is_reserved":false,"is_disabled":false,"rental_uris":{"android":"levelo://app?vid=dd770db1-b2f2-4cec-acb1-fe7079c8ffab","ios":"levelo://app?vid=dd770db1-b2f2-4cec-acb1-fe7079c8ffab"},"vehicle_type_id":"4","last_reported":1736878350,"current_range_meters":22400,"station_id":"ce4bhi12rcd13ifvqfo0","pricing_plan_id":"cebpf4jnsgd1na2vs0mg"},{"bike_id":"31ca8b0e-c72e-47d4-a59b-a2766db72931","system_id":"levelo_inurba_marseille","lat":43.28406,"lon":5.40935,"is_reserved":false,"is_disabled":true,"rental_uris":{"android":"levelo://app?vid=31ca8b0e-c72e-47d4-a59b-a2766db72931","ios":"levelo://app?vid=31ca8b0e-c72e-47d4-a59b-a2766db72931"},"vehicle_type_id":"4","last_reported":1736878350,"current_range_meters":34000,"station_id":"","pricing_plan_id":"cebpf4jnsgd1na2vs0mg"},{"bike_id":"ec07fc30-5fe0-438e-a70f-83f634904c78","system_id":"levelo_inurba_marseille","lat":43.26188,"lon":5.37923,"is_reserved":false,"is_disabled":false,"rental_uris":{"android":"levelo://app?vid=ec07fc30-5fe0-438e-a70f-83f634904c78","ios":"levelo://app?vid=ec07fc30-5fe0-438e-a70f-83f634904c78"},"vehicle_type_id":"4","last_reported":1736878350,"current_range_meters":38800,"station_id":"ce4bhjp2rcd13ifvqg90","pricing_plan_id":"cebpf4jnsgd1na2vs0mg"},{"bike_id":"be340c0f-88b7-44d8-9521-d55f30bb2565","system_id":"levelo_inurba_marseille","lat":43.30949,"lon":5.39037,"is_reserved":false,"is_disabled":true,"rental_uris":{"android":"levelo://app?vid=be340c0f-88b7-44d8-9521-d55f30bb2565","ios":"levelo://app?vid=be340c0f-88b7-44d8-9521-d55f30bb2565"},"vehicle_type_id":"4","last_reported":1736878350,"current_range_meters":9200,"station_id":"ce4bgup2rcd13ifvqco0","pricing_plan_id":"cebpf4jnsgd1na2vs0mg"},{"bike_id":"60c48e84-151f-4edd-83cd-789ff87c7f63","system_id":"levelo_inurba_marseille","lat":43.28707,"lon":5.37388,"is_reserved":false,"is_disabled":true,"rental_uris":{"android":"levelo://app?vid=60c48e84-151f-4edd-83cd-789ff87c7f63","ios":"levelo://app?vid=60c48e84-151f-4edd-83cd-789ff87c7f63"},"vehicle_type_id":"4","last_reported":1736878350,"current_range_meters":32400,"station_id":"ce4bh3p2rcd13ifvqdq0","pricing_plan_id":"cebpf4jnsgd1na2vs0mg"},{"bike_id":"d4bd3ca0-48a8-4b8f-8823-cc0d13d0ab16","system_id":"levelo_inurba_marseille","lat":43.28073,"lon":5.39648,"is_reserved":false,"is_disabled":false,"rental_uris":{"android":"levelo://app?vid=d4bd3ca0-48a8-4b8f-8823-cc0d13d0ab16","ios":"levelo://app?vid=d4bd3ca0-48a8-4b8f-8823-cc0d13d0ab16"},"vehicle_type_id":"4","last_reported":1736878350,"current_range_meters":37600,"station_id":"ce4bho12rcd13ifvqh2g","pricing_plan_id":"cebpf4jnsgd1na2vs0mg"},{"bike_id":"fa8a30c7-7295-4469-b66e-9b5a43015aac","system_id":"levelo_inurba_marseille","lat":43.33039,"lon":5.39057,"is_reserved":false,"is_disabled":false,"rental_uris":{"android":"levelo://app?vid=fa8a30c7-7295-4469-b66e-9b5a43015aac","ios":"levelo://app?vid=fa8a30c7-7295-4469-b66e-9b5a43015aac"},"vehicle_type_id":"4","last_reported":1736878350,"current_range_meters":39200,"station_id":"ce4bhr92rcd13ifvqhrg","pricing_plan_id":"cebpf4jnsgd1na2vs0mg"},{"bike_id":"90f49f45-490f-4281-890b-c49241a10d97","system_id":"levelo_inurba_marseille","lat":43.27925,"lon":5.39575,"is_reserved":false,"is_disabled":false,"rental_uris":{"android":"levelo://app?vid=90f49f45-490f-4281-890b-c49241a10d97","ios":"levelo://app?vid=90f49f45-490f-4281-890b-c49241a10d97"},"vehicle_type_id":"4","last_reported":1736878350,"current_range_meters":30400,"station_id":"ce4bhf92rcd13ifvqf40","pricing_plan_id":"cebpf4jnsgd1na2vs0mg"},{"bike_id":"e73e4dfd-c1fe-4807-b6ae-ca82989529eb","system_id":"levelo_inurba_marseille","lat":43.2901,"lon":5.35612,"is_reserved":false,"is_disabled":false,"rental_uris":{"android":"levelo://app?vid=e73e4dfd-c1fe-4807-b6ae-ca82989529eb","ios":"levelo://app?vid=e73e4dfd-c1fe-4807-b6ae-ca82989529eb"},"vehicle_type_id":"4","last_reported":1736878350,"current_range_meters":38800,"station_id":"ce4bhb92rcd13ifvqen0","pricing_plan_id":"cebpf4jnsgd1na2vs0mg"},{"bike_id":"de05f028-7450-4792-8d5b-e268410faa9d","system_id":"levelo_inurba_marseille","lat":43.32095,"lon":5.36788,"is_reserved":false,"is_disabled":false,"rental_uris":{"android":"levelo://app?vid=de05f028-7450-4792-8d5b-e268410faa9d","ios":"levelo://app?vid=de05f028-7450-4792-8d5b-e268410faa9d"},"vehicle_type_id":"4","last_reported":1736878350,"current_range_meters":28000,"station_id":"ce4bhrh2rcd13ifvqhug","pricing_plan_id":"cebpf4jnsgd1na2vs0mg"},{"bike_id":"a476872b-4bd1-41e3-b462-2797bc2f3f0f","system_id":"levelo_inurba_marseille","lat":43.26942,"lon":5.40254,"is_reserved":false,"is_disabled":false,"rental_uris":{"android":"levelo://app?vid=a476872b-4bd1-41e3-b462-2797bc2f3f0f","ios":"levelo://app?vid=a476872b-4bd1-41e3-b462-2797bc2f3f0f"},"vehicle_type_id":"4","last_reported":1736878350,"current_range_meters":3600,"station_id":"cjm6bp8fraef2m0cb0m0","pricing_plan_id":"cebpf4jnsgd1na2vs0mg"},{"bike_id":"12c84dc1-55d9-4869-8c9f-6a156dfc584a","system_id":"levelo_inurba_marseille","lat":43.278215,"lon":5.407074,"is_reserved":false,"is_disabled":false,"rental_uris":{"android":"levelo://app?vid=12c84dc1-55d9-4869-8c9f-6a156dfc584a","ios":"levelo://app?vid=12c84dc1-55d9-4869-8c9f-6a156dfc584a"},"vehicle_type_id":"4","last_reported":1736878350,"current_range_meters":28400,"station_id":"ce4bhnh2rcd13ifvqgtg","pricing_plan_id":"cebpf4jnsgd1na2vs0mg"},{"bike_id":"0205d110-9572-461c-98ee-9e24fca5710f","system_id":"levelo_inurba_marseille","lat":43.29709,"lon":5.36827,"is_reserved":false,"is_disabled":true,"rental_uris":{"android":"levelo://app?vid=0205d110-9572-461c-98ee-9e24fca5710f","ios":"levelo://app?vid=0205d110-9572-461c-98ee-9e24fca5710f"},"vehicle_type_id":"4","last_reported":1736878350,"current_range_meters":2000,"station_id":"ce4bh0h2rcd13ifvqd60","pricing_plan_id":"cebpf4jnsgd1na2vs0mg"},{"bike_id":"d85168cd-cda5-48df-a191-5048004ec8d2","system_id":"levelo_inurba_marseille","lat":43.25105,"lon":5.39515,"is_reserved":false,"is_disabled":false,"rental_uris":{"android":"levelo://app?vid=d85168cd-cda5-48df-a191-5048004ec8d2","ios":"levelo://app?vid=d85168cd-cda5-48df-a191-5048004ec8d2"},"vehicle_type_id":"4","last_reported":1736878350,"current_range_meters":38800,"station_id":"ce4bhm12rcd13ifvqgkg","pricing_plan_id":"cebpf4jnsgd1na2vs0mg"},{"bike_id":"6b45a7a6-bca6-42a8-af1b-5915bb9c80dd","system_id":"levelo_inurba_marseille","lat":43.2481,"lon":5.37447,"is_reserved":false,"is_disabled":false,"rental_uris":{"android":"levelo://app?vid=6b45a7a6-bca6-42a8-af1b-5915bb9c80dd","ios":"levelo://app?vid=6b45a7a6-bca6-42a8-af1b-5915bb9c80dd"},"vehicle_type_id":"4","last_reported":1736878350,"current_range_meters":32800,"station_id":"ce4bhgh2rcd13ifvqfb0","pricing_plan_id":"cebpf4jnsgd1na2vs0mg"},{"bike_id":"0ae8b4de-179e-4dab-b96c-9367ec333264","system_id":"levelo_inurba_marseille","lat":43.27971,"lon":5.38745,"is_reserved":false,"is_disabled":false,"rental_uris":{"android":"levelo://app?vid=0ae8b4de-179e-4dab-b96c-9367ec333264","ios":"levelo://app?vid=0ae8b4de-179e-4dab-b96c-9367ec333264"},"vehicle_type_id":"4","last_reported":1736878350,"current_range_meters":9600,"station_id":"ce4bhg12rcd13ifvqf80","pricing_plan_id":"cebpf4jnsgd1na2vs0mg"},{"bike_id":"8f3d19ca-6788-4fa8-a3b9-31a1f06d17f5","system_id":"levelo_inurba_marseille","lat":43.28048,"lon":5.36943,"is_reserved":false,"is_disabled":false,"rental_uris":{"android":"levelo://app?vid=8f3d19ca-6788-4fa8-a3b9-31a1f06d17f5","ios":"levelo://app?vid=8f3d19ca-6788-4fa8-a3b9-31a1f06d17f5"},"vehicle_type_id":"4","last_reported":1736878350,"current_range_meters":38800,"station_id":"ce4bha12rcd13ifvqef0","pricing_plan_id":"cebpf4jnsgd1na2vs0mg"},{"bike_id":"3a49284c-da1f-4f34-b968-91d028a99a96","system_id":"levelo_inurba_marseille","lat":43.27998,"lon":5.40017,"is_reserved":false,"is_disabled":true,"rental_uris":{"android":"levelo://app?vid=3a49284c-da1f-4f34-b968-91d028a99a96","ios":"levelo://app?vid=3a49284c-da1f-4f34-b968-91d028a99a96"},"vehicle_type_id":"4","last_reported":1736878350,"current_range_meters":800,"station_id":"ce4bho92rcd13ifvqh4g","pricing_plan_id":"cebpf4jnsgd1na2vs0mg"},{"bike_id":"415c44d6-1956-4b43-9753-fb0ed6cfdd93","system_id":"levelo_inurba_marseille","lat":43.26058,"lon":5.39402,"is_reserved":false,"is_disabled":false,"rental_uris":{"android":"levelo://app?vid=415c44d6-1956-4b43-9753-fb0ed6cfdd93","ios":"levelo://app?vid=415c44d6-1956-4b43-9753-fb0ed6cfdd93"},"vehicle_type_id":"4","last_reported":1736878350,"current_range_meters":38800,"station_id":"ce4bhh92rcd13ifvqfj0","pricing_plan_id":"cebpf4jnsgd1na2vs0mg"},{"bike_id":"4617d328-5e3d-47fe-baf1-2f30cf998668","system_id":"levelo_inurba_marseille","lat":43.30403,"lon":5.41291,"is_reserved":false,"is_disabled":false,"rental_uris":{"android":"levelo://app?vid=4617d328-5e3d-47fe-baf1-2f30cf998668","ios":"levelo://app?vid=4617d328-5e3d-47fe-baf1-2f30cf998668"},"vehicle_type_id":"4","last_reported":1736878350,"current_range_meters":38800,"station_id":"ce4bhop2rcd13ifvqh8g","pricing_plan_id":"cebpf4jnsgd1na2vs0mg"},{"bike_id":"6280e12b-8c99-470a-acaf-04cfe5b073d5","system_id":"levelo_inurba_marseille","lat":43.27237,"lon":5.40839,"is_reserved":false,"is_disabled":false,"rental_uris":{"android":"levelo://app?vid=6280e12b-8c99-470a-acaf-04cfe5b073d5","ios":"levelo://app?vid=6280e12b-8c99-470a-acaf-04cfe5b073d5"},"vehicle_type_id":"4","last_reported":1736878350,"current_range_meters":39200,"station_id":"ce4bhl12rcd13ifvqgf0","pricing_plan_id":"cebpf4jnsgd1na2vs0mg"},{"bike_id":"a1d695d9-a774-43ab-b8b8-bffc67e8f15b","system_id":"levelo_inurba_marseille","lat":43.255805,"lon":5.382315,"is_reserved":false,"is_disabled":false,"rental_uris":{"android":"levelo://app?vid=a1d695d9-a774-43ab-b8b8-bffc67e8f15b","ios":"levelo://app?vid=a1d695d9-a774-43ab-b8b8-bffc67e8f15b"},"vehicle_type_id":"4","last_reported":1736878350,"current_range_meters":15200,"station_id":"ce4bhih2rcd13ifvqfs0","pricing_plan_id":"cebpf4jnsgd1na2vs0mg"},{"bike_id":"80147884-a6fb-4e63-95a4-e2d1f8439cf3","system_id":"levelo_inurba_marseille","lat":43.29516,"lon":5.39416,"is_reserved":false,"is_disabled":false,"rental_uris":{"android":"levelo://app?vid=80147884-a6fb-4e63-95a4-e2d1f8439cf3","ios":"levelo://app?vid=80147884-a6fb-4e63-95a4-e2d1f8439cf3"},"vehicle_type_id":"4","last_reported":1736878350,"current_range_meters":36800,"station_id":"ce4bh292rcd13ifvqdf0","pricing_plan_id":"cebpf4jnsgd1na2vs0mg"},{"bike_id":"f62a7ed4-7c80-4ed8-9568-a4dea62069d1","system_id":"levelo_inurba_marseille","lat":43.28109,"lon":5.39664,"is_reserved":false,"is_disabled":false,"rental_uris":{"android":"levelo://app?vid=f62a7ed4-7c80-4ed8-9568-a4dea62069d1","ios":"levelo://app?vid=f62a7ed4-7c80-4ed8-9568-a4dea62069d1"},"vehicle_type_id":"4","last_reported":1736878350,"current_range_meters":24400,"station_id":"ce4bho12rcd13ifvqh2g","pricing_plan_id":"cebpf4jnsgd1na2vs0mg"},{"bike_id":"4467d7f9-67af-4647-b1b3-f3a1d228515b","system_id":"levelo_inurba_marseille","lat":43.26954,"lon":5.38629,"is_reserved":false,"is_disabled":true,"rental_uris":{"android":"levelo://app?vid=4467d7f9-67af-4647-b1b3-f3a1d228515b","ios":"levelo://app?vid=4467d7f9-67af-4647-b1b3-f3a1d228515b"},"vehicle_type_id":"4","last_reported":1736878350,"current_range_meters":1600,"station_id":"ce4bhh92rcd13ifvqfh0","pricing_plan_id":"cebpf4jnsgd1na2vs0mg"},{"bike_id":"710d5833-8ac1-4145-921e-ea3e3ff0b4a7","system_id":"levelo_inurba_marseille","lat":43.28934,"lon":5.36386,"is_reserved":false,"is_disabled":false,"rental_uris":{"android":"levelo://app?vid=710d5833-8ac1-4145-921e-ea3e3ff0b4a7","ios":"levelo://app?vid=710d5833-8ac1-4145-921e-ea3e3ff0b4a7"},"vehicle_type_id":"4","last_reported":1736878350,"current_range_meters":39200,"station_id":"ce4bhc92rcd13ifvqetg","pricing_plan_id":"cebpf4jnsgd1na2vs0mg"},{"bike_id":"2d299aa8-68d1-40ea-a1d0-c766b33ee2bf","system_id":"levelo_inurba_marseille","lat":43.26932,"lon":5.40269,"is_reserved":false,"is_disabled":false,"rental_uris":{"android":"levelo://app?vid=2d299aa8-68d1-40ea-a1d0-c766b33ee2bf","ios":"levelo://app?vid=2d299aa8-68d1-40ea-a1d0-c766b33ee2bf"},"vehicle_type_id":"4","last_reported":1736878350,"current_range_meters":39200,"station_id":"cjm6bp8fraef2m0cb0m0","pricing_plan_id":"cebpf4jnsgd1na2vs0mg"},{"bike_id":"11f8d0bd-700f-44c3-884c-632478828218","system_id":"levelo_inurba_marseille","lat":43.28608,"lon":5.35102,"is_reserved":false,"is_disabled":false,"rental_uris":{"android":"levelo://app?vid=11f8d0bd-700f-44c3-884c-632478828218","ios":"levelo://app?vid=11f8d0bd-700f-44c3-884c-632478828218"},"vehicle_type_id":"4","last_reported":1736878350,"current_range_meters":9600,"station_id":"ce4bhch2rcd13ifvqeug","pricing_plan_id":"cebpf4jnsgd1na2vs0mg"},{"bike_id":"b052cadf-6839-4734-be0b-a3a9cd31d0d9","system_id":"levelo_inurba_marseille","lat":43.29296,"lon":5.37465,"is_reserved":false,"is_disabled":false,"rental_uris":{"android":"levelo://app?vid=b052cadf-6839-4734-be0b-a3a9cd31d0d9","ios":"levelo://app?vid=b052cadf-6839-4734-be0b-a3a9cd31d0d9"},"vehicle_type_id":"4","last_reported":1736878350,"current_range_meters":20000,"station_id":"ce4bgi12rcd13ifvqb70","pricing_plan_id":"cebpf4jnsgd1na2vs0mg"},{"bike_id":"8534aaf4-535f-4db5-8998-0f97ef68ef36","system_id":"levelo_inurba_marseille","lat":43.24391,"lon":5.37076,"is_reserved":false,"is_disabled":false,"rental_uris":{"android":"levelo://app?vid=8534aaf4-535f-4db5-8998-0f97ef68ef36","ios":"levelo://app?vid=8534aaf4-535f-4db5-8998-0f97ef68ef36"},"vehicle_type_id":"4","last_reported":1736878350,"current_range_meters":18800,"station_id":"ce4bhhh2rcd13ifvqfk0","pricing_plan_id":"cebpf4jnsgd1na2vs0mg"},{"bike_id":"b2c33e7b-da8a-4cda-ab12-4bcf5000aca5","system_id":"levelo_inurba_marseille","lat":43.2762,"lon":5.36104,"is_reserved":false,"is_disabled":false,"rental_uris":{"android":"levelo://app?vid=b2c33e7b-da8a-4cda-ab12-4bcf5000aca5","ios":"levelo://app?vid=b2c33e7b-da8a-4cda-ab12-4bcf5000aca5"},"vehicle_type_id":"4","last_reported":1736878350,"current_range_meters":31200,"station_id":"ce4bgj92rcd13ifvqbe0","pricing_plan_id":"cebpf4jnsgd1na2vs0mg"},{"bike_id":"52990b6b-1289-4b54-b397-98e026073ee1","system_id":"levelo_inurba_marseille","lat":43.25582,"lon":5.38234,"is_reserved":false,"is_disabled":false,"rental_uris":{"android":"levelo://app?vid=52990b6b-1289-4b54-b397-98e026073ee1","ios":"levelo://app?vid=52990b6b-1289-4b54-b397-98e026073ee1"},"vehicle_type_id":"4","last_reported":1736878350,"current_range_meters":19200,"station_id":"ce4bhih2rcd13ifvqfs0","pricing_plan_id":"cebpf4jnsgd1na2vs0mg"},{"bike_id":"9ffd92fb-e8e6-495d-8c00-95bb8c668b59","system_id":"levelo_inurba_marseille","lat":43.29226,"lon":5.36017,"is_reserved":false,"is_disabled":false,"rental_uris":{"android":"levelo://app?vid=9ffd92fb-e8e6-495d-8c00-95bb8c668b59","ios":"levelo://app?vid=9ffd92fb-e8e6-495d-8c00-95bb8c668b59"},"vehicle_type_id":"4","last_reported":1736878350,"current_range_meters":36000,"station_id":"ce4bhbh2rcd13ifvqeqg","pricing_plan_id":"cebpf4jnsgd1na2vs0mg"},{"bike_id":"1c21871d-2c19-4086-b1d1-8033834ad37d","system_id":"levelo_inurba_marseille","lat":43.27917,"lon":5.39589,"is_reserved":false,"is_disabled":false,"rental_uris":{"android":"levelo://app?vid=1c21871d-2c19-4086-b1d1-8033834ad37d","ios":"levelo://app?vid=1c21871d-2c19-4086-b1d1-8033834ad37d"},"vehicle_type_id":"4","last_reported":1736878350,"current_range_meters":38000,"station_id":"ce4bhf92rcd13ifvqf40","pricing_plan_id":"cebpf4jnsgd1na2vs0mg"},{"bike_id":"6749cc36-3616-4588-a142-27ed7a54bc7d","system_id":"levelo_inurba_marseille","lat":43.25589,"lon":5.3823,"is_reserved":false,"is_disabled":false,"rental_uris":{"android":"levelo://app?vid=6749cc36-3616-4588-a142-27ed7a54bc7d","ios":"levelo://app?vid=6749cc36-3616-4588-a142-27ed7a54bc7d"},"vehicle_type_id":"4","last_reported":1736878350,"current_range_meters":38000,"station_id":"ce4bhih2rcd13ifvqfs0","pricing_plan_id":"cebpf4jnsgd1na2vs0mg"},{"bike_id":"20e1393f-328a-4292-8527-a5c73d24ceaf","system_id":"levelo_inurba_marseille","lat":43.27317,"lon":5.39096,"is_reserved":false,"is_disabled":false,"rental_uris":{"android":"levelo://app?vid=20e1393f-328a-4292-8527-a5c73d24ceaf","ios":"levelo://app?vid=20e1393f-328a-4292-8527-a5c73d24ceaf"},"vehicle_type_id":"4","last_reported":1736878350,"current_range_meters":4800,"station_id":"ce4bhgp2rcd13ifvqfe0","pricing_plan_id":"cebpf4jnsgd1na2vs0mg"},{"bike_id":"ac91cee6-cd95-4718-860e-26f1ba607255","system_id":"levelo_inurba_marseille","lat":43.29274,"lon":5.40119,"is_reserved":false,"is_disabled":true,"rental_uris":{"android":"levelo://app?vid=ac91cee6-cd95-4718-860e-26f1ba607255","ios":"levelo://app?vid=ac91cee6-cd95-4718-860e-26f1ba607255"},"vehicle_type_id":"4","last_reported":1736878350,"current_range_meters":2000,"station_id":"ce4bh312rcd13ifvqdk0","pricing_plan_id":"cebpf4jnsgd1na2vs0mg"},{"bike_id":"8e0499ea-662e-47b6-9895-fccb25a5f954","system_id":"levelo_inurba_marseille","lat":43.29536,"lon":5.39401,"is_reserved":false,"is_disabled":true,"rental_uris":{"android":"levelo://app?vid=8e0499ea-662e-47b6-9895-fccb25a5f954","ios":"levelo://app?vid=8e0499ea-662e-47b6-9895-fccb25a5f954"},"vehicle_type_id":"4","last_reported":1736878350,"current_range_meters":2000,"station_id":"ce4bh292rcd13ifvqdf0","pricing_plan_id":"cebpf4jnsgd1na2vs0mg"},{"bike_id":"390898bd-c053-45d9-949a-cd0fc4710f0b","system_id":"levelo_inurba_marseille","lat":43.30119,"lon":5.39863,"is_reserved":false,"is_disabled":false,"rental_uris":{"android":"levelo://app?vid=390898bd-c053-45d9-949a-cd0fc4710f0b","ios":"levelo://app?vid=390898bd-c053-45d9-949a-cd0fc4710f0b"},"vehicle_type_id":"4","last_reported":1736878350,"current_range_meters":16400,"station_id":"ce4bh0h2rcd13ifvqd40","pricing_plan_id":"cebpf4jnsgd1na2vs0mg"},{"bike_id":"53abd080-d75f-42c8-bffa-784c1dff173c","system_id":"levelo_inurba_marseille","lat":43.29669,"lon":5.37594,"is_reserved":false,"is_disabled":false,"rental_uris":{"android":"levelo://app?vid=53abd080-d75f-42c8-bffa-784c1dff173c","ios":"levelo://app?vid=53abd080-d75f-42c8-bffa-784c1dff173c"},"vehicle_type_id":"4","last_reported":1736878350,"current_range_meters":4800,"station_id":"ce4bgkh2rcd13ifvqbl0","pricing_plan_id":"cebpf4jnsgd1na2vs0mg"},{"bike_id":"7c6f01a9-52ac-448d-9ae7-465dd3489077","system_id":"levelo_inurba_marseille","lat":43.29816,"lon":5.40403,"is_reserved":false,"is_disabled":false,"rental_uris":{"android":"levelo://app?vid=7c6f01a9-52ac-448d-9ae7-465dd3489077","ios":"levelo://app?vid=7c6f01a9-52ac-448d-9ae7-465dd3489077"},"vehicle_type_id":"4","last_reported":1736878350,"current_range_meters":29600,"station_id":"ce4bh112rcd13ifvqd90","pricing_plan_id":"cebpf4jnsgd1na2vs0mg"},{"bike_id":"41922604-c7b8-4e93-9da5-3903771d7233","system_id":"levelo_inurba_marseille","lat":43.24816,"lon":5.37459,"is_reserved":false,"is_disabled":false,"rental_uris":{"android":"levelo://app?vid=41922604-c7b8-4e93-9da5-3903771d7233","ios":"levelo://app?vid=41922604-c7b8-4e93-9da5-3903771d7233"},"vehicle_type_id":"4","last_reported":1736878350,"current_range_meters":20800,"station_id":"ce4bhgh2rcd13ifvqfb0","pricing_plan_id":"cebpf4jnsgd1na2vs0mg"},{"bike_id":"35651aec-1e61-4ea9-88e4-7b78052504d8","system_id":"levelo_inurba_marseille","lat":43.28464,"lon":5.35879,"is_reserved":false,"is_disabled":false,"rental_uris":{"android":"levelo://app?vid=35651aec-1e61-4ea9-88e4-7b78052504d8","ios":"levelo://app?vid=35651aec-1e61-4ea9-88e4-7b78052504d8"},"vehicle_type_id":"4","last_reported":1736878350,"current_range_meters":22400,"station_id":"ce4bhah2rcd13ifvqei0","pricing_plan_id":"cebpf4jnsgd1na2vs0mg"},{"bike_id":"f94df94d-bc8f-423a-851a-769fb61ed24d","system_id":"levelo_inurba_marseille","lat":43.26556,"lon":5.373,"is_reserved":false,"is_disabled":false,"rental_uris":{"android":"levelo://app?vid=f94df94d-bc8f-423a-851a-769fb61ed24d","ios":"levelo://app?vid=f94df94d-bc8f-423a-851a-769fb61ed24d"},"vehicle_type_id":"4","last_reported":1736878350,"current_range_meters":27600,"station_id":"ce4bhg12rcd13ifvqf70","pricing_plan_id":"cebpf4jnsgd1na2vs0mg"},{"bike_id":"758f9211-6132-4c92-b10e-f0fa852ed782","system_id":"levelo_inurba_marseille","lat":43.29979,"lon":5.38497,"is_reserved":false,"is_disabled":false,"rental_uris":{"android":"levelo://app?vid=758f9211-6132-4c92-b10e-f0fa852ed782","ios":"levelo://app?vid=758f9211-6132-4c92-b10e-f0fa852ed782"},"vehicle_type_id":"4","last_reported":1736878350,"current_range_meters":9600,"station_id":"ce4bgj92rcd13ifvqbd0","pricing_plan_id":"cebpf4jnsgd1na2vs0mg"},{"bike_id":"569d53a6-cddc-4ec0-9696-edd25f266c81","system_id":"levelo_inurba_marseille","lat":43.31329,"lon":5.39691,"is_reserved":false,"is_disabled":false,"rental_uris":{"android":"levelo://app?vid=569d53a6-cddc-4ec0-9696-edd25f266c81","ios":"levelo://app?vid=569d53a6-cddc-4ec0-9696-edd25f266c81"},"vehicle_type_id":"4","last_reported":1736878350,"current_range_meters":26000,"station_id":"ce4bgvp2rcd13ifvqcu0","pricing_plan_id":"cebpf4jnsgd1na2vs0mg"},{"bike_id":"d8b7e460-de0d-4eae-8533-6e5de96e9cea","system_id":"levelo_inurba_marseille","lat":43.28618,"lon":5.35094,"is_reserved":false,"is_disabled":false,"rental_uris":{"android":"levelo://app?vid=d8b7e460-de0d-4eae-8533-6e5de96e9cea","ios":"levelo://app?vid=d8b7e460-de0d-4eae-8533-6e5de96e9cea"},"vehicle_type_id":"4","last_reported":1736878350,"current_range_meters":27600,"station_id":"ce4bhch2rcd13ifvqeug","pricing_plan_id":"cebpf4jnsgd1na2vs0mg"},{"bike_id":"b22d77c3-f37f-47b6-bfd3-17f35050e9db","system_id":"levelo_inurba_marseille","lat":43.27626,"lon":5.36103,"is_reserved":false,"is_disabled":false,"rental_uris":{"android":"levelo://app?vid=b22d77c3-f37f-47b6-bfd3-17f35050e9db","ios":"levelo://app?vid=b22d77c3-f37f-47b6-bfd3-17f35050e9db"},"vehicle_type_id":"4","last_reported":1736878350,"current_range_meters":6400,"station_id":"ce4bgj92rcd13ifvqbe0","pricing_plan_id":"cebpf4jnsgd1na2vs0mg"},{"bike_id":"70a4d228-2c41-4af9-a3eb-23abb00e4e21","system_id":"levelo_inurba_marseille","lat":43.26063,"lon":5.39392,"is_reserved":false,"is_disabled":false,"rental_uris":{"android":"levelo://app?vid=70a4d228-2c41-4af9-a3eb-23abb00e4e21","ios":"levelo://app?vid=70a4d228-2c41-4af9-a3eb-23abb00e4e21"},"vehicle_type_id":"4","last_reported":1736878350,"current_range_meters":12400,"station_id":"ce4bhh92rcd13ifvqfj0","pricing_plan_id":"cebpf4jnsgd1na2vs0mg"},{"bike_id":"3aa64f18-71b8-4da6-835c-182b3c268f2a","system_id":"levelo_inurba_marseille","lat":43.25119,"lon":5.40322,"is_reserved":false,"is_disabled":false,"rental_uris":{"android":"levelo://app?vid=3aa64f18-71b8-4da6-835c-182b3c268f2a","ios":"levelo://app?vid=3aa64f18-71b8-4da6-835c-182b3c268f2a"},"vehicle_type_id":"4","last_reported":1736878350,"current_range_meters":4400,"station_id":"ce4bhlh2rcd13ifvqgig","pricing_plan_id":"cebpf4jnsgd1na2vs0mg"},{"bike_id":"4d8437e4-4ee4-410b-94a1-cf5854e5c5d5","system_id":"levelo_inurba_marseille","lat":43.27967,"lon":5.38741,"is_reserved":false,"is_disabled":false,"rental_uris":{"android":"levelo://app?vid=4d8437e4-4ee4-410b-94a1-cf5854e5c5d5","ios":"levelo://app?vid=4d8437e4-4ee4-410b-94a1-cf5854e5c5d5"},"vehicle_type_id":"4","last_reported":1736878350,"current_range_meters":26800,"station_id":"ce4bhg12rcd13ifvqf80","pricing_plan_id":"cebpf4jnsgd1na2vs0mg"},{"bike_id":"d77ab8eb-301d-4932-9ae3-5faf3425ea34","system_id":"levelo_inurba_marseille","lat":43.25865,"lon":5.39911,"is_reserved":false,"is_disabled":false,"rental_uris":{"android":"levelo://app?vid=d77ab8eb-301d-4932-9ae3-5faf3425ea34","ios":"levelo://app?vid=d77ab8eb-301d-4932-9ae3-5faf3425ea34"},"vehicle_type_id":"4","last_reported":1736878350,"current_range_meters":25200,"station_id":"ce4bhl92rcd13ifvqghg","pricing_plan_id":"cebpf4jnsgd1na2vs0mg"},{"bike_id":"c0d8b23d-d2e7-46ce-a092-7f8459dc28ce","system_id":"levelo_inurba_marseille","lat":43.2762,"lon":5.36104,"is_reserved":false,"is_disabled":false,"rental_uris":{"android":"levelo://app?vid=c0d8b23d-d2e7-46ce-a092-7f8459dc28ce","ios":"levelo://app?vid=c0d8b23d-d2e7-46ce-a092-7f8459dc28ce"},"vehicle_type_id":"4","last_reported":1736878350,"current_range_meters":18000,"station_id":"ce4bgj92rcd13ifvqbe0","pricing_plan_id":"cebpf4jnsgd1na2vs0mg"},{"bike_id":"d7ca5915-338f-46db-8725-b258ca726a1c","system_id":"levelo_inurba_marseille","lat":43.28416,"lon":5.37513,"is_reserved":false,"is_disabled":false,"rental_uris":{"android":"levelo://app?vid=d7ca5915-338f-46db-8725-b258ca726a1c","ios":"levelo://app?vid=d7ca5915-338f-46db-8725-b258ca726a1c"},"vehicle_type_id":"4","last_reported":1736878350,"current_range_meters":22400,"station_id":"ce4bh412rcd13ifvqds0","pricing_plan_id":"cebpf4jnsgd1na2vs0mg"},{"bike_id":"5bb528b0-7ae2-48e6-ab60-167f85952f7b","system_id":"levelo_inurba_marseille","lat":43.28686,"lon":5.37393,"is_reserved":false,"is_disabled":false,"rental_uris":{"android":"levelo://app?vid=5bb528b0-7ae2-48e6-ab60-167f85952f7b","ios":"levelo://app?vid=5bb528b0-7ae2-48e6-ab60-167f85952f7b"},"vehicle_type_id":"4","last_reported":1736878350,"current_range_meters":38800,"station_id":"ce4bh3p2rcd13ifvqdq0","pricing_plan_id":"cebpf4jnsgd1na2vs0mg"},{"bike_id":"6bb2a9dd-2049-4974-8931-6d69319eec85","system_id":"levelo_inurba_marseille","lat":43.31278,"lon":5.4017,"is_reserved":false,"is_disabled":false,"rental_uris":{"android":"levelo://app?vid=6bb2a9dd-2049-4974-8931-6d69319eec85","ios":"levelo://app?vid=6bb2a9dd-2049-4974-8931-6d69319eec85"},"vehicle_type_id":"4","last_reported":1736878350,"current_range_meters":16800,"station_id":"ce4bh092rcd13ifvqd30","pricing_plan_id":"cebpf4jnsgd1na2vs0mg"},{"bike_id":"bc7cbd3a-2d37-47d2-82ab-7d9ef974d706","system_id":"levelo_inurba_marseille","lat":43.30145,"lon":5.39859,"is_reserved":false,"is_disabled":false,"rental_uris":{"android":"levelo://app?vid=bc7cbd3a-2d37-47d2-82ab-7d9ef974d706","ios":"levelo://app?vid=bc7cbd3a-2d37-47d2-82ab-7d9ef974d706"},"vehicle_type_id":"4","last_reported":1736878350,"current_range_meters":23200,"station_id":"ce4bh0h2rcd13ifvqd40","pricing_plan_id":"cebpf4jnsgd1na2vs0mg"},{"bike_id":"eb228bcf-88cc-4bca-bb8a-654cc00e0035","system_id":"levelo_inurba_marseille","lat":43.27563,"lon":5.38409,"is_reserved":false,"is_disabled":false,"rental_uris":{"android":"levelo://app?vid=eb228bcf-88cc-4bca-bb8a-654cc00e0035","ios":"levelo://app?vid=eb228bcf-88cc-4bca-bb8a-654cc00e0035"},"vehicle_type_id":"4","last_reported":1736878350,"current_range_meters":38400,"station_id":"ce4bhh92rcd13ifvqfi0","pricing_plan_id":"cebpf4jnsgd1na2vs0mg"},{"bike_id":"1dc64d76-fff0-460c-af84-eaea7614f529","system_id":"levelo_inurba_marseille","lat":43.26945,"lon":5.40243,"is_reserved":false,"is_disabled":false,"rental_uris":{"android":"levelo://app?vid=1dc64d76-fff0-460c-af84-eaea7614f529","ios":"levelo://app?vid=1dc64d76-fff0-460c-af84-eaea7614f529"},"vehicle_type_id":"4","last_reported":1736878350,"current_range_meters":39200,"station_id":"cjm6bp8fraef2m0cb0m0","pricing_plan_id":"cebpf4jnsgd1na2vs0mg"},{"bike_id":"1a9e2fd5-2f08-4821-a0e8-5a79147c0238","system_id":"levelo_inurba_marseille","lat":43.27916,"lon":5.3959,"is_reserved":false,"is_disabled":false,"rental_uris":{"android":"levelo://app?vid=1a9e2fd5-2f08-4821-a0e8-5a79147c0238","ios":"levelo://app?vid=1a9e2fd5-2f08-4821-a0e8-5a79147c0238"},"vehicle_type_id":"4","last_reported":1736878350,"current_range_meters":24800,"station_id":"ce4bhf92rcd13ifvqf40","pricing_plan_id":"cebpf4jnsgd1na2vs0mg"},{"bike_id":"954e7e10-b6f6-467c-9afa-6c78409d184e","system_id":"levelo_inurba_marseille","lat":43.27943,"lon":5.41047,"is_reserved":false,"is_disabled":false,"rental_uris":{"android":"levelo://app?vid=954e7e10-b6f6-467c-9afa-6c78409d184e","ios":"levelo://app?vid=954e7e10-b6f6-467c-9afa-6c78409d184e"},"vehicle_type_id":"4","last_reported":1736878350,"current_range_meters":36000,"station_id":"ce4bhnp2rcd13ifvqh0g","pricing_plan_id":"cebpf4jnsgd1na2vs0mg"},{"bike_id":"c0fd2063-31ae-4171-af17-771dbb4fa212","system_id":"levelo_inurba_marseille","lat":43.229424,"lon":5.353825,"is_reserved":false,"is_disabled":false,"rental_uris":{"android":"levelo://app?vid=c0fd2063-31ae-4171-af17-771dbb4fa212","ios":"levelo://app?vid=c0fd2063-31ae-4171-af17-771dbb4fa212"},"vehicle_type_id":"4","last_reported":1736878350,"current_range_meters":38800,"station_id":"cpo3532slgdg3j2ikp40","pricing_plan_id":"cebpf4jnsgd1na2vs0mg"},{"bike_id":"ada1886b-f530-494e-a06c-b4cbe32a84ad","system_id":"levelo_inurba_marseille","lat":43.28702,"lon":5.3738,"is_reserved":false,"is_disabled":false,"rental_uris":{"android":"levelo://app?vid=ada1886b-f530-494e-a06c-b4cbe32a84ad","ios":"levelo://app?vid=ada1886b-f530-494e-a06c-b4cbe32a84ad"},"vehicle_type_id":"4","last_reported":1736878350,"current_range_meters":35600,"station_id":"ce4bh3p2rcd13ifvqdq0","pricing_plan_id":"cebpf4jnsgd1na2vs0mg"},{"bike_id":"d8e43bb4-3b78-4764-b554-5dbfd1342833","system_id":"levelo_inurba_marseille","lat":43.30213,"lon":5.39466,"is_reserved":false,"is_disabled":false,"rental_uris":{"android":"levelo://app?vid=d8e43bb4-3b78-4764-b554-5dbfd1342833","ios":"levelo://app?vid=d8e43bb4-3b78-4764-b554-5dbfd1342833"},"vehicle_type_id":"4","last_reported":1736878350,"current_range_meters":27200,"station_id":"ce4bh0p2rcd13ifvqd70","pricing_plan_id":"cebpf4jnsgd1na2vs0mg"},{"bike_id":"49859924-9449-4404-b4e0-04b6ddce7f36","system_id":"levelo_inurba_marseille","lat":43.27374,"lon":5.36255,"is_reserved":false,"is_disabled":false,"rental_uris":{"android":"levelo://app?vid=49859924-9449-4404-b4e0-04b6ddce7f36","ios":"levelo://app?vid=49859924-9449-4404-b4e0-04b6ddce7f36"},"vehicle_type_id":"4","last_reported":1736878350,"current_range_meters":33200,"station_id":"ce4bhbh2rcd13ifvqeo0","pricing_plan_id":"cebpf4jnsgd1na2vs0mg"},{"bike_id":"712b45dd-a62b-4ab4-89ec-fdc2325c54a6","system_id":"levelo_inurba_marseille","lat":43.29025,"lon":5.38125,"is_reserved":false,"is_disabled":true,"rental_uris":{"android":"levelo://app?vid=712b45dd-a62b-4ab4-89ec-fdc2325c54a6","ios":"levelo://app?vid=712b45dd-a62b-4ab4-89ec-fdc2325c54a6"},"vehicle_type_id":"4","last_reported":1736878350,"current_range_meters":0,"station_id":"ce4bh4p2rcd13ifvqe1g","pricing_plan_id":"cebpf4jnsgd1na2vs0mg"},{"bike_id":"8e1700e2-2825-47f3-9373-6fc227095b7d","system_id":"levelo_inurba_marseille","lat":43.24163,"lon":5.36397,"is_reserved":false,"is_disabled":false,"rental_uris":{"android":"levelo://app?vid=8e1700e2-2825-47f3-9373-6fc227095b7d","ios":"levelo://app?vid=8e1700e2-2825-47f3-9373-6fc227095b7d"},"vehicle_type_id":"4","last_reported":1736878350,"current_range_meters":38000,"station_id":"cpo36qri1sfpv3e86is0","pricing_plan_id":"cebpf4jnsgd1na2vs0mg"},{"bike_id":"e5573715-09fa-4dab-b1d8-e7410696aa39","system_id":"levelo_inurba_marseille","lat":43.32348,"lon":5.36734,"is_reserved":false,"is_disabled":false,"rental_uris":{"android":"levelo://app?vid=e5573715-09fa-4dab-b1d8-e7410696aa39","ios":"levelo://app?vid=e5573715-09fa-4dab-b1d8-e7410696aa39"},"vehicle_type_id":"4","last_reported":1736878350,"current_range_meters":24000,"station_id":"ce4bhsh2rcd13ifvqi2g","pricing_plan_id":"cebpf4jnsgd1na2vs0mg"},{"bike_id":"f1a1cccd-5438-4540-9120-17deadbb6783","system_id":"levelo_inurba_marseille","lat":43.25102,"lon":5.40328,"is_reserved":false,"is_disabled":false,"rental_uris":{"android":"levelo://app?vid=f1a1cccd-5438-4540-9120-17deadbb6783","ios":"levelo://app?vid=f1a1cccd-5438-4540-9120-17deadbb6783"},"vehicle_type_id":"4","last_reported":1736878350,"current_range_meters":6800,"station_id":"ce4bhlh2rcd13ifvqgig","pricing_plan_id":"cebpf4jnsgd1na2vs0mg"},{"bike_id":"0d943b41-f3df-4abc-aa29-af3ddc606520","system_id":"levelo_inurba_marseille","lat":43.25877,"lon":5.39908,"is_reserved":false,"is_disabled":false,"rental_uris":{"android":"levelo://app?vid=0d943b41-f3df-4abc-aa29-af3ddc606520","ios":"levelo://app?vid=0d943b41-f3df-4abc-aa29-af3ddc606520"},"vehicle_type_id":"4","last_reported":1736878350,"current_range_meters":30400,"station_id":"ce4bhl92rcd13ifvqghg","pricing_plan_id":"cebpf4jnsgd1na2vs0mg"},{"bike_id":"4a4d296c-e71a-4d73-8515-0b49a9079d8d","system_id":"levelo_inurba_marseille","lat":43.231853,"lon":5.399804,"is_reserved":false,"is_disabled":false,"rental_uris":{"android":"levelo://app?vid=4a4d296c-e71a-4d73-8515-0b49a9079d8d","ios":"levelo://app?vid=4a4d296c-e71a-4d73-8515-0b49a9079d8d"},"vehicle_type_id":"4","last_reported":1736878350,"current_range_meters":28400,"station_id":"ce4bhn12rcd13ifvqgqg","pricing_plan_id":"cebpf4jnsgd1na2vs0mg"},{"bike_id":"d28c64db-672d-4dc2-9aa8-36d7327fadae","system_id":"levelo_inurba_marseille","lat":43.31425,"lon":5.37402,"is_reserved":false,"is_disabled":false,"rental_uris":{"android":"levelo://app?vid=d28c64db-672d-4dc2-9aa8-36d7327fadae","ios":"levelo://app?vid=d28c64db-672d-4dc2-9aa8-36d7327fadae"},"vehicle_type_id":"4","last_reported":1736878350,"current_range_meters":10800,"station_id":"","pricing_plan_id":"cebpf4jnsgd1na2vs0mg"},{"bike_id":"b438a536-2826-455d-89c2-219747efc24e","system_id":"levelo_inurba_marseille","lat":43.27365,"lon":5.3625,"is_reserved":false,"is_disabled":false,"rental_uris":{"android":"levelo://app?vid=b438a536-2826-455d-89c2-219747efc24e","ios":"levelo://app?vid=b438a536-2826-455d-89c2-219747efc24e"},"vehicle_type_id":"4","last_reported":1736878350,"current_range_meters":11200,"station_id":"ce4bhbh2rcd13ifvqeo0","pricing_plan_id":"cebpf4jnsgd1na2vs0mg"},{"bike_id":"6027163c-6e0b-44a2-bfed-3a477a83b455","system_id":"levelo_inurba_marseille","lat":43.31714,"lon":5.37761,"is_reserved":false,"is_disabled":true,"rental_uris":{"android":"levelo://app?vid=6027163c-6e0b-44a2-bfed-3a477a83b455","ios":"levelo://app?vid=6027163c-6e0b-44a2-bfed-3a477a83b455"},"vehicle_type_id":"4","last_reported":1736878350,"current_range_meters":38800,"station_id":"ce4bgth2rcd13ifvqch0","pricing_plan_id":"cebpf4jnsgd1na2vs0mg"},{"bike_id":"fafb8cb8-a241-43cf-b448-6eabc4538c06","system_id":"levelo_inurba_marseille","lat":43.29808,"lon":5.40401,"is_reserved":false,"is_disabled":false,"rental_uris":{"android":"levelo://app?vid=fafb8cb8-a241-43cf-b448-6eabc4538c06","ios":"levelo://app?vid=fafb8cb8-a241-43cf-b448-6eabc4538c06"},"vehicle_type_id":"4","last_reported":1736878350,"current_range_meters":30400,"station_id":"ce4bh112rcd13ifvqd90","pricing_plan_id":"cebpf4jnsgd1na2vs0mg"},{"bike_id":"100ca39d-2ece-4755-a16f-6e08b6d46318","system_id":"levelo_inurba_marseille","lat":43.29558,"lon":5.42303,"is_reserved":false,"is_disabled":false,"rental_uris":{"android":"levelo://app?vid=100ca39d-2ece-4755-a16f-6e08b6d46318","ios":"levelo://app?vid=100ca39d-2ece-4755-a16f-6e08b6d46318"},"vehicle_type_id":"4","last_reported":1736878350,"current_range_meters":9200,"station_id":"ce4bhph2rcd13ifvqhdg","pricing_plan_id":"cebpf4jnsgd1na2vs0mg"},{"bike_id":"4725ae05-b600-47b7-ba70-7352c8181ea5","system_id":"levelo_inurba_marseille","lat":43.27418,"lon":5.39034,"is_reserved":false,"is_disabled":true,"rental_uris":{"android":"levelo://app?vid=4725ae05-b600-47b7-ba70-7352c8181ea5","ios":"levelo://app?vid=4725ae05-b600-47b7-ba70-7352c8181ea5"},"vehicle_type_id":"4","last_reported":1736878350,"current_range_meters":0,"station_id":"","pricing_plan_id":"cebpf4jnsgd1na2vs0mg"},{"bike_id":"729ba7c3-1236-467c-9a93-704ff6227d82","system_id":"levelo_inurba_marseille","lat":43.26557,"lon":5.37282,"is_reserved":false,"is_disabled":false,"rental_uris":{"android":"levelo://app?vid=729ba7c3-1236-467c-9a93-704ff6227d82","ios":"levelo://app?vid=729ba7c3-1236-467c-9a93-704ff6227d82"},"vehicle_type_id":"4","last_reported":1736878350,"current_range_meters":38800,"station_id":"ce4bhg12rcd13ifvqf70","pricing_plan_id":"cebpf4jnsgd1na2vs0mg"},{"bike_id":"ef58bffb-9308-4166-b40c-acc9cd851305","system_id":"levelo_inurba_marseille","lat":43.3211,"lon":5.36782,"is_reserved":false,"is_disabled":false,"rental_uris":{"android":"levelo://app?vid=ef58bffb-9308-4166-b40c-acc9cd851305","ios":"levelo://app?vid=ef58bffb-9308-4166-b40c-acc9cd851305"},"vehicle_type_id":"4","last_reported":1736878350,"current_range_meters":8000,"station_id":"ce4bhrh2rcd13ifvqhug","pricing_plan_id":"cebpf4jnsgd1na2vs0mg"},{"bike_id":"b88c90d6-bea0-463a-a894-59466dc2047d","system_id":"levelo_inurba_marseille","lat":43.31704,"lon":5.37742,"is_reserved":false,"is_disabled":false,"rental_uris":{"android":"levelo://app?vid=b88c90d6-bea0-463a-a894-59466dc2047d","ios":"levelo://app?vid=b88c90d6-bea0-463a-a894-59466dc2047d"},"vehicle_type_id":"4","last_reported":1736878350,"current_range_meters":38800,"station_id":"ce4bgth2rcd13ifvqch0","pricing_plan_id":"cebpf4jnsgd1na2vs0mg"},{"bike_id":"90f38b11-a619-4e07-b2a7-d1b4380ae783","system_id":"levelo_inurba_marseille","lat":43.31125,"lon":5.37781,"is_reserved":false,"is_disabled":false,"rental_uris":{"android":"levelo://app?vid=90f38b11-a619-4e07-b2a7-d1b4380ae783","ios":"levelo://app?vid=90f38b11-a619-4e07-b2a7-d1b4380ae783"},"vehicle_type_id":"4","last_reported":1736878350,"current_range_meters":38000,"station_id":"ce4bgt92rcd13ifvqcg0","pricing_plan_id":"cebpf4jnsgd1na2vs0mg"},{"bike_id":"b9972fcc-0a31-486a-944e-571d89f130a5","system_id":"levelo_inurba_marseille","lat":43.28802,"lon":5.38017,"is_reserved":false,"is_disabled":false,"rental_uris":{"android":"levelo://app?vid=b9972fcc-0a31-486a-944e-571d89f130a5","ios":"levelo://app?vid=b9972fcc-0a31-486a-944e-571d89f130a5"},"vehicle_type_id":"4","last_reported":1736878350,"current_range_meters":38000,"station_id":"","pricing_plan_id":"cebpf4jnsgd1na2vs0mg"},{"bike_id":"7996be5a-01b2-471c-a352-a17a5e9caf87","system_id":"levelo_inurba_marseille","lat":43.27811,"lon":5.40721,"is_reserved":false,"is_disabled":false,"rental_uris":{"android":"levelo://app?vid=7996be5a-01b2-471c-a352-a17a5e9caf87","ios":"levelo://app?vid=7996be5a-01b2-471c-a352-a17a5e9caf87"},"vehicle_type_id":"4","last_reported":1736878350,"current_range_meters":38000,"station_id":"ce4bhnh2rcd13ifvqgtg","pricing_plan_id":"cebpf4jnsgd1na2vs0mg"},{"bike_id":"2797dfae-3177-47c3-8ddf-a9a9f37d5be1","system_id":"levelo_inurba_marseille","lat":43.28105,"lon":5.37849,"is_reserved":false,"is_disabled":false,"rental_uris":{"android":"levelo://app?vid=2797dfae-3177-47c3-8ddf-a9a9f37d5be1","ios":"levelo://app?vid=2797dfae-3177-47c3-8ddf-a9a9f37d5be1"},"vehicle_type_id":"4","last_reported":1736878350,"current_range_meters":22400,"station_id":"ce4bha12rcd13ifvqee0","pricing_plan_id":"cebpf4jnsgd1na2vs0mg"},{"bike_id":"20f47a16-142e-4016-b800-916ad9b55947","system_id":"levelo_inurba_marseille","lat":43.27625,"lon":5.36112,"is_reserved":false,"is_disabled":false,"rental_uris":{"android":"levelo://app?vid=20f47a16-142e-4016-b800-916ad9b55947","ios":"levelo://app?vid=20f47a16-142e-4016-b800-916ad9b55947"},"vehicle_type_id":"4","last_reported":1736878350,"current_range_meters":23200,"station_id":"ce4bgj92rcd13ifvqbe0","pricing_plan_id":"cebpf4jnsgd1na2vs0mg"},{"bike_id":"351ced18-20de-47f9-8ee2-e07ab37ebb7a","system_id":"levelo_inurba_marseille","lat":43.28698,"lon":5.39988,"is_reserved":false,"is_disabled":false,"rental_uris":{"android":"levelo://app?vid=351ced18-20de-47f9-8ee2-e07ab37ebb7a","ios":"levelo://app?vid=351ced18-20de-47f9-8ee2-e07ab37ebb7a"},"vehicle_type_id":"4","last_reported":1736878350,"current_range_meters":22800,"station_id":"ce4bho92rcd13ifvqh3g","pricing_plan_id":"cebpf4jnsgd1na2vs0mg"},{"bike_id":"8c18e9ca-bc0d-4de8-883c-3f45337cc342","system_id":"levelo_inurba_marseille","lat":43.27181,"lon":5.40994,"is_reserved":false,"is_disabled":true,"rental_uris":{"android":"levelo://app?vid=8c18e9ca-bc0d-4de8-883c-3f45337cc342","ios":"levelo://app?vid=8c18e9ca-bc0d-4de8-883c-3f45337cc342"},"vehicle_type_id":"4","last_reported":1736878350,"current_range_meters":1600,"station_id":"ce4bhl12rcd13ifvqgf0","pricing_plan_id":"cebpf4jnsgd1na2vs0mg"},{"bike_id":"84d2821a-d4c5-49d5-b43c-207c0df30515","system_id":"levelo_inurba_marseille","lat":43.27813,"lon":5.40722,"is_reserved":false,"is_disabled":false,"rental_uris":{"android":"levelo://app?vid=84d2821a-d4c5-49d5-b43c-207c0df30515","ios":"levelo://app?vid=84d2821a-d4c5-49d5-b43c-207c0df30515"},"vehicle_type_id":"4","last_reported":1736878350,"current_range_meters":24400,"station_id":"ce4bhnh2rcd13ifvqgtg","pricing_plan_id":"cebpf4jnsgd1na2vs0mg"},{"bike_id":"266ba410-89ae-4c98-942e-e5a59c99ead3","system_id":"levelo_inurba_marseille","lat":43.31328,"lon":5.39689,"is_reserved":false,"is_disabled":false,"rental_uris":{"android":"levelo://app?vid=266ba410-89ae-4c98-942e-e5a59c99ead3","ios":"levelo://app?vid=266ba410-89ae-4c98-942e-e5a59c99ead3"},"vehicle_type_id":"4","last_reported":1736878350,"current_range_meters":38800,"station_id":"ce4bgvp2rcd13ifvqcu0","pricing_plan_id":"cebpf4jnsgd1na2vs0mg"},{"bike_id":"aa6c703a-8c90-45e2-a23b-8dce4254fa54","system_id":"levelo_inurba_marseille","lat":43.27314,"lon":5.39078,"is_reserved":false,"is_disabled":false,"rental_uris":{"android":"levelo://app?vid=aa6c703a-8c90-45e2-a23b-8dce4254fa54","ios":"levelo://app?vid=aa6c703a-8c90-45e2-a23b-8dce4254fa54"},"vehicle_type_id":"4","last_reported":1736878350,"current_range_meters":10800,"station_id":"ce4bhgp2rcd13ifvqfe0","pricing_plan_id":"cebpf4jnsgd1na2vs0mg"},{"bike_id":"95d949ea-cba4-4876-bf0e-cf63081db812","system_id":"levelo_inurba_marseille","lat":43.30603,"lon":5.37237,"is_reserved":false,"is_disabled":false,"rental_uris":{"android":"levelo://app?vid=95d949ea-cba4-4876-bf0e-cf63081db812","ios":"levelo://app?vid=95d949ea-cba4-4876-bf0e-cf63081db812"},"vehicle_type_id":"4","last_reported":1736878350,"current_range_meters":6400,"station_id":"ce4bgqh2rcd13ifvqc4g","pricing_plan_id":"cebpf4jnsgd1na2vs0mg"},{"bike_id":"067f5880-4d1d-400d-aa9d-f423ae569e71","system_id":"levelo_inurba_marseille","lat":43.31111,"lon":5.37757,"is_reserved":false,"is_disabled":false,"rental_uris":{"android":"levelo://app?vid=067f5880-4d1d-400d-aa9d-f423ae569e71","ios":"levelo://app?vid=067f5880-4d1d-400d-aa9d-f423ae569e71"},"vehicle_type_id":"4","last_reported":1736878350,"current_range_meters":14000,"station_id":"ce4bgt92rcd13ifvqcg0","pricing_plan_id":"cebpf4jnsgd1na2vs0mg"},{"bike_id":"f5870307-4225-40c8-ab5d-e5cb7fdea707","system_id":"levelo_inurba_marseille","lat":43.29195,"lon":5.35808,"is_reserved":false,"is_disabled":false,"rental_uris":{"android":"levelo://app?vid=f5870307-4225-40c8-ab5d-e5cb7fdea707","ios":"levelo://app?vid=f5870307-4225-40c8-ab5d-e5cb7fdea707"},"vehicle_type_id":"4","last_reported":1736878350,"current_range_meters":14000,"station_id":"ce4bhb12rcd13ifvqel0","pricing_plan_id":"cebpf4jnsgd1na2vs0mg"},{"bike_id":"db97a588-9782-4206-9d36-b6e381bc7f97","system_id":"levelo_inurba_marseille","lat":43.2808,"lon":5.39658,"is_reserved":false,"is_disabled":false,"rental_uris":{"android":"levelo://app?vid=db97a588-9782-4206-9d36-b6e381bc7f97","ios":"levelo://app?vid=db97a588-9782-4206-9d36-b6e381bc7f97"},"vehicle_type_id":"4","last_reported":1736878350,"current_range_meters":26800,"station_id":"ce4bho12rcd13ifvqh2g","pricing_plan_id":"cebpf4jnsgd1na2vs0mg"},{"bike_id":"9d8a708e-d2ff-4744-b1ff-2663d526cde6","system_id":"levelo_inurba_marseille","lat":43.30277,"lon":5.376937,"is_reserved":false,"is_disabled":false,"rental_uris":{"android":"levelo://app?vid=9d8a708e-d2ff-4744-b1ff-2663d526cde6","ios":"levelo://app?vid=9d8a708e-d2ff-4744-b1ff-2663d526cde6"},"vehicle_type_id":"4","last_reported":1736878350,"current_range_meters":26000,"station_id":"ce4bguh2rcd13ifvqcj0","pricing_plan_id":"cebpf4jnsgd1na2vs0mg"},{"bike_id":"853daf87-bf0b-419b-a104-7db024619db5","system_id":"levelo_inurba_marseille","lat":43.29178,"lon":5.37154,"is_reserved":false,"is_disabled":false,"rental_uris":{"android":"levelo://app?vid=853daf87-bf0b-419b-a104-7db024619db5","ios":"levelo://app?vid=853daf87-bf0b-419b-a104-7db024619db5"},"vehicle_type_id":"4","last_reported":1736878350,"current_range_meters":7200,"station_id":"ce4bha92rcd13ifvqeh0","pricing_plan_id":"cebpf4jnsgd1na2vs0mg"},{"bike_id":"5d6ee491-db6f-4a2a-8dad-1e433239109a","system_id":"levelo_inurba_marseille","lat":43.25584,"lon":5.38222,"is_reserved":false,"is_disabled":false,"rental_uris":{"android":"levelo://app?vid=5d6ee491-db6f-4a2a-8dad-1e433239109a","ios":"levelo://app?vid=5d6ee491-db6f-4a2a-8dad-1e433239109a"},"vehicle_type_id":"4","last_reported":1736878350,"current_range_meters":36400,"station_id":"ce4bhih2rcd13ifvqfs0","pricing_plan_id":"cebpf4jnsgd1na2vs0mg"},{"bike_id":"343f9ac0-a536-4e03-aafe-3a98c27c9ff7","system_id":"levelo_inurba_marseille","lat":43.292908,"lon":5.385402,"is_reserved":false,"is_disabled":false,"rental_uris":{"android":"levelo://app?vid=343f9ac0-a536-4e03-aafe-3a98c27c9ff7","ios":"levelo://app?vid=343f9ac0-a536-4e03-aafe-3a98c27c9ff7"},"vehicle_type_id":"4","last_reported":1736878350,"current_range_meters":36800,"station_id":"ce4bhi12rcd13ifvqfo0","pricing_plan_id":"cebpf4jnsgd1na2vs0mg"},{"bike_id":"d4477934-3f6a-4c50-bb1f-d05f547390b4","system_id":"levelo_inurba_marseille","lat":43.2997,"lon":5.38496,"is_reserved":false,"is_disabled":false,"rental_uris":{"android":"levelo://app?vid=d4477934-3f6a-4c50-bb1f-d05f547390b4","ios":"levelo://app?vid=d4477934-3f6a-4c50-bb1f-d05f547390b4"},"vehicle_type_id":"4","last_reported":1736878350,"current_range_meters":13600,"station_id":"ce4bgj92rcd13ifvqbd0","pricing_plan_id":"cebpf4jnsgd1na2vs0mg"},{"bike_id":"cb40efa4-92da-4cc9-8bfc-ba7d1b903263","system_id":"levelo_inurba_marseille","lat":43.265553,"lon":5.372818,"is_reserved":false,"is_disabled":false,"rental_uris":{"android":"levelo://app?vid=cb40efa4-92da-4cc9-8bfc-ba7d1b903263","ios":"levelo://app?vid=cb40efa4-92da-4cc9-8bfc-ba7d1b903263"},"vehicle_type_id":"4","last_reported":1736878350,"current_range_meters":4000,"station_id":"ce4bhg12rcd13ifvqf70","pricing_plan_id":"cebpf4jnsgd1na2vs0mg"},