{"last_updated":1744139327,"ttl":60,"version":"2.2","data":{"bikes":[{"bike_id":"f3101396-96fc-4549-b8e9-eb67c8c4bb73","system_id":"levelo_inurba_marseille","lat":43.28471,"lon":5.38433,"is_reserved":false,"is_disabled":false,"rental_uris":{"android":"levelo://app?vid=f3101396-96fc-4549-b8e9-eb67c8c4bb73","ios":"levelo://app?vid=f3101396-96fc-4549-b8e9-eb67c8c4bb73"},"vehicle_type_id":"4","last_reported":1744139327,"current_range_meters":2800,"station_id":"ce4bh512rcd13ifvqe3g","pricing_plan_id":"cebpf4jnsgd1na2vs0mg"},{"bike_id":"985bb9d3-c153-4a8e-9918-d2232947b6d9","system_id":"levelo_inurba_marseille","lat":43.28663,"lon":5.36355,"is_reserved":false,"is_disabled":false,"rental_uris":{"android":"levelo://app?vid=985bb9d3-c153-4a8e-9918-d2232947b6d9","ios":"levelo://app?vid=985bb9d3-c153-4a8e-9918-d2232947b6d9"},"vehicle_type_id":"4","last_reported":1744139327,"current_range_meters":2800,"station_id":"ce4bhah2rcd13ifvqej0","pricing_plan_id":"cebpf4jnsgd1na2vs0mg"},{"bike_id":"d3045b13-ea31-46e1-9d34-d6ac8eb2daa2","system_id":"levelo_inurba_marseille","lat":43.27374,"lon":5.36263,"is_reserved":false,"is_disabled":true,"rental_uris":{"android":"levelo://app?vid=d3045b13-ea31-46e1-9d34-d6ac8eb2daa2","ios":"levelo://app?vid=d3045b13-ea31-46e1-9d34-d6ac8eb2daa2"},"vehicle_type_id":"4","last_reported":1744139327,"current_range_meters":2800,"station_id":"ce4bhbh2rcd13ifvqeo0","pricing_plan_id":"cebpf4jnsgd1na2vs0mg"},{"bike_id":"fa32ceb2-4267-4949-b850-0e2b3c8e9a61","system_id":"levelo_inurba_marseille","lat":43.28847,"lon":5.39303,"is_reserved":false,"is_disabled":false,"rental_uris":{"android":"levelo://app?vid=fa32ceb2-4267-4949-b850-0e2b3c8e9a61","ios":"levelo://app?vid=fa32ceb2-4267-4949-b850-0e2b3c8e9a61"},"vehicle_type_id":"4","last_reported":1744139327,"current_range_meters":2800,"station_id":"ce4bh2p2rcd13ifvqdi0","pricing_plan_id":"cebpf4jnsgd1na2vs0mg"},{"bike_id":"a959694d-18ce-4d80-917f-23c91ed81065","system_id":"levelo_inurba_marseille","lat":43.29916,"lon":5.43638,"is_reserved":false,"is_disabled":true,"rental_uris":{"android":"levelo://app?vid=a959694d-18ce-4d80-917f-23c91ed81065","ios":"levelo://app?vid=a959694d-18ce-4d80-917f-23c91ed81065"},"vehicle_type_id":"4","last_reported":1744139327,"current_range_meters":2800,"station_id":"ce4bhpp2rcd13ifvqhfg","pricing_plan_id":"cebpf4jnsgd1na2vs0mg"},{"bike_id":"32f8bac0-a129-4d3d-99e8-975d61a6781c","system_id":"levelo_inurba_marseille","lat":43.28461,"lon":5.35881,"is_reserved":false,"is_disabled":false,"rental_uris":{"android":"levelo://app?vid=32f8bac0-a129-4d3d-99e8-975d61a6781c","ios":"levelo://app?vid=32f8bac0-a129-4d3d-99e8-975d61a6781c"},"vehicle_type_id":"4","last_reported":1744139327,"current_range_meters":2800,"station_id":"ce4bhah2rcd13ifvqei0","pricing_plan_id":"cebpf4jnsgd1na2vs0mg"},{"bike_id":"3c3cb608-ca22-4018-ba49-378cc5063039","system_id":"levelo_inurba_marseille","lat":43.298202,"lon":5.381076,"is_reserved":false,"is_disabled":false,"rental_uris":{"android":"levelo://app?vid=3c3cb608-ca22-4018-ba49-378cc5063039","ios":"levelo://app?vid=3c3cb608-ca22-4018-ba49-378cc5063039"},"vehicle_type_id":"4","last_reported":1744139327,"current_range_meters":4400,"station_id":"","pricing_plan_id":"cebpf4jnsgd1na2vs0mg"},{"bike_id":"e615de16-bf28-45aa-8c0a-faafe76bdcdc","system_id":"levelo_inurba_marseille","lat":43.31342,"lon":5.39706,"is_reserved":false,"is_disabled":true,"rental_uris":{"android":"levelo://app?vid=e615de16-bf28-45aa-8c0a-faafe76bdcdc","ios":"levelo://app?vid=e615de16-bf28-45aa-8c0a-faafe76bdcdc"},"vehicle_type_id":"4","last_reported":1744139327,"current_range_meters":3200,"station_id":"ce4bgvp2rcd13ifvqcu0","pricing_plan_id":"cebpf4jnsgd1na2vs0mg"},{"bike_id":"6011ab96-e955-4ca8-95b1-9776ff68c79a","system_id":"levelo_inurba_marseille","lat":43.27388,"lon":5.36251,"is_reserved":false,"is_disabled":true,"rental_uris":{"android":"levelo://app?vid=6011ab96-e955-4ca8-95b1-9776ff68c79a","ios":"levelo://app?vid=6011ab96-e955-4ca8-95b1-9776ff68c79a"},"vehicle_type_id":"4","last_reported":1744139327,"current_range_meters":3200,"station_id":"ce4bhbh2rcd13ifvqeo0","pricing_plan_id":"cebpf4jnsgd1na2vs0mg"},{"bike_id":"69802108-085b-47ca-a0db-8850ce30244a","system_id":"levelo_inurba_marseille","lat":43.28967,"lon":5.3784,"is_reserved":false,"is_disabled":false,"rental_uris":{"android":"levelo://app?vid=69802108-085b-47ca-a0db-8850ce30244a","ios":"levelo://app?vid=69802108-085b-47ca-a0db-8850ce30244a"},"vehicle_type_id":"4","last_reported":1744139327,"current_range_meters":3200,"station_id":"ce4bh9p2rcd13ifvqed0","pricing_plan_id":"cebpf4jnsgd1na2vs0mg"},{"bike_id":"dfcda5d4-6d60-45c3-a386-49b22e1bcc4c","system_id":"levelo_inurba_marseille","lat":43.28486,"lon":5.38437,"is_reserved":false,"is_disabled":false,"rental_uris":{"android":"levelo://app?vid=dfcda5d4-6d60-45c3-a386-49b22e1bcc4c","ios":"levelo://app?vid=dfcda5d4-6d60-45c3-a386-49b22e1bcc4c"},"vehicle_type_id":"4","last_reported":1744139327,"current_range_meters":3200,"station_id":"ce4bh512rcd13ifvqe3g","pricing_plan_id":"cebpf4jnsgd1na2vs0mg"},{"bike_id":"e7a86924-5271-44fc-aa2c-61e4c73a211c","system_id":"levelo_inurba_marseille","lat":43.25701,"lon":5.41101,"is_reserved":false,"is_disabled":false,"rental_uris":{"android":"levelo://app?vid=e7a86924-5271-44fc-aa2c-61e4c73a211c","ios":"levelo://app?vid=e7a86924-5271-44fc-aa2c-61e4c73a211c"},"vehicle_type_id":"4","last_reported":1744139327,"current_range_meters":3200,"station_id":"ce4bhkp2rcd13ifvqgd0","pricing_plan_id":"cebpf4jnsgd1na2vs0mg"},{"bike_id":"3358dea2-cd88-4eb3-af18-3c726459cd23","system_id":"levelo_inurba_marseille","lat":43.29273,"lon":5.36845,"is_reserved":false,"is_disabled":false,"rental_uris":{"android":"levelo://app?vid=3358dea2-cd88-4eb3-af18-3c726459cd23","ios":"levelo://app?vid=3358dea2-cd88-4eb3-af18-3c726459cd23"},"vehicle_type_id":"4","last_reported":1744139327,"current_range_meters":3600,"station_id":"ce4bhbp2rcd13ifvqesg","pricing_plan_id":"cebpf4jnsgd1na2vs0mg"},{"bike_id":"60917ad7-b9cc-4573-928a-b99386b0d067","system_id":"levelo_inurba_marseille","lat":43.29568,"lon":5.39975,"is_reserved":false,"is_disabled":false,"rental_uris":{"android":"levelo://app?vid=60917ad7-b9cc-4573-928a-b99386b0d067","ios":"levelo://app?vid=60917ad7-b9cc-4573-928a-b99386b0d067"},"vehicle_type_id":"4","last_reported":1744139327,"current_range_meters":3600,"station_id":"ce4bh312rcd13ifvqdj0","pricing_plan_id":"cebpf4jnsgd1na2vs0mg"},{"bike_id":"560e17bf-ac37-4844-88f0-aa3a929cf095","system_id":"levelo_inurba_marseille","lat":43.29405,"lon":5.38635,"is_reserved":false,"is_disabled":true,"rental_uris":{"android":"levelo://app?vid=560e17bf-ac37-4844-88f0-aa3a929cf095","ios":"levelo://app?vid=560e17bf-ac37-4844-88f0-aa3a929cf095"},"vehicle_type_id":"4","last_reported":1744139327,"current_range_meters":3600,"station_id":"ce4bh2h2rcd13ifvqdh0","pricing_plan_id":"cebpf4jnsgd1na2vs0mg"},{"bike_id":"de0293e1-3b4b-427e-8392-b575170fe8dc","system_id":"levelo_inurba_marseille","lat":43.289358,"lon":5.39643,"is_reserved":false,"is_disabled":false,"rental_uris":{"android":"levelo://app?vid=de0293e1-3b4b-427e-8392-b575170fe8dc","ios":"levelo://app?vid=de0293e1-3b4b-427e-8392-b575170fe8dc"},"vehicle_type_id":"4","last_reported":1744139327,"current_range_meters":3200,"station_id":"ce4bh3h2rcd13ifvqdn0","pricing_plan_id":"cebpf4jnsgd1na2vs0mg"},{"bike_id":"5a1f7682-bfab-4e4c-bc89-df8751a0a87a","system_id":"levelo_inurba_marseille","lat":43.29576,"lon":5.3674,"is_reserved":false,"is_disabled":false,"rental_uris":{"android":"levelo://app?vid=5a1f7682-bfab-4e4c-bc89-df8751a0a87a","ios":"levelo://app?vid=5a1f7682-bfab-4e4c-bc89-df8751a0a87a"},"vehicle_type_id":"4","last_reported":1744139327,"current_range_meters":3200,"station_id":"ce4bgph2rcd13ifvqc2g","pricing_plan_id":"cebpf4jnsgd1na2vs0mg"},{"bike_id":"100c90b8-9b28-4053-a36a-b61d2c084c4b","system_id":"levelo_inurba_marseille","lat":43.25731,"lon":5.41101,"is_reserved":false,"is_disabled":false,"rental_uris":{"android":"levelo://app?vid=100c90b8-9b28-4053-a36a-b61d2c084c4b","ios":"levelo://app?vid=100c90b8-9b28-4053-a36a-b61d2c084c4b"},"vehicle_type_id":"4","last_reported":1744139327,"current_range_meters":3600,"station_id":"ce4bhkp2rcd13ifvqgd0","pricing_plan_id":"cebpf4jnsgd1na2vs0mg"},{"bike_id":"b95f3cd3-0a5b-40e0-b06e-939996ffefa6","system_id":"levelo_inurba_marseille","lat":43.2783,"lon":5.407,"is_reserved":false,"is_disabled":true,"rental_uris":{"android":"levelo://app?vid=b95f3cd3-0a5b-40e0-b06e-939996ffefa6","ios":"levelo://app?vid=b95f3cd3-0a5b-40e0-b06e-939996ffefa6"},"vehicle_type_id":"4","last_reported":1744139327,"current_range_meters":3600,"station_id":"ce4bhnh2rcd13ifvqgtg","pricing_plan_id":"cebpf4jnsgd1na2vs0mg"},{"bike_id":"c5bca32a-649a-4d71-864a-50015d62bd4a","system_id":"levelo_inurba_marseille","lat":43.29303,"lon":5.37447,"is_reserved":false,"is_disabled":false,"rental_uris":{"android":"levelo://app?vid=c5bca32a-649a-4d71-864a-50015d62bd4a","ios":"levelo://app?vid=c5bca32a-649a-4d71-864a-50015d62bd4a"},"vehicle_type_id":"4","last_reported":1744139327,"current_range_meters":4000,"station_id":"ce4bgi12rcd13ifvqb70","pricing_plan_id":"cebpf4jnsgd1na2vs0mg"},{"bike_id":"86e7fe40-b5e1-4091-b4b2-32bed97bf6cc","system_id":"levelo_inurba_marseille","lat":43.25116,"lon":5.40338,"is_reserved":false,"is_disabled":false,"rental_uris":{"android":"levelo://app?vid=86e7fe40-b5e1-4091-b4b2-32bed97bf6cc","ios":"levelo://app?vid=86e7fe40-b5e1-4091-b4b2-32bed97bf6cc"},"vehicle_type_id":"4","last_reported":1744139327,"current_range_meters":4000,"station_id":"ce4bhlh2rcd13ifvqgig","pricing_plan_id":"cebpf4jnsgd1na2vs0mg"},{"bike_id":"5b79fd17-71c7-46ba-a08e-72b15d99e820","system_id":"levelo_inurba_marseille","lat":43.22504,"lon":5.3478,"is_reserved":false,"is_disabled":true,"rental_uris":{"android":"levelo://app?vid=5b79fd17-71c7-46ba-a08e-72b15d99e820","ios":"levelo://app?vid=5b79fd17-71c7-46ba-a08e-72b15d99e820"},"vehicle_type_id":"4","last_reported":1744139327,"current_range_meters":4000,"station_id":"st_cvj5dfep6f1abm77gieg","pricing_plan_id":"cebpf4jnsgd1na2vs0mg"},{"bike_id":"ab78d68a-6d1a-4836-b33d-3fee8388158c","system_id":"levelo_inurba_marseille","lat":43.28974,"lon":5.37827,"is_reserved":false,"is_disabled":false,"rental_uris":{"android":"levelo://app?vid=ab78d68a-6d1a-4836-b33d-3fee8388158c","ios":"levelo://app?vid=ab78d68a-6d1a-4836-b33d-3fee8388158c"},"vehicle_type_id":"4","last_reported":1744139327,"current_range_meters":4000,"station_id":"ce4bh9p2rcd13ifvqed0","pricing_plan_id":"cebpf4jnsgd1na2vs0mg"},{"bike_id":"f29d8673-6ebd-4fb0-a556-6ad8dd2eb3b1","system_id":"levelo_inurba_marseille","lat":43.31485,"lon":5.36862,"is_reserved":false,"is_disabled":false,"rental_uris":{"android":"levelo://app?vid=f29d8673-6ebd-4fb0-a556-6ad8dd2eb3b1","ios":"levelo://app?vid=f29d8673-6ebd-4fb0-a556-6ad8dd2eb3b1"},"vehicle_type_id":"4","last_reported":1744139327,"current_range_meters":4000,"station_id":"","pricing_plan_id":"cebpf4jnsgd1na2vs0mg"},{"bike_id":"2527dbdd-0a43-4196-9d74-4b79e2fc40cf","system_id":"levelo_inurba_marseille","lat":43.2963,"lon":5.40601,"is_reserved":false,"is_disabled":false,"rental_uris":{"android":"levelo://app?vid=2527dbdd-0a43-4196-9d74-4b79e2fc40cf","ios":"levelo://app?vid=2527dbdd-0a43-4196-9d74-4b79e2fc40cf"},"vehicle_type_id":"4","last_reported":1744139327,"current_range_meters":4000,"station_id":"ce4bh0h2rcd13ifvqd60","pricing_plan_id":"cebpf4jnsgd1na2vs0mg"},{"bike_id":"892cded5-eba8-420e-9305-542293d69975","system_id":"levelo_inurba_marseille","lat":43.30696,"lon":5.40063,"is_reserved":false,"is_disabled":false,"rental_uris":{"android":"levelo://app?vid=892cded5-eba8-420e-9305-542293d69975","ios":"levelo://app?vid=892cded5-eba8-420e-9305-542293d69975"},"vehicle_type_id":"4","last_reported":1744139327,"current_range_meters":4400,"station_id":"ce4bgvp2rcd13ifvqct0","pricing_plan_id":"cebpf4jnsgd1na2vs0mg"},{"bike_id":"cf901586-b0fd-4506-9d62-e849abeafb90","system_id":"levelo_inurba_marseille","lat":43.2848,"lon":5.38551,"is_reserved":false,"is_disabled":false,"rental_uris":{"android":"levelo://app?vid=cf901586-b0fd-4506-9d62-e849abeafb90","ios":"levelo://app?vid=cf901586-b0fd-4506-9d62-e849abeafb90"},"vehicle_type_id":"4","last_reported":1744139327,"current_range_meters":4000,"station_id":"ce4bh8p2rcd13ifvqeb0","pricing_plan_id":"cebpf4jnsgd1na2vs0mg"},{"bike_id":"a5d6537a-9405-4767-986b-eb21fc866347","system_id":"levelo_inurba_marseille","lat":43.28933,"lon":5.3839,"is_reserved":false,"is_disabled":false,"rental_uris":{"android":"levelo://app?vid=a5d6537a-9405-4767-986b-eb21fc866347","ios":"levelo://app?vid=a5d6537a-9405-4767-986b-eb21fc866347"},"vehicle_type_id":"4","last_reported":1744139327,"current_range_meters":4400,"station_id":"ce4bh612rcd13ifvqe6g","pricing_plan_id":"cebpf4jnsgd1na2vs0mg"},{"bike_id":"7e158114-def0-4066-97b6-1e42407ccad1","system_id":"levelo_inurba_marseille","lat":43.2621,"lon":5.37442,"is_reserved":false,"is_disabled":true,"rental_uris":{"android":"levelo://app?vid=7e158114-def0-4066-97b6-1e42407ccad1","ios":"levelo://app?vid=7e158114-def0-4066-97b6-1e42407ccad1"},"vehicle_type_id":"4","last_reported":1744139327,"current_range_meters":4400,"station_id":"ce4bhgp2rcd13ifvqfc0","pricing_plan_id":"cebpf4jnsgd1na2vs0mg"},{"bike_id":"e94f90fa-b658-434e-93d9-bd87cc75dd50","system_id":"levelo_inurba_marseille","lat":43.28703,"lon":5.37395,"is_reserved":false,"is_disabled":false,"rental_uris":{"android":"levelo://app?vid=e94f90fa-b658-434e-93d9-bd87cc75dd50","ios":"levelo://app?vid=e94f90fa-b658-434e-93d9-bd87cc75dd50"},"vehicle_type_id":"4","last_reported":1744139327,"current_range_meters":4400,"station_id":"ce4bh3p2rcd13ifvqdq0","pricing_plan_id":"cebpf4jnsgd1na2vs0mg"},{"bike_id":"a73ae7fa-b644-45ea-b0aa-fd0f0482af2f","system_id":"levelo_inurba_marseille","lat":43.28374,"lon":5.398723,"is_reserved":false,"is_disabled":false,"rental_uris":{"android":"levelo://app?vid=a73ae7fa-b644-45ea-b0aa-fd0f0482af2f","ios":"levelo://app?vid=a73ae7fa-b644-45ea-b0aa-fd0f0482af2f"},"vehicle_type_id":"4","last_reported":1744139327,"current_range_meters":4400,"station_id":"ce4bho92rcd13ifvqh4g","pricing_plan_id":"cebpf4jnsgd1na2vs0mg"},{"bike_id":"4d5aecf8-9eef-4b72-a229-004b32dd1862","system_id":"levelo_inurba_marseille","lat":43.28682,"lon":5.38669,"is_reserved":false,"is_disabled":false,"rental_uris":{"android":"levelo://app?vid=4d5aecf8-9eef-4b72-a229-004b32dd1862","ios":"levelo://app?vid=4d5aecf8-9eef-4b72-a229-004b32dd1862"},"vehicle_type_id":"4","last_reported":1744139327,"current_range_meters":4800,"station_id":"ce4bh492rcd13ifvqdug","pricing_plan_id":"cebpf4jnsgd1na2vs0mg"},{"bike_id":"29b38f2c-bc38-4cde-ab04-81965a4339e4","system_id":"levelo_inurba_marseille","lat":43.2848,"lon":5.38422,"is_reserved":false,"is_disabled":false,"rental_uris":{"android":"levelo://app?vid=29b38f2c-bc38-4cde-ab04-81965a4339e4","ios":"levelo://app?vid=29b38f2c-bc38-4cde-ab04-81965a4339e4"},"vehicle_type_id":"4","last_reported":1744139327,"current_range_meters":4800,"station_id":"ce4bh512rcd13ifvqe3g","pricing_plan_id":"cebpf4jnsgd1na2vs0mg"},{"bike_id":"1f36a339-4564-479e-92ec-6ec45eee838c","system_id":"levelo_inurba_marseille","lat":43.29531,"lon":5.3902,"is_reserved":false,"is_disabled":false,"rental_uris":{"android":"levelo://app?vid=1f36a339-4564-479e-92ec-6ec45eee838c","ios":"levelo://app?vid=1f36a339-4564-479e-92ec-6ec45eee838c"},"vehicle_type_id":"4","last_reported":1744139327,"current_range_meters":4800,"station_id":"ce4bh3p2rcd13ifvqdp0","pricing_plan_id":"cebpf4jnsgd1na2vs0mg"},{"bike_id":"2cabdeb3-bd6d-4937-9e48-5b024eaafc2a","system_id":"levelo_inurba_marseille","lat":43.311686,"lon":5.389709,"is_reserved":false,"is_disabled":false,"rental_uris":{"android":"levelo://app?vid=2cabdeb3-bd6d-4937-9e48-5b024eaafc2a","ios":"levelo://app?vid=2cabdeb3-bd6d-4937-9e48-5b024eaafc2a"},"vehicle_type_id":"4","last_reported":1744139327,"current_range_meters":4800,"station_id":"ce4bgup2rcd13ifvqco0","pricing_plan_id":"cebpf4jnsgd1na2vs0mg"},{"bike_id":"b779eb9c-9ced-42ff-81ca-39b8ced0e100","system_id":"levelo_inurba_marseille","lat":43.32476,"lon":5.36564,"is_reserved":false,"is_disabled":false,"rental_uris":{"android":"levelo://app?vid=b779eb9c-9ced-42ff-81ca-39b8ced0e100","ios":"levelo://app?vid=b779eb9c-9ced-42ff-81ca-39b8ced0e100"},"vehicle_type_id":"4","last_reported":1744139327,"current_range_meters":4800,"station_id":"ce4bhs12rcd13ifvqhvg","pricing_plan_id":"cebpf4jnsgd1na2vs0mg"},{"bike_id":"484fa2ec-9318-4541-a601-ff4af6e8a19a","system_id":"levelo_inurba_marseille","lat":43.278417,"lon":5.407021,"is_reserved":false,"is_disabled":false,"rental_uris":{"android":"levelo://app?vid=484fa2ec-9318-4541-a601-ff4af6e8a19a","ios":"levelo://app?vid=484fa2ec-9318-4541-a601-ff4af6e8a19a"},"vehicle_type_id":"4","last_reported":1744139327,"current_range_meters":4800,"station_id":"ce4bhnh2rcd13ifvqgtg","pricing_plan_id":"cebpf4jnsgd1na2vs0mg"},{"bike_id":"a060b497-2f77-4226-9955-ab275acaa2c5","system_id":"levelo_inurba_marseille","lat":43.3096,"lon":5.37453,"is_reserved":false,"is_disabled":false,"rental_uris":{"android":"levelo://app?vid=a060b497-2f77-4226-9955-ab275acaa2c5","ios":"levelo://app?vid=a060b497-2f77-4226-9955-ab275acaa2c5"},"vehicle_type_id":"4","last_reported":1744139327,"current_range_meters":4800,"station_id":"","pricing_plan_id":"cebpf4jnsgd1na2vs0mg"},{"bike_id":"cc057f14-b1e1-4dee-b107-8741c01c5964","system_id":"levelo_inurba_marseille","lat":43.32121,"lon":5.36785,"is_reserved":false,"is_disabled":true,"rental_uris":{"android":"levelo://app?vid=cc057f14-b1e1-4dee-b107-8741c01c5964","ios":"levelo://app?vid=cc057f14-b1e1-4dee-b107-8741c01c5964"},"vehicle_type_id":"4","last_reported":1744139327,"current_range_meters":4800,"station_id":"ce4bhrh2rcd13ifvqhug","pricing_plan_id":"cebpf4jnsgd1na2vs0mg"},{"bike_id":"a7acf4ef-4b8f-4bdc-a9f5-bd4a4afa338f","system_id":"levelo_inurba_marseille","lat":43.26799,"lon":5.40271,"is_reserved":false,"is_disabled":false,"rental_uris":{"android":"levelo://app?vid=a7acf4ef-4b8f-4bdc-a9f5-bd4a4afa338f","ios":"levelo://app?vid=a7acf4ef-4b8f-4bdc-a9f5-bd4a4afa338f"},"vehicle_type_id":"4","last_reported":1744139327,"current_range_meters":4800,"station_id":"ce501612rcd8frsf0b60","pricing_plan_id":"cebpf4jnsgd1na2vs0mg"},{"bike_id":"507cd00d-2154-4494-b000-241a78332fc7","system_id":"levelo_inurba_marseille","lat":43.2845,"lon":5.35894,"is_reserved":false,"is_disabled":false,"rental_uris":{"android":"levelo://app?vid=507cd00d-2154-4494-b000-241a78332fc7","ios":"levelo://app?vid=507cd00d-2154-4494-b000-241a78332fc7"},"vehicle_type_id":"4","last_reported":1744139327,"current_range_meters":5600,"station_id":"ce4bhah2rcd13ifvqei0","pricing_plan_id":"cebpf4jnsgd1na2vs0mg"},{"bike_id":"6b7f4f91-a9ab-4f17-8958-c0154d023beb","system_id":"levelo_inurba_marseille","lat":43.28741,"lon":5.36079,"is_reserved":false,"is_disabled":false,"rental_uris":{"android":"levelo://app?vid=6b7f4f91-a9ab-4f17-8958-c0154d023beb","ios":"levelo://app?vid=6b7f4f91-a9ab-4f17-8958-c0154d023beb"},"vehicle_type_id":"4","last_reported":1744139327,"current_range_meters":5600,"station_id":"cki0cbj6b192h4jlfktg","pricing_plan_id":"cebpf4jnsgd1na2vs0mg"},{"bike_id":"49dd37a0-6db5-4166-8d6f-8b0071236440","system_id":"levelo_inurba_marseille","lat":43.24806,"lon":5.3746,"is_reserved":false,"is_disabled":false,"rental_uris":{"android":"levelo://app?vid=49dd37a0-6db5-4166-8d6f-8b0071236440","ios":"levelo://app?vid=49dd37a0-6db5-4166-8d6f-8b0071236440"},"vehicle_type_id":"4","last_reported":1744139327,"current_range_meters":5600,"station_id":"ce4bhgh2rcd13ifvqfb0","pricing_plan_id":"cebpf4jnsgd1na2vs0mg"},{"bike_id":"5c54d695-ec88-4b3e-a0a2-0b89b6599b2a","system_id":"levelo_inurba_marseille","lat":43.28458,"lon":5.35888,"is_reserved":false,"is_disabled":false,"rental_uris":{"android":"levelo://app?vid=5c54d695-ec88-4b3e-a0a2-0b89b6599b2a","ios":"levelo://app?vid=5c54d695-ec88-4b3e-a0a2-0b89b6599b2a"},"vehicle_type_id":"4","last_reported":1744139327,"current_range_meters":5600,"station_id":"ce4bhah2rcd13ifvqei0","pricing_plan_id":"cebpf4jnsgd1na2vs0mg"},{"bike_id":"7a698e16-5d39-48f3-8783-1fccc510a2bc","system_id":"levelo_inurba_marseille","lat":43.29963,"lon":5.38495,"is_reserved":false,"is_disabled":false,"rental_uris":{"android":"levelo://app?vid=7a698e16-5d39-48f3-8783-1fccc510a2bc","ios":"levelo://app?vid=7a698e16-5d39-48f3-8783-1fccc510a2bc"},"vehicle_type_id":"4","last_reported":1744139327,"current_range_meters":4800,"station_id":"ce4bgj92rcd13ifvqbd0","pricing_plan_id":"cebpf4jnsgd1na2vs0mg"},{"bike_id":"87bda883-ac94-49fc-94c2-3a86e52b4f97","system_id":"levelo_inurba_marseille","lat":43.30714,"lon":5.38342,"is_reserved":false,"is_disabled":false,"rental_uris":{"android":"levelo://app?vid=87bda883-ac94-49fc-94c2-3a86e52b4f97","ios":"levelo://app?vid=87bda883-ac94-49fc-94c2-3a86e52b4f97"},"vehicle_type_id":"4","last_reported":1744139327,"current_range_meters":5600,"station_id":"","pricing_plan_id":"cebpf4jnsgd1na2vs0mg"},{"bike_id":"36b92362-b778-458b-8a6e-9ec99969efb1","system_id":"levelo_inurba_marseille","lat":43.2872,"lon":5.36091,"is_reserved":false,"is_disabled":false,"rental_uris":{"android":"levelo://app?vid=36b92362-b778-458b-8a6e-9ec99969efb1","ios":"levelo://app?vid=36b92362-b778-458b-8a6e-9ec99969efb1"},"vehicle_type_id":"4","last_reported":1744139327,"current_range_meters":4800,"station_id":"cki0cbj6b192h4jlfktg","pricing_plan_id":"cebpf4jnsgd1na2vs0mg"},{"bike_id":"6702b04f-cbab-4f8a-8bb7-bc1f2994a696","system_id":"levelo_inurba_marseille","lat":43.28414,"lon":5.37527,"is_reserved":false,"is_disabled":false,"rental_uris":{"android":"levelo://app?vid=6702b04f-cbab-4f8a-8bb7-bc1f2994a696","ios":"levelo://app?vid=6702b04f-cbab-4f8a-8bb7-bc1f2994a696"},"vehicle_type_id":"4","last_reported":1744139327,"current_range_meters":5600,"station_id":"ce4bh412rcd13ifvqds0","pricing_plan_id":"cebpf4jnsgd1na2vs0mg"},{"bike_id":"ad5eb5c6-26fd-4cea-ac98-487464c598f4","system_id":"levelo_inurba_marseille","lat":43.2979,"lon":5.38093,"is_reserved":false,"is_disabled":false,"rental_uris":{"android":"levelo://app?vid=ad5eb5c6-26fd-4cea-ac98-487464c598f4","ios":"levelo://app?vid=ad5eb5c6-26fd-4cea-ac98-487464c598f4"},"vehicle_type_id":"4","last_reported":1744139327,"current_range_meters":5600,"station_id":"ce4bgip2rcd13ifvqbb0","pricing_plan_id":"cebpf4jnsgd1na2vs0mg"},{"bike_id":"8aaaa93f-8132-4adb-a568-6582ad358043","system_id":"levelo_inurba_marseille","lat":43.24545,"lon":5.39528,"is_reserved":false,"is_disabled":false,"rental_uris":{"android":"levelo://app?vid=8aaaa93f-8132-4adb-a568-6582ad358043","ios":"levelo://app?vid=8aaaa93f-8132-4adb-a568-6582ad358043"},"vehicle_type_id":"4","last_reported":1744139327,"current_range_meters":6000,"station_id":"ce4bhlp2rcd13ifvqgjg","pricing_plan_id":"cebpf4jnsgd1na2vs0mg"},{"bike_id":"159779cf-52bd-4b36-a130-092d2c35fb4d","system_id":"levelo_inurba_marseille","lat":43.27385,"lon":5.36256,"is_reserved":false,"is_disabled":false,"rental_uris":{"android":"levelo://app?vid=159779cf-52bd-4b36-a130-092d2c35fb4d","ios":"levelo://app?vid=159779cf-52bd-4b36-a130-092d2c35fb4d"},"vehicle_type_id":"4","last_reported":1744139327,"current_range_meters":6000,"station_id":"ce4bhbh2rcd13ifvqeo0","pricing_plan_id":"cebpf4jnsgd1na2vs0mg"},{"bike_id":"8b4a5c52-3413-49f2-b7f4-7f3508a08342","system_id":"levelo_inurba_marseille","lat":43.3026,"lon":5.40063,"is_reserved":false,"is_disabled":false,"rental_uris":{"android":"levelo://app?vid=8b4a5c52-3413-49f2-b7f4-7f3508a08342","ios":"levelo://app?vid=8b4a5c52-3413-49f2-b7f4-7f3508a08342"},"vehicle_type_id":"4","last_reported":1744139327,"current_range_meters":6000,"station_id":"ce4bgvh2rcd13ifvqcs0","pricing_plan_id":"cebpf4jnsgd1na2vs0mg"},{"bike_id":"f5e11440-86df-494e-adc8-f65303333aad","system_id":"levelo_inurba_marseille","lat":43.28934,"lon":5.3664,"is_reserved":false,"is_disabled":false,"rental_uris":{"android":"levelo://app?vid=f5e11440-86df-494e-adc8-f65303333aad","ios":"levelo://app?vid=f5e11440-86df-494e-adc8-f65303333aad"},"vehicle_type_id":"4","last_reported":1744139327,"current_range_meters":6000,"station_id":"ce4bhap2rcd13ifvqek0","pricing_plan_id":"cebpf4jnsgd1na2vs0mg"},{"bike_id":"3944b4a0-54fb-4d6c-af80-4ca20b89931c","system_id":"levelo_inurba_marseille","lat":43.280023,"lon":5.416592,"is_reserved":false,"is_disabled":false,"rental_uris":{"android":"levelo://app?vid=3944b4a0-54fb-4d6c-af80-4ca20b89931c","ios":"levelo://app?vid=3944b4a0-54fb-4d6c-af80-4ca20b89931c"},"vehicle_type_id":"4","last_reported":1744139327,"current_range_meters":6000,"station_id":"ce4bho12rcd13ifvqh1g","pricing_plan_id":"cebpf4jnsgd1na2vs0mg"},{"bike_id":"7a8aaabc-8475-49b1-8e43-6f69c4649f9d","system_id":"levelo_inurba_marseille","lat":43.29175,"lon":5.3715,"is_reserved":false,"is_disabled":false,"rental_uris":{"android":"levelo://app?vid=7a8aaabc-8475-49b1-8e43-6f69c4649f9d","ios":"levelo://app?vid=7a8aaabc-8475-49b1-8e43-6f69c4649f9d"},"vehicle_type_id":"4","last_reported":1744139327,"current_range_meters":6000,"station_id":"ce4bha92rcd13ifvqeh0","pricing_plan_id":"cebpf4jnsgd1na2vs0mg"},{"bike_id":"a0e61320-600e-47a5-9068-420908f74229","system_id":"levelo_inurba_marseille","lat":43.28405,"lon":5.3753,"is_reserved":false,"is_disabled":false,"rental_uris":{"android":"levelo://app?vid=a0e61320-600e-47a5-9068-420908f74229","ios":"levelo://app?vid=a0e61320-600e-47a5-9068-420908f74229"},"vehicle_type_id":"4","last_reported":1744139327,"current_range_meters":6000,"station_id":"ce4bh412rcd13ifvqds0","pricing_plan_id":"cebpf4jnsgd1na2vs0mg"},{"bike_id":"bc8480bd-fe57-4eb5-b99a-7c3444543476","system_id":"levelo_inurba_marseille","lat":43.29316,"lon":5.37096,"is_reserved":false,"is_disabled":false,"rental_uris":{"android":"levelo://app?vid=bc8480bd-fe57-4eb5-b99a-7c3444543476","ios":"levelo://app?vid=bc8480bd-fe57-4eb5-b99a-7c3444543476"},"vehicle_type_id":"4","last_reported":1744139327,"current_range_meters":6000,"station_id":"","pricing_plan_id":"cebpf4jnsgd1na2vs0mg"},{"bike_id":"3d2feacc-69b4-4886-9aad-143c51fd43bc","system_id":"levelo_inurba_marseille","lat":43.29305,"lon":5.37177,"is_reserved":false,"is_disabled":false,"rental_uris":{"android":"levelo://app?vid=3d2feacc-69b4-4886-9aad-143c51fd43bc","ios":"levelo://app?vid=3d2feacc-69b4-4886-9aad-143c51fd43bc"},"vehicle_type_id":"4","last_reported":1744139327,"current_range_meters":6000,"station_id":"ce4bgh92rcd13ifvqb40","pricing_plan_id":"cebpf4jnsgd1na2vs0mg"},{"bike_id":"1f2f6228-74ea-422a-b195-b7d1a28d01fe","system_id":"levelo_inurba_marseille","lat":43.29526,"lon":5.38554,"is_reserved":false,"is_disabled":false,"rental_uris":{"android":"levelo://app?vid=1f2f6228-74ea-422a-b195-b7d1a28d01fe","ios":"levelo://app?vid=1f2f6228-74ea-422a-b195-b7d1a28d01fe"},"vehicle_type_id":"4","last_reported":1744139327,"current_range_meters":6400,"station_id":"ce4bgih2rcd13ifvqba0","pricing_plan_id":"cebpf4jnsgd1na2vs0mg"},{"bike_id":"864297ad-7aa0-44e1-a26c-251c64032c26","system_id":"levelo_inurba_marseille","lat":43.29595,"lon":5.38108,"is_reserved":false,"is_disabled":false,"rental_uris":{"android":"levelo://app?vid=864297ad-7aa0-44e1-a26c-251c64032c26","ios":"levelo://app?vid=864297ad-7aa0-44e1-a26c-251c64032c26"},"vehicle_type_id":"4","last_reported":1744139327,"current_range_meters":6400,"station_id":"ce4bgl12rcd13ifvqbo0","pricing_plan_id":"cebpf4jnsgd1na2vs0mg"},{"bike_id":"63557d74-b12a-4d72-a164-91b0dfc2cb97","system_id":"levelo_inurba_marseille","lat":43.297079,"lon":5.365974,"is_reserved":false,"is_disabled":false,"rental_uris":{"android":"levelo://app?vid=63557d74-b12a-4d72-a164-91b0dfc2cb97","ios":"levelo://app?vid=63557d74-b12a-4d72-a164-91b0dfc2cb97"},"vehicle_type_id":"4","last_reported":1744139327,"current_range_meters":6400,"station_id":"","pricing_plan_id":"cebpf4jnsgd1na2vs0mg"},{"bike_id":"421c06bb-cbff-4e2b-a83f-8e60ab357e92","system_id":"levelo_inurba_marseille","lat":43.29517,"lon":5.39043,"is_reserved":false,"is_disabled":false,"rental_uris":{"android":"levelo://app?vid=421c06bb-cbff-4e2b-a83f-8e60ab357e92","ios":"levelo://app?vid=421c06bb-cbff-4e2b-a83f-8e60ab357e92"},"vehicle_type_id":"4","last_reported":1744139327,"current_range_meters":6400,"station_id":"ce4bh3p2rcd13ifvqdp0","pricing_plan_id":"cebpf4jnsgd1na2vs0mg"},{"bike_id":"651b33ed-9600-4a3f-b970-82f57dae821a","system_id":"levelo_inurba_marseille","lat":43.29514,"lon":5.3889,"is_reserved":false,"is_disabled":false,"rental_uris":{"android":"levelo://app?vid=651b33ed-9600-4a3f-b970-82f57dae821a","ios":"levelo://app?vid=651b33ed-9600-4a3f-b970-82f57dae821a"},"vehicle_type_id":"4","last_reported":1744139327,"current_range_meters":6800,"station_id":"","pricing_plan_id":"cebpf4jnsgd1na2vs0mg"},{"bike_id":"4b8dddbd-4a73-4c7c-a615-40a931cd78e8","system_id":"levelo_inurba_marseille","lat":43.25077,"lon":5.39533,"is_reserved":false,"is_disabled":false,"rental_uris":{"android":"levelo://app?vid=4b8dddbd-4a73-4c7c-a615-40a931cd78e8","ios":"levelo://app?vid=4b8dddbd-4a73-4c7c-a615-40a931cd78e8"},"vehicle_type_id":"4","last_reported":1744139327,"current_range_meters":6800,"station_id":"ce4bhm12rcd13ifvqgkg","pricing_plan_id":"cebpf4jnsgd1na2vs0mg"},{"bike_id":"d8e239c2-264a-413c-b687-860add1107a2","system_id":"levelo_inurba_marseille","lat":43.301697,"lon":5.387942,"is_reserved":false,"is_disabled":false,"rental_uris":{"android":"levelo://app?vid=d8e239c2-264a-413c-b687-860add1107a2","ios":"levelo://app?vid=d8e239c2-264a-413c-b687-860add1107a2"},"vehicle_type_id":"4","last_reported":1744139327,"current_range_meters":6400,"station_id":"ce4bhsp2rcd13ifvqi50","pricing_plan_id":"cebpf4jnsgd1na2vs0mg"},{"bike_id":"a2bc1534-fa4c-44c0-9bf1-e145e671d810","system_id":"levelo_inurba_marseille","lat":43.30345,"lon":5.4008,"is_reserved":false,"is_disabled":false,"rental_uris":{"android":"levelo://app?vid=a2bc1534-fa4c-44c0-9bf1-e145e671d810","ios":"levelo://app?vid=a2bc1534-fa4c-44c0-9bf1-e145e671d810"},"vehicle_type_id":"4","last_reported":1744139327,"current_range_meters":6800,"station_id":"","pricing_plan_id":"cebpf4jnsgd1na2vs0mg"},{"bike_id":"fad4f2c7-66ef-4f9b-9327-a9dfa6cae79d","system_id":"levelo_inurba_marseille","lat":43.30246,"lon":5.40058,"is_reserved":false,"is_disabled":false,"rental_uris":{"android":"levelo://app?vid=fad4f2c7-66ef-4f9b-9327-a9dfa6cae79d","ios":"levelo://app?vid=fad4f2c7-66ef-4f9b-9327-a9dfa6cae79d"},"vehicle_type_id":"4","last_reported":1744139327,"current_range_meters":6800,"station_id":"ce4bgvh2rcd13ifvqcs0","pricing_plan_id":"cebpf4jnsgd1na2vs0mg"},{"bike_id":"95e4d341-aa1d-45d3-97d4-58ce3861535b","system_id":"levelo_inurba_marseille","lat":43.21201,"lon":5.35075,"is_reserved":false,"is_disabled":true,"rental_uris":{"android":"levelo://app?vid=95e4d341-aa1d-45d3-97d4-58ce3861535b","ios":"levelo://app?vid=95e4d341-aa1d-45d3-97d4-58ce3861535b"},"vehicle_type_id":"4","last_reported":1744139327,"current_range_meters":6800,"station_id":"","pricing_plan_id":"cebpf4jnsgd1na2vs0mg"},{"bike_id":"a2d46cb9-9eeb-44f6-ab18-0e5c210fd7b5","system_id":"levelo_inurba_marseille","lat":43.28941,"lon":5.36646,"is_reserved":false,"is_disabled":true,"rental_uris":{"android":"levelo://app?vid=a2d46cb9-9eeb-44f6-ab18-0e5c210fd7b5","ios":"levelo://app?vid=a2d46cb9-9eeb-44f6-ab18-0e5c210fd7b5"},"vehicle_type_id":"4","last_reported":1744139327,"current_range_meters":6800,"station_id":"ce4bhap2rcd13ifvqek0","pricing_plan_id":"cebpf4jnsgd1na2vs0mg"},{"bike_id":"5cd1fd40-06f1-4a7e-84bc-4417ad88331e","system_id":"levelo_inurba_marseille","lat":43.28104,"lon":5.37867,"is_reserved":false,"is_disabled":false,"rental_uris":{"android":"levelo://app?vid=5cd1fd40-06f1-4a7e-84bc-4417ad88331e","ios":"levelo://app?vid=5cd1fd40-06f1-4a7e-84bc-4417ad88331e"},"vehicle_type_id":"4","last_reported":1744139327,"current_range_meters":7200,"station_id":"ce4bha12rcd13ifvqee0","pricing_plan_id":"cebpf4jnsgd1na2vs0mg"},{"bike_id":"94cc02d0-1cba-4ce3-a6ee-2b2a43266460","system_id":"levelo_inurba_marseille","lat":43.25089,"lon":5.39519,"is_reserved":false,"is_disabled":false,"rental_uris":{"android":"levelo://app?vid=94cc02d0-1cba-4ce3-a6ee-2b2a43266460","ios":"levelo://app?vid=94cc02d0-1cba-4ce3-a6ee-2b2a43266460"},"vehicle_type_id":"4","last_reported":1744139327,"current_range_meters":7200,"station_id":"ce4bhm12rcd13ifvqgkg","pricing_plan_id":"cebpf4jnsgd1na2vs0mg"},{"bike_id":"97bbdcf1-a579-46ff-91f7-55512f75a1db","system_id":"levelo_inurba_marseille","lat":43.29507,"lon":5.39039,"is_reserved":false,"is_disabled":false,"rental_uris":{"android":"levelo://app?vid=97bbdcf1-a579-46ff-91f7-55512f75a1db","ios":"levelo://app?vid=97bbdcf1-a579-46ff-91f7-55512f75a1db"},"vehicle_type_id":"4","last_reported":1744139327,"current_range_meters":7200,"station_id":"ce4bh3p2rcd13ifvqdp0","pricing_plan_id":"cebpf4jnsgd1na2vs0mg"},{"bike_id":"ecef8e9e-03dc-4612-b74e-b978f92e2873","system_id":"levelo_inurba_marseille","lat":43.30106,"lon":5.39073,"is_reserved":false,"is_disabled":true,"rental_uris":{"android":"levelo://app?vid=ecef8e9e-03dc-4612-b74e-b978f92e2873","ios":"levelo://app?vid=ecef8e9e-03dc-4612-b74e-b978f92e2873"},"vehicle_type_id":"4","last_reported":1744139327,"current_range_meters":7200,"station_id":"ce4bh192rcd13ifvqdb0","pricing_plan_id":"cebpf4jnsgd1na2vs0mg"},{"bike_id":"145850f4-6625-41a9-9cee-83f471e5a100","system_id":"levelo_inurba_marseille","lat":43.28861,"lon":5.39316,"is_reserved":false,"is_disabled":false,"rental_uris":{"android":"levelo://app?vid=145850f4-6625-41a9-9cee-83f471e5a100","ios":"levelo://app?vid=145850f4-6625-41a9-9cee-83f471e5a100"},"vehicle_type_id":"4","last_reported":1744139327,"current_range_meters":7200,"station_id":"ce4bh2p2rcd13ifvqdi0","pricing_plan_id":"cebpf4jnsgd1na2vs0mg"},{"bike_id":"9a07e3a5-8d28-49d4-b4ac-459bead086b5","system_id":"levelo_inurba_marseille","lat":43.26931,"lon":5.38921,"is_reserved":false,"is_disabled":false,"rental_uris":{"android":"levelo://app?vid=9a07e3a5-8d28-49d4-b4ac-459bead086b5","ios":"levelo://app?vid=9a07e3a5-8d28-49d4-b4ac-459bead086b5"},"vehicle_type_id":"4","last_reported":1744139327,"current_range_meters":7200,"station_id":"ce4bhhh2rcd13ifvqfl0","pricing_plan_id":"cebpf4jnsgd1na2vs0mg"},{"bike_id":"d690d590-9a46-4a4d-8b69-713ff3672f0e","system_id":"levelo_inurba_marseille","lat":43.30878,"lon":5.37194,"is_reserved":false,"is_disabled":false,"rental_uris":{"android":"levelo://app?vid=d690d590-9a46-4a4d-8b69-713ff3672f0e","ios":"levelo://app?vid=d690d590-9a46-4a4d-8b69-713ff3672f0e"},"vehicle_type_id":"4","last_reported":1744139327,"current_range_meters":7200,"station_id":"ce4bguh2rcd13ifvqckg","pricing_plan_id":"cebpf4jnsgd1na2vs0mg"},{"bike_id":"f224e8b8-a599-4103-b58c-fce63115123c","system_id":"levelo_inurba_marseille","lat":43.30539,"lon":5.36529,"is_reserved":false,"is_disabled":false,"rental_uris":{"android":"levelo://app?vid=f224e8b8-a599-4103-b58c-fce63115123c","ios":"levelo://app?vid=f224e8b8-a599-4103-b58c-fce63115123c"},"vehicle_type_id":"4","last_reported":1744139327,"current_range_meters":6800,"station_id":"ce4bgs12rcd13ifvqcag","pricing_plan_id":"cebpf4jnsgd1na2vs0mg"},{"bike_id":"9ae6852b-6b22-43ab-9ed3-b9ba4d298e4b","system_id":"levelo_inurba_marseille","lat":43.26225,"lon":5.40456,"is_reserved":false,"is_disabled":false,"rental_uris":{"android":"levelo://app?vid=9ae6852b-6b22-43ab-9ed3-b9ba4d298e4b","ios":"levelo://app?vid=9ae6852b-6b22-43ab-9ed3-b9ba4d298e4b"},"vehicle_type_id":"4","last_reported":1744139327,"current_range_meters":7200,"station_id":"ce4bhmh2rcd13ifvqgmg","pricing_plan_id":"cebpf4jnsgd1na2vs0mg"},{"bike_id":"e7e1ab45-7d32-4b6d-ad17-3b30963cb3b2","system_id":"levelo_inurba_marseille","lat":43.25091,"lon":5.39525,"is_reserved":false,"is_disabled":false,"rental_uris":{"android":"levelo://app?vid=e7e1ab45-7d32-4b6d-ad17-3b30963cb3b2","ios":"levelo://app?vid=e7e1ab45-7d32-4b6d-ad17-3b30963cb3b2"},"vehicle_type_id":"4","last_reported":1744139327,"current_range_meters":7200,"station_id":"ce4bhm12rcd13ifvqgkg","pricing_plan_id":"cebpf4jnsgd1na2vs0mg"},{"bike_id":"93b1ea57-d4d5-4e27-9858-16fef80c03ae","system_id":"levelo_inurba_marseille","lat":43.29696,"lon":5.37279,"is_reserved":false,"is_disabled":false,"rental_uris":{"android":"levelo://app?vid=93b1ea57-d4d5-4e27-9858-16fef80c03ae","ios":"levelo://app?vid=93b1ea57-d4d5-4e27-9858-16fef80c03ae"},"vehicle_type_id":"4","last_reported":1744139327,"current_range_meters":7200,"station_id":"ce4bgk12rcd13ifvqbj0","pricing_plan_id":"cebpf4jnsgd1na2vs0mg"},{"bike_id":"48ce95ee-bad8-413f-93f8-75c0f56be260","system_id":"levelo_inurba_marseille","lat":43.295227,"lon":5.394087,"is_reserved":false,"is_disabled":false,"rental_uris":{"android":"levelo://app?vid=48ce95ee-bad8-413f-93f8-75c0f56be260","ios":"levelo://app?vid=48ce95ee-bad8-413f-93f8-75c0f56be260"},"vehicle_type_id":"4","last_reported":1744139327,"current_range_meters":7200,"station_id":"ce4bh292rcd13ifvqdf0","pricing_plan_id":"cebpf4jnsgd1na2vs0mg"},{"bike_id":"52b668c5-26f6-42d0-bf85-8bf64407b3d2","system_id":"levelo_inurba_marseille","lat":43.247406,"lon":5.382422,"is_reserved":false,"is_disabled":false,"rental_uris":{"android":"levelo://app?vid=52b668c5-26f6-42d0-bf85-8bf64407b3d2","ios":"levelo://app?vid=52b668c5-26f6-42d0-bf85-8bf64407b3d2"},"vehicle_type_id":"4","last_reported":1744139327,"current_range_meters":7200,"station_id":"ce4bhih2rcd13ifvqfr0","pricing_plan_id":"cebpf4jnsgd1na2vs0mg"},{"bike_id":"fe554949-79fc-40fb-9308-e13fc7147f59","system_id":"levelo_inurba_marseille","lat":43.31078,"lon":5.4243,"is_reserved":false,"is_disabled":false,"rental_uris":{"android":"levelo://app?vid=fe554949-79fc-40fb-9308-e13fc7147f59","ios":"levelo://app?vid=fe554949-79fc-40fb-9308-e13fc7147f59"},"vehicle_type_id":"4","last_reported":1744139327,"current_range_meters":7200,"station_id":"ce4bhp92rcd13ifvqhag","pricing_plan_id":"cebpf4jnsgd1na2vs0mg"},{"bike_id":"662bc58d-5fb7-4602-ba0a-33276d1ed023","system_id":"levelo_inurba_marseille","lat":43.31708,"lon":5.40445,"is_reserved":false,"is_disabled":false,"rental_uris":{"android":"levelo://app?vid=662bc58d-5fb7-4602-ba0a-33276d1ed023","ios":"levelo://app?vid=662bc58d-5fb7-4602-ba0a-33276d1ed023"},"vehicle_type_id":"4","last_reported":1744139327,"current_range_meters":8000,"station_id":"ce4bh012rcd13ifvqd00","pricing_plan_id":"cebpf4jnsgd1na2vs0mg"},{"bike_id":"a1016552-8f8f-4c85-9508-b7606ef27156","system_id":"levelo_inurba_marseille","lat":43.28574,"lon":5.39495,"is_reserved":false,"is_disabled":false,"rental_uris":{"android":"levelo://app?vid=a1016552-8f8f-4c85-9508-b7606ef27156","ios":"levelo://app?vid=a1016552-8f8f-4c85-9508-b7606ef27156"},"vehicle_type_id":"4","last_reported":1744139327,"current_range_meters":7200,"station_id":"ce4bh292rcd13ifvqdg0","pricing_plan_id":"cebpf4jnsgd1na2vs0mg"},{"bike_id":"73948350-f656-45a4-915d-809cae2ac447","system_id":"levelo_inurba_marseille","lat":43.24807,"lon":5.37458,"is_reserved":false,"is_disabled":false,"rental_uris":{"android":"levelo://app?vid=73948350-f656-45a4-915d-809cae2ac447","ios":"levelo://app?vid=73948350-f656-45a4-915d-809cae2ac447"},"vehicle_type_id":"4","last_reported":1744139327,"current_range_meters":8000,"station_id":"ce4bhgh2rcd13ifvqfb0","pricing_plan_id":"cebpf4jnsgd1na2vs0mg"},{"bike_id":"02f5f556-9aca-41a9-928c-e217b6392b4b","system_id":"levelo_inurba_marseille","lat":43.31827,"lon":5.43511,"is_reserved":false,"is_disabled":false,"rental_uris":{"android":"levelo://app?vid=02f5f556-9aca-41a9-928c-e217b6392b4b","ios":"levelo://app?vid=02f5f556-9aca-41a9-928c-e217b6392b4b"},"vehicle_type_id":"4","last_reported":1744139327,"current_range_meters":8000,"station_id":"","pricing_plan_id":"cebpf4jnsgd1na2vs0mg"},{"bike_id":"52a3a737-d744-44aa-901d-daf29012d3d4","system_id":"levelo_inurba_marseille","lat":43.3056,"lon":5.36527,"is_reserved":false,"is_disabled":false,"rental_uris":{"android":"levelo://app?vid=52a3a737-d744-44aa-901d-daf29012d3d4","ios":"levelo://app?vid=52a3a737-d744-44aa-901d-daf29012d3d4"},"vehicle_type_id":"4","last_reported":1744139327,"current_range_meters":8000,"station_id":"ce4bgs12rcd13ifvqcag","pricing_plan_id":"cebpf4jnsgd1na2vs0mg"},{"bike_id":"f39be6f5-2f69-4c37-b021-559d20b299a4","system_id":"levelo_inurba_marseille","lat":43.30012,"lon":5.37647,"is_reserved":false,"is_disabled":false,"rental_uris":{"android":"levelo://app?vid=f39be6f5-2f69-4c37-b021-559d20b299a4","ios":"levelo://app?vid=f39be6f5-2f69-4c37-b021-559d20b299a4"},"vehicle_type_id":"4","last_reported":1744139327,"current_range_meters":8000,"station_id":"","pricing_plan_id":"cebpf4jnsgd1na2vs0mg"},{"bike_id":"a024b598-9b24-4533-9390-256ea4e355a5","system_id":"levelo_inurba_marseille","lat":43.28358,"lon":5.38643,"is_reserved":false,"is_disabled":false,"rental_uris":{"android":"levelo://app?vid=a024b598-9b24-4533-9390-256ea4e355a5","ios":"levelo://app?vid=a024b598-9b24-4533-9390-256ea4e355a5"},"vehicle_type_id":"4","last_reported":1744139327,"current_range_meters":8000,"station_id":"ce4bh492rcd13ifvqdvg","pricing_plan_id":"cebpf4jnsgd1na2vs0mg"},{"bike_id":"456b79bb-81b6-42d9-a52b-1ca6c839f098","system_id":"levelo_inurba_marseille","lat":43.30401,"lon":5.41343,"is_reserved":false,"is_disabled":true,"rental_uris":{"android":"levelo://app?vid=456b79bb-81b6-42d9-a52b-1ca6c839f098","ios":"levelo://app?vid=456b79bb-81b6-42d9-a52b-1ca6c839f098"},"vehicle_type_id":"4","last_reported":1744139327,"current_range_meters":8000,"station_id":"ce4bhop2rcd13ifvqh8g","pricing_plan_id":"cebpf4jnsgd1na2vs0mg"},{"bike_id":"2e9000dc-6400-4918-a994-dd60039ca96d","system_id":"levelo_inurba_marseille","lat":43.31999,"lon":5.38157,"is_reserved":false,"is_disabled":true,"rental_uris":{"android":"levelo://app?vid=2e9000dc-6400-4918-a994-dd60039ca96d","ios":"levelo://app?vid=2e9000dc-6400-4918-a994-dd60039ca96d"},"vehicle_type_id":"4","last_reported":1744139327,"current_range_meters":8000,"station_id":"ce4bhr12rcd13ifvqhpg","pricing_plan_id":"cebpf4jnsgd1na2vs0mg"},{"bike_id":"9ea1615a-bebf-4498-b797-7203690bdbb0","system_id":"levelo_inurba_marseille","lat":43.31342,"lon":5.36712,"is_reserved":false,"is_disabled":false,"rental_uris":{"android":"levelo://app?vid=9ea1615a-bebf-4498-b797-7203690bdbb0","ios":"levelo://app?vid=9ea1615a-bebf-4498-b797-7203690bdbb0"},"vehicle_type_id":"4","last_reported":1744139327,"current_range_meters":8400,"station_id":"ce4bgr92rcd13ifvqc6g","pricing_plan_id":"cebpf4jnsgd1na2vs0mg"},{"bike_id":"952385d1-e33e-42fc-aa56-a319b6550836","system_id":"levelo_inurba_marseille","lat":43.21759,"lon":5.34615,"is_reserved":false,"is_disabled":false,"rental_uris":{"android":"levelo://app?vid=952385d1-e33e-42fc-aa56-a319b6550836","ios":"levelo://app?vid=952385d1-e33e-42fc-aa56-a319b6550836"},"vehicle_type_id":"4","last_reported":1744139327,"current_range_meters":8400,"station_id":"st_cvj6r9ubvosntc0bgbag","pricing_plan_id":"cebpf4jnsgd1na2vs0mg"},{"bike_id":"82f28cf6-556c-431d-a12b-bd3ce5fc2f28","system_id":"levelo_inurba_marseille","lat":43.27506,"lon":5.3777,"is_reserved":false,"is_disabled":false,"rental_uris":{"android":"levelo://app?vid=82f28cf6-556c-431d-a12b-bd3ce5fc2f28","ios":"levelo://app?vid=82f28cf6-556c-431d-a12b-bd3ce5fc2f28"},"vehicle_type_id":"4","last_reported":1744139327,"current_range_meters":8400,"station_id":"","pricing_plan_id":"cebpf4jnsgd1na2vs0mg"},{"bike_id":"25941fdb-6e21-4844-b181-f0e272436149","system_id":"levelo_inurba_marseille","lat":43.30089,"lon":5.39073,"is_reserved":false,"is_disabled":false,"rental_uris":{"android":"levelo://app?vid=25941fdb-6e21-4844-b181-f0e272436149","ios":"levelo://app?vid=25941fdb-6e21-4844-b181-f0e272436149"},"vehicle_type_id":"4","last_reported":1744139327,"current_range_meters":8400,"station_id":"ce4bh192rcd13ifvqdb0","pricing_plan_id":"cebpf4jnsgd1na2vs0mg"},{"bike_id":"4ed7dfc3-253b-451c-ae55-2152c1547ae6","system_id":"levelo_inurba_marseille","lat":43.25114,"lon":5.4032,"is_reserved":false,"is_disabled":false,"rental_uris":{"android":"levelo://app?vid=4ed7dfc3-253b-451c-ae55-2152c1547ae6","ios":"levelo://app?vid=4ed7dfc3-253b-451c-ae55-2152c1547ae6"},"vehicle_type_id":"4","last_reported":1744139327,"current_range_meters":8400,"station_id":"ce4bhlh2rcd13ifvqgig","pricing_plan_id":"cebpf4jnsgd1na2vs0mg"},{"bike_id":"3576b946-70b3-456f-a60a-d98e227f015c","system_id":"levelo_inurba_marseille","lat":43.30113,"lon":5.38198,"is_reserved":false,"is_disabled":false,"rental_uris":{"android":"levelo://app?vid=3576b946-70b3-456f-a60a-d98e227f015c","ios":"levelo://app?vid=3576b946-70b3-456f-a60a-d98e227f015c"},"vehicle_type_id":"4","last_reported":1744139327,"current_range_meters":8400,"station_id":"ce4bgup2rcd13ifvqcn0","pricing_plan_id":"cebpf4jnsgd1na2vs0mg"},{"bike_id":"ad53d0a4-da1a-47ff-a1fe-f15416737e09","system_id":"levelo_inurba_marseille","lat":43.29277,"lon":5.40116,"is_reserved":false,"is_disabled":false,"rental_uris":{"android":"levelo://app?vid=ad53d0a4-da1a-47ff-a1fe-f15416737e09","ios":"levelo://app?vid=ad53d0a4-da1a-47ff-a1fe-f15416737e09"},"vehicle_type_id":"4","last_reported":1744139327,"current_range_meters":8400,"station_id":"ce4bh312rcd13ifvqdk0","pricing_plan_id":"cebpf4jnsgd1na2vs0mg"},{"bike_id":"f5902e10-3da3-48ea-8c18-2d627088cc97","system_id":"levelo_inurba_marseille","lat":43.28943,"lon":5.36636,"is_reserved":false,"is_disabled":false,"rental_uris":{"android":"levelo://app?vid=f5902e10-3da3-48ea-8c18-2d627088cc97","ios":"levelo://app?vid=f5902e10-3da3-48ea-8c18-2d627088cc97"},"vehicle_type_id":"4","last_reported":1744139327,"current_range_meters":8400,"station_id":"ce4bhap2rcd13ifvqek0","pricing_plan_id":"cebpf4jnsgd1na2vs0mg"},{"bike_id":"35f0685a-b7b9-4198-b2ba-6744bdc6ade3","system_id":"levelo_inurba_marseille","lat":43.27801,"lon":5.40717,"is_reserved":false,"is_disabled":false,"rental_uris":{"android":"levelo://app?vid=35f0685a-b7b9-4198-b2ba-6744bdc6ade3","ios":"levelo://app?vid=35f0685a-b7b9-4198-b2ba-6744bdc6ade3"},"vehicle_type_id":"4","last_reported":1744139327,"current_range_meters":8000,"station_id":"ce4bhnh2rcd13ifvqgtg","pricing_plan_id":"cebpf4jnsgd1na2vs0mg"},{"bike_id":"e2267f0c-d827-414b-b770-932c79aaf9a0","system_id":"levelo_inurba_marseille","lat":43.28449,"lon":5.39191,"is_reserved":false,"is_disabled":false,"rental_uris":{"android":"levelo://app?vid=e2267f0c-d827-414b-b770-932c79aaf9a0","ios":"levelo://app?vid=e2267f0c-d827-414b-b770-932c79aaf9a0"},"vehicle_type_id":"4","last_reported":1744139327,"current_range_meters":8400,"station_id":"ce4bhoh2rcd13ifvqh5g","pricing_plan_id":"cebpf4jnsgd1na2vs0mg"},{"bike_id":"a1214fb6-ec32-4f6d-b480-2c868d210d82","system_id":"levelo_inurba_marseille","lat":43.23188,"lon":5.3556,"is_reserved":false,"is_disabled":false,"rental_uris":{"android":"levelo://app?vid=a1214fb6-ec32-4f6d-b480-2c868d210d82","ios":"levelo://app?vid=a1214fb6-ec32-4f6d-b480-2c868d210d82"},"vehicle_type_id":"4","last_reported":1744139327,"current_range_meters":8400,"station_id":"ce4bhu92rcd13ifvqi70","pricing_plan_id":"cebpf4jnsgd1na2vs0mg"},{"bike_id":"0ba287ac-e9ec-4eab-93c2-0e60aabd1ebb","system_id":"levelo_inurba_marseille","lat":43.33018,"lon":5.39063,"is_reserved":false,"is_disabled":false,"rental_uris":{"android":"levelo://app?vid=0ba287ac-e9ec-4eab-93c2-0e60aabd1ebb","ios":"levelo://app?vid=0ba287ac-e9ec-4eab-93c2-0e60aabd1ebb"},"vehicle_type_id":"4","last_reported":1744139327,"current_range_meters":8400,"station_id":"ce4bhr92rcd13ifvqhrg","pricing_plan_id":"cebpf4jnsgd1na2vs0mg"},{"bike_id":"52c6ce16-0c51-43e9-88b9-6466dc01041a","system_id":"levelo_inurba_marseille","lat":43.28871,"lon":5.35857,"is_reserved":false,"is_disabled":false,"rental_uris":{"android":"levelo://app?vid=52c6ce16-0c51-43e9-88b9-6466dc01041a","ios":"levelo://app?vid=52c6ce16-0c51-43e9-88b9-6466dc01041a"},"vehicle_type_id":"4","last_reported":1744139327,"current_range_meters":8400,"station_id":"ce4bhb12rcd13ifvqem0","pricing_plan_id":"cebpf4jnsgd1na2vs0mg"},{"bike_id":"f17ce36f-e80a-4732-89e2-7a7dfab19d87","system_id":"levelo_inurba_marseille","lat":43.29916,"lon":5.43659,"is_reserved":false,"is_disabled":false,"rental_uris":{"android":"levelo://app?vid=f17ce36f-e80a-4732-89e2-7a7dfab19d87","ios":"levelo://app?vid=f17ce36f-e80a-4732-89e2-7a7dfab19d87"},"vehicle_type_id":"4","last_reported":1744139327,"current_range_meters":8800,"station_id":"ce4bhpp2rcd13ifvqhfg","pricing_plan_id":"cebpf4jnsgd1na2vs0mg"},{"bike_id":"676ca70f-1aca-4472-ac48-c0a4634213c4","system_id":"levelo_inurba_marseille","lat":43.2926,"lon":5.40901,"is_reserved":false,"is_disabled":false,"rental_uris":{"android":"levelo://app?vid=676ca70f-1aca-4472-ac48-c0a4634213c4","ios":"levelo://app?vid=676ca70f-1aca-4472-ac48-c0a4634213c4"},"vehicle_type_id":"4","last_reported":1744139327,"current_range_meters":8800,"station_id":"ce4bh192rcd13ifvqdc0","pricing_plan_id":"cebpf4jnsgd1na2vs0mg"},{"bike_id":"81b4eeec-d26b-4050-a92d-04743fb93072","system_id":"levelo_inurba_marseille","lat":43.23201,"lon":5.40007,"is_reserved":false,"is_disabled":true,"rental_uris":{"android":"levelo://app?vid=81b4eeec-d26b-4050-a92d-04743fb93072","ios":"levelo://app?vid=81b4eeec-d26b-4050-a92d-04743fb93072"},"vehicle_type_id":"4","last_reported":1744139327,"current_range_meters":8800,"station_id":"ce4bhn12rcd13ifvqgqg","pricing_plan_id":"cebpf4jnsgd1na2vs0mg"},{"bike_id":"70810d3e-9936-4863-b211-84f880613e88","system_id":"levelo_inurba_marseille","lat":43.31294,"lon":5.37321,"is_reserved":false,"is_disabled":false,"rental_uris":{"android":"levelo://app?vid=70810d3e-9936-4863-b211-84f880613e88","ios":"levelo://app?vid=70810d3e-9936-4863-b211-84f880613e88"},"vehicle_type_id":"4","last_reported":1744139327,"current_range_meters":8800,"station_id":"","pricing_plan_id":"cebpf4jnsgd1na2vs0mg"},{"bike_id":"ec41b842-c84f-4ab1-894c-fc6101e00efb","system_id":"levelo_inurba_marseille","lat":43.31707,"lon":5.40311,"is_reserved":false,"is_disabled":false,"rental_uris":{"android":"levelo://app?vid=ec41b842-c84f-4ab1-894c-fc6101e00efb","ios":"levelo://app?vid=ec41b842-c84f-4ab1-894c-fc6101e00efb"},"vehicle_type_id":"4","last_reported":1744139327,"current_range_meters":8800,"station_id":"","pricing_plan_id":"cebpf4jnsgd1na2vs0mg"},{"bike_id":"7a5cbd17-69e7-41fa-b675-d053f49e97f3","system_id":"levelo_inurba_marseille","lat":43.29441,"lon":5.38637,"is_reserved":false,"is_disabled":false,"rental_uris":{"android":"levelo://app?vid=7a5cbd17-69e7-41fa-b675-d053f49e97f3","ios":"levelo://app?vid=7a5cbd17-69e7-41fa-b675-d053f49e97f3"},"vehicle_type_id":"4","last_reported":1744139327,"current_range_meters":8800,"station_id":"ce4bh2h2rcd13ifvqdh0","pricing_plan_id":"cebpf4jnsgd1na2vs0mg"},{"bike_id":"13ce63b5-fbdf-4fbd-8beb-da02abc6d5e3","system_id":"levelo_inurba_marseille","lat":43.29976,"lon":5.37182,"is_reserved":false,"is_disabled":false,"rental_uris":{"android":"levelo://app?vid=13ce63b5-fbdf-4fbd-8beb-da02abc6d5e3","ios":"levelo://app?vid=13ce63b5-fbdf-4fbd-8beb-da02abc6d5e3"},"vehicle_type_id":"4","last_reported":1744139327,"current_range_meters":8800,"station_id":"ce4bgr92rcd13ifvqc7g","pricing_plan_id":"cebpf4jnsgd1na2vs0mg"},{"bike_id":"5cef5330-1ce4-4a84-af6e-c73f86416aa1","system_id":"levelo_inurba_marseille","lat":43.2318,"lon":5.3555,"is_reserved":false,"is_disabled":false,"rental_uris":{"android":"levelo://app?vid=5cef5330-1ce4-4a84-af6e-c73f86416aa1","ios":"levelo://app?vid=5cef5330-1ce4-4a84-af6e-c73f86416aa1"},"vehicle_type_id":"4","last_reported":1744139327,"current_range_meters":8800,"station_id":"ce4bhu92rcd13ifvqi70","pricing_plan_id":"cebpf4jnsgd1na2vs0mg"},{"bike_id":"2181f0c6-8328-4571-b30c-6f91129c1b0d","system_id":"levelo_inurba_marseille","lat":43.29871,"lon":5.38902,"is_reserved":false,"is_disabled":false,"rental_uris":{"android":"levelo://app?vid=2181f0c6-8328-4571-b30c-6f91129c1b0d","ios":"levelo://app?vid=2181f0c6-8328-4571-b30c-6f91129c1b0d"},"vehicle_type_id":"4","last_reported":1744139327,"current_range_meters":8800,"station_id":"ce4bh392rcd13ifvqdl0","pricing_plan_id":"cebpf4jnsgd1na2vs0mg"},{"bike_id":"d15152ad-d877-4be1-be2b-700d2eb6645a","system_id":"levelo_inurba_marseille","lat":43.26057,"lon":5.39397,"is_reserved":false,"is_disabled":false,"rental_uris":{"android":"levelo://app?vid=d15152ad-d877-4be1-be2b-700d2eb6645a","ios":"levelo://app?vid=d15152ad-d877-4be1-be2b-700d2eb6645a"},"vehicle_type_id":"4","last_reported":1744139327,"current_range_meters":8800,"station_id":"ce4bhh92rcd13ifvqfj0","pricing_plan_id":"cebpf4jnsgd1na2vs0mg"},{"bike_id":"37b2591d-7265-4820-a87b-554301495f71","system_id":"levelo_inurba_marseille","lat":43.2893,"lon":5.36639,"is_reserved":false,"is_disabled":true,"rental_uris":{"android":"levelo://app?vid=37b2591d-7265-4820-a87b-554301495f71","ios":"levelo://app?vid=37b2591d-7265-4820-a87b-554301495f71"},"vehicle_type_id":"4","last_reported":1744139327,"current_range_meters":9200,"station_id":"ce4bhap2rcd13ifvqek0","pricing_plan_id":"cebpf4jnsgd1na2vs0mg"},{"bike_id":"988130cb-e748-4c6f-9e42-0c5709157918","system_id":"levelo_inurba_marseille","lat":43.29061,"lon":5.35919,"is_reserved":false,"is_disabled":false,"rental_uris":{"android":"levelo://app?vid=988130cb-e748-4c6f-9e42-0c5709157918","ios":"levelo://app?vid=988130cb-e748-4c6f-9e42-0c5709157918"},"vehicle_type_id":"4","last_reported":1744139327,"current_range_meters":9200,"station_id":"ce4bha92rcd13ifvqeg0","pricing_plan_id":"cebpf4jnsgd1na2vs0mg"},{"bike_id":"08ad93cb-eba4-40a5-8678-82c4f05707d5","system_id":"levelo_inurba_marseille","lat":43.30297,"lon":5.39206,"is_reserved":false,"is_disabled":false,"rental_uris":{"android":"levelo://app?vid=08ad93cb-eba4-40a5-8678-82c4f05707d5","ios":"levelo://app?vid=08ad93cb-eba4-40a5-8678-82c4f05707d5"},"vehicle_type_id":"4","last_reported":1744139327,"current_range_meters":9200,"station_id":"ce4bgkh2rcd13ifvqbk0","pricing_plan_id":"cebpf4jnsgd1na2vs0mg"},{"bike_id":"f748e1ef-310f-4f48-a020-54ccd4691738","system_id":"levelo_inurba_marseille","lat":43.29317,"lon":5.37181,"is_reserved":false,"is_disabled":false,"rental_uris":{"android":"levelo://app?vid=f748e1ef-310f-4f48-a020-54ccd4691738","ios":"levelo://app?vid=f748e1ef-310f-4f48-a020-54ccd4691738"},"vehicle_type_id":"4","last_reported":1744139327,"current_range_meters":9200,"station_id":"ce4bgh92rcd13ifvqb40","pricing_plan_id":"cebpf4jnsgd1na2vs0mg"},{"bike_id":"930f8f1f-9c1c-4d73-8fa0-15b8d8a442fe","system_id":"levelo_inurba_marseille","lat":43.29428,"lon":5.38608,"is_reserved":false,"is_disabled":false,"rental_uris":{"android":"levelo://app?vid=930f8f1f-9c1c-4d73-8fa0-15b8d8a442fe","ios":"levelo://app?vid=930f8f1f-9c1c-4d73-8fa0-15b8d8a442fe"},"vehicle_type_id":"4","last_reported":1744139327,"current_range_meters":9200,"station_id":"ce4bh2h2rcd13ifvqdh0","pricing_plan_id":"cebpf4jnsgd1na2vs0mg"},{"bike_id":"9c49defb-4334-41ab-8220-2526614f99e2","system_id":"levelo_inurba_marseille","lat":43.27462,"lon":5.39424,"is_reserved":false,"is_disabled":false,"rental_uris":{"android":"levelo://app?vid=9c49defb-4334-41ab-8220-2526614f99e2","ios":"levelo://app?vid=9c49defb-4334-41ab-8220-2526614f99e2"},"vehicle_type_id":"4","last_reported":1744139327,"current_range_meters":9600,"station_id":"ce4bhdp2rcd13ifvqf20","pricing_plan_id":"cebpf4jnsgd1na2vs0mg"},{"bike_id":"7bd7a4a3-340a-430e-955e-3a63de91d811","system_id":"levelo_inurba_marseille","lat":43.26801,"lon":5.40266,"is_reserved":false,"is_disabled":false,"rental_uris":{"android":"levelo://app?vid=7bd7a4a3-340a-430e-955e-3a63de91d811","ios":"levelo://app?vid=7bd7a4a3-340a-430e-955e-3a63de91d811"},"vehicle_type_id":"4","last_reported":1744139327,"current_range_meters":9600,"station_id":"ce501612rcd8frsf0b60","pricing_plan_id":"cebpf4jnsgd1na2vs0mg"},{"bike_id":"e50f3dc9-8c8f-43c1-9141-0ee8d31a7229","system_id":"levelo_inurba_marseille","lat":43.28029,"lon":5.36946,"is_reserved":false,"is_disabled":false,"rental_uris":{"android":"levelo://app?vid=e50f3dc9-8c8f-43c1-9141-0ee8d31a7229","ios":"levelo://app?vid=e50f3dc9-8c8f-43c1-9141-0ee8d31a7229"},"vehicle_type_id":"4","last_reported":1744139327,"current_range_meters":9600,"station_id":"ce4bha12rcd13ifvqef0","pricing_plan_id":"cebpf4jnsgd1na2vs0mg"},{"bike_id":"4f56331b-9e35-409f-a377-d5bd8e005031","system_id":"levelo_inurba_marseille","lat":43.28665,"lon":5.36346,"is_reserved":false,"is_disabled":false,"rental_uris":{"android":"levelo://app?vid=4f56331b-9e35-409f-a377-d5bd8e005031","ios":"levelo://app?vid=4f56331b-9e35-409f-a377-d5bd8e005031"},"vehicle_type_id":"4","last_reported":1744139327,"current_range_meters":9600,"station_id":"ce4bhah2rcd13ifvqej0","pricing_plan_id":"cebpf4jnsgd1na2vs0mg"},{"bike_id":"7c56632d-3d94-42a9-be38-3f006559c9a8","system_id":"levelo_inurba_marseille","lat":43.26194,"lon":5.37445,"is_reserved":false,"is_disabled":false,"rental_uris":{"android":"levelo://app?vid=7c56632d-3d94-42a9-be38-3f006559c9a8","ios":"levelo://app?vid=7c56632d-3d94-42a9-be38-3f006559c9a8"},"vehicle_type_id":"4","last_reported":1744139327,"current_range_meters":9600,"station_id":"ce4bhgp2rcd13ifvqfc0","pricing_plan_id":"cebpf4jnsgd1na2vs0mg"},{"bike_id":"40ca292a-76ff-4d5b-8d13-4fd0ee6d51c4","system_id":"levelo_inurba_marseille","lat":43.29679,"lon":5.37656,"is_reserved":false,"is_disabled":false,"rental_uris":{"android":"levelo://app?vid=40ca292a-76ff-4d5b-8d13-4fd0ee6d51c4","ios":"levelo://app?vid=40ca292a-76ff-4d5b-8d13-4fd0ee6d51c4"},"vehicle_type_id":"4","last_reported":1744139327,"current_range_meters":9600,"station_id":"ce4bgkh2rcd13ifvqbl0","pricing_plan_id":"cebpf4jnsgd1na2vs0mg"},{"bike_id":"5e6ad826-38da-4531-b4ba-2eda8622ede3","system_id":"levelo_inurba_marseille","lat":43.31093,"lon":5.40458,"is_reserved":false,"is_disabled":false,"rental_uris":{"android":"levelo://app?vid=5e6ad826-38da-4531-b4ba-2eda8622ede3","ios":"levelo://app?vid=5e6ad826-38da-4531-b4ba-2eda8622ede3"},"vehicle_type_id":"4","last_reported":1744139327,"current_range_meters":9600,"station_id":"","pricing_plan_id":"cebpf4jnsgd1na2vs0mg"},{"bike_id":"7ab1cfeb-8935-4bfd-a210-331c212db326","system_id":"levelo_inurba_marseille","lat":43.2953,"lon":5.38547,"is_reserved":false,"is_disabled":false,"rental_uris":{"android":"levelo://app?vid=7ab1cfeb-8935-4bfd-a210-331c212db326","ios":"levelo://app?vid=7ab1cfeb-8935-4bfd-a210-331c212db326"},"vehicle_type_id":"4","last_reported":1744139327,"current_range_meters":9600,"station_id":"ce4bgih2rcd13ifvqba0","pricing_plan_id":"cebpf4jnsgd1na2vs0mg"},{"bike_id":"b27fcc47-05cf-423e-a89a-91af467b8bbd","system_id":"levelo_inurba_marseille","lat":43.31173,"lon":5.38718,"is_reserved":false,"is_disabled":false,"rental_uris":{"android":"levelo://app?vid=b27fcc47-05cf-423e-a89a-91af467b8bbd","ios":"levelo://app?vid=b27fcc47-05cf-423e-a89a-91af467b8bbd"},"vehicle_type_id":"4","last_reported":1744139327,"current_range_meters":10000,"station_id":"ce4bgv12rcd13ifvqcp0","pricing_plan_id":"cebpf4jnsgd1na2vs0mg"},{"bike_id":"0aa02c49-cbb3-4907-a588-f754056f3ba8","system_id":"levelo_inurba_marseille","lat":43.3081,"lon":5.38153,"is_reserved":false,"is_disabled":true,"rental_uris":{"android":"levelo://app?vid=0aa02c49-cbb3-4907-a588-f754056f3ba8","ios":"levelo://app?vid=0aa02c49-cbb3-4907-a588-f754056f3ba8"},"vehicle_type_id":"4","last_reported":1744139327,"current_range_meters":10000,"station_id":"ce4bgt12rcd13ifvqce0","pricing_plan_id":"cebpf4jnsgd1na2vs0mg"},{"bike_id":"893726d6-b4ae-460a-8cf6-24eef831343f","system_id":"levelo_inurba_marseille","lat":43.304146,"lon":5.397558,"is_reserved":false,"is_disabled":false,"rental_uris":{"android":"levelo://app?vid=893726d6-b4ae-460a-8cf6-24eef831343f","ios":"levelo://app?vid=893726d6-b4ae-460a-8cf6-24eef831343f"},"vehicle_type_id":"4","last_reported":1744139327,"current_range_meters":9600,"station_id":"ce4bh092rcd13ifvqd20","pricing_plan_id":"cebpf4jnsgd1na2vs0mg"},{"bike_id":"68d1cc33-0218-451e-8e10-d32225c21263","system_id":"levelo_inurba_marseille","lat":43.23143,"lon":5.43704,"is_reserved":false,"is_disabled":true,"rental_uris":{"android":"levelo://app?vid=68d1cc33-0218-451e-8e10-d32225c21263","ios":"levelo://app?vid=68d1cc33-0218-451e-8e10-d32225c21263"},"vehicle_type_id":"4","last_reported":1744139327,"current_range_meters":10000,"station_id":"ce4bhmp2rcd13ifvqgog","pricing_plan_id":"cebpf4jnsgd1na2vs0mg"},{"bike_id":"242a3d8a-0014-4d5a-afe6-3c1e053ab9de","system_id":"levelo_inurba_marseille","lat":43.29021,"lon":5.3814,"is_reserved":false,"is_disabled":false,"rental_uris":{"android":"levelo://app?vid=242a3d8a-0014-4d5a-afe6-3c1e053ab9de","ios":"levelo://app?vid=242a3d8a-0014-4d5a-afe6-3c1e053ab9de"},"vehicle_type_id":"4","last_reported":1744139327,"current_range_meters":10000,"station_id":"ce4bh4p2rcd13ifvqe1g","pricing_plan_id":"cebpf4jnsgd1na2vs0mg"},{"bike_id":"6af3035c-2721-412c-bd07-7c7cb32d0084","system_id":"levelo_inurba_marseille","lat":43.29249,"lon":5.38432,"is_reserved":false,"is_disabled":false,"rental_uris":{"android":"levelo://app?vid=6af3035c-2721-412c-bd07-7c7cb32d0084","ios":"levelo://app?vid=6af3035c-2721-412c-bd07-7c7cb32d0084"},"vehicle_type_id":"4","last_reported":1744139327,"current_range_meters":10000,"station_id":"ce4bh692rcd13ifvqea0","pricing_plan_id":"cebpf4jnsgd1na2vs0mg"},{"bike_id":"6db24fd0-98ac-466b-936a-9880ef510afb","system_id":"levelo_inurba_marseille","lat":43.30783,"lon":5.37654,"is_reserved":false,"is_disabled":false,"rental_uris":{"android":"levelo://app?vid=6db24fd0-98ac-466b-936a-9880ef510afb","ios":"levelo://app?vid=6db24fd0-98ac-466b-936a-9880ef510afb"},"vehicle_type_id":"4","last_reported":1744139327,"current_range_meters":10000,"station_id":"ce4bgv92rcd13ifvqcq0","pricing_plan_id":"cebpf4jnsgd1na2vs0mg"},{"bike_id":"646cccfc-6a8c-492b-b49b-9dec4419fdf5","system_id":"levelo_inurba_marseille","lat":43.28478,"lon":5.38429,"is_reserved":false,"is_disabled":false,"rental_uris":{"android":"levelo://app?vid=646cccfc-6a8c-492b-b49b-9dec4419fdf5","ios":"levelo://app?vid=646cccfc-6a8c-492b-b49b-9dec4419fdf5"},"vehicle_type_id":"4","last_reported":1744139327,"current_range_meters":10000,"station_id":"ce4bh512rcd13ifvqe3g","pricing_plan_id":"cebpf4jnsgd1na2vs0mg"},{"bike_id":"650cd787-8c2a-4d8d-94da-55ff49e8aeb3","system_id":"levelo_inurba_marseille","lat":43.28856,"lon":5.35899,"is_reserved":false,"is_disabled":false,"rental_uris":{"android":"levelo://app?vid=650cd787-8c2a-4d8d-94da-55ff49e8aeb3","ios":"levelo://app?vid=650cd787-8c2a-4d8d-94da-55ff49e8aeb3"},"vehicle_type_id":"4","last_reported":1744139327,"current_range_meters":10000,"station_id":"ce4bhb12rcd13ifvqem0","pricing_plan_id":"cebpf4jnsgd1na2vs0mg"},{"bike_id":"94e58602-967e-42df-ae51-03e72ca997c6","system_id":"levelo_inurba_marseille","lat":43.32367,"lon":5.38866,"is_reserved":false,"is_disabled":false,"rental_uris":{"android":"levelo://app?vid=94e58602-967e-42df-ae51-03e72ca997c6","ios":"levelo://app?vid=94e58602-967e-42df-ae51-03e72ca997c6"},"vehicle_type_id":"4","last_reported":1744139327,"current_range_meters":10800,"station_id":"ce4bhqp2rcd13ifvqhog","pricing_plan_id":"cebpf4jnsgd1na2vs0mg"},{"bike_id":"0d99ee22-725d-4952-b51d-b30fd5691ef8","system_id":"levelo_inurba_marseille","lat":43.28106,"lon":5.378352,"is_reserved":false,"is_disabled":false,"rental_uris":{"android":"levelo://app?vid=0d99ee22-725d-4952-b51d-b30fd5691ef8","ios":"levelo://app?vid=0d99ee22-725d-4952-b51d-b30fd5691ef8"},"vehicle_type_id":"4","last_reported":1744139327,"current_range_meters":10800,"station_id":"ce4bha12rcd13ifvqee0","pricing_plan_id":"cebpf4jnsgd1na2vs0mg"},{"bike_id":"4f372c5e-1604-49ea-b823-35f44d971958","system_id":"levelo_inurba_marseille","lat":43.29873,"lon":5.3974,"is_reserved":false,"is_disabled":false,"rental_uris":{"android":"levelo://app?vid=4f372c5e-1604-49ea-b823-35f44d971958","ios":"levelo://app?vid=4f372c5e-1604-49ea-b823-35f44d971958"},"vehicle_type_id":"4","last_reported":1744139327,"current_range_meters":10800,"station_id":"ce4bh0h2rcd13ifvqd50","pricing_plan_id":"cebpf4jnsgd1na2vs0mg"},{"bike_id":"6a70cda0-db88-4854-ad33-fd2d05682d47","system_id":"levelo_inurba_marseille","lat":43.29984,"lon":5.37185,"is_reserved":false,"is_disabled":false,"rental_uris":{"android":"levelo://app?vid=6a70cda0-db88-4854-ad33-fd2d05682d47","ios":"levelo://app?vid=6a70cda0-db88-4854-ad33-fd2d05682d47"},"vehicle_type_id":"4","last_reported":1744139327,"current_range_meters":10800,"station_id":"ce4bgr92rcd13ifvqc7g","pricing_plan_id":"cebpf4jnsgd1na2vs0mg"},{"bike_id":"b602fabd-5103-4da3-93e3-b4391a75519d","system_id":"levelo_inurba_marseille","lat":43.30437,"lon":5.3889,"is_reserved":false,"is_disabled":false,"rental_uris":{"android":"levelo://app?vid=b602fabd-5103-4da3-93e3-b4391a75519d","ios":"levelo://app?vid=b602fabd-5103-4da3-93e3-b4391a75519d"},"vehicle_type_id":"4","last_reported":1744139327,"current_range_meters":10800,"station_id":"ce4bgk12rcd13ifvqbi0","pricing_plan_id":"cebpf4jnsgd1na2vs0mg"},{"bike_id":"50c8bff9-765c-499b-bfc1-df95e15d789b","system_id":"levelo_inurba_marseille","lat":43.29876,"lon":5.38902,"is_reserved":false,"is_disabled":false,"rental_uris":{"android":"levelo://app?vid=50c8bff9-765c-499b-bfc1-df95e15d789b","ios":"levelo://app?vid=50c8bff9-765c-499b-bfc1-df95e15d789b"},"vehicle_type_id":"4","last_reported":1744139327,"current_range_meters":10800,"station_id":"ce4bh392rcd13ifvqdl0","pricing_plan_id":"cebpf4jnsgd1na2vs0mg"},{"bike_id":"6740a552-979e-483f-b133-7488b18d7baa","system_id":"levelo_inurba_marseille","lat":43.28424,"lon":5.37537,"is_reserved":false,"is_disabled":false,"rental_uris":{"android":"levelo://app?vid=6740a552-979e-483f-b133-7488b18d7baa","ios":"levelo://app?vid=6740a552-979e-483f-b133-7488b18d7baa"},"vehicle_type_id":"4","last_reported":1744139327,"current_range_meters":10800,"station_id":"ce4bh412rcd13ifvqds0","pricing_plan_id":"cebpf4jnsgd1na2vs0mg"},{"bike_id":"7c99dfab-0928-4b46-828f-1ce5aecf7d41","system_id":"levelo_inurba_marseille","lat":43.29265,"lon":5.38429,"is_reserved":false,"is_disabled":false,"rental_uris":{"android":"levelo://app?vid=7c99dfab-0928-4b46-828f-1ce5aecf7d41","ios":"levelo://app?vid=7c99dfab-0928-4b46-828f-1ce5aecf7d41"},"vehicle_type_id":"4","last_reported":1744139327,"current_range_meters":10800,"station_id":"ce4bh692rcd13ifvqea0","pricing_plan_id":"cebpf4jnsgd1na2vs0mg"},{"bike_id":"6840b194-d99f-42ff-90a2-f12696d02246","system_id":"levelo_inurba_marseille","lat":43.29268,"lon":5.38447,"is_reserved":false,"is_disabled":false,"rental_uris":{"android":"levelo://app?vid=6840b194-d99f-42ff-90a2-f12696d02246","ios":"levelo://app?vid=6840b194-d99f-42ff-90a2-f12696d02246"},"vehicle_type_id":"4","last_reported":1744139327,"current_range_meters":10800,"station_id":"ce4bh692rcd13ifvqea0","pricing_plan_id":"cebpf4jnsgd1na2vs0mg"},{"bike_id":"612731d2-d819-48e3-b425-db5915ef53ee","system_id":"levelo_inurba_marseille","lat":43.28104,"lon":5.37835,"is_reserved":false,"is_disabled":false,"rental_uris":{"android":"levelo://app?vid=612731d2-d819-48e3-b425-db5915ef53ee","ios":"levelo://app?vid=612731d2-d819-48e3-b425-db5915ef53ee"},"vehicle_type_id":"4","last_reported":1744139327,"current_range_meters":10800,"station_id":"ce4bha12rcd13ifvqee0","pricing_plan_id":"cebpf4jnsgd1na2vs0mg"},{"bike_id":"e34f7c01-c5fa-4cd6-8388-b5cd12b4b9c7","system_id":"levelo_inurba_marseille","lat":43.28616,"lon":5.35103,"is_reserved":false,"is_disabled":true,"rental_uris":{"android":"levelo://app?vid=e34f7c01-c5fa-4cd6-8388-b5cd12b4b9c7","ios":"levelo://app?vid=e34f7c01-c5fa-4cd6-8388-b5cd12b4b9c7"},"vehicle_type_id":"4","last_reported":1744139327,"current_range_meters":10800,"station_id":"ce4bhch2rcd13ifvqeug","pricing_plan_id":"cebpf4jnsgd1na2vs0mg"},{"bike_id":"01abef82-ea15-412d-b20d-b98da429e0a3","system_id":"levelo_inurba_marseille","lat":43.29535,"lon":5.39391,"is_reserved":false,"is_disabled":false,"rental_uris":{"android":"levelo://app?vid=01abef82-ea15-412d-b20d-b98da429e0a3","ios":"levelo://app?vid=01abef82-ea15-412d-b20d-b98da429e0a3"},"vehicle_type_id":"4","last_reported":1744139327,"current_range_meters":10800,"station_id":"ce4bh292rcd13ifvqdf0","pricing_plan_id":"cebpf4jnsgd1na2vs0mg"},{"bike_id":"9cffcf86-ed75-4ffb-8e47-66434fcf5e93","system_id":"levelo_inurba_marseille","lat":43.28854,"lon":5.39303,"is_reserved":false,"is_disabled":false,"rental_uris":{"android":"levelo://app?vid=9cffcf86-ed75-4ffb-8e47-66434fcf5e93","ios":"levelo://app?vid=9cffcf86-ed75-4ffb-8e47-66434fcf5e93"},"vehicle_type_id":"4","last_reported":1744139327,"current_range_meters":11200,"station_id":"ce4bh2p2rcd13ifvqdi0","pricing_plan_id":"cebpf4jnsgd1na2vs0mg"},{"bike_id":"1ca7d0c4-b7aa-4350-ad9f-4e24c2ba029a","system_id":"levelo_inurba_marseille","lat":43.30385,"lon":5.42468,"is_reserved":false,"is_disabled":true,"rental_uris":{"android":"levelo://app?vid=1ca7d0c4-b7aa-4350-ad9f-4e24c2ba029a","ios":"levelo://app?vid=1ca7d0c4-b7aa-4350-ad9f-4e24c2ba029a"},"vehicle_type_id":"4","last_reported":1744139327,"current_range_meters":11200,"station_id":"ce4bhoh2rcd13ifvqh6g","pricing_plan_id":"cebpf4jnsgd1na2vs0mg"},{"bike_id":"196aab48-85b0-499e-8220-62200322436d","system_id":"levelo_inurba_marseille","lat":43.23191,"lon":5.35557,"is_reserved":false,"is_disabled":false,"rental_uris":{"android":"levelo://app?vid=196aab48-85b0-499e-8220-62200322436d","ios":"levelo://app?vid=196aab48-85b0-499e-8220-62200322436d"},"vehicle_type_id":"4","last_reported":1744139327,"current_range_meters":11200,"station_id":"ce4bhu92rcd13ifvqi70","pricing_plan_id":"cebpf4jnsgd1na2vs0mg"},{"bike_id":"634a716a-329d-4e5b-8937-12ac46414c41","system_id":"levelo_inurba_marseille","lat":43.24799,"lon":5.37455,"is_reserved":false,"is_disabled":false,"rental_uris":{"android":"levelo://app?vid=634a716a-329d-4e5b-8937-12ac46414c41","ios":"levelo://app?vid=634a716a-329d-4e5b-8937-12ac46414c41"},"vehicle_type_id":"4","last_reported":1744139327,"current_range_meters":11200,"station_id":"ce4bhgh2rcd13ifvqfb0","pricing_plan_id":"cebpf4jnsgd1na2vs0mg"},{"bike_id":"08f9c0c8-8b33-4578-8a03-20f44d582241","system_id":"levelo_inurba_marseille","lat":43.30612,"lon":5.37133,"is_reserved":false,"is_disabled":false,"rental_uris":{"android":"levelo://app?vid=08f9c0c8-8b33-4578-8a03-20f44d582241","ios":"levelo://app?vid=08f9c0c8-8b33-4578-8a03-20f44d582241"},"vehicle_type_id":"4","last_reported":1744139327,"current_range_meters":11200,"station_id":"","pricing_plan_id":"cebpf4jnsgd1na2vs0mg"},{"bike_id":"387189ff-7f4d-4f0c-82d6-c41186ed7c19","system_id":"levelo_inurba_marseille","lat":43.28353,"lon":5.38095,"is_reserved":false,"is_disabled":false,"rental_uris":{"android":"levelo://app?vid=387189ff-7f4d-4f0c-82d6-c41186ed7c19","ios":"levelo://app?vid=387189ff-7f4d-4f0c-82d6-c41186ed7c19"},"vehicle_type_id":"4","last_reported":1744139327,"current_range_meters":11200,"station_id":"ce4bh412rcd13ifvqdr0","pricing_plan_id":"cebpf4jnsgd1na2vs0mg"},{"bike_id":"494b9642-69a9-41cd-956a-add1a7bebf06","system_id":"levelo_inurba_marseille","lat":43.28732,"lon":5.37902,"is_reserved":false,"is_disabled":false,"rental_uris":{"android":"levelo://app?vid=494b9642-69a9-41cd-956a-add1a7bebf06","ios":"levelo://app?vid=494b9642-69a9-41cd-956a-add1a7bebf06"},"vehicle_type_id":"4","last_reported":1744139327,"current_range_meters":11200,"station_id":"ce4bh9p2rcd13ifvqec0","pricing_plan_id":"cebpf4jnsgd1na2vs0mg"},{"bike_id":"ff85d859-6e25-4ab6-9dd4-461048d94450","system_id":"levelo_inurba_marseille","lat":43.3118,"lon":5.38677,"is_reserved":false,"is_disabled":false,"rental_uris":{"android":"levelo://app?vid=ff85d859-6e25-4ab6-9dd4-461048d94450","ios":"levelo://app?vid=ff85d859-6e25-4ab6-9dd4-461048d94450"},"vehicle_type_id":"4","last_reported":1744139327,"current_range_meters":11600,"station_id":"ce4bgv12rcd13ifvqcp0","pricing_plan_id":"cebpf4jnsgd1na2vs0mg"},{"bike_id":"738063b0-91e6-49a5-9f8e-590ac01252f9","system_id":"levelo_inurba_marseille","lat":43.32291,"lon":5.38276,"is_reserved":false,"is_disabled":false,"rental_uris":{"android":"levelo://app?vid=738063b0-91e6-49a5-9f8e-590ac01252f9","ios":"levelo://app?vid=738063b0-91e6-49a5-9f8e-590ac01252f9"},"vehicle_type_id":"4","last_reported":1744139327,"current_range_meters":11600,"station_id":"ce4bhr12rcd13ifvqhqg","pricing_plan_id":"cebpf4jnsgd1na2vs0mg"},{"bike_id":"9c9c8f12-6412-4bbd-81d1-8e51de6b389a","system_id":"levelo_inurba_marseille","lat":43.31218,"lon":5.36854,"is_reserved":false,"is_disabled":false,"rental_uris":{"android":"levelo://app?vid=9c9c8f12-6412-4bbd-81d1-8e51de6b389a","ios":"levelo://app?vid=9c9c8f12-6412-4bbd-81d1-8e51de6b389a"},"vehicle_type_id":"4","last_reported":1744139327,"current_range_meters":11600,"station_id":"ce4bgl92rcd13ifvqbq0","pricing_plan_id":"cebpf4jnsgd1na2vs0mg"},{"bike_id":"546a3976-9f8c-40bf-8a6a-f02c67815294","system_id":"levelo_inurba_marseille","lat":43.28442,"lon":5.39208,"is_reserved":false,"is_disabled":false,"rental_uris":{"android":"levelo://app?vid=546a3976-9f8c-40bf-8a6a-f02c67815294","ios":"levelo://app?vid=546a3976-9f8c-40bf-8a6a-f02c67815294"},"vehicle_type_id":"4","last_reported":1744139327,"current_range_meters":11600,"station_id":"ce4bhoh2rcd13ifvqh5g","pricing_plan_id":"cebpf4jnsgd1na2vs0mg"},{"bike_id":"9fce7fb9-26b6-4832-9f96-ea1b75c489f0","system_id":"levelo_inurba_marseille","lat":43.23194,"lon":5.35575,"is_reserved":false,"is_disabled":false,"rental_uris":{"android":"levelo://app?vid=9fce7fb9-26b6-4832-9f96-ea1b75c489f0","ios":"levelo://app?vid=9fce7fb9-26b6-4832-9f96-ea1b75c489f0"},"vehicle_type_id":"4","last_reported":1744139327,"current_range_meters":11600,"station_id":"ce4bhu92rcd13ifvqi70","pricing_plan_id":"cebpf4jnsgd1na2vs0mg"},{"bike_id":"05ebd012-a397-44d6-8d3a-b4fd8a759a09","system_id":"levelo_inurba_marseille","lat":43.30798,"lon":5.4354,"is_reserved":false,"is_disabled":false,"rental_uris":{"android":"levelo://app?vid=05ebd012-a397-44d6-8d3a-b4fd8a759a09","ios":"levelo://app?vid=05ebd012-a397-44d6-8d3a-b4fd8a759a09"},"vehicle_type_id":"4","last_reported":1744139327,"current_range_meters":11600,"station_id":"ce4bhph2rcd13ifvqheg","pricing_plan_id":"cebpf4jnsgd1na2vs0mg"},{"bike_id":"31329c81-2063-42f9-a00b-e34ab0dbbfd6","system_id":"levelo_inurba_marseille","lat":43.29534,"lon":5.39062,"is_reserved":false,"is_disabled":false,"rental_uris":{"android":"levelo://app?vid=31329c81-2063-42f9-a00b-e34ab0dbbfd6","ios":"levelo://app?vid=31329c81-2063-42f9-a00b-e34ab0dbbfd6"},"vehicle_type_id":"4","last_reported":1744139327,"current_range_meters":11600,"station_id":"ce4bh3p2rcd13ifvqdp0","pricing_plan_id":"cebpf4jnsgd1na2vs0mg"},{"bike_id":"8b942745-2dfa-4486-a18e-9ed1220664c2","system_id":"levelo_inurba_marseille","lat":43.2847,"lon":5.38432,"is_reserved":false,"is_disabled":false,"rental_uris":{"android":"levelo://app?vid=8b942745-2dfa-4486-a18e-9ed1220664c2","ios":"levelo://app?vid=8b942745-2dfa-4486-a18e-9ed1220664c2"},"vehicle_type_id":"4","last_reported":1744139327,"current_range_meters":11600,"station_id":"ce4bh512rcd13ifvqe3g","pricing_plan_id":"cebpf4jnsgd1na2vs0mg"},{"bike_id":"b397701f-0d3d-44bf-ab3e-3ccc7e74fb2e","system_id":"levelo_inurba_marseille","lat":43.26449,"lon":5.42271,"is_reserved":false,"is_disabled":false,"rental_uris":{"android":"levelo://app?vid=b397701f-0d3d-44bf-ab3e-3ccc7e74fb2e","ios":"levelo://app?vid=b397701f-0d3d-44bf-ab3e-3ccc7e74fb2e"},"vehicle_type_id":"4","last_reported":1744139327,"current_range_meters":11600,"station_id":"","pricing_plan_id":"cebpf4jnsgd1na2vs0mg"},{"bike_id":"5937f653-3f65-407b-9fe6-74eb6bfaa526","system_id":"levelo_inurba_marseille","lat":43.29799,"lon":5.38097,"is_reserved":false,"is_disabled":false,"rental_uris":{"android":"levelo://app?vid=5937f653-3f65-407b-9fe6-74eb6bfaa526","ios":"levelo://app?vid=5937f653-3f65-407b-9fe6-74eb6bfaa526"},"vehicle_type_id":"4","last_reported":1744139327,"current_range_meters":12000,"station_id":"ce4bgip2rcd13ifvqbb0","pricing_plan_id":"cebpf4jnsgd1na2vs0mg"},{"bike_id":"50c8699b-949f-43ee-88ce-812352ddd1dd","system_id":"levelo_inurba_marseille","lat":43.29866,"lon":5.39726,"is_reserved":false,"is_disabled":false,"rental_uris":{"android":"levelo://app?vid=50c8699b-949f-43ee-88ce-812352ddd1dd","ios":"levelo://app?vid=50c8699b-949f-43ee-88ce-812352ddd1dd"},"vehicle_type_id":"4","last_reported":1744139327,"current_range_meters":12000,"station_id":"ce4bh0h2rcd13ifvqd50","pricing_plan_id":"cebpf4jnsgd1na2vs0mg"},{"bike_id":"b245dd73-ef40-4712-bb13-389eadbef8d1","system_id":"levelo_inurba_marseille","lat":43.299007,"lon":5.43659,"is_reserved":false,"is_disabled":false,"rental_uris":{"android":"levelo://app?vid=b245dd73-ef40-4712-bb13-389eadbef8d1","ios":"levelo://app?vid=b245dd73-ef40-4712-bb13-389eadbef8d1"},"vehicle_type_id":"4","last_reported":1744139327,"current_range_meters":12000,"station_id":"ce4bhpp2rcd13ifvqhfg","pricing_plan_id":"cebpf4jnsgd1na2vs0mg"},{"bike_id":"ead5846b-c016-4502-9a70-8d471830caf3","system_id":"levelo_inurba_marseille","lat":43.27205,"lon":5.3919,"is_reserved":false,"is_disabled":false,"rental_uris":{"android":"levelo://app?vid=ead5846b-c016-4502-9a70-8d471830caf3","ios":"levelo://app?vid=ead5846b-c016-4502-9a70-8d471830caf3"},"vehicle_type_id":"4","last_reported":1744139327,"current_range_meters":12000,"station_id":"ce4bhhp2rcd13ifvqfm0","pricing_plan_id":"cebpf4jnsgd1na2vs0mg"},{"bike_id":"4c4fcce1-03b9-4180-9ea6-52f98c669f14","system_id":"levelo_inurba_marseille","lat":43.29801,"lon":5.38082,"is_reserved":false,"is_disabled":false,"rental_uris":{"android":"levelo://app?vid=4c4fcce1-03b9-4180-9ea6-52f98c669f14","ios":"levelo://app?vid=4c4fcce1-03b9-4180-9ea6-52f98c669f14"},"vehicle_type_id":"4","last_reported":1744139327,"current_range_meters":12000,"station_id":"ce4bgip2rcd13ifvqbb0","pricing_plan_id":"cebpf4jnsgd1na2vs0mg"},{"bike_id":"fc7b48b5-4029-4080-bb79-1dc5cf0d08bc","system_id":"levelo_inurba_marseille","lat":43.30272,"lon":5.40056,"is_reserved":false,"is_disabled":false,"rental_uris":{"android":"levelo://app?vid=fc7b48b5-4029-4080-bb79-1dc5cf0d08bc","ios":"levelo://app?vid=fc7b48b5-4029-4080-bb79-1dc5cf0d08bc"},"vehicle_type_id":"4","last_reported":1744139327,"current_range_meters":12400,"station_id":"ce4bgvh2rcd13ifvqcs0","pricing_plan_id":"cebpf4jnsgd1na2vs0mg"},{"bike_id":"8828973b-9b18-40f1-8746-f792cb3badc0","system_id":"levelo_inurba_marseille","lat":43.27914,"lon":5.380187,"is_reserved":false,"is_disabled":false,"rental_uris":{"android":"levelo://app?vid=8828973b-9b18-40f1-8746-f792cb3badc0","ios":"levelo://app?vid=8828973b-9b18-40f1-8746-f792cb3badc0"},"vehicle_type_id":"4","last_reported":1744139327,"current_range_meters":12400,"station_id":"ce4bhf92rcd13ifvqf50","pricing_plan_id":"cebpf4jnsgd1na2vs0mg"},{"bike_id":"d41270f1-fec7-4c37-a954-f4e257bbdc37","system_id":"levelo_inurba_marseille","lat":43.29289,"lon":5.38453,"is_reserved":false,"is_disabled":false,"rental_uris":{"android":"levelo://app?vid=d41270f1-fec7-4c37-a954-f4e257bbdc37","ios":"levelo://app?vid=d41270f1-fec7-4c37-a954-f4e257bbdc37"},"vehicle_type_id":"4","last_reported":1744139327,"current_range_meters":12400,"station_id":"ce4bh692rcd13ifvqea0","pricing_plan_id":"cebpf4jnsgd1na2vs0mg"},{"bike_id":"49b5b449-0414-42f8-89c2-1949e69312b5","system_id":"levelo_inurba_marseille","lat":43.24821,"lon":5.37441,"is_reserved":false,"is_disabled":false,"rental_uris":{"android":"levelo://app?vid=49b5b449-0414-42f8-89c2-1949e69312b5","ios":"levelo://app?vid=49b5b449-0414-42f8-89c2-1949e69312b5"},"vehicle_type_id":"4","last_reported":1744139327,"current_range_meters":12400,"station_id":"ce4bhgh2rcd13ifvqfb0","pricing_plan_id":"cebpf4jnsgd1na2vs0mg"},{"bike_id":"6a20b73d-ec30-49e5-829c-5dbe5107da24","system_id":"levelo_inurba_marseille","lat":43.29796,"lon":5.4041,"is_reserved":false,"is_disabled":false,"rental_uris":{"android":"levelo://app?vid=6a20b73d-ec30-49e5-829c-5dbe5107da24","ios":"levelo://app?vid=6a20b73d-ec30-49e5-829c-5dbe5107da24"},"vehicle_type_id":"4","last_reported":1744139327,"current_range_meters":12400,"station_id":"ce4bh112rcd13ifvqd90","pricing_plan_id":"cebpf4jnsgd1na2vs0mg"},{"bike_id":"16b1f7e2-9d61-4a84-ad43-cbc8f21d47b2","system_id":"levelo_inurba_marseille","lat":43.29262,"lon":5.38448,"is_reserved":false,"is_disabled":false,"rental_uris":{"android":"levelo://app?vid=16b1f7e2-9d61-4a84-ad43-cbc8f21d47b2","ios":"levelo://app?vid=16b1f7e2-9d61-4a84-ad43-cbc8f21d47b2"},"vehicle_type_id":"4","last_reported":1744139327,"current_range_meters":12400,"station_id":"ce4bh692rcd13ifvqea0","pricing_plan_id":"cebpf4jnsgd1na2vs0mg"},{"bike_id":"2f69d31d-1e22-46b5-b363-7e3db009c8ab","system_id":"levelo_inurba_marseille","lat":43.29517,"lon":5.39037,"is_reserved":false,"is_disabled":false,"rental_uris":{"android":"levelo://app?vid=2f69d31d-1e22-46b5-b363-7e3db009c8ab","ios":"levelo://app?vid=2f69d31d-1e22-46b5-b363-7e3db009c8ab"},"vehicle_type_id":"4","last_reported":1744139327,"current_range_meters":12400,"station_id":"ce4bh3p2rcd13ifvqdp0","pricing_plan_id":"cebpf4jnsgd1na2vs0mg"},{"bike_id":"32df1227-b4de-4992-8f1d-3f8aaf42235c","system_id":"levelo_inurba_marseille","lat":43.302035,"lon":5.397511,"is_reserved":false,"is_disabled":false,"rental_uris":{"android":"levelo://app?vid=32df1227-b4de-4992-8f1d-3f8aaf42235c","ios":"levelo://app?vid=32df1227-b4de-4992-8f1d-3f8aaf42235c"},"vehicle_type_id":"4","last_reported":1744139327,"current_range_meters":12000,"station_id":"ce4bhqh2rcd13ifvqhlg","pricing_plan_id":"cebpf4jnsgd1na2vs0mg"},{"bike_id":"500b552f-56b8-4b4a-939e-43e5a1336a03","system_id":"levelo_inurba_marseille","lat":43.24669,"lon":5.38156,"is_reserved":false,"is_disabled":false,"rental_uris":{"android":"levelo://app?vid=500b552f-56b8-4b4a-939e-43e5a1336a03","ios":"levelo://app?vid=500b552f-56b8-4b4a-939e-43e5a1336a03"},"vehicle_type_id":"4","last_reported":1744139327,"current_range_meters":12000,"station_id":"ce4bhih2rcd13ifvqfr0","pricing_plan_id":"cebpf4jnsgd1na2vs0mg"},{"bike_id":"894923f7-24a8-4f05-8d0c-1af4b4d3211a","system_id":"levelo_inurba_marseille","lat":43.30326,"lon":5.39205,"is_reserved":false,"is_disabled":true,"rental_uris":{"android":"levelo://app?vid=894923f7-24a8-4f05-8d0c-1af4b4d3211a","ios":"levelo://app?vid=894923f7-24a8-4f05-8d0c-1af4b4d3211a"},"vehicle_type_id":"4","last_reported":1744139327,"current_range_meters":12800,"station_id":"ce4bgkh2rcd13ifvqbk0","pricing_plan_id":"cebpf4jnsgd1na2vs0mg"},{"bike_id":"8379372e-c06d-426f-85f9-acdc4eafa151","system_id":"levelo_inurba_marseille","lat":43.21747,"lon":5.34596,"is_reserved":false,"is_disabled":true,"rental_uris":{"android":"levelo://app?vid=8379372e-c06d-426f-85f9-acdc4eafa151","ios":"levelo://app?vid=8379372e-c06d-426f-85f9-acdc4eafa151"},"vehicle_type_id":"4","last_reported":1744139327,"current_range_meters":12800,"station_id":"st_cvj6r9ubvosntc0bgbag","pricing_plan_id":"cebpf4jnsgd1na2vs0mg"},{"bike_id":"c353df7a-7ff4-49c9-ba85-cb7fefbe3e58","system_id":"levelo_inurba_marseille","lat":43.28984,"lon":5.37816,"is_reserved":false,"is_disabled":false,"rental_uris":{"android":"levelo://app?vid=c353df7a-7ff4-49c9-ba85-cb7fefbe3e58","ios":"levelo://app?vid=c353df7a-7ff4-49c9-ba85-cb7fefbe3e58"},"vehicle_type_id":"4","last_reported":1744139327,"current_range_meters":13600,"station_id":"ce4bh9p2rcd13ifvqed0","pricing_plan_id":"cebpf4jnsgd1na2vs0mg"},{"bike_id":"c18d095a-dc5f-4a5c-baf2-0da0cb1b1c3b","system_id":"levelo_inurba_marseille","lat":43.31168,"lon":5.38727,"is_reserved":false,"is_disabled":false,"rental_uris":{"android":"levelo://app?vid=c18d095a-dc5f-4a5c-baf2-0da0cb1b1c3b","ios":"levelo://app?vid=c18d095a-dc5f-4a5c-baf2-0da0cb1b1c3b"},"vehicle_type_id":"4","last_reported":1744139327,"current_range_meters":13600,"station_id":"ce4bgv12rcd13ifvqcp0","pricing_plan_id":"cebpf4jnsgd1na2vs0mg"},{"bike_id":"f9dc6885-a20a-4330-a857-9be88c7a4c08","system_id":"levelo_inurba_marseille","lat":43.284066,"lon":5.375171,"is_reserved":false,"is_disabled":false,"rental_uris":{"android":"levelo://app?vid=f9dc6885-a20a-4330-a857-9be88c7a4c08","ios":"levelo://app?vid=f9dc6885-a20a-4330-a857-9be88c7a4c08"},"vehicle_type_id":"4","last_reported":1744139327,"current_range_meters":13600,"station_id":"ce4bh412rcd13ifvqds0","pricing_plan_id":"cebpf4jnsgd1na2vs0mg"},{"bike_id":"a5618aef-65c7-4f8f-8645-3f781dc34ea2","system_id":"levelo_inurba_marseille","lat":43.29534,"lon":5.38552,"is_reserved":false,"is_disabled":false,"rental_uris":{"android":"levelo://app?vid=a5618aef-65c7-4f8f-8645-3f781dc34ea2","ios":"levelo://app?vid=a5618aef-65c7-4f8f-8645-3f781dc34ea2"},"vehicle_type_id":"4","last_reported":1744139327,"current_range_meters":14400,"station_id":"ce4bgih2rcd13ifvqba0","pricing_plan_id":"cebpf4jnsgd1na2vs0mg"},{"bike_id":"4e322dfd-059c-4b86-9cd8-edff919089ee","system_id":"levelo_inurba_marseille","lat":43.25108,"lon":5.40326,"is_reserved":false,"is_disabled":false,"rental_uris":{"android":"levelo://app?vid=4e322dfd-059c-4b86-9cd8-edff919089ee","ios":"levelo://app?vid=4e322dfd-059c-4b86-9cd8-edff919089ee"},"vehicle_type_id":"4","last_reported":1744139327,"current_range_meters":14000,"station_id":"ce4bhlh2rcd13ifvqgig","pricing_plan_id":"cebpf4jnsgd1na2vs0mg"},{"bike_id":"e5569473-5b1e-48b1-a1ca-0de8ff32da8f","system_id":"levelo_inurba_marseille","lat":43.29428,"lon":5.38636,"is_reserved":false,"is_disabled":false,"rental_uris":{"android":"levelo://app?vid=e5569473-5b1e-48b1-a1ca-0de8ff32da8f","ios":"levelo://app?vid=e5569473-5b1e-48b1-a1ca-0de8ff32da8f"},"vehicle_type_id":"4","last_reported":1744139327,"current_range_meters":14000,"station_id":"ce4bh2h2rcd13ifvqdh0","pricing_plan_id":"cebpf4jnsgd1na2vs0mg"},{"bike_id":"75d9cc88-2117-44c3-9d56-d428c47d1f06","system_id":"levelo_inurba_marseille","lat":43.2511,"lon":5.40318,"is_reserved":false,"is_disabled":false,"rental_uris":{"android":"levelo://app?vid=75d9cc88-2117-44c3-9d56-d428c47d1f06","ios":"levelo://app?vid=75d9cc88-2117-44c3-9d56-d428c47d1f06"},"vehicle_type_id":"4","last_reported":1744139327,"current_range_meters":14000,"station_id":"ce4bhlh2rcd13ifvqgig","pricing_plan_id":"cebpf4jnsgd1na2vs0mg"},{"bike_id":"76055e52-9550-430a-942e-266679872c8d","system_id":"levelo_inurba_marseille","lat":43.28667,"lon":5.3635,"is_reserved":false,"is_disabled":false,"rental_uris":{"android":"levelo://app?vid=76055e52-9550-430a-942e-266679872c8d","ios":"levelo://app?vid=76055e52-9550-430a-942e-266679872c8d"},"vehicle_type_id":"4","last_reported":1744139327,"current_range_meters":14000,"station_id":"ce4bhah2rcd13ifvqej0","pricing_plan_id":"cebpf4jnsgd1na2vs0mg"},{"bike_id":"99ceca84-54f5-4720-a3ce-237a4e130355","system_id":"levelo_inurba_marseille","lat":43.29533,"lon":5.39025,"is_reserved":false,"is_disabled":false,"rental_uris":{"android":"levelo://app?vid=99ceca84-54f5-4720-a3ce-237a4e130355","ios":"levelo://app?vid=99ceca84-54f5-4720-a3ce-237a4e130355"},"vehicle_type_id":"4","last_reported":1744139327,"current_range_meters":14000,"station_id":"ce4bh3p2rcd13ifvqdp0","pricing_plan_id":"cebpf4jnsgd1na2vs0mg"},{"bike_id":"71ce5e89-c8a6-49e6-b42c-b50c578b9d68","system_id":"levelo_inurba_marseille","lat":43.29413,"lon":5.38631,"is_reserved":false,"is_disabled":false,"rental_uris":{"android":"levelo://app?vid=71ce5e89-c8a6-49e6-b42c-b50c578b9d68","ios":"levelo://app?vid=71ce5e89-c8a6-49e6-b42c-b50c578b9d68"},"vehicle_type_id":"4","last_reported":1744139327,"current_range_meters":14000,"station_id":"ce4bh2h2rcd13ifvqdh0","pricing_plan_id":"cebpf4jnsgd1na2vs0mg"},{"bike_id":"5b546d00-15e4-44f0-bb65-854ef6d9da34","system_id":"levelo_inurba_marseille","lat":43.293822,"lon":5.379235,"is_reserved":false,"is_disabled":false,"rental_uris":{"android":"levelo://app?vid=5b546d00-15e4-44f0-bb65-854ef6d9da34","ios":"levelo://app?vid=5b546d00-15e4-44f0-bb65-854ef6d9da34"},"vehicle_type_id":"4","last_reported":1744139327,"current_range_meters":14000,"station_id":"ce4bh292rcd13ifvqdg0","pricing_plan_id":"cebpf4jnsgd1na2vs0mg"},{"bike_id":"6930d67b-2458-4570-9e0b-4358d6227b4b","system_id":"levelo_inurba_marseille","lat":43.23195,"lon":5.35566,"is_reserved":false,"is_disabled":false,"rental_uris":{"android":"levelo://app?vid=6930d67b-2458-4570-9e0b-4358d6227b4b","ios":"levelo://app?vid=6930d67b-2458-4570-9e0b-4358d6227b4b"},"vehicle_type_id":"4","last_reported":1744139327,"current_range_meters":14400,"station_id":"ce4bhu92rcd13ifvqi70","pricing_plan_id":"cebpf4jnsgd1na2vs0mg"},{"bike_id":"0c445d51-54ad-4dfc-88dd-894bcc913eeb","system_id":"levelo_inurba_marseille","lat":43.3373,"lon":5.39187,"is_reserved":false,"is_disabled":false,"rental_uris":{"android":"levelo://app?vid=0c445d51-54ad-4dfc-88dd-894bcc913eeb","ios":"levelo://app?vid=0c445d51-54ad-4dfc-88dd-894bcc913eeb"},"vehicle_type_id":"4","last_reported":1744139327,"current_range_meters":14400,"station_id":"ce4bhr92rcd13ifvqhsg","pricing_plan_id":"cebpf4jnsgd1na2vs0mg"},{"bike_id":"65014ad2-271c-4d64-9b7a-10d5454b3fa0","system_id":"levelo_inurba_marseille","lat":43.294434,"lon":5.402541,"is_reserved":false,"is_disabled":false,"rental_uris":{"android":"levelo://app?vid=65014ad2-271c-4d64-9b7a-10d5454b3fa0","ios":"levelo://app?vid=65014ad2-271c-4d64-9b7a-10d5454b3fa0"},"vehicle_type_id":"4","last_reported":1744139327,"current_range_meters":14400,"station_id":"ce4bgkh2rcd13ifvqbl0","pricing_plan_id":"cebpf4jnsgd1na2vs0mg"},{"bike_id":"a80c673f-2f84-4a1d-9b68-5498839ef9b9","system_id":"levelo_inurba_marseille","lat":43.29516,"lon":5.39043,"is_reserved":false,"is_disabled":false,"rental_uris":{"android":"levelo://app?vid=a80c673f-2f84-4a1d-9b68-5498839ef9b9","ios":"levelo://app?vid=a80c673f-2f84-4a1d-9b68-5498839ef9b9"},"vehicle_type_id":"4","last_reported":1744139327,"current_range_meters":14400,"station_id":"ce4bh3p2rcd13ifvqdp0","pricing_plan_id":"cebpf4jnsgd1na2vs0mg"},{"bike_id":"27c449ee-8d2a-4434-8da9-2839aac8e3b0","system_id":"levelo_inurba_marseille","lat":43.29794,"lon":5.40407,"is_reserved":false,"is_disabled":false,"rental_uris":{"android":"levelo://app?vid=27c449ee-8d2a-4434-8da9-2839aac8e3b0","ios":"levelo://app?vid=27c449ee-8d2a-4434-8da9-2839aac8e3b0"},"vehicle_type_id":"4","last_reported":1744139327,"current_range_meters":14000,"station_id":"ce4bh112rcd13ifvqd90","pricing_plan_id":"cebpf4jnsgd1na2vs0mg"},{"bike_id":"87318308-2386-42b4-bb81-47037d470255","system_id":"levelo_inurba_marseille","lat":43.29369,"lon":5.37852,"is_reserved":false,"is_disabled":false,"rental_uris":{"android":"levelo://app?vid=87318308-2386-42b4-bb81-47037d470255","ios":"levelo://app?vid=87318308-2386-42b4-bb81-47037d470255"},"vehicle_type_id":"4","last_reported":1744139327,"current_range_meters":14400,"station_id":"ce4bgjh2rcd13ifvqbf0","pricing_plan_id":"cebpf4jnsgd1na2vs0mg"},{"bike_id":"dc92e84f-c532-4ea5-ba73-f4002b6f85aa","system_id":"levelo_inurba_marseille","lat":43.299,"lon":5.43667,"is_reserved":false,"is_disabled":false,"rental_uris":{"android":"levelo://app?vid=dc92e84f-c532-4ea5-ba73-f4002b6f85aa","ios":"levelo://app?vid=dc92e84f-c532-4ea5-ba73-f4002b6f85aa"},"vehicle_type_id":"4","last_reported":1744139327,"current_range_meters":14400,"station_id":"ce4bhpp2rcd13ifvqhfg","pricing_plan_id":"cebpf4jnsgd1na2vs0mg"},{"bike_id":"3b6ac443-184b-4fbe-8edb-c707f86f57de","system_id":"levelo_inurba_marseille","lat":43.30889,"lon":5.396586,"is_reserved":false,"is_disabled":false,"rental_uris":{"android":"levelo://app?vid=3b6ac443-184b-4fbe-8edb-c707f86f57de","ios":"levelo://app?vid=3b6ac443-184b-4fbe-8edb-c707f86f57de"},"vehicle_type_id":"4","last_reported":1744139327,"current_range_meters":14000,"station_id":"ce4bh012rcd13ifvqcv0","pricing_plan_id":"cebpf4jnsgd1na2vs0mg"},{"bike_id":"99a6a717-92e6-47d6-87b8-bd57a011909d","system_id":"levelo_inurba_marseille","lat":43.29293,"lon":5.37464,"is_reserved":false,"is_disabled":false,"rental_uris":{"android":"levelo://app?vid=99a6a717-92e6-47d6-87b8-bd57a011909d","ios":"levelo://app?vid=99a6a717-92e6-47d6-87b8-bd57a011909d"},"vehicle_type_id":"4","last_reported":1744139327,"current_range_meters":14800,"station_id":"ce4bgi12rcd13ifvqb70","pricing_plan_id":"cebpf4jnsgd1na2vs0mg"},{"bike_id":"12ae4edb-8afc-46da-b908-e730372891f8","system_id":"levelo_inurba_marseille","lat":43.3171,"lon":5.40456,"is_reserved":false,"is_disabled":false,"rental_uris":{"android":"levelo://app?vid=12ae4edb-8afc-46da-b908-e730372891f8","ios":"levelo://app?vid=12ae4edb-8afc-46da-b908-e730372891f8"},"vehicle_type_id":"4","last_reported":1744139327,"current_range_meters":14800,"station_id":"ce4bh012rcd13ifvqd00","pricing_plan_id":"cebpf4jnsgd1na2vs0mg"},{"bike_id":"4612345c-75a3-4189-8a6d-651578d0ecd4","system_id":"levelo_inurba_marseille","lat":43.24807,"lon":5.37462,"is_reserved":false,"is_disabled":true,"rental_uris":{"android":"levelo://app?vid=4612345c-75a3-4189-8a6d-651578d0ecd4","ios":"levelo://app?vid=4612345c-75a3-4189-8a6d-651578d0ecd4"},"vehicle_type_id":"4","last_reported":1744139327,"current_range_meters":14800,"station_id":"ce4bhgh2rcd13ifvqfb0","pricing_plan_id":"cebpf4jnsgd1na2vs0mg"},{"bike_id":"d7bd8ab9-fa06-4635-a06b-f1c042f07e91","system_id":"levelo_inurba_marseille","lat":43.29601,"lon":5.38106,"is_reserved":false,"is_disabled":false,"rental_uris":{"android":"levelo://app?vid=d7bd8ab9-fa06-4635-a06b-f1c042f07e91","ios":"levelo://app?vid=d7bd8ab9-fa06-4635-a06b-f1c042f07e91"},"vehicle_type_id":"4","last_reported":1744139327,"current_range_meters":14800,"station_id":"ce4bgl12rcd13ifvqbo0","pricing_plan_id":"cebpf4jnsgd1na2vs0mg"},{"bike_id":"77bf1b8c-314e-4df8-8865-c0b5cdb8fbee","system_id":"levelo_inurba_marseille","lat":43.25086,"lon":5.39495,"is_reserved":false,"is_disabled":false,"rental_uris":{"android":"levelo://app?vid=77bf1b8c-314e-4df8-8865-c0b5cdb8fbee","ios":"levelo://app?vid=77bf1b8c-314e-4df8-8865-c0b5cdb8fbee"},"vehicle_type_id":"4","last_reported":1744139327,"current_range_meters":14800,"station_id":"ce4bhm12rcd13ifvqgkg","pricing_plan_id":"cebpf4jnsgd1na2vs0mg"},{"bike_id":"3f957d2b-f167-46eb-8e17-429eec6627a6","system_id":"levelo_inurba_marseille","lat":43.29957,"lon":5.38503,"is_reserved":false,"is_disabled":false,"rental_uris":{"android":"levelo://app?vid=3f957d2b-f167-46eb-8e17-429eec6627a6","ios":"levelo://app?vid=3f957d2b-f167-46eb-8e17-429eec6627a6"},"vehicle_type_id":"4","last_reported":1744139327,"current_range_meters":14800,"station_id":"ce4bgj92rcd13ifvqbd0","pricing_plan_id":"cebpf4jnsgd1na2vs0mg"},{"bike_id":"e24c6fd3-f9cb-40c7-9e57-dd2c20540e9b","system_id":"levelo_inurba_marseille","lat":43.3172,"lon":5.4244,"is_reserved":false,"is_disabled":false,"rental_uris":{"android":"levelo://app?vid=e24c6fd3-f9cb-40c7-9e57-dd2c20540e9b","ios":"levelo://app?vid=e24c6fd3-f9cb-40c7-9e57-dd2c20540e9b"},"vehicle_type_id":"4","last_reported":1744139327,"current_range_meters":14800,"station_id":"ce4bhp92rcd13ifvqhbg","pricing_plan_id":"cebpf4jnsgd1na2vs0mg"},{"bike_id":"48a6eaf0-d09e-43e5-a6dc-37cd4d6036e6","system_id":"levelo_inurba_marseille","lat":43.32653,"lon":5.40994,"is_reserved":false,"is_disabled":false,"rental_uris":{"android":"levelo://app?vid=48a6eaf0-d09e-43e5-a6dc-37cd4d6036e6","ios":"levelo://app?vid=48a6eaf0-d09e-43e5-a6dc-37cd4d6036e6"},"vehicle_type_id":"4","last_reported":1744139327,"current_range_meters":14400,"station_id":"ce4bhpp2rcd13ifvqhgg","pricing_plan_id":"cebpf4jnsgd1na2vs0mg"},{"bike_id":"7163ac7c-65ef-4958-9d68-64f27caf74ba","system_id":"levelo_inurba_marseille","lat":43.27971,"lon":5.410482,"is_reserved":false,"is_disabled":false,"rental_uris":{"android":"levelo://app?vid=7163ac7c-65ef-4958-9d68-64f27caf74ba","ios":"levelo://app?vid=7163ac7c-65ef-4958-9d68-64f27caf74ba"},"vehicle_type_id":"4","last_reported":1744139327,"current_range_meters":15200,"station_id":"ce4bhgp2rcd13ifvqfc0","pricing_plan_id":"cebpf4jnsgd1na2vs0mg"},{"bike_id":"41da13e3-55a9-430d-b010-65e97a50bc5c","system_id":"levelo_inurba_marseille","lat":43.2979,"lon":5.39348,"is_reserved":false,"is_disabled":false,"rental_uris":{"android":"levelo://app?vid=41da13e3-55a9-430d-b010-65e97a50bc5c","ios":"levelo://app?vid=41da13e3-55a9-430d-b010-65e97a50bc5c"},"vehicle_type_id":"4","last_reported":1744139327,"current_range_meters":15200,"station_id":"chh1huq6cuj3fo74tm60","pricing_plan_id":"cebpf4jnsgd1na2vs0mg"},{"bike_id":"606a193b-cd9c-4902-b91a-b77f6adc5e47","system_id":"levelo_inurba_marseille","lat":43.2844,"lon":5.392,"is_reserved":false,"is_disabled":false,"rental_uris":{"android":"levelo://app?vid=606a193b-cd9c-4902-b91a-b77f6adc5e47","ios":"levelo://app?vid=606a193b-cd9c-4902-b91a-b77f6adc5e47"},"vehicle_type_id":"4","last_reported":1744139327,"current_range_meters":15200,"station_id":"ce4bhoh2rcd13ifvqh5g","pricing_plan_id":"cebpf4jnsgd1na2vs0mg"},{"bike_id":"def16230-6839-41bc-97e8-197ff2eb3975","system_id":"levelo_inurba_marseille","lat":43.2953,"lon":5.38533,"is_reserved":false,"is_disabled":false,"rental_uris":{"android":"levelo://app?vid=def16230-6839-41bc-97e8-197ff2eb3975","ios":"levelo://app?vid=def16230-6839-41bc-97e8-197ff2eb3975"},"vehicle_type_id":"4","last_reported":1744139327,"current_range_meters":14400,"station_id":"ce4bgih2rcd13ifvqba0","pricing_plan_id":"cebpf4jnsgd1na2vs0mg"},{"bike_id":"46c99737-914c-4908-aeb8-48d54b22c93a","system_id":"levelo_inurba_marseille","lat":43.31716,"lon":5.42411,"is_reserved":false,"is_disabled":false,"rental_uris":{"android":"levelo://app?vid=46c99737-914c-4908-aeb8-48d54b22c93a","ios":"levelo://app?vid=46c99737-914c-4908-aeb8-48d54b22c93a"},"vehicle_type_id":"4","last_reported":1744139327,"current_range_meters":15200,"station_id":"ce4bhp92rcd13ifvqhbg","pricing_plan_id":"cebpf4jnsgd1na2vs0mg"},{"bike_id":"020572ba-a5aa-440a-b36f-c17175204926","system_id":"levelo_inurba_marseille","lat":43.29534,"lon":5.3853,"is_reserved":false,"is_disabled":false,"rental_uris":{"android":"levelo://app?vid=020572ba-a5aa-440a-b36f-c17175204926","ios":"levelo://app?vid=020572ba-a5aa-440a-b36f-c17175204926"},"vehicle_type_id":"4","last_reported":1744139327,"current_range_meters":14800,"station_id":"ce4bgih2rcd13ifvqba0","pricing_plan_id":"cebpf4jnsgd1na2vs0mg"},{"bike_id":"de8d2c93-5c29-4fbc-a045-0d38a9e11520","system_id":"levelo_inurba_marseille","lat":43.2989,"lon":5.39728,"is_reserved":false,"is_disabled":false,"rental_uris":{"android":"levelo://app?vid=de8d2c93-5c29-4fbc-a045-0d38a9e11520","ios":"levelo://app?vid=de8d2c93-5c29-4fbc-a045-0d38a9e11520"},"vehicle_type_id":"4","last_reported":1744139327,"current_range_meters":16000,"station_id":"ce4bh0h2rcd13ifvqd50","pricing_plan_id":"cebpf4jnsgd1na2vs0mg"},{"bike_id":"eed9a0e7-6b5d-4b2d-9633-826f8e0380be","system_id":"levelo_inurba_marseille","lat":43.29601,"lon":5.38121,"is_reserved":false,"is_disabled":false,"rental_uris":{"android":"levelo://app?vid=eed9a0e7-6b5d-4b2d-9633-826f8e0380be","ios":"levelo://app?vid=eed9a0e7-6b5d-4b2d-9633-826f8e0380be"},"vehicle_type_id":"4","last_reported":1744139327,"current_range_meters":16000,"station_id":"ce4bgl12rcd13ifvqbo0","pricing_plan_id":"cebpf4jnsgd1na2vs0mg"},{"bike_id":"0e5a636e-348d-45ef-a577-497af77b86a3","system_id":"levelo_inurba_marseille","lat":43.29917,"lon":5.38146,"is_reserved":false,"is_disabled":false,"rental_uris":{"android":"levelo://app?vid=0e5a636e-348d-45ef-a577-497af77b86a3","ios":"levelo://app?vid=0e5a636e-348d-45ef-a577-497af77b86a3"},"vehicle_type_id":"4","last_reported":1744139327,"current_range_meters":16000,"station_id":"ce4bgj12rcd13ifvqbc0","pricing_plan_id":"cebpf4jnsgd1na2vs0mg"},{"bike_id":"d77214b9-f917-491a-8171-af2189f63920","system_id":"levelo_inurba_marseille","lat":43.29792,"lon":5.3934,"is_reserved":false,"is_disabled":false,"rental_uris":{"android":"levelo://app?vid=d77214b9-f917-491a-8171-af2189f63920","ios":"levelo://app?vid=d77214b9-f917-491a-8171-af2189f63920"},"vehicle_type_id":"4","last_reported":1744139327,"current_range_meters":16000,"station_id":"chh1huq6cuj3fo74tm60","pricing_plan_id":"cebpf4jnsgd1na2vs0mg"},{"bike_id":"251c5ed9-e81f-4e0e-8dbb-66e77afdd71d","system_id":"levelo_inurba_marseille","lat":43.31287,"lon":5.40163,"is_reserved":false,"is_disabled":false,"rental_uris":{"android":"levelo://app?vid=251c5ed9-e81f-4e0e-8dbb-66e77afdd71d","ios":"levelo://app?vid=251c5ed9-e81f-4e0e-8dbb-66e77afdd71d"},"vehicle_type_id":"4","last_reported":1744139327,"current_range_meters":16000,"station_id":"ce4bh092rcd13ifvqd30","pricing_plan_id":"cebpf4jnsgd1na2vs0mg"},{"bike_id":"a98c53da-4465-415d-aee1-2a9274ae53d6","system_id":"levelo_inurba_marseille","lat":43.32659,"lon":5.4099,"is_reserved":false,"is_disabled":false,"rental_uris":{"android":"levelo://app?vid=a98c53da-4465-415d-aee1-2a9274ae53d6","ios":"levelo://app?vid=a98c53da-4465-415d-aee1-2a9274ae53d6"},