{"last_updated":1761124352,"ttl":60,"version":"2.2","data":{"bikes":[{"bike_id":"6fcc3779-7d2a-47fb-a3c6-78f676341dbb","system_id":"levelo_inurba_marseille","lat":43.303731,"lon":5.424875,"is_reserved":false,"is_disabled":false,"rental_uris":{"android":"levelo://app?vid=6fcc3779-7d2a-47fb-a3c6-78f676341dbb","ios":"levelo://app?vid=6fcc3779-7d2a-47fb-a3c6-78f676341dbb"},"vehicle_type_id":"4","last_reported":1761124352,"current_range_meters":2800,"station_id":"ce4bhoh2rcd13ifvqh6g","pricing_plan_id":"cebpf4jnsgd1na2vs0mg"},{"bike_id":"6d8da19b-0143-43ba-a2b6-b774a32597d4","system_id":"levelo_inurba_marseille","lat":43.2816,"lon":5.3476,"is_reserved":false,"is_disabled":false,"rental_uris":{"android":"levelo://app?vid=6d8da19b-0143-43ba-a2b6-b774a32597d4","ios":"levelo://app?vid=6d8da19b-0143-43ba-a2b6-b774a32597d4"},"vehicle_type_id":"4","last_reported":1761124352,"current_range_meters":3200,"station_id":"","pricing_plan_id":"cebpf4jnsgd1na2vs0mg"},{"bike_id":"23d2e327-9a1c-43f9-a1d7-2fca27e96f84","system_id":"levelo_inurba_marseille","lat":43.2735,"lon":5.415057,"is_reserved":false,"is_disabled":false,"rental_uris":{"android":"levelo://app?vid=23d2e327-9a1c-43f9-a1d7-2fca27e96f84","ios":"levelo://app?vid=23d2e327-9a1c-43f9-a1d7-2fca27e96f84"},"vehicle_type_id":"4","last_reported":1761124352,"current_range_meters":3200,"station_id":"","pricing_plan_id":"cebpf4jnsgd1na2vs0mg"},{"bike_id":"b1208b07-d7e1-4353-b6d8-a3f5e5a1578e","system_id":"levelo_inurba_marseille","lat":43.30946,"lon":5.39037,"is_reserved":false,"is_disabled":false,"rental_uris":{"android":"levelo://app?vid=b1208b07-d7e1-4353-b6d8-a3f5e5a1578e","ios":"levelo://app?vid=b1208b07-d7e1-4353-b6d8-a3f5e5a1578e"},"vehicle_type_id":"4","last_reported":1761124352,"current_range_meters":3200,"station_id":"ce4bgup2rcd13ifvqco0","pricing_plan_id":"cebpf4jnsgd1na2vs0mg"},{"bike_id":"98490d11-db71-4361-ab96-f0addd49d050","system_id":"levelo_inurba_marseille","lat":43.300004,"lon":5.373558,"is_reserved":false,"is_disabled":false,"rental_uris":{"android":"levelo://app?vid=98490d11-db71-4361-ab96-f0addd49d050","ios":"levelo://app?vid=98490d11-db71-4361-ab96-f0addd49d050"},"vehicle_type_id":"4","last_reported":1761124352,"current_range_meters":3600,"station_id":"","pricing_plan_id":"cebpf4jnsgd1na2vs0mg"},{"bike_id":"56808f09-5a62-403b-b8e3-97d89aaf3152","system_id":"levelo_inurba_marseille","lat":43.29797,"lon":5.37902,"is_reserved":false,"is_disabled":false,"rental_uris":{"android":"levelo://app?vid=56808f09-5a62-403b-b8e3-97d89aaf3152","ios":"levelo://app?vid=56808f09-5a62-403b-b8e3-97d89aaf3152"},"vehicle_type_id":"4","last_reported":1761124352,"current_range_meters":4000,"station_id":"","pricing_plan_id":"cebpf4jnsgd1na2vs0mg"},{"bike_id":"32fe13f3-1998-41d4-a763-4eea85838a36","system_id":"levelo_inurba_marseille","lat":43.286107,"lon":5.370693,"is_reserved":false,"is_disabled":false,"rental_uris":{"android":"levelo://app?vid=32fe13f3-1998-41d4-a763-4eea85838a36","ios":"levelo://app?vid=32fe13f3-1998-41d4-a763-4eea85838a36"},"vehicle_type_id":"4","last_reported":1761124352,"current_range_meters":4000,"station_id":"ce4bht12rcd13ifvqi60","pricing_plan_id":"cebpf4jnsgd1na2vs0mg"},{"bike_id":"143ef9b7-2fff-41ab-b415-dca55f8de407","system_id":"levelo_inurba_marseille","lat":43.28464,"lon":5.35893,"is_reserved":false,"is_disabled":false,"rental_uris":{"android":"levelo://app?vid=143ef9b7-2fff-41ab-b415-dca55f8de407","ios":"levelo://app?vid=143ef9b7-2fff-41ab-b415-dca55f8de407"},"vehicle_type_id":"4","last_reported":1761124352,"current_range_meters":4400,"station_id":"ce4bhah2rcd13ifvqei0","pricing_plan_id":"cebpf4jnsgd1na2vs0mg"},{"bike_id":"2fe29e89-7b9e-4cee-8c22-5bbe4a864140","system_id":"levelo_inurba_marseille","lat":43.33595,"lon":5.40976,"is_reserved":false,"is_disabled":false,"rental_uris":{"android":"levelo://app?vid=2fe29e89-7b9e-4cee-8c22-5bbe4a864140","ios":"levelo://app?vid=2fe29e89-7b9e-4cee-8c22-5bbe4a864140"},"vehicle_type_id":"4","last_reported":1761124352,"current_range_meters":4800,"station_id":"ce4bhqh2rcd13ifvqhmg","pricing_plan_id":"cebpf4jnsgd1na2vs0mg"},{"bike_id":"8952652d-181d-4647-99e0-dd7c8dc8f72d","system_id":"levelo_inurba_marseille","lat":43.28545,"lon":5.44107,"is_reserved":false,"is_disabled":false,"rental_uris":{"android":"levelo://app?vid=8952652d-181d-4647-99e0-dd7c8dc8f72d","ios":"levelo://app?vid=8952652d-181d-4647-99e0-dd7c8dc8f72d"},"vehicle_type_id":"4","last_reported":1761124352,"current_range_meters":5600,"station_id":"st_d3j3df2ikq2c7380ej80","pricing_plan_id":"cebpf4jnsgd1na2vs0mg"},{"bike_id":"aa6e2e9f-e146-4f99-a764-db134adedff2","system_id":"levelo_inurba_marseille","lat":43.2827,"lon":5.35058,"is_reserved":false,"is_disabled":false,"rental_uris":{"android":"levelo://app?vid=aa6e2e9f-e146-4f99-a764-db134adedff2","ios":"levelo://app?vid=aa6e2e9f-e146-4f99-a764-db134adedff2"},"vehicle_type_id":"4","last_reported":1761124352,"current_range_meters":5600,"station_id":"ce4bhbp2rcd13ifvqerg","pricing_plan_id":"cebpf4jnsgd1na2vs0mg"},{"bike_id":"a870d8c4-d388-4bd8-a292-a2b1665e7e0e","system_id":"levelo_inurba_marseille","lat":43.304308,"lon":5.405861,"is_reserved":false,"is_disabled":false,"rental_uris":{"android":"levelo://app?vid=a870d8c4-d388-4bd8-a292-a2b1665e7e0e","ios":"levelo://app?vid=a870d8c4-d388-4bd8-a292-a2b1665e7e0e"},"vehicle_type_id":"4","last_reported":1761124352,"current_range_meters":6000,"station_id":"","pricing_plan_id":"cebpf4jnsgd1na2vs0mg"},{"bike_id":"a2e131f8-3c9f-478a-b394-6a9db5f46a7a","system_id":"levelo_inurba_marseille","lat":43.30131,"lon":5.37428,"is_reserved":false,"is_disabled":true,"rental_uris":{"android":"levelo://app?vid=a2e131f8-3c9f-478a-b394-6a9db5f46a7a","ios":"levelo://app?vid=a2e131f8-3c9f-478a-b394-6a9db5f46a7a"},"vehicle_type_id":"4","last_reported":1761124352,"current_range_meters":6000,"station_id":"ce4bgs92rcd13ifvqcc0","pricing_plan_id":"cebpf4jnsgd1na2vs0mg"},{"bike_id":"8ad082c6-141e-4ce5-a298-684d35b5578b","system_id":"levelo_inurba_marseille","lat":43.28151,"lon":5.36356,"is_reserved":false,"is_disabled":false,"rental_uris":{"android":"levelo://app?vid=8ad082c6-141e-4ce5-a298-684d35b5578b","ios":"levelo://app?vid=8ad082c6-141e-4ce5-a298-684d35b5578b"},"vehicle_type_id":"4","last_reported":1761124352,"current_range_meters":6000,"station_id":"","pricing_plan_id":"cebpf4jnsgd1na2vs0mg"},{"bike_id":"4154d683-e72a-4592-9e60-2a3872848698","system_id":"levelo_inurba_marseille","lat":43.28475,"lon":5.48401,"is_reserved":false,"is_disabled":false,"rental_uris":{"android":"levelo://app?vid=4154d683-e72a-4592-9e60-2a3872848698","ios":"levelo://app?vid=4154d683-e72a-4592-9e60-2a3872848698"},"vehicle_type_id":"4","last_reported":1761124352,"current_range_meters":6400,"station_id":"st_d3jp68qikq2c7381ktn0","pricing_plan_id":"cebpf4jnsgd1na2vs0mg"},{"bike_id":"9df5197b-15b9-4c0e-83f1-aa163a86e7a4","system_id":"levelo_inurba_marseille","lat":43.289739,"lon":5.378348,"is_reserved":false,"is_disabled":false,"rental_uris":{"android":"levelo://app?vid=9df5197b-15b9-4c0e-83f1-aa163a86e7a4","ios":"levelo://app?vid=9df5197b-15b9-4c0e-83f1-aa163a86e7a4"},"vehicle_type_id":"4","last_reported":1761124352,"current_range_meters":6400,"station_id":"ce4bh9p2rcd13ifvqed0","pricing_plan_id":"cebpf4jnsgd1na2vs0mg"},{"bike_id":"a7c7675d-e06c-4794-bdda-4ac8c78a31c6","system_id":"levelo_inurba_marseille","lat":43.28281,"lon":5.3506,"is_reserved":false,"is_disabled":false,"rental_uris":{"android":"levelo://app?vid=a7c7675d-e06c-4794-bdda-4ac8c78a31c6","ios":"levelo://app?vid=a7c7675d-e06c-4794-bdda-4ac8c78a31c6"},"vehicle_type_id":"4","last_reported":1761124352,"current_range_meters":6400,"station_id":"ce4bhbp2rcd13ifvqerg","pricing_plan_id":"cebpf4jnsgd1na2vs0mg"},{"bike_id":"f2ff0ade-5361-46d8-ab78-69bd403c3483","system_id":"levelo_inurba_marseille","lat":43.28209,"lon":5.34993,"is_reserved":false,"is_disabled":false,"rental_uris":{"android":"levelo://app?vid=f2ff0ade-5361-46d8-ab78-69bd403c3483","ios":"levelo://app?vid=f2ff0ade-5361-46d8-ab78-69bd403c3483"},"vehicle_type_id":"4","last_reported":1761124352,"current_range_meters":6400,"station_id":"","pricing_plan_id":"cebpf4jnsgd1na2vs0mg"},{"bike_id":"adb6da43-a790-4bbe-8cdb-8fa1e5d17796","system_id":"levelo_inurba_marseille","lat":43.3175,"lon":5.38585,"is_reserved":false,"is_disabled":true,"rental_uris":{"android":"levelo://app?vid=adb6da43-a790-4bbe-8cdb-8fa1e5d17796","ios":"levelo://app?vid=adb6da43-a790-4bbe-8cdb-8fa1e5d17796"},"vehicle_type_id":"4","last_reported":1761124352,"current_range_meters":6400,"station_id":"","pricing_plan_id":"cebpf4jnsgd1na2vs0mg"},{"bike_id":"2d24ac31-78f9-481b-9d5c-ea0a58464439","system_id":"levelo_inurba_marseille","lat":43.29196,"lon":5.42294,"is_reserved":false,"is_disabled":false,"rental_uris":{"android":"levelo://app?vid=2d24ac31-78f9-481b-9d5c-ea0a58464439","ios":"levelo://app?vid=2d24ac31-78f9-481b-9d5c-ea0a58464439"},"vehicle_type_id":"4","last_reported":1761124352,"current_range_meters":6400,"station_id":"","pricing_plan_id":"cebpf4jnsgd1na2vs0mg"},{"bike_id":"e7cb61d9-84d9-41c0-8427-00fc6a9e436b","system_id":"levelo_inurba_marseille","lat":43.31098,"lon":5.37539,"is_reserved":false,"is_disabled":false,"rental_uris":{"android":"levelo://app?vid=e7cb61d9-84d9-41c0-8427-00fc6a9e436b","ios":"levelo://app?vid=e7cb61d9-84d9-41c0-8427-00fc6a9e436b"},"vehicle_type_id":"4","last_reported":1761124352,"current_range_meters":6400,"station_id":"","pricing_plan_id":"cebpf4jnsgd1na2vs0mg"},{"bike_id":"997b1027-87ff-46d9-a9bf-d9002a98f189","system_id":"levelo_inurba_marseille","lat":43.23152,"lon":5.43711,"is_reserved":false,"is_disabled":false,"rental_uris":{"android":"levelo://app?vid=997b1027-87ff-46d9-a9bf-d9002a98f189","ios":"levelo://app?vid=997b1027-87ff-46d9-a9bf-d9002a98f189"},"vehicle_type_id":"4","last_reported":1761124352,"current_range_meters":6400,"station_id":"ce4bhmp2rcd13ifvqgog","pricing_plan_id":"cebpf4jnsgd1na2vs0mg"},{"bike_id":"ad0163b9-a174-4b3e-87a4-a34119d95345","system_id":"levelo_inurba_marseille","lat":43.30952,"lon":5.39042,"is_reserved":false,"is_disabled":false,"rental_uris":{"android":"levelo://app?vid=ad0163b9-a174-4b3e-87a4-a34119d95345","ios":"levelo://app?vid=ad0163b9-a174-4b3e-87a4-a34119d95345"},"vehicle_type_id":"4","last_reported":1761124352,"current_range_meters":6800,"station_id":"ce4bgup2rcd13ifvqco0","pricing_plan_id":"cebpf4jnsgd1na2vs0mg"},{"bike_id":"68a987d0-e1eb-4dea-af5d-066915e40138","system_id":"levelo_inurba_marseille","lat":43.2732,"lon":5.39081,"is_reserved":false,"is_disabled":false,"rental_uris":{"android":"levelo://app?vid=68a987d0-e1eb-4dea-af5d-066915e40138","ios":"levelo://app?vid=68a987d0-e1eb-4dea-af5d-066915e40138"},"vehicle_type_id":"4","last_reported":1761124352,"current_range_meters":7200,"station_id":"ce4bhgp2rcd13ifvqfe0","pricing_plan_id":"cebpf4jnsgd1na2vs0mg"},{"bike_id":"85e07d43-30ad-494e-9312-08ec300014dd","system_id":"levelo_inurba_marseille","lat":43.25493,"lon":5.3763,"is_reserved":false,"is_disabled":false,"rental_uris":{"android":"levelo://app?vid=85e07d43-30ad-494e-9312-08ec300014dd","ios":"levelo://app?vid=85e07d43-30ad-494e-9312-08ec300014dd"},"vehicle_type_id":"4","last_reported":1761124352,"current_range_meters":7200,"station_id":"ce4bhh12rcd13ifvqff0","pricing_plan_id":"cebpf4jnsgd1na2vs0mg"},{"bike_id":"c4432b73-0adb-475d-83b3-18f6e7bba483","system_id":"levelo_inurba_marseille","lat":43.33043,"lon":5.39378,"is_reserved":false,"is_disabled":false,"rental_uris":{"android":"levelo://app?vid=c4432b73-0adb-475d-83b3-18f6e7bba483","ios":"levelo://app?vid=c4432b73-0adb-475d-83b3-18f6e7bba483"},"vehicle_type_id":"4","last_reported":1761124352,"current_range_meters":7200,"station_id":"","pricing_plan_id":"cebpf4jnsgd1na2vs0mg"},{"bike_id":"3fedb39f-ddf5-404b-b531-2a1ca01305eb","system_id":"levelo_inurba_marseille","lat":43.296071,"lon":5.405919,"is_reserved":false,"is_disabled":false,"rental_uris":{"android":"levelo://app?vid=3fedb39f-ddf5-404b-b531-2a1ca01305eb","ios":"levelo://app?vid=3fedb39f-ddf5-404b-b531-2a1ca01305eb"},"vehicle_type_id":"4","last_reported":1761124352,"current_range_meters":8000,"station_id":"ce4bh0h2rcd13ifvqd60","pricing_plan_id":"cebpf4jnsgd1na2vs0mg"},{"bike_id":"0f0bd1b7-72fd-4d59-a6d0-f445f692d58e","system_id":"levelo_inurba_marseille","lat":43.28477,"lon":5.38408,"is_reserved":false,"is_disabled":false,"rental_uris":{"android":"levelo://app?vid=0f0bd1b7-72fd-4d59-a6d0-f445f692d58e","ios":"levelo://app?vid=0f0bd1b7-72fd-4d59-a6d0-f445f692d58e"},"vehicle_type_id":"4","last_reported":1761124352,"current_range_meters":8000,"station_id":"ce4bh512rcd13ifvqe3g","pricing_plan_id":"cebpf4jnsgd1na2vs0mg"},{"bike_id":"3d068a7d-8c2c-4f97-8d7d-54140fa95800","system_id":"levelo_inurba_marseille","lat":43.273583,"lon":5.39879,"is_reserved":false,"is_disabled":false,"rental_uris":{"android":"levelo://app?vid=3d068a7d-8c2c-4f97-8d7d-54140fa95800","ios":"levelo://app?vid=3d068a7d-8c2c-4f97-8d7d-54140fa95800"},"vehicle_type_id":"4","last_reported":1761124352,"current_range_meters":8000,"station_id":"","pricing_plan_id":"cebpf4jnsgd1na2vs0mg"},{"bike_id":"66bec76d-d7e9-4a1e-a715-39e56334bf96","system_id":"levelo_inurba_marseille","lat":43.28285,"lon":5.39651,"is_reserved":false,"is_disabled":false,"rental_uris":{"android":"levelo://app?vid=66bec76d-d7e9-4a1e-a715-39e56334bf96","ios":"levelo://app?vid=66bec76d-d7e9-4a1e-a715-39e56334bf96"},"vehicle_type_id":"4","last_reported":1761124352,"current_range_meters":8400,"station_id":"","pricing_plan_id":"cebpf4jnsgd1na2vs0mg"},{"bike_id":"da3c5d5d-639d-4a11-88e1-f7b9c2ad220a","system_id":"levelo_inurba_marseille","lat":43.317187,"lon":5.377152,"is_reserved":false,"is_disabled":true,"rental_uris":{"android":"levelo://app?vid=da3c5d5d-639d-4a11-88e1-f7b9c2ad220a","ios":"levelo://app?vid=da3c5d5d-639d-4a11-88e1-f7b9c2ad220a"},"vehicle_type_id":"4","last_reported":1761124352,"current_range_meters":8400,"station_id":"ce4bgth2rcd13ifvqch0","pricing_plan_id":"cebpf4jnsgd1na2vs0mg"},{"bike_id":"b7e41c34-cad5-468c-aadc-3ef8a1845b5a","system_id":"levelo_inurba_marseille","lat":43.28163,"lon":5.36125,"is_reserved":false,"is_disabled":false,"rental_uris":{"android":"levelo://app?vid=b7e41c34-cad5-468c-aadc-3ef8a1845b5a","ios":"levelo://app?vid=b7e41c34-cad5-468c-aadc-3ef8a1845b5a"},"vehicle_type_id":"4","last_reported":1761124352,"current_range_meters":8800,"station_id":"","pricing_plan_id":"cebpf4jnsgd1na2vs0mg"},{"bike_id":"8afb733c-e643-4081-9480-3ffbaa580c9c","system_id":"levelo_inurba_marseille","lat":43.31687,"lon":5.40477,"is_reserved":false,"is_disabled":false,"rental_uris":{"android":"levelo://app?vid=8afb733c-e643-4081-9480-3ffbaa580c9c","ios":"levelo://app?vid=8afb733c-e643-4081-9480-3ffbaa580c9c"},"vehicle_type_id":"4","last_reported":1761124352,"current_range_meters":8800,"station_id":"ce4bh012rcd13ifvqd00","pricing_plan_id":"cebpf4jnsgd1na2vs0mg"},{"bike_id":"fe998b17-9d85-477f-b92c-87f6ebb6e1b3","system_id":"levelo_inurba_marseille","lat":43.24482,"lon":5.36921,"is_reserved":false,"is_disabled":false,"rental_uris":{"android":"levelo://app?vid=fe998b17-9d85-477f-b92c-87f6ebb6e1b3","ios":"levelo://app?vid=fe998b17-9d85-477f-b92c-87f6ebb6e1b3"},"vehicle_type_id":"4","last_reported":1761124352,"current_range_meters":9200,"station_id":"","pricing_plan_id":"cebpf4jnsgd1na2vs0mg"},{"bike_id":"c4d17d81-19cf-4697-a9b1-d780d189ed78","system_id":"levelo_inurba_marseille","lat":43.251062,"lon":5.403208,"is_reserved":false,"is_disabled":false,"rental_uris":{"android":"levelo://app?vid=c4d17d81-19cf-4697-a9b1-d780d189ed78","ios":"levelo://app?vid=c4d17d81-19cf-4697-a9b1-d780d189ed78"},"vehicle_type_id":"4","last_reported":1761124352,"current_range_meters":9200,"station_id":"","pricing_plan_id":"cebpf4jnsgd1na2vs0mg"},{"bike_id":"3201e625-69d5-420e-838c-f4c3f44666ef","system_id":"levelo_inurba_marseille","lat":43.33819,"lon":5.37426,"is_reserved":false,"is_disabled":false,"rental_uris":{"android":"levelo://app?vid=3201e625-69d5-420e-838c-f4c3f44666ef","ios":"levelo://app?vid=3201e625-69d5-420e-838c-f4c3f44666ef"},"vehicle_type_id":"4","last_reported":1761124352,"current_range_meters":9600,"station_id":"","pricing_plan_id":"cebpf4jnsgd1na2vs0mg"},{"bike_id":"b8457e49-45d1-4539-8d31-1eb0283df508","system_id":"levelo_inurba_marseille","lat":43.33159,"lon":5.35503,"is_reserved":false,"is_disabled":false,"rental_uris":{"android":"levelo://app?vid=b8457e49-45d1-4539-8d31-1eb0283df508","ios":"levelo://app?vid=b8457e49-45d1-4539-8d31-1eb0283df508"},"vehicle_type_id":"4","last_reported":1761124352,"current_range_meters":9600,"station_id":"","pricing_plan_id":"cebpf4jnsgd1na2vs0mg"},{"bike_id":"cc8eb9bd-fb31-4862-b8cf-0e40c2843281","system_id":"levelo_inurba_marseille","lat":43.304605,"lon":5.379119,"is_reserved":false,"is_disabled":false,"rental_uris":{"android":"levelo://app?vid=cc8eb9bd-fb31-4862-b8cf-0e40c2843281","ios":"levelo://app?vid=cc8eb9bd-fb31-4862-b8cf-0e40c2843281"},"vehicle_type_id":"4","last_reported":1761124352,"current_range_meters":9600,"station_id":"ce4bgup2rcd13ifvqcn0","pricing_plan_id":"cebpf4jnsgd1na2vs0mg"},{"bike_id":"4bfb5be7-701b-4747-a3e3-289689e2e2ab","system_id":"levelo_inurba_marseille","lat":43.27376,"lon":5.36258,"is_reserved":false,"is_disabled":false,"rental_uris":{"android":"levelo://app?vid=4bfb5be7-701b-4747-a3e3-289689e2e2ab","ios":"levelo://app?vid=4bfb5be7-701b-4747-a3e3-289689e2e2ab"},"vehicle_type_id":"4","last_reported":1761124352,"current_range_meters":9600,"station_id":"ce4bhbh2rcd13ifvqeo0","pricing_plan_id":"cebpf4jnsgd1na2vs0mg"},{"bike_id":"72b0492e-d16e-41bd-9cef-d77e93ac5a90","system_id":"levelo_inurba_marseille","lat":43.24177,"lon":5.39733,"is_reserved":false,"is_disabled":false,"rental_uris":{"android":"levelo://app?vid=72b0492e-d16e-41bd-9cef-d77e93ac5a90","ios":"levelo://app?vid=72b0492e-d16e-41bd-9cef-d77e93ac5a90"},"vehicle_type_id":"4","last_reported":1761124352,"current_range_meters":9600,"station_id":"ce4bhn12rcd13ifvqgpg","pricing_plan_id":"cebpf4jnsgd1na2vs0mg"},{"bike_id":"19840955-f9d6-49c1-86e8-b7616b7da32c","system_id":"levelo_inurba_marseille","lat":43.33134,"lon":5.39115,"is_reserved":false,"is_disabled":true,"rental_uris":{"android":"levelo://app?vid=19840955-f9d6-49c1-86e8-b7616b7da32c","ios":"levelo://app?vid=19840955-f9d6-49c1-86e8-b7616b7da32c"},"vehicle_type_id":"4","last_reported":1761124352,"current_range_meters":9600,"station_id":"","pricing_plan_id":"cebpf4jnsgd1na2vs0mg"},{"bike_id":"22c660ad-ddf4-4958-a393-4acd861a2ace","system_id":"levelo_inurba_marseille","lat":43.28105,"lon":5.37787,"is_reserved":false,"is_disabled":false,"rental_uris":{"android":"levelo://app?vid=22c660ad-ddf4-4958-a393-4acd861a2ace","ios":"levelo://app?vid=22c660ad-ddf4-4958-a393-4acd861a2ace"},"vehicle_type_id":"4","last_reported":1761124352,"current_range_meters":10000,"station_id":"ce4bha12rcd13ifvqee0","pricing_plan_id":"cebpf4jnsgd1na2vs0mg"},{"bike_id":"b6119425-b7a0-4b1e-b14b-37837db3abcf","system_id":"levelo_inurba_marseille","lat":43.25586,"lon":5.38224,"is_reserved":false,"is_disabled":false,"rental_uris":{"android":"levelo://app?vid=b6119425-b7a0-4b1e-b14b-37837db3abcf","ios":"levelo://app?vid=b6119425-b7a0-4b1e-b14b-37837db3abcf"},"vehicle_type_id":"4","last_reported":1761124352,"current_range_meters":10000,"station_id":"ce4bhih2rcd13ifvqfs0","pricing_plan_id":"cebpf4jnsgd1na2vs0mg"},{"bike_id":"590e7490-2693-49b7-9b3e-b206a27bdc52","system_id":"levelo_inurba_marseille","lat":43.25108,"lon":5.40321,"is_reserved":false,"is_disabled":true,"rental_uris":{"android":"levelo://app?vid=590e7490-2693-49b7-9b3e-b206a27bdc52","ios":"levelo://app?vid=590e7490-2693-49b7-9b3e-b206a27bdc52"},"vehicle_type_id":"4","last_reported":1761124352,"current_range_meters":10000,"station_id":"ce4bhlh2rcd13ifvqgig","pricing_plan_id":"cebpf4jnsgd1na2vs0mg"},{"bike_id":"14a1fbd0-890e-44a3-8d51-f0d5f5a5d3e4","system_id":"levelo_inurba_marseille","lat":43.281028,"lon":5.378329,"is_reserved":false,"is_disabled":true,"rental_uris":{"android":"levelo://app?vid=14a1fbd0-890e-44a3-8d51-f0d5f5a5d3e4","ios":"levelo://app?vid=14a1fbd0-890e-44a3-8d51-f0d5f5a5d3e4"},"vehicle_type_id":"4","last_reported":1761124352,"current_range_meters":10000,"station_id":"ce4bha12rcd13ifvqee0","pricing_plan_id":"cebpf4jnsgd1na2vs0mg"},{"bike_id":"78327b65-47bd-4c2e-9cc4-09a68e3a500b","system_id":"levelo_inurba_marseille","lat":43.289768,"lon":5.366321,"is_reserved":false,"is_disabled":false,"rental_uris":{"android":"levelo://app?vid=78327b65-47bd-4c2e-9cc4-09a68e3a500b","ios":"levelo://app?vid=78327b65-47bd-4c2e-9cc4-09a68e3a500b"},"vehicle_type_id":"4","last_reported":1761124352,"current_range_meters":10000,"station_id":"","pricing_plan_id":"cebpf4jnsgd1na2vs0mg"},{"bike_id":"661995e6-dee2-4717-adb4-59bb9b590d67","system_id":"levelo_inurba_marseille","lat":43.26958,"lon":5.38645,"is_reserved":false,"is_disabled":false,"rental_uris":{"android":"levelo://app?vid=661995e6-dee2-4717-adb4-59bb9b590d67","ios":"levelo://app?vid=661995e6-dee2-4717-adb4-59bb9b590d67"},"vehicle_type_id":"4","last_reported":1761124352,"current_range_meters":10800,"station_id":"ce4bhh92rcd13ifvqfh0","pricing_plan_id":"cebpf4jnsgd1na2vs0mg"},{"bike_id":"d83ba3b5-f05f-4b3f-995a-05ad1a505367","system_id":"levelo_inurba_marseille","lat":43.31706,"lon":5.42406,"is_reserved":false,"is_disabled":false,"rental_uris":{"android":"levelo://app?vid=d83ba3b5-f05f-4b3f-995a-05ad1a505367","ios":"levelo://app?vid=d83ba3b5-f05f-4b3f-995a-05ad1a505367"},"vehicle_type_id":"4","last_reported":1761124352,"current_range_meters":10800,"station_id":"ce4bhp92rcd13ifvqhbg","pricing_plan_id":"cebpf4jnsgd1na2vs0mg"},{"bike_id":"d38bb17a-4ac6-4da6-829b-fc2ffe260364","system_id":"levelo_inurba_marseille","lat":43.31886,"lon":5.40752,"is_reserved":false,"is_disabled":true,"rental_uris":{"android":"levelo://app?vid=d38bb17a-4ac6-4da6-829b-fc2ffe260364","ios":"levelo://app?vid=d38bb17a-4ac6-4da6-829b-fc2ffe260364"},"vehicle_type_id":"4","last_reported":1761124352,"current_range_meters":10800,"station_id":"ce4bhq12rcd13ifvqhig","pricing_plan_id":"cebpf4jnsgd1na2vs0mg"},{"bike_id":"063f8b33-e478-4b0e-b6de-2b3ae5b2a3d4","system_id":"levelo_inurba_marseille","lat":43.2937,"lon":5.37869,"is_reserved":false,"is_disabled":false,"rental_uris":{"android":"levelo://app?vid=063f8b33-e478-4b0e-b6de-2b3ae5b2a3d4","ios":"levelo://app?vid=063f8b33-e478-4b0e-b6de-2b3ae5b2a3d4"},"vehicle_type_id":"4","last_reported":1761124352,"current_range_meters":11200,"station_id":"ce4bgjh2rcd13ifvqbf0","pricing_plan_id":"cebpf4jnsgd1na2vs0mg"},{"bike_id":"c36da182-8f4a-40c4-8fc0-fd9045defeff","system_id":"levelo_inurba_marseille","lat":43.231874,"lon":5.399851,"is_reserved":false,"is_disabled":false,"rental_uris":{"android":"levelo://app?vid=c36da182-8f4a-40c4-8fc0-fd9045defeff","ios":"levelo://app?vid=c36da182-8f4a-40c4-8fc0-fd9045defeff"},"vehicle_type_id":"4","last_reported":1761124352,"current_range_meters":11200,"station_id":"ce4bhn12rcd13ifvqgqg","pricing_plan_id":"cebpf4jnsgd1na2vs0mg"},{"bike_id":"323bf2de-3bb4-4b4c-b330-b19ea807dbf5","system_id":"levelo_inurba_marseille","lat":43.310726,"lon":5.383463,"is_reserved":false,"is_disabled":true,"rental_uris":{"android":"levelo://app?vid=323bf2de-3bb4-4b4c-b330-b19ea807dbf5","ios":"levelo://app?vid=323bf2de-3bb4-4b4c-b330-b19ea807dbf5"},"vehicle_type_id":"4","last_reported":1761124352,"current_range_meters":11200,"station_id":"ce4bgv92rcd13ifvqcr0","pricing_plan_id":"cebpf4jnsgd1na2vs0mg"},{"bike_id":"280aa91e-a26e-4f49-9dbc-bcea9e3ed54a","system_id":"levelo_inurba_marseille","lat":43.28416,"lon":5.37512,"is_reserved":false,"is_disabled":false,"rental_uris":{"android":"levelo://app?vid=280aa91e-a26e-4f49-9dbc-bcea9e3ed54a","ios":"levelo://app?vid=280aa91e-a26e-4f49-9dbc-bcea9e3ed54a"},"vehicle_type_id":"4","last_reported":1761124352,"current_range_meters":11200,"station_id":"ce4bh412rcd13ifvqds0","pricing_plan_id":"cebpf4jnsgd1na2vs0mg"},{"bike_id":"146c2516-bef0-44a7-b04d-fb80b55a97f2","system_id":"levelo_inurba_marseille","lat":43.30137,"lon":5.43101,"is_reserved":false,"is_disabled":false,"rental_uris":{"android":"levelo://app?vid=146c2516-bef0-44a7-b04d-fb80b55a97f2","ios":"levelo://app?vid=146c2516-bef0-44a7-b04d-fb80b55a97f2"},"vehicle_type_id":"4","last_reported":1761124352,"current_range_meters":11600,"station_id":"st_d3js3co5814s73ftftug","pricing_plan_id":"cebpf4jnsgd1na2vs0mg"},{"bike_id":"7298e012-83ab-45f0-ab73-39af749fb8a1","system_id":"levelo_inurba_marseille","lat":43.27822,"lon":5.39211,"is_reserved":false,"is_disabled":false,"rental_uris":{"android":"levelo://app?vid=7298e012-83ab-45f0-ab73-39af749fb8a1","ios":"levelo://app?vid=7298e012-83ab-45f0-ab73-39af749fb8a1"},"vehicle_type_id":"4","last_reported":1761124352,"current_range_meters":11600,"station_id":"ce4bhjp2rcd13ifvqga0","pricing_plan_id":"cebpf4jnsgd1na2vs0mg"},{"bike_id":"02f7835e-8895-43db-bc46-dc0659a292d5","system_id":"levelo_inurba_marseille","lat":43.29331,"lon":5.3707,"is_reserved":false,"is_disabled":false,"rental_uris":{"android":"levelo://app?vid=02f7835e-8895-43db-bc46-dc0659a292d5","ios":"levelo://app?vid=02f7835e-8895-43db-bc46-dc0659a292d5"},"vehicle_type_id":"4","last_reported":1761124352,"current_range_meters":11600,"station_id":"","pricing_plan_id":"cebpf4jnsgd1na2vs0mg"},{"bike_id":"848732f0-de57-4c7b-8c1c-59414a9d2707","system_id":"levelo_inurba_marseille","lat":43.26197,"lon":5.3741,"is_reserved":false,"is_disabled":false,"rental_uris":{"android":"levelo://app?vid=848732f0-de57-4c7b-8c1c-59414a9d2707","ios":"levelo://app?vid=848732f0-de57-4c7b-8c1c-59414a9d2707"},"vehicle_type_id":"4","last_reported":1761124352,"current_range_meters":11600,"station_id":"ce4bhgp2rcd13ifvqfc0","pricing_plan_id":"cebpf4jnsgd1na2vs0mg"},{"bike_id":"27a0a5b8-bb02-4a68-83d8-ad971dc33659","system_id":"levelo_inurba_marseille","lat":43.32069,"lon":5.40886,"is_reserved":false,"is_disabled":false,"rental_uris":{"android":"levelo://app?vid=27a0a5b8-bb02-4a68-83d8-ad971dc33659","ios":"levelo://app?vid=27a0a5b8-bb02-4a68-83d8-ad971dc33659"},"vehicle_type_id":"4","last_reported":1761124352,"current_range_meters":11600,"station_id":"","pricing_plan_id":"cebpf4jnsgd1na2vs0mg"},{"bike_id":"b3df6501-e8c4-4e22-987a-2996a439a919","system_id":"levelo_inurba_marseille","lat":43.30535,"lon":5.38427,"is_reserved":false,"is_disabled":false,"rental_uris":{"android":"levelo://app?vid=b3df6501-e8c4-4e22-987a-2996a439a919","ios":"levelo://app?vid=b3df6501-e8c4-4e22-987a-2996a439a919"},"vehicle_type_id":"4","last_reported":1761124352,"current_range_meters":12000,"station_id":"ce4bgg92rcd13ifvqb30","pricing_plan_id":"cebpf4jnsgd1na2vs0mg"},{"bike_id":"462648eb-9432-48c9-b86d-ac565d46704e","system_id":"levelo_inurba_marseille","lat":43.2767,"lon":5.38888,"is_reserved":false,"is_disabled":false,"rental_uris":{"android":"levelo://app?vid=462648eb-9432-48c9-b86d-ac565d46704e","ios":"levelo://app?vid=462648eb-9432-48c9-b86d-ac565d46704e"},"vehicle_type_id":"4","last_reported":1761124352,"current_range_meters":12000,"station_id":"ce4bhi12rcd13ifvqfo0","pricing_plan_id":"cebpf4jnsgd1na2vs0mg"},{"bike_id":"4e7e8f57-06ea-4923-b3c1-ea91802d5920","system_id":"levelo_inurba_marseille","lat":43.2799,"lon":5.41637,"is_reserved":false,"is_disabled":false,"rental_uris":{"android":"levelo://app?vid=4e7e8f57-06ea-4923-b3c1-ea91802d5920","ios":"levelo://app?vid=4e7e8f57-06ea-4923-b3c1-ea91802d5920"},"vehicle_type_id":"4","last_reported":1761124352,"current_range_meters":12000,"station_id":"ce4bho12rcd13ifvqh1g","pricing_plan_id":"cebpf4jnsgd1na2vs0mg"},{"bike_id":"3f8c6756-814e-4d54-8e6d-fee7c8d0b0c1","system_id":"levelo_inurba_marseille","lat":43.26782,"lon":5.39406,"is_reserved":false,"is_disabled":false,"rental_uris":{"android":"levelo://app?vid=3f8c6756-814e-4d54-8e6d-fee7c8d0b0c1","ios":"levelo://app?vid=3f8c6756-814e-4d54-8e6d-fee7c8d0b0c1"},"vehicle_type_id":"4","last_reported":1761124352,"current_range_meters":12400,"station_id":"ce4bhh12rcd13ifvqfg0","pricing_plan_id":"cebpf4jnsgd1na2vs0mg"},{"bike_id":"89dd87c4-c8d0-4de7-8902-2b0447e67475","system_id":"levelo_inurba_marseille","lat":43.31232,"lon":5.36877,"is_reserved":false,"is_disabled":false,"rental_uris":{"android":"levelo://app?vid=89dd87c4-c8d0-4de7-8902-2b0447e67475","ios":"levelo://app?vid=89dd87c4-c8d0-4de7-8902-2b0447e67475"},"vehicle_type_id":"4","last_reported":1761124352,"current_range_meters":12400,"station_id":"","pricing_plan_id":"cebpf4jnsgd1na2vs0mg"},{"bike_id":"b869754e-ab30-4b29-93e2-c3b579cde905","system_id":"levelo_inurba_marseille","lat":43.270516,"lon":5.383069,"is_reserved":false,"is_disabled":false,"rental_uris":{"android":"levelo://app?vid=b869754e-ab30-4b29-93e2-c3b579cde905","ios":"levelo://app?vid=b869754e-ab30-4b29-93e2-c3b579cde905"},"vehicle_type_id":"4","last_reported":1761124352,"current_range_meters":12400,"station_id":"st_d3n2fo6cfp8s73cte1j0","pricing_plan_id":"cebpf4jnsgd1na2vs0mg"},{"bike_id":"2dfa14ca-c6a1-4b7b-b1ba-ad120ebc5b2c","system_id":"levelo_inurba_marseille","lat":43.33616,"lon":5.410318,"is_reserved":false,"is_disabled":false,"rental_uris":{"android":"levelo://app?vid=2dfa14ca-c6a1-4b7b-b1ba-ad120ebc5b2c","ios":"levelo://app?vid=2dfa14ca-c6a1-4b7b-b1ba-ad120ebc5b2c"},"vehicle_type_id":"4","last_reported":1761124352,"current_range_meters":12400,"station_id":"ce4bhqh2rcd13ifvqhmg","pricing_plan_id":"cebpf4jnsgd1na2vs0mg"},{"bike_id":"c94f41c6-743f-4248-941c-574f989b12b4","system_id":"levelo_inurba_marseille","lat":43.2827,"lon":5.3506,"is_reserved":false,"is_disabled":false,"rental_uris":{"android":"levelo://app?vid=c94f41c6-743f-4248-941c-574f989b12b4","ios":"levelo://app?vid=c94f41c6-743f-4248-941c-574f989b12b4"},"vehicle_type_id":"4","last_reported":1761124352,"current_range_meters":12800,"station_id":"ce4bhbp2rcd13ifvqerg","pricing_plan_id":"cebpf4jnsgd1na2vs0mg"},{"bike_id":"e97cee2c-2821-4589-ad0d-39b7b7c16139","system_id":"levelo_inurba_marseille","lat":43.29608,"lon":5.37723,"is_reserved":false,"is_disabled":false,"rental_uris":{"android":"levelo://app?vid=e97cee2c-2821-4589-ad0d-39b7b7c16139","ios":"levelo://app?vid=e97cee2c-2821-4589-ad0d-39b7b7c16139"},"vehicle_type_id":"4","last_reported":1761124352,"current_range_meters":12800,"station_id":"ce4bgi92rcd13ifvqb90","pricing_plan_id":"cebpf4jnsgd1na2vs0mg"},{"bike_id":"6692e090-9792-45dd-b639-89e41212fa24","system_id":"levelo_inurba_marseille","lat":43.31476,"lon":5.38428,"is_reserved":false,"is_disabled":true,"rental_uris":{"android":"levelo://app?vid=6692e090-9792-45dd-b639-89e41212fa24","ios":"levelo://app?vid=6692e090-9792-45dd-b639-89e41212fa24"},"vehicle_type_id":"4","last_reported":1761124352,"current_range_meters":12800,"station_id":"","pricing_plan_id":"cebpf4jnsgd1na2vs0mg"},{"bike_id":"628c524a-f477-448e-ab2b-14a3a2541b61","system_id":"levelo_inurba_marseille","lat":43.296083,"lon":5.377138,"is_reserved":false,"is_disabled":false,"rental_uris":{"android":"levelo://app?vid=628c524a-f477-448e-ab2b-14a3a2541b61","ios":"levelo://app?vid=628c524a-f477-448e-ab2b-14a3a2541b61"},"vehicle_type_id":"4","last_reported":1761124352,"current_range_meters":12800,"station_id":"ce4bgi92rcd13ifvqb90","pricing_plan_id":"cebpf4jnsgd1na2vs0mg"},{"bike_id":"464bd8a3-6573-4884-b980-774e68ad4ab1","system_id":"levelo_inurba_marseille","lat":43.27178,"lon":5.40987,"is_reserved":false,"is_disabled":false,"rental_uris":{"android":"levelo://app?vid=464bd8a3-6573-4884-b980-774e68ad4ab1","ios":"levelo://app?vid=464bd8a3-6573-4884-b980-774e68ad4ab1"},"vehicle_type_id":"4","last_reported":1761124352,"current_range_meters":12800,"station_id":"ce4bhl12rcd13ifvqgf0","pricing_plan_id":"cebpf4jnsgd1na2vs0mg"},{"bike_id":"46e71a08-7e6c-4660-87ec-495dba3c6628","system_id":"levelo_inurba_marseille","lat":43.296639,"lon":5.362535,"is_reserved":false,"is_disabled":false,"rental_uris":{"android":"levelo://app?vid=46e71a08-7e6c-4660-87ec-495dba3c6628","ios":"levelo://app?vid=46e71a08-7e6c-4660-87ec-495dba3c6628"},"vehicle_type_id":"4","last_reported":1761124352,"current_range_meters":12800,"station_id":"","pricing_plan_id":"cebpf4jnsgd1na2vs0mg"},{"bike_id":"ca6cb3bf-3c51-48b8-93ff-e6a5e9c6d6b7","system_id":"levelo_inurba_marseille","lat":43.30977,"lon":5.39051,"is_reserved":false,"is_disabled":false,"rental_uris":{"android":"levelo://app?vid=ca6cb3bf-3c51-48b8-93ff-e6a5e9c6d6b7","ios":"levelo://app?vid=ca6cb3bf-3c51-48b8-93ff-e6a5e9c6d6b7"},"vehicle_type_id":"4","last_reported":1761124352,"current_range_meters":12800,"station_id":"ce4bgup2rcd13ifvqco0","pricing_plan_id":"cebpf4jnsgd1na2vs0mg"},{"bike_id":"265bb6fc-3a3f-4623-b52e-c434d2afe6fb","system_id":"levelo_inurba_marseille","lat":43.29043,"lon":5.3591,"is_reserved":false,"is_disabled":false,"rental_uris":{"android":"levelo://app?vid=265bb6fc-3a3f-4623-b52e-c434d2afe6fb","ios":"levelo://app?vid=265bb6fc-3a3f-4623-b52e-c434d2afe6fb"},"vehicle_type_id":"4","last_reported":1761124352,"current_range_meters":13600,"station_id":"ce4bha92rcd13ifvqeg0","pricing_plan_id":"cebpf4jnsgd1na2vs0mg"},{"bike_id":"62cfbf5d-d18e-4e53-bfb3-ff7bbdaf9d45","system_id":"levelo_inurba_marseille","lat":43.30531,"lon":5.36685,"is_reserved":false,"is_disabled":false,"rental_uris":{"android":"levelo://app?vid=62cfbf5d-d18e-4e53-bfb3-ff7bbdaf9d45","ios":"levelo://app?vid=62cfbf5d-d18e-4e53-bfb3-ff7bbdaf9d45"},"vehicle_type_id":"4","last_reported":1761124352,"current_range_meters":13600,"station_id":"ce4bgrp2rcd13ifvqc9g","pricing_plan_id":"cebpf4jnsgd1na2vs0mg"},{"bike_id":"396aaa55-c35f-41fc-8337-93bac25c9dde","system_id":"levelo_inurba_marseille","lat":43.29241,"lon":5.35566,"is_reserved":false,"is_disabled":false,"rental_uris":{"android":"levelo://app?vid=396aaa55-c35f-41fc-8337-93bac25c9dde","ios":"levelo://app?vid=396aaa55-c35f-41fc-8337-93bac25c9dde"},"vehicle_type_id":"4","last_reported":1761124352,"current_range_meters":13600,"station_id":"","pricing_plan_id":"cebpf4jnsgd1na2vs0mg"},{"bike_id":"03ba96e9-3caf-49b9-9132-dfd2e5e1998b","system_id":"levelo_inurba_marseille","lat":43.30283,"lon":5.37702,"is_reserved":false,"is_disabled":false,"rental_uris":{"android":"levelo://app?vid=03ba96e9-3caf-49b9-9132-dfd2e5e1998b","ios":"levelo://app?vid=03ba96e9-3caf-49b9-9132-dfd2e5e1998b"},"vehicle_type_id":"4","last_reported":1761124352,"current_range_meters":13600,"station_id":"ce4bguh2rcd13ifvqcj0","pricing_plan_id":"cebpf4jnsgd1na2vs0mg"},{"bike_id":"b8207d64-fa36-4895-b8b7-6918e92496a0","system_id":"levelo_inurba_marseille","lat":43.30544,"lon":5.36692,"is_reserved":false,"is_disabled":false,"rental_uris":{"android":"levelo://app?vid=b8207d64-fa36-4895-b8b7-6918e92496a0","ios":"levelo://app?vid=b8207d64-fa36-4895-b8b7-6918e92496a0"},"vehicle_type_id":"4","last_reported":1761124352,"current_range_meters":13600,"station_id":"ce4bgrp2rcd13ifvqc9g","pricing_plan_id":"cebpf4jnsgd1na2vs0mg"},{"bike_id":"9921693d-d20e-4438-adec-209c63d01662","system_id":"levelo_inurba_marseille","lat":43.2897,"lon":5.37828,"is_reserved":false,"is_disabled":false,"rental_uris":{"android":"levelo://app?vid=9921693d-d20e-4438-adec-209c63d01662","ios":"levelo://app?vid=9921693d-d20e-4438-adec-209c63d01662"},"vehicle_type_id":"4","last_reported":1761124352,"current_range_meters":13600,"station_id":"ce4bh9p2rcd13ifvqed0","pricing_plan_id":"cebpf4jnsgd1na2vs0mg"},{"bike_id":"27e4da55-03ac-4a27-9cbb-4218c6a866bf","system_id":"levelo_inurba_marseille","lat":43.280642,"lon":5.352788,"is_reserved":false,"is_disabled":false,"rental_uris":{"android":"levelo://app?vid=27e4da55-03ac-4a27-9cbb-4218c6a866bf","ios":"levelo://app?vid=27e4da55-03ac-4a27-9cbb-4218c6a866bf"},"vehicle_type_id":"4","last_reported":1761124352,"current_range_meters":13600,"station_id":"","pricing_plan_id":"cebpf4jnsgd1na2vs0mg"},{"bike_id":"a03e674e-6b92-4f08-91a0-49a582814e89","system_id":"levelo_inurba_marseille","lat":43.24182,"lon":5.39711,"is_reserved":false,"is_disabled":false,"rental_uris":{"android":"levelo://app?vid=a03e674e-6b92-4f08-91a0-49a582814e89","ios":"levelo://app?vid=a03e674e-6b92-4f08-91a0-49a582814e89"},"vehicle_type_id":"4","last_reported":1761124352,"current_range_meters":13600,"station_id":"ce4bhn12rcd13ifvqgpg","pricing_plan_id":"cebpf4jnsgd1na2vs0mg"},{"bike_id":"d00f4c2a-3594-49b4-b41c-198467814d53","system_id":"levelo_inurba_marseille","lat":43.24046,"lon":5.37765,"is_reserved":false,"is_disabled":false,"rental_uris":{"android":"levelo://app?vid=d00f4c2a-3594-49b4-b41c-198467814d53","ios":"levelo://app?vid=d00f4c2a-3594-49b4-b41c-198467814d53"},"vehicle_type_id":"4","last_reported":1761124352,"current_range_meters":14000,"station_id":"ce4bhnp2rcd13ifvqgvg","pricing_plan_id":"cebpf4jnsgd1na2vs0mg"},{"bike_id":"70f10bf0-82dd-45f6-bf9d-aed405777b35","system_id":"levelo_inurba_marseille","lat":43.30146,"lon":5.37427,"is_reserved":false,"is_disabled":false,"rental_uris":{"android":"levelo://app?vid=70f10bf0-82dd-45f6-bf9d-aed405777b35","ios":"levelo://app?vid=70f10bf0-82dd-45f6-bf9d-aed405777b35"},"vehicle_type_id":"4","last_reported":1761124352,"current_range_meters":14000,"station_id":"ce4bgs92rcd13ifvqcc0","pricing_plan_id":"cebpf4jnsgd1na2vs0mg"},{"bike_id":"37d01fc8-4b4d-4652-a489-1254eb9d4c80","system_id":"levelo_inurba_marseille","lat":43.34076,"lon":5.40411,"is_reserved":false,"is_disabled":false,"rental_uris":{"android":"levelo://app?vid=37d01fc8-4b4d-4652-a489-1254eb9d4c80","ios":"levelo://app?vid=37d01fc8-4b4d-4652-a489-1254eb9d4c80"},"vehicle_type_id":"4","last_reported":1761124352,"current_range_meters":14000,"station_id":"","pricing_plan_id":"cebpf4jnsgd1na2vs0mg"},{"bike_id":"d18f9cdb-f58f-47ec-8bd9-53ed2708193f","system_id":"levelo_inurba_marseille","lat":43.28473,"lon":5.38418,"is_reserved":false,"is_disabled":false,"rental_uris":{"android":"levelo://app?vid=d18f9cdb-f58f-47ec-8bd9-53ed2708193f","ios":"levelo://app?vid=d18f9cdb-f58f-47ec-8bd9-53ed2708193f"},"vehicle_type_id":"4","last_reported":1761124352,"current_range_meters":14000,"station_id":"ce4bh512rcd13ifvqe3g","pricing_plan_id":"cebpf4jnsgd1na2vs0mg"},{"bike_id":"5f2481dc-58ce-4ae1-9671-10a61fd44b37","system_id":"levelo_inurba_marseille","lat":43.29613,"lon":5.40609,"is_reserved":false,"is_disabled":false,"rental_uris":{"android":"levelo://app?vid=5f2481dc-58ce-4ae1-9671-10a61fd44b37","ios":"levelo://app?vid=5f2481dc-58ce-4ae1-9671-10a61fd44b37"},"vehicle_type_id":"4","last_reported":1761124352,"current_range_meters":14400,"station_id":"ce4bh0h2rcd13ifvqd60","pricing_plan_id":"cebpf4jnsgd1na2vs0mg"},{"bike_id":"2d979906-e4ae-41ed-bb35-b96b15a64b3b","system_id":"levelo_inurba_marseille","lat":43.30721,"lon":5.42439,"is_reserved":false,"is_disabled":false,"rental_uris":{"android":"levelo://app?vid=2d979906-e4ae-41ed-bb35-b96b15a64b3b","ios":"levelo://app?vid=2d979906-e4ae-41ed-bb35-b96b15a64b3b"},"vehicle_type_id":"4","last_reported":1761124352,"current_range_meters":14800,"station_id":"st_cvj6ca6bvosntc0bfgr0","pricing_plan_id":"cebpf4jnsgd1na2vs0mg"},{"bike_id":"1ae4f4ba-cdf3-4681-97bc-7048fb9fbd77","system_id":"levelo_inurba_marseille","lat":43.27817,"lon":5.39217,"is_reserved":false,"is_disabled":false,"rental_uris":{"android":"levelo://app?vid=1ae4f4ba-cdf3-4681-97bc-7048fb9fbd77","ios":"levelo://app?vid=1ae4f4ba-cdf3-4681-97bc-7048fb9fbd77"},"vehicle_type_id":"4","last_reported":1761124352,"current_range_meters":14800,"station_id":"ce4bhjp2rcd13ifvqga0","pricing_plan_id":"cebpf4jnsgd1na2vs0mg"},{"bike_id":"8517d2ad-4627-4d5c-b43d-563f1cd29009","system_id":"levelo_inurba_marseille","lat":43.30446,"lon":5.3685,"is_reserved":false,"is_disabled":false,"rental_uris":{"android":"levelo://app?vid=8517d2ad-4627-4d5c-b43d-563f1cd29009","ios":"levelo://app?vid=8517d2ad-4627-4d5c-b43d-563f1cd29009"},"vehicle_type_id":"4","last_reported":1761124352,"current_range_meters":15200,"station_id":"","pricing_plan_id":"cebpf4jnsgd1na2vs0mg"},{"bike_id":"65df4d6d-8abb-4a02-907e-7e8b789e1820","system_id":"levelo_inurba_marseille","lat":43.23797,"lon":5.36628,"is_reserved":false,"is_disabled":false,"rental_uris":{"android":"levelo://app?vid=65df4d6d-8abb-4a02-907e-7e8b789e1820","ios":"levelo://app?vid=65df4d6d-8abb-4a02-907e-7e8b789e1820"},"vehicle_type_id":"4","last_reported":1761124352,"current_range_meters":15200,"station_id":"st_d3nk18o9ro0c73en2l3g","pricing_plan_id":"cebpf4jnsgd1na2vs0mg"},{"bike_id":"5b2fb394-b654-4cda-abea-19d87e1a4938","system_id":"levelo_inurba_marseille","lat":43.240822,"lon":5.377519,"is_reserved":false,"is_disabled":false,"rental_uris":{"android":"levelo://app?vid=5b2fb394-b654-4cda-abea-19d87e1a4938","ios":"levelo://app?vid=5b2fb394-b654-4cda-abea-19d87e1a4938"},"vehicle_type_id":"4","last_reported":1761124352,"current_range_meters":15200,"station_id":"ce4bhnp2rcd13ifvqgvg","pricing_plan_id":"cebpf4jnsgd1na2vs0mg"},{"bike_id":"07e992db-48e1-481b-a50e-3b491cfc1455","system_id":"levelo_inurba_marseille","lat":43.31991,"lon":5.41291,"is_reserved":false,"is_disabled":false,"rental_uris":{"android":"levelo://app?vid=07e992db-48e1-481b-a50e-3b491cfc1455","ios":"levelo://app?vid=07e992db-48e1-481b-a50e-3b491cfc1455"},"vehicle_type_id":"4","last_reported":1761124352,"current_range_meters":15200,"station_id":"","pricing_plan_id":"cebpf4jnsgd1na2vs0mg"},{"bike_id":"3d7013be-dfe4-430a-97e8-197a834810ee","system_id":"levelo_inurba_marseille","lat":43.24644,"lon":5.388877,"is_reserved":false,"is_disabled":false,"rental_uris":{"android":"levelo://app?vid=3d7013be-dfe4-430a-97e8-197a834810ee","ios":"levelo://app?vid=3d7013be-dfe4-430a-97e8-197a834810ee"},"vehicle_type_id":"4","last_reported":1761124352,"current_range_meters":16000,"station_id":"ce4bhg12rcd13ifvqf60","pricing_plan_id":"cebpf4jnsgd1na2vs0mg"},{"bike_id":"bbd08cf4-31da-4d68-b46e-697f80190f23","system_id":"levelo_inurba_marseille","lat":43.271873,"lon":5.409919,"is_reserved":false,"is_disabled":false,"rental_uris":{"android":"levelo://app?vid=bbd08cf4-31da-4d68-b46e-697f80190f23","ios":"levelo://app?vid=bbd08cf4-31da-4d68-b46e-697f80190f23"},"vehicle_type_id":"4","last_reported":1761124352,"current_range_meters":16000,"station_id":"ce4bhl12rcd13ifvqgf0","pricing_plan_id":"cebpf4jnsgd1na2vs0mg"},{"bike_id":"b61e6817-4496-4ad7-ab43-b524af2e26e5","system_id":"levelo_inurba_marseille","lat":43.2866,"lon":5.38661,"is_reserved":false,"is_disabled":false,"rental_uris":{"android":"levelo://app?vid=b61e6817-4496-4ad7-ab43-b524af2e26e5","ios":"levelo://app?vid=b61e6817-4496-4ad7-ab43-b524af2e26e5"},"vehicle_type_id":"4","last_reported":1761124352,"current_range_meters":16000,"station_id":"","pricing_plan_id":"cebpf4jnsgd1na2vs0mg"},{"bike_id":"0bfa1008-b1d1-4f95-81ce-2f09bf25d6ec","system_id":"levelo_inurba_marseille","lat":43.28768,"lon":5.38547,"is_reserved":false,"is_disabled":false,"rental_uris":{"android":"levelo://app?vid=0bfa1008-b1d1-4f95-81ce-2f09bf25d6ec","ios":"levelo://app?vid=0bfa1008-b1d1-4f95-81ce-2f09bf25d6ec"},"vehicle_type_id":"4","last_reported":1761124352,"current_range_meters":16000,"station_id":"","pricing_plan_id":"cebpf4jnsgd1na2vs0mg"},{"bike_id":"36ee95c3-0651-4039-842c-c206cdf6bc55","system_id":"levelo_inurba_marseille","lat":43.27053,"lon":5.40264,"is_reserved":false,"is_disabled":false,"rental_uris":{"android":"levelo://app?vid=36ee95c3-0651-4039-842c-c206cdf6bc55","ios":"levelo://app?vid=36ee95c3-0651-4039-842c-c206cdf6bc55"},"vehicle_type_id":"4","last_reported":1761124352,"current_range_meters":16400,"station_id":"ce4bhk92rcd13ifvqgc0","pricing_plan_id":"cebpf4jnsgd1na2vs0mg"},{"bike_id":"55c7a453-1df8-47bd-b584-9d37339773fa","system_id":"levelo_inurba_marseille","lat":43.32181,"lon":5.38842,"is_reserved":false,"is_disabled":false,"rental_uris":{"android":"levelo://app?vid=55c7a453-1df8-47bd-b584-9d37339773fa","ios":"levelo://app?vid=55c7a453-1df8-47bd-b584-9d37339773fa"},"vehicle_type_id":"4","last_reported":1761124352,"current_range_meters":16400,"station_id":"","pricing_plan_id":"cebpf4jnsgd1na2vs0mg"},{"bike_id":"e01c0407-9fea-4afc-844a-8e1d738fcda5","system_id":"levelo_inurba_marseille","lat":43.24166,"lon":5.364042,"is_reserved":false,"is_disabled":false,"rental_uris":{"android":"levelo://app?vid=e01c0407-9fea-4afc-844a-8e1d738fcda5","ios":"levelo://app?vid=e01c0407-9fea-4afc-844a-8e1d738fcda5"},"vehicle_type_id":"4","last_reported":1761124352,"current_range_meters":16400,"station_id":"cpo36qri1sfpv3e86is0","pricing_plan_id":"cebpf4jnsgd1na2vs0mg"},{"bike_id":"4eae2ec4-8862-466e-a3d9-395cca4276d0","system_id":"levelo_inurba_marseille","lat":43.303057,"lon":5.375265,"is_reserved":false,"is_disabled":false,"rental_uris":{"android":"levelo://app?vid=4eae2ec4-8862-466e-a3d9-395cca4276d0","ios":"levelo://app?vid=4eae2ec4-8862-466e-a3d9-395cca4276d0"},"vehicle_type_id":"4","last_reported":1761124352,"current_range_meters":16400,"station_id":"","pricing_plan_id":"cebpf4jnsgd1na2vs0mg"},{"bike_id":"25ec446d-631f-47e4-af59-69f2f4d2fdf3","system_id":"levelo_inurba_marseille","lat":43.29909,"lon":5.38142,"is_reserved":false,"is_disabled":false,"rental_uris":{"android":"levelo://app?vid=25ec446d-631f-47e4-af59-69f2f4d2fdf3","ios":"levelo://app?vid=25ec446d-631f-47e4-af59-69f2f4d2fdf3"},"vehicle_type_id":"4","last_reported":1761124352,"current_range_meters":16400,"station_id":"ce4bgj12rcd13ifvqbc0","pricing_plan_id":"cebpf4jnsgd1na2vs0mg"},{"bike_id":"771d78e4-a928-428b-a266-13d946523eca","system_id":"levelo_inurba_marseille","lat":43.2593,"lon":5.40919,"is_reserved":false,"is_disabled":false,"rental_uris":{"android":"levelo://app?vid=771d78e4-a928-428b-a266-13d946523eca","ios":"levelo://app?vid=771d78e4-a928-428b-a266-13d946523eca"},"vehicle_type_id":"4","last_reported":1761124352,"current_range_meters":16400,"station_id":"ce4bhm92rcd13ifvqglg","pricing_plan_id":"cebpf4jnsgd1na2vs0mg"},{"bike_id":"9870a68d-ae62-4bec-82c3-a7443a850bdc","system_id":"levelo_inurba_marseille","lat":43.312904,"lon":5.377907,"is_reserved":false,"is_disabled":false,"rental_uris":{"android":"levelo://app?vid=9870a68d-ae62-4bec-82c3-a7443a850bdc","ios":"levelo://app?vid=9870a68d-ae62-4bec-82c3-a7443a850bdc"},"vehicle_type_id":"4","last_reported":1761124352,"current_range_meters":16800,"station_id":"","pricing_plan_id":"cebpf4jnsgd1na2vs0mg"},{"bike_id":"d599766f-13ba-4ccb-9669-3db338b97e3c","system_id":"levelo_inurba_marseille","lat":43.31115,"lon":5.37759,"is_reserved":false,"is_disabled":false,"rental_uris":{"android":"levelo://app?vid=d599766f-13ba-4ccb-9669-3db338b97e3c","ios":"levelo://app?vid=d599766f-13ba-4ccb-9669-3db338b97e3c"},"vehicle_type_id":"4","last_reported":1761124352,"current_range_meters":16800,"station_id":"ce4bgt92rcd13ifvqcg0","pricing_plan_id":"cebpf4jnsgd1na2vs0mg"},{"bike_id":"89d8739f-4b8e-4f60-8f43-e495253557db","system_id":"levelo_inurba_marseille","lat":43.28537,"lon":5.44094,"is_reserved":false,"is_disabled":false,"rental_uris":{"android":"levelo://app?vid=89d8739f-4b8e-4f60-8f43-e495253557db","ios":"levelo://app?vid=89d8739f-4b8e-4f60-8f43-e495253557db"},"vehicle_type_id":"4","last_reported":1761124352,"current_range_meters":16800,"station_id":"st_d3j3df2ikq2c7380ej80","pricing_plan_id":"cebpf4jnsgd1na2vs0mg"},{"bike_id":"618a9c44-e479-45b6-b144-58d3228e3132","system_id":"levelo_inurba_marseille","lat":43.24642,"lon":5.38895,"is_reserved":false,"is_disabled":false,"rental_uris":{"android":"levelo://app?vid=618a9c44-e479-45b6-b144-58d3228e3132","ios":"levelo://app?vid=618a9c44-e479-45b6-b144-58d3228e3132"},"vehicle_type_id":"4","last_reported":1761124352,"current_range_meters":16800,"station_id":"ce4bhg12rcd13ifvqf60","pricing_plan_id":"cebpf4jnsgd1na2vs0mg"},{"bike_id":"9d8bcd8e-8ecf-425f-98ef-b7c9398172e2","system_id":"levelo_inurba_marseille","lat":43.32364,"lon":5.36764,"is_reserved":false,"is_disabled":false,"rental_uris":{"android":"levelo://app?vid=9d8bcd8e-8ecf-425f-98ef-b7c9398172e2","ios":"levelo://app?vid=9d8bcd8e-8ecf-425f-98ef-b7c9398172e2"},"vehicle_type_id":"4","last_reported":1761124352,"current_range_meters":16800,"station_id":"ce4bhsh2rcd13ifvqi2g","pricing_plan_id":"cebpf4jnsgd1na2vs0mg"},{"bike_id":"bcd7b312-d4ab-4a9e-9c1f-0ec0ee3f47f2","system_id":"levelo_inurba_marseille","lat":43.33605,"lon":5.41033,"is_reserved":false,"is_disabled":false,"rental_uris":{"android":"levelo://app?vid=bcd7b312-d4ab-4a9e-9c1f-0ec0ee3f47f2","ios":"levelo://app?vid=bcd7b312-d4ab-4a9e-9c1f-0ec0ee3f47f2"},"vehicle_type_id":"4","last_reported":1761124352,"current_range_meters":16800,"station_id":"ce4bhqh2rcd13ifvqhmg","pricing_plan_id":"cebpf4jnsgd1na2vs0mg"},{"bike_id":"a79c6bd1-700c-48dd-854c-b0af28c99022","system_id":"levelo_inurba_marseille","lat":43.246379,"lon":5.431383,"is_reserved":false,"is_disabled":false,"rental_uris":{"android":"levelo://app?vid=a79c6bd1-700c-48dd-854c-b0af28c99022","ios":"levelo://app?vid=a79c6bd1-700c-48dd-854c-b0af28c99022"},"vehicle_type_id":"4","last_reported":1761124352,"current_range_meters":16800,"station_id":"st_d2m6c4gdas8pm72e190g","pricing_plan_id":"cebpf4jnsgd1na2vs0mg"},{"bike_id":"32eaff10-a281-4f40-91e7-99dfcc556b46","system_id":"levelo_inurba_marseille","lat":43.30464,"lon":5.37905,"is_reserved":false,"is_disabled":false,"rental_uris":{"android":"levelo://app?vid=32eaff10-a281-4f40-91e7-99dfcc556b46","ios":"levelo://app?vid=32eaff10-a281-4f40-91e7-99dfcc556b46"},"vehicle_type_id":"4","last_reported":1761124352,"current_range_meters":17200,"station_id":"ce4bgup2rcd13ifvqcn0","pricing_plan_id":"cebpf4jnsgd1na2vs0mg"},{"bike_id":"b3b13e92-d401-45af-ad84-a41c7bbeb5fe","system_id":"levelo_inurba_marseille","lat":43.309793,"lon":5.375016,"is_reserved":false,"is_disabled":false,"rental_uris":{"android":"levelo://app?vid=b3b13e92-d401-45af-ad84-a41c7bbeb5fe","ios":"levelo://app?vid=b3b13e92-d401-45af-ad84-a41c7bbeb5fe"},"vehicle_type_id":"4","last_reported":1761124352,"current_range_meters":17200,"station_id":"","pricing_plan_id":"cebpf4jnsgd1na2vs0mg"},{"bike_id":"34130888-7081-4e94-827a-c12d43393837","system_id":"levelo_inurba_marseille","lat":43.23786,"lon":5.36629,"is_reserved":false,"is_disabled":false,"rental_uris":{"android":"levelo://app?vid=34130888-7081-4e94-827a-c12d43393837","ios":"levelo://app?vid=34130888-7081-4e94-827a-c12d43393837"},"vehicle_type_id":"4","last_reported":1761124352,"current_range_meters":17200,"station_id":"st_d3nk18o9ro0c73en2l3g","pricing_plan_id":"cebpf4jnsgd1na2vs0mg"},{"bike_id":"e356b8ed-247e-4db3-9ba4-db1e976f5d81","system_id":"levelo_inurba_marseille","lat":43.29198,"lon":5.39312,"is_reserved":false,"is_disabled":false,"rental_uris":{"android":"levelo://app?vid=e356b8ed-247e-4db3-9ba4-db1e976f5d81","ios":"levelo://app?vid=e356b8ed-247e-4db3-9ba4-db1e976f5d81"},"vehicle_type_id":"4","last_reported":1761124352,"current_range_meters":17200,"station_id":"ce4bh192rcd13ifvqdd0","pricing_plan_id":"cebpf4jnsgd1na2vs0mg"},{"bike_id":"f61385e8-c02f-4a6a-89e2-09263b566a48","system_id":"levelo_inurba_marseille","lat":43.30538,"lon":5.36538,"is_reserved":false,"is_disabled":false,"rental_uris":{"android":"levelo://app?vid=f61385e8-c02f-4a6a-89e2-09263b566a48","ios":"levelo://app?vid=f61385e8-c02f-4a6a-89e2-09263b566a48"},"vehicle_type_id":"4","last_reported":1761124352,"current_range_meters":17200,"station_id":"ce4bgs12rcd13ifvqcag","pricing_plan_id":"cebpf4jnsgd1na2vs0mg"},{"bike_id":"7232bb60-2fbd-40fd-9d41-97ab2f0d9f37","system_id":"levelo_inurba_marseille","lat":43.24121,"lon":5.41287,"is_reserved":false,"is_disabled":false,"rental_uris":{"android":"levelo://app?vid=7232bb60-2fbd-40fd-9d41-97ab2f0d9f37","ios":"levelo://app?vid=7232bb60-2fbd-40fd-9d41-97ab2f0d9f37"},"vehicle_type_id":"4","last_reported":1761124352,"current_range_meters":17600,"station_id":"","pricing_plan_id":"cebpf4jnsgd1na2vs0mg"},{"bike_id":"05686769-44b4-41f5-8ec8-dc413c3915c8","system_id":"levelo_inurba_marseille","lat":43.295802,"lon":5.375183,"is_reserved":false,"is_disabled":false,"rental_uris":{"android":"levelo://app?vid=05686769-44b4-41f5-8ec8-dc413c3915c8","ios":"levelo://app?vid=05686769-44b4-41f5-8ec8-dc413c3915c8"},"vehicle_type_id":"4","last_reported":1761124352,"current_range_meters":17600,"station_id":"ce4bgh92rcd13ifvqb50","pricing_plan_id":"cebpf4jnsgd1na2vs0mg"},{"bike_id":"fabe01e6-e39a-42c6-bb68-6378fe2a2d01","system_id":"levelo_inurba_marseille","lat":43.27941,"lon":5.41045,"is_reserved":false,"is_disabled":false,"rental_uris":{"android":"levelo://app?vid=fabe01e6-e39a-42c6-bb68-6378fe2a2d01","ios":"levelo://app?vid=fabe01e6-e39a-42c6-bb68-6378fe2a2d01"},"vehicle_type_id":"4","last_reported":1761124352,"current_range_meters":17600,"station_id":"ce4bhnp2rcd13ifvqh0g","pricing_plan_id":"cebpf4jnsgd1na2vs0mg"},{"bike_id":"c8c0fa58-a519-4343-9887-b0c694f93aef","system_id":"levelo_inurba_marseille","lat":43.288592,"lon":5.425116,"is_reserved":false,"is_disabled":false,"rental_uris":{"android":"levelo://app?vid=c8c0fa58-a519-4343-9887-b0c694f93aef","ios":"levelo://app?vid=c8c0fa58-a519-4343-9887-b0c694f93aef"},"vehicle_type_id":"4","last_reported":1761124352,"current_range_meters":17600,"station_id":"st_d3b462108ojc7389ooeg","pricing_plan_id":"cebpf4jnsgd1na2vs0mg"},{"bike_id":"0ec4ef5d-d495-417b-9bb4-a7234e30b1f5","system_id":"levelo_inurba_marseille","lat":43.24542,"lon":5.395253,"is_reserved":false,"is_disabled":false,"rental_uris":{"android":"levelo://app?vid=0ec4ef5d-d495-417b-9bb4-a7234e30b1f5","ios":"levelo://app?vid=0ec4ef5d-d495-417b-9bb4-a7234e30b1f5"},"vehicle_type_id":"4","last_reported":1761124352,"current_range_meters":17600,"station_id":"ce4bhlp2rcd13ifvqgjg","pricing_plan_id":"cebpf4jnsgd1na2vs0mg"},{"bike_id":"e41d7aa4-71f9-4867-86ca-abcc28a88aca","system_id":"levelo_inurba_marseille","lat":43.29561,"lon":5.37505,"is_reserved":false,"is_disabled":false,"rental_uris":{"android":"levelo://app?vid=e41d7aa4-71f9-4867-86ca-abcc28a88aca","ios":"levelo://app?vid=e41d7aa4-71f9-4867-86ca-abcc28a88aca"},"vehicle_type_id":"4","last_reported":1761124352,"current_range_meters":17600,"station_id":"ce4bgh92rcd13ifvqb50","pricing_plan_id":"cebpf4jnsgd1na2vs0mg"},{"bike_id":"4b30c2bc-d373-4997-b9b2-e6e534ad6de1","system_id":"levelo_inurba_marseille","lat":43.29178,"lon":5.39322,"is_reserved":false,"is_disabled":false,"rental_uris":{"android":"levelo://app?vid=4b30c2bc-d373-4997-b9b2-e6e534ad6de1","ios":"levelo://app?vid=4b30c2bc-d373-4997-b9b2-e6e534ad6de1"},"vehicle_type_id":"4","last_reported":1761124352,"current_range_meters":17600,"station_id":"ce4bh192rcd13ifvqdd0","pricing_plan_id":"cebpf4jnsgd1na2vs0mg"},{"bike_id":"99332a38-6d7c-4935-86ee-07acb729932e","system_id":"levelo_inurba_marseille","lat":43.298023,"lon":5.381016,"is_reserved":false,"is_disabled":false,"rental_uris":{"android":"levelo://app?vid=99332a38-6d7c-4935-86ee-07acb729932e","ios":"levelo://app?vid=99332a38-6d7c-4935-86ee-07acb729932e"},"vehicle_type_id":"4","last_reported":1761124352,"current_range_meters":18000,"station_id":"ce4bgip2rcd13ifvqbb0","pricing_plan_id":"cebpf4jnsgd1na2vs0mg"},{"bike_id":"6dedb052-20a2-44cd-aeba-04edee226593","system_id":"levelo_inurba_marseille","lat":43.22558,"lon":5.4162,"is_reserved":false,"is_disabled":false,"rental_uris":{"android":"levelo://app?vid=6dedb052-20a2-44cd-aeba-04edee226593","ios":"levelo://app?vid=6dedb052-20a2-44cd-aeba-04edee226593"},"vehicle_type_id":"4","last_reported":1761124352,"current_range_meters":18000,"station_id":"st_d2o4gvlbi1j2169b742g","pricing_plan_id":"cebpf4jnsgd1na2vs0mg"},{"bike_id":"61525fe3-26d4-4c5c-a075-e59599c296c4","system_id":"levelo_inurba_marseille","lat":43.31441,"lon":5.39285,"is_reserved":false,"is_disabled":false,"rental_uris":{"android":"levelo://app?vid=61525fe3-26d4-4c5c-a075-e59599c296c4","ios":"levelo://app?vid=61525fe3-26d4-4c5c-a075-e59599c296c4"},"vehicle_type_id":"4","last_reported":1761124352,"current_range_meters":18000,"station_id":"","pricing_plan_id":"cebpf4jnsgd1na2vs0mg"},{"bike_id":"37919a81-5f03-4e93-b094-379888e8cb5b","system_id":"levelo_inurba_marseille","lat":43.30309,"lon":5.36903,"is_reserved":false,"is_disabled":false,"rental_uris":{"android":"levelo://app?vid=37919a81-5f03-4e93-b094-379888e8cb5b","ios":"levelo://app?vid=37919a81-5f03-4e93-b094-379888e8cb5b"},"vehicle_type_id":"4","last_reported":1761124352,"current_range_meters":18000,"station_id":"ce4bgqh2rcd13ifvqc5g","pricing_plan_id":"cebpf4jnsgd1na2vs0mg"},{"bike_id":"03f6d8cb-1405-4ac4-a15e-a772cc676986","system_id":"levelo_inurba_marseille","lat":43.28964,"lon":5.36389,"is_reserved":false,"is_disabled":true,"rental_uris":{"android":"levelo://app?vid=03f6d8cb-1405-4ac4-a15e-a772cc676986","ios":"levelo://app?vid=03f6d8cb-1405-4ac4-a15e-a772cc676986"},"vehicle_type_id":"4","last_reported":1761124352,"current_range_meters":18000,"station_id":"ce4bhc92rcd13ifvqetg","pricing_plan_id":"cebpf4jnsgd1na2vs0mg"},{"bike_id":"f943f823-d9e2-4f69-9794-8ee1bed89cda","system_id":"levelo_inurba_marseille","lat":43.24167,"lon":5.36401,"is_reserved":false,"is_disabled":false,"rental_uris":{"android":"levelo://app?vid=f943f823-d9e2-4f69-9794-8ee1bed89cda","ios":"levelo://app?vid=f943f823-d9e2-4f69-9794-8ee1bed89cda"},"vehicle_type_id":"4","last_reported":1761124352,"current_range_meters":18000,"station_id":"cpo36qri1sfpv3e86is0","pricing_plan_id":"cebpf4jnsgd1na2vs0mg"},{"bike_id":"912fafd0-bac8-42fa-aa96-95edf9b3b9a2","system_id":"levelo_inurba_marseille","lat":43.30151,"lon":5.38071,"is_reserved":false,"is_disabled":false,"rental_uris":{"android":"levelo://app?vid=912fafd0-bac8-42fa-aa96-95edf9b3b9a2","ios":"levelo://app?vid=912fafd0-bac8-42fa-aa96-95edf9b3b9a2"},"vehicle_type_id":"4","last_reported":1761124352,"current_range_meters":18000,"station_id":"ce4bgjp2rcd13ifvqbh0","pricing_plan_id":"cebpf4jnsgd1na2vs0mg"},{"bike_id":"b25a4d27-84df-4f1c-af12-2f9e9b4f629a","system_id":"levelo_inurba_marseille","lat":43.28229,"lon":5.39061,"is_reserved":false,"is_disabled":true,"rental_uris":{"android":"levelo://app?vid=b25a4d27-84df-4f1c-af12-2f9e9b4f629a","ios":"levelo://app?vid=b25a4d27-84df-4f1c-af12-2f9e9b4f629a"},"vehicle_type_id":"4","last_reported":1761124352,"current_range_meters":18000,"station_id":"ce4bhn92rcd13ifvqgsg","pricing_plan_id":"cebpf4jnsgd1na2vs0mg"},{"bike_id":"415179a7-2d88-422a-bebd-ab5d5bf72e3d","system_id":"levelo_inurba_marseille","lat":43.31992,"lon":5.38141,"is_reserved":false,"is_disabled":false,"rental_uris":{"android":"levelo://app?vid=415179a7-2d88-422a-bebd-ab5d5bf72e3d","ios":"levelo://app?vid=415179a7-2d88-422a-bebd-ab5d5bf72e3d"},"vehicle_type_id":"4","last_reported":1761124352,"current_range_meters":18000,"station_id":"ce4bhr12rcd13ifvqhpg","pricing_plan_id":"cebpf4jnsgd1na2vs0mg"},{"bike_id":"4b8a07f6-4c0f-4ee5-8413-fc7298ca0bfe","system_id":"levelo_inurba_marseille","lat":43.305877,"lon":5.365371,"is_reserved":false,"is_disabled":false,"rental_uris":{"android":"levelo://app?vid=4b8a07f6-4c0f-4ee5-8413-fc7298ca0bfe","ios":"levelo://app?vid=4b8a07f6-4c0f-4ee5-8413-fc7298ca0bfe"},"vehicle_type_id":"4","last_reported":1761124352,"current_range_meters":18000,"station_id":"ce4bgs12rcd13ifvqcag","pricing_plan_id":"cebpf4jnsgd1na2vs0mg"},{"bike_id":"4c2b5c5f-ac7a-43d4-a4ed-480a42d5e982","system_id":"levelo_inurba_marseille","lat":43.33922,"lon":5.39774,"is_reserved":false,"is_disabled":false,"rental_uris":{"android":"levelo://app?vid=4c2b5c5f-ac7a-43d4-a4ed-480a42d5e982","ios":"levelo://app?vid=4c2b5c5f-ac7a-43d4-a4ed-480a42d5e982"},"vehicle_type_id":"4","last_reported":1761124352,"current_range_meters":18800,"station_id":"","pricing_plan_id":"cebpf4jnsgd1na2vs0mg"},{"bike_id":"fc088b50-e903-4413-b68e-3a2b8a695866","system_id":"levelo_inurba_marseille","lat":43.246208,"lon":5.431493,"is_reserved":false,"is_disabled":false,"rental_uris":{"android":"levelo://app?vid=fc088b50-e903-4413-b68e-3a2b8a695866","ios":"levelo://app?vid=fc088b50-e903-4413-b68e-3a2b8a695866"},"vehicle_type_id":"4","last_reported":1761124352,"current_range_meters":18800,"station_id":"st_d2m6c4gdas8pm72e190g","pricing_plan_id":"cebpf4jnsgd1na2vs0mg"},{"bike_id":"622a446d-7aa9-48f8-a28a-4bdb017917b6","system_id":"levelo_inurba_marseille","lat":43.30168,"lon":5.38079,"is_reserved":false,"is_disabled":false,"rental_uris":{"android":"levelo://app?vid=622a446d-7aa9-48f8-a28a-4bdb017917b6","ios":"levelo://app?vid=622a446d-7aa9-48f8-a28a-4bdb017917b6"},"vehicle_type_id":"4","last_reported":1761124352,"current_range_meters":18800,"station_id":"ce4bgjp2rcd13ifvqbh0","pricing_plan_id":"cebpf4jnsgd1na2vs0mg"},{"bike_id":"205a1994-d98a-42ee-a2a9-7548fdcc1a21","system_id":"levelo_inurba_marseille","lat":43.30527,"lon":5.36558,"is_reserved":false,"is_disabled":false,"rental_uris":{"android":"levelo://app?vid=205a1994-d98a-42ee-a2a9-7548fdcc1a21","ios":"levelo://app?vid=205a1994-d98a-42ee-a2a9-7548fdcc1a21"},"vehicle_type_id":"4","last_reported":1761124352,"current_range_meters":18800,"station_id":"","pricing_plan_id":"cebpf4jnsgd1na2vs0mg"},{"bike_id":"9b0f8730-e321-41f3-ba81-96be0c6cf8c5","system_id":"levelo_inurba_marseille","lat":43.28477,"lon":5.38425,"is_reserved":false,"is_disabled":false,"rental_uris":{"android":"levelo://app?vid=9b0f8730-e321-41f3-ba81-96be0c6cf8c5","ios":"levelo://app?vid=9b0f8730-e321-41f3-ba81-96be0c6cf8c5"},"vehicle_type_id":"4","last_reported":1761124352,"current_range_meters":18800,"station_id":"ce4bh512rcd13ifvqe3g","pricing_plan_id":"cebpf4jnsgd1na2vs0mg"},{"bike_id":"fbb74503-2d8f-4e8a-9630-af6095649c50","system_id":"levelo_inurba_marseille","lat":43.29739,"lon":5.37682,"is_reserved":false,"is_disabled":false,"rental_uris":{"android":"levelo://app?vid=fbb74503-2d8f-4e8a-9630-af6095649c50","ios":"levelo://app?vid=fbb74503-2d8f-4e8a-9630-af6095649c50"},"vehicle_type_id":"4","last_reported":1761124352,"current_range_meters":18800,"station_id":"ce4bgkh2rcd13ifvqbl0","pricing_plan_id":"cebpf4jnsgd1na2vs0mg"},{"bike_id":"d9247930-f477-4727-872b-24c5b02f6614","system_id":"levelo_inurba_marseille","lat":43.27189,"lon":5.4099,"is_reserved":false,"is_disabled":false,"rental_uris":{"android":"levelo://app?vid=d9247930-f477-4727-872b-24c5b02f6614","ios":"levelo://app?vid=d9247930-f477-4727-872b-24c5b02f6614"},"vehicle_type_id":"4","last_reported":1761124352,"current_range_meters":18800,"station_id":"ce4bhl12rcd13ifvqgf0","pricing_plan_id":"cebpf4jnsgd1na2vs0mg"},{"bike_id":"5deb1481-0f0e-41e1-a1ba-0d8c0e934059","system_id":"levelo_inurba_marseille","lat":43.33605,"lon":5.41034,"is_reserved":false,"is_disabled":false,"rental_uris":{"android":"levelo://app?vid=5deb1481-0f0e-41e1-a1ba-0d8c0e934059","ios":"levelo://app?vid=5deb1481-0f0e-41e1-a1ba-0d8c0e934059"},"vehicle_type_id":"4","last_reported":1761124352,"current_range_meters":19200,"station_id":"ce4bhqh2rcd13ifvqhmg","pricing_plan_id":"cebpf4jnsgd1na2vs0mg"},{"bike_id":"2a22829e-2bd6-41ec-a3e5-ef826e7425d3","system_id":"levelo_inurba_marseille","lat":43.32121,"lon":5.36738,"is_reserved":false,"is_disabled":false,"rental_uris":{"android":"levelo://app?vid=2a22829e-2bd6-41ec-a3e5-ef826e7425d3","ios":"levelo://app?vid=2a22829e-2bd6-41ec-a3e5-ef826e7425d3"},"vehicle_type_id":"4","last_reported":1761124352,"current_range_meters":19200,"station_id":"ce4bhrh2rcd13ifvqhug","pricing_plan_id":"cebpf4jnsgd1na2vs0mg"},{"bike_id":"27b803b9-a8f9-42b9-b513-0807b9cf9d84","system_id":"levelo_inurba_marseille","lat":43.29077,"lon":5.38187,"is_reserved":false,"is_disabled":true,"rental_uris":{"android":"levelo://app?vid=27b803b9-a8f9-42b9-b513-0807b9cf9d84","ios":"levelo://app?vid=27b803b9-a8f9-42b9-b513-0807b9cf9d84"},"vehicle_type_id":"4","last_reported":1761124352,"current_range_meters":19200,"station_id":"ce4bh512rcd13ifvqe2g","pricing_plan_id":"cebpf4jnsgd1na2vs0mg"},{"bike_id":"bda3ed1a-3199-4eb8-8229-577855d09dbb","system_id":"levelo_inurba_marseille","lat":43.3163,"lon":5.37876,"is_reserved":false,"is_disabled":false,"rental_uris":{"android":"levelo://app?vid=bda3ed1a-3199-4eb8-8229-577855d09dbb","ios":"levelo://app?vid=bda3ed1a-3199-4eb8-8229-577855d09dbb"},"vehicle_type_id":"4","last_reported":1761124352,"current_range_meters":19200,"station_id":"","pricing_plan_id":"cebpf4jnsgd1na2vs0mg"},{"bike_id":"89ddf3b0-93c7-40cc-958c-80c69f9edea9","system_id":"levelo_inurba_marseille","lat":43.30121,"lon":5.37419,"is_reserved":false,"is_disabled":false,"rental_uris":{"android":"levelo://app?vid=89ddf3b0-93c7-40cc-958c-80c69f9edea9","ios":"levelo://app?vid=89ddf3b0-93c7-40cc-958c-80c69f9edea9"},"vehicle_type_id":"4","last_reported":1761124352,"current_range_meters":19200,"station_id":"ce4bgs92rcd13ifvqcc0","pricing_plan_id":"cebpf4jnsgd1na2vs0mg"},{"bike_id":"a1f84834-f6f4-450b-9bc5-1d20c698d88b","system_id":"levelo_inurba_marseille","lat":43.30138,"lon":5.38779,"is_reserved":false,"is_disabled":false,"rental_uris":{"android":"levelo://app?vid=a1f84834-f6f4-450b-9bc5-1d20c698d88b","ios":"levelo://app?vid=a1f84834-f6f4-450b-9bc5-1d20c698d88b"},"vehicle_type_id":"4","last_reported":1761124352,"current_range_meters":19200,"station_id":"ce4bghh2rcd13ifvqb60","pricing_plan_id":"cebpf4jnsgd1na2vs0mg"},{"bike_id":"55e90a26-98e4-4248-854f-c415996cafea","system_id":"levelo_inurba_marseille","lat":43.33781,"lon":5.37437,"is_reserved":false,"is_disabled":false,"rental_uris":{"android":"levelo://app?vid=55e90a26-98e4-4248-854f-c415996cafea","ios":"levelo://app?vid=55e90a26-98e4-4248-854f-c415996cafea"},"vehicle_type_id":"4","last_reported":1761124352,"current_range_meters":19200,"station_id":"","pricing_plan_id":"cebpf4jnsgd1na2vs0mg"},{"bike_id":"83ccefc6-978c-4154-b69a-e6b615d5f19c","system_id":"levelo_inurba_marseille","lat":43.30359,"lon":5.406024,"is_reserved":false,"is_disabled":false,"rental_uris":{"android":"levelo://app?vid=83ccefc6-978c-4154-b69a-e6b615d5f19c","ios":"levelo://app?vid=83ccefc6-978c-4154-b69a-e6b615d5f19c"},"vehicle_type_id":"4","last_reported":1761124352,"current_range_meters":19600,"station_id":"","pricing_plan_id":"cebpf4jnsgd1na2vs0mg"},{"bike_id":"1ecc769a-b3fa-49c2-a478-e889e54c474f","system_id":"levelo_inurba_marseille","lat":43.30156,"lon":5.38074,"is_reserved":false,"is_disabled":false,"rental_uris":{"android":"levelo://app?vid=1ecc769a-b3fa-49c2-a478-e889e54c474f","ios":"levelo://app?vid=1ecc769a-b3fa-49c2-a478-e889e54c474f"},"vehicle_type_id":"4","last_reported":1761124352,"current_range_meters":19600,"station_id":"ce4bgjp2rcd13ifvqbh0","pricing_plan_id":"cebpf4jnsgd1na2vs0mg"},{"bike_id":"e8d5589c-46e6-4f16-98dc-f58df1da932e","system_id":"levelo_inurba_marseille","lat":43.271802,"lon":5.409887,"is_reserved":false,"is_disabled":false,"rental_uris":{"android":"levelo://app?vid=e8d5589c-46e6-4f16-98dc-f58df1da932e","ios":"levelo://app?vid=e8d5589c-46e6-4f16-98dc-f58df1da932e"},"vehicle_type_id":"4","last_reported":1761124352,"current_range_meters":19600,"station_id":"ce4bhl12rcd13ifvqgf0","pricing_plan_id":"cebpf4jnsgd1na2vs0mg"},{"bike_id":"9bfe4fb2-b19d-4fd2-bfac-57d80f1339ac","system_id":"levelo_inurba_marseille","lat":43.32004,"lon":5.38168,"is_reserved":false,"is_disabled":false,"rental_uris":{"android":"levelo://app?vid=9bfe4fb2-b19d-4fd2-bfac-57d80f1339ac","ios":"levelo://app?vid=9bfe4fb2-b19d-4fd2-bfac-57d80f1339ac"},"vehicle_type_id":"4","last_reported":1761124352,"current_range_meters":19600,"station_id":"ce4bhr12rcd13ifvqhpg","pricing_plan_id":"cebpf4jnsgd1na2vs0mg"},{"bike_id":"95dcaf58-66f1-4e63-8319-e0cabb39ab12","system_id":"levelo_inurba_marseille","lat":43.30271,"lon":5.37686,"is_reserved":false,"is_disabled":false,"rental_uris":{"android":"levelo://app?vid=95dcaf58-66f1-4e63-8319-e0cabb39ab12","ios":"levelo://app?vid=95dcaf58-66f1-4e63-8319-e0cabb39ab12"},"vehicle_type_id":"4","last_reported":1761124352,"current_range_meters":19600,"station_id":"ce4bguh2rcd13ifvqcj0","pricing_plan_id":"cebpf4jnsgd1na2vs0mg"},{"bike_id":"bc1ce556-4f70-40b2-a104-08b26a535c74","system_id":"levelo_inurba_marseille","lat":43.22564,"lon":5.41634,"is_reserved":false,"is_disabled":false,"rental_uris":{"android":"levelo://app?vid=bc1ce556-4f70-40b2-a104-08b26a535c74","ios":"levelo://app?vid=bc1ce556-4f70-40b2-a104-08b26a535c74"},"vehicle_type_id":"4","last_reported":1761124352,"current_range_meters":19600,"station_id":"st_d2o4gvlbi1j2169b742g","pricing_plan_id":"cebpf4jnsgd1na2vs0mg"},{"bike_id":"a7f831ab-ba4c-4b99-8fcb-e4d8f2bdf460","system_id":"levelo_inurba_marseille","lat":43.27056,"lon":5.40268,"is_reserved":false,"is_disabled":false,"rental_uris":{"android":"levelo://app?vid=a7f831ab-ba4c-4b99-8fcb-e4d8f2bdf460","ios":"levelo://app?vid=a7f831ab-ba4c-4b99-8fcb-e4d8f2bdf460"},"vehicle_type_id":"4","last_reported":1761124352,"current_range_meters":19600,"station_id":"ce4bhk92rcd13ifvqgc0","pricing_plan_id":"cebpf4jnsgd1na2vs0mg"},{"bike_id":"3b1c4c95-d7f9-4d67-b3ae-5a0343d4f9eb","system_id":"levelo_inurba_marseille","lat":43.30311,"lon":5.36903,"is_reserved":false,"is_disabled":false,"rental_uris":{"android":"levelo://app?vid=3b1c4c95-d7f9-4d67-b3ae-5a0343d4f9eb","ios":"levelo://app?vid=3b1c4c95-d7f9-4d67-b3ae-5a0343d4f9eb"},"vehicle_type_id":"4","last_reported":1761124352,"current_range_meters":19600,"station_id":"ce4bgqh2rcd13ifvqc5g","pricing_plan_id":"cebpf4jnsgd1na2vs0mg"},{"bike_id":"030422f1-c180-4591-b998-02f6d261a68c","system_id":"levelo_inurba_marseille","lat":43.32997,"lon":5.39025,"is_reserved":false,"is_disabled":false,"rental_uris":{"android":"levelo://app?vid=030422f1-c180-4591-b998-02f6d261a68c","ios":"levelo://app?vid=030422f1-c180-4591-b998-02f6d261a68c"},"vehicle_type_id":"4","last_reported":1761124352,"current_range_meters":20000,"station_id":"ce4bhr92rcd13ifvqhrg","pricing_plan_id":"cebpf4jnsgd1na2vs0mg"},{"bike_id":"499a7233-cb37-40c3-949c-0e663a83b296","system_id":"levelo_inurba_marseille","lat":43.30886,"lon":5.36834,"is_reserved":false,"is_disabled":false,"rental_uris":{"android":"levelo://app?vid=499a7233-cb37-40c3-949c-0e663a83b296","ios":"levelo://app?vid=499a7233-cb37-40c3-949c-0e663a83b296"},"vehicle_type_id":"4","last_reported":1761124352,"current_range_meters":20000,"station_id":"ce4bgn92rcd13ifvqbvg","pricing_plan_id":"cebpf4jnsgd1na2vs0mg"},{"bike_id":"98ce260e-260a-4f8a-b4b9-bbddca235045","system_id":"levelo_inurba_marseille","lat":43.26398,"lon":5.39011,"is_reserved":false,"is_disabled":false,"rental_uris":{"android":"levelo://app?vid=98ce260e-260a-4f8a-b4b9-bbddca235045","ios":"levelo://app?vid=98ce260e-260a-4f8a-b4b9-bbddca235045"},"vehicle_type_id":"4","last_reported":1761124352,"current_range_meters":20000,"station_id":"","pricing_plan_id":"cebpf4jnsgd1na2vs0mg"},{"bike_id":"1dec7c0c-17ad-4096-8147-f45f6cd963af","system_id":"levelo_inurba_marseille","lat":43.289262,"lon":5.383919,"is_reserved":false,"is_disabled":false,"rental_uris":{"android":"levelo://app?vid=1dec7c0c-17ad-4096-8147-f45f6cd963af","ios":"levelo://app?vid=1dec7c0c-17ad-4096-8147-f45f6cd963af"},"vehicle_type_id":"4","last_reported":1761124352,"current_range_meters":20000,"station_id":"ce4bh612rcd13ifvqe6g","pricing_plan_id":"cebpf4jnsgd1na2vs0mg"},{"bike_id":"75eebb0f-2447-4bf8-b846-45b5b359059b","system_id":"levelo_inurba_marseille","lat":43.337572,"lon":5.374903,"is_reserved":false,"is_disabled":false,"rental_uris":{"android":"levelo://app?vid=75eebb0f-2447-4bf8-b846-45b5b359059b","ios":"levelo://app?vid=75eebb0f-2447-4bf8-b846-45b5b359059b"},"vehicle_type_id":"4","last_reported":1761124352,"current_range_meters":20000,"station_id":"","pricing_plan_id":"cebpf4jnsgd1na2vs0mg"},{"bike_id":"e7588fde-b3c9-4fc8-8143-5e8771d1f372","system_id":"levelo_inurba_marseille","lat":43.31694,"lon":5.37761,"is_reserved":false,"is_disabled":false,"rental_uris":{"android":"levelo://app?vid=e7588fde-b3c9-4fc8-8143-5e8771d1f372","ios":"levelo://app?vid=e7588fde-b3c9-4fc8-8143-5e8771d1f372"},"vehicle_type_id":"4","last_reported":1761124352,"current_range_meters":20000,"station_id":"ce4bgth2rcd13ifvqch0","pricing_plan_id":"cebpf4jnsgd1na2vs0mg"},{"bike_id":"13ffca06-ecc4-46ee-aa82-6818647126c8","system_id":"levelo_inurba_marseille","lat":43.29909,"lon":5.43677,"is_reserved":false,"is_disabled":false,"rental_uris":{"android":"levelo://app?vid=13ffca06-ecc4-46ee-aa82-6818647126c8","ios":"levelo://app?vid=13ffca06-ecc4-46ee-aa82-6818647126c8"},"vehicle_type_id":"4","last_reported":1761124352,"current_range_meters":20000,"station_id":"ce4bhpp2rcd13ifvqhfg","pricing_plan_id":"cebpf4jnsgd1na2vs0mg"},{"bike_id":"7e29b7b2-0f9f-45d3-8c19-2b59c104f08b","system_id":"levelo_inurba_marseille","lat":43.30303,"lon":5.36913,"is_reserved":false,"is_disabled":false,"rental_uris":{"android":"levelo://app?vid=7e29b7b2-0f9f-45d3-8c19-2b59c104f08b","ios":"levelo://app?vid=7e29b7b2-0f9f-45d3-8c19-2b59c104f08b"},"vehicle_type_id":"4","last_reported":1761124352,"current_range_meters":20400,"station_id":"ce4bgqh2rcd13ifvqc5g","pricing_plan_id":"cebpf4jnsgd1na2vs0mg"},{"bike_id":"035ca1d7-233f-4f69-9569-4f3393764361","system_id":"levelo_inurba_marseille","lat":43.30876,"lon":5.37322,"is_reserved":false,"is_disabled":false,"rental_uris":{"android":"levelo://app?vid=035ca1d7-233f-4f69-9569-4f3393764361","ios":"levelo://app?vid=035ca1d7-233f-4f69-9569-4f3393764361"},"vehicle_type_id":"4","last_reported":1761124352,"current_range_meters":20400,"station_id":"","pricing_plan_id":"cebpf4jnsgd1na2vs0mg"},{"bike_id":"95843b03-1f98-483b-8beb-01837dfe2692","system_id":"levelo_inurba_marseille","lat":43.30472,"lon":5.37908,"is_reserved":false,"is_disabled":false,"rental_uris":{"android":"levelo://app?vid=95843b03-1f98-483b-8beb-01837dfe2692","ios":"levelo://app?vid=95843b03-1f98-483b-8beb-01837dfe2692"},"vehicle_type_id":"4","last_reported":1761124352,"current_range_meters":20400,"station_id":"ce4bgup2rcd13ifvqcn0","pricing_plan_id":"cebpf4jnsgd1na2vs0mg"},{"bike_id":"954002ef-8069-4a73-9af2-4a86737c08e2","system_id":"levelo_inurba_marseille","lat":43.2815,"lon":5.42648,"is_reserved":false,"is_disabled":false,"rental_uris":{"android":"levelo://app?vid=954002ef-8069-4a73-9af2-4a86737c08e2","ios":"levelo://app?vid=954002ef-8069-4a73-9af2-4a86737c08e2"},"vehicle_type_id":"4","last_reported":1761124352,"current_range_meters":20400,"station_id":"ce4bhnh2rcd13ifvqgug","pricing_plan_id":"cebpf4jnsgd1na2vs0mg"},{"bike_id":"74757664-22a6-49f1-b7d2-c7ddc7c06d42","system_id":"levelo_inurba_marseille","lat":43.30285,"lon":5.37709,"is_reserved":false,"is_disabled":false,"rental_uris":{"android":"levelo://app?vid=74757664-22a6-49f1-b7d2-c7ddc7c06d42","ios":"levelo://app?vid=74757664-22a6-49f1-b7d2-c7ddc7c06d42"},"vehicle_type_id":"4","last_reported":1761124352,"current_range_meters":20400,"station_id":"ce4bguh2rcd13ifvqcj0","pricing_plan_id":"cebpf4jnsgd1na2vs0mg"},{"bike_id":"692a999f-f646-43fe-b949-d58fd32447f4","system_id":"levelo_inurba_marseille","lat":43.32345,"lon":5.38895,"is_reserved":false,"is_disabled":false,"rental_uris":{"android":"levelo://app?vid=692a999f-f646-43fe-b949-d58fd32447f4","ios":"levelo://app?vid=692a999f-f646-43fe-b949-d58fd32447f4"},"vehicle_type_id":"4","last_reported":1761124352,"current_range_meters":20400,"station_id":"ce4bhqp2rcd13ifvqhog","pricing_plan_id":"cebpf4jnsgd1na2vs0mg"},{"bike_id":"4de5a3a5-3b6e-4ce7-8372-1db61e216cbe","system_id":"levelo_inurba_marseille","lat":43.24632,"lon":5.43154,"is_reserved":false,"is_disabled":false,"rental_uris":{"android":"levelo://app?vid=4de5a3a5-3b6e-4ce7-8372-1db61e216cbe","ios":"levelo://app?vid=4de5a3a5-3b6e-4ce7-8372-1db61e216cbe"},"vehicle_type_id":"4","last_reported":1761124352,"current_range_meters":20400,"station_id":"st_d2m6c4gdas8pm72e190g","pricing_plan_id":"cebpf4jnsgd1na2vs0mg"},{"bike_id":"2ec466d9-3902-4837-9002-184268846f55","system_id":"levelo_inurba_marseille","lat":43.32104,"lon":5.36766,"is_reserved":false,"is_disabled":false,"rental_uris":{"android":"levelo://app?vid=2ec466d9-3902-4837-9002-184268846f55","ios":"levelo://app?vid=2ec466d9-3902-4837-9002-184268846f55"},"vehicle_type_id":"4","last_reported":1761124352,"current_range_meters":20400,"station_id":"ce4bhrh2rcd13ifvqhug","pricing_plan_id":"cebpf4jnsgd1na2vs0mg"},{"bike_id":"a0cf25ec-03d5-45dd-b042-68569b17f85d","system_id":"levelo_inurba_marseille","lat":43.25337,"lon":5.4217,"is_reserved":false,"is_disabled":false,"rental_uris":{"android":"levelo://app?vid=a0cf25ec-03d5-45dd-b042-68569b17f85d","ios":"levelo://app?vid=a0cf25ec-03d5-45dd-b042-68569b17f85d"},"vehicle_type_id":"4","last_reported":1761124352,"current_range_meters":20400,"station_id":"st_d2m65c5bi1j21697t3ng","pricing_plan_id":"cebpf4jnsgd1na2vs0mg"},{"bike_id":"01dca72c-1032-4358-8c48-14cd1b7fd9ca","system_id":"levelo_inurba_marseille","lat":43.29818,"lon":5.38217,"is_reserved":false,"is_disabled":false,"rental_uris":{"android":"levelo://app?vid=01dca72c-1032-4358-8c48-14cd1b7fd9ca","ios":"levelo://app?vid=01dca72c-1032-4358-8c48-14cd1b7fd9ca"},"vehicle_type_id":"4","last_reported":1761124352,"current_range_meters":20400,"station_id":"","pricing_plan_id":"cebpf4jnsgd1na2vs0mg"},{"bike_id":"e437460d-805d-4c07-9b55-237013e207ed","system_id":"levelo_inurba_marseille","lat":43.307962,"lon":5.381422,"is_reserved":false,"is_disabled":true,"rental_uris":{"android":"levelo://app?vid=e437460d-805d-4c07-9b55-237013e207ed","ios":"levelo://app?vid=e437460d-805d-4c07-9b55-237013e207ed"},"vehicle_type_id":"4","last_reported":1761124352,"current_range_meters":20800,"station_id":"ce4bgt12rcd13ifvqce0","pricing_plan_id":"cebpf4jnsgd1na2vs0mg"},{"bike_id":"fc22a5db-30c1-4297-8692-a6ee79fae4da","system_id":"levelo_inurba_marseille","lat":43.30311,"lon":5.36892,"is_reserved":false,"is_disabled":false,"rental_uris":{"android":"levelo://app?vid=fc22a5db-30c1-4297-8692-a6ee79fae4da","ios":"levelo://app?vid=fc22a5db-30c1-4297-8692-a6ee79fae4da"},"vehicle_type_id":"4","last_reported":1761124352,"current_range_meters":20800,"station_id":"ce4bgqh2rcd13ifvqc5g","pricing_plan_id":"cebpf4jnsgd1na2vs0mg"},{"bike_id":"265ffbc0-e60e-4406-8810-87e0abc2b983","system_id":"levelo_inurba_marseille","lat":43.23923,"lon":5.36659,"is_reserved":false,"is_disabled":false,"rental_uris":{"android":"levelo://app?vid=265ffbc0-e60e-4406-8810-87e0abc2b983","ios":"levelo://app?vid=265ffbc0-e60e-4406-8810-87e0abc2b983"},"vehicle_type_id":"4","last_reported":1761124352,"current_range_meters":20800,"station_id":"ce4bhi12rcd13ifvqfp0","pricing_plan_id":"cebpf4jnsgd1na2vs0mg"},{"bike_id":"88b2962d-442b-480d-a54f-7ba286a29a00","system_id":"levelo_inurba_marseille","lat":43.31219,"lon":5.36873,"is_reserved":false,"is_disabled":false,"rental_uris":{"android":"levelo://app?vid=88b2962d-442b-480d-a54f-7ba286a29a00","ios":"levelo://app?vid=88b2962d-442b-480d-a54f-7ba286a29a00"},"vehicle_type_id":"4","last_reported":1761124352,"current_range_meters":20800,"station_id":"ce4bgl92rcd13ifvqbq0","pricing_plan_id":"cebpf4jnsgd1na2vs0mg"},{"bike_id":"06ee0947-2317-4a36-b90d-45b7fa93a489","system_id":"levelo_inurba_marseille","lat":43.302823,"lon":5.377086,"is_reserved":false,"is_disabled":false,"rental_uris":{"android":"levelo://app?vid=06ee0947-2317-4a36-b90d-45b7fa93a489","ios":"levelo://app?vid=06ee0947-2317-4a36-b90d-45b7fa93a489"},"vehicle_type_id":"4","last_reported":1761124352,"current_range_meters":20800,"station_id":"ce4bguh2rcd13ifvqcj0","pricing_plan_id":"cebpf4jnsgd1na2vs0mg"},{"bike_id":"8bcacd78-80de-4026-af75-b37ebe3030fe","system_id":"levelo_inurba_marseille","lat":43.334756,"lon":5.404255,"is_reserved":false,"is_disabled":false,"rental_uris":{"android":"levelo://app?vid=8bcacd78-80de-4026-af75-b37ebe3030fe","ios":"levelo://app?vid=8bcacd78-80de-4026-af75-b37ebe3030fe"},"vehicle_type_id":"4","last_reported":1761124352,"current_range_meters":20800,"station_id":"","pricing_plan_id":"cebpf4jnsgd1na2vs0mg"},{"bike_id":"078a4bdd-fe9a-42a4-b61e-b2fd0aa147cf","system_id":"levelo_inurba_marseille","lat":43.30538,"lon":5.365503,"is_reserved":false,"is_disabled":false,"rental_uris":{"android":"levelo://app?vid=078a4bdd-fe9a-42a4-b61e-b2fd0aa147cf","ios":"levelo://app?vid=078a4bdd-fe9a-42a4-b61e-b2fd0aa147cf"},"vehicle_type_id":"4","last_reported":1761124352,"current_range_meters":20800,"station_id":"ce4bgs12rcd13ifvqcag","pricing_plan_id":"cebpf4jnsgd1na2vs0mg"},{"bike_id":"e678da54-1a06-4df3-8cc3-10a77cfafc59","system_id":"levelo_inurba_marseille","lat":43.304575,"lon":5.379018,"is_reserved":false,"is_disabled":false,"rental_uris":{"android":"levelo://app?vid=e678da54-1a06-4df3-8cc3-10a77cfafc59","ios":"levelo://app?vid=e678da54-1a06-4df3-8cc3-10a77cfafc59"},"vehicle_type_id":"4","last_reported":1761124352,"current_range_meters":20800,"station_id":"ce4bgr92rcd13ifvqc6g","pricing_plan_id":"cebpf4jnsgd1na2vs0mg"},{"bike_id":"8b568fab-e273-49f6-bdca-e47680ec431f","system_id":"levelo_inurba_marseille","lat":43.33798,"lon":5.37447,"is_reserved":false,"is_disabled":false,"rental_uris":{"android":"levelo://app?vid=8b568fab-e273-49f6-bdca-e47680ec431f","ios":"levelo://app?vid=8b568fab-e273-49f6-bdca-e47680ec431f"},"vehicle_type_id":"4","last_reported":1761124352,"current_range_meters":21600,"station_id":"","pricing_plan_id":"cebpf4jnsgd1na2vs0mg"},{"bike_id":"ccacbad9-abfd-440d-a067-66d4bdd343d1","system_id":"levelo_inurba_marseille","lat":43.26554,"lon":5.37285,"is_reserved":false,"is_disabled":false,"rental_uris":{"android":"levelo://app?vid=ccacbad9-abfd-440d-a067-66d4bdd343d1","ios":"levelo://app?vid=ccacbad9-abfd-440d-a067-66d4bdd343d1"},"vehicle_type_id":"4","last_reported":1761124352,"current_range_meters":21600,"station_id":"ce4bhg12rcd13ifvqf70","pricing_plan_id":"cebpf4jnsgd1na2vs0mg"},{"bike_id":"0a31cfdb-6532-4098-b37e-c5c35ea5e26f","system_id":"levelo_inurba_marseille","lat":43.30455,"lon":5.37904,"is_reserved":false,"is_disabled":false,"rental_uris":{"android":"levelo://app?vid=0a31cfdb-6532-4098-b37e-c5c35ea5e26f","ios":"levelo://app?vid=0a31cfdb-6532-4098-b37e-c5c35ea5e26f"},"vehicle_type_id":"4","last_reported":1761124352,"current_range_meters":21600,"station_id":"ce4bgup2rcd13ifvqcn0","pricing_plan_id":"cebpf4jnsgd1na2vs0mg"},{"bike_id":"9dca3ece-8587-4ede-9df3-c9e4b57623cd","system_id":"levelo_inurba_marseille","lat":43.27979,"lon":5.38739,"is_reserved":false,"is_disabled":false,"rental_uris":{"android":"levelo://app?vid=9dca3ece-8587-4ede-9df3-c9e4b57623cd","ios":"levelo://app?vid=9dca3ece-8587-4ede-9df3-c9e4b57623cd"},"vehicle_type_id":"4","last_reported":1761124352,"current_range_meters":21600,"station_id":"ce4bhg12rcd13ifvqf80","pricing_plan_id":"cebpf4jnsgd1na2vs0mg"},{"bike_id":"14760121-9a6b-4c23-be95-5b6e380276ea","system_id":"levelo_inurba_marseille","lat":43.29719,"lon":5.37655,"is_reserved":false,"is_disabled":false,"rental_uris":{"android":"levelo://app?vid=14760121-9a6b-4c23-be95-5b6e380276ea","ios":"levelo://app?vid=14760121-9a6b-4c23-be95-5b6e380276ea"},"vehicle_type_id":"4","last_reported":1761124352,"current_range_meters":22000,"station_id":"ce4bgkh2rcd13ifvqbl0","pricing_plan_id":"cebpf4jnsgd1na2vs0mg"},{"bike_id":"9a1972b5-72a6-4763-9884-2f966099622e","system_id":"levelo_inurba_marseille","lat":43.29966,"lon":5.37617,"is_reserved":false,"is_disabled":false,"rental_uris":{"android":"levelo://app?vid=9a1972b5-72a6-4763-9884-2f966099622e","ios":"levelo://app?vid=9a1972b5-72a6-4763-9884-2f966099622e"},"vehicle_type_id":"4","last_reported":1761124352,"current_range_meters":22000,"station_id":"","pricing_plan_id":"cebpf4jnsgd1na2vs0mg"},{"bike_id":"e491f3b4-c212-44c8-9011-10fc98208d8a","system_id":"levelo_inurba_marseille","lat":43.33723,"lon":5.39188,"is_reserved":false,"is_disabled":false,"rental_uris":{"android":"levelo://app?vid=e491f3b4-c212-44c8-9011-10fc98208d8a","ios":"levelo://app?vid=e491f3b4-c212-44c8-9011-10fc98208d8a"},"vehicle_type_id":"4","last_reported":1761124352,"current_range_meters":22000,"station_id":"ce4bhr92rcd13ifvqhsg","pricing_plan_id":"cebpf4jnsgd1na2vs0mg"},{"bike_id":"745eb1d9-36e7-43e9-ab13-378f0c560a0c","system_id":"levelo_inurba_marseille","lat":43.33736,"lon":5.39185,"is_reserved":false,"is_disabled":true,"rental_uris":{"android":"levelo://app?vid=745eb1d9-36e7-43e9-ab13-378f0c560a0c","ios":"levelo://app?vid=745eb1d9-36e7-43e9-ab13-378f0c560a0c"},"vehicle_type_id":"4","last_reported":1761124352,"current_range_meters":22000,"station_id":"ce4bhr92rcd13ifvqhsg","pricing_plan_id":"cebpf4jnsgd1na2vs0mg"},{"bike_id":"5f607057-0b12-474f-b408-d23dcec6b422","system_id":"levelo_inurba_marseille","lat":43.29517,"lon":5.385,"is_reserved":false,"is_disabled":false,"rental_uris":{"android":"levelo://app?vid=5f607057-0b12-474f-b408-d23dcec6b422","ios":"levelo://app?vid=5f607057-0b12-474f-b408-d23dcec6b422"},"vehicle_type_id":"4","last_reported":1761124352,"current_range_meters":22000,"station_id":"ce4bgih2rcd13ifvqba0","pricing_plan_id":"cebpf4jnsgd1na2vs0mg"},{"bike_id":"df944ea6-0923-484b-877b-1d6efcfdc135","system_id":"levelo_inurba_marseille","lat":43.30291,"lon":5.39218,"is_reserved":false,"is_disabled":false,"rental_uris":{"android":"levelo://app?vid=df944ea6-0923-484b-877b-1d6efcfdc135","ios":"levelo://app?vid=df944ea6-0923-484b-877b-1d6efcfdc135"},"vehicle_type_id":"4","last_reported":1761124352,"current_range_meters":22000,"station_id":"ce4bgkh2rcd13ifvqbk0","pricing_plan_id":"cebpf4jnsgd1na2vs0mg"},{"bike_id":"2172ef7f-240b-4c72-bf8d-26c79cc1f73d","system_id":"levelo_inurba_marseille","lat":43.29921,"lon":5.4368,"is_reserved":false,"is_disabled":false,"rental_uris":{"android":"levelo://app?vid=2172ef7f-240b-4c72-bf8d-26c79cc1f73d","ios":"levelo://app?vid=2172ef7f-240b-4c72-bf8d-26c79cc1f73d"},"vehicle_type_id":"4","last_reported":1761124352,"current_range_meters":22400,"station_id":"ce4bhpp2rcd13ifvqhfg","pricing_plan_id":"cebpf4jnsgd1na2vs0mg"},{"bike_id":"d77c236b-4ef9-4da4-a053-8c85ea370247","system_id":"levelo_inurba_marseille","lat":43.279898,"lon":5.416706,"is_reserved":false,"is_disabled":false,"rental_uris":{"android":"levelo://app?vid=d77c236b-4ef9-4da4-a053-8c85ea370247","ios":"levelo://app?vid=d77c236b-4ef9-4da4-a053-8c85ea370247"},"vehicle_type_id":"4","last_reported":1761124352,"current_range_meters":22400,"station_id":"ce4bho12rcd13ifvqh1g","pricing_plan_id":"cebpf4jnsgd1na2vs0mg"},{"bike_id":"65e834b2-8eee-4393-aeb2-2740824557b9","system_id":"levelo_inurba_marseille","lat":43.30413,"lon":5.38795,"is_reserved":false,"is_disabled":false,"rental_uris":{"android":"levelo://app?vid=65e834b2-8eee-4393-aeb2-2740824557b9","ios":"levelo://app?vid=65e834b2-8eee-4393-aeb2-2740824557b9"},"vehicle_type_id":"4","last_reported":1761124352,"current_range_meters":22400,"station_id":"","pricing_plan_id":"cebpf4jnsgd1na2vs0mg"},{"bike_id":"4cd4059d-263e-4107-9ea1-0e24b1c51a22","system_id":"levelo_inurba_marseille","lat":43.28663,"lon":5.3635,"is_reserved":false,"is_disabled":true,"rental_uris":{"android":"levelo://app?vid=4cd4059d-263e-4107-9ea1-0e24b1c51a22","ios":"levelo://app?vid=4cd4059d-263e-4107-9ea1-0e24b1c51a22"},"vehicle_type_id":"4","last_reported":1761124352,"current_range_meters":22400,"station_id":"ce4bhah2rcd13ifvqej0","pricing_plan_id":"cebpf4jnsgd1na2vs0mg"},{"bike_id":"e0804113-7ecf-451e-b586-a1adb5b81ee8","system_id":"levelo_inurba_marseille","lat":43.28396,"lon":5.37517,"is_reserved":false,"is_disabled":false,"rental_uris":{"android":"levelo://app?vid=e0804113-7ecf-451e-b586-a1adb5b81ee8","ios":"levelo://app?vid=e0804113-7ecf-451e-b586-a1adb5b81ee8"},"vehicle_type_id":"4","last_reported":1761124352,"current_range_meters":22400,"station_id":"ce4bh412rcd13ifvqds0","pricing_plan_id":"cebpf4jnsgd1na2vs0mg"},{"bike_id":"bdcd4dfa-7e63-495d-a24e-17b0a60bf1f9","system_id":"levelo_inurba_marseille","lat":43.28858,"lon":5.42508,"is_reserved":false,"is_disabled":false,"rental_uris":{"android":"levelo://app?vid=bdcd4dfa-7e63-495d-a24e-17b0a60bf1f9","ios":"levelo://app?vid=bdcd4dfa-7e63-495d-a24e-17b0a60bf1f9"},"vehicle_type_id":"4","last_reported":1761124352,"current_range_meters":22800,"station_id":"st_d3b462108ojc7389ooeg","pricing_plan_id":"cebpf4jnsgd1na2vs0mg"},{"bike_id":"62f0a2f8-d352-4580-a096-e8ce56ffccdb","system_id":"levelo_inurba_marseille","lat":43.32104,"lon":5.36757,"is_reserved":false,"is_disabled":false,"rental_uris":{"android":"levelo://app?vid=62f0a2f8-d352-4580-a096-e8ce56ffccdb","ios":"levelo://app?vid=62f0a2f8-d352-4580-a096-e8ce56ffccdb"},"vehicle_type_id":"4","last_reported":1761124352,"current_range_meters":22800,"station_id":"ce4bhrh2rcd13ifvqhug","pricing_plan_id":"cebpf4jnsgd1na2vs0mg"},{"bike_id":"55a5190d-5f15-4392-b954-f871ad8931b8","system_id":"levelo_inurba_marseille","lat":43.31222,"lon":5.36853,"is_reserved":false,"is_disabled":false,"rental_uris":{"android":"levelo://app?vid=55a5190d-5f15-4392-b954-f871ad8931b8","ios":"levelo://app?vid=55a5190d-5f15-4392-b954-f871ad8931b8"},"vehicle_type_id":"4","last_reported":1761124352,"current_range_meters":22800,"station_id":"ce4bgl92rcd13ifvqbq0","pricing_plan_id":"cebpf4jnsgd1na2vs0mg"},{"bike_id":"05bf7cd0-8691-44c7-a67e-2e6b83b6f455","system_id":"levelo_inurba_marseille","lat":43.24087,"lon":5.37748,"is_reserved":false,"is_disabled":false,"rental_uris":{"android":"levelo://app?vid=05bf7cd0-8691-44c7-a67e-2e6b83b6f455","ios":"levelo://app?vid=05bf7cd0-8691-44c7-a67e-2e6b83b6f455"},"vehicle_type_id":"4","last_reported":1761124352,"current_range_meters":22800,"station_id":"ce4bhnp2rcd13ifvqgvg","pricing_plan_id":"cebpf4jnsgd1na2vs0mg"},{"bike_id":"d9ecb998-ceaa-4a39-8aba-9f0e44069447","system_id":"levelo_inurba_marseille","lat":43.32147,"lon":5.38731,"is_reserved":false,"is_disabled":false,"rental_uris":{"android":"levelo://app?vid=d9ecb998-ceaa-4a39-8aba-9f0e44069447","ios":"levelo://app?vid=d9ecb998-ceaa-4a39-8aba-9f0e44069447"},"vehicle_type_id":"4","last_reported":1761124352,"current_range_meters":22800,"station_id":"","pricing_plan_id":"cebpf4jnsgd1na2vs0mg"},{"bike_id":"18d033fd-0634-445e-822f-8ed93ca218b1","system_id":"levelo_inurba_marseille","lat":43.2937,"lon":5.37864,"is_reserved":false,"is_disabled":false,"rental_uris":{"android":"levelo://app?vid=18d033fd-0634-445e-822f-8ed93ca218b1","ios":"levelo://app?vid=18d033fd-0634-445e-822f-8ed93ca218b1"},"vehicle_type_id":"4","last_reported":1761124352,"current_range_meters":23200,"station_id":"ce4bgjh2rcd13ifvqbf0","pricing_plan_id":"cebpf4jnsgd1na2vs0mg"},{"bike_id":"67906021-24b9-455f-8d7a-96a01a302d77","system_id":"levelo_inurba_marseille","lat":43.29735,"lon":5.37684,"is_reserved":false,"is_disabled":false,"rental_uris":{"android":"levelo://app?vid=67906021-24b9-455f-8d7a-96a01a302d77","ios":"levelo://app?vid=67906021-24b9-455f-8d7a-96a01a302d77"},"vehicle_type_id":"4","last_reported":1761124352,"current_range_meters":23200,"station_id":"ce4bgkh2rcd13ifvqbl0","pricing_plan_id":"cebpf4jnsgd1na2vs0mg"},{"bike_id":"3f638399-39c1-4df1-9a86-57d9e98d447f","system_id":"levelo_inurba_marseille","lat":43.29252,"lon":5.37604,"is_reserved":false,"is_disabled":false,"rental_uris":{"android":"levelo://app?vid=3f638399-39c1-4df1-9a86-57d9e98d447f","ios":"levelo://app?vid=3f638399-39c1-4df1-9a86-57d9e98d447f"},"vehicle_type_id":"4","last_reported":1761124352,"current_range_meters":23200,"station_id":"ce4bgi12rcd13ifvqb80","pricing_plan_id":"cebpf4jnsgd1na2vs0mg"},{"bike_id":"6552118e-9997-496d-8ae3-3aae82824535","system_id":"levelo_inurba_marseille","lat":43.32246,"lon":5.38357,"is_reserved":false,"is_disabled":false,"rental_uris":{"android":"levelo://app?vid=6552118e-9997-496d-8ae3-3aae82824535","ios":"levelo://app?vid=6552118e-9997-496d-8ae3-3aae82824535"},"vehicle_type_id":"4","last_reported":1761124352,"current_range_meters":23200,"station_id":"","pricing_plan_id":"cebpf4jnsgd1na2vs0mg"},{"bike_id":"f8c755d7-1bb8-4fcd-bb3f-74aeb49951cc","system_id":"levelo_inurba_marseille","lat":43.31363,"lon":5.37897,"is_reserved":false,"is_disabled":false,"rental_uris":{"android":"levelo://app?vid=f8c755d7-1bb8-4fcd-bb3f-74aeb49951cc","ios":"levelo://app?vid=f8c755d7-1bb8-4fcd-bb3f-74aeb49951cc"},"vehicle_type_id":"4","last_reported":1761124352,"current_range_meters":23200,"station_id":"","pricing_plan_id":"cebpf4jnsgd1na2vs0mg"},{"bike_id":"078081c6-88c0-4f2d-a619-261bfa8b66b2","system_id":"levelo_inurba_marseille","lat":43.29819,"lon":5.4389,"is_reserved":false,"is_disabled":false,"rental_uris":{"android":"levelo://app?vid=078081c6-88c0-4f2d-a619-261bfa8b66b2","ios":"levelo://app?vid=078081c6-88c0-4f2d-a619-261bfa8b66b2"},"vehicle_type_id":"4","last_reported":1761124352,"current_range_meters":23200,"station_id":"","pricing_plan_id":"cebpf4jnsgd1na2vs0mg"},{"bike_id":"a7fd0c3f-d3e9-4961-a78e-1b374ed3958c","system_id":"levelo_inurba_marseille","lat":43.31992,"lon":5.381579,"is_reserved":false,"is_disabled":false,"rental_uris":{"android":"levelo://app?vid=a7fd0c3f-d3e9-4961-a78e-1b374ed3958c","ios":"levelo://app?vid=a7fd0c3f-d3e9-4961-a78e-1b374ed3958c"},"vehicle_type_id":"4","last_reported":1761124352,"current_range_meters":23200,"station_id":"ce4bhr12rcd13ifvqhpg","pricing_plan_id":"cebpf4jnsgd1na2vs0mg"},{"bike_id":"c028726d-0f6f-4d36-8cac-f52017a306cc","system_id":"levelo_inurba_marseille","lat":43.30305,"lon":5.36907,"is_reserved":false,"is_disabled":false,"rental_uris":{"android":"levelo://app?vid=c028726d-0f6f-4d36-8cac-f52017a306cc","ios":"levelo://app?vid=c028726d-0f6f-4d36-8cac-f52017a306cc"},"vehicle_type_id":"4","last_reported":1761124352,"current_range_meters":23200,"station_id":"ce4bgqh2rcd13ifvqc5g","pricing_plan_id":"cebpf4jnsgd1na2vs0mg"},{"bike_id":"c987187c-49cd-437b-9bd2-e153b55a3333","system_id":"levelo_inurba_marseille","lat":43.31121,"lon":5.37773,"is_reserved":false,"is_disabled":false,"rental_uris":{"android":"levelo://app?vid=c987187c-49cd-437b-9bd2-e153b55a3333","ios":"levelo://app?vid=c987187c-49cd-437b-9bd2-e153b55a3333"},"vehicle_type_id":"4","last_reported":1761124352,"current_range_meters":23200,"station_id":"ce4bgt92rcd13ifvqcg0","pricing_plan_id":"cebpf4jnsgd1na2vs0mg"},{"bike_id":"1436c74f-0ddf-4ffe-9d7c-03e4d09aa395","system_id":"levelo_inurba_marseille","lat":43.29529,"lon":5.385434,"is_reserved":false,"is_disabled":false,"rental_uris":{"android":"levelo://app?vid=1436c74f-0ddf-4ffe-9d7c-03e4d09aa395","ios":"levelo://app?vid=1436c74f-0ddf-4ffe-9d7c-03e4d09aa395"},"vehicle_type_id":"4","last_reported":1761124352,"current_range_meters":23200,"station_id":"ce4bgih2rcd13ifvqba0","pricing_plan_id":"cebpf4jnsgd1na2vs0mg"},{"bike_id":"a3247f72-5216-48ff-b93d-09571791035f","system_id":"levelo_inurba_marseille","lat":43.29264,"lon":5.37625,"is_reserved":false,"is_disabled":false,"rental_uris":{"android":"levelo://app?vid=a3247f72-5216-48ff-b93d-09571791035f","ios":"levelo://app?vid=a3247f72-5216-48ff-b93d-09571791035f"},"vehicle_type_id":"4","last_reported":1761124352,"current_range_meters":24000,"station_id":"ce4bgi12rcd13ifvqb80","pricing_plan_id":"cebpf4jnsgd1na2vs0mg"},{"bike_id":"8be4a333-f5bb-42fd-8011-297a35af0437","system_id":"levelo_inurba_marseille","lat":43.29006,"lon":5.35606,"is_reserved":false,"is_disabled":false,"rental_uris":{"android":"levelo://app?vid=8be4a333-f5bb-42fd-8011-297a35af0437","ios":"levelo://app?vid=8be4a333-f5bb-42fd-8011-297a35af0437"},"vehicle_type_id":"4","last_reported":1761124352,"current_range_meters":24000,"station_id":"ce4bhb92rcd13ifvqen0","pricing_plan_id":"cebpf4jnsgd1na2vs0mg"},{"bike_id":"8dde1083-2e50-432a-9683-f053d263c4d0","system_id":"levelo_inurba_marseille","lat":43.29849,"lon":5.36285,"is_reserved":false,"is_disabled":false,"rental_uris":{"android":"levelo://app?vid=8dde1083-2e50-432a-9683-f053d263c4d0","ios":"levelo://app?vid=8dde1083-2e50-432a-9683-f053d263c4d0"},"vehicle_type_id":"4","last_reported":1761124352,"current_range_meters":24000,"station_id":"ce4bgpp2rcd13ifvqc3g","pricing_plan_id":"cebpf4jnsgd1na2vs0mg"},{"bike_id":"a3644ae8-1799-433e-8ac0-d21d255e266b","system_id":"levelo_inurba_marseille","lat":43.27172,"lon":5.40989,"is_reserved":false,"is_disabled":false,"rental_uris":{"android":"levelo://app?vid=a3644ae8-1799-433e-8ac0-d21d255e266b","ios":"levelo://app?vid=a3644ae8-1799-433e-8ac0-d21d255e266b"},"vehicle_type_id":"4","last_reported":1761124352,"current_range_meters":24000,"station_id":"ce4bhl12rcd13ifvqgf0","pricing_plan_id":"cebpf4jnsgd1na2vs0mg"},{"bike_id":"75552eb5-38a2-43ca-9291-cacb859b6f73","system_id":"levelo_inurba_marseille","lat":43.284215,"lon":5.349847,"is_reserved":false,"is_disabled":false,"rental_uris":{"android":"levelo://app?vid=75552eb5-38a2-43ca-9291-cacb859b6f73","ios":"levelo://app?vid=75552eb5-38a2-43ca-9291-cacb859b6f73"},"vehicle_type_id":"4","last_reported":1761124352,"current_range_meters":24400,"station_id":"","pricing_plan_id":"cebpf4jnsgd1na2vs0mg"},{"bike_id":"25510b45-08cd-431b-9096-a61c2284a027","system_id":"levelo_inurba_marseille","lat":43.316808,"lon":5.382515,"is_reserved":false,"is_disabled":false,"rental_uris":{"android":"levelo://app?vid=25510b45-08cd-431b-9096-a61c2284a027","ios":"levelo://app?vid=25510b45-08cd-431b-9096-a61c2284a027"},"vehicle_type_id":"4","last_reported":1761124352,"current_range_meters":24400,"station_id":"","pricing_plan_id":"cebpf4jnsgd1na2vs0mg"},{"bike_id":"381b1ff9-d30d-44a9-a9c8-0fb14fc52a69","system_id":"levelo_inurba_marseille","lat":43.2407,"lon":5.37782,"is_reserved":false,"is_disabled":false,"rental_uris":{"android":"levelo://app?vid=381b1ff9-d30d-44a9-a9c8-0fb14fc52a69","ios":"levelo://app?vid=381b1ff9-d30d-44a9-a9c8-0fb14fc52a69"},"vehicle_type_id":"4","last_reported":1761124352,"current_range_meters":24400,"station_id":"ce4bhnp2rcd13ifvqgvg","pricing_plan_id":"cebpf4jnsgd1na2vs0mg"},{"bike_id":"4c87059f-4fee-481d-a05d-b6f150b07ad5","system_id":"levelo_inurba_marseille","lat":43.28932,"lon":5.38396,"is_reserved":false,"is_disabled":false,"rental_uris":{"android":"levelo://app?vid=4c87059f-4fee-481d-a05d-b6f150b07ad5","ios":"levelo://app?vid=4c87059f-4fee-481d-a05d-b6f150b07ad5"},"vehicle_type_id":"4","last_reported":1761124352,"current_range_meters":24400,"station_id":"","pricing_plan_id":"cebpf4jnsgd1na2vs0mg"},{"bike_id":"366d0620-c3d1-4454-8bbb-22b4367d60f3","system_id":"levelo_inurba_marseille","lat":43.279889,"lon":5.416559,"is_reserved":false,"is_disabled":false,"rental_uris":{"android":"levelo://app?vid=366d0620-c3d1-4454-8bbb-22b4367d60f3","ios":"levelo://app?vid=366d0620-c3d1-4454-8bbb-22b4367d60f3"},"vehicle_type_id":"4","last_reported":1761124352,"current_range_meters":24400,"station_id":"ce4bho12rcd13ifvqh1g","pricing_plan_id":"cebpf4jnsgd1na2vs0mg"},{"bike_id":"ee1ca545-bb33-4b7a-9952-6a227e0b8e12","system_id":"levelo_inurba_marseille","lat":43.239653,"lon":5.366284,"is_reserved":false,"is_disabled":false,"rental_uris":{"android":"levelo://app?vid=ee1ca545-bb33-4b7a-9952-6a227e0b8e12","ios":"levelo://app?vid=ee1ca545-bb33-4b7a-9952-6a227e0b8e12"},"vehicle_type_id":"4","last_reported":1761124352,"current_range_meters":24400,"station_id":"ce4bhi12rcd13ifvqfp0","pricing_plan_id":"cebpf4jnsgd1na2vs0mg"},{"bike_id":"2cd81037-3f76-464f-886c-e8714d61d459","system_id":"levelo_inurba_marseille","lat":43.231864,"lon":5.355514,"is_reserved":false,"is_disabled":false,"rental_uris":{"android":"levelo://app?vid=2cd81037-3f76-464f-886c-e8714d61d459","ios":"levelo://app?vid=2cd81037-3f76-464f-886c-e8714d61d459"},"vehicle_type_id":"4","last_reported":1761124352,"current_range_meters":24400,"station_id":"ce4bhu92rcd13ifvqi70","pricing_plan_id":"cebpf4jnsgd1na2vs0mg"},{"bike_id":"ca85340e-93d2-44a0-b582-b0bcb9b1beb5","system_id":"levelo_inurba_marseille","lat":43.22926,"lon":5.35403,"is_reserved":false,"is_disabled":false,"rental_uris":{"android":"levelo://app?vid=ca85340e-93d2-44a0-b582-b0bcb9b1beb5","ios":"levelo://app?vid=ca85340e-93d2-44a0-b582-b0bcb9b1beb5"},"vehicle_type_id":"4","last_reported":1761124352,"current_range_meters":24400,"station_id":"cpo3532slgdg3j2ikp40","pricing_plan_id":"cebpf4jnsgd1na2vs0mg"},{"bike_id":"a8575794-14a4-4364-9f57-aa4def1d77b3","system_id":"levelo_inurba_marseille","lat":43.269736,"lon":5.390416,"is_reserved":false,"is_disabled":false,"rental_uris":{"android":"levelo://app?vid=a8575794-14a4-4364-9f57-aa4def1d77b3","ios":"levelo://app?vid=a8575794-14a4-4364-9f57-aa4def1d77b3"},"vehicle_type_id":"4","last_reported":1761124352,"current_range_meters":24800,"station_id":"ce4bhhh2rcd13ifvqfl0","pricing_plan_id":"cebpf4jnsgd1na2vs0mg"},{"bike_id":"41045c07-315c-4466-9a7b-67088431ce1b","system_id":"levelo_inurba_marseille","lat":43.2723,"lon":5.39194,"is_reserved":false,"is_disabled":false,"rental_uris":{"android":"levelo://app?vid=41045c07-315c-4466-9a7b-67088431ce1b","ios":"levelo://app?vid=41045c07-315c-4466-9a7b-67088431ce1b"},"vehicle_type_id":"4","last_reported":1761124352,"current_range_meters":24800,"station_id":"ce4bhhp2rcd13ifvqfm0","pricing_plan_id":"cebpf4jnsgd1na2vs0mg"},