{"last_updated":1704910161,"ttl":30,"version":"2.2","data":{"bikes":[{"bike_id":"2dde9065-6279-43bb-937e-84c40fa01d7e","system_id":"levelo_inurba_marseille","lat":43.312239,"lon":5.368562,"is_reserved":false,"is_disabled":false,"rental_uris":{"android":"levelo://app?vid=2dde9065-6279-43bb-937e-84c40fa01d7e","ios":"levelo://app?vid=2dde9065-6279-43bb-937e-84c40fa01d7e"},"vehicle_type_id":"4","last_reported":1704910162,"current_range_meters":9600,"station_id":"ce4bgl92rcd13ifvqbq0","pricing_plan_id":"free"},{"bike_id":"a18c9f18-dd23-4fa3-ae4c-750a813ec2dd","system_id":"levelo_inurba_marseille","lat":43.313611,"lon":5.373431,"is_reserved":false,"is_disabled":false,"rental_uris":{"android":"levelo://app?vid=a18c9f18-dd23-4fa3-ae4c-750a813ec2dd","ios":"levelo://app?vid=a18c9f18-dd23-4fa3-ae4c-750a813ec2dd"},"vehicle_type_id":"4","last_reported":1704910162,"current_range_meters":800,"station_id":"","pricing_plan_id":"free"},{"bike_id":"7b3b699f-3f99-4e35-89af-d56ef1f73cc7","system_id":"levelo_inurba_marseille","lat":43.31531,"lon":5.37284,"is_reserved":false,"is_disabled":false,"rental_uris":{"android":"levelo://app?vid=7b3b699f-3f99-4e35-89af-d56ef1f73cc7","ios":"levelo://app?vid=7b3b699f-3f99-4e35-89af-d56ef1f73cc7"},"vehicle_type_id":"4","last_reported":1704910162,"current_range_meters":18800,"station_id":"","pricing_plan_id":"free"},{"bike_id":"7ea78f98-f736-46aa-b8e0-7b70196c1152","system_id":"levelo_inurba_marseille","lat":43.315012,"lon":5.373098,"is_reserved":false,"is_disabled":false,"rental_uris":{"android":"levelo://app?vid=7ea78f98-f736-46aa-b8e0-7b70196c1152","ios":"levelo://app?vid=7ea78f98-f736-46aa-b8e0-7b70196c1152"},"vehicle_type_id":"4","last_reported":1704910162,"current_range_meters":0,"station_id":"ce4bgt12rcd13ifvqcd0","pricing_plan_id":"free"},{"bike_id":"0185ddeb-087b-4a98-9650-e45785b415da","system_id":"levelo_inurba_marseille","lat":43.30903,"lon":5.371838,"is_reserved":false,"is_disabled":false,"rental_uris":{"android":"levelo://app?vid=0185ddeb-087b-4a98-9650-e45785b415da","ios":"levelo://app?vid=0185ddeb-087b-4a98-9650-e45785b415da"},"vehicle_type_id":"4","last_reported":1704910162,"current_range_meters":12800,"station_id":"ce4bguh2rcd13ifvqckg","pricing_plan_id":"free"},{"bike_id":"104ab4a6-40d1-400f-affd-e9bdf15b491a","system_id":"levelo_inurba_marseille","lat":43.305714,"lon":5.365633,"is_reserved":false,"is_disabled":false,"rental_uris":{"android":"levelo://app?vid=104ab4a6-40d1-400f-affd-e9bdf15b491a","ios":"levelo://app?vid=104ab4a6-40d1-400f-affd-e9bdf15b491a"},"vehicle_type_id":"4","last_reported":1704910162,"current_range_meters":16000,"station_id":"ce4bgs12rcd13ifvqcag","pricing_plan_id":"free"},{"bike_id":"9aff0215-0092-47be-bf15-d6ffc442b0a2","system_id":"levelo_inurba_marseille","lat":43.305368,"lon":5.367343,"is_reserved":false,"is_disabled":false,"rental_uris":{"android":"levelo://app?vid=9aff0215-0092-47be-bf15-d6ffc442b0a2","ios":"levelo://app?vid=9aff0215-0092-47be-bf15-d6ffc442b0a2"},"vehicle_type_id":"4","last_reported":1704910162,"current_range_meters":21600,"station_id":"ce4bgrp2rcd13ifvqc9g","pricing_plan_id":"free"},{"bike_id":"ae33f68b-406a-4d59-8d42-a0d5ceca7997","system_id":"levelo_inurba_marseille","lat":43.305989,"lon":5.37225,"is_reserved":false,"is_disabled":false,"rental_uris":{"android":"levelo://app?vid=ae33f68b-406a-4d59-8d42-a0d5ceca7997","ios":"levelo://app?vid=ae33f68b-406a-4d59-8d42-a0d5ceca7997"},"vehicle_type_id":"4","last_reported":1704910162,"current_range_meters":15200,"station_id":"ce4bgqh2rcd13ifvqc4g","pricing_plan_id":"free"},{"bike_id":"98cb0443-4bf9-48f7-82db-85b01bacce21","system_id":"levelo_inurba_marseille","lat":43.306044,"lon":5.372381,"is_reserved":false,"is_disabled":false,"rental_uris":{"android":"levelo://app?vid=98cb0443-4bf9-48f7-82db-85b01bacce21","ios":"levelo://app?vid=98cb0443-4bf9-48f7-82db-85b01bacce21"},"vehicle_type_id":"4","last_reported":1704910162,"current_range_meters":26400,"station_id":"ce4bgqh2rcd13ifvqc4g","pricing_plan_id":"free"},{"bike_id":"6ac0c3be-5fb7-4054-8dea-1816da6ae803","system_id":"levelo_inurba_marseille","lat":43.311131,"lon":5.377651,"is_reserved":false,"is_disabled":false,"rental_uris":{"android":"levelo://app?vid=6ac0c3be-5fb7-4054-8dea-1816da6ae803","ios":"levelo://app?vid=6ac0c3be-5fb7-4054-8dea-1816da6ae803"},"vehicle_type_id":"4","last_reported":1704910162,"current_range_meters":18000,"station_id":"ce4bgt92rcd13ifvqcg0","pricing_plan_id":"free"},{"bike_id":"ed54a5b9-89e4-40f5-bfc8-015f1775935a","system_id":"levelo_inurba_marseille","lat":43.311131,"lon":5.377651,"is_reserved":false,"is_disabled":false,"rental_uris":{"android":"levelo://app?vid=ed54a5b9-89e4-40f5-bfc8-015f1775935a","ios":"levelo://app?vid=ed54a5b9-89e4-40f5-bfc8-015f1775935a"},"vehicle_type_id":"4","last_reported":1704910162,"current_range_meters":9600,"station_id":"ce4bgt92rcd13ifvqcg0","pricing_plan_id":"free"},{"bike_id":"76214b38-9e6e-4bad-96c1-613e7fe752be","system_id":"levelo_inurba_marseille","lat":43.316903,"lon":5.377418,"is_reserved":false,"is_disabled":false,"rental_uris":{"android":"levelo://app?vid=76214b38-9e6e-4bad-96c1-613e7fe752be","ios":"levelo://app?vid=76214b38-9e6e-4bad-96c1-613e7fe752be"},"vehicle_type_id":"4","last_reported":1704910162,"current_range_meters":2000,"station_id":"ce4bgth2rcd13ifvqch0","pricing_plan_id":"free"},{"bike_id":"4fb6c33f-6a2d-4cb9-b5f5-71a4f8b0b1b3","system_id":"levelo_inurba_marseille","lat":43.317075,"lon":5.377367,"is_reserved":false,"is_disabled":false,"rental_uris":{"android":"levelo://app?vid=4fb6c33f-6a2d-4cb9-b5f5-71a4f8b0b1b3","ios":"levelo://app?vid=4fb6c33f-6a2d-4cb9-b5f5-71a4f8b0b1b3"},"vehicle_type_id":"4","last_reported":1704910162,"current_range_meters":26800,"station_id":"ce4bgth2rcd13ifvqch0","pricing_plan_id":"free"},{"bike_id":"02bd2f5d-3028-4510-a827-0528b23466f8","system_id":"levelo_inurba_marseille","lat":43.317075,"lon":5.377367,"is_reserved":false,"is_disabled":false,"rental_uris":{"android":"levelo://app?vid=02bd2f5d-3028-4510-a827-0528b23466f8","ios":"levelo://app?vid=02bd2f5d-3028-4510-a827-0528b23466f8"},"vehicle_type_id":"4","last_reported":1704910162,"current_range_meters":5600,"station_id":"ce4bgth2rcd13ifvqch0","pricing_plan_id":"free"},{"bike_id":"aaebddbb-07f0-415c-9eb3-d9424cf34c8b","system_id":"levelo_inurba_marseille","lat":43.317075,"lon":5.377367,"is_reserved":false,"is_disabled":false,"rental_uris":{"android":"levelo://app?vid=aaebddbb-07f0-415c-9eb3-d9424cf34c8b","ios":"levelo://app?vid=aaebddbb-07f0-415c-9eb3-d9424cf34c8b"},"vehicle_type_id":"4","last_reported":1704910162,"current_range_meters":10400,"station_id":"ce4bgth2rcd13ifvqch0","pricing_plan_id":"free"},{"bike_id":"dc865768-495f-4708-9e30-d3eb9934738f","system_id":"levelo_inurba_marseille","lat":43.317075,"lon":5.377367,"is_reserved":false,"is_disabled":false,"rental_uris":{"android":"levelo://app?vid=dc865768-495f-4708-9e30-d3eb9934738f","ios":"levelo://app?vid=dc865768-495f-4708-9e30-d3eb9934738f"},"vehicle_type_id":"4","last_reported":1704910162,"current_range_meters":18000,"station_id":"ce4bgth2rcd13ifvqch0","pricing_plan_id":"free"},{"bike_id":"aefc9b3d-6e98-4a4f-b7ff-3fe1ac7fb935","system_id":"levelo_inurba_marseille","lat":43.30316,"lon":5.36893,"is_reserved":false,"is_disabled":false,"rental_uris":{"android":"levelo://app?vid=aefc9b3d-6e98-4a4f-b7ff-3fe1ac7fb935","ios":"levelo://app?vid=aefc9b3d-6e98-4a4f-b7ff-3fe1ac7fb935"},"vehicle_type_id":"4","last_reported":1704910162,"current_range_meters":18400,"station_id":"ce4bgqh2rcd13ifvqc5g","pricing_plan_id":"free"},{"bike_id":"08bfdbf3-d1a7-4f71-a445-3b9b4b73206d","system_id":"levelo_inurba_marseille","lat":43.3031,"lon":5.369139,"is_reserved":false,"is_disabled":false,"rental_uris":{"android":"levelo://app?vid=08bfdbf3-d1a7-4f71-a445-3b9b4b73206d","ios":"levelo://app?vid=08bfdbf3-d1a7-4f71-a445-3b9b4b73206d"},"vehicle_type_id":"4","last_reported":1704910162,"current_range_meters":21200,"station_id":"ce4bgqh2rcd13ifvqc5g","pricing_plan_id":"free"},{"bike_id":"4ce79067-8351-45b2-889f-725b54e1dd2b","system_id":"levelo_inurba_marseille","lat":43.308012,"lon":5.381511,"is_reserved":false,"is_disabled":false,"rental_uris":{"android":"levelo://app?vid=4ce79067-8351-45b2-889f-725b54e1dd2b","ios":"levelo://app?vid=4ce79067-8351-45b2-889f-725b54e1dd2b"},"vehicle_type_id":"4","last_reported":1704910162,"current_range_meters":20800,"station_id":"ce4bgt12rcd13ifvqce0","pricing_plan_id":"free"},{"bike_id":"c2416e95-ee83-40ef-a1da-4bb26caeaf38","system_id":"levelo_inurba_marseille","lat":43.308012,"lon":5.381511,"is_reserved":false,"is_disabled":false,"rental_uris":{"android":"levelo://app?vid=c2416e95-ee83-40ef-a1da-4bb26caeaf38","ios":"levelo://app?vid=c2416e95-ee83-40ef-a1da-4bb26caeaf38"},"vehicle_type_id":"4","last_reported":1704910162,"current_range_meters":26800,"station_id":"ce4bgt12rcd13ifvqce0","pricing_plan_id":"free"},{"bike_id":"04a024e0-4b53-4c20-8352-c0f508231d08","system_id":"levelo_inurba_marseille","lat":43.308012,"lon":5.381511,"is_reserved":false,"is_disabled":false,"rental_uris":{"android":"levelo://app?vid=04a024e0-4b53-4c20-8352-c0f508231d08","ios":"levelo://app?vid=04a024e0-4b53-4c20-8352-c0f508231d08"},"vehicle_type_id":"4","last_reported":1704910162,"current_range_meters":21600,"station_id":"ce4bgt12rcd13ifvqce0","pricing_plan_id":"free"},{"bike_id":"0253e66a-a888-42ae-a9e2-81801d9ad26e","system_id":"levelo_inurba_marseille","lat":43.308012,"lon":5.381511,"is_reserved":false,"is_disabled":false,"rental_uris":{"android":"levelo://app?vid=0253e66a-a888-42ae-a9e2-81801d9ad26e","ios":"levelo://app?vid=0253e66a-a888-42ae-a9e2-81801d9ad26e"},"vehicle_type_id":"4","last_reported":1704910162,"current_range_meters":30400,"station_id":"ce4bgt12rcd13ifvqce0","pricing_plan_id":"free"},{"bike_id":"2e53530b-aa8d-4024-8854-f5dca152139a","system_id":"levelo_inurba_marseille","lat":43.308012,"lon":5.381511,"is_reserved":false,"is_disabled":false,"rental_uris":{"android":"levelo://app?vid=2e53530b-aa8d-4024-8854-f5dca152139a","ios":"levelo://app?vid=2e53530b-aa8d-4024-8854-f5dca152139a"},"vehicle_type_id":"4","last_reported":1704910162,"current_range_meters":20400,"station_id":"ce4bgt12rcd13ifvqce0","pricing_plan_id":"free"},{"bike_id":"38a12dd4-49a6-4944-85ca-b56965e2d5f4","system_id":"levelo_inurba_marseille","lat":43.308012,"lon":5.381511,"is_reserved":false,"is_disabled":false,"rental_uris":{"android":"levelo://app?vid=38a12dd4-49a6-4944-85ca-b56965e2d5f4","ios":"levelo://app?vid=38a12dd4-49a6-4944-85ca-b56965e2d5f4"},"vehicle_type_id":"4","last_reported":1704910162,"current_range_meters":1600,"station_id":"ce4bgt12rcd13ifvqce0","pricing_plan_id":"free"},{"bike_id":"55f6bfba-c9c9-4912-9af1-217120dcea7b","system_id":"levelo_inurba_marseille","lat":43.300827,"lon":5.365856,"is_reserved":false,"is_disabled":false,"rental_uris":{"android":"levelo://app?vid=55f6bfba-c9c9-4912-9af1-217120dcea7b","ios":"levelo://app?vid=55f6bfba-c9c9-4912-9af1-217120dcea7b"},"vehicle_type_id":"4","last_reported":1704910162,"current_range_meters":12000,"station_id":"","pricing_plan_id":"free"},{"bike_id":"592186ea-9749-4077-a128-39abeba103d1","system_id":"levelo_inurba_marseille","lat":43.324797,"lon":5.36565,"is_reserved":false,"is_disabled":false,"rental_uris":{"android":"levelo://app?vid=592186ea-9749-4077-a128-39abeba103d1","ios":"levelo://app?vid=592186ea-9749-4077-a128-39abeba103d1"},"vehicle_type_id":"4","last_reported":1704910162,"current_range_meters":31200,"station_id":"ce4bhs12rcd13ifvqhvg","pricing_plan_id":"free"},{"bike_id":"2e19fac2-bde6-4a50-a1fa-371d9fe229e5","system_id":"levelo_inurba_marseille","lat":43.302743,"lon":5.37713,"is_reserved":false,"is_disabled":false,"rental_uris":{"android":"levelo://app?vid=2e19fac2-bde6-4a50-a1fa-371d9fe229e5","ios":"levelo://app?vid=2e19fac2-bde6-4a50-a1fa-371d9fe229e5"},"vehicle_type_id":"4","last_reported":1704910162,"current_range_meters":10000,"station_id":"","pricing_plan_id":"free"},{"bike_id":"42411765-b961-4c7c-b6c3-995c353d94fb","system_id":"levelo_inurba_marseille","lat":43.30143,"lon":5.37413,"is_reserved":false,"is_disabled":false,"rental_uris":{"android":"levelo://app?vid=42411765-b961-4c7c-b6c3-995c353d94fb","ios":"levelo://app?vid=42411765-b961-4c7c-b6c3-995c353d94fb"},"vehicle_type_id":"4","last_reported":1704910162,"current_range_meters":6800,"station_id":"ce4bgs92rcd13ifvqcc0","pricing_plan_id":"free"},{"bike_id":"f8610476-36bf-463a-848b-e94b63a4af72","system_id":"levelo_inurba_marseille","lat":43.319935,"lon":5.381699,"is_reserved":false,"is_disabled":false,"rental_uris":{"android":"levelo://app?vid=f8610476-36bf-463a-848b-e94b63a4af72","ios":"levelo://app?vid=f8610476-36bf-463a-848b-e94b63a4af72"},"vehicle_type_id":"4","last_reported":1704910162,"current_range_meters":20000,"station_id":"ce4bhr12rcd13ifvqhpg","pricing_plan_id":"free"},{"bike_id":"b684d691-467e-460f-ba67-e75a660a7265","system_id":"levelo_inurba_marseille","lat":43.319935,"lon":5.381699,"is_reserved":false,"is_disabled":false,"rental_uris":{"android":"levelo://app?vid=b684d691-467e-460f-ba67-e75a660a7265","ios":"levelo://app?vid=b684d691-467e-460f-ba67-e75a660a7265"},"vehicle_type_id":"4","last_reported":1704910162,"current_range_meters":27200,"station_id":"ce4bhr12rcd13ifvqhpg","pricing_plan_id":"free"},{"bike_id":"99d3f481-c70e-4d1c-9ab8-aac121e1bbd9","system_id":"levelo_inurba_marseille","lat":43.319935,"lon":5.381699,"is_reserved":false,"is_disabled":false,"rental_uris":{"android":"levelo://app?vid=99d3f481-c70e-4d1c-9ab8-aac121e1bbd9","ios":"levelo://app?vid=99d3f481-c70e-4d1c-9ab8-aac121e1bbd9"},"vehicle_type_id":"4","last_reported":1704910162,"current_range_meters":17200,"station_id":"ce4bhr12rcd13ifvqhpg","pricing_plan_id":"free"},{"bike_id":"9372f4d3-6c6e-407a-b098-0b57a276b31d","system_id":"levelo_inurba_marseille","lat":43.313571,"lon":5.384829,"is_reserved":false,"is_disabled":false,"rental_uris":{"android":"levelo://app?vid=9372f4d3-6c6e-407a-b098-0b57a276b31d","ios":"levelo://app?vid=9372f4d3-6c6e-407a-b098-0b57a276b31d"},"vehicle_type_id":"4","last_reported":1704910162,"current_range_meters":6800,"station_id":"ce4bgt92rcd13ifvqcf0","pricing_plan_id":"free"},{"bike_id":"9d3f6284-00d7-42f1-a841-dfd9c0c22717","system_id":"levelo_inurba_marseille","lat":43.313571,"lon":5.384829,"is_reserved":false,"is_disabled":false,"rental_uris":{"android":"levelo://app?vid=9d3f6284-00d7-42f1-a841-dfd9c0c22717","ios":"levelo://app?vid=9d3f6284-00d7-42f1-a841-dfd9c0c22717"},"vehicle_type_id":"4","last_reported":1704910162,"current_range_meters":6000,"station_id":"ce4bgt92rcd13ifvqcf0","pricing_plan_id":"free"},{"bike_id":"2ace9985-7644-4d79-9914-e70bb2523be2","system_id":"levelo_inurba_marseille","lat":43.299724,"lon":5.371829,"is_reserved":false,"is_disabled":false,"rental_uris":{"android":"levelo://app?vid=2ace9985-7644-4d79-9914-e70bb2523be2","ios":"levelo://app?vid=2ace9985-7644-4d79-9914-e70bb2523be2"},"vehicle_type_id":"4","last_reported":1704910162,"current_range_meters":12400,"station_id":"ce4bgr92rcd13ifvqc7g","pricing_plan_id":"free"},{"bike_id":"99ca1916-c57a-4c17-a583-7f8ba7d5acf9","system_id":"levelo_inurba_marseille","lat":43.299222,"lon":5.365554,"is_reserved":false,"is_disabled":false,"rental_uris":{"android":"levelo://app?vid=99ca1916-c57a-4c17-a583-7f8ba7d5acf9","ios":"levelo://app?vid=99ca1916-c57a-4c17-a583-7f8ba7d5acf9"},"vehicle_type_id":"4","last_reported":1704910162,"current_range_meters":21200,"station_id":"ce4bgm92rcd13ifvqbr0","pricing_plan_id":"free"},{"bike_id":"787af485-e2b8-49eb-9d6b-1b8a93f01f0e","system_id":"levelo_inurba_marseille","lat":43.299222,"lon":5.365554,"is_reserved":false,"is_disabled":false,"rental_uris":{"android":"levelo://app?vid=787af485-e2b8-49eb-9d6b-1b8a93f01f0e","ios":"levelo://app?vid=787af485-e2b8-49eb-9d6b-1b8a93f01f0e"},"vehicle_type_id":"4","last_reported":1704910162,"current_range_meters":11600,"station_id":"ce4bgm92rcd13ifvqbr0","pricing_plan_id":"free"},{"bike_id":"5e7f08f9-e714-415f-91b6-38c042c003a4","system_id":"levelo_inurba_marseille","lat":43.299222,"lon":5.365554,"is_reserved":false,"is_disabled":false,"rental_uris":{"android":"levelo://app?vid=5e7f08f9-e714-415f-91b6-38c042c003a4","ios":"levelo://app?vid=5e7f08f9-e714-415f-91b6-38c042c003a4"},"vehicle_type_id":"4","last_reported":1704910162,"current_range_meters":28800,"station_id":"ce4bgm92rcd13ifvqbr0","pricing_plan_id":"free"},{"bike_id":"5e3ae350-92fc-4f1a-91e5-fca6c6157e9c","system_id":"levelo_inurba_marseille","lat":43.314305,"lon":5.385497,"is_reserved":false,"is_disabled":false,"rental_uris":{"android":"levelo://app?vid=5e3ae350-92fc-4f1a-91e5-fca6c6157e9c","ios":"levelo://app?vid=5e3ae350-92fc-4f1a-91e5-fca6c6157e9c"},"vehicle_type_id":"4","last_reported":1704910162,"current_range_meters":7600,"station_id":"","pricing_plan_id":"free"},{"bike_id":"d681b643-9357-413d-8d3c-fb7ef97e932a","system_id":"levelo_inurba_marseille","lat":43.305364,"lon":5.384119,"is_reserved":false,"is_disabled":false,"rental_uris":{"android":"levelo://app?vid=d681b643-9357-413d-8d3c-fb7ef97e932a","ios":"levelo://app?vid=d681b643-9357-413d-8d3c-fb7ef97e932a"},"vehicle_type_id":"4","last_reported":1704910162,"current_range_meters":19600,"station_id":"ce4bgg92rcd13ifvqb30","pricing_plan_id":"free"},{"bike_id":"e473ced8-923b-437b-97bf-2e5990400ae9","system_id":"levelo_inurba_marseille","lat":43.305364,"lon":5.384119,"is_reserved":false,"is_disabled":false,"rental_uris":{"android":"levelo://app?vid=e473ced8-923b-437b-97bf-2e5990400ae9","ios":"levelo://app?vid=e473ced8-923b-437b-97bf-2e5990400ae9"},"vehicle_type_id":"4","last_reported":1704910162,"current_range_meters":30000,"station_id":"ce4bgg92rcd13ifvqb30","pricing_plan_id":"free"},{"bike_id":"a6021900-4850-4e39-95ba-ceb590a0b42b","system_id":"levelo_inurba_marseille","lat":43.298433,"lon":5.362774,"is_reserved":false,"is_disabled":false,"rental_uris":{"android":"levelo://app?vid=a6021900-4850-4e39-95ba-ceb590a0b42b","ios":"levelo://app?vid=a6021900-4850-4e39-95ba-ceb590a0b42b"},"vehicle_type_id":"4","last_reported":1704910162,"current_range_meters":31200,"station_id":"ce4bgpp2rcd13ifvqc3g","pricing_plan_id":"free"},{"bike_id":"a4b7068b-af96-44af-b3f9-eeed9251db2c","system_id":"levelo_inurba_marseille","lat":43.310654,"lon":5.386775,"is_reserved":false,"is_disabled":false,"rental_uris":{"android":"levelo://app?vid=a4b7068b-af96-44af-b3f9-eeed9251db2c","ios":"levelo://app?vid=a4b7068b-af96-44af-b3f9-eeed9251db2c"},"vehicle_type_id":"4","last_reported":1704910162,"current_range_meters":22400,"station_id":"","pricing_plan_id":"free"},{"bike_id":"87bf3e18-c805-4ae2-8a34-55ac2a84f18d","system_id":"levelo_inurba_marseille","lat":43.298433,"lon":5.362774,"is_reserved":false,"is_disabled":false,"rental_uris":{"android":"levelo://app?vid=87bf3e18-c805-4ae2-8a34-55ac2a84f18d","ios":"levelo://app?vid=87bf3e18-c805-4ae2-8a34-55ac2a84f18d"},"vehicle_type_id":"4","last_reported":1704910162,"current_range_meters":28800,"station_id":"ce4bgpp2rcd13ifvqc3g","pricing_plan_id":"free"},{"bike_id":"11f01b35-0ad0-4945-8dd1-99a3c245ea6a","system_id":"levelo_inurba_marseille","lat":43.305364,"lon":5.384119,"is_reserved":false,"is_disabled":false,"rental_uris":{"android":"levelo://app?vid=11f01b35-0ad0-4945-8dd1-99a3c245ea6a","ios":"levelo://app?vid=11f01b35-0ad0-4945-8dd1-99a3c245ea6a"},"vehicle_type_id":"4","last_reported":1704910162,"current_range_meters":13600,"station_id":"ce4bgg92rcd13ifvqb30","pricing_plan_id":"free"},{"bike_id":"6f18dabb-706c-4dc8-8bf2-ee29c6e52962","system_id":"levelo_inurba_marseille","lat":43.31176,"lon":5.38705,"is_reserved":false,"is_disabled":false,"rental_uris":{"android":"levelo://app?vid=6f18dabb-706c-4dc8-8bf2-ee29c6e52962","ios":"levelo://app?vid=6f18dabb-706c-4dc8-8bf2-ee29c6e52962"},"vehicle_type_id":"4","last_reported":1704910162,"current_range_meters":0,"station_id":"ce4bgv12rcd13ifvqcp0","pricing_plan_id":"free"},{"bike_id":"2433ad23-0cb6-4abb-84e5-1813221efd2c","system_id":"levelo_inurba_marseille","lat":43.299093,"lon":5.37474,"is_reserved":false,"is_disabled":false,"rental_uris":{"android":"levelo://app?vid=2433ad23-0cb6-4abb-84e5-1813221efd2c","ios":"levelo://app?vid=2433ad23-0cb6-4abb-84e5-1813221efd2c"},"vehicle_type_id":"4","last_reported":1704910162,"current_range_meters":0,"station_id":"ce4bgjh2rcd13ifvqbg0","pricing_plan_id":"free"},{"bike_id":"ccde8796-0da5-41a0-8518-8d8609c71bb5","system_id":"levelo_inurba_marseille","lat":43.311722,"lon":5.387247,"is_reserved":false,"is_disabled":false,"rental_uris":{"android":"levelo://app?vid=ccde8796-0da5-41a0-8518-8d8609c71bb5","ios":"levelo://app?vid=ccde8796-0da5-41a0-8518-8d8609c71bb5"},"vehicle_type_id":"4","last_reported":1704910162,"current_range_meters":22400,"station_id":"ce4bgv12rcd13ifvqcp0","pricing_plan_id":"free"},{"bike_id":"c66cfca1-be92-45d3-a59a-2a6dda3093b7","system_id":"levelo_inurba_marseille","lat":43.32287,"lon":5.38258,"is_reserved":false,"is_disabled":false,"rental_uris":{"android":"levelo://app?vid=c66cfca1-be92-45d3-a59a-2a6dda3093b7","ios":"levelo://app?vid=c66cfca1-be92-45d3-a59a-2a6dda3093b7"},"vehicle_type_id":"4","last_reported":1704910162,"current_range_meters":10000,"station_id":"ce4bhr12rcd13ifvqhqg","pricing_plan_id":"free"},{"bike_id":"2aa84d53-1e8a-45b2-af0c-37ef83aea9ae","system_id":"levelo_inurba_marseille","lat":43.322872,"lon":5.382756,"is_reserved":false,"is_disabled":false,"rental_uris":{"android":"levelo://app?vid=2aa84d53-1e8a-45b2-af0c-37ef83aea9ae","ios":"levelo://app?vid=2aa84d53-1e8a-45b2-af0c-37ef83aea9ae"},"vehicle_type_id":"4","last_reported":1704910162,"current_range_meters":29200,"station_id":"ce4bhr12rcd13ifvqhqg","pricing_plan_id":"free"},{"bike_id":"72905f78-9c33-4138-8385-d331d9223abd","system_id":"levelo_inurba_marseille","lat":43.32821,"lon":5.36682,"is_reserved":false,"is_disabled":false,"rental_uris":{"android":"levelo://app?vid=72905f78-9c33-4138-8385-d331d9223abd","ios":"levelo://app?vid=72905f78-9c33-4138-8385-d331d9223abd"},"vehicle_type_id":"4","last_reported":1704910162,"current_range_meters":31200,"station_id":"ce4bhs92rcd13ifvqi0g","pricing_plan_id":"free"},{"bike_id":"d68ce626-ef98-4d52-b3b3-f34d703a806b","system_id":"levelo_inurba_marseille","lat":43.32821,"lon":5.36666,"is_reserved":false,"is_disabled":false,"rental_uris":{"android":"levelo://app?vid=d68ce626-ef98-4d52-b3b3-f34d703a806b","ios":"levelo://app?vid=d68ce626-ef98-4d52-b3b3-f34d703a806b"},"vehicle_type_id":"4","last_reported":1704910162,"current_range_meters":21200,"station_id":"ce4bhs92rcd13ifvqi0g","pricing_plan_id":"free"},{"bike_id":"657c5490-e321-440a-9a4b-2c561b77cd0b","system_id":"levelo_inurba_marseille","lat":43.32822,"lon":5.36689,"is_reserved":false,"is_disabled":false,"rental_uris":{"android":"levelo://app?vid=657c5490-e321-440a-9a4b-2c561b77cd0b","ios":"levelo://app?vid=657c5490-e321-440a-9a4b-2c561b77cd0b"},"vehicle_type_id":"4","last_reported":1704910162,"current_range_meters":800,"station_id":"ce4bhs92rcd13ifvqi0g","pricing_plan_id":"free"},{"bike_id":"331410e4-8362-40e5-8b58-6a53f46a25bd","system_id":"levelo_inurba_marseille","lat":43.32824,"lon":5.36675,"is_reserved":false,"is_disabled":false,"rental_uris":{"android":"levelo://app?vid=331410e4-8362-40e5-8b58-6a53f46a25bd","ios":"levelo://app?vid=331410e4-8362-40e5-8b58-6a53f46a25bd"},"vehicle_type_id":"4","last_reported":1704910162,"current_range_meters":31200,"station_id":"ce4bhs92rcd13ifvqi0g","pricing_plan_id":"free"},{"bike_id":"66addf4b-70b7-4ac4-8e17-37956e9ecfbb","system_id":"levelo_inurba_marseille","lat":43.32824,"lon":5.36673,"is_reserved":false,"is_disabled":false,"rental_uris":{"android":"levelo://app?vid=66addf4b-70b7-4ac4-8e17-37956e9ecfbb","ios":"levelo://app?vid=66addf4b-70b7-4ac4-8e17-37956e9ecfbb"},"vehicle_type_id":"4","last_reported":1704910162,"current_range_meters":24000,"station_id":"ce4bhs92rcd13ifvqi0g","pricing_plan_id":"free"},{"bike_id":"fb45f142-a2e6-4b54-b6fd-5660ca2c1fe5","system_id":"levelo_inurba_marseille","lat":43.32824,"lon":5.36672,"is_reserved":false,"is_disabled":false,"rental_uris":{"android":"levelo://app?vid=fb45f142-a2e6-4b54-b6fd-5660ca2c1fe5","ios":"levelo://app?vid=fb45f142-a2e6-4b54-b6fd-5660ca2c1fe5"},"vehicle_type_id":"4","last_reported":1704910162,"current_range_meters":21600,"station_id":"ce4bhs92rcd13ifvqi0g","pricing_plan_id":"free"},{"bike_id":"b417e045-2acd-45ab-8543-5d87cc32d878","system_id":"levelo_inurba_marseille","lat":43.328272,"lon":5.366578,"is_reserved":false,"is_disabled":false,"rental_uris":{"android":"levelo://app?vid=b417e045-2acd-45ab-8543-5d87cc32d878","ios":"levelo://app?vid=b417e045-2acd-45ab-8543-5d87cc32d878"},"vehicle_type_id":"4","last_reported":1704910162,"current_range_meters":29200,"station_id":"ce4bhs92rcd13ifvqi0g","pricing_plan_id":"free"},{"bike_id":"a70069dc-f773-452d-9d3a-320d0014d11e","system_id":"levelo_inurba_marseille","lat":43.32828,"lon":5.36672,"is_reserved":false,"is_disabled":false,"rental_uris":{"android":"levelo://app?vid=a70069dc-f773-452d-9d3a-320d0014d11e","ios":"levelo://app?vid=a70069dc-f773-452d-9d3a-320d0014d11e"},"vehicle_type_id":"4","last_reported":1704910162,"current_range_meters":17600,"station_id":"ce4bhs92rcd13ifvqi0g","pricing_plan_id":"free"},{"bike_id":"e1e3a1c2-ded9-4b32-80b4-852bd4467a76","system_id":"levelo_inurba_marseille","lat":43.32828,"lon":5.36672,"is_reserved":false,"is_disabled":false,"rental_uris":{"android":"levelo://app?vid=e1e3a1c2-ded9-4b32-80b4-852bd4467a76","ios":"levelo://app?vid=e1e3a1c2-ded9-4b32-80b4-852bd4467a76"},"vehicle_type_id":"4","last_reported":1704910162,"current_range_meters":20800,"station_id":"ce4bhs92rcd13ifvqi0g","pricing_plan_id":"free"},{"bike_id":"1f1a5220-6426-49f4-89de-c9c79ed6428d","system_id":"levelo_inurba_marseille","lat":43.32831,"lon":5.36681,"is_reserved":false,"is_disabled":false,"rental_uris":{"android":"levelo://app?vid=1f1a5220-6426-49f4-89de-c9c79ed6428d","ios":"levelo://app?vid=1f1a5220-6426-49f4-89de-c9c79ed6428d"},"vehicle_type_id":"4","last_reported":1704910162,"current_range_meters":30800,"station_id":"ce4bhs92rcd13ifvqi0g","pricing_plan_id":"free"},{"bike_id":"0d0b8ebd-1bea-4493-acaa-cea0e925fbec","system_id":"levelo_inurba_marseille","lat":43.29717,"lon":5.36619,"is_reserved":false,"is_disabled":false,"rental_uris":{"android":"levelo://app?vid=0d0b8ebd-1bea-4493-acaa-cea0e925fbec","ios":"levelo://app?vid=0d0b8ebd-1bea-4493-acaa-cea0e925fbec"},"vehicle_type_id":"4","last_reported":1704910162,"current_range_meters":0,"station_id":"ce4bgn12rcd13ifvqbt0","pricing_plan_id":"free"},{"bike_id":"7b9958fe-cb69-4b86-8077-c6eefd22d5f1","system_id":"levelo_inurba_marseille","lat":43.32833,"lon":5.3667,"is_reserved":false,"is_disabled":false,"rental_uris":{"android":"levelo://app?vid=7b9958fe-cb69-4b86-8077-c6eefd22d5f1","ios":"levelo://app?vid=7b9958fe-cb69-4b86-8077-c6eefd22d5f1"},"vehicle_type_id":"4","last_reported":1704910162,"current_range_meters":30000,"station_id":"ce4bhs92rcd13ifvqi0g","pricing_plan_id":"free"},{"bike_id":"1d95f2f3-b636-406f-813f-b56de5fe38df","system_id":"levelo_inurba_marseille","lat":43.297163,"lon":5.365866,"is_reserved":false,"is_disabled":false,"rental_uris":{"android":"levelo://app?vid=1d95f2f3-b636-406f-813f-b56de5fe38df","ios":"levelo://app?vid=1d95f2f3-b636-406f-813f-b56de5fe38df"},"vehicle_type_id":"4","last_reported":1704910162,"current_range_meters":31200,"station_id":"ce4bgn12rcd13ifvqbt0","pricing_plan_id":"free"},{"bike_id":"387c1dff-fb7e-4547-838e-1af3f69c4219","system_id":"levelo_inurba_marseille","lat":43.328397,"lon":5.366607,"is_reserved":false,"is_disabled":false,"rental_uris":{"android":"levelo://app?vid=387c1dff-fb7e-4547-838e-1af3f69c4219","ios":"levelo://app?vid=387c1dff-fb7e-4547-838e-1af3f69c4219"},"vehicle_type_id":"4","last_reported":1704910162,"current_range_meters":31200,"station_id":"ce4bhs92rcd13ifvqi0g","pricing_plan_id":"free"},{"bike_id":"3fb57a49-4ca5-4ab6-b045-08513a721a6c","system_id":"levelo_inurba_marseille","lat":43.29705,"lon":5.36583,"is_reserved":false,"is_disabled":false,"rental_uris":{"android":"levelo://app?vid=3fb57a49-4ca5-4ab6-b045-08513a721a6c","ios":"levelo://app?vid=3fb57a49-4ca5-4ab6-b045-08513a721a6c"},"vehicle_type_id":"4","last_reported":1704910162,"current_range_meters":3200,"station_id":"ce4bgn12rcd13ifvqbt0","pricing_plan_id":"free"},{"bike_id":"9493cfaa-38ba-45a1-b093-39188d6d0f50","system_id":"levelo_inurba_marseille","lat":43.297163,"lon":5.365866,"is_reserved":false,"is_disabled":false,"rental_uris":{"android":"levelo://app?vid=9493cfaa-38ba-45a1-b093-39188d6d0f50","ios":"levelo://app?vid=9493cfaa-38ba-45a1-b093-39188d6d0f50"},"vehicle_type_id":"4","last_reported":1704910162,"current_range_meters":6000,"station_id":"ce4bgn12rcd13ifvqbt0","pricing_plan_id":"free"},{"bike_id":"0e21c0e1-cd91-41f5-a668-23429ce9066e","system_id":"levelo_inurba_marseille","lat":43.296801,"lon":5.372822,"is_reserved":false,"is_disabled":false,"rental_uris":{"android":"levelo://app?vid=0e21c0e1-cd91-41f5-a668-23429ce9066e","ios":"levelo://app?vid=0e21c0e1-cd91-41f5-a668-23429ce9066e"},"vehicle_type_id":"4","last_reported":1704910162,"current_range_meters":10800,"station_id":"","pricing_plan_id":"free"},{"bike_id":"63fcb21e-c98b-485f-87d0-a5a4f09790ba","system_id":"levelo_inurba_marseille","lat":43.303491,"lon":5.385968,"is_reserved":false,"is_disabled":false,"rental_uris":{"android":"levelo://app?vid=63fcb21e-c98b-485f-87d0-a5a4f09790ba","ios":"levelo://app?vid=63fcb21e-c98b-485f-87d0-a5a4f09790ba"},"vehicle_type_id":"4","last_reported":1704910162,"current_range_meters":18000,"station_id":"","pricing_plan_id":"free"},{"bike_id":"1969f6c5-b8d9-44b9-bdf5-4d6595b2cf60","system_id":"levelo_inurba_marseille","lat":43.296211,"lon":5.371499,"is_reserved":false,"is_disabled":false,"rental_uris":{"android":"levelo://app?vid=1969f6c5-b8d9-44b9-bdf5-4d6595b2cf60","ios":"levelo://app?vid=1969f6c5-b8d9-44b9-bdf5-4d6595b2cf60"},"vehicle_type_id":"4","last_reported":1704910162,"current_range_meters":21600,"station_id":"ce4bgnh2rcd13ifvqc0g","pricing_plan_id":"free"},{"bike_id":"f233bc4e-ac58-48cf-948a-68ae8a84e361","system_id":"levelo_inurba_marseille","lat":43.309589,"lon":5.390258,"is_reserved":false,"is_disabled":false,"rental_uris":{"android":"levelo://app?vid=f233bc4e-ac58-48cf-948a-68ae8a84e361","ios":"levelo://app?vid=f233bc4e-ac58-48cf-948a-68ae8a84e361"},"vehicle_type_id":"4","last_reported":1704910162,"current_range_meters":2800,"station_id":"ce4bgup2rcd13ifvqco0","pricing_plan_id":"free"},{"bike_id":"450780d6-2afc-4b97-ada7-490ab007f5fa","system_id":"levelo_inurba_marseille","lat":43.309589,"lon":5.390258,"is_reserved":false,"is_disabled":false,"rental_uris":{"android":"levelo://app?vid=450780d6-2afc-4b97-ada7-490ab007f5fa","ios":"levelo://app?vid=450780d6-2afc-4b97-ada7-490ab007f5fa"},"vehicle_type_id":"4","last_reported":1704910162,"current_range_meters":26000,"station_id":"ce4bgup2rcd13ifvqco0","pricing_plan_id":"free"},{"bike_id":"d367a132-ec7b-49f0-b387-175b541fc62d","system_id":"levelo_inurba_marseille","lat":43.309589,"lon":5.390258,"is_reserved":false,"is_disabled":false,"rental_uris":{"android":"levelo://app?vid=d367a132-ec7b-49f0-b387-175b541fc62d","ios":"levelo://app?vid=d367a132-ec7b-49f0-b387-175b541fc62d"},"vehicle_type_id":"4","last_reported":1704910162,"current_range_meters":11600,"station_id":"ce4bgup2rcd13ifvqco0","pricing_plan_id":"free"},{"bike_id":"e5fe3264-2519-4d05-acee-04964fbbcb57","system_id":"levelo_inurba_marseille","lat":43.317557,"lon":5.390173,"is_reserved":false,"is_disabled":false,"rental_uris":{"android":"levelo://app?vid=e5fe3264-2519-4d05-acee-04964fbbcb57","ios":"levelo://app?vid=e5fe3264-2519-4d05-acee-04964fbbcb57"},"vehicle_type_id":"4","last_reported":1704910162,"current_range_meters":16000,"station_id":"ce4bhqp2rcd13ifvqhng","pricing_plan_id":"free"},{"bike_id":"a34c94d7-ec4d-425c-9db0-4eae6cf80a8c","system_id":"levelo_inurba_marseille","lat":43.317557,"lon":5.390173,"is_reserved":false,"is_disabled":false,"rental_uris":{"android":"levelo://app?vid=a34c94d7-ec4d-425c-9db0-4eae6cf80a8c","ios":"levelo://app?vid=a34c94d7-ec4d-425c-9db0-4eae6cf80a8c"},"vehicle_type_id":"4","last_reported":1704910162,"current_range_meters":18800,"station_id":"ce4bhqp2rcd13ifvqhng","pricing_plan_id":"free"},{"bike_id":"56c0e1b0-011a-4ba4-b6d0-a126b1585ce5","system_id":"levelo_inurba_marseille","lat":43.317557,"lon":5.390173,"is_reserved":false,"is_disabled":false,"rental_uris":{"android":"levelo://app?vid=56c0e1b0-011a-4ba4-b6d0-a126b1585ce5","ios":"levelo://app?vid=56c0e1b0-011a-4ba4-b6d0-a126b1585ce5"},"vehicle_type_id":"4","last_reported":1704910162,"current_range_meters":23200,"station_id":"ce4bhqp2rcd13ifvqhng","pricing_plan_id":"free"},{"bike_id":"05dcaede-ebf1-4571-90e4-c083a66228be","system_id":"levelo_inurba_marseille","lat":43.317557,"lon":5.390173,"is_reserved":false,"is_disabled":false,"rental_uris":{"android":"levelo://app?vid=05dcaede-ebf1-4571-90e4-c083a66228be","ios":"levelo://app?vid=05dcaede-ebf1-4571-90e4-c083a66228be"},"vehicle_type_id":"4","last_reported":1704910162,"current_range_meters":3600,"station_id":"ce4bhqp2rcd13ifvqhng","pricing_plan_id":"free"},{"bike_id":"6d2bd5db-ced9-402b-9037-2caae3731c5b","system_id":"levelo_inurba_marseille","lat":43.298037,"lon":5.381066,"is_reserved":false,"is_disabled":false,"rental_uris":{"android":"levelo://app?vid=6d2bd5db-ced9-402b-9037-2caae3731c5b","ios":"levelo://app?vid=6d2bd5db-ced9-402b-9037-2caae3731c5b"},"vehicle_type_id":"4","last_reported":1704910162,"current_range_meters":6800,"station_id":"ce4bgip2rcd13ifvqbb0","pricing_plan_id":"free"},{"bike_id":"782323f9-a3ad-4880-b594-206c30cfc73d","system_id":"levelo_inurba_marseille","lat":43.304274,"lon":5.388873,"is_reserved":false,"is_disabled":false,"rental_uris":{"android":"levelo://app?vid=782323f9-a3ad-4880-b594-206c30cfc73d","ios":"levelo://app?vid=782323f9-a3ad-4880-b594-206c30cfc73d"},"vehicle_type_id":"4","last_reported":1704910162,"current_range_meters":29200,"station_id":"ce4bgk12rcd13ifvqbi0","pricing_plan_id":"free"},{"bike_id":"78c1ad85-217b-4c15-b077-06324b1b9ba2","system_id":"levelo_inurba_marseille","lat":43.304278,"lon":5.388868,"is_reserved":false,"is_disabled":false,"rental_uris":{"android":"levelo://app?vid=78c1ad85-217b-4c15-b077-06324b1b9ba2","ios":"levelo://app?vid=78c1ad85-217b-4c15-b077-06324b1b9ba2"},"vehicle_type_id":"4","last_reported":1704910162,"current_range_meters":7200,"station_id":"ce4bgk12rcd13ifvqbi0","pricing_plan_id":"free"},{"bike_id":"e485c791-73e9-4fcb-9bf3-5308ec6a0254","system_id":"levelo_inurba_marseille","lat":43.29569,"lon":5.3752,"is_reserved":false,"is_disabled":false,"rental_uris":{"android":"levelo://app?vid=e485c791-73e9-4fcb-9bf3-5308ec6a0254","ios":"levelo://app?vid=e485c791-73e9-4fcb-9bf3-5308ec6a0254"},"vehicle_type_id":"4","last_reported":1704910162,"current_range_meters":4800,"station_id":"ce4bgh92rcd13ifvqb50","pricing_plan_id":"free"},{"bike_id":"a4da879d-2cd8-4165-908c-ea6282e2fe7a","system_id":"levelo_inurba_marseille","lat":43.304278,"lon":5.388868,"is_reserved":false,"is_disabled":false,"rental_uris":{"android":"levelo://app?vid=a4da879d-2cd8-4165-908c-ea6282e2fe7a","ios":"levelo://app?vid=a4da879d-2cd8-4165-908c-ea6282e2fe7a"},"vehicle_type_id":"4","last_reported":1704910162,"current_range_meters":12800,"station_id":"ce4bgk12rcd13ifvqbi0","pricing_plan_id":"free"},{"bike_id":"726d2f42-25fe-43a8-9ce1-f2f803599661","system_id":"levelo_inurba_marseille","lat":43.304278,"lon":5.388868,"is_reserved":false,"is_disabled":false,"rental_uris":{"android":"levelo://app?vid=726d2f42-25fe-43a8-9ce1-f2f803599661","ios":"levelo://app?vid=726d2f42-25fe-43a8-9ce1-f2f803599661"},"vehicle_type_id":"4","last_reported":1704910162,"current_range_meters":21600,"station_id":"ce4bgk12rcd13ifvqbi0","pricing_plan_id":"free"},{"bike_id":"9b623831-8785-42cc-912d-2e306d481a8a","system_id":"levelo_inurba_marseille","lat":43.304274,"lon":5.388873,"is_reserved":false,"is_disabled":false,"rental_uris":{"android":"levelo://app?vid=9b623831-8785-42cc-912d-2e306d481a8a","ios":"levelo://app?vid=9b623831-8785-42cc-912d-2e306d481a8a"},"vehicle_type_id":"4","last_reported":1704910162,"current_range_meters":24400,"station_id":"ce4bgk12rcd13ifvqbi0","pricing_plan_id":"free"},{"bike_id":"dd125b97-fbbf-441f-8220-018dafad14ab","system_id":"levelo_inurba_marseille","lat":43.296263,"lon":5.377094,"is_reserved":false,"is_disabled":false,"rental_uris":{"android":"levelo://app?vid=dd125b97-fbbf-441f-8220-018dafad14ab","ios":"levelo://app?vid=dd125b97-fbbf-441f-8220-018dafad14ab"},"vehicle_type_id":"4","last_reported":1704910162,"current_range_meters":0,"station_id":"ce4bgi92rcd13ifvqb90","pricing_plan_id":"free"},{"bike_id":"136ce88a-7acf-409a-add2-2af69f57eee3","system_id":"levelo_inurba_marseille","lat":43.29981,"lon":5.38484,"is_reserved":false,"is_disabled":false,"rental_uris":{"android":"levelo://app?vid=136ce88a-7acf-409a-add2-2af69f57eee3","ios":"levelo://app?vid=136ce88a-7acf-409a-add2-2af69f57eee3"},"vehicle_type_id":"4","last_reported":1704910162,"current_range_meters":0,"station_id":"ce4bgj92rcd13ifvqbd0","pricing_plan_id":"free"},{"bike_id":"95656828-075a-4403-b6bd-1a7635c81dbd","system_id":"levelo_inurba_marseille","lat":43.299707,"lon":5.384859,"is_reserved":false,"is_disabled":false,"rental_uris":{"android":"levelo://app?vid=95656828-075a-4403-b6bd-1a7635c81dbd","ios":"levelo://app?vid=95656828-075a-4403-b6bd-1a7635c81dbd"},"vehicle_type_id":"4","last_reported":1704910162,"current_range_meters":1200,"station_id":"ce4bgj92rcd13ifvqbd0","pricing_plan_id":"free"},{"bike_id":"396c9290-10d2-4729-916a-b0adacf07737","system_id":"levelo_inurba_marseille","lat":43.29979,"lon":5.38495,"is_reserved":false,"is_disabled":false,"rental_uris":{"android":"levelo://app?vid=396c9290-10d2-4729-916a-b0adacf07737","ios":"levelo://app?vid=396c9290-10d2-4729-916a-b0adacf07737"},"vehicle_type_id":"4","last_reported":1704910162,"current_range_meters":19200,"station_id":"ce4bgj92rcd13ifvqbd0","pricing_plan_id":"free"},{"bike_id":"70f5a8a0-6a3c-49c3-a4cd-540856d99d58","system_id":"levelo_inurba_marseille","lat":43.299717,"lon":5.384845,"is_reserved":false,"is_disabled":false,"rental_uris":{"android":"levelo://app?vid=70f5a8a0-6a3c-49c3-a4cd-540856d99d58","ios":"levelo://app?vid=70f5a8a0-6a3c-49c3-a4cd-540856d99d58"},"vehicle_type_id":"4","last_reported":1704910162,"current_range_meters":25600,"station_id":"ce4bgj92rcd13ifvqbd0","pricing_plan_id":"free"},{"bike_id":"b553f938-0c90-42c0-818c-ed6fee16dfe9","system_id":"levelo_inurba_marseille","lat":43.32367,"lon":5.388836,"is_reserved":false,"is_disabled":false,"rental_uris":{"android":"levelo://app?vid=b553f938-0c90-42c0-818c-ed6fee16dfe9","ios":"levelo://app?vid=b553f938-0c90-42c0-818c-ed6fee16dfe9"},"vehicle_type_id":"4","last_reported":1704910162,"current_range_meters":6400,"station_id":"ce4bhqp2rcd13ifvqhog","pricing_plan_id":"free"},{"bike_id":"a7119a50-c648-43d6-a298-784d8f27e91c","system_id":"levelo_inurba_marseille","lat":43.32367,"lon":5.388836,"is_reserved":false,"is_disabled":false,"rental_uris":{"android":"levelo://app?vid=a7119a50-c648-43d6-a298-784d8f27e91c","ios":"levelo://app?vid=a7119a50-c648-43d6-a298-784d8f27e91c"},"vehicle_type_id":"4","last_reported":1704910162,"current_range_meters":18400,"station_id":"ce4bhqp2rcd13ifvqhog","pricing_plan_id":"free"},{"bike_id":"ae74013b-ca92-46de-a444-0a4f51933a85","system_id":"levelo_inurba_marseille","lat":43.32367,"lon":5.388836,"is_reserved":false,"is_disabled":false,"rental_uris":{"android":"levelo://app?vid=ae74013b-ca92-46de-a444-0a4f51933a85","ios":"levelo://app?vid=ae74013b-ca92-46de-a444-0a4f51933a85"},"vehicle_type_id":"4","last_reported":1704910162,"current_range_meters":3600,"station_id":"ce4bhqp2rcd13ifvqhog","pricing_plan_id":"free"},{"bike_id":"f713a5d2-cd2c-4874-978d-634f7fd13d60","system_id":"levelo_inurba_marseille","lat":43.32367,"lon":5.388836,"is_reserved":false,"is_disabled":false,"rental_uris":{"android":"levelo://app?vid=f713a5d2-cd2c-4874-978d-634f7fd13d60","ios":"levelo://app?vid=f713a5d2-cd2c-4874-978d-634f7fd13d60"},"vehicle_type_id":"4","last_reported":1704910162,"current_range_meters":25200,"station_id":"ce4bhqp2rcd13ifvqhog","pricing_plan_id":"free"},{"bike_id":"1eec63a5-d851-4bb3-9e9e-79960d82514b","system_id":"levelo_inurba_marseille","lat":43.32367,"lon":5.388836,"is_reserved":false,"is_disabled":false,"rental_uris":{"android":"levelo://app?vid=1eec63a5-d851-4bb3-9e9e-79960d82514b","ios":"levelo://app?vid=1eec63a5-d851-4bb3-9e9e-79960d82514b"},"vehicle_type_id":"4","last_reported":1704910162,"current_range_meters":18000,"station_id":"ce4bhqp2rcd13ifvqhog","pricing_plan_id":"free"},{"bike_id":"be7361aa-80f1-438b-9ce8-d142d1e331c4","system_id":"levelo_inurba_marseille","lat":43.32367,"lon":5.388836,"is_reserved":false,"is_disabled":false,"rental_uris":{"android":"levelo://app?vid=be7361aa-80f1-438b-9ce8-d142d1e331c4","ios":"levelo://app?vid=be7361aa-80f1-438b-9ce8-d142d1e331c4"},"vehicle_type_id":"4","last_reported":1704910162,"current_range_meters":27200,"station_id":"ce4bhqp2rcd13ifvqhog","pricing_plan_id":"free"},{"bike_id":"c01364bc-00d2-450d-b650-9c848310f228","system_id":"levelo_inurba_marseille","lat":43.29601,"lon":5.381084,"is_reserved":false,"is_disabled":false,"rental_uris":{"android":"levelo://app?vid=c01364bc-00d2-450d-b650-9c848310f228","ios":"levelo://app?vid=c01364bc-00d2-450d-b650-9c848310f228"},"vehicle_type_id":"4","last_reported":1704910162,"current_range_meters":29600,"station_id":"ce4bgl12rcd13ifvqbo0","pricing_plan_id":"free"},{"bike_id":"5fc98d72-5f4a-4eb6-9df8-c1c862e47bca","system_id":"levelo_inurba_marseille","lat":43.29302,"lon":5.37178,"is_reserved":false,"is_disabled":false,"rental_uris":{"android":"levelo://app?vid=5fc98d72-5f4a-4eb6-9df8-c1c862e47bca","ios":"levelo://app?vid=5fc98d72-5f4a-4eb6-9df8-c1c862e47bca"},"vehicle_type_id":"4","last_reported":1704910162,"current_range_meters":16400,"station_id":"ce4bgh92rcd13ifvqb40","pricing_plan_id":"free"},{"bike_id":"a5597456-ffc3-45b3-9876-747dd93f9ee6","system_id":"levelo_inurba_marseille","lat":43.293009,"lon":5.374584,"is_reserved":false,"is_disabled":false,"rental_uris":{"android":"levelo://app?vid=a5597456-ffc3-45b3-9876-747dd93f9ee6","ios":"levelo://app?vid=a5597456-ffc3-45b3-9876-747dd93f9ee6"},"vehicle_type_id":"4","last_reported":1704910162,"current_range_meters":19200,"station_id":"ce4bgi12rcd13ifvqb70","pricing_plan_id":"free"},{"bike_id":"fb3fce35-2ede-4779-9d8b-14f7518823d9","system_id":"levelo_inurba_marseille","lat":43.305994,"lon":5.393687,"is_reserved":false,"is_disabled":false,"rental_uris":{"android":"levelo://app?vid=fb3fce35-2ede-4779-9d8b-14f7518823d9","ios":"levelo://app?vid=fb3fce35-2ede-4779-9d8b-14f7518823d9"},"vehicle_type_id":"4","last_reported":1704910162,"current_range_meters":29600,"station_id":"ce4bh0p2rcd13ifvqd80","pricing_plan_id":"free"},{"bike_id":"08f2f6e8-94f6-4ac2-b4eb-0294003f4f0f","system_id":"levelo_inurba_marseille","lat":43.2936,"lon":5.37835,"is_reserved":false,"is_disabled":false,"rental_uris":{"android":"levelo://app?vid=08f2f6e8-94f6-4ac2-b4eb-0294003f4f0f","ios":"levelo://app?vid=08f2f6e8-94f6-4ac2-b4eb-0294003f4f0f"},"vehicle_type_id":"4","last_reported":1704910162,"current_range_meters":27200,"station_id":"ce4bgjh2rcd13ifvqbf0","pricing_plan_id":"free"},{"bike_id":"b673b3f4-6c05-48ca-969e-bd0deaf37f32","system_id":"levelo_inurba_marseille","lat":43.2936,"lon":5.37835,"is_reserved":false,"is_disabled":false,"rental_uris":{"android":"levelo://app?vid=b673b3f4-6c05-48ca-969e-bd0deaf37f32","ios":"levelo://app?vid=b673b3f4-6c05-48ca-969e-bd0deaf37f32"},"vehicle_type_id":"4","last_reported":1704910162,"current_range_meters":22400,"station_id":"ce4bgjh2rcd13ifvqbf0","pricing_plan_id":"free"},{"bike_id":"fbb5682e-338a-49ef-9dc7-867e450b7a07","system_id":"levelo_inurba_marseille","lat":43.300852,"lon":5.390859,"is_reserved":false,"is_disabled":false,"rental_uris":{"android":"levelo://app?vid=fbb5682e-338a-49ef-9dc7-867e450b7a07","ios":"levelo://app?vid=fbb5682e-338a-49ef-9dc7-867e450b7a07"},"vehicle_type_id":"4","last_reported":1704910162,"current_range_meters":28400,"station_id":"ce4bh192rcd13ifvqdb0","pricing_plan_id":"free"},{"bike_id":"e453174c-23fc-43b6-9f34-a25af7efc0ec","system_id":"levelo_inurba_marseille","lat":43.291671,"lon":5.371575,"is_reserved":false,"is_disabled":false,"rental_uris":{"android":"levelo://app?vid=e453174c-23fc-43b6-9f34-a25af7efc0ec","ios":"levelo://app?vid=e453174c-23fc-43b6-9f34-a25af7efc0ec"},"vehicle_type_id":"4","last_reported":1704910162,"current_range_meters":10000,"station_id":"ce4bha92rcd13ifvqeh0","pricing_plan_id":"free"},{"bike_id":"98c9ec4f-323d-4133-a467-6930e127b274","system_id":"levelo_inurba_marseille","lat":43.29878,"lon":5.38899,"is_reserved":false,"is_disabled":false,"rental_uris":{"android":"levelo://app?vid=98c9ec4f-323d-4133-a467-6930e127b274","ios":"levelo://app?vid=98c9ec4f-323d-4133-a467-6930e127b274"},"vehicle_type_id":"4","last_reported":1704910162,"current_range_meters":10800,"station_id":"","pricing_plan_id":"free"},{"bike_id":"50c8b788-6776-454f-aac7-ebb850b9c846","system_id":"levelo_inurba_marseille","lat":43.29868,"lon":5.38891,"is_reserved":false,"is_disabled":false,"rental_uris":{"android":"levelo://app?vid=50c8b788-6776-454f-aac7-ebb850b9c846","ios":"levelo://app?vid=50c8b788-6776-454f-aac7-ebb850b9c846"},"vehicle_type_id":"4","last_reported":1704910162,"current_range_meters":12400,"station_id":"","pricing_plan_id":"free"},{"bike_id":"07e93abd-c2c1-4f2a-9250-58ab18c1f6bd","system_id":"levelo_inurba_marseille","lat":43.29169,"lon":5.371445,"is_reserved":false,"is_disabled":false,"rental_uris":{"android":"levelo://app?vid=07e93abd-c2c1-4f2a-9250-58ab18c1f6bd","ios":"levelo://app?vid=07e93abd-c2c1-4f2a-9250-58ab18c1f6bd"},"vehicle_type_id":"4","last_reported":1704910162,"current_range_meters":0,"station_id":"ce4bha92rcd13ifvqeh0","pricing_plan_id":"free"},{"bike_id":"c3faf17f-5a5e-48b3-9943-52135d82a2d1","system_id":"levelo_inurba_marseille","lat":43.291671,"lon":5.371575,"is_reserved":false,"is_disabled":false,"rental_uris":{"android":"levelo://app?vid=c3faf17f-5a5e-48b3-9943-52135d82a2d1","ios":"levelo://app?vid=c3faf17f-5a5e-48b3-9943-52135d82a2d1"},"vehicle_type_id":"4","last_reported":1704910162,"current_range_meters":1600,"station_id":"ce4bha92rcd13ifvqeh0","pricing_plan_id":"free"},{"bike_id":"07dd918e-c0ab-45fd-a576-ecc2e14608be","system_id":"levelo_inurba_marseille","lat":43.291675,"lon":5.371583,"is_reserved":false,"is_disabled":false,"rental_uris":{"android":"levelo://app?vid=07dd918e-c0ab-45fd-a576-ecc2e14608be","ios":"levelo://app?vid=07dd918e-c0ab-45fd-a576-ecc2e14608be"},"vehicle_type_id":"4","last_reported":1704910162,"current_range_meters":30800,"station_id":"ce4bha92rcd13ifvqeh0","pricing_plan_id":"free"},{"bike_id":"281d1413-69fa-46e0-b68a-f11447c4f4cd","system_id":"levelo_inurba_marseille","lat":43.298694,"lon":5.388999,"is_reserved":false,"is_disabled":false,"rental_uris":{"android":"levelo://app?vid=281d1413-69fa-46e0-b68a-f11447c4f4cd","ios":"levelo://app?vid=281d1413-69fa-46e0-b68a-f11447c4f4cd"},"vehicle_type_id":"4","last_reported":1704910162,"current_range_meters":6400,"station_id":"","pricing_plan_id":"free"},{"bike_id":"f0060b7e-61a0-4273-8fca-e18a057637ce","system_id":"levelo_inurba_marseille","lat":43.298687,"lon":5.388992,"is_reserved":false,"is_disabled":false,"rental_uris":{"android":"levelo://app?vid=f0060b7e-61a0-4273-8fca-e18a057637ce","ios":"levelo://app?vid=f0060b7e-61a0-4273-8fca-e18a057637ce"},"vehicle_type_id":"4","last_reported":1704910162,"current_range_meters":25600,"station_id":"","pricing_plan_id":"free"},{"bike_id":"89ed8409-7d84-4f4a-9427-852b8a1c13d5","system_id":"levelo_inurba_marseille","lat":43.2987,"lon":5.38903,"is_reserved":false,"is_disabled":false,"rental_uris":{"android":"levelo://app?vid=89ed8409-7d84-4f4a-9427-852b8a1c13d5","ios":"levelo://app?vid=89ed8409-7d84-4f4a-9427-852b8a1c13d5"},"vehicle_type_id":"4","last_reported":1704910162,"current_range_meters":2000,"station_id":"","pricing_plan_id":"free"},{"bike_id":"f2c67a5a-4a68-404c-9ec3-f2ebbb4cbcc4","system_id":"levelo_inurba_marseille","lat":43.29872,"lon":5.38908,"is_reserved":false,"is_disabled":false,"rental_uris":{"android":"levelo://app?vid=f2c67a5a-4a68-404c-9ec3-f2ebbb4cbcc4","ios":"levelo://app?vid=f2c67a5a-4a68-404c-9ec3-f2ebbb4cbcc4"},"vehicle_type_id":"4","last_reported":1704910162,"current_range_meters":25600,"station_id":"","pricing_plan_id":"free"},{"bike_id":"af4660e3-c3e0-45c8-ae0f-8fcee40cc35d","system_id":"levelo_inurba_marseille","lat":43.291994,"lon":5.357886,"is_reserved":false,"is_disabled":false,"rental_uris":{"android":"levelo://app?vid=af4660e3-c3e0-45c8-ae0f-8fcee40cc35d","ios":"levelo://app?vid=af4660e3-c3e0-45c8-ae0f-8fcee40cc35d"},"vehicle_type_id":"4","last_reported":1704910162,"current_range_meters":12400,"station_id":"ce4bhb12rcd13ifvqel0","pricing_plan_id":"free"},{"bike_id":"5357271f-7a6a-4e56-a8a0-1d8c9f4be8e1","system_id":"levelo_inurba_marseille","lat":43.291994,"lon":5.357886,"is_reserved":false,"is_disabled":false,"rental_uris":{"android":"levelo://app?vid=5357271f-7a6a-4e56-a8a0-1d8c9f4be8e1","ios":"levelo://app?vid=5357271f-7a6a-4e56-a8a0-1d8c9f4be8e1"},"vehicle_type_id":"4","last_reported":1704910162,"current_range_meters":1600,"station_id":"ce4bhb12rcd13ifvqel0","pricing_plan_id":"free"},{"bike_id":"e5a5e215-cef9-4aea-8c86-c9fe9afba16c","system_id":"levelo_inurba_marseille","lat":43.291994,"lon":5.357886,"is_reserved":false,"is_disabled":false,"rental_uris":{"android":"levelo://app?vid=e5a5e215-cef9-4aea-8c86-c9fe9afba16c","ios":"levelo://app?vid=e5a5e215-cef9-4aea-8c86-c9fe9afba16c"},"vehicle_type_id":"4","last_reported":1704910162,"current_range_meters":18000,"station_id":"ce4bhb12rcd13ifvqel0","pricing_plan_id":"free"},{"bike_id":"1bcdf7ec-bc7d-4df2-9018-37c6d07f5be8","system_id":"levelo_inurba_marseille","lat":43.313291,"lon":5.396838,"is_reserved":false,"is_disabled":false,"rental_uris":{"android":"levelo://app?vid=1bcdf7ec-bc7d-4df2-9018-37c6d07f5be8","ios":"levelo://app?vid=1bcdf7ec-bc7d-4df2-9018-37c6d07f5be8"},"vehicle_type_id":"4","last_reported":1704910162,"current_range_meters":7600,"station_id":"ce4bgvp2rcd13ifvqcu0","pricing_plan_id":"free"},{"bike_id":"43e3c829-2deb-43ef-8b69-a848c378c386","system_id":"levelo_inurba_marseille","lat":43.313291,"lon":5.396838,"is_reserved":false,"is_disabled":false,"rental_uris":{"android":"levelo://app?vid=43e3c829-2deb-43ef-8b69-a848c378c386","ios":"levelo://app?vid=43e3c829-2deb-43ef-8b69-a848c378c386"},"vehicle_type_id":"4","last_reported":1704910162,"current_range_meters":23600,"station_id":"ce4bgvp2rcd13ifvqcu0","pricing_plan_id":"free"},{"bike_id":"01ac5db9-31fe-45fc-bbd8-7c35d2ccc61c","system_id":"levelo_inurba_marseille","lat":43.313291,"lon":5.396838,"is_reserved":false,"is_disabled":false,"rental_uris":{"android":"levelo://app?vid=01ac5db9-31fe-45fc-bbd8-7c35d2ccc61c","ios":"levelo://app?vid=01ac5db9-31fe-45fc-bbd8-7c35d2ccc61c"},"vehicle_type_id":"4","last_reported":1704910162,"current_range_meters":28000,"station_id":"ce4bgvp2rcd13ifvqcu0","pricing_plan_id":"free"},{"bike_id":"a1d5f712-efb2-440f-874b-e3402e931a4c","system_id":"levelo_inurba_marseille","lat":43.313291,"lon":5.396838,"is_reserved":false,"is_disabled":false,"rental_uris":{"android":"levelo://app?vid=a1d5f712-efb2-440f-874b-e3402e931a4c","ios":"levelo://app?vid=a1d5f712-efb2-440f-874b-e3402e931a4c"},"vehicle_type_id":"4","last_reported":1704910162,"current_range_meters":20800,"station_id":"ce4bgvp2rcd13ifvqcu0","pricing_plan_id":"free"},{"bike_id":"176d1df5-a38a-4d45-8b2f-d7656ca94d14","system_id":"levelo_inurba_marseille","lat":43.313291,"lon":5.396838,"is_reserved":false,"is_disabled":false,"rental_uris":{"android":"levelo://app?vid=176d1df5-a38a-4d45-8b2f-d7656ca94d14","ios":"levelo://app?vid=176d1df5-a38a-4d45-8b2f-d7656ca94d14"},"vehicle_type_id":"4","last_reported":1704910162,"current_range_meters":30000,"station_id":"ce4bgvp2rcd13ifvqcu0","pricing_plan_id":"free"},{"bike_id":"11b3a9f1-5982-4202-b242-87436ebf16e5","system_id":"levelo_inurba_marseille","lat":43.295339,"lon":5.385346,"is_reserved":false,"is_disabled":false,"rental_uris":{"android":"levelo://app?vid=11b3a9f1-5982-4202-b242-87436ebf16e5","ios":"levelo://app?vid=11b3a9f1-5982-4202-b242-87436ebf16e5"},"vehicle_type_id":"4","last_reported":1704910162,"current_range_meters":20800,"station_id":"ce4bgih2rcd13ifvqba0","pricing_plan_id":"free"},{"bike_id":"c2e951d6-13b4-4ce1-b82b-4bcd4a7cbf40","system_id":"levelo_inurba_marseille","lat":43.29536,"lon":5.3854,"is_reserved":false,"is_disabled":false,"rental_uris":{"android":"levelo://app?vid=c2e951d6-13b4-4ce1-b82b-4bcd4a7cbf40","ios":"levelo://app?vid=c2e951d6-13b4-4ce1-b82b-4bcd4a7cbf40"},"vehicle_type_id":"4","last_reported":1704910162,"current_range_meters":12000,"station_id":"ce4bgih2rcd13ifvqba0","pricing_plan_id":"free"},{"bike_id":"b9470094-4555-4f89-9bb3-8b648ab442a3","system_id":"levelo_inurba_marseille","lat":43.295376,"lon":5.385495,"is_reserved":false,"is_disabled":false,"rental_uris":{"android":"levelo://app?vid=b9470094-4555-4f89-9bb3-8b648ab442a3","ios":"levelo://app?vid=b9470094-4555-4f89-9bb3-8b648ab442a3"},"vehicle_type_id":"4","last_reported":1704910162,"current_range_meters":13200,"station_id":"","pricing_plan_id":"free"},{"bike_id":"5f170b87-c1c7-4f81-b93e-3bcb5dfa7cd2","system_id":"levelo_inurba_marseille","lat":43.295338,"lon":5.385442,"is_reserved":false,"is_disabled":false,"rental_uris":{"android":"levelo://app?vid=5f170b87-c1c7-4f81-b93e-3bcb5dfa7cd2","ios":"levelo://app?vid=5f170b87-c1c7-4f81-b93e-3bcb5dfa7cd2"},"vehicle_type_id":"4","last_reported":1704910162,"current_range_meters":0,"station_id":"ce4bgih2rcd13ifvqba0","pricing_plan_id":"free"},{"bike_id":"ca1698a2-130e-4af9-8d23-46942a7e5340","system_id":"levelo_inurba_marseille","lat":43.302008,"lon":5.394694,"is_reserved":false,"is_disabled":false,"rental_uris":{"android":"levelo://app?vid=ca1698a2-130e-4af9-8d23-46942a7e5340","ios":"levelo://app?vid=ca1698a2-130e-4af9-8d23-46942a7e5340"},"vehicle_type_id":"4","last_reported":1704910162,"current_range_meters":15200,"station_id":"ce4bh0p2rcd13ifvqd70","pricing_plan_id":"free"},{"bike_id":"95270d84-2d51-4e37-bbe1-677ecf18dff3","system_id":"levelo_inurba_marseille","lat":43.302008,"lon":5.394694,"is_reserved":false,"is_disabled":false,"rental_uris":{"android":"levelo://app?vid=95270d84-2d51-4e37-bbe1-677ecf18dff3","ios":"levelo://app?vid=95270d84-2d51-4e37-bbe1-677ecf18dff3"},"vehicle_type_id":"4","last_reported":1704910162,"current_range_meters":2800,"station_id":"ce4bh0p2rcd13ifvqd70","pricing_plan_id":"free"},{"bike_id":"2b2715ef-68cd-44da-b2e4-1f24844280be","system_id":"levelo_inurba_marseille","lat":43.290631,"lon":5.359244,"is_reserved":false,"is_disabled":false,"rental_uris":{"android":"levelo://app?vid=2b2715ef-68cd-44da-b2e4-1f24844280be","ios":"levelo://app?vid=2b2715ef-68cd-44da-b2e4-1f24844280be"},"vehicle_type_id":"4","last_reported":1704910162,"current_range_meters":19200,"station_id":"ce4bha92rcd13ifvqeg0","pricing_plan_id":"free"},{"bike_id":"6a00b293-4f12-4ce8-9e93-b6bde95ae43b","system_id":"levelo_inurba_marseille","lat":43.2916,"lon":5.37911,"is_reserved":false,"is_disabled":false,"rental_uris":{"android":"levelo://app?vid=6a00b293-4f12-4ce8-9e93-b6bde95ae43b","ios":"levelo://app?vid=6a00b293-4f12-4ce8-9e93-b6bde95ae43b"},"vehicle_type_id":"4","last_reported":1704910162,"current_range_meters":800,"station_id":"","pricing_plan_id":"free"},{"bike_id":"c5a4bf93-58dc-46f5-8dba-4acbda88ae0b","system_id":"levelo_inurba_marseille","lat":43.29047,"lon":5.35921,"is_reserved":false,"is_disabled":false,"rental_uris":{"android":"levelo://app?vid=c5a4bf93-58dc-46f5-8dba-4acbda88ae0b","ios":"levelo://app?vid=c5a4bf93-58dc-46f5-8dba-4acbda88ae0b"},"vehicle_type_id":"4","last_reported":1704910162,"current_range_meters":0,"station_id":"ce4bha92rcd13ifvqeg0","pricing_plan_id":"free"},{"bike_id":"b2ceffae-de81-4444-b8f7-b6c988196f03","system_id":"levelo_inurba_marseille","lat":43.294153,"lon":5.386305,"is_reserved":false,"is_disabled":false,"rental_uris":{"android":"levelo://app?vid=b2ceffae-de81-4444-b8f7-b6c988196f03","ios":"levelo://app?vid=b2ceffae-de81-4444-b8f7-b6c988196f03"},"vehicle_type_id":"4","last_reported":1704910162,"current_range_meters":9600,"station_id":"ce4bh2h2rcd13ifvqdh0","pricing_plan_id":"free"},{"bike_id":"7d18e6b4-372c-492d-806b-6e1ee7baf4d0","system_id":"levelo_inurba_marseille","lat":43.294153,"lon":5.386305,"is_reserved":false,"is_disabled":false,"rental_uris":{"android":"levelo://app?vid=7d18e6b4-372c-492d-806b-6e1ee7baf4d0","ios":"levelo://app?vid=7d18e6b4-372c-492d-806b-6e1ee7baf4d0"},"vehicle_type_id":"4","last_reported":1704910162,"current_range_meters":26000,"station_id":"ce4bh2h2rcd13ifvqdh0","pricing_plan_id":"free"},{"bike_id":"fd859e14-f6cf-4479-bad4-aabd55efd40b","system_id":"levelo_inurba_marseille","lat":43.294162,"lon":5.386292,"is_reserved":false,"is_disabled":false,"rental_uris":{"android":"levelo://app?vid=fd859e14-f6cf-4479-bad4-aabd55efd40b","ios":"levelo://app?vid=fd859e14-f6cf-4479-bad4-aabd55efd40b"},"vehicle_type_id":"4","last_reported":1704910162,"current_range_meters":20800,"station_id":"ce4bh2h2rcd13ifvqdh0","pricing_plan_id":"free"},{"bike_id":"ce95a6d9-34c5-4f4b-bac0-9cb58e192a2a","system_id":"levelo_inurba_marseille","lat":43.294153,"lon":5.386305,"is_reserved":false,"is_disabled":false,"rental_uris":{"android":"levelo://app?vid=ce95a6d9-34c5-4f4b-bac0-9cb58e192a2a","ios":"levelo://app?vid=ce95a6d9-34c5-4f4b-bac0-9cb58e192a2a"},"vehicle_type_id":"4","last_reported":1704910162,"current_range_meters":12000,"station_id":"ce4bh2h2rcd13ifvqdh0","pricing_plan_id":"free"},{"bike_id":"eaaa8de4-5f35-4099-9a4d-b5176cc0d1d1","system_id":"levelo_inurba_marseille","lat":43.294153,"lon":5.386305,"is_reserved":false,"is_disabled":false,"rental_uris":{"android":"levelo://app?vid=eaaa8de4-5f35-4099-9a4d-b5176cc0d1d1","ios":"levelo://app?vid=eaaa8de4-5f35-4099-9a4d-b5176cc0d1d1"},"vehicle_type_id":"4","last_reported":1704910162,"current_range_meters":0,"station_id":"ce4bh2h2rcd13ifvqdh0","pricing_plan_id":"free"},{"bike_id":"1780c3e0-400d-46de-a398-0bf6995cf452","system_id":"levelo_inurba_marseille","lat":43.294162,"lon":5.386292,"is_reserved":false,"is_disabled":false,"rental_uris":{"android":"levelo://app?vid=1780c3e0-400d-46de-a398-0bf6995cf452","ios":"levelo://app?vid=1780c3e0-400d-46de-a398-0bf6995cf452"},"vehicle_type_id":"4","last_reported":1704910162,"current_range_meters":23200,"station_id":"ce4bh2h2rcd13ifvqdh0","pricing_plan_id":"free"},{"bike_id":"ad069caf-0db6-481d-a0ee-530b7015e59c","system_id":"levelo_inurba_marseille","lat":43.289184,"lon":5.366408,"is_reserved":false,"is_disabled":false,"rental_uris":{"android":"levelo://app?vid=ad069caf-0db6-481d-a0ee-530b7015e59c","ios":"levelo://app?vid=ad069caf-0db6-481d-a0ee-530b7015e59c"},"vehicle_type_id":"4","last_reported":1704910162,"current_range_meters":15200,"station_id":"ce4bhap2rcd13ifvqek0","pricing_plan_id":"free"},{"bike_id":"da22ea9d-0eb0-4a01-97c2-e4ccf060ed7a","system_id":"levelo_inurba_marseille","lat":43.289184,"lon":5.366408,"is_reserved":false,"is_disabled":false,"rental_uris":{"android":"levelo://app?vid=da22ea9d-0eb0-4a01-97c2-e4ccf060ed7a","ios":"levelo://app?vid=da22ea9d-0eb0-4a01-97c2-e4ccf060ed7a"},"vehicle_type_id":"4","last_reported":1704910162,"current_range_meters":28800,"station_id":"ce4bhap2rcd13ifvqek0","pricing_plan_id":"free"},{"bike_id":"81879d6a-a6fb-46a8-ba55-14a52db4cca1","system_id":"levelo_inurba_marseille","lat":43.289468,"lon":5.363719,"is_reserved":false,"is_disabled":false,"rental_uris":{"android":"levelo://app?vid=81879d6a-a6fb-46a8-ba55-14a52db4cca1","ios":"levelo://app?vid=81879d6a-a6fb-46a8-ba55-14a52db4cca1"},"vehicle_type_id":"4","last_reported":1704910162,"current_range_meters":27200,"station_id":"ce4bhc92rcd13ifvqetg","pricing_plan_id":"free"},{"bike_id":"54d4cfad-9904-44df-bff7-630b644068c5","system_id":"levelo_inurba_marseille","lat":43.292644,"lon":5.384257,"is_reserved":false,"is_disabled":false,"rental_uris":{"android":"levelo://app?vid=54d4cfad-9904-44df-bff7-630b644068c5","ios":"levelo://app?vid=54d4cfad-9904-44df-bff7-630b644068c5"},"vehicle_type_id":"4","last_reported":1704910162,"current_range_meters":27200,"station_id":"ce4bh692rcd13ifvqea0","pricing_plan_id":"free"},{"bike_id":"8a0fe49d-842b-4277-bef2-6f60aef3931a","system_id":"levelo_inurba_marseille","lat":43.292644,"lon":5.384257,"is_reserved":false,"is_disabled":false,"rental_uris":{"android":"levelo://app?vid=8a0fe49d-842b-4277-bef2-6f60aef3931a","ios":"levelo://app?vid=8a0fe49d-842b-4277-bef2-6f60aef3931a"},"vehicle_type_id":"4","last_reported":1704910162,"current_range_meters":2800,"station_id":"ce4bh692rcd13ifvqea0","pricing_plan_id":"free"},{"bike_id":"4143e9f4-05dd-482b-8aa5-c1a8aff6de3f","system_id":"levelo_inurba_marseille","lat":43.292644,"lon":5.384257,"is_reserved":false,"is_disabled":false,"rental_uris":{"android":"levelo://app?vid=4143e9f4-05dd-482b-8aa5-c1a8aff6de3f","ios":"levelo://app?vid=4143e9f4-05dd-482b-8aa5-c1a8aff6de3f"},"vehicle_type_id":"4","last_reported":1704910162,"current_range_meters":22000,"station_id":"ce4bh692rcd13ifvqea0","pricing_plan_id":"free"},{"bike_id":"e6548404-cec0-44f0-b755-2c1aa93c47e7","system_id":"levelo_inurba_marseille","lat":43.292642,"lon":5.384254,"is_reserved":false,"is_disabled":false,"rental_uris":{"android":"levelo://app?vid=e6548404-cec0-44f0-b755-2c1aa93c47e7","ios":"levelo://app?vid=e6548404-cec0-44f0-b755-2c1aa93c47e7"},"vehicle_type_id":"4","last_reported":1704910162,"current_range_meters":2000,"station_id":"ce4bh692rcd13ifvqea0","pricing_plan_id":"free"},{"bike_id":"2d194559-a062-4abd-9c3b-b9f2d9bf6b7f","system_id":"levelo_inurba_marseille","lat":43.292642,"lon":5.384254,"is_reserved":false,"is_disabled":false,"rental_uris":{"android":"levelo://app?vid=2d194559-a062-4abd-9c3b-b9f2d9bf6b7f","ios":"levelo://app?vid=2d194559-a062-4abd-9c3b-b9f2d9bf6b7f"},"vehicle_type_id":"4","last_reported":1704910162,"current_range_meters":24400,"station_id":"ce4bh692rcd13ifvqea0","pricing_plan_id":"free"},{"bike_id":"da48654d-c6e6-4d8e-9713-1c6432f187bf","system_id":"levelo_inurba_marseille","lat":43.292642,"lon":5.384254,"is_reserved":false,"is_disabled":false,"rental_uris":{"android":"levelo://app?vid=da48654d-c6e6-4d8e-9713-1c6432f187bf","ios":"levelo://app?vid=da48654d-c6e6-4d8e-9713-1c6432f187bf"},"vehicle_type_id":"4","last_reported":1704910162,"current_range_meters":1600,"station_id":"ce4bh692rcd13ifvqea0","pricing_plan_id":"free"},{"bike_id":"391cb972-4219-4dea-b5b1-45914012c3d5","system_id":"levelo_inurba_marseille","lat":43.292644,"lon":5.384257,"is_reserved":false,"is_disabled":false,"rental_uris":{"android":"levelo://app?vid=391cb972-4219-4dea-b5b1-45914012c3d5","ios":"levelo://app?vid=391cb972-4219-4dea-b5b1-45914012c3d5"},"vehicle_type_id":"4","last_reported":1704910162,"current_range_meters":6400,"station_id":"ce4bh692rcd13ifvqea0","pricing_plan_id":"free"},{"bike_id":"b939be40-c9de-487e-898b-577e735f93c7","system_id":"levelo_inurba_marseille","lat":43.290995,"lon":5.381361,"is_reserved":false,"is_disabled":false,"rental_uris":{"android":"levelo://app?vid=b939be40-c9de-487e-898b-577e735f93c7","ios":"levelo://app?vid=b939be40-c9de-487e-898b-577e735f93c7"},"vehicle_type_id":"4","last_reported":1704910162,"current_range_meters":27200,"station_id":"ce4bh512rcd13ifvqe2g","pricing_plan_id":"free"},{"bike_id":"8a0bba71-75d1-42e3-b09a-db00253b0235","system_id":"levelo_inurba_marseille","lat":43.290104,"lon":5.356111,"is_reserved":false,"is_disabled":false,"rental_uris":{"android":"levelo://app?vid=8a0bba71-75d1-42e3-b09a-db00253b0235","ios":"levelo://app?vid=8a0bba71-75d1-42e3-b09a-db00253b0235"},"vehicle_type_id":"4","last_reported":1704910162,"current_range_meters":30400,"station_id":"ce4bhb92rcd13ifvqen0","pricing_plan_id":"free"},{"bike_id":"c8dfd4e1-b8a2-4a47-81f8-65e2d2497f1d","system_id":"levelo_inurba_marseille","lat":43.33022,"lon":5.3903,"is_reserved":false,"is_disabled":false,"rental_uris":{"android":"levelo://app?vid=c8dfd4e1-b8a2-4a47-81f8-65e2d2497f1d","ios":"levelo://app?vid=c8dfd4e1-b8a2-4a47-81f8-65e2d2497f1d"},"vehicle_type_id":"4","last_reported":1704910162,"current_range_meters":30400,"station_id":"","pricing_plan_id":"free"},{"bike_id":"520458b0-1a86-4beb-9ebe-fe33d34c7309","system_id":"levelo_inurba_marseille","lat":43.297815,"lon":5.393548,"is_reserved":false,"is_disabled":false,"rental_uris":{"android":"levelo://app?vid=520458b0-1a86-4beb-9ebe-fe33d34c7309","ios":"levelo://app?vid=520458b0-1a86-4beb-9ebe-fe33d34c7309"},"vehicle_type_id":"4","last_reported":1704910162,"current_range_meters":15200,"station_id":"chh1huq6cuj3fo74tm60","pricing_plan_id":"free"},{"bike_id":"4d3c7795-3af4-43cc-91d4-59a272daa4cb","system_id":"levelo_inurba_marseille","lat":43.304519,"lon":5.398501,"is_reserved":false,"is_disabled":false,"rental_uris":{"android":"levelo://app?vid=4d3c7795-3af4-43cc-91d4-59a272daa4cb","ios":"levelo://app?vid=4d3c7795-3af4-43cc-91d4-59a272daa4cb"},"vehicle_type_id":"4","last_reported":1704910162,"current_range_meters":0,"station_id":"","pricing_plan_id":"free"},{"bike_id":"d59ac3d8-4b92-49f1-9485-d1300ed56a73","system_id":"levelo_inurba_marseille","lat":43.28975,"lon":5.37833,"is_reserved":false,"is_disabled":false,"rental_uris":{"android":"levelo://app?vid=d59ac3d8-4b92-49f1-9485-d1300ed56a73","ios":"levelo://app?vid=d59ac3d8-4b92-49f1-9485-d1300ed56a73"},"vehicle_type_id":"4","last_reported":1704910162,"current_range_meters":15200,"station_id":"","pricing_plan_id":"free"},{"bike_id":"a613713b-271d-4f87-aeda-3da3a6fccbd5","system_id":"levelo_inurba_marseille","lat":43.289743,"lon":5.378304,"is_reserved":false,"is_disabled":false,"rental_uris":{"android":"levelo://app?vid=a613713b-271d-4f87-aeda-3da3a6fccbd5","ios":"levelo://app?vid=a613713b-271d-4f87-aeda-3da3a6fccbd5"},"vehicle_type_id":"4","last_reported":1704910162,"current_range_meters":5600,"station_id":"ce4bh9p2rcd13ifvqed0","pricing_plan_id":"free"},{"bike_id":"b4b1d330-9cae-432f-bbe4-7ca5957c66dd","system_id":"levelo_inurba_marseille","lat":43.33026,"lon":5.39036,"is_reserved":false,"is_disabled":false,"rental_uris":{"android":"levelo://app?vid=b4b1d330-9cae-432f-bbe4-7ca5957c66dd","ios":"levelo://app?vid=b4b1d330-9cae-432f-bbe4-7ca5957c66dd"},"vehicle_type_id":"4","last_reported":1704910162,"current_range_meters":18000,"station_id":"","pricing_plan_id":"free"},{"bike_id":"29877edf-f914-4818-a395-be7aee9e9d72","system_id":"levelo_inurba_marseille","lat":43.33023,"lon":5.39043,"is_reserved":false,"is_disabled":false,"rental_uris":{"android":"levelo://app?vid=29877edf-f914-4818-a395-be7aee9e9d72","ios":"levelo://app?vid=29877edf-f914-4818-a395-be7aee9e9d72"},"vehicle_type_id":"4","last_reported":1704910162,"current_range_meters":24400,"station_id":"","pricing_plan_id":"free"},{"bike_id":"e7dcaaa9-cc06-45af-bfbd-9ecd35e01aae","system_id":"levelo_inurba_marseille","lat":43.33024,"lon":5.39043,"is_reserved":false,"is_disabled":false,"rental_uris":{"android":"levelo://app?vid=e7dcaaa9-cc06-45af-bfbd-9ecd35e01aae","ios":"levelo://app?vid=e7dcaaa9-cc06-45af-bfbd-9ecd35e01aae"},"vehicle_type_id":"4","last_reported":1704910162,"current_range_meters":17600,"station_id":"","pricing_plan_id":"free"},{"bike_id":"9e974ddc-6b26-4d31-9215-5528874791a0","system_id":"levelo_inurba_marseille","lat":43.28811,"lon":5.36519,"is_reserved":false,"is_disabled":false,"rental_uris":{"android":"levelo://app?vid=9e974ddc-6b26-4d31-9215-5528874791a0","ios":"levelo://app?vid=9e974ddc-6b26-4d31-9215-5528874791a0"},"vehicle_type_id":"4","last_reported":1704910162,"current_range_meters":26800,"station_id":"ce4bhah2rcd13ifvqei0","pricing_plan_id":"free"},{"bike_id":"46683f3b-7d4a-4105-9c41-6ddaed8b1d98","system_id":"levelo_inurba_marseille","lat":43.2901,"lon":5.381269,"is_reserved":false,"is_disabled":false,"rental_uris":{"android":"levelo://app?vid=46683f3b-7d4a-4105-9c41-6ddaed8b1d98","ios":"levelo://app?vid=46683f3b-7d4a-4105-9c41-6ddaed8b1d98"},"vehicle_type_id":"4","last_reported":1704910162,"current_range_meters":22000,"station_id":"ce4bh4p2rcd13ifvqe1g","pricing_plan_id":"free"},{"bike_id":"f53e11de-80cd-41e2-8e95-8aee0f13f985","system_id":"levelo_inurba_marseille","lat":43.28856,"lon":5.358371,"is_reserved":false,"is_disabled":false,"rental_uris":{"android":"levelo://app?vid=f53e11de-80cd-41e2-8e95-8aee0f13f985","ios":"levelo://app?vid=f53e11de-80cd-41e2-8e95-8aee0f13f985"},"vehicle_type_id":"4","last_reported":1704910162,"current_range_meters":14000,"station_id":"ce4bhb12rcd13ifvqem0","pricing_plan_id":"free"},{"bike_id":"d50b2aa8-07e2-4717-9518-67d926a1486d","system_id":"levelo_inurba_marseille","lat":43.28856,"lon":5.358371,"is_reserved":false,"is_disabled":false,"rental_uris":{"android":"levelo://app?vid=d50b2aa8-07e2-4717-9518-67d926a1486d","ios":"levelo://app?vid=d50b2aa8-07e2-4717-9518-67d926a1486d"},"vehicle_type_id":"4","last_reported":1704910162,"current_range_meters":28000,"station_id":"ce4bhb12rcd13ifvqem0","pricing_plan_id":"free"},{"bike_id":"0ecda9cd-640a-4f58-9515-73a4eabfed51","system_id":"levelo_inurba_marseille","lat":43.28856,"lon":5.358371,"is_reserved":false,"is_disabled":false,"rental_uris":{"android":"levelo://app?vid=0ecda9cd-640a-4f58-9515-73a4eabfed51","ios":"levelo://app?vid=0ecda9cd-640a-4f58-9515-73a4eabfed51"},"vehicle_type_id":"4","last_reported":1704910162,"current_range_meters":16400,"station_id":"ce4bhb12rcd13ifvqem0","pricing_plan_id":"free"},{"bike_id":"09bde4c7-0487-4e86-9b9b-fcbfa4e741f7","system_id":"levelo_inurba_marseille","lat":43.28856,"lon":5.358371,"is_reserved":false,"is_disabled":false,"rental_uris":{"android":"levelo://app?vid=09bde4c7-0487-4e86-9b9b-fcbfa4e741f7","ios":"levelo://app?vid=09bde4c7-0487-4e86-9b9b-fcbfa4e741f7"},"vehicle_type_id":"4","last_reported":1704910162,"current_range_meters":16400,"station_id":"ce4bhb12rcd13ifvqem0","pricing_plan_id":"free"},{"bike_id":"ba725be5-db68-43e0-8ff5-60a02c88fa02","system_id":"levelo_inurba_marseille","lat":43.28856,"lon":5.358371,"is_reserved":false,"is_disabled":false,"rental_uris":{"android":"levelo://app?vid=ba725be5-db68-43e0-8ff5-60a02c88fa02","ios":"levelo://app?vid=ba725be5-db68-43e0-8ff5-60a02c88fa02"},"vehicle_type_id":"4","last_reported":1704910162,"current_range_meters":4000,"station_id":"ce4bhb12rcd13ifvqem0","pricing_plan_id":"free"},{"bike_id":"4c54f7a5-7474-4c47-9e5c-56de5d3403f2","system_id":"levelo_inurba_marseille","lat":43.309371,"lon":5.401449,"is_reserved":false,"is_disabled":false,"rental_uris":{"android":"levelo://app?vid=4c54f7a5-7474-4c47-9e5c-56de5d3403f2","ios":"levelo://app?vid=4c54f7a5-7474-4c47-9e5c-56de5d3403f2"},"vehicle_type_id":"4","last_reported":1704910162,"current_range_meters":16400,"station_id":"ce4bgvp2rcd13ifvqct0","pricing_plan_id":"free"},{"bike_id":"28581eac-d980-43fc-bc1d-8f1ce1ddfc02","system_id":"levelo_inurba_marseille","lat":43.29649,"lon":5.39355,"is_reserved":false,"is_disabled":false,"rental_uris":{"android":"levelo://app?vid=28581eac-d980-43fc-bc1d-8f1ce1ddfc02","ios":"levelo://app?vid=28581eac-d980-43fc-bc1d-8f1ce1ddfc02"},"vehicle_type_id":"4","last_reported":1704910162,"current_range_meters":16800,"station_id":"chh1huq6cuj3fo74tm60","pricing_plan_id":"free"},{"bike_id":"15ea7858-b2ed-4d73-b95a-779a48b45d34","system_id":"levelo_inurba_marseille","lat":43.312609,"lon":5.401662,"is_reserved":false,"is_disabled":false,"rental_uris":{"android":"levelo://app?vid=15ea7858-b2ed-4d73-b95a-779a48b45d34","ios":"levelo://app?vid=15ea7858-b2ed-4d73-b95a-779a48b45d34"},"vehicle_type_id":"4","last_reported":1704910162,"current_range_meters":21600,"station_id":"ce4bh092rcd13ifvqd30","pricing_plan_id":"free"},{"bike_id":"1e62331d-162c-4381-8fb5-53a0e05503c3","system_id":"levelo_inurba_marseille","lat":43.30941,"lon":5.40142,"is_reserved":false,"is_disabled":false,"rental_uris":{"android":"levelo://app?vid=1e62331d-162c-4381-8fb5-53a0e05503c3","ios":"levelo://app?vid=1e62331d-162c-4381-8fb5-53a0e05503c3"},"vehicle_type_id":"4","last_reported":1704910162,"current_range_meters":26400,"station_id":"ce4bgvp2rcd13ifvqct0","pricing_plan_id":"free"},{"bike_id":"5f410e78-3c92-4fff-ae13-c2f7552589b3","system_id":"levelo_inurba_marseille","lat":43.309371,"lon":5.401449,"is_reserved":false,"is_disabled":false,"rental_uris":{"android":"levelo://app?vid=5f410e78-3c92-4fff-ae13-c2f7552589b3","ios":"levelo://app?vid=5f410e78-3c92-4fff-ae13-c2f7552589b3"},"vehicle_type_id":"4","last_reported":1704910162,"current_range_meters":22000,"station_id":"ce4bgvp2rcd13ifvqct0","pricing_plan_id":"free"},{"bike_id":"e6b414c9-54ac-4a4b-905d-e8b009155f7d","system_id":"levelo_inurba_marseille","lat":43.33747,"lon":5.37448,"is_reserved":false,"is_disabled":false,"rental_uris":{"android":"levelo://app?vid=e6b414c9-54ac-4a4b-905d-e8b009155f7d","ios":"levelo://app?vid=e6b414c9-54ac-4a4b-905d-e8b009155f7d"},"vehicle_type_id":"4","last_reported":1704910162,"current_range_meters":27600,"station_id":"","pricing_plan_id":"free"},{"bike_id":"72728aa1-17ce-43fd-a168-4bafd97f0ce8","system_id":"levelo_inurba_marseille","lat":43.309371,"lon":5.401449,"is_reserved":false,"is_disabled":false,"rental_uris":{"android":"levelo://app?vid=72728aa1-17ce-43fd-a168-4bafd97f0ce8","ios":"levelo://app?vid=72728aa1-17ce-43fd-a168-4bafd97f0ce8"},"vehicle_type_id":"4","last_reported":1704910162,"current_range_meters":12800,"station_id":"ce4bgvp2rcd13ifvqct0","pricing_plan_id":"free"},{"bike_id":"64aa8de2-e219-47eb-bc12-df867da2f2ae","system_id":"levelo_inurba_marseille","lat":43.30933,"lon":5.40145,"is_reserved":false,"is_disabled":false,"rental_uris":{"android":"levelo://app?vid=64aa8de2-e219-47eb-bc12-df867da2f2ae","ios":"levelo://app?vid=64aa8de2-e219-47eb-bc12-df867da2f2ae"},"vehicle_type_id":"4","last_reported":1704910162,"current_range_meters":0,"station_id":"ce4bgvp2rcd13ifvqct0","pricing_plan_id":"free"},{"bike_id":"f481ef2c-f442-421b-be8c-fb1c4d039a61","system_id":"levelo_inurba_marseille","lat":43.309371,"lon":5.401449,"is_reserved":false,"is_disabled":false,"rental_uris":{"android":"levelo://app?vid=f481ef2c-f442-421b-be8c-fb1c4d039a61","ios":"levelo://app?vid=f481ef2c-f442-421b-be8c-fb1c4d039a61"},"vehicle_type_id":"4","last_reported":1704910162,"current_range_meters":9600,"station_id":"ce4bgvp2rcd13ifvqct0","pricing_plan_id":"free"},{"bike_id":"d977fa02-4383-45bb-b005-e18c525e392a","system_id":"levelo_inurba_marseille","lat":43.33755,"lon":5.37442,"is_reserved":false,"is_disabled":false,"rental_uris":{"android":"levelo://app?vid=d977fa02-4383-45bb-b005-e18c525e392a","ios":"levelo://app?vid=d977fa02-4383-45bb-b005-e18c525e392a"},"vehicle_type_id":"4","last_reported":1704910162,"current_range_meters":26800,"station_id":"","pricing_plan_id":"free"},{"bike_id":"e26f5fa6-65cc-4a77-9966-56e01f6d401a","system_id":"levelo_inurba_marseille","lat":43.30656,"lon":5.40094,"is_reserved":false,"is_disabled":false,"rental_uris":{"android":"levelo://app?vid=e26f5fa6-65cc-4a77-9966-56e01f6d401a","ios":"levelo://app?vid=e26f5fa6-65cc-4a77-9966-56e01f6d401a"},"vehicle_type_id":"4","last_reported":1704910162,"current_range_meters":27200,"station_id":"ce4bh112rcd13ifvqda0","pricing_plan_id":"free"},{"bike_id":"2cbff3de-6fd1-45da-8e60-c33d018a0e0a","system_id":"levelo_inurba_marseille","lat":43.306412,"lon":5.401035,"is_reserved":false,"is_disabled":false,"rental_uris":{"android":"levelo://app?vid=2cbff3de-6fd1-45da-8e60-c33d018a0e0a","ios":"levelo://app?vid=2cbff3de-6fd1-45da-8e60-c33d018a0e0a"},"vehicle_type_id":"4","last_reported":1704910162,"current_range_meters":31200,"station_id":"ce4bh112rcd13ifvqda0","pricing_plan_id":"free"},{"bike_id":"126232d6-4e82-46b1-b491-1faf04e2b7ac","system_id":"levelo_inurba_marseille","lat":43.301117,"lon":5.398795,"is_reserved":false,"is_disabled":false,"rental_uris":{"android":"levelo://app?vid=126232d6-4e82-46b1-b491-1faf04e2b7ac","ios":"levelo://app?vid=126232d6-4e82-46b1-b491-1faf04e2b7ac"},"vehicle_type_id":"4","last_reported":1704910162,"current_range_meters":31600,"station_id":"ce4bh0h2rcd13ifvqd40","pricing_plan_id":"free"},{"bike_id":"23a52391-6c74-46a5-8df1-437f7326e8cb","system_id":"levelo_inurba_marseille","lat":43.30139,"lon":5.39876,"is_reserved":false,"is_disabled":false,"rental_uris":{"android":"levelo://app?vid=23a52391-6c74-46a5-8df1-437f7326e8cb","ios":"levelo://app?vid=23a52391-6c74-46a5-8df1-437f7326e8cb"},"vehicle_type_id":"4","last_reported":1704910162,"current_range_meters":11200,"station_id":"ce4bh0h2rcd13ifvqd40","pricing_plan_id":"free"},{"bike_id":"01c8864e-6762-4d75-b79e-36a425e25bef","system_id":"levelo_inurba_marseille","lat":43.301117,"lon":5.398795,"is_reserved":false,"is_disabled":false,"rental_uris":{"android":"levelo://app?vid=01c8864e-6762-4d75-b79e-36a425e25bef","ios":"levelo://app?vid=01c8864e-6762-4d75-b79e-36a425e25bef"},"vehicle_type_id":"4","last_reported":1704910162,"current_range_meters":0,"station_id":"ce4bh0h2rcd13ifvqd40","pricing_plan_id":"free"},{"bike_id":"73c6a29a-5703-4785-b199-43be71b43eb0","system_id":"levelo_inurba_marseille","lat":43.28727,"lon":5.36078,"is_reserved":false,"is_disabled":false,"rental_uris":{"android":"levelo://app?vid=73c6a29a-5703-4785-b199-43be71b43eb0","ios":"levelo://app?vid=73c6a29a-5703-4785-b199-43be71b43eb0"},"vehicle_type_id":"4","last_reported":1704910162,"current_range_meters":0,"station_id":"cki0cbj6b192h4jlfktg","pricing_plan_id":"free"},{"bike_id":"f816511f-4333-47e0-96cd-49d5ae266af3","system_id":"levelo_inurba_marseille","lat":43.28727,"lon":5.36078,"is_reserved":false,"is_disabled":false,"rental_uris":{"android":"levelo://app?vid=f816511f-4333-47e0-96cd-49d5ae266af3","ios":"levelo://app?vid=f816511f-4333-47e0-96cd-49d5ae266af3"},"vehicle_type_id":"4","last_reported":1704910162,"current_range_meters":24400,"station_id":"cki0cbj6b192h4jlfktg","pricing_plan_id":"free"},{"bike_id":"9251ba89-8469-4e7d-9d25-c5c7d4e68fb0","system_id":"levelo_inurba_marseille","lat":43.287266,"lon":5.360808,"is_reserved":false,"is_disabled":false,"rental_uris":{"android":"levelo://app?vid=9251ba89-8469-4e7d-9d25-c5c7d4e68fb0","ios":"levelo://app?vid=9251ba89-8469-4e7d-9d25-c5c7d4e68fb0"},"vehicle_type_id":"4","last_reported":1704910162,"current_range_meters":14000,"station_id":"cki0cbj6b192h4jlfktg","pricing_plan_id":"free"},{"bike_id":"9a073bc4-b367-4e43-bb76-115086445da8","system_id":"levelo_inurba_marseille","lat":43.28727,"lon":5.36078,"is_reserved":false,"is_disabled":false,"rental_uris":{"android":"levelo://app?vid=9a073bc4-b367-4e43-bb76-115086445da8","ios":"levelo://app?vid=9a073bc4-b367-4e43-bb76-115086445da8"},"vehicle_type_id":"4","last_reported":1704910162,"current_range_meters":31200,"station_id":"cki0cbj6b192h4jlfktg","pricing_plan_id":"free"},{"bike_id":"30788206-b931-4dc3-99ab-9953653bbfe0","system_id":"levelo_inurba_marseille","lat":43.28727,"lon":5.36078,"is_reserved":false,"is_disabled":false,"rental_uris":{"android":"levelo://app?vid=30788206-b931-4dc3-99ab-9953653bbfe0","ios":"levelo://app?vid=30788206-b931-4dc3-99ab-9953653bbfe0"},"vehicle_type_id":"4","last_reported":1704910162,"current_range_meters":24800,"station_id":"cki0cbj6b192h4jlfktg","pricing_plan_id":"free"},{"bike_id":"198ec283-f431-42f1-9b2a-27d6dcf78b01","system_id":"levelo_inurba_marseille","lat":43.301117,"lon":5.398795,"is_reserved":false,"is_disabled":false,"rental_uris":{"android":"levelo://app?vid=198ec283-f431-42f1-9b2a-27d6dcf78b01","ios":"levelo://app?vid=198ec283-f431-42f1-9b2a-27d6dcf78b01"},"vehicle_type_id":"4","last_reported":1704910162,"current_range_meters":0,"station_id":"ce4bh0h2rcd13ifvqd40","pricing_plan_id":"free"},{"bike_id":"f3682688-b079-4f02-8c11-8db7ac98b34e","system_id":"levelo_inurba_marseille","lat":43.28727,"lon":5.36078,"is_reserved":false,"is_disabled":false,"rental_uris":{"android":"levelo://app?vid=f3682688-b079-4f02-8c11-8db7ac98b34e","ios":"levelo://app?vid=f3682688-b079-4f02-8c11-8db7ac98b34e"},"vehicle_type_id":"4","last_reported":1704910162,"current_range_meters":10000,"station_id":"cki0cbj6b192h4jlfktg","pricing_plan_id":"free"},{"bike_id":"314e6389-13f9-4b9f-96ae-8aaebd48cc90","system_id":"levelo_inurba_marseille","lat":43.28727,"lon":5.36078,"is_reserved":false,"is_disabled":false,"rental_uris":{"android":"levelo://app?vid=314e6389-13f9-4b9f-96ae-8aaebd48cc90","ios":"levelo://app?vid=314e6389-13f9-4b9f-96ae-8aaebd48cc90"},"vehicle_type_id":"4","last_reported":1704910162,"current_range_meters":26000,"station_id":"cki0cbj6b192h4jlfktg","pricing_plan_id":"free"},{"bike_id":"2b588a03-7ed5-4276-afe2-8e4ecbe3fe53","system_id":"levelo_inurba_marseille","lat":43.298681,"lon":5.397225,"is_reserved":false,"is_disabled":false,"rental_uris":{"android":"levelo://app?vid=2b588a03-7ed5-4276-afe2-8e4ecbe3fe53","ios":"levelo://app?vid=2b588a03-7ed5-4276-afe2-8e4ecbe3fe53"},"vehicle_type_id":"4","last_reported":1704910162,"current_range_meters":20800,"station_id":"ce4bh0h2rcd13ifvqd50","pricing_plan_id":"free"},{"bike_id":"7411f063-2761-47ac-819c-68df21e213f2","system_id":"levelo_inurba_marseille","lat":43.28668,"lon":5.36347,"is_reserved":false,"is_disabled":false,"rental_uris":{"android":"levelo://app?vid=7411f063-2761-47ac-819c-68df21e213f2","ios":"levelo://app?vid=7411f063-2761-47ac-819c-68df21e213f2"},"vehicle_type_id":"4","last_reported":1704910162,"current_range_meters":26400,"station_id":"ce4bhah2rcd13ifvqej0","pricing_plan_id":"free"},{"bike_id":"44e670d1-080d-4991-94ed-4adcd3a60d49","system_id":"levelo_inurba_marseille","lat":43.286591,"lon":5.363346,"is_reserved":false,"is_disabled":false,"rental_uris":{"android":"levelo://app?vid=44e670d1-080d-4991-94ed-4adcd3a60d49","ios":"levelo://app?vid=44e670d1-080d-4991-94ed-4adcd3a60d49"},"vehicle_type_id":"4","last_reported":1704910162,"current_range_meters":31600,"station_id":"ce4bhah2rcd13ifvqej0","pricing_plan_id":"free"},{"bike_id":"5397a3ae-0793-47d8-977c-b8c93afd2b36","system_id":"levelo_inurba_marseille","lat":43.286591,"lon":5.363346,"is_reserved":false,"is_disabled":false,"rental_uris":{"android":"levelo://app?vid=5397a3ae-0793-47d8-977c-b8c93afd2b36","ios":"levelo://app?vid=5397a3ae-0793-47d8-977c-b8c93afd2b36"},"vehicle_type_id":"4","last_reported":1704910162,"current_range_meters":25200,"station_id":"ce4bhah2rcd13ifvqej0","pricing_plan_id":"free"},{"bike_id":"db24437a-c7bf-4522-9dda-5e5c44dddebc","system_id":"levelo_inurba_marseille","lat":43.295196,"lon":5.39397,"is_reserved":false,"is_disabled":false,"rental_uris":{"android":"levelo://app?vid=db24437a-c7bf-4522-9dda-5e5c44dddebc","ios":"levelo://app?vid=db24437a-c7bf-4522-9dda-5e5c44dddebc"},"vehicle_type_id":"4","last_reported":1704910162,"current_range_meters":18000,"station_id":"ce4bh292rcd13ifvqdf0","pricing_plan_id":"free"},{"bike_id":"9399e244-b7d1-4649-b313-f82074485075","system_id":"levelo_inurba_marseille","lat":43.286961,"lon":5.373785,"is_reserved":false,"is_disabled":false,"rental_uris":{"android":"levelo://app?vid=9399e244-b7d1-4649-b313-f82074485075","ios":"levelo://app?vid=9399e244-b7d1-4649-b313-f82074485075"},"vehicle_type_id":"4","last_reported":1704910162,"current_range_meters":31200,"station_id":"ce4bh3p2rcd13ifvqdq0","pricing_plan_id":"free"},{"bike_id":"ecb8e4da-1902-46a9-81e6-9215f9127b6c","system_id":"levelo_inurba_marseille","lat":43.28656,"lon":5.36349,"is_reserved":false,"is_disabled":false,"rental_uris":{"android":"levelo://app?vid=ecb8e4da-1902-46a9-81e6-9215f9127b6c","ios":"levelo://app?vid=ecb8e4da-1902-46a9-81e6-9215f9127b6c"},"vehicle_type_id":"4","last_reported":1704910162,"current_range_meters":27200,"station_id":"ce4bhah2rcd13ifvqej0","pricing_plan_id":"free"},{"bike_id":"7982d751-d190-457f-b4d2-9ed45c9e86dd","system_id":"levelo_inurba_marseille","lat":43.29526,"lon":5.39397,"is_reserved":false,"is_disabled":false,"rental_uris":{"android":"levelo://app?vid=7982d751-d190-457f-b4d2-9ed45c9e86dd","ios":"levelo://app?vid=7982d751-d190-457f-b4d2-9ed45c9e86dd"},"vehicle_type_id":"4","last_reported":1704910162,"current_range_meters":15200,"station_id":"ce4bh292rcd13ifvqdf0","pricing_plan_id":"free"},{"bike_id":"9119303c-b61b-4fbc-8059-45f115a26fe2","system_id":"levelo_inurba_marseille","lat":43.286961,"lon":5.373785,"is_reserved":false,"is_disabled":false,"rental_uris":{"android":"levelo://app?vid=9119303c-b61b-4fbc-8059-45f115a26fe2","ios":"levelo://app?vid=9119303c-b61b-4fbc-8059-45f115a26fe2"},"vehicle_type_id":"4","last_reported":1704910162,"current_range_meters":24000,"station_id":"ce4bh3p2rcd13ifvqdq0","pricing_plan_id":"free"},{"bike_id":"43a88281-b968-4206-b449-ee86ced5b4a3","system_id":"levelo_inurba_marseille","lat":43.302759,"lon":5.400793,"is_reserved":false,"is_disabled":false,"rental_uris":{"android":"levelo://app?vid=43a88281-b968-4206-b449-ee86ced5b4a3","ios":"levelo://app?vid=43a88281-b968-4206-b449-ee86ced5b4a3"},"vehicle_type_id":"4","last_reported":1704910162,"current_range_meters":0,"station_id":"ce4bgvh2rcd13ifvqcs0","pricing_plan_id":"free"},{"bike_id":"ca32f708-a5a0-4f23-b621-08828d447d6a","system_id":"levelo_inurba_marseille","lat":43.289307,"lon":5.38406,"is_reserved":false,"is_disabled":false,"rental_uris":{"android":"levelo://app?vid=ca32f708-a5a0-4f23-b621-08828d447d6a","ios":"levelo://app?vid=ca32f708-a5a0-4f23-b621-08828d447d6a"},"vehicle_type_id":"4","last_reported":1704910162,"current_range_meters":23600,"station_id":"ce4bh612rcd13ifvqe6g","pricing_plan_id":"free"},{"bike_id":"e93de186-98ee-4e57-901c-c25730ee7f06","system_id":"levelo_inurba_marseille","lat":43.290345,"lon":5.38646,"is_reserved":false,"is_disabled":false,"rental_uris":{"android":"levelo://app?vid=e93de186-98ee-4e57-901c-c25730ee7f06","ios":"levelo://app?vid=e93de186-98ee-4e57-901c-c25730ee7f06"},"vehicle_type_id":"4","last_reported":1704910162,"current_range_meters":19600,"station_id":"ce4bh4p2rcd13ifvqe0g","pricing_plan_id":"free"},{"bike_id":"582fc9df-ccf5-457e-9b15-56a08b5c4428","system_id":"levelo_inurba_marseille","lat":43.290345,"lon":5.38646,"is_reserved":false,"is_disabled":false,"rental_uris":{"android":"levelo://app?vid=582fc9df-ccf5-457e-9b15-56a08b5c4428","ios":"levelo://app?vid=582fc9df-ccf5-457e-9b15-56a08b5c4428"},"vehicle_type_id":"4","last_reported":1704910162,"current_range_meters":20400,"station_id":"ce4bh4p2rcd13ifvqe0g","pricing_plan_id":"free"},{"bike_id":"2796a74d-53a8-452a-a3a6-79043c36da56","system_id":"levelo_inurba_marseille","lat":43.302759,"lon":5.400793,"is_reserved":false,"is_disabled":false,"rental_uris":{"android":"levelo://app?vid=2796a74d-53a8-452a-a3a6-79043c36da56","ios":"levelo://app?vid=2796a74d-53a8-452a-a3a6-79043c36da56"},"vehicle_type_id":"4","last_reported":1704910162,"current_range_meters":6800,"station_id":"ce4bgvh2rcd13ifvqcs0","pricing_plan_id":"free"},{"bike_id":"86f75245-d829-4a3c-ad76-289d9cbe9a0a","system_id":"levelo_inurba_marseille","lat":43.302759,"lon":5.400793,"is_reserved":false,"is_disabled":false,"rental_uris":{"android":"levelo://app?vid=86f75245-d829-4a3c-ad76-289d9cbe9a0a","ios":"levelo://app?vid=86f75245-d829-4a3c-ad76-289d9cbe9a0a"},"vehicle_type_id":"4","last_reported":1704910162,"current_range_meters":5600,"station_id":"ce4bgvh2rcd13ifvqcs0","pricing_plan_id":"free"},{"bike_id":"196177a3-c3d6-4923-ac77-a1b0917f3cf4","system_id":"levelo_inurba_marseille","lat":43.2861,"lon":5.3706,"is_reserved":false,"is_disabled":false,"rental_uris":{"android":"levelo://app?vid=196177a3-c3d6-4923-ac77-a1b0917f3cf4","ios":"levelo://app?vid=196177a3-c3d6-4923-ac77-a1b0917f3cf4"},"vehicle_type_id":"4","last_reported":1704910162,"current_range_meters":4000,"station_id":"ce4bht12rcd13ifvqi60","pricing_plan_id":"free"},{"bike_id":"50646e67-b002-4bc3-9b29-b8228c9efda6","system_id":"levelo_inurba_marseille","lat":43.286039,"lon":5.370681,"is_reserved":false,"is_disabled":false,"rental_uris":{"android":"levelo://app?vid=50646e67-b002-4bc3-9b29-b8228c9efda6","ios":"levelo://app?vid=50646e67-b002-4bc3-9b29-b8228c9efda6"},"vehicle_type_id":"4","last_reported":1704910162,"current_range_meters":20400,"station_id":"ce4bht12rcd13ifvqi60","pricing_plan_id":"free"},{"bike_id":"54e402ad-16fb-4fef-9da2-7f4d339cf26c","system_id":"levelo_inurba_marseille","lat":43.286039,"lon":5.370681,"is_reserved":false,"is_disabled":false,"rental_uris":{"android":"levelo://app?vid=54e402ad-16fb-4fef-9da2-7f4d339cf26c","ios":"levelo://app?vid=54e402ad-16fb-4fef-9da2-7f4d339cf26c"},"vehicle_type_id":"4","last_reported":1704910162,"current_range_meters":4000,"station_id":"ce4bht12rcd13ifvqi60","pricing_plan_id":"free"},{"bike_id":"7decb80d-eca5-4339-a198-1b80f0174d10","system_id":"levelo_inurba_marseille","lat":43.286039,"lon":5.370681,"is_reserved":false,"is_disabled":false,"rental_uris":{"android":"levelo://app?vid=7decb80d-eca5-4339-a198-1b80f0174d10","ios":"levelo://app?vid=7decb80d-eca5-4339-a198-1b80f0174d10"},"vehicle_type_id":"4","last_reported":1704910162,"current_range_meters":19200,"station_id":"ce4bht12rcd13ifvqi60","pricing_plan_id":"free"},{"bike_id":"48d0e444-6c56-42ba-b0f8-aebaa0561d05","system_id":"levelo_inurba_marseille","lat":43.29084,"lon":5.38847,"is_reserved":false,"is_disabled":false,"rental_uris":{"android":"levelo://app?vid=48d0e444-6c56-42ba-b0f8-aebaa0561d05","ios":"levelo://app?vid=48d0e444-6c56-42ba-b0f8-aebaa0561d05"},"vehicle_type_id":"4","last_reported":1704910162,"current_range_meters":6000,"station_id":"","pricing_plan_id":"free"},{"bike_id":"372f812a-b2bb-4022-a727-258d6b3f5399","system_id":"levelo_inurba_marseille","lat":43.316828,"lon":5.404723,"is_reserved":false,"is_disabled":false,"rental_uris":{"android":"levelo://app?vid=372f812a-b2bb-4022-a727-258d6b3f5399","ios":"levelo://app?vid=372f812a-b2bb-4022-a727-258d6b3f5399"},"vehicle_type_id":"4","last_reported":1704910162,"current_range_meters":18800,"station_id":"ce4bh012rcd13ifvqd00","pricing_plan_id":"free"},{"bike_id":"fba7347a-4d86-4363-badb-883d44bfc9c3","system_id":"levelo_inurba_marseille","lat":43.316828,"lon":5.404723,"is_reserved":false,"is_disabled":false,"rental_uris":{"android":"levelo://app?vid=fba7347a-4d86-4363-badb-883d44bfc9c3","ios":"levelo://app?vid=fba7347a-4d86-4363-badb-883d44bfc9c3"},"vehicle_type_id":"4","last_reported":1704910162,"current_range_meters":25600,"station_id":"ce4bh012rcd13ifvqd00","pricing_plan_id":"free"},{"bike_id":"37617c70-9cca-47ff-a7ca-5891e14b5896","system_id":"levelo_inurba_marseille","lat":43.316828,"lon":5.404723,"is_reserved":false,"is_disabled":false,"rental_uris":{"android":"levelo://app?vid=37617c70-9cca-47ff-a7ca-5891e14b5896","ios":"levelo://app?vid=37617c70-9cca-47ff-a7ca-5891e14b5896"},"vehicle_type_id":"4","last_reported":1704910162,"current_range_meters":22000,"station_id":"ce4bh012rcd13ifvqd00","pricing_plan_id":"free"},{"bike_id":"ea94c1ec-a992-423e-91eb-eb2b6f83b606","system_id":"levelo_inurba_marseille","lat":43.291994,"lon":5.392907,"is_reserved":false,"is_disabled":false,"rental_uris":{"android":"levelo://app?vid=ea94c1ec-a992-423e-91eb-eb2b6f83b606","ios":"levelo://app?vid=ea94c1ec-a992-423e-91eb-eb2b6f83b606"},"vehicle_type_id":"4","last_reported":1704910162,"current_range_meters":24000,"station_id":"ce4bh192rcd13ifvqdd0","pricing_plan_id":"free"},{"bike_id":"715f177c-e5ea-4016-b109-47fc5cdf8cc4","system_id":"levelo_inurba_marseille","lat":43.29192,"lon":5.393,"is_reserved":false,"is_disabled":false,"rental_uris":{"android":"levelo://app?vid=715f177c-e5ea-4016-b109-47fc5cdf8cc4","ios":"levelo://app?vid=715f177c-e5ea-4016-b109-47fc5cdf8cc4"},"vehicle_type_id":"4","last_reported":1704910162,"current_range_meters":12400,"station_id":"ce4bh192rcd13ifvqdd0","pricing_plan_id":"free"},{"bike_id":"b77325ba-668c-4e66-9184-6d3bfb7bd50d","system_id":"levelo_inurba_marseille","lat":43.291994,"lon":5.392907,"is_reserved":false,"is_disabled":false,"rental_uris":{"android":"levelo://app?vid=b77325ba-668c-4e66-9184-6d3bfb7bd50d","ios":"levelo://app?vid=b77325ba-668c-4e66-9184-6d3bfb7bd50d"},"vehicle_type_id":"4","last_reported":1704910162,"current_range_meters":17600,"station_id":"ce4bh192rcd13ifvqdd0","pricing_plan_id":"free"},{"bike_id":"010fa0ec-7247-4512-86e7-b0b10ab53a94","system_id":"levelo_inurba_marseille","lat":43.291994,"lon":5.392907,"is_reserved":false,"is_disabled":false,"rental_uris":{"android":"levelo://app?vid=010fa0ec-7247-4512-86e7-b0b10ab53a94","ios":"levelo://app?vid=010fa0ec-7247-4512-86e7-b0b10ab53a94"},"vehicle_type_id":"4","last_reported":1704910162,"current_range_meters":20400,"station_id":"ce4bh192rcd13ifvqdd0","pricing_plan_id":"free"},{"bike_id":"8da58d59-6a90-476b-8a0b-8186a6034c1c","system_id":"levelo_inurba_marseille","lat":43.291994,"lon":5.392907,"is_reserved":false,"is_disabled":false,"rental_uris":{"android":"levelo://app?vid=8da58d59-6a90-476b-8a0b-8186a6034c1c","ios":"levelo://app?vid=8da58d59-6a90-476b-8a0b-8186a6034c1c"},"vehicle_type_id":"4","last_reported":1704910162,"current_range_meters":9200,"station_id":"ce4bh192rcd13ifvqdd0","pricing_plan_id":"free"},{"bike_id":"d747b900-b113-4912-85a8-cec9d425069e","system_id":"levelo_inurba_marseille","lat":43.291994,"lon":5.392907,"is_reserved":false,"is_disabled":false,"rental_uris":{"android":"levelo://app?vid=d747b900-b113-4912-85a8-cec9d425069e","ios":"levelo://app?vid=d747b900-b113-4912-85a8-cec9d425069e"},"vehicle_type_id":"4","last_reported":1704910162,"current_range_meters":31600,"station_id":"ce4bh192rcd13ifvqdd0","pricing_plan_id":"free"},{"bike_id":"6724b7f2-7be0-463f-98ef-7a099dc2acb8","system_id":"levelo_inurba_marseille","lat":43.291994,"lon":5.392907,"is_reserved":false,"is_disabled":false,"rental_uris":{"android":"levelo://app?vid=6724b7f2-7be0-463f-98ef-7a099dc2acb8","ios":"levelo://app?vid=6724b7f2-7be0-463f-98ef-7a099dc2acb8"},"vehicle_type_id":"4","last_reported":1704910162,"current_range_meters":14400,"station_id":"ce4bh192rcd13ifvqdd0","pricing_plan_id":"free"},{"bike_id":"1616a6dc-71cc-41c6-9876-66c7c42667d2","system_id":"levelo_inurba_marseille","lat":43.291994,"lon":5.392907,"is_reserved":false,"is_disabled":false,"rental_uris":{"android":"levelo://app?vid=1616a6dc-71cc-41c6-9876-66c7c42667d2","ios":"levelo://app?vid=1616a6dc-71cc-41c6-9876-66c7c42667d2"},"vehicle_type_id":"4","last_reported":1704910162,"current_range_meters":18800,"station_id":"ce4bh192rcd13ifvqdd0","pricing_plan_id":"free"},{"bike_id":"0d07d2aa-fc3a-4a54-ae9c-10a6a5ae3da7","system_id":"levelo_inurba_marseille","lat":43.291994,"lon":5.392907,"is_reserved":false,"is_disabled":false,"rental_uris":{"android":"levelo://app?vid=0d07d2aa-fc3a-4a54-ae9c-10a6a5ae3da7","ios":"levelo://app?vid=0d07d2aa-fc3a-4a54-ae9c-10a6a5ae3da7"},"vehicle_type_id":"4","last_reported":1704910162,"current_range_meters":0,"station_id":"ce4bh192rcd13ifvqdd0","pricing_plan_id":"free"},{"bike_id":"340c28eb-93f6-4fa0-b2bc-9ad04d235a4c","system_id":"levelo_inurba_marseille","lat":43.284749,"lon":5.358847,"is_reserved":false,"is_disabled":false,"rental_uris":{"android":"levelo://app?vid=340c28eb-93f6-4fa0-b2bc-9ad04d235a4c","ios":"levelo://app?vid=340c28eb-93f6-4fa0-b2bc-9ad04d235a4c"},"vehicle_type_id":"4","last_reported":1704910162,"current_range_meters":8400,"station_id":"ce4bhah2rcd13ifvqei0","pricing_plan_id":"free"},{"bike_id":"ce8b4a5f-aa1c-4dcc-a118-2fcbf9bdadfd","system_id":"levelo_inurba_marseille","lat":43.320045,"lon":5.415048,"is_reserved":false,"is_disabled":false,"rental_uris":{"android":"levelo://app?vid=ce8b4a5f-aa1c-4dcc-a118-2fcbf9bdadfd","ios":"levelo://app?vid=ce8b4a5f-aa1c-4dcc-a118-2fcbf9bdadfd"},"vehicle_type_id":"4","last_reported":1704910162,"current_range_meters":0,"station_id":"ce4bhq92rcd13ifvqhkg","pricing_plan_id":"free"},{"bike_id":"d374b835-96ef-45a4-b13b-4f524dabfaff","system_id":"levelo_inurba_marseille","lat":43.28461,"lon":5.359,"is_reserved":false,"is_disabled":false,"rental_uris":{"android":"levelo://app?vid=d374b835-96ef-45a4-b13b-4f524dabfaff","ios":"levelo://app?vid=d374b835-96ef-45a4-b13b-4f524dabfaff"},"vehicle_type_id":"4","last_reported":1704910162,"current_range_meters":19200,"station_id":"ce4bhah2rcd13ifvqei0","pricing_plan_id":"free"},{"bike_id":"e4cde481-fb68-4363-b98e-adc0af54ee34","system_id":"levelo_inurba_marseille","lat":43.28464,"lon":5.3588,"is_reserved":false,"is_disabled":false,"rental_uris":{"android":"levelo://app?vid=e4cde481-fb68-4363-b98e-adc0af54ee34","ios":"levelo://app?vid=e4cde481-fb68-4363-b98e-adc0af54ee34"},"vehicle_type_id":"4","last_reported":1704910162,"current_range_meters":26800,"station_id":"ce4bhah2rcd13ifvqei0","pricing_plan_id":"free"},{"bike_id":"c0e3b6fc-b9ad-40e7-9dec-7cf8049d250b","system_id":"levelo_inurba_marseille","lat":43.28462,"lon":5.35893,"is_reserved":false,"is_disabled":false,"rental_uris":{"android":"levelo://app?vid=c0e3b6fc-b9ad-40e7-9dec-7cf8049d250b","ios":"levelo://app?vid=c0e3b6fc-b9ad-40e7-9dec-7cf8049d250b"},"vehicle_type_id":"4","last_reported":1704910162,"current_range_meters":24000,"station_id":"ce4bhah2rcd13ifvqei0","pricing_plan_id":"free"},{"bike_id":"bcd3f926-a372-4921-9ae0-8478b8014b94","system_id":"levelo_inurba_marseille","lat":43.2846,"lon":5.35885,"is_reserved":false,"is_disabled":false,"rental_uris":{"android":"levelo://app?vid=bcd3f926-a372-4921-9ae0-8478b8014b94","ios":"levelo://app?vid=bcd3f926-a372-4921-9ae0-8478b8014b94"},"vehicle_type_id":"4","last_reported":1704910162,"current_range_meters":24000,"station_id":"ce4bhah2rcd13ifvqei0","pricing_plan_id":"free"},{"bike_id":"6312d69e-b973-4a8e-9161-08bcaf02d7d9","system_id":"levelo_inurba_marseille","lat":43.28461,"lon":5.35876,"is_reserved":false,"is_disabled":false,"rental_uris":{"android":"levelo://app?vid=6312d69e-b973-4a8e-9161-08bcaf02d7d9","ios":"levelo://app?vid=6312d69e-b973-4a8e-9161-08bcaf02d7d9"},"vehicle_type_id":"4","last_reported":1704910162,"current_range_meters":25600,"station_id":"ce4bhah2rcd13ifvqei0","pricing_plan_id":"free"},{"bike_id":"c7274780-56d9-4081-8314-c2241bbfe545","system_id":"levelo_inurba_marseille","lat":43.28457,"lon":5.3589,"is_reserved":false,"is_disabled":false,"rental_uris":{"android":"levelo://app?vid=c7274780-56d9-4081-8314-c2241bbfe545","ios":"levelo://app?vid=c7274780-56d9-4081-8314-c2241bbfe545"},"vehicle_type_id":"4","last_reported":1704910162,"current_range_meters":31200,"station_id":"ce4bhah2rcd13ifvqei0","pricing_plan_id":"free"},{"bike_id":"48330be7-403d-4fc5-8532-93f7dcefcfb2","system_id":"levelo_inurba_marseille","lat":43.28456,"lon":5.35893,"is_reserved":false,"is_disabled":false,"rental_uris":{"android":"levelo://app?vid=48330be7-403d-4fc5-8532-93f7dcefcfb2","ios":"levelo://app?vid=48330be7-403d-4fc5-8532-93f7dcefcfb2"},"vehicle_type_id":"4","last_reported":1704910162,"current_range_meters":22400,"station_id":"ce4bhah2rcd13ifvqei0","pricing_plan_id":"free"},{"bike_id":"c978bc0d-52e3-4098-8260-ed2a885fed07","system_id":"levelo_inurba_marseille","lat":43.28456,"lon":5.35892,"is_reserved":false,"is_disabled":false,"rental_uris":{"android":"levelo://app?vid=c978bc0d-52e3-4098-8260-ed2a885fed07","ios":"levelo://app?vid=c978bc0d-52e3-4098-8260-ed2a885fed07"},"vehicle_type_id":"4","last_reported":1704910162,"current_range_meters":22400,"station_id":"ce4bhah2rcd13ifvqei0","pricing_plan_id":"free"},{"bike_id":"b6921b4a-04b8-4e93-8956-97fcb4c1bbe6","system_id":"levelo_inurba_marseille","lat":43.284563,"lon":5.358847,"is_reserved":false,"is_disabled":false,"rental_uris":{"android":"levelo://app?vid=b6921b4a-04b8-4e93-8956-97fcb4c1bbe6","ios":"levelo://app?vid=b6921b4a-04b8-4e93-8956-97fcb4c1bbe6"},"vehicle_type_id":"4","last_reported":1704910162,"current_range_meters":31200,"station_id":"ce4bhah2rcd13ifvqei0","pricing_plan_id":"free"},{"bike_id":"19d3c3cf-a09e-464e-b380-419329150349","system_id":"levelo_inurba_marseille","lat":43.284553,"lon":5.358906,"is_reserved":false,"is_disabled":false,"rental_uris":{"android":"levelo://app?vid=19d3c3cf-a09e-464e-b380-419329150349","ios":"levelo://app?vid=19d3c3cf-a09e-464e-b380-419329150349"},"vehicle_type_id":"4","last_reported":1704910162,"current_range_meters":20400,"station_id":"ce4bhah2rcd13ifvqei0","pricing_plan_id":"free"},