{"last_updated":1762805591,"ttl":60,"version":"2.2","data":{"bikes":[{"bike_id":"a22621ed-dce3-441e-82fa-0978db9d5cc0","system_id":"levelo_inurba_marseille","lat":43.337444,"lon":5.374475,"is_reserved":false,"is_disabled":false,"rental_uris":{"android":"levelo://app?vid=a22621ed-dce3-441e-82fa-0978db9d5cc0","ios":"levelo://app?vid=a22621ed-dce3-441e-82fa-0978db9d5cc0"},"vehicle_type_id":"4","last_reported":1762805592,"current_range_meters":0,"station_id":"","pricing_plan_id":"cebpf4jnsgd1na2vs0mg"},{"bike_id":"2dc976f7-3aef-4d47-bb7b-867658696afc","system_id":"levelo_inurba_marseille","lat":43.29257,"lon":5.40905,"is_reserved":false,"is_disabled":false,"rental_uris":{"android":"levelo://app?vid=2dc976f7-3aef-4d47-bb7b-867658696afc","ios":"levelo://app?vid=2dc976f7-3aef-4d47-bb7b-867658696afc"},"vehicle_type_id":"4","last_reported":1762805592,"current_range_meters":2800,"station_id":"ce4bh192rcd13ifvqdc0","pricing_plan_id":"cebpf4jnsgd1na2vs0mg"},{"bike_id":"94e38bf1-2f26-4985-aeb7-f2407061f31b","system_id":"levelo_inurba_marseille","lat":43.23138,"lon":5.43714,"is_reserved":false,"is_disabled":false,"rental_uris":{"android":"levelo://app?vid=94e38bf1-2f26-4985-aeb7-f2407061f31b","ios":"levelo://app?vid=94e38bf1-2f26-4985-aeb7-f2407061f31b"},"vehicle_type_id":"4","last_reported":1762805592,"current_range_meters":2800,"station_id":"ce4bhmp2rcd13ifvqgog","pricing_plan_id":"cebpf4jnsgd1na2vs0mg"},{"bike_id":"8040d437-b793-4c7c-83dd-8a60b4a68d3a","system_id":"levelo_inurba_marseille","lat":43.25933,"lon":5.409,"is_reserved":false,"is_disabled":true,"rental_uris":{"android":"levelo://app?vid=8040d437-b793-4c7c-83dd-8a60b4a68d3a","ios":"levelo://app?vid=8040d437-b793-4c7c-83dd-8a60b4a68d3a"},"vehicle_type_id":"4","last_reported":1762805592,"current_range_meters":2800,"station_id":"ce4bhm92rcd13ifvqglg","pricing_plan_id":"cebpf4jnsgd1na2vs0mg"},{"bike_id":"6bb233b5-5a9e-4477-b687-1c283c1113ad","system_id":"levelo_inurba_marseille","lat":43.33603,"lon":5.41033,"is_reserved":false,"is_disabled":false,"rental_uris":{"android":"levelo://app?vid=6bb233b5-5a9e-4477-b687-1c283c1113ad","ios":"levelo://app?vid=6bb233b5-5a9e-4477-b687-1c283c1113ad"},"vehicle_type_id":"4","last_reported":1762805592,"current_range_meters":2800,"station_id":"ce4bhqh2rcd13ifvqhmg","pricing_plan_id":"cebpf4jnsgd1na2vs0mg"},{"bike_id":"83645448-77d2-4aa3-9aa8-8b71b36f9fc7","system_id":"levelo_inurba_marseille","lat":43.31062,"lon":5.38486,"is_reserved":false,"is_disabled":true,"rental_uris":{"android":"levelo://app?vid=83645448-77d2-4aa3-9aa8-8b71b36f9fc7","ios":"levelo://app?vid=83645448-77d2-4aa3-9aa8-8b71b36f9fc7"},"vehicle_type_id":"4","last_reported":1762805592,"current_range_meters":2800,"station_id":"","pricing_plan_id":"cebpf4jnsgd1na2vs0mg"},{"bike_id":"870a9ad1-db35-4ab0-bc9a-84476efc6571","system_id":"levelo_inurba_marseille","lat":43.32794,"lon":5.42641,"is_reserved":false,"is_disabled":false,"rental_uris":{"android":"levelo://app?vid=870a9ad1-db35-4ab0-bc9a-84476efc6571","ios":"levelo://app?vid=870a9ad1-db35-4ab0-bc9a-84476efc6571"},"vehicle_type_id":"4","last_reported":1762805592,"current_range_meters":2800,"station_id":"","pricing_plan_id":"cebpf4jnsgd1na2vs0mg"},{"bike_id":"9327e1c0-efe4-496c-b890-924322fe2973","system_id":"levelo_inurba_marseille","lat":43.31986,"lon":5.3813,"is_reserved":false,"is_disabled":false,"rental_uris":{"android":"levelo://app?vid=9327e1c0-efe4-496c-b890-924322fe2973","ios":"levelo://app?vid=9327e1c0-efe4-496c-b890-924322fe2973"},"vehicle_type_id":"4","last_reported":1762805592,"current_range_meters":2800,"station_id":"ce4bhr12rcd13ifvqhpg","pricing_plan_id":"cebpf4jnsgd1na2vs0mg"},{"bike_id":"1ba45afb-911f-4938-ac16-d2b286ce140f","system_id":"levelo_inurba_marseille","lat":43.321351,"lon":5.367864,"is_reserved":false,"is_disabled":false,"rental_uris":{"android":"levelo://app?vid=1ba45afb-911f-4938-ac16-d2b286ce140f","ios":"levelo://app?vid=1ba45afb-911f-4938-ac16-d2b286ce140f"},"vehicle_type_id":"4","last_reported":1762805592,"current_range_meters":3200,"station_id":"ce4bhrh2rcd13ifvqhug","pricing_plan_id":"cebpf4jnsgd1na2vs0mg"},{"bike_id":"fa833d4e-d8b3-49c6-9eee-7417badde15e","system_id":"levelo_inurba_marseille","lat":43.30591,"lon":5.37224,"is_reserved":false,"is_disabled":false,"rental_uris":{"android":"levelo://app?vid=fa833d4e-d8b3-49c6-9eee-7417badde15e","ios":"levelo://app?vid=fa833d4e-d8b3-49c6-9eee-7417badde15e"},"vehicle_type_id":"4","last_reported":1762805592,"current_range_meters":3200,"station_id":"ce4bgqh2rcd13ifvqc4g","pricing_plan_id":"cebpf4jnsgd1na2vs0mg"},{"bike_id":"1433c944-98e6-4d10-926e-4e6879538f8c","system_id":"levelo_inurba_marseille","lat":43.29529,"lon":5.38552,"is_reserved":false,"is_disabled":false,"rental_uris":{"android":"levelo://app?vid=1433c944-98e6-4d10-926e-4e6879538f8c","ios":"levelo://app?vid=1433c944-98e6-4d10-926e-4e6879538f8c"},"vehicle_type_id":"4","last_reported":1762805592,"current_range_meters":3600,"station_id":"","pricing_plan_id":"cebpf4jnsgd1na2vs0mg"},{"bike_id":"f9e1fc2c-51c7-45fa-9611-6143d3f2ccff","system_id":"levelo_inurba_marseille","lat":43.2954,"lon":5.38562,"is_reserved":false,"is_disabled":false,"rental_uris":{"android":"levelo://app?vid=f9e1fc2c-51c7-45fa-9611-6143d3f2ccff","ios":"levelo://app?vid=f9e1fc2c-51c7-45fa-9611-6143d3f2ccff"},"vehicle_type_id":"4","last_reported":1762805592,"current_range_meters":4000,"station_id":"ce4bgih2rcd13ifvqba0","pricing_plan_id":"cebpf4jnsgd1na2vs0mg"},{"bike_id":"665f1ac7-4c9e-4dbf-8b3b-da02d826b5e0","system_id":"levelo_inurba_marseille","lat":43.30136,"lon":5.38776,"is_reserved":false,"is_disabled":false,"rental_uris":{"android":"levelo://app?vid=665f1ac7-4c9e-4dbf-8b3b-da02d826b5e0","ios":"levelo://app?vid=665f1ac7-4c9e-4dbf-8b3b-da02d826b5e0"},"vehicle_type_id":"4","last_reported":1762805592,"current_range_meters":4000,"station_id":"ce4bghh2rcd13ifvqb60","pricing_plan_id":"cebpf4jnsgd1na2vs0mg"},{"bike_id":"f88ee5a3-48ab-4399-99b4-c386d4f5cbff","system_id":"levelo_inurba_marseille","lat":43.28674,"lon":5.38671,"is_reserved":false,"is_disabled":false,"rental_uris":{"android":"levelo://app?vid=f88ee5a3-48ab-4399-99b4-c386d4f5cbff","ios":"levelo://app?vid=f88ee5a3-48ab-4399-99b4-c386d4f5cbff"},"vehicle_type_id":"4","last_reported":1762805592,"current_range_meters":4000,"station_id":"ce4bh492rcd13ifvqdug","pricing_plan_id":"cebpf4jnsgd1na2vs0mg"},{"bike_id":"94d7dc28-6a3f-4bda-b263-ec8439ffbed4","system_id":"levelo_inurba_marseille","lat":43.2844,"lon":5.359,"is_reserved":false,"is_disabled":false,"rental_uris":{"android":"levelo://app?vid=94d7dc28-6a3f-4bda-b263-ec8439ffbed4","ios":"levelo://app?vid=94d7dc28-6a3f-4bda-b263-ec8439ffbed4"},"vehicle_type_id":"4","last_reported":1762805592,"current_range_meters":4000,"station_id":"ce4bhah2rcd13ifvqei0","pricing_plan_id":"cebpf4jnsgd1na2vs0mg"},{"bike_id":"c0547130-4968-4a02-90c4-5a4f7eb81ae3","system_id":"levelo_inurba_marseille","lat":43.29524,"lon":5.38546,"is_reserved":false,"is_disabled":false,"rental_uris":{"android":"levelo://app?vid=c0547130-4968-4a02-90c4-5a4f7eb81ae3","ios":"levelo://app?vid=c0547130-4968-4a02-90c4-5a4f7eb81ae3"},"vehicle_type_id":"4","last_reported":1762805592,"current_range_meters":4000,"station_id":"ce4bgih2rcd13ifvqba0","pricing_plan_id":"cebpf4jnsgd1na2vs0mg"},{"bike_id":"fdc47d85-abd2-4f38-8380-b7a2a943e4c1","system_id":"levelo_inurba_marseille","lat":43.23961,"lon":5.36631,"is_reserved":false,"is_disabled":false,"rental_uris":{"android":"levelo://app?vid=fdc47d85-abd2-4f38-8380-b7a2a943e4c1","ios":"levelo://app?vid=fdc47d85-abd2-4f38-8380-b7a2a943e4c1"},"vehicle_type_id":"4","last_reported":1762805592,"current_range_meters":4000,"station_id":"ce4bhi12rcd13ifvqfp0","pricing_plan_id":"cebpf4jnsgd1na2vs0mg"},{"bike_id":"d7098fe9-6632-4528-82c2-ab1b95826e62","system_id":"levelo_inurba_marseille","lat":43.28723,"lon":5.36098,"is_reserved":false,"is_disabled":false,"rental_uris":{"android":"levelo://app?vid=d7098fe9-6632-4528-82c2-ab1b95826e62","ios":"levelo://app?vid=d7098fe9-6632-4528-82c2-ab1b95826e62"},"vehicle_type_id":"4","last_reported":1762805592,"current_range_meters":4000,"station_id":"cki0cbj6b192h4jlfktg","pricing_plan_id":"cebpf4jnsgd1na2vs0mg"},{"bike_id":"15db09df-59b0-446a-87c5-e354a3319258","system_id":"levelo_inurba_marseille","lat":43.28478,"lon":5.48379,"is_reserved":false,"is_disabled":false,"rental_uris":{"android":"levelo://app?vid=15db09df-59b0-446a-87c5-e354a3319258","ios":"levelo://app?vid=15db09df-59b0-446a-87c5-e354a3319258"},"vehicle_type_id":"4","last_reported":1762805592,"current_range_meters":4400,"station_id":"","pricing_plan_id":"cebpf4jnsgd1na2vs0mg"},{"bike_id":"629fdf01-a59d-40a2-bd97-829ab8584e95","system_id":"levelo_inurba_marseille","lat":43.30874,"lon":5.3965,"is_reserved":false,"is_disabled":false,"rental_uris":{"android":"levelo://app?vid=629fdf01-a59d-40a2-bd97-829ab8584e95","ios":"levelo://app?vid=629fdf01-a59d-40a2-bd97-829ab8584e95"},"vehicle_type_id":"4","last_reported":1762805592,"current_range_meters":4400,"station_id":"ce4bh012rcd13ifvqcv0","pricing_plan_id":"cebpf4jnsgd1na2vs0mg"},{"bike_id":"6f98b7a7-ae98-40be-aded-6fe2b547bfca","system_id":"levelo_inurba_marseille","lat":43.28481,"lon":5.48381,"is_reserved":false,"is_disabled":false,"rental_uris":{"android":"levelo://app?vid=6f98b7a7-ae98-40be-aded-6fe2b547bfca","ios":"levelo://app?vid=6f98b7a7-ae98-40be-aded-6fe2b547bfca"},"vehicle_type_id":"4","last_reported":1762805592,"current_range_meters":4400,"station_id":"","pricing_plan_id":"cebpf4jnsgd1na2vs0mg"},{"bike_id":"69664d10-aacb-4932-b5f3-c4d7c8e27048","system_id":"levelo_inurba_marseille","lat":43.295962,"lon":5.380958,"is_reserved":false,"is_disabled":false,"rental_uris":{"android":"levelo://app?vid=69664d10-aacb-4932-b5f3-c4d7c8e27048","ios":"levelo://app?vid=69664d10-aacb-4932-b5f3-c4d7c8e27048"},"vehicle_type_id":"4","last_reported":1762805592,"current_range_meters":4800,"station_id":"ce4bhap2rcd13ifvqek0","pricing_plan_id":"cebpf4jnsgd1na2vs0mg"},{"bike_id":"1032612f-93d5-4618-8d26-8f903a33a10a","system_id":"levelo_inurba_marseille","lat":43.28453,"lon":5.35887,"is_reserved":false,"is_disabled":false,"rental_uris":{"android":"levelo://app?vid=1032612f-93d5-4618-8d26-8f903a33a10a","ios":"levelo://app?vid=1032612f-93d5-4618-8d26-8f903a33a10a"},"vehicle_type_id":"4","last_reported":1762805592,"current_range_meters":4800,"station_id":"ce4bhah2rcd13ifvqei0","pricing_plan_id":"cebpf4jnsgd1na2vs0mg"},{"bike_id":"e21bfbed-3713-4a4b-889e-51069cb69671","system_id":"levelo_inurba_marseille","lat":43.28906,"lon":5.36386,"is_reserved":false,"is_disabled":false,"rental_uris":{"android":"levelo://app?vid=e21bfbed-3713-4a4b-889e-51069cb69671","ios":"levelo://app?vid=e21bfbed-3713-4a4b-889e-51069cb69671"},"vehicle_type_id":"4","last_reported":1762805592,"current_range_meters":4800,"station_id":"ce4bhc92rcd13ifvqetg","pricing_plan_id":"cebpf4jnsgd1na2vs0mg"},{"bike_id":"c1a8951c-0b8b-4e04-9556-ddc347871e56","system_id":"levelo_inurba_marseille","lat":43.33604,"lon":5.35424,"is_reserved":false,"is_disabled":false,"rental_uris":{"android":"levelo://app?vid=c1a8951c-0b8b-4e04-9556-ddc347871e56","ios":"levelo://app?vid=c1a8951c-0b8b-4e04-9556-ddc347871e56"},"vehicle_type_id":"4","last_reported":1762805592,"current_range_meters":4800,"station_id":"","pricing_plan_id":"cebpf4jnsgd1na2vs0mg"},{"bike_id":"9b04980e-9992-452c-96e0-134adb3bf671","system_id":"levelo_inurba_marseille","lat":43.23181,"lon":5.39991,"is_reserved":false,"is_disabled":false,"rental_uris":{"android":"levelo://app?vid=9b04980e-9992-452c-96e0-134adb3bf671","ios":"levelo://app?vid=9b04980e-9992-452c-96e0-134adb3bf671"},"vehicle_type_id":"4","last_reported":1762805592,"current_range_meters":5600,"station_id":"ce4bhn12rcd13ifvqgqg","pricing_plan_id":"cebpf4jnsgd1na2vs0mg"},{"bike_id":"2010c632-9ea8-4f84-ab42-b2d4660f278f","system_id":"levelo_inurba_marseille","lat":43.287222,"lon":5.360772,"is_reserved":false,"is_disabled":false,"rental_uris":{"android":"levelo://app?vid=2010c632-9ea8-4f84-ab42-b2d4660f278f","ios":"levelo://app?vid=2010c632-9ea8-4f84-ab42-b2d4660f278f"},"vehicle_type_id":"4","last_reported":1762805592,"current_range_meters":5600,"station_id":"cki0cbj6b192h4jlfktg","pricing_plan_id":"cebpf4jnsgd1na2vs0mg"},{"bike_id":"9b309364-5430-4a7b-8516-6776ea1a727a","system_id":"levelo_inurba_marseille","lat":43.31476,"lon":5.37304,"is_reserved":false,"is_disabled":false,"rental_uris":{"android":"levelo://app?vid=9b309364-5430-4a7b-8516-6776ea1a727a","ios":"levelo://app?vid=9b309364-5430-4a7b-8516-6776ea1a727a"},"vehicle_type_id":"4","last_reported":1762805592,"current_range_meters":5600,"station_id":"ce4bgt12rcd13ifvqcd0","pricing_plan_id":"cebpf4jnsgd1na2vs0mg"},{"bike_id":"e9c87fe1-12dd-46ed-868a-9564c448ddb1","system_id":"levelo_inurba_marseille","lat":43.25504,"lon":5.37658,"is_reserved":false,"is_disabled":false,"rental_uris":{"android":"levelo://app?vid=e9c87fe1-12dd-46ed-868a-9564c448ddb1","ios":"levelo://app?vid=e9c87fe1-12dd-46ed-868a-9564c448ddb1"},"vehicle_type_id":"4","last_reported":1762805592,"current_range_meters":5600,"station_id":"ce4bhh12rcd13ifvqff0","pricing_plan_id":"cebpf4jnsgd1na2vs0mg"},{"bike_id":"b2296264-73d8-4c7a-8267-d85f37712d48","system_id":"levelo_inurba_marseille","lat":43.261925,"lon":5.374458,"is_reserved":false,"is_disabled":false,"rental_uris":{"android":"levelo://app?vid=b2296264-73d8-4c7a-8267-d85f37712d48","ios":"levelo://app?vid=b2296264-73d8-4c7a-8267-d85f37712d48"},"vehicle_type_id":"4","last_reported":1762805592,"current_range_meters":5600,"station_id":"ce4bhgp2rcd13ifvqfc0","pricing_plan_id":"cebpf4jnsgd1na2vs0mg"},{"bike_id":"e892ffca-4c09-40cc-b74a-7667c9de276c","system_id":"levelo_inurba_marseille","lat":43.32048,"lon":5.41543,"is_reserved":false,"is_disabled":false,"rental_uris":{"android":"levelo://app?vid=e892ffca-4c09-40cc-b74a-7667c9de276c","ios":"levelo://app?vid=e892ffca-4c09-40cc-b74a-7667c9de276c"},"vehicle_type_id":"4","last_reported":1762805592,"current_range_meters":5600,"station_id":"ce4bhq92rcd13ifvqhkg","pricing_plan_id":"cebpf4jnsgd1na2vs0mg"},{"bike_id":"4c884232-f17e-4ff8-b4d8-af31a1fe16be","system_id":"levelo_inurba_marseille","lat":43.32362,"lon":5.38882,"is_reserved":false,"is_disabled":false,"rental_uris":{"android":"levelo://app?vid=4c884232-f17e-4ff8-b4d8-af31a1fe16be","ios":"levelo://app?vid=4c884232-f17e-4ff8-b4d8-af31a1fe16be"},"vehicle_type_id":"4","last_reported":1762805592,"current_range_meters":5600,"station_id":"ce4bhqp2rcd13ifvqhog","pricing_plan_id":"cebpf4jnsgd1na2vs0mg"},{"bike_id":"5d665087-9549-4a03-a942-8572f71491bf","system_id":"levelo_inurba_marseille","lat":43.279382,"lon":5.411573,"is_reserved":false,"is_disabled":false,"rental_uris":{"android":"levelo://app?vid=5d665087-9549-4a03-a942-8572f71491bf","ios":"levelo://app?vid=5d665087-9549-4a03-a942-8572f71491bf"},"vehicle_type_id":"4","last_reported":1762805592,"current_range_meters":6000,"station_id":"","pricing_plan_id":"cebpf4jnsgd1na2vs0mg"},{"bike_id":"690d1ddd-9c17-4548-ac02-188ffc98e34c","system_id":"levelo_inurba_marseille","lat":43.29551,"lon":5.42268,"is_reserved":false,"is_disabled":false,"rental_uris":{"android":"levelo://app?vid=690d1ddd-9c17-4548-ac02-188ffc98e34c","ios":"levelo://app?vid=690d1ddd-9c17-4548-ac02-188ffc98e34c"},"vehicle_type_id":"4","last_reported":1762805592,"current_range_meters":6400,"station_id":"ce4bhph2rcd13ifvqhdg","pricing_plan_id":"cebpf4jnsgd1na2vs0mg"},{"bike_id":"63a4b90c-1b57-4c36-a1a4-e59f52ede3b9","system_id":"levelo_inurba_marseille","lat":43.300852,"lon":5.390902,"is_reserved":false,"is_disabled":true,"rental_uris":{"android":"levelo://app?vid=63a4b90c-1b57-4c36-a1a4-e59f52ede3b9","ios":"levelo://app?vid=63a4b90c-1b57-4c36-a1a4-e59f52ede3b9"},"vehicle_type_id":"4","last_reported":1762805592,"current_range_meters":6400,"station_id":"ce4bh192rcd13ifvqdb0","pricing_plan_id":"cebpf4jnsgd1na2vs0mg"},{"bike_id":"5666c865-43d0-4f43-bd99-270620ab4c87","system_id":"levelo_inurba_marseille","lat":43.29041,"lon":5.3999,"is_reserved":false,"is_disabled":false,"rental_uris":{"android":"levelo://app?vid=5666c865-43d0-4f43-bd99-270620ab4c87","ios":"levelo://app?vid=5666c865-43d0-4f43-bd99-270620ab4c87"},"vehicle_type_id":"4","last_reported":1762805592,"current_range_meters":6400,"station_id":"ce4bh392rcd13ifvqdm0","pricing_plan_id":"cebpf4jnsgd1na2vs0mg"},{"bike_id":"18e985ad-a5fa-42c5-b154-f8875761bb59","system_id":"levelo_inurba_marseille","lat":43.3235,"lon":5.36791,"is_reserved":false,"is_disabled":false,"rental_uris":{"android":"levelo://app?vid=18e985ad-a5fa-42c5-b154-f8875761bb59","ios":"levelo://app?vid=18e985ad-a5fa-42c5-b154-f8875761bb59"},"vehicle_type_id":"4","last_reported":1762805592,"current_range_meters":6400,"station_id":"ce4bhsh2rcd13ifvqi2g","pricing_plan_id":"cebpf4jnsgd1na2vs0mg"},{"bike_id":"bcb7664a-39c2-46f8-930f-41cebd3d0b86","system_id":"levelo_inurba_marseille","lat":43.21201,"lon":5.35076,"is_reserved":false,"is_disabled":true,"rental_uris":{"android":"levelo://app?vid=bcb7664a-39c2-46f8-930f-41cebd3d0b86","ios":"levelo://app?vid=bcb7664a-39c2-46f8-930f-41cebd3d0b86"},"vehicle_type_id":"4","last_reported":1762805592,"current_range_meters":6800,"station_id":"st_cvj6sg6p6f1abm77japg","pricing_plan_id":"cebpf4jnsgd1na2vs0mg"},{"bike_id":"c6aaa2be-f2e8-4ff1-89c3-7fc9f9553a57","system_id":"levelo_inurba_marseille","lat":43.27995,"lon":5.40009,"is_reserved":false,"is_disabled":false,"rental_uris":{"android":"levelo://app?vid=c6aaa2be-f2e8-4ff1-89c3-7fc9f9553a57","ios":"levelo://app?vid=c6aaa2be-f2e8-4ff1-89c3-7fc9f9553a57"},"vehicle_type_id":"4","last_reported":1762805592,"current_range_meters":6800,"station_id":"ce4bho92rcd13ifvqh4g","pricing_plan_id":"cebpf4jnsgd1na2vs0mg"},{"bike_id":"94e86492-be0f-4242-8345-c4c22ab08596","system_id":"levelo_inurba_marseille","lat":43.279952,"lon":5.416692,"is_reserved":false,"is_disabled":false,"rental_uris":{"android":"levelo://app?vid=94e86492-be0f-4242-8345-c4c22ab08596","ios":"levelo://app?vid=94e86492-be0f-4242-8345-c4c22ab08596"},"vehicle_type_id":"4","last_reported":1762805592,"current_range_meters":7200,"station_id":"ce4bho12rcd13ifvqh1g","pricing_plan_id":"cebpf4jnsgd1na2vs0mg"},{"bike_id":"e7f6cfcf-ed6d-4d46-8b7a-1a844d02dd39","system_id":"levelo_inurba_marseille","lat":43.26189,"lon":5.37449,"is_reserved":false,"is_disabled":false,"rental_uris":{"android":"levelo://app?vid=e7f6cfcf-ed6d-4d46-8b7a-1a844d02dd39","ios":"levelo://app?vid=e7f6cfcf-ed6d-4d46-8b7a-1a844d02dd39"},"vehicle_type_id":"4","last_reported":1762805592,"current_range_meters":7200,"station_id":"ce4bhgp2rcd13ifvqfc0","pricing_plan_id":"cebpf4jnsgd1na2vs0mg"},{"bike_id":"c804ed0e-8639-4474-87dc-16ee6c014932","system_id":"levelo_inurba_marseille","lat":43.27991,"lon":5.417,"is_reserved":false,"is_disabled":false,"rental_uris":{"android":"levelo://app?vid=c804ed0e-8639-4474-87dc-16ee6c014932","ios":"levelo://app?vid=c804ed0e-8639-4474-87dc-16ee6c014932"},"vehicle_type_id":"4","last_reported":1762805592,"current_range_meters":7200,"station_id":"ce4bho12rcd13ifvqh1g","pricing_plan_id":"cebpf4jnsgd1na2vs0mg"},{"bike_id":"5997c6b0-b0f4-4848-a8f1-63ca201df211","system_id":"levelo_inurba_marseille","lat":43.3395,"lon":5.415,"is_reserved":false,"is_disabled":false,"rental_uris":{"android":"levelo://app?vid=5997c6b0-b0f4-4848-a8f1-63ca201df211","ios":"levelo://app?vid=5997c6b0-b0f4-4848-a8f1-63ca201df211"},"vehicle_type_id":"4","last_reported":1762805592,"current_range_meters":7200,"station_id":"","pricing_plan_id":"cebpf4jnsgd1na2vs0mg"},{"bike_id":"1c1f7cbb-7a7b-4840-82f6-cc0a89eb9a9a","system_id":"levelo_inurba_marseille","lat":43.28664,"lon":5.36353,"is_reserved":false,"is_disabled":false,"rental_uris":{"android":"levelo://app?vid=1c1f7cbb-7a7b-4840-82f6-cc0a89eb9a9a","ios":"levelo://app?vid=1c1f7cbb-7a7b-4840-82f6-cc0a89eb9a9a"},"vehicle_type_id":"4","last_reported":1762805592,"current_range_meters":8000,"station_id":"ce4bhah2rcd13ifvqej0","pricing_plan_id":"cebpf4jnsgd1na2vs0mg"},{"bike_id":"b4d4127c-1c20-47bf-8597-b442d6f68879","system_id":"levelo_inurba_marseille","lat":43.29171,"lon":5.371582,"is_reserved":false,"is_disabled":false,"rental_uris":{"android":"levelo://app?vid=b4d4127c-1c20-47bf-8597-b442d6f68879","ios":"levelo://app?vid=b4d4127c-1c20-47bf-8597-b442d6f68879"},"vehicle_type_id":"4","last_reported":1762805592,"current_range_meters":8000,"station_id":"","pricing_plan_id":"cebpf4jnsgd1na2vs0mg"},{"bike_id":"8298846b-4beb-464e-ae72-19bc05be9ad3","system_id":"levelo_inurba_marseille","lat":43.26029,"lon":5.41731,"is_reserved":false,"is_disabled":false,"rental_uris":{"android":"levelo://app?vid=8298846b-4beb-464e-ae72-19bc05be9ad3","ios":"levelo://app?vid=8298846b-4beb-464e-ae72-19bc05be9ad3"},"vehicle_type_id":"4","last_reported":1762805592,"current_range_meters":8000,"station_id":"","pricing_plan_id":"cebpf4jnsgd1na2vs0mg"},{"bike_id":"ceddb683-9c97-4197-9324-d8e4ffc3f6d7","system_id":"levelo_inurba_marseille","lat":43.302387,"lon":5.383902,"is_reserved":false,"is_disabled":false,"rental_uris":{"android":"levelo://app?vid=ceddb683-9c97-4197-9324-d8e4ffc3f6d7","ios":"levelo://app?vid=ceddb683-9c97-4197-9324-d8e4ffc3f6d7"},"vehicle_type_id":"4","last_reported":1762805592,"current_range_meters":8400,"station_id":"ce4bgk12rcd13ifvqbi0","pricing_plan_id":"cebpf4jnsgd1na2vs0mg"},{"bike_id":"77920ee6-1944-4f7a-b6fc-9aa5e2636094","system_id":"levelo_inurba_marseille","lat":43.30013,"lon":5.38155,"is_reserved":false,"is_disabled":false,"rental_uris":{"android":"levelo://app?vid=77920ee6-1944-4f7a-b6fc-9aa5e2636094","ios":"levelo://app?vid=77920ee6-1944-4f7a-b6fc-9aa5e2636094"},"vehicle_type_id":"4","last_reported":1762805592,"current_range_meters":8400,"station_id":"","pricing_plan_id":"cebpf4jnsgd1na2vs0mg"},{"bike_id":"aa79cbde-d983-4712-9e84-0836e2aa3bd3","system_id":"levelo_inurba_marseille","lat":43.30093,"lon":5.3907,"is_reserved":false,"is_disabled":false,"rental_uris":{"android":"levelo://app?vid=aa79cbde-d983-4712-9e84-0836e2aa3bd3","ios":"levelo://app?vid=aa79cbde-d983-4712-9e84-0836e2aa3bd3"},"vehicle_type_id":"4","last_reported":1762805592,"current_range_meters":8400,"station_id":"ce4bh192rcd13ifvqdb0","pricing_plan_id":"cebpf4jnsgd1na2vs0mg"},{"bike_id":"46748178-17b8-4dc8-80b3-39159ff743e0","system_id":"levelo_inurba_marseille","lat":43.30023,"lon":5.38338,"is_reserved":false,"is_disabled":false,"rental_uris":{"android":"levelo://app?vid=46748178-17b8-4dc8-80b3-39159ff743e0","ios":"levelo://app?vid=46748178-17b8-4dc8-80b3-39159ff743e0"},"vehicle_type_id":"4","last_reported":1762805592,"current_range_meters":8400,"station_id":"","pricing_plan_id":"cebpf4jnsgd1na2vs0mg"},{"bike_id":"b9bd1c3f-c024-4822-b049-8f4e1c9a384f","system_id":"levelo_inurba_marseille","lat":43.27836,"lon":5.39216,"is_reserved":false,"is_disabled":false,"rental_uris":{"android":"levelo://app?vid=b9bd1c3f-c024-4822-b049-8f4e1c9a384f","ios":"levelo://app?vid=b9bd1c3f-c024-4822-b049-8f4e1c9a384f"},"vehicle_type_id":"4","last_reported":1762805592,"current_range_meters":8400,"station_id":"ce4bhjp2rcd13ifvqga0","pricing_plan_id":"cebpf4jnsgd1na2vs0mg"},{"bike_id":"34a1d4f1-be9b-4328-93f1-e367a5a30247","system_id":"levelo_inurba_marseille","lat":43.30113,"lon":5.38955,"is_reserved":false,"is_disabled":false,"rental_uris":{"android":"levelo://app?vid=34a1d4f1-be9b-4328-93f1-e367a5a30247","ios":"levelo://app?vid=34a1d4f1-be9b-4328-93f1-e367a5a30247"},"vehicle_type_id":"4","last_reported":1762805592,"current_range_meters":8400,"station_id":"","pricing_plan_id":"cebpf4jnsgd1na2vs0mg"},{"bike_id":"475ddf72-1038-4e9f-8a30-2031edc3ebd5","system_id":"levelo_inurba_marseille","lat":43.28083,"lon":5.39663,"is_reserved":false,"is_disabled":false,"rental_uris":{"android":"levelo://app?vid=475ddf72-1038-4e9f-8a30-2031edc3ebd5","ios":"levelo://app?vid=475ddf72-1038-4e9f-8a30-2031edc3ebd5"},"vehicle_type_id":"4","last_reported":1762805592,"current_range_meters":8400,"station_id":"ce4bho12rcd13ifvqh2g","pricing_plan_id":"cebpf4jnsgd1na2vs0mg"},{"bike_id":"296b35f4-bf34-48bd-a614-0084f905815f","system_id":"levelo_inurba_marseille","lat":43.29918,"lon":5.36387,"is_reserved":false,"is_disabled":false,"rental_uris":{"android":"levelo://app?vid=296b35f4-bf34-48bd-a614-0084f905815f","ios":"levelo://app?vid=296b35f4-bf34-48bd-a614-0084f905815f"},"vehicle_type_id":"4","last_reported":1762805592,"current_range_meters":8400,"station_id":"","pricing_plan_id":"cebpf4jnsgd1na2vs0mg"},{"bike_id":"a2edf73b-294e-4e03-876a-1f2fcc69ddc3","system_id":"levelo_inurba_marseille","lat":43.331617,"lon":5.376813,"is_reserved":false,"is_disabled":false,"rental_uris":{"android":"levelo://app?vid=a2edf73b-294e-4e03-876a-1f2fcc69ddc3","ios":"levelo://app?vid=a2edf73b-294e-4e03-876a-1f2fcc69ddc3"},"vehicle_type_id":"4","last_reported":1762805592,"current_range_meters":8800,"station_id":"st_d46cu089ee8s73dldbu0","pricing_plan_id":"cebpf4jnsgd1na2vs0mg"},{"bike_id":"ad424ba4-db5f-4692-83fe-e99e8446c8d5","system_id":"levelo_inurba_marseille","lat":43.2808,"lon":5.39662,"is_reserved":false,"is_disabled":false,"rental_uris":{"android":"levelo://app?vid=ad424ba4-db5f-4692-83fe-e99e8446c8d5","ios":"levelo://app?vid=ad424ba4-db5f-4692-83fe-e99e8446c8d5"},"vehicle_type_id":"4","last_reported":1762805592,"current_range_meters":8800,"station_id":"ce4bho12rcd13ifvqh2g","pricing_plan_id":"cebpf4jnsgd1na2vs0mg"},{"bike_id":"f08621f1-92b2-4985-8a3a-96dd283a7c2b","system_id":"levelo_inurba_marseille","lat":43.31354,"lon":5.37932,"is_reserved":false,"is_disabled":false,"rental_uris":{"android":"levelo://app?vid=f08621f1-92b2-4985-8a3a-96dd283a7c2b","ios":"levelo://app?vid=f08621f1-92b2-4985-8a3a-96dd283a7c2b"},"vehicle_type_id":"4","last_reported":1762805592,"current_range_meters":8800,"station_id":"","pricing_plan_id":"cebpf4jnsgd1na2vs0mg"},{"bike_id":"f9c92a43-f0df-4059-af7d-44d2a1759770","system_id":"levelo_inurba_marseille","lat":43.288468,"lon":5.358554,"is_reserved":false,"is_disabled":false,"rental_uris":{"android":"levelo://app?vid=f9c92a43-f0df-4059-af7d-44d2a1759770","ios":"levelo://app?vid=f9c92a43-f0df-4059-af7d-44d2a1759770"},"vehicle_type_id":"4","last_reported":1762805592,"current_range_meters":8800,"station_id":"ce4bhb12rcd13ifvqem0","pricing_plan_id":"cebpf4jnsgd1na2vs0mg"},{"bike_id":"b4cb9bc3-2674-422b-8c74-5594292dd02e","system_id":"levelo_inurba_marseille","lat":43.27531,"lon":5.37497,"is_reserved":false,"is_disabled":false,"rental_uris":{"android":"levelo://app?vid=b4cb9bc3-2674-422b-8c74-5594292dd02e","ios":"levelo://app?vid=b4cb9bc3-2674-422b-8c74-5594292dd02e"},"vehicle_type_id":"4","last_reported":1762805592,"current_range_meters":9200,"station_id":"","pricing_plan_id":"cebpf4jnsgd1na2vs0mg"},{"bike_id":"d054ff3c-8733-4133-964a-1c5d201bea4e","system_id":"levelo_inurba_marseille","lat":43.284302,"lon":5.392021,"is_reserved":false,"is_disabled":false,"rental_uris":{"android":"levelo://app?vid=d054ff3c-8733-4133-964a-1c5d201bea4e","ios":"levelo://app?vid=d054ff3c-8733-4133-964a-1c5d201bea4e"},"vehicle_type_id":"4","last_reported":1762805592,"current_range_meters":9200,"station_id":"ce4bhoh2rcd13ifvqh5g","pricing_plan_id":"cebpf4jnsgd1na2vs0mg"},{"bike_id":"a444c0e2-b41f-4a82-95da-269791bf6f1f","system_id":"levelo_inurba_marseille","lat":43.27899,"lon":5.37997,"is_reserved":false,"is_disabled":false,"rental_uris":{"android":"levelo://app?vid=a444c0e2-b41f-4a82-95da-269791bf6f1f","ios":"levelo://app?vid=a444c0e2-b41f-4a82-95da-269791bf6f1f"},"vehicle_type_id":"4","last_reported":1762805592,"current_range_meters":9600,"station_id":"ce4bhf92rcd13ifvqf50","pricing_plan_id":"cebpf4jnsgd1na2vs0mg"},{"bike_id":"07618fb4-fdf4-452a-a76e-4b0defae3541","system_id":"levelo_inurba_marseille","lat":43.225361,"lon":5.348313,"is_reserved":false,"is_disabled":false,"rental_uris":{"android":"levelo://app?vid=07618fb4-fdf4-452a-a76e-4b0defae3541","ios":"levelo://app?vid=07618fb4-fdf4-452a-a76e-4b0defae3541"},"vehicle_type_id":"4","last_reported":1762805592,"current_range_meters":9600,"station_id":"","pricing_plan_id":"cebpf4jnsgd1na2vs0mg"},{"bike_id":"ebdb5bec-ac33-4499-96e4-2713090e0a8e","system_id":"levelo_inurba_marseille","lat":43.29252,"lon":5.3843,"is_reserved":false,"is_disabled":true,"rental_uris":{"android":"levelo://app?vid=ebdb5bec-ac33-4499-96e4-2713090e0a8e","ios":"levelo://app?vid=ebdb5bec-ac33-4499-96e4-2713090e0a8e"},"vehicle_type_id":"4","last_reported":1762805592,"current_range_meters":9600,"station_id":"ce4bh692rcd13ifvqea0","pricing_plan_id":"cebpf4jnsgd1na2vs0mg"},{"bike_id":"87524a3f-48c2-4e95-9608-7652abaa9a53","system_id":"levelo_inurba_marseille","lat":43.30721,"lon":5.36766,"is_reserved":false,"is_disabled":false,"rental_uris":{"android":"levelo://app?vid=87524a3f-48c2-4e95-9608-7652abaa9a53","ios":"levelo://app?vid=87524a3f-48c2-4e95-9608-7652abaa9a53"},"vehicle_type_id":"4","last_reported":1762805592,"current_range_meters":10000,"station_id":"","pricing_plan_id":"cebpf4jnsgd1na2vs0mg"},{"bike_id":"ab4ac132-5519-4aac-ac12-8b8c2929bb7e","system_id":"levelo_inurba_marseille","lat":43.32302,"lon":5.38493,"is_reserved":false,"is_disabled":false,"rental_uris":{"android":"levelo://app?vid=ab4ac132-5519-4aac-ac12-8b8c2929bb7e","ios":"levelo://app?vid=ab4ac132-5519-4aac-ac12-8b8c2929bb7e"},"vehicle_type_id":"4","last_reported":1762805592,"current_range_meters":10000,"station_id":"st_d45171o9ee8s73djdqug","pricing_plan_id":"cebpf4jnsgd1na2vs0mg"},{"bike_id":"0a9230e9-a144-49a2-b01c-3ebb2443ba20","system_id":"levelo_inurba_marseille","lat":43.27839,"lon":5.39213,"is_reserved":false,"is_disabled":false,"rental_uris":{"android":"levelo://app?vid=0a9230e9-a144-49a2-b01c-3ebb2443ba20","ios":"levelo://app?vid=0a9230e9-a144-49a2-b01c-3ebb2443ba20"},"vehicle_type_id":"4","last_reported":1762805592,"current_range_meters":10000,"station_id":"ce4bhjp2rcd13ifvqga0","pricing_plan_id":"cebpf4jnsgd1na2vs0mg"},{"bike_id":"be3d8650-9293-46bc-b0c9-a47bad563b96","system_id":"levelo_inurba_marseille","lat":43.21758,"lon":5.34597,"is_reserved":false,"is_disabled":false,"rental_uris":{"android":"levelo://app?vid=be3d8650-9293-46bc-b0c9-a47bad563b96","ios":"levelo://app?vid=be3d8650-9293-46bc-b0c9-a47bad563b96"},"vehicle_type_id":"4","last_reported":1762805592,"current_range_meters":10000,"station_id":"st_cvj6r9ubvosntc0bgbag","pricing_plan_id":"cebpf4jnsgd1na2vs0mg"},{"bike_id":"ea673a9b-229e-4613-866c-e33a2cdf7118","system_id":"levelo_inurba_marseille","lat":43.27967,"lon":5.4101,"is_reserved":false,"is_disabled":false,"rental_uris":{"android":"levelo://app?vid=ea673a9b-229e-4613-866c-e33a2cdf7118","ios":"levelo://app?vid=ea673a9b-229e-4613-866c-e33a2cdf7118"},"vehicle_type_id":"4","last_reported":1762805592,"current_range_meters":10000,"station_id":"ce4bhnp2rcd13ifvqh0g","pricing_plan_id":"cebpf4jnsgd1na2vs0mg"},{"bike_id":"39ff6a52-7c15-4e36-9056-950efe8be9ca","system_id":"levelo_inurba_marseille","lat":43.28474,"lon":5.48393,"is_reserved":false,"is_disabled":false,"rental_uris":{"android":"levelo://app?vid=39ff6a52-7c15-4e36-9056-950efe8be9ca","ios":"levelo://app?vid=39ff6a52-7c15-4e36-9056-950efe8be9ca"},"vehicle_type_id":"4","last_reported":1762805592,"current_range_meters":10000,"station_id":"","pricing_plan_id":"cebpf4jnsgd1na2vs0mg"},{"bike_id":"9da089db-b8f6-492f-b28a-fc2b7e46f930","system_id":"levelo_inurba_marseille","lat":43.31232,"lon":5.36873,"is_reserved":false,"is_disabled":false,"rental_uris":{"android":"levelo://app?vid=9da089db-b8f6-492f-b28a-fc2b7e46f930","ios":"levelo://app?vid=9da089db-b8f6-492f-b28a-fc2b7e46f930"},"vehicle_type_id":"4","last_reported":1762805592,"current_range_meters":10000,"station_id":"ce4bgl92rcd13ifvqbq0","pricing_plan_id":"cebpf4jnsgd1na2vs0mg"},{"bike_id":"03c74275-0686-4021-b36e-f057cc335eee","system_id":"levelo_inurba_marseille","lat":43.2551,"lon":5.37656,"is_reserved":false,"is_disabled":false,"rental_uris":{"android":"levelo://app?vid=03c74275-0686-4021-b36e-f057cc335eee","ios":"levelo://app?vid=03c74275-0686-4021-b36e-f057cc335eee"},"vehicle_type_id":"4","last_reported":1762805592,"current_range_meters":10000,"station_id":"ce4bhh12rcd13ifvqff0","pricing_plan_id":"cebpf4jnsgd1na2vs0mg"},{"bike_id":"d32acf6f-21aa-4fbf-bed6-33d296ca0f9f","system_id":"levelo_inurba_marseille","lat":43.21751,"lon":5.34589,"is_reserved":false,"is_disabled":false,"rental_uris":{"android":"levelo://app?vid=d32acf6f-21aa-4fbf-bed6-33d296ca0f9f","ios":"levelo://app?vid=d32acf6f-21aa-4fbf-bed6-33d296ca0f9f"},"vehicle_type_id":"4","last_reported":1762805592,"current_range_meters":10800,"station_id":"st_cvj6r9ubvosntc0bgbag","pricing_plan_id":"cebpf4jnsgd1na2vs0mg"},{"bike_id":"f8289a13-e81c-4623-9f2b-25526f5fdc46","system_id":"levelo_inurba_marseille","lat":43.29878,"lon":5.38913,"is_reserved":false,"is_disabled":false,"rental_uris":{"android":"levelo://app?vid=f8289a13-e81c-4623-9f2b-25526f5fdc46","ios":"levelo://app?vid=f8289a13-e81c-4623-9f2b-25526f5fdc46"},"vehicle_type_id":"4","last_reported":1762805592,"current_range_meters":10800,"station_id":"ce4bh392rcd13ifvqdl0","pricing_plan_id":"cebpf4jnsgd1na2vs0mg"},{"bike_id":"a906f7c6-e9b7-42af-8bd2-6e1feeb979a5","system_id":"levelo_inurba_marseille","lat":43.28839,"lon":5.3957,"is_reserved":false,"is_disabled":false,"rental_uris":{"android":"levelo://app?vid=a906f7c6-e9b7-42af-8bd2-6e1feeb979a5","ios":"levelo://app?vid=a906f7c6-e9b7-42af-8bd2-6e1feeb979a5"},"vehicle_type_id":"4","last_reported":1762805592,"current_range_meters":10800,"station_id":"","pricing_plan_id":"cebpf4jnsgd1na2vs0mg"},{"bike_id":"93b49ebf-d9fa-49cd-9da3-22e867a810f3","system_id":"levelo_inurba_marseille","lat":43.29756,"lon":5.41104,"is_reserved":false,"is_disabled":false,"rental_uris":{"android":"levelo://app?vid=93b49ebf-d9fa-49cd-9da3-22e867a810f3","ios":"levelo://app?vid=93b49ebf-d9fa-49cd-9da3-22e867a810f3"},"vehicle_type_id":"4","last_reported":1762805592,"current_range_meters":10800,"station_id":"","pricing_plan_id":"cebpf4jnsgd1na2vs0mg"},{"bike_id":"97182476-c675-4ea8-a588-e53ccc97474d","system_id":"levelo_inurba_marseille","lat":43.27914,"lon":5.3958,"is_reserved":false,"is_disabled":false,"rental_uris":{"android":"levelo://app?vid=97182476-c675-4ea8-a588-e53ccc97474d","ios":"levelo://app?vid=97182476-c675-4ea8-a588-e53ccc97474d"},"vehicle_type_id":"4","last_reported":1762805592,"current_range_meters":10800,"station_id":"ce4bhf92rcd13ifvqf40","pricing_plan_id":"cebpf4jnsgd1na2vs0mg"},{"bike_id":"ffe050e8-e964-43f0-affe-fdb013a22c0b","system_id":"levelo_inurba_marseille","lat":43.28473,"lon":5.484,"is_reserved":false,"is_disabled":false,"rental_uris":{"android":"levelo://app?vid=ffe050e8-e964-43f0-affe-fdb013a22c0b","ios":"levelo://app?vid=ffe050e8-e964-43f0-affe-fdb013a22c0b"},"vehicle_type_id":"4","last_reported":1762805592,"current_range_meters":10800,"station_id":"","pricing_plan_id":"cebpf4jnsgd1na2vs0mg"},{"bike_id":"96807a8e-1b45-4a36-b7ed-92091f4bcaf6","system_id":"levelo_inurba_marseille","lat":43.309306,"lon":5.401424,"is_reserved":false,"is_disabled":true,"rental_uris":{"android":"levelo://app?vid=96807a8e-1b45-4a36-b7ed-92091f4bcaf6","ios":"levelo://app?vid=96807a8e-1b45-4a36-b7ed-92091f4bcaf6"},"vehicle_type_id":"4","last_reported":1762805592,"current_range_meters":11200,"station_id":"","pricing_plan_id":"cebpf4jnsgd1na2vs0mg"},{"bike_id":"c46f97eb-7355-4207-aa89-3d75aeb8c6c0","system_id":"levelo_inurba_marseille","lat":43.289746,"lon":5.378369,"is_reserved":false,"is_disabled":false,"rental_uris":{"android":"levelo://app?vid=c46f97eb-7355-4207-aa89-3d75aeb8c6c0","ios":"levelo://app?vid=c46f97eb-7355-4207-aa89-3d75aeb8c6c0"},"vehicle_type_id":"4","last_reported":1762805592,"current_range_meters":11200,"station_id":"ce4bh9p2rcd13ifvqed0","pricing_plan_id":"cebpf4jnsgd1na2vs0mg"},{"bike_id":"db1a8d26-c25d-4b37-88b4-16381a12153c","system_id":"levelo_inurba_marseille","lat":43.255764,"lon":5.382408,"is_reserved":false,"is_disabled":false,"rental_uris":{"android":"levelo://app?vid=db1a8d26-c25d-4b37-88b4-16381a12153c","ios":"levelo://app?vid=db1a8d26-c25d-4b37-88b4-16381a12153c"},"vehicle_type_id":"4","last_reported":1762805592,"current_range_meters":11200,"station_id":"ce4bhih2rcd13ifvqfs0","pricing_plan_id":"cebpf4jnsgd1na2vs0mg"},{"bike_id":"fb32b0aa-2dda-450e-857e-5b75fd3a98e4","system_id":"levelo_inurba_marseille","lat":43.30422,"lon":5.38886,"is_reserved":false,"is_disabled":false,"rental_uris":{"android":"levelo://app?vid=fb32b0aa-2dda-450e-857e-5b75fd3a98e4","ios":"levelo://app?vid=fb32b0aa-2dda-450e-857e-5b75fd3a98e4"},"vehicle_type_id":"4","last_reported":1762805592,"current_range_meters":11200,"station_id":"ce4bgk12rcd13ifvqbi0","pricing_plan_id":"cebpf4jnsgd1na2vs0mg"},{"bike_id":"b5c4eef7-c933-41c2-a6fc-72bf1dce1419","system_id":"levelo_inurba_marseille","lat":43.29533,"lon":5.38554,"is_reserved":false,"is_disabled":false,"rental_uris":{"android":"levelo://app?vid=b5c4eef7-c933-41c2-a6fc-72bf1dce1419","ios":"levelo://app?vid=b5c4eef7-c933-41c2-a6fc-72bf1dce1419"},"vehicle_type_id":"4","last_reported":1762805592,"current_range_meters":11200,"station_id":"ce4bgih2rcd13ifvqba0","pricing_plan_id":"cebpf4jnsgd1na2vs0mg"},{"bike_id":"41fe0557-d727-4f98-b86a-3be0e280ba9a","system_id":"levelo_inurba_marseille","lat":43.3022,"lon":5.39475,"is_reserved":false,"is_disabled":false,"rental_uris":{"android":"levelo://app?vid=41fe0557-d727-4f98-b86a-3be0e280ba9a","ios":"levelo://app?vid=41fe0557-d727-4f98-b86a-3be0e280ba9a"},"vehicle_type_id":"4","last_reported":1762805592,"current_range_meters":11200,"station_id":"ce4bh0p2rcd13ifvqd70","pricing_plan_id":"cebpf4jnsgd1na2vs0mg"},{"bike_id":"cc7e9749-d205-466e-a3ba-a04ec3ee1c9f","system_id":"levelo_inurba_marseille","lat":43.270714,"lon":5.422774,"is_reserved":false,"is_disabled":false,"rental_uris":{"android":"levelo://app?vid=cc7e9749-d205-466e-a3ba-a04ec3ee1c9f","ios":"levelo://app?vid=cc7e9749-d205-466e-a3ba-a04ec3ee1c9f"},"vehicle_type_id":"4","last_reported":1762805592,"current_range_meters":11600,"station_id":"ce4bhk92rcd13ifvqgb0","pricing_plan_id":"cebpf4jnsgd1na2vs0mg"},{"bike_id":"d3d32d0b-6138-4cdf-bb86-8e9e82ed0166","system_id":"levelo_inurba_marseille","lat":43.27682,"lon":5.38895,"is_reserved":false,"is_disabled":false,"rental_uris":{"android":"levelo://app?vid=d3d32d0b-6138-4cdf-bb86-8e9e82ed0166","ios":"levelo://app?vid=d3d32d0b-6138-4cdf-bb86-8e9e82ed0166"},"vehicle_type_id":"4","last_reported":1762805592,"current_range_meters":11600,"station_id":"ce4bhi12rcd13ifvqfo0","pricing_plan_id":"cebpf4jnsgd1na2vs0mg"},{"bike_id":"ac8a8750-1d87-4cf8-9c77-e78b99da5512","system_id":"levelo_inurba_marseille","lat":43.23605,"lon":5.361713,"is_reserved":false,"is_disabled":false,"rental_uris":{"android":"levelo://app?vid=ac8a8750-1d87-4cf8-9c77-e78b99da5512","ios":"levelo://app?vid=ac8a8750-1d87-4cf8-9c77-e78b99da5512"},"vehicle_type_id":"4","last_reported":1762805592,"current_range_meters":11600,"station_id":"","pricing_plan_id":"cebpf4jnsgd1na2vs0mg"},{"bike_id":"6ae87b41-3981-4b69-b43c-0b6bde62265a","system_id":"levelo_inurba_marseille","lat":43.33771,"lon":5.37424,"is_reserved":false,"is_disabled":false,"rental_uris":{"android":"levelo://app?vid=6ae87b41-3981-4b69-b43c-0b6bde62265a","ios":"levelo://app?vid=6ae87b41-3981-4b69-b43c-0b6bde62265a"},"vehicle_type_id":"4","last_reported":1762805592,"current_range_meters":11600,"station_id":"","pricing_plan_id":"cebpf4jnsgd1na2vs0mg"},{"bike_id":"896a0fc4-e98e-425f-b646-7db4d5ace172","system_id":"levelo_inurba_marseille","lat":43.3199,"lon":5.38155,"is_reserved":false,"is_disabled":false,"rental_uris":{"android":"levelo://app?vid=896a0fc4-e98e-425f-b646-7db4d5ace172","ios":"levelo://app?vid=896a0fc4-e98e-425f-b646-7db4d5ace172"},"vehicle_type_id":"4","last_reported":1762805592,"current_range_meters":11600,"station_id":"ce4bhr12rcd13ifvqhpg","pricing_plan_id":"cebpf4jnsgd1na2vs0mg"},{"bike_id":"461da748-d5d0-48ae-badc-1ca04967bd57","system_id":"levelo_inurba_marseille","lat":43.28999,"lon":5.35615,"is_reserved":false,"is_disabled":false,"rental_uris":{"android":"levelo://app?vid=461da748-d5d0-48ae-badc-1ca04967bd57","ios":"levelo://app?vid=461da748-d5d0-48ae-badc-1ca04967bd57"},"vehicle_type_id":"4","last_reported":1762805592,"current_range_meters":11600,"station_id":"ce4bhb92rcd13ifvqen0","pricing_plan_id":"cebpf4jnsgd1na2vs0mg"},{"bike_id":"24de70df-9b80-4721-8771-f61cb7be1ef9","system_id":"levelo_inurba_marseille","lat":43.3192,"lon":5.38126,"is_reserved":false,"is_disabled":false,"rental_uris":{"android":"levelo://app?vid=24de70df-9b80-4721-8771-f61cb7be1ef9","ios":"levelo://app?vid=24de70df-9b80-4721-8771-f61cb7be1ef9"},"vehicle_type_id":"4","last_reported":1762805592,"current_range_meters":11600,"station_id":"","pricing_plan_id":"cebpf4jnsgd1na2vs0mg"},{"bike_id":"d331b58f-0754-4181-93f7-d4d5e2f8b496","system_id":"levelo_inurba_marseille","lat":43.225347,"lon":5.348291,"is_reserved":false,"is_disabled":false,"rental_uris":{"android":"levelo://app?vid=d331b58f-0754-4181-93f7-d4d5e2f8b496","ios":"levelo://app?vid=d331b58f-0754-4181-93f7-d4d5e2f8b496"},"vehicle_type_id":"4","last_reported":1762805592,"current_range_meters":11600,"station_id":"","pricing_plan_id":"cebpf4jnsgd1na2vs0mg"},{"bike_id":"eeb4f6c6-0773-48b0-b402-394c440f4bbc","system_id":"levelo_inurba_marseille","lat":43.29512,"lon":5.394,"is_reserved":false,"is_disabled":true,"rental_uris":{"android":"levelo://app?vid=eeb4f6c6-0773-48b0-b402-394c440f4bbc","ios":"levelo://app?vid=eeb4f6c6-0773-48b0-b402-394c440f4bbc"},"vehicle_type_id":"4","last_reported":1762805592,"current_range_meters":11600,"station_id":"ce4bh292rcd13ifvqdf0","pricing_plan_id":"cebpf4jnsgd1na2vs0mg"},{"bike_id":"ed63a729-2c24-4076-bfcb-5692187ed558","system_id":"levelo_inurba_marseille","lat":43.26565,"lon":5.40321,"is_reserved":false,"is_disabled":false,"rental_uris":{"android":"levelo://app?vid=ed63a729-2c24-4076-bfcb-5692187ed558","ios":"levelo://app?vid=ed63a729-2c24-4076-bfcb-5692187ed558"},"vehicle_type_id":"4","last_reported":1762805592,"current_range_meters":11600,"station_id":"ce4bhmp2rcd13ifvqgng","pricing_plan_id":"cebpf4jnsgd1na2vs0mg"},{"bike_id":"63d8a065-f82d-4c47-b620-a30ed0ec93ea","system_id":"levelo_inurba_marseille","lat":43.27997,"lon":5.41644,"is_reserved":false,"is_disabled":false,"rental_uris":{"android":"levelo://app?vid=63d8a065-f82d-4c47-b620-a30ed0ec93ea","ios":"levelo://app?vid=63d8a065-f82d-4c47-b620-a30ed0ec93ea"},"vehicle_type_id":"4","last_reported":1762805592,"current_range_meters":12000,"station_id":"ce4bho12rcd13ifvqh1g","pricing_plan_id":"cebpf4jnsgd1na2vs0mg"},{"bike_id":"2d003246-289e-4235-87e3-d86a55465f5e","system_id":"levelo_inurba_marseille","lat":43.29892,"lon":5.37537,"is_reserved":false,"is_disabled":false,"rental_uris":{"android":"levelo://app?vid=2d003246-289e-4235-87e3-d86a55465f5e","ios":"levelo://app?vid=2d003246-289e-4235-87e3-d86a55465f5e"},"vehicle_type_id":"4","last_reported":1762805592,"current_range_meters":12000,"station_id":"","pricing_plan_id":"cebpf4jnsgd1na2vs0mg"},{"bike_id":"1912c64c-0d16-4f70-8842-b12c8770f619","system_id":"levelo_inurba_marseille","lat":43.28677,"lon":5.38671,"is_reserved":false,"is_disabled":false,"rental_uris":{"android":"levelo://app?vid=1912c64c-0d16-4f70-8842-b12c8770f619","ios":"levelo://app?vid=1912c64c-0d16-4f70-8842-b12c8770f619"},"vehicle_type_id":"4","last_reported":1762805592,"current_range_meters":12000,"station_id":"ce4bh492rcd13ifvqdug","pricing_plan_id":"cebpf4jnsgd1na2vs0mg"},{"bike_id":"81ae76cc-b801-4759-b58f-2b51d812735a","system_id":"levelo_inurba_marseille","lat":43.21751,"lon":5.34596,"is_reserved":false,"is_disabled":false,"rental_uris":{"android":"levelo://app?vid=81ae76cc-b801-4759-b58f-2b51d812735a","ios":"levelo://app?vid=81ae76cc-b801-4759-b58f-2b51d812735a"},"vehicle_type_id":"4","last_reported":1762805592,"current_range_meters":12000,"station_id":"st_cvj6r9ubvosntc0bgbag","pricing_plan_id":"cebpf4jnsgd1na2vs0mg"},{"bike_id":"a2261492-19dd-44fa-8c32-b4eeed495387","system_id":"levelo_inurba_marseille","lat":43.29862,"lon":5.36275,"is_reserved":false,"is_disabled":false,"rental_uris":{"android":"levelo://app?vid=a2261492-19dd-44fa-8c32-b4eeed495387","ios":"levelo://app?vid=a2261492-19dd-44fa-8c32-b4eeed495387"},"vehicle_type_id":"4","last_reported":1762805592,"current_range_meters":12000,"station_id":"ce4bgpp2rcd13ifvqc3g","pricing_plan_id":"cebpf4jnsgd1na2vs0mg"},{"bike_id":"19d97750-977b-4379-8bf5-4d571f1f6aec","system_id":"levelo_inurba_marseille","lat":43.34114,"lon":5.40715,"is_reserved":false,"is_disabled":false,"rental_uris":{"android":"levelo://app?vid=19d97750-977b-4379-8bf5-4d571f1f6aec","ios":"levelo://app?vid=19d97750-977b-4379-8bf5-4d571f1f6aec"},"vehicle_type_id":"4","last_reported":1762805592,"current_range_meters":12000,"station_id":"","pricing_plan_id":"cebpf4jnsgd1na2vs0mg"},{"bike_id":"915022bf-db5e-4399-b6a8-9c3317e6d8a1","system_id":"levelo_inurba_marseille","lat":43.28861,"lon":5.42511,"is_reserved":false,"is_disabled":false,"rental_uris":{"android":"levelo://app?vid=915022bf-db5e-4399-b6a8-9c3317e6d8a1","ios":"levelo://app?vid=915022bf-db5e-4399-b6a8-9c3317e6d8a1"},"vehicle_type_id":"4","last_reported":1762805592,"current_range_meters":12000,"station_id":"st_d3b462108ojc7389ooeg","pricing_plan_id":"cebpf4jnsgd1na2vs0mg"},{"bike_id":"fb0e6bea-d078-4452-905b-07db49a4858c","system_id":"levelo_inurba_marseille","lat":43.28481,"lon":5.48402,"is_reserved":false,"is_disabled":false,"rental_uris":{"android":"levelo://app?vid=fb0e6bea-d078-4452-905b-07db49a4858c","ios":"levelo://app?vid=fb0e6bea-d078-4452-905b-07db49a4858c"},"vehicle_type_id":"4","last_reported":1762805592,"current_range_meters":12000,"station_id":"","pricing_plan_id":"cebpf4jnsgd1na2vs0mg"},{"bike_id":"65417ce1-2776-4dc6-8aca-118ed3563d0f","system_id":"levelo_inurba_marseille","lat":43.22566,"lon":5.41622,"is_reserved":false,"is_disabled":false,"rental_uris":{"android":"levelo://app?vid=65417ce1-2776-4dc6-8aca-118ed3563d0f","ios":"levelo://app?vid=65417ce1-2776-4dc6-8aca-118ed3563d0f"},"vehicle_type_id":"4","last_reported":1762805592,"current_range_meters":12000,"station_id":"st_d2o4gvlbi1j2169b742g","pricing_plan_id":"cebpf4jnsgd1na2vs0mg"},{"bike_id":"90e706d8-220c-49ed-92ff-d1178a6d8760","system_id":"levelo_inurba_marseille","lat":43.287029,"lon":5.399976,"is_reserved":false,"is_disabled":false,"rental_uris":{"android":"levelo://app?vid=90e706d8-220c-49ed-92ff-d1178a6d8760","ios":"levelo://app?vid=90e706d8-220c-49ed-92ff-d1178a6d8760"},"vehicle_type_id":"4","last_reported":1762805592,"current_range_meters":12400,"station_id":"","pricing_plan_id":"cebpf4jnsgd1na2vs0mg"},{"bike_id":"cf507ce0-5c97-4c7e-a082-39e0dafe2718","system_id":"levelo_inurba_marseille","lat":43.27815,"lon":5.40713,"is_reserved":false,"is_disabled":false,"rental_uris":{"android":"levelo://app?vid=cf507ce0-5c97-4c7e-a082-39e0dafe2718","ios":"levelo://app?vid=cf507ce0-5c97-4c7e-a082-39e0dafe2718"},"vehicle_type_id":"4","last_reported":1762805592,"current_range_meters":12400,"station_id":"ce4bhnh2rcd13ifvqgtg","pricing_plan_id":"cebpf4jnsgd1na2vs0mg"},{"bike_id":"d4f8445f-c08b-4ec0-bd23-f4923b49b196","system_id":"levelo_inurba_marseille","lat":43.29023,"lon":5.38641,"is_reserved":false,"is_disabled":false,"rental_uris":{"android":"levelo://app?vid=d4f8445f-c08b-4ec0-bd23-f4923b49b196","ios":"levelo://app?vid=d4f8445f-c08b-4ec0-bd23-f4923b49b196"},"vehicle_type_id":"4","last_reported":1762805592,"current_range_meters":12400,"station_id":"ce4bh4p2rcd13ifvqe0g","pricing_plan_id":"cebpf4jnsgd1na2vs0mg"},{"bike_id":"33382fd9-7369-4606-a4d3-9ef89d743f75","system_id":"levelo_inurba_marseille","lat":43.293154,"lon":5.371395,"is_reserved":false,"is_disabled":false,"rental_uris":{"android":"levelo://app?vid=33382fd9-7369-4606-a4d3-9ef89d743f75","ios":"levelo://app?vid=33382fd9-7369-4606-a4d3-9ef89d743f75"},"vehicle_type_id":"4","last_reported":1762805592,"current_range_meters":12400,"station_id":"ce4bgh92rcd13ifvqb40","pricing_plan_id":"cebpf4jnsgd1na2vs0mg"},{"bike_id":"bb673994-b9ec-4ca4-a388-67c43209657a","system_id":"levelo_inurba_marseille","lat":43.3074,"lon":5.36969,"is_reserved":false,"is_disabled":false,"rental_uris":{"android":"levelo://app?vid=bb673994-b9ec-4ca4-a388-67c43209657a","ios":"levelo://app?vid=bb673994-b9ec-4ca4-a388-67c43209657a"},"vehicle_type_id":"4","last_reported":1762805592,"current_range_meters":12400,"station_id":"","pricing_plan_id":"cebpf4jnsgd1na2vs0mg"},{"bike_id":"9fc59d22-8e56-48e1-b7b6-6b21b0982bb9","system_id":"levelo_inurba_marseille","lat":43.23193,"lon":5.35549,"is_reserved":false,"is_disabled":false,"rental_uris":{"android":"levelo://app?vid=9fc59d22-8e56-48e1-b7b6-6b21b0982bb9","ios":"levelo://app?vid=9fc59d22-8e56-48e1-b7b6-6b21b0982bb9"},"vehicle_type_id":"4","last_reported":1762805592,"current_range_meters":12400,"station_id":"ce4bhu92rcd13ifvqi70","pricing_plan_id":"cebpf4jnsgd1na2vs0mg"},{"bike_id":"fd572400-4e62-443b-b2d9-86ea88c2dfdf","system_id":"levelo_inurba_marseille","lat":43.21754,"lon":5.34585,"is_reserved":false,"is_disabled":true,"rental_uris":{"android":"levelo://app?vid=fd572400-4e62-443b-b2d9-86ea88c2dfdf","ios":"levelo://app?vid=fd572400-4e62-443b-b2d9-86ea88c2dfdf"},"vehicle_type_id":"4","last_reported":1762805592,"current_range_meters":12400,"station_id":"","pricing_plan_id":"cebpf4jnsgd1na2vs0mg"},{"bike_id":"1086c95b-b74f-4e99-9e15-ae33be8101e5","system_id":"levelo_inurba_marseille","lat":43.30145,"lon":5.37628,"is_reserved":false,"is_disabled":false,"rental_uris":{"android":"levelo://app?vid=1086c95b-b74f-4e99-9e15-ae33be8101e5","ios":"levelo://app?vid=1086c95b-b74f-4e99-9e15-ae33be8101e5"},"vehicle_type_id":"4","last_reported":1762805592,"current_range_meters":12800,"station_id":"","pricing_plan_id":"cebpf4jnsgd1na2vs0mg"},{"bike_id":"38c2f37d-7118-4102-9673-3386f099e2f7","system_id":"levelo_inurba_marseille","lat":43.29036,"lon":5.35915,"is_reserved":false,"is_disabled":false,"rental_uris":{"android":"levelo://app?vid=38c2f37d-7118-4102-9673-3386f099e2f7","ios":"levelo://app?vid=38c2f37d-7118-4102-9673-3386f099e2f7"},"vehicle_type_id":"4","last_reported":1762805592,"current_range_meters":12800,"station_id":"ce4bha92rcd13ifvqeg0","pricing_plan_id":"cebpf4jnsgd1na2vs0mg"},{"bike_id":"9c241647-20ac-4941-8d18-01a6e3add973","system_id":"levelo_inurba_marseille","lat":43.245353,"lon":5.395092,"is_reserved":false,"is_disabled":true,"rental_uris":{"android":"levelo://app?vid=9c241647-20ac-4941-8d18-01a6e3add973","ios":"levelo://app?vid=9c241647-20ac-4941-8d18-01a6e3add973"},"vehicle_type_id":"4","last_reported":1762805592,"current_range_meters":12800,"station_id":"ce4bhlp2rcd13ifvqgjg","pricing_plan_id":"cebpf4jnsgd1na2vs0mg"},{"bike_id":"a33005c1-f643-4adb-8bee-fa011c7be68c","system_id":"levelo_inurba_marseille","lat":43.22532,"lon":5.34831,"is_reserved":false,"is_disabled":false,"rental_uris":{"android":"levelo://app?vid=a33005c1-f643-4adb-8bee-fa011c7be68c","ios":"levelo://app?vid=a33005c1-f643-4adb-8bee-fa011c7be68c"},"vehicle_type_id":"4","last_reported":1762805592,"current_range_meters":12800,"station_id":"","pricing_plan_id":"cebpf4jnsgd1na2vs0mg"},{"bike_id":"fe53f30a-f235-4b9a-b297-6c4aedc17b2d","system_id":"levelo_inurba_marseille","lat":43.31375,"lon":5.38496,"is_reserved":false,"is_disabled":false,"rental_uris":{"android":"levelo://app?vid=fe53f30a-f235-4b9a-b297-6c4aedc17b2d","ios":"levelo://app?vid=fe53f30a-f235-4b9a-b297-6c4aedc17b2d"},"vehicle_type_id":"4","last_reported":1762805592,"current_range_meters":12800,"station_id":"ce4bgt92rcd13ifvqcf0","pricing_plan_id":"cebpf4jnsgd1na2vs0mg"},{"bike_id":"ba59118d-c89e-4215-aac7-643380e17213","system_id":"levelo_inurba_marseille","lat":43.322697,"lon":5.383461,"is_reserved":false,"is_disabled":false,"rental_uris":{"android":"levelo://app?vid=ba59118d-c89e-4215-aac7-643380e17213","ios":"levelo://app?vid=ba59118d-c89e-4215-aac7-643380e17213"},"vehicle_type_id":"4","last_reported":1762805592,"current_range_meters":12800,"station_id":"ce4bhr12rcd13ifvqhqg","pricing_plan_id":"cebpf4jnsgd1na2vs0mg"},{"bike_id":"c64fee4c-3836-4a94-a755-da7f55e34d14","system_id":"levelo_inurba_marseille","lat":43.29543,"lon":5.38536,"is_reserved":false,"is_disabled":false,"rental_uris":{"android":"levelo://app?vid=c64fee4c-3836-4a94-a755-da7f55e34d14","ios":"levelo://app?vid=c64fee4c-3836-4a94-a755-da7f55e34d14"},"vehicle_type_id":"4","last_reported":1762805592,"current_range_meters":12800,"station_id":"ce4bgih2rcd13ifvqba0","pricing_plan_id":"cebpf4jnsgd1na2vs0mg"},{"bike_id":"4ef56f27-b618-4191-843e-9c861890082c","system_id":"levelo_inurba_marseille","lat":43.28542,"lon":5.39253,"is_reserved":false,"is_disabled":true,"rental_uris":{"android":"levelo://app?vid=4ef56f27-b618-4191-843e-9c861890082c","ios":"levelo://app?vid=4ef56f27-b618-4191-843e-9c861890082c"},"vehicle_type_id":"4","last_reported":1762805592,"current_range_meters":12800,"station_id":"","pricing_plan_id":"cebpf4jnsgd1na2vs0mg"},{"bike_id":"9b25880f-a64a-416b-864b-54f865b4f13b","system_id":"levelo_inurba_marseille","lat":43.29297,"lon":5.37144,"is_reserved":false,"is_disabled":false,"rental_uris":{"android":"levelo://app?vid=9b25880f-a64a-416b-864b-54f865b4f13b","ios":"levelo://app?vid=9b25880f-a64a-416b-864b-54f865b4f13b"},"vehicle_type_id":"4","last_reported":1762805592,"current_range_meters":12800,"station_id":"ce4bgh92rcd13ifvqb40","pricing_plan_id":"cebpf4jnsgd1na2vs0mg"},{"bike_id":"9be94b56-15ef-463f-ba7e-e63df6171cb1","system_id":"levelo_inurba_marseille","lat":43.21761,"lon":5.34586,"is_reserved":false,"is_disabled":false,"rental_uris":{"android":"levelo://app?vid=9be94b56-15ef-463f-ba7e-e63df6171cb1","ios":"levelo://app?vid=9be94b56-15ef-463f-ba7e-e63df6171cb1"},"vehicle_type_id":"4","last_reported":1762805592,"current_range_meters":12800,"station_id":"st_cvj6r9ubvosntc0bgbag","pricing_plan_id":"cebpf4jnsgd1na2vs0mg"},{"bike_id":"9778b994-32b1-414b-b3d2-74abe2925ec7","system_id":"levelo_inurba_marseille","lat":43.31333,"lon":5.39699,"is_reserved":false,"is_disabled":false,"rental_uris":{"android":"levelo://app?vid=9778b994-32b1-414b-b3d2-74abe2925ec7","ios":"levelo://app?vid=9778b994-32b1-414b-b3d2-74abe2925ec7"},"vehicle_type_id":"4","last_reported":1762805592,"current_range_meters":12800,"station_id":"ce4bgvp2rcd13ifvqcu0","pricing_plan_id":"cebpf4jnsgd1na2vs0mg"},{"bike_id":"fac7beeb-a82c-4379-81dd-1342dcd7c9d3","system_id":"levelo_inurba_marseille","lat":43.29196,"lon":5.35794,"is_reserved":false,"is_disabled":false,"rental_uris":{"android":"levelo://app?vid=fac7beeb-a82c-4379-81dd-1342dcd7c9d3","ios":"levelo://app?vid=fac7beeb-a82c-4379-81dd-1342dcd7c9d3"},"vehicle_type_id":"4","last_reported":1762805592,"current_range_meters":13600,"station_id":"ce4bhb12rcd13ifvqel0","pricing_plan_id":"cebpf4jnsgd1na2vs0mg"},{"bike_id":"b646a158-2a00-4a5f-b725-1c8e4c990367","system_id":"levelo_inurba_marseille","lat":43.28532,"lon":5.44098,"is_reserved":false,"is_disabled":false,"rental_uris":{"android":"levelo://app?vid=b646a158-2a00-4a5f-b725-1c8e4c990367","ios":"levelo://app?vid=b646a158-2a00-4a5f-b725-1c8e4c990367"},"vehicle_type_id":"4","last_reported":1762805592,"current_range_meters":13600,"station_id":"st_d3j3df2ikq2c7380ej80","pricing_plan_id":"cebpf4jnsgd1na2vs0mg"},{"bike_id":"b7589c36-c725-4ae0-a367-12f6a2c5f1ef","system_id":"levelo_inurba_marseille","lat":43.298264,"lon":5.440609,"is_reserved":false,"is_disabled":false,"rental_uris":{"android":"levelo://app?vid=b7589c36-c725-4ae0-a367-12f6a2c5f1ef","ios":"levelo://app?vid=b7589c36-c725-4ae0-a367-12f6a2c5f1ef"},"vehicle_type_id":"4","last_reported":1762805592,"current_range_meters":13600,"station_id":"st_d3jp68qikq2c7381ktn0","pricing_plan_id":"cebpf4jnsgd1na2vs0mg"},{"bike_id":"e3ca31e7-8c60-464d-95fd-3aad12a4aaf3","system_id":"levelo_inurba_marseille","lat":43.30962,"lon":5.38294,"is_reserved":false,"is_disabled":false,"rental_uris":{"android":"levelo://app?vid=e3ca31e7-8c60-464d-95fd-3aad12a4aaf3","ios":"levelo://app?vid=e3ca31e7-8c60-464d-95fd-3aad12a4aaf3"},"vehicle_type_id":"4","last_reported":1762805592,"current_range_meters":13600,"station_id":"","pricing_plan_id":"cebpf4jnsgd1na2vs0mg"},{"bike_id":"14ae8280-220d-4b5f-b74a-98c3bf5b5927","system_id":"levelo_inurba_marseille","lat":43.29617,"lon":5.3773,"is_reserved":false,"is_disabled":true,"rental_uris":{"android":"levelo://app?vid=14ae8280-220d-4b5f-b74a-98c3bf5b5927","ios":"levelo://app?vid=14ae8280-220d-4b5f-b74a-98c3bf5b5927"},"vehicle_type_id":"4","last_reported":1762805592,"current_range_meters":13600,"station_id":"ce4bgi92rcd13ifvqb90","pricing_plan_id":"cebpf4jnsgd1na2vs0mg"},{"bike_id":"9c0873bd-1b82-41e7-b833-e675e1b34129","system_id":"levelo_inurba_marseille","lat":43.30121,"lon":5.43116,"is_reserved":false,"is_disabled":false,"rental_uris":{"android":"levelo://app?vid=9c0873bd-1b82-41e7-b833-e675e1b34129","ios":"levelo://app?vid=9c0873bd-1b82-41e7-b833-e675e1b34129"},"vehicle_type_id":"4","last_reported":1762805592,"current_range_meters":13600,"station_id":"st_d3js3co5814s73ftftug","pricing_plan_id":"cebpf4jnsgd1na2vs0mg"},{"bike_id":"6129ccdf-ef1c-48ac-8bb7-fb659216a843","system_id":"levelo_inurba_marseille","lat":43.23149,"lon":5.43709,"is_reserved":false,"is_disabled":false,"rental_uris":{"android":"levelo://app?vid=6129ccdf-ef1c-48ac-8bb7-fb659216a843","ios":"levelo://app?vid=6129ccdf-ef1c-48ac-8bb7-fb659216a843"},"vehicle_type_id":"4","last_reported":1762805592,"current_range_meters":13600,"station_id":"ce4bhmp2rcd13ifvqgog","pricing_plan_id":"cebpf4jnsgd1na2vs0mg"},{"bike_id":"f44d87be-1840-40b7-a44c-07938272ae4f","system_id":"levelo_inurba_marseille","lat":43.30927,"lon":5.40146,"is_reserved":false,"is_disabled":false,"rental_uris":{"android":"levelo://app?vid=f44d87be-1840-40b7-a44c-07938272ae4f","ios":"levelo://app?vid=f44d87be-1840-40b7-a44c-07938272ae4f"},"vehicle_type_id":"4","last_reported":1762805592,"current_range_meters":13600,"station_id":"ce4bgvp2rcd13ifvqct0","pricing_plan_id":"cebpf4jnsgd1na2vs0mg"},{"bike_id":"9a00faeb-2967-47dd-bb7a-fab347bc5d7f","system_id":"levelo_inurba_marseille","lat":43.30087,"lon":5.38274,"is_reserved":false,"is_disabled":false,"rental_uris":{"android":"levelo://app?vid=9a00faeb-2967-47dd-bb7a-fab347bc5d7f","ios":"levelo://app?vid=9a00faeb-2967-47dd-bb7a-fab347bc5d7f"},"vehicle_type_id":"4","last_reported":1762805592,"current_range_meters":13600,"station_id":"","pricing_plan_id":"cebpf4jnsgd1na2vs0mg"},{"bike_id":"df71f488-9f79-4ae2-ad49-0f0aa9704986","system_id":"levelo_inurba_marseille","lat":43.28852,"lon":5.42531,"is_reserved":false,"is_disabled":false,"rental_uris":{"android":"levelo://app?vid=df71f488-9f79-4ae2-ad49-0f0aa9704986","ios":"levelo://app?vid=df71f488-9f79-4ae2-ad49-0f0aa9704986"},"vehicle_type_id":"4","last_reported":1762805592,"current_range_meters":13600,"station_id":"st_d3b462108ojc7389ooeg","pricing_plan_id":"cebpf4jnsgd1na2vs0mg"},{"bike_id":"a9f2d778-4e4c-449d-ae33-6e8b0a3e174d","system_id":"levelo_inurba_marseille","lat":43.30373,"lon":5.42489,"is_reserved":false,"is_disabled":false,"rental_uris":{"android":"levelo://app?vid=a9f2d778-4e4c-449d-ae33-6e8b0a3e174d","ios":"levelo://app?vid=a9f2d778-4e4c-449d-ae33-6e8b0a3e174d"},"vehicle_type_id":"4","last_reported":1762805592,"current_range_meters":13600,"station_id":"ce4bhoh2rcd13ifvqh6g","pricing_plan_id":"cebpf4jnsgd1na2vs0mg"},{"bike_id":"9f1ddb8c-5bcd-4a30-91d0-026ed2ec9ed5","system_id":"levelo_inurba_marseille","lat":43.2919,"lon":5.35799,"is_reserved":false,"is_disabled":false,"rental_uris":{"android":"levelo://app?vid=9f1ddb8c-5bcd-4a30-91d0-026ed2ec9ed5","ios":"levelo://app?vid=9f1ddb8c-5bcd-4a30-91d0-026ed2ec9ed5"},"vehicle_type_id":"4","last_reported":1762805592,"current_range_meters":14000,"station_id":"ce4bhb12rcd13ifvqel0","pricing_plan_id":"cebpf4jnsgd1na2vs0mg"},{"bike_id":"bd86308c-205c-4e4b-b136-721ea5d98bfc","system_id":"levelo_inurba_marseille","lat":43.280324,"lon":5.369476,"is_reserved":false,"is_disabled":false,"rental_uris":{"android":"levelo://app?vid=bd86308c-205c-4e4b-b136-721ea5d98bfc","ios":"levelo://app?vid=bd86308c-205c-4e4b-b136-721ea5d98bfc"},"vehicle_type_id":"4","last_reported":1762805592,"current_range_meters":14000,"station_id":"ce4bha12rcd13ifvqef0","pricing_plan_id":"cebpf4jnsgd1na2vs0mg"},{"bike_id":"d99858d1-a914-43fd-8a96-2db611b0e8ee","system_id":"levelo_inurba_marseille","lat":43.29929,"lon":5.36543,"is_reserved":false,"is_disabled":false,"rental_uris":{"android":"levelo://app?vid=d99858d1-a914-43fd-8a96-2db611b0e8ee","ios":"levelo://app?vid=d99858d1-a914-43fd-8a96-2db611b0e8ee"},"vehicle_type_id":"4","last_reported":1762805592,"current_range_meters":14000,"station_id":"ce4bgm92rcd13ifvqbr0","pricing_plan_id":"cebpf4jnsgd1na2vs0mg"},{"bike_id":"6bc3789a-2114-48e0-80cb-310ee71707d8","system_id":"levelo_inurba_marseille","lat":43.285402,"lon":5.440971,"is_reserved":false,"is_disabled":false,"rental_uris":{"android":"levelo://app?vid=6bc3789a-2114-48e0-80cb-310ee71707d8","ios":"levelo://app?vid=6bc3789a-2114-48e0-80cb-310ee71707d8"},"vehicle_type_id":"4","last_reported":1762805592,"current_range_meters":14000,"station_id":"st_d3j3df2ikq2c7380ej80","pricing_plan_id":"cebpf4jnsgd1na2vs0mg"},{"bike_id":"c505da9f-74ce-46d6-be25-14e9f37952fb","system_id":"levelo_inurba_marseille","lat":43.30934,"lon":5.40151,"is_reserved":false,"is_disabled":false,"rental_uris":{"android":"levelo://app?vid=c505da9f-74ce-46d6-be25-14e9f37952fb","ios":"levelo://app?vid=c505da9f-74ce-46d6-be25-14e9f37952fb"},"vehicle_type_id":"4","last_reported":1762805592,"current_range_meters":14000,"station_id":"ce4bgvp2rcd13ifvqct0","pricing_plan_id":"cebpf4jnsgd1na2vs0mg"},{"bike_id":"46387606-6c20-45de-af97-a4e465131223","system_id":"levelo_inurba_marseille","lat":43.28975,"lon":5.37832,"is_reserved":false,"is_disabled":false,"rental_uris":{"android":"levelo://app?vid=46387606-6c20-45de-af97-a4e465131223","ios":"levelo://app?vid=46387606-6c20-45de-af97-a4e465131223"},"vehicle_type_id":"4","last_reported":1762805592,"current_range_meters":14000,"station_id":"ce4bh9p2rcd13ifvqed0","pricing_plan_id":"cebpf4jnsgd1na2vs0mg"},{"bike_id":"02f27a92-b700-444c-90ae-461f7a98fc06","system_id":"levelo_inurba_marseille","lat":43.33599,"lon":5.41036,"is_reserved":false,"is_disabled":false,"rental_uris":{"android":"levelo://app?vid=02f27a92-b700-444c-90ae-461f7a98fc06","ios":"levelo://app?vid=02f27a92-b700-444c-90ae-461f7a98fc06"},"vehicle_type_id":"4","last_reported":1762805592,"current_range_meters":14000,"station_id":"ce4bhqh2rcd13ifvqhmg","pricing_plan_id":"cebpf4jnsgd1na2vs0mg"},{"bike_id":"80a5b288-c4c3-4a25-8c6c-ea160c21372f","system_id":"levelo_inurba_marseille","lat":43.25333,"lon":5.42177,"is_reserved":false,"is_disabled":false,"rental_uris":{"android":"levelo://app?vid=80a5b288-c4c3-4a25-8c6c-ea160c21372f","ios":"levelo://app?vid=80a5b288-c4c3-4a25-8c6c-ea160c21372f"},"vehicle_type_id":"4","last_reported":1762805592,"current_range_meters":14400,"station_id":"st_d2m65c5bi1j21697t3ng","pricing_plan_id":"cebpf4jnsgd1na2vs0mg"},{"bike_id":"721186a3-1cd7-4822-a583-ab5eff8a0750","system_id":"levelo_inurba_marseille","lat":43.297665,"lon":5.388979,"is_reserved":false,"is_disabled":false,"rental_uris":{"android":"levelo://app?vid=721186a3-1cd7-4822-a583-ab5eff8a0750","ios":"levelo://app?vid=721186a3-1cd7-4822-a583-ab5eff8a0750"},"vehicle_type_id":"4","last_reported":1762805592,"current_range_meters":14400,"station_id":"","pricing_plan_id":"cebpf4jnsgd1na2vs0mg"},{"bike_id":"99d9d76d-d94f-48e3-abc3-f50dd41e3269","system_id":"levelo_inurba_marseille","lat":43.31132,"lon":5.38326,"is_reserved":false,"is_disabled":false,"rental_uris":{"android":"levelo://app?vid=99d9d76d-d94f-48e3-abc3-f50dd41e3269","ios":"levelo://app?vid=99d9d76d-d94f-48e3-abc3-f50dd41e3269"},"vehicle_type_id":"4","last_reported":1762805592,"current_range_meters":14400,"station_id":"","pricing_plan_id":"cebpf4jnsgd1na2vs0mg"},{"bike_id":"579c71b6-dc88-4678-9bd1-d9b1949509cc","system_id":"levelo_inurba_marseille","lat":43.30087,"lon":5.3908,"is_reserved":false,"is_disabled":false,"rental_uris":{"android":"levelo://app?vid=579c71b6-dc88-4678-9bd1-d9b1949509cc","ios":"levelo://app?vid=579c71b6-dc88-4678-9bd1-d9b1949509cc"},"vehicle_type_id":"4","last_reported":1762805592,"current_range_meters":14400,"station_id":"ce4bh192rcd13ifvqdb0","pricing_plan_id":"cebpf4jnsgd1na2vs0mg"},{"bike_id":"c88172e6-9ca8-4917-9fec-dae0082b9849","system_id":"levelo_inurba_marseille","lat":43.23056,"lon":5.35493,"is_reserved":false,"is_disabled":false,"rental_uris":{"android":"levelo://app?vid=c88172e6-9ca8-4917-9fec-dae0082b9849","ios":"levelo://app?vid=c88172e6-9ca8-4917-9fec-dae0082b9849"},"vehicle_type_id":"4","last_reported":1762805592,"current_range_meters":14400,"station_id":"cpo3342slgdg3j2ifvpg","pricing_plan_id":"cebpf4jnsgd1na2vs0mg"},{"bike_id":"6c311e29-6110-4066-b266-e0a617db7ab9","system_id":"levelo_inurba_marseille","lat":43.26202,"lon":5.37918,"is_reserved":false,"is_disabled":false,"rental_uris":{"android":"levelo://app?vid=6c311e29-6110-4066-b266-e0a617db7ab9","ios":"levelo://app?vid=6c311e29-6110-4066-b266-e0a617db7ab9"},"vehicle_type_id":"4","last_reported":1762805592,"current_range_meters":14400,"station_id":"ce4bhjp2rcd13ifvqg90","pricing_plan_id":"cebpf4jnsgd1na2vs0mg"},{"bike_id":"d868764c-db05-41d0-a0d0-b9b0f856b6dc","system_id":"levelo_inurba_marseille","lat":43.3108,"lon":5.38368,"is_reserved":false,"is_disabled":false,"rental_uris":{"android":"levelo://app?vid=d868764c-db05-41d0-a0d0-b9b0f856b6dc","ios":"levelo://app?vid=d868764c-db05-41d0-a0d0-b9b0f856b6dc"},"vehicle_type_id":"4","last_reported":1762805592,"current_range_meters":14400,"station_id":"ce4bgv92rcd13ifvqcr0","pricing_plan_id":"cebpf4jnsgd1na2vs0mg"},{"bike_id":"68020ba9-15ce-46ee-b08e-2124b15dbcbd","system_id":"levelo_inurba_marseille","lat":43.29252,"lon":5.38438,"is_reserved":false,"is_disabled":false,"rental_uris":{"android":"levelo://app?vid=68020ba9-15ce-46ee-b08e-2124b15dbcbd","ios":"levelo://app?vid=68020ba9-15ce-46ee-b08e-2124b15dbcbd"},"vehicle_type_id":"4","last_reported":1762805592,"current_range_meters":14400,"station_id":"ce4bh692rcd13ifvqea0","pricing_plan_id":"cebpf4jnsgd1na2vs0mg"},{"bike_id":"be86220c-6cab-43c0-bc05-fd5e693109a4","system_id":"levelo_inurba_marseille","lat":43.295312,"lon":5.385407,"is_reserved":false,"is_disabled":false,"rental_uris":{"android":"levelo://app?vid=be86220c-6cab-43c0-bc05-fd5e693109a4","ios":"levelo://app?vid=be86220c-6cab-43c0-bc05-fd5e693109a4"},"vehicle_type_id":"4","last_reported":1762805592,"current_range_meters":14400,"station_id":"ce4bgih2rcd13ifvqba0","pricing_plan_id":"cebpf4jnsgd1na2vs0mg"},{"bike_id":"50bd906f-f66c-4773-8e69-65d41802e55d","system_id":"levelo_inurba_marseille","lat":43.22533,"lon":5.34834,"is_reserved":false,"is_disabled":false,"rental_uris":{"android":"levelo://app?vid=50bd906f-f66c-4773-8e69-65d41802e55d","ios":"levelo://app?vid=50bd906f-f66c-4773-8e69-65d41802e55d"},"vehicle_type_id":"4","last_reported":1762805592,"current_range_meters":14800,"station_id":"","pricing_plan_id":"cebpf4jnsgd1na2vs0mg"},{"bike_id":"4b68d13f-f5d9-4b23-871f-a9d0ced8871b","system_id":"levelo_inurba_marseille","lat":43.312934,"lon":5.377922,"is_reserved":false,"is_disabled":false,"rental_uris":{"android":"levelo://app?vid=4b68d13f-f5d9-4b23-871f-a9d0ced8871b","ios":"levelo://app?vid=4b68d13f-f5d9-4b23-871f-a9d0ced8871b"},"vehicle_type_id":"4","last_reported":1762805592,"current_range_meters":14800,"station_id":"","pricing_plan_id":"cebpf4jnsgd1na2vs0mg"},{"bike_id":"d10b92c3-bf28-4b00-8a49-017266cda74a","system_id":"levelo_inurba_marseille","lat":43.28699,"lon":5.37393,"is_reserved":false,"is_disabled":false,"rental_uris":{"android":"levelo://app?vid=d10b92c3-bf28-4b00-8a49-017266cda74a","ios":"levelo://app?vid=d10b92c3-bf28-4b00-8a49-017266cda74a"},"vehicle_type_id":"4","last_reported":1762805592,"current_range_meters":14800,"station_id":"ce4bh3p2rcd13ifvqdq0","pricing_plan_id":"cebpf4jnsgd1na2vs0mg"},{"bike_id":"2403301f-ed73-43d8-a5ad-60c11c63ed73","system_id":"levelo_inurba_marseille","lat":43.313293,"lon":5.396939,"is_reserved":false,"is_disabled":false,"rental_uris":{"android":"levelo://app?vid=2403301f-ed73-43d8-a5ad-60c11c63ed73","ios":"levelo://app?vid=2403301f-ed73-43d8-a5ad-60c11c63ed73"},"vehicle_type_id":"4","last_reported":1762805592,"current_range_meters":14800,"station_id":"ce4bgvp2rcd13ifvqcu0","pricing_plan_id":"cebpf4jnsgd1na2vs0mg"},{"bike_id":"0001f610-ee0b-4dfa-a101-19ef82b4afb7","system_id":"levelo_inurba_marseille","lat":43.29809,"lon":5.44064,"is_reserved":false,"is_disabled":false,"rental_uris":{"android":"levelo://app?vid=0001f610-ee0b-4dfa-a101-19ef82b4afb7","ios":"levelo://app?vid=0001f610-ee0b-4dfa-a101-19ef82b4afb7"},"vehicle_type_id":"4","last_reported":1762805592,"current_range_meters":14800,"station_id":"st_d3jp68qikq2c7381ktn0","pricing_plan_id":"cebpf4jnsgd1na2vs0mg"},{"bike_id":"e92fd170-4280-4dd6-943b-5cd795efb5ee","system_id":"levelo_inurba_marseille","lat":43.281602,"lon":5.426286,"is_reserved":false,"is_disabled":false,"rental_uris":{"android":"levelo://app?vid=e92fd170-4280-4dd6-943b-5cd795efb5ee","ios":"levelo://app?vid=e92fd170-4280-4dd6-943b-5cd795efb5ee"},"vehicle_type_id":"4","last_reported":1762805592,"current_range_meters":14800,"station_id":"ce4bhnh2rcd13ifvqgug","pricing_plan_id":"cebpf4jnsgd1na2vs0mg"},{"bike_id":"228af895-8e16-45ae-8bd1-f3650266360b","system_id":"levelo_inurba_marseille","lat":43.284182,"lon":5.374967,"is_reserved":false,"is_disabled":false,"rental_uris":{"android":"levelo://app?vid=228af895-8e16-45ae-8bd1-f3650266360b","ios":"levelo://app?vid=228af895-8e16-45ae-8bd1-f3650266360b"},"vehicle_type_id":"4","last_reported":1762805592,"current_range_meters":14800,"station_id":"","pricing_plan_id":"cebpf4jnsgd1na2vs0mg"},{"bike_id":"c80766a6-aa9a-4c09-88b6-397546065fcc","system_id":"levelo_inurba_marseille","lat":43.23195,"lon":5.35541,"is_reserved":false,"is_disabled":false,"rental_uris":{"android":"levelo://app?vid=c80766a6-aa9a-4c09-88b6-397546065fcc","ios":"levelo://app?vid=c80766a6-aa9a-4c09-88b6-397546065fcc"},"vehicle_type_id":"4","last_reported":1762805592,"current_range_meters":15200,"station_id":"ce4bhu92rcd13ifvqi70","pricing_plan_id":"cebpf4jnsgd1na2vs0mg"},{"bike_id":"f6d47fb7-db41-4e96-ba28-8326c8ac0ede","system_id":"levelo_inurba_marseille","lat":43.309322,"lon":5.401366,"is_reserved":false,"is_disabled":false,"rental_uris":{"android":"levelo://app?vid=f6d47fb7-db41-4e96-ba28-8326c8ac0ede","ios":"levelo://app?vid=f6d47fb7-db41-4e96-ba28-8326c8ac0ede"},"vehicle_type_id":"4","last_reported":1762805592,"current_range_meters":15200,"station_id":"","pricing_plan_id":"cebpf4jnsgd1na2vs0mg"},{"bike_id":"61dce50e-6510-4945-af49-a43ad9d82ef9","system_id":"levelo_inurba_marseille","lat":43.291962,"lon":5.393301,"is_reserved":false,"is_disabled":false,"rental_uris":{"android":"levelo://app?vid=61dce50e-6510-4945-af49-a43ad9d82ef9","ios":"levelo://app?vid=61dce50e-6510-4945-af49-a43ad9d82ef9"},"vehicle_type_id":"4","last_reported":1762805592,"current_range_meters":15200,"station_id":"","pricing_plan_id":"cebpf4jnsgd1na2vs0mg"},{"bike_id":"42bbdb4f-c9b7-4299-b4a6-0178a6a32bf3","system_id":"levelo_inurba_marseille","lat":43.31801,"lon":5.37445,"is_reserved":false,"is_disabled":false,"rental_uris":{"android":"levelo://app?vid=42bbdb4f-c9b7-4299-b4a6-0178a6a32bf3","ios":"levelo://app?vid=42bbdb4f-c9b7-4299-b4a6-0178a6a32bf3"},"vehicle_type_id":"4","last_reported":1762805592,"current_range_meters":15200,"station_id":"","pricing_plan_id":"cebpf4jnsgd1na2vs0mg"},{"bike_id":"1016aac3-b163-4bd4-b914-896c361c935b","system_id":"levelo_inurba_marseille","lat":43.32132,"lon":5.38835,"is_reserved":false,"is_disabled":false,"rental_uris":{"android":"levelo://app?vid=1016aac3-b163-4bd4-b914-896c361c935b","ios":"levelo://app?vid=1016aac3-b163-4bd4-b914-896c361c935b"},"vehicle_type_id":"4","last_reported":1762805592,"current_range_meters":15200,"station_id":"","pricing_plan_id":"cebpf4jnsgd1na2vs0mg"},{"bike_id":"7603f782-c992-4588-9132-ee9680c7664d","system_id":"levelo_inurba_marseille","lat":43.31989,"lon":5.3814,"is_reserved":false,"is_disabled":false,"rental_uris":{"android":"levelo://app?vid=7603f782-c992-4588-9132-ee9680c7664d","ios":"levelo://app?vid=7603f782-c992-4588-9132-ee9680c7664d"},"vehicle_type_id":"4","last_reported":1762805592,"current_range_meters":15200,"station_id":"ce4bhr12rcd13ifvqhpg","pricing_plan_id":"cebpf4jnsgd1na2vs0mg"},{"bike_id":"6a3e6b8e-e89b-466d-896f-05f828d30b66","system_id":"levelo_inurba_marseille","lat":43.29529,"lon":5.38537,"is_reserved":false,"is_disabled":false,"rental_uris":{"android":"levelo://app?vid=6a3e6b8e-e89b-466d-896f-05f828d30b66","ios":"levelo://app?vid=6a3e6b8e-e89b-466d-896f-05f828d30b66"},"vehicle_type_id":"4","last_reported":1762805592,"current_range_meters":15200,"station_id":"ce4bgih2rcd13ifvqba0","pricing_plan_id":"cebpf4jnsgd1na2vs0mg"},{"bike_id":"a45db63b-1c0c-4d24-8e99-013c944b5ff3","system_id":"levelo_inurba_marseille","lat":43.287144,"lon":5.379533,"is_reserved":false,"is_disabled":false,"rental_uris":{"android":"levelo://app?vid=a45db63b-1c0c-4d24-8e99-013c944b5ff3","ios":"levelo://app?vid=a45db63b-1c0c-4d24-8e99-013c944b5ff3"},"vehicle_type_id":"4","last_reported":1762805592,"current_range_meters":15200,"station_id":"ce4bh9p2rcd13ifvqec0","pricing_plan_id":"cebpf4jnsgd1na2vs0mg"},{"bike_id":"427ad384-b90f-467c-9630-bdbcdf909fa9","system_id":"levelo_inurba_marseille","lat":43.29792,"lon":5.37102,"is_reserved":false,"is_disabled":false,"rental_uris":{"android":"levelo://app?vid=427ad384-b90f-467c-9630-bdbcdf909fa9","ios":"levelo://app?vid=427ad384-b90f-467c-9630-bdbcdf909fa9"},"vehicle_type_id":"4","last_reported":1762805592,"current_range_meters":15200,"station_id":"ce4bgop2rcd13ifvqc1g","pricing_plan_id":"cebpf4jnsgd1na2vs0mg"},{"bike_id":"3ec33873-889c-4a9e-9409-6462935f2d19","system_id":"levelo_inurba_marseille","lat":43.29604,"lon":5.38102,"is_reserved":false,"is_disabled":false,"rental_uris":{"android":"levelo://app?vid=3ec33873-889c-4a9e-9409-6462935f2d19","ios":"levelo://app?vid=3ec33873-889c-4a9e-9409-6462935f2d19"},"vehicle_type_id":"4","last_reported":1762805592,"current_range_meters":15200,"station_id":"ce4bgl12rcd13ifvqbo0","pricing_plan_id":"cebpf4jnsgd1na2vs0mg"},{"bike_id":"9093134c-76dd-4d84-9339-bb51f6d5bb73","system_id":"levelo_inurba_marseille","lat":43.284917,"lon":5.439608,"is_reserved":false,"is_disabled":false,"rental_uris":{"android":"levelo://app?vid=9093134c-76dd-4d84-9339-bb51f6d5bb73","ios":"levelo://app?vid=9093134c-76dd-4d84-9339-bb51f6d5bb73"},"vehicle_type_id":"4","last_reported":1762805592,"current_range_meters":16000,"station_id":"","pricing_plan_id":"cebpf4jnsgd1na2vs0mg"},{"bike_id":"d15df4f0-782e-4320-b571-396b211fcde2","system_id":"levelo_inurba_marseille","lat":43.29009,"lon":5.35613,"is_reserved":false,"is_disabled":false,"rental_uris":{"android":"levelo://app?vid=d15df4f0-782e-4320-b571-396b211fcde2","ios":"levelo://app?vid=d15df4f0-782e-4320-b571-396b211fcde2"},"vehicle_type_id":"4","last_reported":1762805592,"current_range_meters":16000,"station_id":"ce4bhb92rcd13ifvqen0","pricing_plan_id":"cebpf4jnsgd1na2vs0mg"},{"bike_id":"1f41fd9b-c0a9-4aba-91e7-2f4f5dd58d96","system_id":"levelo_inurba_marseille","lat":43.30949,"lon":5.39027,"is_reserved":false,"is_disabled":true,"rental_uris":{"android":"levelo://app?vid=1f41fd9b-c0a9-4aba-91e7-2f4f5dd58d96","ios":"levelo://app?vid=1f41fd9b-c0a9-4aba-91e7-2f4f5dd58d96"},"vehicle_type_id":"4","last_reported":1762805592,"current_range_meters":16000,"station_id":"ce4bgup2rcd13ifvqco0","pricing_plan_id":"cebpf4jnsgd1na2vs0mg"},{"bike_id":"71a4db39-13b5-4ad2-a6d2-50dbaa41784f","system_id":"levelo_inurba_marseille","lat":43.30455,"lon":5.37903,"is_reserved":false,"is_disabled":true,"rental_uris":{"android":"levelo://app?vid=71a4db39-13b5-4ad2-a6d2-50dbaa41784f","ios":"levelo://app?vid=71a4db39-13b5-4ad2-a6d2-50dbaa41784f"},"vehicle_type_id":"4","last_reported":1762805592,"current_range_meters":16000,"station_id":"ce4bgup2rcd13ifvqcn0","pricing_plan_id":"cebpf4jnsgd1na2vs0mg"},{"bike_id":"4e50b31c-5448-429b-840e-2fdbbd4544a9","system_id":"levelo_inurba_marseille","lat":43.31257,"lon":5.4016,"is_reserved":false,"is_disabled":false,"rental_uris":{"android":"levelo://app?vid=4e50b31c-5448-429b-840e-2fdbbd4544a9","ios":"levelo://app?vid=4e50b31c-5448-429b-840e-2fdbbd4544a9"},"vehicle_type_id":"4","last_reported":1762805592,"current_range_meters":16000,"station_id":"ce4bh092rcd13ifvqd30","pricing_plan_id":"cebpf4jnsgd1na2vs0mg"},{"bike_id":"180a70a9-8924-4885-9ca3-10c578c02589","system_id":"levelo_inurba_marseille","lat":43.225256,"lon":5.348423,"is_reserved":false,"is_disabled":false,"rental_uris":{"android":"levelo://app?vid=180a70a9-8924-4885-9ca3-10c578c02589","ios":"levelo://app?vid=180a70a9-8924-4885-9ca3-10c578c02589"},"vehicle_type_id":"4","last_reported":1762805592,"current_range_meters":16000,"station_id":"","pricing_plan_id":"cebpf4jnsgd1na2vs0mg"},{"bike_id":"b4a3ec15-6856-42f5-838a-1157486089d9","system_id":"levelo_inurba_marseille","lat":43.28399,"lon":5.37518,"is_reserved":false,"is_disabled":false,"rental_uris":{"android":"levelo://app?vid=b4a3ec15-6856-42f5-838a-1157486089d9","ios":"levelo://app?vid=b4a3ec15-6856-42f5-838a-1157486089d9"},"vehicle_type_id":"4","last_reported":1762805592,"current_range_meters":16000,"station_id":"ce4bh412rcd13ifvqds0","pricing_plan_id":"cebpf4jnsgd1na2vs0mg"},{"bike_id":"05a99ca6-bbc2-43b5-ad52-49f5b59876e8","system_id":"levelo_inurba_marseille","lat":43.24649,"lon":5.3889,"is_reserved":false,"is_disabled":false,"rental_uris":{"android":"levelo://app?vid=05a99ca6-bbc2-43b5-ad52-49f5b59876e8","ios":"levelo://app?vid=05a99ca6-bbc2-43b5-ad52-49f5b59876e8"},"vehicle_type_id":"4","last_reported":1762805592,"current_range_meters":16000,"station_id":"ce4bhg12rcd13ifvqf60","pricing_plan_id":"cebpf4jnsgd1na2vs0mg"},{"bike_id":"f9a1b970-6de3-468d-96e6-e10aa15ca1ee","system_id":"levelo_inurba_marseille","lat":43.31166,"lon":5.38711,"is_reserved":false,"is_disabled":false,"rental_uris":{"android":"levelo://app?vid=f9a1b970-6de3-468d-96e6-e10aa15ca1ee","ios":"levelo://app?vid=f9a1b970-6de3-468d-96e6-e10aa15ca1ee"},"vehicle_type_id":"4","last_reported":1762805592,"current_range_meters":16000,"station_id":"ce4bgv12rcd13ifvqcp0","pricing_plan_id":"cebpf4jnsgd1na2vs0mg"},{"bike_id":"42d12ee4-a29d-4c9c-86d9-72d1042bb02f","system_id":"levelo_inurba_marseille","lat":43.292633,"lon":5.384394,"is_reserved":false,"is_disabled":false,"rental_uris":{"android":"levelo://app?vid=42d12ee4-a29d-4c9c-86d9-72d1042bb02f","ios":"levelo://app?vid=42d12ee4-a29d-4c9c-86d9-72d1042bb02f"},"vehicle_type_id":"4","last_reported":1762805592,"current_range_meters":16000,"station_id":"ce4bhu92rcd13ifvqi70","pricing_plan_id":"cebpf4jnsgd1na2vs0mg"},{"bike_id":"4cae9d5c-a24c-41f1-9f54-aaa487e732a6","system_id":"levelo_inurba_marseille","lat":43.29972,"lon":5.38175,"is_reserved":false,"is_disabled":false,"rental_uris":{"android":"levelo://app?vid=4cae9d5c-a24c-41f1-9f54-aaa487e732a6","ios":"levelo://app?vid=4cae9d5c-a24c-41f1-9f54-aaa487e732a6"},"vehicle_type_id":"4","last_reported":1762805592,"current_range_meters":16400,"station_id":"","pricing_plan_id":"cebpf4jnsgd1na2vs0mg"},{"bike_id":"4b17d409-ff2c-4b6b-81ed-061f91b0fd07","system_id":"levelo_inurba_marseille","lat":43.30196,"lon":5.36628,"is_reserved":false,"is_disabled":false,"rental_uris":{"android":"levelo://app?vid=4b17d409-ff2c-4b6b-81ed-061f91b0fd07","ios":"levelo://app?vid=4b17d409-ff2c-4b6b-81ed-061f91b0fd07"},"vehicle_type_id":"4","last_reported":1762805592,"current_range_meters":16400,"station_id":"ce4bgrh2rcd13ifvqc8g","pricing_plan_id":"cebpf4jnsgd1na2vs0mg"},{"bike_id":"122bdab4-68f6-41de-a130-9cd3d01ccdfd","system_id":"levelo_inurba_marseille","lat":43.22533,"lon":5.34829,"is_reserved":false,"is_disabled":false,"rental_uris":{"android":"levelo://app?vid=122bdab4-68f6-41de-a130-9cd3d01ccdfd","ios":"levelo://app?vid=122bdab4-68f6-41de-a130-9cd3d01ccdfd"},"vehicle_type_id":"4","last_reported":1762805592,"current_range_meters":16400,"station_id":"","pricing_plan_id":"cebpf4jnsgd1na2vs0mg"},{"bike_id":"7177c944-2e3a-4e1f-b479-66d7a9727a4d","system_id":"levelo_inurba_marseille","lat":43.33148,"lon":5.37693,"is_reserved":false,"is_disabled":false,"rental_uris":{"android":"levelo://app?vid=7177c944-2e3a-4e1f-b479-66d7a9727a4d","ios":"levelo://app?vid=7177c944-2e3a-4e1f-b479-66d7a9727a4d"},"vehicle_type_id":"4","last_reported":1762805592,"current_range_meters":16400,"station_id":"st_d46cu089ee8s73dldbu0","pricing_plan_id":"cebpf4jnsgd1na2vs0mg"},{"bike_id":"5200cfce-1c97-45ff-bc9a-de40a884f42a","system_id":"levelo_inurba_marseille","lat":43.29031,"lon":5.38634,"is_reserved":false,"is_disabled":false,"rental_uris":{"android":"levelo://app?vid=5200cfce-1c97-45ff-bc9a-de40a884f42a","ios":"levelo://app?vid=5200cfce-1c97-45ff-bc9a-de40a884f42a"},"vehicle_type_id":"4","last_reported":1762805592,"current_range_meters":16400,"station_id":"ce4bh4p2rcd13ifvqe0g","pricing_plan_id":"cebpf4jnsgd1na2vs0mg"},{"bike_id":"851e52a7-7701-41a2-9335-4b4a9404896b","system_id":"levelo_inurba_marseille","lat":43.29818,"lon":5.44066,"is_reserved":false,"is_disabled":false,"rental_uris":{"android":"levelo://app?vid=851e52a7-7701-41a2-9335-4b4a9404896b","ios":"levelo://app?vid=851e52a7-7701-41a2-9335-4b4a9404896b"},"vehicle_type_id":"4","last_reported":1762805592,"current_range_meters":16400,"station_id":"st_d3jp68qikq2c7381ktn0","pricing_plan_id":"cebpf4jnsgd1na2vs0mg"},{"bike_id":"24e988b4-3e95-4f9e-bd68-257986f5dcb4","system_id":"levelo_inurba_marseille","lat":43.33781,"lon":5.40637,"is_reserved":false,"is_disabled":false,"rental_uris":{"android":"levelo://app?vid=24e988b4-3e95-4f9e-bd68-257986f5dcb4","ios":"levelo://app?vid=24e988b4-3e95-4f9e-bd68-257986f5dcb4"},"vehicle_type_id":"4","last_reported":1762805592,"current_range_meters":16800,"station_id":"","pricing_plan_id":"cebpf4jnsgd1na2vs0mg"},{"bike_id":"7ab9f50c-fe33-422d-9108-7c4207ec1290","system_id":"levelo_inurba_marseille","lat":43.28704,"lon":5.37389,"is_reserved":false,"is_disabled":false,"rental_uris":{"android":"levelo://app?vid=7ab9f50c-fe33-422d-9108-7c4207ec1290","ios":"levelo://app?vid=7ab9f50c-fe33-422d-9108-7c4207ec1290"},"vehicle_type_id":"4","last_reported":1762805592,"current_range_meters":16800,"station_id":"ce4bh3p2rcd13ifvqdq0","pricing_plan_id":"cebpf4jnsgd1na2vs0mg"},{"bike_id":"909bdbfc-1aa3-47b1-ab23-3eca7b376e92","system_id":"levelo_inurba_marseille","lat":43.231517,"lon":5.437012,"is_reserved":false,"is_disabled":false,"rental_uris":{"android":"levelo://app?vid=909bdbfc-1aa3-47b1-ab23-3eca7b376e92","ios":"levelo://app?vid=909bdbfc-1aa3-47b1-ab23-3eca7b376e92"},"vehicle_type_id":"4","last_reported":1762805592,"current_range_meters":16800,"station_id":"ce4bhmp2rcd13ifvqgog","pricing_plan_id":"cebpf4jnsgd1na2vs0mg"},{"bike_id":"577af4c1-3156-4fe9-b705-d0eaa7a11759","system_id":"levelo_inurba_marseille","lat":43.31717,"lon":5.37763,"is_reserved":false,"is_disabled":false,"rental_uris":{"android":"levelo://app?vid=577af4c1-3156-4fe9-b705-d0eaa7a11759","ios":"levelo://app?vid=577af4c1-3156-4fe9-b705-d0eaa7a11759"},"vehicle_type_id":"4","last_reported":1762805592,"current_range_meters":16800,"station_id":"ce4bgth2rcd13ifvqch0","pricing_plan_id":"cebpf4jnsgd1na2vs0mg"},{"bike_id":"5eb28dc9-1056-4fe2-a3f0-4c13efc57df0","system_id":"levelo_inurba_marseille","lat":43.25931,"lon":5.40908,"is_reserved":false,"is_disabled":true,"rental_uris":{"android":"levelo://app?vid=5eb28dc9-1056-4fe2-a3f0-4c13efc57df0","ios":"levelo://app?vid=5eb28dc9-1056-4fe2-a3f0-4c13efc57df0"},"vehicle_type_id":"4","last_reported":1762805592,"current_range_meters":16800,"station_id":"ce4bhm92rcd13ifvqglg","pricing_plan_id":"cebpf4jnsgd1na2vs0mg"},{"bike_id":"56d55916-e181-4b7c-9286-13751264f480","system_id":"levelo_inurba_marseille","lat":43.29029,"lon":5.38647,"is_reserved":false,"is_disabled":false,"rental_uris":{"android":"levelo://app?vid=56d55916-e181-4b7c-9286-13751264f480","ios":"levelo://app?vid=56d55916-e181-4b7c-9286-13751264f480"},"vehicle_type_id":"4","last_reported":1762805592,"current_range_meters":16800,"station_id":"ce4bh4p2rcd13ifvqe0g","pricing_plan_id":"cebpf4jnsgd1na2vs0mg"},{"bike_id":"8821e9d7-aadd-45f6-8ff2-232e9b9efdef","system_id":"levelo_inurba_marseille","lat":43.28696,"lon":5.37386,"is_reserved":false,"is_disabled":false,"rental_uris":{"android":"levelo://app?vid=8821e9d7-aadd-45f6-8ff2-232e9b9efdef","ios":"levelo://app?vid=8821e9d7-aadd-45f6-8ff2-232e9b9efdef"},"vehicle_type_id":"4","last_reported":1762805592,"current_range_meters":16800,"station_id":"ce4bh3p2rcd13ifvqdq0","pricing_plan_id":"cebpf4jnsgd1na2vs0mg"},{"bike_id":"4b0aa238-10df-4021-8b5e-3cecdaf59021","system_id":"levelo_inurba_marseille","lat":43.26191,"lon":5.37449,"is_reserved":false,"is_disabled":false,"rental_uris":{"android":"levelo://app?vid=4b0aa238-10df-4021-8b5e-3cecdaf59021","ios":"levelo://app?vid=4b0aa238-10df-4021-8b5e-3cecdaf59021"},"vehicle_type_id":"4","last_reported":1762805592,"current_range_meters":16800,"station_id":"ce4bhgp2rcd13ifvqfc0","pricing_plan_id":"cebpf4jnsgd1na2vs0mg"},{"bike_id":"e87b937c-e986-465d-ab91-00a23f40a3bc","system_id":"levelo_inurba_marseille","lat":43.28026,"lon":5.36948,"is_reserved":false,"is_disabled":false,"rental_uris":{"android":"levelo://app?vid=e87b937c-e986-465d-ab91-00a23f40a3bc","ios":"levelo://app?vid=e87b937c-e986-465d-ab91-00a23f40a3bc"},"vehicle_type_id":"4","last_reported":1762805592,"current_range_meters":16800,"station_id":"ce4bha12rcd13ifvqef0","pricing_plan_id":"cebpf4jnsgd1na2vs0mg"},{"bike_id":"c3130cd0-aba8-40f2-968e-4dd9a9676f9f","system_id":"levelo_inurba_marseille","lat":43.27983,"lon":5.4165,"is_reserved":false,"is_disabled":false,"rental_uris":{"android":"levelo://app?vid=c3130cd0-aba8-40f2-968e-4dd9a9676f9f","ios":"levelo://app?vid=c3130cd0-aba8-40f2-968e-4dd9a9676f9f"},"vehicle_type_id":"4","last_reported":1762805592,"current_range_meters":17200,"station_id":"ce4bho12rcd13ifvqh1g","pricing_plan_id":"cebpf4jnsgd1na2vs0mg"},{"bike_id":"78560129-1799-45d9-88a5-c853a208aef1","system_id":"levelo_inurba_marseille","lat":43.23176,"lon":5.39985,"is_reserved":false,"is_disabled":false,"rental_uris":{"android":"levelo://app?vid=78560129-1799-45d9-88a5-c853a208aef1","ios":"levelo://app?vid=78560129-1799-45d9-88a5-c853a208aef1"},"vehicle_type_id":"4","last_reported":1762805592,"current_range_meters":17200,"station_id":"ce4bhn12rcd13ifvqgqg","pricing_plan_id":"cebpf4jnsgd1na2vs0mg"},{"bike_id":"46b95343-6661-4df3-acc2-d9ec1143a7ca","system_id":"levelo_inurba_marseille","lat":43.26562,"lon":5.39004,"is_reserved":false,"is_disabled":false,"rental_uris":{"android":"levelo://app?vid=46b95343-6661-4df3-acc2-d9ec1143a7ca","ios":"levelo://app?vid=46b95343-6661-4df3-acc2-d9ec1143a7ca"},"vehicle_type_id":"4","last_reported":1762805592,"current_range_meters":17200,"station_id":"ce4bhe12rcd13ifvqf30","pricing_plan_id":"cebpf4jnsgd1na2vs0mg"},{"bike_id":"d610cd16-c813-406e-bee7-295ec8ce6047","system_id":"levelo_inurba_marseille","lat":43.33775,"lon":5.3748,"is_reserved":false,"is_disabled":false,"rental_uris":{"android":"levelo://app?vid=d610cd16-c813-406e-bee7-295ec8ce6047","ios":"levelo://app?vid=d610cd16-c813-406e-bee7-295ec8ce6047"},"vehicle_type_id":"4","last_reported":1762805592,"current_range_meters":17200,"station_id":"","pricing_plan_id":"cebpf4jnsgd1na2vs0mg"},{"bike_id":"08da735d-b58f-44f9-9128-6ddfbcba212e","system_id":"levelo_inurba_marseille","lat":43.28421,"lon":5.374965,"is_reserved":false,"is_disabled":false,"rental_uris":{"android":"levelo://app?vid=08da735d-b58f-44f9-9128-6ddfbcba212e","ios":"levelo://app?vid=08da735d-b58f-44f9-9128-6ddfbcba212e"},"vehicle_type_id":"4","last_reported":1762805592,"current_range_meters":17200,"station_id":"ce4bh412rcd13ifvqds0","pricing_plan_id":"cebpf4jnsgd1na2vs0mg"},{"bike_id":"e2ae78b6-0e45-4d14-be67-9fe3a6a70a8e","system_id":"levelo_inurba_marseille","lat":43.28971,"lon":5.37818,"is_reserved":false,"is_disabled":true,"rental_uris":{"android":"levelo://app?vid=e2ae78b6-0e45-4d14-be67-9fe3a6a70a8e","ios":"levelo://app?vid=e2ae78b6-0e45-4d14-be67-9fe3a6a70a8e"},"vehicle_type_id":"4","last_reported":1762805592,"current_range_meters":17200,"station_id":"ce4bh9p2rcd13ifvqed0","pricing_plan_id":"cebpf4jnsgd1na2vs0mg"},{"bike_id":"68a3ab48-396a-4cfb-b14f-e02e6f21d8e7","system_id":"levelo_inurba_marseille","lat":43.29534,"lon":5.3941,"is_reserved":false,"is_disabled":false,"rental_uris":{"android":"levelo://app?vid=68a3ab48-396a-4cfb-b14f-e02e6f21d8e7","ios":"levelo://app?vid=68a3ab48-396a-4cfb-b14f-e02e6f21d8e7"},"vehicle_type_id":"4","last_reported":1762805592,"current_range_meters":17200,"station_id":"ce4bh292rcd13ifvqdf0","pricing_plan_id":"cebpf4jnsgd1na2vs0mg"},{"bike_id":"d900c339-5489-4108-89e5-9b53f0f4d1db","system_id":"levelo_inurba_marseille","lat":43.225329,"lon":5.348353,"is_reserved":false,"is_disabled":false,"rental_uris":{"android":"levelo://app?vid=d900c339-5489-4108-89e5-9b53f0f4d1db","ios":"levelo://app?vid=d900c339-5489-4108-89e5-9b53f0f4d1db"},"vehicle_type_id":"4","last_reported":1762805592,"current_range_meters":17200,"station_id":"","pricing_plan_id":"cebpf4jnsgd1na2vs0mg"},{"bike_id":"4e079ee6-1702-41dc-b42a-90f151dc965a","system_id":"levelo_inurba_marseille","lat":43.27975,"lon":5.38735,"is_reserved":false,"is_disabled":false,"rental_uris":{"android":"levelo://app?vid=4e079ee6-1702-41dc-b42a-90f151dc965a","ios":"levelo://app?vid=4e079ee6-1702-41dc-b42a-90f151dc965a"},"vehicle_type_id":"4","last_reported":1762805592,"current_range_meters":17200,"station_id":"ce4bhg12rcd13ifvqf80","pricing_plan_id":"cebpf4jnsgd1na2vs0mg"},{"bike_id":"525e56d7-a1c8-4b82-99e4-883eb0325419","system_id":"levelo_inurba_marseille","lat":43.2798,"lon":5.41658,"is_reserved":false,"is_disabled":false,"rental_uris":{"android":"levelo://app?vid=525e56d7-a1c8-4b82-99e4-883eb0325419","ios":"levelo://app?vid=525e56d7-a1c8-4b82-99e4-883eb0325419"},"vehicle_type_id":"4","last_reported":1762805592,"current_range_meters":17200,"station_id":"ce4bho12rcd13ifvqh1g","pricing_plan_id":"cebpf4jnsgd1na2vs0mg"},{"bike_id":"72d3a4c7-1d22-44a8-95f0-3a559b085ec3","system_id":"levelo_inurba_marseille","lat":43.28,"lon":5.4001,"is_reserved":false,"is_disabled":false,"rental_uris":{"android":"levelo://app?vid=72d3a4c7-1d22-44a8-95f0-3a559b085ec3","ios":"levelo://app?vid=72d3a4c7-1d22-44a8-95f0-3a559b085ec3"},"vehicle_type_id":"4","last_reported":1762805592,"current_range_meters":17200,"station_id":"ce4bho92rcd13ifvqh4g","pricing_plan_id":"cebpf4jnsgd1na2vs0mg"},{"bike_id":"e2104b6a-7e12-4a20-ae1b-cf4b446d5e26","system_id":"levelo_inurba_marseille","lat":43.28471,"lon":5.48398,"is_reserved":false,"is_disabled":false,"rental_uris":{"android":"levelo://app?vid=e2104b6a-7e12-4a20-ae1b-cf4b446d5e26","ios":"levelo://app?vid=e2104b6a-7e12-4a20-ae1b-cf4b446d5e26"},"vehicle_type_id":"4","last_reported":1762805592,"current_range_meters":17200,"station_id":"st_d3svhcjqgbts73a3dn0g","pricing_plan_id":"cebpf4jnsgd1na2vs0mg"},{"bike_id":"b29890b0-25ed-43f7-9f63-3e9628d7a681","system_id":"levelo_inurba_marseille","lat":43.24807,"lon":5.37455,"is_reserved":false,"is_disabled":false,"rental_uris":{"android":"levelo://app?vid=b29890b0-25ed-43f7-9f63-3e9628d7a681","ios":"levelo://app?vid=b29890b0-25ed-43f7-9f63-3e9628d7a681"},"vehicle_type_id":"4","last_reported":1762805592,"current_range_meters":17200,"station_id":"ce4bhgh2rcd13ifvqfb0","pricing_plan_id":"cebpf4jnsgd1na2vs0mg"},{"bike_id":"89f48309-fa84-45ca-ba8c-1519d88f534d","system_id":"levelo_inurba_marseille","lat":43.2877,"lon":5.40819,"is_reserved":false,"is_disabled":true,"rental_uris":{"android":"levelo://app?vid=89f48309-fa84-45ca-ba8c-1519d88f534d","ios":"levelo://app?vid=89f48309-fa84-45ca-ba8c-1519d88f534d"},"vehicle_type_id":"4","last_reported":1762805592,"current_range_meters":17200,"station_id":"","pricing_plan_id":"cebpf4jnsgd1na2vs0mg"},{"bike_id":"034a6373-4feb-4cd9-8524-e994750e3f50","system_id":"levelo_inurba_marseille","lat":43.29527,"lon":5.38544,"is_reserved":false,"is_disabled":false,"rental_uris":{"android":"levelo://app?vid=034a6373-4feb-4cd9-8524-e994750e3f50","ios":"levelo://app?vid=034a6373-4feb-4cd9-8524-e994750e3f50"},"vehicle_type_id":"4","last_reported":1762805592,"current_range_meters":17200,"station_id":"ce4bgih2rcd13ifvqba0","pricing_plan_id":"cebpf4jnsgd1na2vs0mg"},{"bike_id":"72519289-0544-4653-9c86-3b1b90b3ff62","system_id":"levelo_inurba_marseille","lat":43.28209,"lon":5.39056,"is_reserved":false,"is_disabled":false,"rental_uris":{"android":"levelo://app?vid=72519289-0544-4653-9c86-3b1b90b3ff62","ios":"levelo://app?vid=72519289-0544-4653-9c86-3b1b90b3ff62"},"vehicle_type_id":"4","last_reported":1762805592,"current_range_meters":17200,"station_id":"ce4bhn92rcd13ifvqgsg","pricing_plan_id":"cebpf4jnsgd1na2vs0mg"},{"bike_id":"b5427a01-5d59-4bae-bbce-213366efb6f8","system_id":"levelo_inurba_marseille","lat":43.29785,"lon":5.38096,"is_reserved":false,"is_disabled":true,"rental_uris":{"android":"levelo://app?vid=b5427a01-5d59-4bae-bbce-213366efb6f8","ios":"levelo://app?vid=b5427a01-5d59-4bae-bbce-213366efb6f8"},"vehicle_type_id":"4","last_reported":1762805592,"current_range_meters":17200,"station_id":"ce4bgip2rcd13ifvqbb0","pricing_plan_id":"cebpf4jnsgd1na2vs0mg"},{"bike_id":"258f4075-4e68-4a11-8af5-189efb586036","system_id":"levelo_inurba_marseille","lat":43.29528,"lon":5.39052,"is_reserved":false,"is_disabled":false,"rental_uris":{"android":"levelo://app?vid=258f4075-4e68-4a11-8af5-189efb586036","ios":"levelo://app?vid=258f4075-4e68-4a11-8af5-189efb586036"},"vehicle_type_id":"4","last_reported":1762805592,"current_range_meters":17600,"station_id":"ce4bh3p2rcd13ifvqdp0","pricing_plan_id":"cebpf4jnsgd1na2vs0mg"},{"bike_id":"c89d2b8d-c9be-46ae-a13d-99e2de68472d","system_id":"levelo_inurba_marseille","lat":43.23817,"lon":5.36602,"is_reserved":false,"is_disabled":false,"rental_uris":{"android":"levelo://app?vid=c89d2b8d-c9be-46ae-a13d-99e2de68472d","ios":"levelo://app?vid=c89d2b8d-c9be-46ae-a13d-99e2de68472d"},"vehicle_type_id":"4","last_reported":1762805592,"current_range_meters":17600,"station_id":"st_d3nk18o9ro0c73en2l3g","pricing_plan_id":"cebpf4jnsgd1na2vs0mg"},{"bike_id":"d2c8039b-4907-4ef5-a695-82527122cae9","system_id":"levelo_inurba_marseille","lat":43.28686,"lon":5.39977,"is_reserved":false,"is_disabled":false,"rental_uris":{"android":"levelo://app?vid=d2c8039b-4907-4ef5-a695-82527122cae9","ios":"levelo://app?vid=d2c8039b-4907-4ef5-a695-82527122cae9"},"vehicle_type_id":"4","last_reported":1762805592,"current_range_meters":17600,"station_id":"ce4bho92rcd13ifvqh3g","pricing_plan_id":"cebpf4jnsgd1na2vs0mg"},{"bike_id":"d5beb616-2508-4f37-83e6-0f6884df4453","system_id":"levelo_inurba_marseille","lat":43.287195,"lon":5.360732,"is_reserved":false,"is_disabled":false,"rental_uris":{"android":"levelo://app?vid=d5beb616-2508-4f37-83e6-0f6884df4453","ios":"levelo://app?vid=d5beb616-2508-4f37-83e6-0f6884df4453"},"vehicle_type_id":"4","last_reported":1762805592,"current_range_meters":17600,"station_id":"cki0cbj6b192h4jlfktg","pricing_plan_id":"cebpf4jnsgd1na2vs0mg"},{"bike_id":"96d132e6-f9ce-4bce-a02d-cee681ed88c4","system_id":"levelo_inurba_marseille","lat":43.26208,"lon":5.40445,"is_reserved":false,"is_disabled":false,"rental_uris":{"android":"levelo://app?vid=96d132e6-f9ce-4bce-a02d-cee681ed88c4","ios":"levelo://app?vid=96d132e6-f9ce-4bce-a02d-cee681ed88c4"},"vehicle_type_id":"4","last_reported":1762805592,"current_range_meters":17600,"station_id":"ce4bhmh2rcd13ifvqgmg","pricing_plan_id":"cebpf4jnsgd1na2vs0mg"},{"bike_id":"20a5d121-e153-495c-8951-3d263bb127f2","system_id":"levelo_inurba_marseille","lat":43.27999,"lon":5.40005,"is_reserved":false,"is_disabled":false,"rental_uris":{"android":"levelo://app?vid=20a5d121-e153-495c-8951-3d263bb127f2","ios":"levelo://app?vid=20a5d121-e153-495c-8951-3d263bb127f2"},"vehicle_type_id":"4","last_reported":1762805592,"current_range_meters":17600,"station_id":"ce4bho92rcd13ifvqh4g","pricing_plan_id":"cebpf4jnsgd1na2vs0mg"},{"bike_id":"022ed4ba-5e77-46c8-acc3-7a48a0ae6b0f","system_id":"levelo_inurba_marseille","lat":43.25576,"lon":5.38231,"is_reserved":false,"is_disabled":false,"rental_uris":{"android":"levelo://app?vid=022ed4ba-5e77-46c8-acc3-7a48a0ae6b0f","ios":"levelo://app?vid=022ed4ba-5e77-46c8-acc3-7a48a0ae6b0f"},"vehicle_type_id":"4","last_reported":1762805592,"current_range_meters":17600,"station_id":"ce4bhih2rcd13ifvqfs0","pricing_plan_id":"cebpf4jnsgd1na2vs0mg"},{"bike_id":"5b70eee4-9649-468f-9550-54bdb9848717","system_id":"levelo_inurba_marseille","lat":43.31274,"lon":5.40164,"is_reserved":false,"is_disabled":false,"rental_uris":{"android":"levelo://app?vid=5b70eee4-9649-468f-9550-54bdb9848717","ios":"levelo://app?vid=5b70eee4-9649-468f-9550-54bdb9848717"},"vehicle_type_id":"4","last_reported":1762805592,"current_range_meters":17600,"station_id":"ce4bh092rcd13ifvqd30","pricing_plan_id":"cebpf4jnsgd1na2vs0mg"},{"bike_id":"816b0620-dd1b-4102-9bcd-71c931390427","system_id":"levelo_inurba_marseille","lat":43.25301,"lon":5.38011,"is_reserved":false,"is_disabled":false,"rental_uris":{"android":"levelo://app?vid=816b0620-dd1b-4102-9bcd-71c931390427","ios":"levelo://app?vid=816b0620-dd1b-4102-9bcd-71c931390427"},"vehicle_type_id":"4","last_reported":1762805592,"current_range_meters":17600,"station_id":"","pricing_plan_id":"cebpf4jnsgd1na2vs0mg"},{"bike_id":"279c10dc-fa65-4c8e-900c-326f37b2f636","system_id":"levelo_inurba_marseille","lat":43.29784,"lon":5.37103,"is_reserved":false,"is_disabled":false,"rental_uris":{"android":"levelo://app?vid=279c10dc-fa65-4c8e-900c-326f37b2f636","ios":"levelo://app?vid=279c10dc-fa65-4c8e-900c-326f37b2f636"},"vehicle_type_id":"4","last_reported":1762805592,"current_range_meters":17600,"station_id":"ce4bgop2rcd13ifvqc1g","pricing_plan_id":"cebpf4jnsgd1na2vs0mg"},{"bike_id":"5e398c49-04b3-4191-8eb0-b362e8d4081d","system_id":"levelo_inurba_marseille","lat":43.291997,"lon":5.358007,"is_reserved":false,"is_disabled":false,"rental_uris":{"android":"levelo://app?vid=5e398c49-04b3-4191-8eb0-b362e8d4081d","ios":"levelo://app?vid=5e398c49-04b3-4191-8eb0-b362e8d4081d"},"vehicle_type_id":"4","last_reported":1762805592,"current_range_meters":17600,"station_id":"ce4bhb12rcd13ifvqel0","pricing_plan_id":"cebpf4jnsgd1na2vs0mg"},{"bike_id":"13f87c87-592c-4eb1-bf2b-3072d7669180","system_id":"levelo_inurba_marseille","lat":43.31343,"lon":5.39696,"is_reserved":false,"is_disabled":false,"rental_uris":{"android":"levelo://app?vid=13f87c87-592c-4eb1-bf2b-3072d7669180","ios":"levelo://app?vid=13f87c87-592c-4eb1-bf2b-3072d7669180"},"vehicle_type_id":"4","last_reported":1762805592,"current_range_meters":17600,"station_id":"ce4bgvp2rcd13ifvqcu0","pricing_plan_id":"cebpf4jnsgd1na2vs0mg"},{"bike_id":"3e73c293-a4c6-4a53-9fe4-e67c888898c0","system_id":"levelo_inurba_marseille","lat":43.29929,"lon":5.36551,"is_reserved":false,"is_disabled":false,"rental_uris":{"android":"levelo://app?vid=3e73c293-a4c6-4a53-9fe4-e67c888898c0","ios":"levelo://app?vid=3e73c293-a4c6-4a53-9fe4-e67c888898c0"},"vehicle_type_id":"4","last_reported":1762805592,"current_range_meters":17600,"station_id":"ce4bgm92rcd13ifvqbr0","pricing_plan_id":"cebpf4jnsgd1na2vs0mg"},{"bike_id":"7e1fb5af-a301-4bdb-91ee-7ed1eb8b9b0e","system_id":"levelo_inurba_marseille","lat":43.297776,"lon":5.393227,"is_reserved":false,"is_disabled":false,"rental_uris":{"android":"levelo://app?vid=7e1fb5af-a301-4bdb-91ee-7ed1eb8b9b0e","ios":"levelo://app?vid=7e1fb5af-a301-4bdb-91ee-7ed1eb8b9b0e"},"vehicle_type_id":"4","last_reported":1762805592,"current_range_meters":18000,"station_id":"chh1huq6cuj3fo74tm60","pricing_plan_id":"cebpf4jnsgd1na2vs0mg"},{"bike_id":"c72f5541-2021-4de6-8360-09462c7dfa63","system_id":"levelo_inurba_marseille","lat":43.27941,"lon":5.41042,"is_reserved":false,"is_disabled":false,"rental_uris":{"android":"levelo://app?vid=c72f5541-2021-4de6-8360-09462c7dfa63","ios":"levelo://app?vid=c72f5541-2021-4de6-8360-09462c7dfa63"},"vehicle_type_id":"4","last_reported":1762805592,"current_range_meters":18000,"station_id":"ce4bhnp2rcd13ifvqh0g","pricing_plan_id":"cebpf4jnsgd1na2vs0mg"},