{"last_updated":1760841834,"ttl":60,"version":"2.2","data":{"bikes":[{"bike_id":"63082f70-fa98-46e0-8302-f450ba5bce5b","system_id":"levelo_inurba_marseille","lat":43.255056,"lon":5.376504,"is_reserved":false,"is_disabled":false,"rental_uris":{"android":"levelo://app?vid=63082f70-fa98-46e0-8302-f450ba5bce5b","ios":"levelo://app?vid=63082f70-fa98-46e0-8302-f450ba5bce5b"},"vehicle_type_id":"4","last_reported":1760841834,"current_range_meters":2800,"station_id":"ce4bhh12rcd13ifvqff0","pricing_plan_id":"cebpf4jnsgd1na2vs0mg"},{"bike_id":"83a5c5bb-9d06-4146-9e27-b63caec2964c","system_id":"levelo_inurba_marseille","lat":43.30601,"lon":5.37198,"is_reserved":false,"is_disabled":false,"rental_uris":{"android":"levelo://app?vid=83a5c5bb-9d06-4146-9e27-b63caec2964c","ios":"levelo://app?vid=83a5c5bb-9d06-4146-9e27-b63caec2964c"},"vehicle_type_id":"4","last_reported":1760841834,"current_range_meters":3200,"station_id":"ce4bgqh2rcd13ifvqc4g","pricing_plan_id":"cebpf4jnsgd1na2vs0mg"},{"bike_id":"4b08cfe7-5df1-4e29-905e-03a9992f8dfa","system_id":"levelo_inurba_marseille","lat":43.33764,"lon":5.37428,"is_reserved":false,"is_disabled":false,"rental_uris":{"android":"levelo://app?vid=4b08cfe7-5df1-4e29-905e-03a9992f8dfa","ios":"levelo://app?vid=4b08cfe7-5df1-4e29-905e-03a9992f8dfa"},"vehicle_type_id":"4","last_reported":1760841834,"current_range_meters":3200,"station_id":"","pricing_plan_id":"cebpf4jnsgd1na2vs0mg"},{"bike_id":"0029818a-94e4-4ec1-a485-42708c2a5cfb","system_id":"levelo_inurba_marseille","lat":43.30535,"lon":5.3843,"is_reserved":false,"is_disabled":false,"rental_uris":{"android":"levelo://app?vid=0029818a-94e4-4ec1-a485-42708c2a5cfb","ios":"levelo://app?vid=0029818a-94e4-4ec1-a485-42708c2a5cfb"},"vehicle_type_id":"4","last_reported":1760841834,"current_range_meters":3200,"station_id":"ce4bgg92rcd13ifvqb30","pricing_plan_id":"cebpf4jnsgd1na2vs0mg"},{"bike_id":"c9467074-4666-4f2b-a143-48d099884f9f","system_id":"levelo_inurba_marseille","lat":43.290017,"lon":5.356057,"is_reserved":false,"is_disabled":false,"rental_uris":{"android":"levelo://app?vid=c9467074-4666-4f2b-a143-48d099884f9f","ios":"levelo://app?vid=c9467074-4666-4f2b-a143-48d099884f9f"},"vehicle_type_id":"4","last_reported":1760841834,"current_range_meters":3200,"station_id":"ce4bhb92rcd13ifvqen0","pricing_plan_id":"cebpf4jnsgd1na2vs0mg"},{"bike_id":"24d82d64-1145-442f-a9f5-19238b0b39ef","system_id":"levelo_inurba_marseille","lat":43.272133,"lon":5.391866,"is_reserved":false,"is_disabled":false,"rental_uris":{"android":"levelo://app?vid=24d82d64-1145-442f-a9f5-19238b0b39ef","ios":"levelo://app?vid=24d82d64-1145-442f-a9f5-19238b0b39ef"},"vehicle_type_id":"4","last_reported":1760841834,"current_range_meters":3600,"station_id":"","pricing_plan_id":"cebpf4jnsgd1na2vs0mg"},{"bike_id":"c1d3ef20-8f0a-4e4a-97fa-b06f3b92c8a4","system_id":"levelo_inurba_marseille","lat":43.307743,"lon":5.376475,"is_reserved":false,"is_disabled":false,"rental_uris":{"android":"levelo://app?vid=c1d3ef20-8f0a-4e4a-97fa-b06f3b92c8a4","ios":"levelo://app?vid=c1d3ef20-8f0a-4e4a-97fa-b06f3b92c8a4"},"vehicle_type_id":"4","last_reported":1760841834,"current_range_meters":3600,"station_id":"ce4bgv92rcd13ifvqcq0","pricing_plan_id":"cebpf4jnsgd1na2vs0mg"},{"bike_id":"0e31f484-4e6a-4ff4-8cee-3f592e759fb9","system_id":"levelo_inurba_marseille","lat":43.27918,"lon":5.39583,"is_reserved":false,"is_disabled":false,"rental_uris":{"android":"levelo://app?vid=0e31f484-4e6a-4ff4-8cee-3f592e759fb9","ios":"levelo://app?vid=0e31f484-4e6a-4ff4-8cee-3f592e759fb9"},"vehicle_type_id":"4","last_reported":1760841834,"current_range_meters":3600,"station_id":"ce4bhf92rcd13ifvqf40","pricing_plan_id":"cebpf4jnsgd1na2vs0mg"},{"bike_id":"5cf58e81-7552-4ebd-a932-79bba6f62907","system_id":"levelo_inurba_marseille","lat":43.2904,"lon":5.38657,"is_reserved":false,"is_disabled":true,"rental_uris":{"android":"levelo://app?vid=5cf58e81-7552-4ebd-a932-79bba6f62907","ios":"levelo://app?vid=5cf58e81-7552-4ebd-a932-79bba6f62907"},"vehicle_type_id":"4","last_reported":1760841834,"current_range_meters":4000,"station_id":"ce4bh4p2rcd13ifvqe0g","pricing_plan_id":"cebpf4jnsgd1na2vs0mg"},{"bike_id":"ad645481-0de8-4897-be83-414c8e8e3fce","system_id":"levelo_inurba_marseille","lat":43.23186,"lon":5.39994,"is_reserved":false,"is_disabled":false,"rental_uris":{"android":"levelo://app?vid=ad645481-0de8-4897-be83-414c8e8e3fce","ios":"levelo://app?vid=ad645481-0de8-4897-be83-414c8e8e3fce"},"vehicle_type_id":"4","last_reported":1760841834,"current_range_meters":4000,"station_id":"ce4bhn12rcd13ifvqgqg","pricing_plan_id":"cebpf4jnsgd1na2vs0mg"},{"bike_id":"b198fdae-a02e-4380-b40a-23fa0f5e4197","system_id":"levelo_inurba_marseille","lat":43.286205,"lon":5.406923,"is_reserved":false,"is_disabled":false,"rental_uris":{"android":"levelo://app?vid=b198fdae-a02e-4380-b40a-23fa0f5e4197","ios":"levelo://app?vid=b198fdae-a02e-4380-b40a-23fa0f5e4197"},"vehicle_type_id":"4","last_reported":1760841834,"current_range_meters":4000,"station_id":"","pricing_plan_id":"cebpf4jnsgd1na2vs0mg"},{"bike_id":"ad817210-8c8f-48f7-98c7-dd3be03d9809","system_id":"levelo_inurba_marseille","lat":43.282689,"lon":5.350769,"is_reserved":false,"is_disabled":false,"rental_uris":{"android":"levelo://app?vid=ad817210-8c8f-48f7-98c7-dd3be03d9809","ios":"levelo://app?vid=ad817210-8c8f-48f7-98c7-dd3be03d9809"},"vehicle_type_id":"4","last_reported":1760841834,"current_range_meters":4400,"station_id":"ce4bhbp2rcd13ifvqerg","pricing_plan_id":"cebpf4jnsgd1na2vs0mg"},{"bike_id":"9cf6275b-de5c-41c4-a6f9-24fcd325439f","system_id":"levelo_inurba_marseille","lat":43.28679,"lon":5.40009,"is_reserved":false,"is_disabled":false,"rental_uris":{"android":"levelo://app?vid=9cf6275b-de5c-41c4-a6f9-24fcd325439f","ios":"levelo://app?vid=9cf6275b-de5c-41c4-a6f9-24fcd325439f"},"vehicle_type_id":"4","last_reported":1760841834,"current_range_meters":4800,"station_id":"ce4bho92rcd13ifvqh3g","pricing_plan_id":"cebpf4jnsgd1na2vs0mg"},{"bike_id":"416f580b-31c7-4ade-8604-dbd86eb8155f","system_id":"levelo_inurba_marseille","lat":43.28174,"lon":5.42131,"is_reserved":false,"is_disabled":false,"rental_uris":{"android":"levelo://app?vid=416f580b-31c7-4ade-8604-dbd86eb8155f","ios":"levelo://app?vid=416f580b-31c7-4ade-8604-dbd86eb8155f"},"vehicle_type_id":"4","last_reported":1760841834,"current_range_meters":4800,"station_id":"","pricing_plan_id":"cebpf4jnsgd1na2vs0mg"},{"bike_id":"7c1a8224-4a41-45eb-9e63-1b47a5aae640","system_id":"levelo_inurba_marseille","lat":43.2847,"lon":5.35889,"is_reserved":false,"is_disabled":false,"rental_uris":{"android":"levelo://app?vid=7c1a8224-4a41-45eb-9e63-1b47a5aae640","ios":"levelo://app?vid=7c1a8224-4a41-45eb-9e63-1b47a5aae640"},"vehicle_type_id":"4","last_reported":1760841834,"current_range_meters":4800,"station_id":"ce4bhah2rcd13ifvqei0","pricing_plan_id":"cebpf4jnsgd1na2vs0mg"},{"bike_id":"5fe6e873-dba1-40dd-bc65-77de126f2710","system_id":"levelo_inurba_marseille","lat":43.332893,"lon":5.395256,"is_reserved":false,"is_disabled":true,"rental_uris":{"android":"levelo://app?vid=5fe6e873-dba1-40dd-bc65-77de126f2710","ios":"levelo://app?vid=5fe6e873-dba1-40dd-bc65-77de126f2710"},"vehicle_type_id":"4","last_reported":1760841834,"current_range_meters":4800,"station_id":"","pricing_plan_id":"cebpf4jnsgd1na2vs0mg"},{"bike_id":"1af2e540-b5db-47ea-af6b-5b140f67f618","system_id":"levelo_inurba_marseille","lat":43.287061,"lon":5.399873,"is_reserved":false,"is_disabled":false,"rental_uris":{"android":"levelo://app?vid=1af2e540-b5db-47ea-af6b-5b140f67f618","ios":"levelo://app?vid=1af2e540-b5db-47ea-af6b-5b140f67f618"},"vehicle_type_id":"4","last_reported":1760841834,"current_range_meters":5600,"station_id":"ce4bho92rcd13ifvqh3g","pricing_plan_id":"cebpf4jnsgd1na2vs0mg"},{"bike_id":"35c77582-7caa-4946-951c-4d37262a664c","system_id":"levelo_inurba_marseille","lat":43.26211,"lon":5.37439,"is_reserved":false,"is_disabled":false,"rental_uris":{"android":"levelo://app?vid=35c77582-7caa-4946-951c-4d37262a664c","ios":"levelo://app?vid=35c77582-7caa-4946-951c-4d37262a664c"},"vehicle_type_id":"4","last_reported":1760841834,"current_range_meters":6000,"station_id":"ce4bhgp2rcd13ifvqfc0","pricing_plan_id":"cebpf4jnsgd1na2vs0mg"},{"bike_id":"efbce1d0-71a2-4337-9d3c-c97340097a11","system_id":"levelo_inurba_marseille","lat":43.314986,"lon":5.373105,"is_reserved":false,"is_disabled":false,"rental_uris":{"android":"levelo://app?vid=efbce1d0-71a2-4337-9d3c-c97340097a11","ios":"levelo://app?vid=efbce1d0-71a2-4337-9d3c-c97340097a11"},"vehicle_type_id":"4","last_reported":1760841834,"current_range_meters":6000,"station_id":"ce4bgt12rcd13ifvqcd0","pricing_plan_id":"cebpf4jnsgd1na2vs0mg"},{"bike_id":"0e3f5e89-9580-401a-9d09-43978c636700","system_id":"levelo_inurba_marseille","lat":43.2871,"lon":5.3999,"is_reserved":false,"is_disabled":false,"rental_uris":{"android":"levelo://app?vid=0e3f5e89-9580-401a-9d09-43978c636700","ios":"levelo://app?vid=0e3f5e89-9580-401a-9d09-43978c636700"},"vehicle_type_id":"4","last_reported":1760841834,"current_range_meters":6000,"station_id":"ce4bho92rcd13ifvqh3g","pricing_plan_id":"cebpf4jnsgd1na2vs0mg"},{"bike_id":"a817b630-bbed-48d3-97f4-9bd571b9ebab","system_id":"levelo_inurba_marseille","lat":43.30002,"lon":5.37345,"is_reserved":false,"is_disabled":false,"rental_uris":{"android":"levelo://app?vid=a817b630-bbed-48d3-97f4-9bd571b9ebab","ios":"levelo://app?vid=a817b630-bbed-48d3-97f4-9bd571b9ebab"},"vehicle_type_id":"4","last_reported":1760841834,"current_range_meters":6000,"station_id":"","pricing_plan_id":"cebpf4jnsgd1na2vs0mg"},{"bike_id":"8bacde3d-31b2-4abf-b195-f56cd17fdf30","system_id":"levelo_inurba_marseille","lat":43.295651,"lon":5.399384,"is_reserved":false,"is_disabled":false,"rental_uris":{"android":"levelo://app?vid=8bacde3d-31b2-4abf-b195-f56cd17fdf30","ios":"levelo://app?vid=8bacde3d-31b2-4abf-b195-f56cd17fdf30"},"vehicle_type_id":"4","last_reported":1760841834,"current_range_meters":6000,"station_id":"ce4bh312rcd13ifvqdj0","pricing_plan_id":"cebpf4jnsgd1na2vs0mg"},{"bike_id":"1382b748-840e-4ecc-afc5-0fb4eeaeb841","system_id":"levelo_inurba_marseille","lat":43.3059,"lon":5.37479,"is_reserved":false,"is_disabled":false,"rental_uris":{"android":"levelo://app?vid=1382b748-840e-4ecc-afc5-0fb4eeaeb841","ios":"levelo://app?vid=1382b748-840e-4ecc-afc5-0fb4eeaeb841"},"vehicle_type_id":"4","last_reported":1760841834,"current_range_meters":6400,"station_id":"","pricing_plan_id":"cebpf4jnsgd1na2vs0mg"},{"bike_id":"63478bc5-9a39-4cb8-a553-9b6ffeac0ad3","system_id":"levelo_inurba_marseille","lat":43.2847,"lon":5.35887,"is_reserved":false,"is_disabled":false,"rental_uris":{"android":"levelo://app?vid=63478bc5-9a39-4cb8-a553-9b6ffeac0ad3","ios":"levelo://app?vid=63478bc5-9a39-4cb8-a553-9b6ffeac0ad3"},"vehicle_type_id":"4","last_reported":1760841834,"current_range_meters":6800,"station_id":"ce4bhah2rcd13ifvqei0","pricing_plan_id":"cebpf4jnsgd1na2vs0mg"},{"bike_id":"23106cad-886f-404f-82e9-c2982189811d","system_id":"levelo_inurba_marseille","lat":43.27198,"lon":5.42795,"is_reserved":false,"is_disabled":false,"rental_uris":{"android":"levelo://app?vid=23106cad-886f-404f-82e9-c2982189811d","ios":"levelo://app?vid=23106cad-886f-404f-82e9-c2982189811d"},"vehicle_type_id":"4","last_reported":1760841834,"current_range_meters":6800,"station_id":"","pricing_plan_id":"cebpf4jnsgd1na2vs0mg"},{"bike_id":"620f19db-e929-4071-8a7a-fb5114fd2597","system_id":"levelo_inurba_marseille","lat":43.273237,"lon":5.390799,"is_reserved":false,"is_disabled":true,"rental_uris":{"android":"levelo://app?vid=620f19db-e929-4071-8a7a-fb5114fd2597","ios":"levelo://app?vid=620f19db-e929-4071-8a7a-fb5114fd2597"},"vehicle_type_id":"4","last_reported":1760841834,"current_range_meters":6800,"station_id":"ce4bhgp2rcd13ifvqfe0","pricing_plan_id":"cebpf4jnsgd1na2vs0mg"},{"bike_id":"0b4e036e-2d13-4cdc-b335-af4de6bed144","system_id":"levelo_inurba_marseille","lat":43.28663,"lon":5.36346,"is_reserved":false,"is_disabled":false,"rental_uris":{"android":"levelo://app?vid=0b4e036e-2d13-4cdc-b335-af4de6bed144","ios":"levelo://app?vid=0b4e036e-2d13-4cdc-b335-af4de6bed144"},"vehicle_type_id":"4","last_reported":1760841834,"current_range_meters":7200,"station_id":"ce4bhah2rcd13ifvqej0","pricing_plan_id":"cebpf4jnsgd1na2vs0mg"},{"bike_id":"292560fa-7dd3-4245-9945-4773c11fda58","system_id":"levelo_inurba_marseille","lat":43.28351,"lon":5.38097,"is_reserved":false,"is_disabled":false,"rental_uris":{"android":"levelo://app?vid=292560fa-7dd3-4245-9945-4773c11fda58","ios":"levelo://app?vid=292560fa-7dd3-4245-9945-4773c11fda58"},"vehicle_type_id":"4","last_reported":1760841834,"current_range_meters":7200,"station_id":"ce4bh412rcd13ifvqdr0","pricing_plan_id":"cebpf4jnsgd1na2vs0mg"},{"bike_id":"f9a68336-e18c-42b7-98a0-e869c03c0830","system_id":"levelo_inurba_marseille","lat":43.30927,"lon":5.40147,"is_reserved":false,"is_disabled":false,"rental_uris":{"android":"levelo://app?vid=f9a68336-e18c-42b7-98a0-e869c03c0830","ios":"levelo://app?vid=f9a68336-e18c-42b7-98a0-e869c03c0830"},"vehicle_type_id":"4","last_reported":1760841834,"current_range_meters":7200,"station_id":"ce4bgvp2rcd13ifvqct0","pricing_plan_id":"cebpf4jnsgd1na2vs0mg"},{"bike_id":"502db72a-a4a3-4583-8e11-cf349a0c7341","system_id":"levelo_inurba_marseille","lat":43.283545,"lon":5.386297,"is_reserved":false,"is_disabled":false,"rental_uris":{"android":"levelo://app?vid=502db72a-a4a3-4583-8e11-cf349a0c7341","ios":"levelo://app?vid=502db72a-a4a3-4583-8e11-cf349a0c7341"},"vehicle_type_id":"4","last_reported":1760841834,"current_range_meters":7200,"station_id":"ce4bh492rcd13ifvqdvg","pricing_plan_id":"cebpf4jnsgd1na2vs0mg"},{"bike_id":"d5949c79-ba88-4af5-8972-1bc35b462809","system_id":"levelo_inurba_marseille","lat":43.30435,"lon":5.38895,"is_reserved":false,"is_disabled":false,"rental_uris":{"android":"levelo://app?vid=d5949c79-ba88-4af5-8972-1bc35b462809","ios":"levelo://app?vid=d5949c79-ba88-4af5-8972-1bc35b462809"},"vehicle_type_id":"4","last_reported":1760841834,"current_range_meters":7200,"station_id":"ce4bgk12rcd13ifvqbi0","pricing_plan_id":"cebpf4jnsgd1na2vs0mg"},{"bike_id":"566e8aef-ba4a-459c-916a-fe3e818c70f8","system_id":"levelo_inurba_marseille","lat":43.265623,"lon":5.372879,"is_reserved":false,"is_disabled":false,"rental_uris":{"android":"levelo://app?vid=566e8aef-ba4a-459c-916a-fe3e818c70f8","ios":"levelo://app?vid=566e8aef-ba4a-459c-916a-fe3e818c70f8"},"vehicle_type_id":"4","last_reported":1760841834,"current_range_meters":8000,"station_id":"ce4bhg12rcd13ifvqf70","pricing_plan_id":"cebpf4jnsgd1na2vs0mg"},{"bike_id":"924ac669-be8b-47aa-9a8e-6f22baf815eb","system_id":"levelo_inurba_marseille","lat":43.337692,"lon":5.374734,"is_reserved":false,"is_disabled":false,"rental_uris":{"android":"levelo://app?vid=924ac669-be8b-47aa-9a8e-6f22baf815eb","ios":"levelo://app?vid=924ac669-be8b-47aa-9a8e-6f22baf815eb"},"vehicle_type_id":"4","last_reported":1760841834,"current_range_meters":8000,"station_id":"","pricing_plan_id":"cebpf4jnsgd1na2vs0mg"},{"bike_id":"9b3ec767-26cf-4b69-97c2-4503b4353f66","system_id":"levelo_inurba_marseille","lat":43.31138,"lon":5.37786,"is_reserved":false,"is_disabled":false,"rental_uris":{"android":"levelo://app?vid=9b3ec767-26cf-4b69-97c2-4503b4353f66","ios":"levelo://app?vid=9b3ec767-26cf-4b69-97c2-4503b4353f66"},"vehicle_type_id":"4","last_reported":1760841834,"current_range_meters":8000,"station_id":"ce4bgt92rcd13ifvqcg0","pricing_plan_id":"cebpf4jnsgd1na2vs0mg"},{"bike_id":"ffba4afa-54a2-4996-b187-e03b2e75334d","system_id":"levelo_inurba_marseille","lat":43.31697,"lon":5.40476,"is_reserved":false,"is_disabled":false,"rental_uris":{"android":"levelo://app?vid=ffba4afa-54a2-4996-b187-e03b2e75334d","ios":"levelo://app?vid=ffba4afa-54a2-4996-b187-e03b2e75334d"},"vehicle_type_id":"4","last_reported":1760841834,"current_range_meters":8000,"station_id":"ce4bh012rcd13ifvqd00","pricing_plan_id":"cebpf4jnsgd1na2vs0mg"},{"bike_id":"f55709e0-4b78-4850-8db3-b4d73728152f","system_id":"levelo_inurba_marseille","lat":43.35168,"lon":5.36448,"is_reserved":false,"is_disabled":false,"rental_uris":{"android":"levelo://app?vid=f55709e0-4b78-4850-8db3-b4d73728152f","ios":"levelo://app?vid=f55709e0-4b78-4850-8db3-b4d73728152f"},"vehicle_type_id":"4","last_reported":1760841834,"current_range_meters":8000,"station_id":"","pricing_plan_id":"cebpf4jnsgd1na2vs0mg"},{"bike_id":"bbfea383-53c1-4cff-975b-4647ba07b014","system_id":"levelo_inurba_marseille","lat":43.30239,"lon":5.40033,"is_reserved":false,"is_disabled":false,"rental_uris":{"android":"levelo://app?vid=bbfea383-53c1-4cff-975b-4647ba07b014","ios":"levelo://app?vid=bbfea383-53c1-4cff-975b-4647ba07b014"},"vehicle_type_id":"4","last_reported":1760841834,"current_range_meters":8400,"station_id":"ce4bgvh2rcd13ifvqcs0","pricing_plan_id":"cebpf4jnsgd1na2vs0mg"},{"bike_id":"297d13ed-f0d9-44df-8fc4-632fc1d81159","system_id":"levelo_inurba_marseille","lat":43.298113,"lon":5.404046,"is_reserved":false,"is_disabled":false,"rental_uris":{"android":"levelo://app?vid=297d13ed-f0d9-44df-8fc4-632fc1d81159","ios":"levelo://app?vid=297d13ed-f0d9-44df-8fc4-632fc1d81159"},"vehicle_type_id":"4","last_reported":1760841834,"current_range_meters":8400,"station_id":"ce4bh112rcd13ifvqd90","pricing_plan_id":"cebpf4jnsgd1na2vs0mg"},{"bike_id":"75b02a51-1325-435e-9661-29bb451a696a","system_id":"levelo_inurba_marseille","lat":43.31448,"lon":5.38488,"is_reserved":false,"is_disabled":false,"rental_uris":{"android":"levelo://app?vid=75b02a51-1325-435e-9661-29bb451a696a","ios":"levelo://app?vid=75b02a51-1325-435e-9661-29bb451a696a"},"vehicle_type_id":"4","last_reported":1760841834,"current_range_meters":8800,"station_id":"","pricing_plan_id":"cebpf4jnsgd1na2vs0mg"},{"bike_id":"9dd1d8fe-c2a8-4a70-a175-61f5f9fe7fd2","system_id":"levelo_inurba_marseille","lat":43.315607,"lon":5.388406,"is_reserved":false,"is_disabled":false,"rental_uris":{"android":"levelo://app?vid=9dd1d8fe-c2a8-4a70-a175-61f5f9fe7fd2","ios":"levelo://app?vid=9dd1d8fe-c2a8-4a70-a175-61f5f9fe7fd2"},"vehicle_type_id":"4","last_reported":1760841834,"current_range_meters":9200,"station_id":"","pricing_plan_id":"cebpf4jnsgd1na2vs0mg"},{"bike_id":"31031a74-27cc-4f5f-a2c4-c5d9ae180c41","system_id":"levelo_inurba_marseille","lat":43.281081,"lon":5.378505,"is_reserved":false,"is_disabled":false,"rental_uris":{"android":"levelo://app?vid=31031a74-27cc-4f5f-a2c4-c5d9ae180c41","ios":"levelo://app?vid=31031a74-27cc-4f5f-a2c4-c5d9ae180c41"},"vehicle_type_id":"4","last_reported":1760841834,"current_range_meters":9200,"station_id":"ce4bha12rcd13ifvqee0","pricing_plan_id":"cebpf4jnsgd1na2vs0mg"},{"bike_id":"228be0a7-a064-416a-aad1-c9443795ad86","system_id":"levelo_inurba_marseille","lat":43.31557,"lon":5.38615,"is_reserved":false,"is_disabled":false,"rental_uris":{"android":"levelo://app?vid=228be0a7-a064-416a-aad1-c9443795ad86","ios":"levelo://app?vid=228be0a7-a064-416a-aad1-c9443795ad86"},"vehicle_type_id":"4","last_reported":1760841834,"current_range_meters":9200,"station_id":"","pricing_plan_id":"cebpf4jnsgd1na2vs0mg"},{"bike_id":"d7de8a4b-054e-4f08-972f-750ba132f0ec","system_id":"levelo_inurba_marseille","lat":43.29185,"lon":5.35799,"is_reserved":false,"is_disabled":true,"rental_uris":{"android":"levelo://app?vid=d7de8a4b-054e-4f08-972f-750ba132f0ec","ios":"levelo://app?vid=d7de8a4b-054e-4f08-972f-750ba132f0ec"},"vehicle_type_id":"4","last_reported":1760841834,"current_range_meters":9200,"station_id":"ce4bhb12rcd13ifvqel0","pricing_plan_id":"cebpf4jnsgd1na2vs0mg"},{"bike_id":"e07d7791-9086-4cd4-82bc-3896356eb7b9","system_id":"levelo_inurba_marseille","lat":43.2885,"lon":5.39331,"is_reserved":false,"is_disabled":false,"rental_uris":{"android":"levelo://app?vid=e07d7791-9086-4cd4-82bc-3896356eb7b9","ios":"levelo://app?vid=e07d7791-9086-4cd4-82bc-3896356eb7b9"},"vehicle_type_id":"4","last_reported":1760841834,"current_range_meters":9200,"station_id":"ce4bh2p2rcd13ifvqdi0","pricing_plan_id":"cebpf4jnsgd1na2vs0mg"},{"bike_id":"5ec36f29-a595-43fb-81bc-e1f6ecf04525","system_id":"levelo_inurba_marseille","lat":43.21192,"lon":5.35072,"is_reserved":false,"is_disabled":true,"rental_uris":{"android":"levelo://app?vid=5ec36f29-a595-43fb-81bc-e1f6ecf04525","ios":"levelo://app?vid=5ec36f29-a595-43fb-81bc-e1f6ecf04525"},"vehicle_type_id":"4","last_reported":1760841834,"current_range_meters":9200,"station_id":"st_cvj6sg6p6f1abm77japg","pricing_plan_id":"cebpf4jnsgd1na2vs0mg"},{"bike_id":"0893a90a-1d21-45cc-81a6-451237ea0d7e","system_id":"levelo_inurba_marseille","lat":43.287149,"lon":5.39974,"is_reserved":false,"is_disabled":false,"rental_uris":{"android":"levelo://app?vid=0893a90a-1d21-45cc-81a6-451237ea0d7e","ios":"levelo://app?vid=0893a90a-1d21-45cc-81a6-451237ea0d7e"},"vehicle_type_id":"4","last_reported":1760841834,"current_range_meters":9200,"station_id":"ce4bho92rcd13ifvqh3g","pricing_plan_id":"cebpf4jnsgd1na2vs0mg"},{"bike_id":"2da8af00-5bde-4f68-9a63-f51b703d78e7","system_id":"levelo_inurba_marseille","lat":43.28621,"lon":5.35113,"is_reserved":false,"is_disabled":false,"rental_uris":{"android":"levelo://app?vid=2da8af00-5bde-4f68-9a63-f51b703d78e7","ios":"levelo://app?vid=2da8af00-5bde-4f68-9a63-f51b703d78e7"},"vehicle_type_id":"4","last_reported":1760841834,"current_range_meters":9600,"station_id":"ce4bhch2rcd13ifvqeug","pricing_plan_id":"cebpf4jnsgd1na2vs0mg"},{"bike_id":"cc7ce9c8-73dc-4ce5-b895-f3305ff956bd","system_id":"levelo_inurba_marseille","lat":43.30538,"lon":5.38412,"is_reserved":false,"is_disabled":false,"rental_uris":{"android":"levelo://app?vid=cc7ce9c8-73dc-4ce5-b895-f3305ff956bd","ios":"levelo://app?vid=cc7ce9c8-73dc-4ce5-b895-f3305ff956bd"},"vehicle_type_id":"4","last_reported":1760841834,"current_range_meters":9600,"station_id":"ce4bgg92rcd13ifvqb30","pricing_plan_id":"cebpf4jnsgd1na2vs0mg"},{"bike_id":"0b170382-a38a-48fc-b060-b901de311f1a","system_id":"levelo_inurba_marseille","lat":43.33047,"lon":5.39024,"is_reserved":false,"is_disabled":true,"rental_uris":{"android":"levelo://app?vid=0b170382-a38a-48fc-b060-b901de311f1a","ios":"levelo://app?vid=0b170382-a38a-48fc-b060-b901de311f1a"},"vehicle_type_id":"4","last_reported":1760841834,"current_range_meters":9600,"station_id":"ce4bhr92rcd13ifvqhrg","pricing_plan_id":"cebpf4jnsgd1na2vs0mg"},{"bike_id":"383132c7-6568-4b3f-85e0-394f17b8ed8c","system_id":"levelo_inurba_marseille","lat":43.24643,"lon":5.38888,"is_reserved":false,"is_disabled":true,"rental_uris":{"android":"levelo://app?vid=383132c7-6568-4b3f-85e0-394f17b8ed8c","ios":"levelo://app?vid=383132c7-6568-4b3f-85e0-394f17b8ed8c"},"vehicle_type_id":"4","last_reported":1760841834,"current_range_meters":9600,"station_id":"ce4bhg12rcd13ifvqf60","pricing_plan_id":"cebpf4jnsgd1na2vs0mg"},{"bike_id":"676fd588-494b-4028-8203-f37ef89d1fbb","system_id":"levelo_inurba_marseille","lat":43.22562,"lon":5.41636,"is_reserved":false,"is_disabled":false,"rental_uris":{"android":"levelo://app?vid=676fd588-494b-4028-8203-f37ef89d1fbb","ios":"levelo://app?vid=676fd588-494b-4028-8203-f37ef89d1fbb"},"vehicle_type_id":"4","last_reported":1760841834,"current_range_meters":9600,"station_id":"st_d2o4gvlbi1j2169b742g","pricing_plan_id":"cebpf4jnsgd1na2vs0mg"},{"bike_id":"9b35f520-b47c-4550-9804-23f27fab5ce9","system_id":"levelo_inurba_marseille","lat":43.25493,"lon":5.3765,"is_reserved":false,"is_disabled":true,"rental_uris":{"android":"levelo://app?vid=9b35f520-b47c-4550-9804-23f27fab5ce9","ios":"levelo://app?vid=9b35f520-b47c-4550-9804-23f27fab5ce9"},"vehicle_type_id":"4","last_reported":1760841834,"current_range_meters":9600,"station_id":"ce4bhh12rcd13ifvqff0","pricing_plan_id":"cebpf4jnsgd1na2vs0mg"},{"bike_id":"a8846c10-c7ea-4a0c-bdcc-23a6ec63fd6e","system_id":"levelo_inurba_marseille","lat":43.271379,"lon":5.391821,"is_reserved":false,"is_disabled":false,"rental_uris":{"android":"levelo://app?vid=a8846c10-c7ea-4a0c-bdcc-23a6ec63fd6e","ios":"levelo://app?vid=a8846c10-c7ea-4a0c-bdcc-23a6ec63fd6e"},"vehicle_type_id":"4","last_reported":1760841834,"current_range_meters":9600,"station_id":"","pricing_plan_id":"cebpf4jnsgd1na2vs0mg"},{"bike_id":"8e6781bb-2e20-454e-8191-54182f17bdfc","system_id":"levelo_inurba_marseille","lat":43.217526,"lon":5.346023,"is_reserved":false,"is_disabled":true,"rental_uris":{"android":"levelo://app?vid=8e6781bb-2e20-454e-8191-54182f17bdfc","ios":"levelo://app?vid=8e6781bb-2e20-454e-8191-54182f17bdfc"},"vehicle_type_id":"4","last_reported":1760841834,"current_range_meters":9600,"station_id":"st_cvj6r9ubvosntc0bgbag","pricing_plan_id":"cebpf4jnsgd1na2vs0mg"},{"bike_id":"f770bc01-f2ec-4bd6-8e37-4f02eca83a56","system_id":"levelo_inurba_marseille","lat":43.315339,"lon":5.387349,"is_reserved":false,"is_disabled":false,"rental_uris":{"android":"levelo://app?vid=f770bc01-f2ec-4bd6-8e37-4f02eca83a56","ios":"levelo://app?vid=f770bc01-f2ec-4bd6-8e37-4f02eca83a56"},"vehicle_type_id":"4","last_reported":1760841834,"current_range_meters":9600,"station_id":"","pricing_plan_id":"cebpf4jnsgd1na2vs0mg"},{"bike_id":"f775c705-e91c-42b6-843f-9a21cee529df","system_id":"levelo_inurba_marseille","lat":43.289935,"lon":5.371728,"is_reserved":false,"is_disabled":false,"rental_uris":{"android":"levelo://app?vid=f775c705-e91c-42b6-843f-9a21cee529df","ios":"levelo://app?vid=f775c705-e91c-42b6-843f-9a21cee529df"},"vehicle_type_id":"4","last_reported":1760841834,"current_range_meters":9600,"station_id":"","pricing_plan_id":"cebpf4jnsgd1na2vs0mg"},{"bike_id":"ce11fcf0-3241-46b7-be99-4d8a0098ce85","system_id":"levelo_inurba_marseille","lat":43.3133,"lon":5.39709,"is_reserved":false,"is_disabled":false,"rental_uris":{"android":"levelo://app?vid=ce11fcf0-3241-46b7-be99-4d8a0098ce85","ios":"levelo://app?vid=ce11fcf0-3241-46b7-be99-4d8a0098ce85"},"vehicle_type_id":"4","last_reported":1760841834,"current_range_meters":10000,"station_id":"ce4bgvp2rcd13ifvqcu0","pricing_plan_id":"cebpf4jnsgd1na2vs0mg"},{"bike_id":"e7e8b93c-02d4-466b-82b5-3f4c4f15c2ae","system_id":"levelo_inurba_marseille","lat":43.288162,"lon":5.43843,"is_reserved":false,"is_disabled":false,"rental_uris":{"android":"levelo://app?vid=e7e8b93c-02d4-466b-82b5-3f4c4f15c2ae","ios":"levelo://app?vid=e7e8b93c-02d4-466b-82b5-3f4c4f15c2ae"},"vehicle_type_id":"4","last_reported":1760841834,"current_range_meters":10000,"station_id":"","pricing_plan_id":"cebpf4jnsgd1na2vs0mg"},{"bike_id":"657f303b-2417-4a96-a979-9bb80b1500f6","system_id":"levelo_inurba_marseille","lat":43.29851,"lon":5.36282,"is_reserved":false,"is_disabled":true,"rental_uris":{"android":"levelo://app?vid=657f303b-2417-4a96-a979-9bb80b1500f6","ios":"levelo://app?vid=657f303b-2417-4a96-a979-9bb80b1500f6"},"vehicle_type_id":"4","last_reported":1760841834,"current_range_meters":10000,"station_id":"ce4bgpp2rcd13ifvqc3g","pricing_plan_id":"cebpf4jnsgd1na2vs0mg"},{"bike_id":"7efa49d6-60c4-4523-b0cb-2e2bfdef8c46","system_id":"levelo_inurba_marseille","lat":43.348998,"lon":5.366221,"is_reserved":false,"is_disabled":false,"rental_uris":{"android":"levelo://app?vid=7efa49d6-60c4-4523-b0cb-2e2bfdef8c46","ios":"levelo://app?vid=7efa49d6-60c4-4523-b0cb-2e2bfdef8c46"},"vehicle_type_id":"4","last_reported":1760841834,"current_range_meters":10000,"station_id":"","pricing_plan_id":"cebpf4jnsgd1na2vs0mg"},{"bike_id":"c6227cff-120f-49c6-93a2-5454dd916cde","system_id":"levelo_inurba_marseille","lat":43.26546,"lon":5.37296,"is_reserved":false,"is_disabled":true,"rental_uris":{"android":"levelo://app?vid=c6227cff-120f-49c6-93a2-5454dd916cde","ios":"levelo://app?vid=c6227cff-120f-49c6-93a2-5454dd916cde"},"vehicle_type_id":"4","last_reported":1760841834,"current_range_meters":10000,"station_id":"ce4bhg12rcd13ifvqf70","pricing_plan_id":"cebpf4jnsgd1na2vs0mg"},{"bike_id":"0a414463-fe1a-4833-8a11-178a3c2c879a","system_id":"levelo_inurba_marseille","lat":43.29852,"lon":5.37897,"is_reserved":false,"is_disabled":false,"rental_uris":{"android":"levelo://app?vid=0a414463-fe1a-4833-8a11-178a3c2c879a","ios":"levelo://app?vid=0a414463-fe1a-4833-8a11-178a3c2c879a"},"vehicle_type_id":"4","last_reported":1760841834,"current_range_meters":10800,"station_id":"","pricing_plan_id":"cebpf4jnsgd1na2vs0mg"},{"bike_id":"245a030c-0c43-41f8-a4cc-088d55252b06","system_id":"levelo_inurba_marseille","lat":43.2448,"lon":5.36932,"is_reserved":false,"is_disabled":false,"rental_uris":{"android":"levelo://app?vid=245a030c-0c43-41f8-a4cc-088d55252b06","ios":"levelo://app?vid=245a030c-0c43-41f8-a4cc-088d55252b06"},"vehicle_type_id":"4","last_reported":1760841834,"current_range_meters":10800,"station_id":"","pricing_plan_id":"cebpf4jnsgd1na2vs0mg"},{"bike_id":"95517d2e-464c-4bb9-8d8d-e2fba29fedbc","system_id":"levelo_inurba_marseille","lat":43.32104,"lon":5.36804,"is_reserved":false,"is_disabled":false,"rental_uris":{"android":"levelo://app?vid=95517d2e-464c-4bb9-8d8d-e2fba29fedbc","ios":"levelo://app?vid=95517d2e-464c-4bb9-8d8d-e2fba29fedbc"},"vehicle_type_id":"4","last_reported":1760841834,"current_range_meters":10800,"station_id":"ce4bhrh2rcd13ifvqhug","pricing_plan_id":"cebpf4jnsgd1na2vs0mg"},{"bike_id":"3586afa5-19c6-4385-ae3b-80726606c1bb","system_id":"levelo_inurba_marseille","lat":43.26372,"lon":5.39869,"is_reserved":false,"is_disabled":false,"rental_uris":{"android":"levelo://app?vid=3586afa5-19c6-4385-ae3b-80726606c1bb","ios":"levelo://app?vid=3586afa5-19c6-4385-ae3b-80726606c1bb"},"vehicle_type_id":"4","last_reported":1760841834,"current_range_meters":10800,"station_id":"","pricing_plan_id":"cebpf4jnsgd1na2vs0mg"},{"bike_id":"887e0711-86db-4d03-ae0c-852685105df3","system_id":"levelo_inurba_marseille","lat":43.279605,"lon":5.379273,"is_reserved":false,"is_disabled":false,"rental_uris":{"android":"levelo://app?vid=887e0711-86db-4d03-ae0c-852685105df3","ios":"levelo://app?vid=887e0711-86db-4d03-ae0c-852685105df3"},"vehicle_type_id":"4","last_reported":1760841834,"current_range_meters":10800,"station_id":"ce4bha12rcd13ifvqee0","pricing_plan_id":"cebpf4jnsgd1na2vs0mg"},{"bike_id":"29deeaa9-e77a-408d-b13e-b6abc21d5df6","system_id":"levelo_inurba_marseille","lat":43.296509,"lon":5.386966,"is_reserved":false,"is_disabled":false,"rental_uris":{"android":"levelo://app?vid=29deeaa9-e77a-408d-b13e-b6abc21d5df6","ios":"levelo://app?vid=29deeaa9-e77a-408d-b13e-b6abc21d5df6"},"vehicle_type_id":"4","last_reported":1760841834,"current_range_meters":10800,"station_id":"","pricing_plan_id":"cebpf4jnsgd1na2vs0mg"},{"bike_id":"94a80ed1-2fee-468c-bb76-25f1829c19bf","system_id":"levelo_inurba_marseille","lat":43.3047,"lon":5.37896,"is_reserved":false,"is_disabled":true,"rental_uris":{"android":"levelo://app?vid=94a80ed1-2fee-468c-bb76-25f1829c19bf","ios":"levelo://app?vid=94a80ed1-2fee-468c-bb76-25f1829c19bf"},"vehicle_type_id":"4","last_reported":1760841834,"current_range_meters":10800,"station_id":"ce4bgup2rcd13ifvqcn0","pricing_plan_id":"cebpf4jnsgd1na2vs0mg"},{"bike_id":"829cb19e-7a83-4e7f-931c-091ee1093637","system_id":"levelo_inurba_marseille","lat":43.30929,"lon":5.40144,"is_reserved":false,"is_disabled":false,"rental_uris":{"android":"levelo://app?vid=829cb19e-7a83-4e7f-931c-091ee1093637","ios":"levelo://app?vid=829cb19e-7a83-4e7f-931c-091ee1093637"},"vehicle_type_id":"4","last_reported":1760841834,"current_range_meters":10800,"station_id":"ce4bgvp2rcd13ifvqct0","pricing_plan_id":"cebpf4jnsgd1na2vs0mg"},{"bike_id":"b1db1391-3474-48f3-85bd-dfc79b190eda","system_id":"levelo_inurba_marseille","lat":43.292987,"lon":5.361025,"is_reserved":false,"is_disabled":false,"rental_uris":{"android":"levelo://app?vid=b1db1391-3474-48f3-85bd-dfc79b190eda","ios":"levelo://app?vid=b1db1391-3474-48f3-85bd-dfc79b190eda"},"vehicle_type_id":"4","last_reported":1760841834,"current_range_meters":10800,"station_id":"","pricing_plan_id":"cebpf4jnsgd1na2vs0mg"},{"bike_id":"83348da8-a4f5-46df-865e-64326525590d","system_id":"levelo_inurba_marseille","lat":43.217448,"lon":5.346084,"is_reserved":false,"is_disabled":false,"rental_uris":{"android":"levelo://app?vid=83348da8-a4f5-46df-865e-64326525590d","ios":"levelo://app?vid=83348da8-a4f5-46df-865e-64326525590d"},"vehicle_type_id":"4","last_reported":1760841834,"current_range_meters":11200,"station_id":"st_cvj6r9ubvosntc0bgbag","pricing_plan_id":"cebpf4jnsgd1na2vs0mg"},{"bike_id":"54c787fe-72bd-47a1-9187-7fe85cbdef1c","system_id":"levelo_inurba_marseille","lat":43.292871,"lon":5.401544,"is_reserved":false,"is_disabled":false,"rental_uris":{"android":"levelo://app?vid=54c787fe-72bd-47a1-9187-7fe85cbdef1c","ios":"levelo://app?vid=54c787fe-72bd-47a1-9187-7fe85cbdef1c"},"vehicle_type_id":"4","last_reported":1760841834,"current_range_meters":11200,"station_id":"ce4bh312rcd13ifvqdk0","pricing_plan_id":"cebpf4jnsgd1na2vs0mg"},{"bike_id":"0e9dda48-c8e9-4f7d-b995-7f49226b29c0","system_id":"levelo_inurba_marseille","lat":43.28621,"lon":5.35105,"is_reserved":false,"is_disabled":false,"rental_uris":{"android":"levelo://app?vid=0e9dda48-c8e9-4f7d-b995-7f49226b29c0","ios":"levelo://app?vid=0e9dda48-c8e9-4f7d-b995-7f49226b29c0"},"vehicle_type_id":"4","last_reported":1760841834,"current_range_meters":11200,"station_id":"ce4bhch2rcd13ifvqeug","pricing_plan_id":"cebpf4jnsgd1na2vs0mg"},{"bike_id":"ea883585-d0e4-4bcb-922c-57b2a3efdeac","system_id":"levelo_inurba_marseille","lat":43.30512,"lon":5.3681,"is_reserved":false,"is_disabled":false,"rental_uris":{"android":"levelo://app?vid=ea883585-d0e4-4bcb-922c-57b2a3efdeac","ios":"levelo://app?vid=ea883585-d0e4-4bcb-922c-57b2a3efdeac"},"vehicle_type_id":"4","last_reported":1760841834,"current_range_meters":11200,"station_id":"","pricing_plan_id":"cebpf4jnsgd1na2vs0mg"},{"bike_id":"e9c8911f-6661-4330-b933-c7ef20dc0f45","system_id":"levelo_inurba_marseille","lat":43.28128,"lon":5.35028,"is_reserved":false,"is_disabled":false,"rental_uris":{"android":"levelo://app?vid=e9c8911f-6661-4330-b933-c7ef20dc0f45","ios":"levelo://app?vid=e9c8911f-6661-4330-b933-c7ef20dc0f45"},"vehicle_type_id":"4","last_reported":1760841834,"current_range_meters":11200,"station_id":"","pricing_plan_id":"cebpf4jnsgd1na2vs0mg"},{"bike_id":"e978660f-731d-4a95-8df5-e0a54d8fe8be","system_id":"levelo_inurba_marseille","lat":43.211866,"lon":5.350794,"is_reserved":false,"is_disabled":true,"rental_uris":{"android":"levelo://app?vid=e978660f-731d-4a95-8df5-e0a54d8fe8be","ios":"levelo://app?vid=e978660f-731d-4a95-8df5-e0a54d8fe8be"},"vehicle_type_id":"4","last_reported":1760841834,"current_range_meters":11200,"station_id":"st_cvj6sg6p6f1abm77japg","pricing_plan_id":"cebpf4jnsgd1na2vs0mg"},{"bike_id":"e44a9fda-96bb-4edc-a9ca-3bd163b75a58","system_id":"levelo_inurba_marseille","lat":43.24085,"lon":5.37748,"is_reserved":false,"is_disabled":false,"rental_uris":{"android":"levelo://app?vid=e44a9fda-96bb-4edc-a9ca-3bd163b75a58","ios":"levelo://app?vid=e44a9fda-96bb-4edc-a9ca-3bd163b75a58"},"vehicle_type_id":"4","last_reported":1760841834,"current_range_meters":11200,"station_id":"ce4bhnp2rcd13ifvqgvg","pricing_plan_id":"cebpf4jnsgd1na2vs0mg"},{"bike_id":"9aca6410-dfe2-4f0b-8309-4bbe61aef318","system_id":"levelo_inurba_marseille","lat":43.330247,"lon":5.390457,"is_reserved":false,"is_disabled":false,"rental_uris":{"android":"levelo://app?vid=9aca6410-dfe2-4f0b-8309-4bbe61aef318","ios":"levelo://app?vid=9aca6410-dfe2-4f0b-8309-4bbe61aef318"},"vehicle_type_id":"4","last_reported":1760841834,"current_range_meters":11600,"station_id":"ce4bhr92rcd13ifvqhrg","pricing_plan_id":"cebpf4jnsgd1na2vs0mg"},{"bike_id":"bf2c3617-0e72-4f4a-8585-0c63bcbc4fce","system_id":"levelo_inurba_marseille","lat":43.28621,"lon":5.35102,"is_reserved":false,"is_disabled":true,"rental_uris":{"android":"levelo://app?vid=bf2c3617-0e72-4f4a-8585-0c63bcbc4fce","ios":"levelo://app?vid=bf2c3617-0e72-4f4a-8585-0c63bcbc4fce"},"vehicle_type_id":"4","last_reported":1760841834,"current_range_meters":11600,"station_id":"ce4bhch2rcd13ifvqeug","pricing_plan_id":"cebpf4jnsgd1na2vs0mg"},{"bike_id":"4d639fc2-fd62-4b4f-8fc3-f0ee032daac3","system_id":"levelo_inurba_marseille","lat":43.24174,"lon":5.36403,"is_reserved":false,"is_disabled":false,"rental_uris":{"android":"levelo://app?vid=4d639fc2-fd62-4b4f-8fc3-f0ee032daac3","ios":"levelo://app?vid=4d639fc2-fd62-4b4f-8fc3-f0ee032daac3"},"vehicle_type_id":"4","last_reported":1760841834,"current_range_meters":11600,"station_id":"cpo36qri1sfpv3e86is0","pricing_plan_id":"cebpf4jnsgd1na2vs0mg"},{"bike_id":"234de998-d88b-4c8d-801a-e0e06ca0ab94","system_id":"levelo_inurba_marseille","lat":43.295899,"lon":5.397128,"is_reserved":false,"is_disabled":false,"rental_uris":{"android":"levelo://app?vid=234de998-d88b-4c8d-801a-e0e06ca0ab94","ios":"levelo://app?vid=234de998-d88b-4c8d-801a-e0e06ca0ab94"},"vehicle_type_id":"4","last_reported":1760841834,"current_range_meters":11600,"station_id":"","pricing_plan_id":"cebpf4jnsgd1na2vs0mg"},{"bike_id":"6632a0ad-f43a-451e-834c-e4d64180498e","system_id":"levelo_inurba_marseille","lat":43.32665,"lon":5.40969,"is_reserved":false,"is_disabled":false,"rental_uris":{"android":"levelo://app?vid=6632a0ad-f43a-451e-834c-e4d64180498e","ios":"levelo://app?vid=6632a0ad-f43a-451e-834c-e4d64180498e"},"vehicle_type_id":"4","last_reported":1760841834,"current_range_meters":11600,"station_id":"ce4bhpp2rcd13ifvqhgg","pricing_plan_id":"cebpf4jnsgd1na2vs0mg"},{"bike_id":"d9ff0385-d455-4cad-b189-ce7b9ec089df","system_id":"levelo_inurba_marseille","lat":43.28953,"lon":5.39609,"is_reserved":false,"is_disabled":false,"rental_uris":{"android":"levelo://app?vid=d9ff0385-d455-4cad-b189-ce7b9ec089df","ios":"levelo://app?vid=d9ff0385-d455-4cad-b189-ce7b9ec089df"},"vehicle_type_id":"4","last_reported":1760841834,"current_range_meters":11600,"station_id":"ce4bh3h2rcd13ifvqdn0","pricing_plan_id":"cebpf4jnsgd1na2vs0mg"},{"bike_id":"074be791-6c38-4f2f-8dd0-b227e073e27e","system_id":"levelo_inurba_marseille","lat":43.2418,"lon":5.3639,"is_reserved":false,"is_disabled":false,"rental_uris":{"android":"levelo://app?vid=074be791-6c38-4f2f-8dd0-b227e073e27e","ios":"levelo://app?vid=074be791-6c38-4f2f-8dd0-b227e073e27e"},"vehicle_type_id":"4","last_reported":1760841834,"current_range_meters":12000,"station_id":"cpo36qri1sfpv3e86is0","pricing_plan_id":"cebpf4jnsgd1na2vs0mg"},{"bike_id":"3f13991a-43fd-4b49-b31a-f84d43d4b745","system_id":"levelo_inurba_marseille","lat":43.289807,"lon":5.371706,"is_reserved":false,"is_disabled":false,"rental_uris":{"android":"levelo://app?vid=3f13991a-43fd-4b49-b31a-f84d43d4b745","ios":"levelo://app?vid=3f13991a-43fd-4b49-b31a-f84d43d4b745"},"vehicle_type_id":"4","last_reported":1760841834,"current_range_meters":12000,"station_id":"","pricing_plan_id":"cebpf4jnsgd1na2vs0mg"},{"bike_id":"f4b21278-7a88-4f1e-8b50-4cb4a181722f","system_id":"levelo_inurba_marseille","lat":43.28527,"lon":5.44079,"is_reserved":false,"is_disabled":false,"rental_uris":{"android":"levelo://app?vid=f4b21278-7a88-4f1e-8b50-4cb4a181722f","ios":"levelo://app?vid=f4b21278-7a88-4f1e-8b50-4cb4a181722f"},"vehicle_type_id":"4","last_reported":1760841834,"current_range_meters":12000,"station_id":"st_d3j3df2ikq2c7380ej80","pricing_plan_id":"cebpf4jnsgd1na2vs0mg"},{"bike_id":"3b8c090c-b261-4751-861f-767d14154ea2","system_id":"levelo_inurba_marseille","lat":43.2919,"lon":5.39326,"is_reserved":false,"is_disabled":false,"rental_uris":{"android":"levelo://app?vid=3b8c090c-b261-4751-861f-767d14154ea2","ios":"levelo://app?vid=3b8c090c-b261-4751-861f-767d14154ea2"},"vehicle_type_id":"4","last_reported":1760841834,"current_range_meters":12400,"station_id":"ce4bh192rcd13ifvqdd0","pricing_plan_id":"cebpf4jnsgd1na2vs0mg"},{"bike_id":"6426e4fa-7f79-410d-acfa-0a51b3b2658a","system_id":"levelo_inurba_marseille","lat":43.31229,"lon":5.40415,"is_reserved":false,"is_disabled":false,"rental_uris":{"android":"levelo://app?vid=6426e4fa-7f79-410d-acfa-0a51b3b2658a","ios":"levelo://app?vid=6426e4fa-7f79-410d-acfa-0a51b3b2658a"},"vehicle_type_id":"4","last_reported":1760841834,"current_range_meters":12400,"station_id":"","pricing_plan_id":"cebpf4jnsgd1na2vs0mg"},{"bike_id":"546c3f7c-1480-4b1d-8de3-80b363ceef5c","system_id":"levelo_inurba_marseille","lat":43.30322,"lon":5.40446,"is_reserved":false,"is_disabled":false,"rental_uris":{"android":"levelo://app?vid=546c3f7c-1480-4b1d-8de3-80b363ceef5c","ios":"levelo://app?vid=546c3f7c-1480-4b1d-8de3-80b363ceef5c"},"vehicle_type_id":"4","last_reported":1760841834,"current_range_meters":12400,"station_id":"ce4bh012rcd13ifvqd10","pricing_plan_id":"cebpf4jnsgd1na2vs0mg"},{"bike_id":"ac6d2c4d-74a8-443d-a9f9-0d9807feacda","system_id":"levelo_inurba_marseille","lat":43.33772,"lon":5.37469,"is_reserved":false,"is_disabled":false,"rental_uris":{"android":"levelo://app?vid=ac6d2c4d-74a8-443d-a9f9-0d9807feacda","ios":"levelo://app?vid=ac6d2c4d-74a8-443d-a9f9-0d9807feacda"},"vehicle_type_id":"4","last_reported":1760841834,"current_range_meters":12400,"station_id":"","pricing_plan_id":"cebpf4jnsgd1na2vs0mg"},{"bike_id":"8633551f-7b73-402d-ab1c-d42f9e24f871","system_id":"levelo_inurba_marseille","lat":43.24629,"lon":5.43146,"is_reserved":false,"is_disabled":false,"rental_uris":{"android":"levelo://app?vid=8633551f-7b73-402d-ab1c-d42f9e24f871","ios":"levelo://app?vid=8633551f-7b73-402d-ab1c-d42f9e24f871"},"vehicle_type_id":"4","last_reported":1760841834,"current_range_meters":12400,"station_id":"st_d2m6c4gdas8pm72e190g","pricing_plan_id":"cebpf4jnsgd1na2vs0mg"},{"bike_id":"d7eaf7d7-f166-4160-8d0a-b4acaefd5a63","system_id":"levelo_inurba_marseille","lat":43.28469,"lon":5.38547,"is_reserved":false,"is_disabled":false,"rental_uris":{"android":"levelo://app?vid=d7eaf7d7-f166-4160-8d0a-b4acaefd5a63","ios":"levelo://app?vid=d7eaf7d7-f166-4160-8d0a-b4acaefd5a63"},"vehicle_type_id":"4","last_reported":1760841834,"current_range_meters":12800,"station_id":"ce4bh8p2rcd13ifvqeb0","pricing_plan_id":"cebpf4jnsgd1na2vs0mg"},{"bike_id":"365b1110-8604-4b2d-ad9b-3263b8a258f2","system_id":"levelo_inurba_marseille","lat":43.28655,"lon":5.3634,"is_reserved":false,"is_disabled":false,"rental_uris":{"android":"levelo://app?vid=365b1110-8604-4b2d-ad9b-3263b8a258f2","ios":"levelo://app?vid=365b1110-8604-4b2d-ad9b-3263b8a258f2"},"vehicle_type_id":"4","last_reported":1760841834,"current_range_meters":12800,"station_id":"ce4bhah2rcd13ifvqej0","pricing_plan_id":"cebpf4jnsgd1na2vs0mg"},{"bike_id":"d712d0ff-3096-41ad-87d0-b640167ff060","system_id":"levelo_inurba_marseille","lat":43.31541,"lon":5.38512,"is_reserved":false,"is_disabled":false,"rental_uris":{"android":"levelo://app?vid=d712d0ff-3096-41ad-87d0-b640167ff060","ios":"levelo://app?vid=d712d0ff-3096-41ad-87d0-b640167ff060"},"vehicle_type_id":"4","last_reported":1760841834,"current_range_meters":12800,"station_id":"","pricing_plan_id":"cebpf4jnsgd1na2vs0mg"},{"bike_id":"42c0e70b-edb2-4a4b-adf0-47cecd416238","system_id":"levelo_inurba_marseille","lat":43.30886,"lon":5.39631,"is_reserved":false,"is_disabled":false,"rental_uris":{"android":"levelo://app?vid=42c0e70b-edb2-4a4b-adf0-47cecd416238","ios":"levelo://app?vid=42c0e70b-edb2-4a4b-adf0-47cecd416238"},"vehicle_type_id":"4","last_reported":1760841834,"current_range_meters":12800,"station_id":"ce4bh012rcd13ifvqcv0","pricing_plan_id":"cebpf4jnsgd1na2vs0mg"},{"bike_id":"394213f8-a678-4fef-874f-bcb7093d4f1d","system_id":"levelo_inurba_marseille","lat":43.281577,"lon":5.426507,"is_reserved":false,"is_disabled":false,"rental_uris":{"android":"levelo://app?vid=394213f8-a678-4fef-874f-bcb7093d4f1d","ios":"levelo://app?vid=394213f8-a678-4fef-874f-bcb7093d4f1d"},"vehicle_type_id":"4","last_reported":1760841834,"current_range_meters":12800,"station_id":"ce4bhnh2rcd13ifvqgug","pricing_plan_id":"cebpf4jnsgd1na2vs0mg"},{"bike_id":"9d588e09-c5d0-4390-8f60-2938b78e37e9","system_id":"levelo_inurba_marseille","lat":43.262241,"lon":5.404492,"is_reserved":false,"is_disabled":false,"rental_uris":{"android":"levelo://app?vid=9d588e09-c5d0-4390-8f60-2938b78e37e9","ios":"levelo://app?vid=9d588e09-c5d0-4390-8f60-2938b78e37e9"},"vehicle_type_id":"4","last_reported":1760841834,"current_range_meters":12800,"station_id":"ce4bhmh2rcd13ifvqgmg","pricing_plan_id":"cebpf4jnsgd1na2vs0mg"},{"bike_id":"c3a43516-decc-43f9-8e26-5e24bd17a93e","system_id":"levelo_inurba_marseille","lat":43.31127,"lon":5.37772,"is_reserved":false,"is_disabled":false,"rental_uris":{"android":"levelo://app?vid=c3a43516-decc-43f9-8e26-5e24bd17a93e","ios":"levelo://app?vid=c3a43516-decc-43f9-8e26-5e24bd17a93e"},"vehicle_type_id":"4","last_reported":1760841834,"current_range_meters":13600,"station_id":"ce4bgt92rcd13ifvqcg0","pricing_plan_id":"cebpf4jnsgd1na2vs0mg"},{"bike_id":"cf4c14bf-7635-4f96-a4b6-ee6481db3804","system_id":"levelo_inurba_marseille","lat":43.32293,"lon":5.38287,"is_reserved":false,"is_disabled":false,"rental_uris":{"android":"levelo://app?vid=cf4c14bf-7635-4f96-a4b6-ee6481db3804","ios":"levelo://app?vid=cf4c14bf-7635-4f96-a4b6-ee6481db3804"},"vehicle_type_id":"4","last_reported":1760841834,"current_range_meters":13600,"station_id":"ce4bhr12rcd13ifvqhqg","pricing_plan_id":"cebpf4jnsgd1na2vs0mg"},{"bike_id":"684dea98-4fa8-4451-8c5f-30e274ad7842","system_id":"levelo_inurba_marseille","lat":43.25114,"lon":5.4032,"is_reserved":false,"is_disabled":false,"rental_uris":{"android":"levelo://app?vid=684dea98-4fa8-4451-8c5f-30e274ad7842","ios":"levelo://app?vid=684dea98-4fa8-4451-8c5f-30e274ad7842"},"vehicle_type_id":"4","last_reported":1760841834,"current_range_meters":13600,"station_id":"ce4bhlh2rcd13ifvqgig","pricing_plan_id":"cebpf4jnsgd1na2vs0mg"},{"bike_id":"a7b3764b-b896-4840-bd7e-9880973af195","system_id":"levelo_inurba_marseille","lat":43.292287,"lon":5.360602,"is_reserved":false,"is_disabled":false,"rental_uris":{"android":"levelo://app?vid=a7b3764b-b896-4840-bd7e-9880973af195","ios":"levelo://app?vid=a7b3764b-b896-4840-bd7e-9880973af195"},"vehicle_type_id":"4","last_reported":1760841834,"current_range_meters":13600,"station_id":"","pricing_plan_id":"cebpf4jnsgd1na2vs0mg"},{"bike_id":"c35717d0-5fe6-4520-8aec-8d7ada383776","system_id":"levelo_inurba_marseille","lat":43.313538,"lon":5.384986,"is_reserved":false,"is_disabled":false,"rental_uris":{"android":"levelo://app?vid=c35717d0-5fe6-4520-8aec-8d7ada383776","ios":"levelo://app?vid=c35717d0-5fe6-4520-8aec-8d7ada383776"},"vehicle_type_id":"4","last_reported":1760841834,"current_range_meters":14000,"station_id":"ce4bgt92rcd13ifvqcf0","pricing_plan_id":"cebpf4jnsgd1na2vs0mg"},{"bike_id":"51539c6d-039a-4035-81b8-b9683f3fe755","system_id":"levelo_inurba_marseille","lat":43.30925,"lon":5.40151,"is_reserved":false,"is_disabled":false,"rental_uris":{"android":"levelo://app?vid=51539c6d-039a-4035-81b8-b9683f3fe755","ios":"levelo://app?vid=51539c6d-039a-4035-81b8-b9683f3fe755"},"vehicle_type_id":"4","last_reported":1760841834,"current_range_meters":14000,"station_id":"ce4bgvp2rcd13ifvqct0","pricing_plan_id":"cebpf4jnsgd1na2vs0mg"},{"bike_id":"6e64c589-5ec7-4a0c-856a-96e7e72381c2","system_id":"levelo_inurba_marseille","lat":43.3139,"lon":5.38481,"is_reserved":false,"is_disabled":false,"rental_uris":{"android":"levelo://app?vid=6e64c589-5ec7-4a0c-856a-96e7e72381c2","ios":"levelo://app?vid=6e64c589-5ec7-4a0c-856a-96e7e72381c2"},"vehicle_type_id":"4","last_reported":1760841834,"current_range_meters":14000,"station_id":"ce4bgt92rcd13ifvqcf0","pricing_plan_id":"cebpf4jnsgd1na2vs0mg"},{"bike_id":"4f10ecd9-3242-410e-9dce-06f5ef86b9df","system_id":"levelo_inurba_marseille","lat":43.29912,"lon":5.38722,"is_reserved":false,"is_disabled":false,"rental_uris":{"android":"levelo://app?vid=4f10ecd9-3242-410e-9dce-06f5ef86b9df","ios":"levelo://app?vid=4f10ecd9-3242-410e-9dce-06f5ef86b9df"},"vehicle_type_id":"4","last_reported":1760841834,"current_range_meters":14400,"station_id":"","pricing_plan_id":"cebpf4jnsgd1na2vs0mg"},{"bike_id":"74a0e418-9a8a-4d6c-82ac-4bcdbfc66662","system_id":"levelo_inurba_marseille","lat":43.29539,"lon":5.38553,"is_reserved":false,"is_disabled":true,"rental_uris":{"android":"levelo://app?vid=74a0e418-9a8a-4d6c-82ac-4bcdbfc66662","ios":"levelo://app?vid=74a0e418-9a8a-4d6c-82ac-4bcdbfc66662"},"vehicle_type_id":"4","last_reported":1760841834,"current_range_meters":14400,"station_id":"ce4bgih2rcd13ifvqba0","pricing_plan_id":"cebpf4jnsgd1na2vs0mg"},{"bike_id":"3723dc20-8123-4f5f-92a0-0c3073c1e3b9","system_id":"levelo_inurba_marseille","lat":43.25319,"lon":5.42168,"is_reserved":false,"is_disabled":false,"rental_uris":{"android":"levelo://app?vid=3723dc20-8123-4f5f-92a0-0c3073c1e3b9","ios":"levelo://app?vid=3723dc20-8123-4f5f-92a0-0c3073c1e3b9"},"vehicle_type_id":"4","last_reported":1760841834,"current_range_meters":14400,"station_id":"st_d2m65c5bi1j21697t3ng","pricing_plan_id":"cebpf4jnsgd1na2vs0mg"},{"bike_id":"90ba9e44-eda0-4914-aadc-c21ede29abbf","system_id":"levelo_inurba_marseille","lat":43.25324,"lon":5.42169,"is_reserved":false,"is_disabled":false,"rental_uris":{"android":"levelo://app?vid=90ba9e44-eda0-4914-aadc-c21ede29abbf","ios":"levelo://app?vid=90ba9e44-eda0-4914-aadc-c21ede29abbf"},"vehicle_type_id":"4","last_reported":1760841834,"current_range_meters":14400,"station_id":"st_d2m65c5bi1j21697t3ng","pricing_plan_id":"cebpf4jnsgd1na2vs0mg"},{"bike_id":"08370080-5264-4f31-b458-991c10658314","system_id":"levelo_inurba_marseille","lat":43.29603,"lon":5.38109,"is_reserved":false,"is_disabled":false,"rental_uris":{"android":"levelo://app?vid=08370080-5264-4f31-b458-991c10658314","ios":"levelo://app?vid=08370080-5264-4f31-b458-991c10658314"},"vehicle_type_id":"4","last_reported":1760841834,"current_range_meters":14400,"station_id":"ce4bgl12rcd13ifvqbo0","pricing_plan_id":"cebpf4jnsgd1na2vs0mg"},{"bike_id":"039e2461-f460-4ef8-a658-0a0ed3531b85","system_id":"levelo_inurba_marseille","lat":43.311239,"lon":5.377647,"is_reserved":false,"is_disabled":false,"rental_uris":{"android":"levelo://app?vid=039e2461-f460-4ef8-a658-0a0ed3531b85","ios":"levelo://app?vid=039e2461-f460-4ef8-a658-0a0ed3531b85"},"vehicle_type_id":"4","last_reported":1760841834,"current_range_meters":14400,"station_id":"ce4bgt92rcd13ifvqcg0","pricing_plan_id":"cebpf4jnsgd1na2vs0mg"},{"bike_id":"8cd818e3-a9e2-4f48-92b2-26306f507696","system_id":"levelo_inurba_marseille","lat":43.31349,"lon":5.37913,"is_reserved":false,"is_disabled":false,"rental_uris":{"android":"levelo://app?vid=8cd818e3-a9e2-4f48-92b2-26306f507696","ios":"levelo://app?vid=8cd818e3-a9e2-4f48-92b2-26306f507696"},"vehicle_type_id":"4","last_reported":1760841834,"current_range_meters":14800,"station_id":"","pricing_plan_id":"cebpf4jnsgd1na2vs0mg"},{"bike_id":"367c1051-7e4c-4903-8a1f-171c98150810","system_id":"levelo_inurba_marseille","lat":43.241762,"lon":5.364022,"is_reserved":false,"is_disabled":false,"rental_uris":{"android":"levelo://app?vid=367c1051-7e4c-4903-8a1f-171c98150810","ios":"levelo://app?vid=367c1051-7e4c-4903-8a1f-171c98150810"},"vehicle_type_id":"4","last_reported":1760841834,"current_range_meters":14800,"station_id":"cpo36qri1sfpv3e86is0","pricing_plan_id":"cebpf4jnsgd1na2vs0mg"},{"bike_id":"5eaba35d-1661-4983-868b-7799850d2f01","system_id":"levelo_inurba_marseille","lat":43.28938,"lon":5.3963,"is_reserved":false,"is_disabled":false,"rental_uris":{"android":"levelo://app?vid=5eaba35d-1661-4983-868b-7799850d2f01","ios":"levelo://app?vid=5eaba35d-1661-4983-868b-7799850d2f01"},"vehicle_type_id":"4","last_reported":1760841834,"current_range_meters":14800,"station_id":"ce4bh3h2rcd13ifvqdn0","pricing_plan_id":"cebpf4jnsgd1na2vs0mg"},{"bike_id":"5bc3ef9b-fabd-4581-84e1-4227f0443e4f","system_id":"levelo_inurba_marseille","lat":43.28278,"lon":5.35058,"is_reserved":false,"is_disabled":false,"rental_uris":{"android":"levelo://app?vid=5bc3ef9b-fabd-4581-84e1-4227f0443e4f","ios":"levelo://app?vid=5bc3ef9b-fabd-4581-84e1-4227f0443e4f"},"vehicle_type_id":"4","last_reported":1760841834,"current_range_meters":14800,"station_id":"ce4bhbp2rcd13ifvqerg","pricing_plan_id":"cebpf4jnsgd1na2vs0mg"},{"bike_id":"b9f4c452-f1a0-4b31-854c-2325a5b73556","system_id":"levelo_inurba_marseille","lat":43.21456,"lon":5.3432,"is_reserved":false,"is_disabled":false,"rental_uris":{"android":"levelo://app?vid=b9f4c452-f1a0-4b31-854c-2325a5b73556","ios":"levelo://app?vid=b9f4c452-f1a0-4b31-854c-2325a5b73556"},"vehicle_type_id":"4","last_reported":1760841834,"current_range_meters":14800,"station_id":"","pricing_plan_id":"cebpf4jnsgd1na2vs0mg"},{"bike_id":"8f6c99a9-2111-4ea5-ba4d-4bb0a3b06aa1","system_id":"levelo_inurba_marseille","lat":43.29841,"lon":5.44058,"is_reserved":false,"is_disabled":false,"rental_uris":{"android":"levelo://app?vid=8f6c99a9-2111-4ea5-ba4d-4bb0a3b06aa1","ios":"levelo://app?vid=8f6c99a9-2111-4ea5-ba4d-4bb0a3b06aa1"},"vehicle_type_id":"4","last_reported":1760841834,"current_range_meters":15200,"station_id":"st_d3jp68qikq2c7381ktn0","pricing_plan_id":"cebpf4jnsgd1na2vs0mg"},{"bike_id":"aca8d1c2-63ac-4a21-8534-581b67cd3304","system_id":"levelo_inurba_marseille","lat":43.3091,"lon":5.39617,"is_reserved":false,"is_disabled":false,"rental_uris":{"android":"levelo://app?vid=aca8d1c2-63ac-4a21-8534-581b67cd3304","ios":"levelo://app?vid=aca8d1c2-63ac-4a21-8534-581b67cd3304"},"vehicle_type_id":"4","last_reported":1760841834,"current_range_meters":15200,"station_id":"ce4bh012rcd13ifvqcv0","pricing_plan_id":"cebpf4jnsgd1na2vs0mg"},{"bike_id":"3f9922fa-5fa2-4bb2-b6fe-411d28b8df2c","system_id":"levelo_inurba_marseille","lat":43.284603,"lon":5.381342,"is_reserved":false,"is_disabled":false,"rental_uris":{"android":"levelo://app?vid=3f9922fa-5fa2-4bb2-b6fe-411d28b8df2c","ios":"levelo://app?vid=3f9922fa-5fa2-4bb2-b6fe-411d28b8df2c"},"vehicle_type_id":"4","last_reported":1760841834,"current_range_meters":15200,"station_id":"","pricing_plan_id":"cebpf4jnsgd1na2vs0mg"},{"bike_id":"86ce52f8-f590-4694-90e1-216ddc477b29","system_id":"levelo_inurba_marseille","lat":43.30968,"lon":5.3812,"is_reserved":false,"is_disabled":false,"rental_uris":{"android":"levelo://app?vid=86ce52f8-f590-4694-90e1-216ddc477b29","ios":"levelo://app?vid=86ce52f8-f590-4694-90e1-216ddc477b29"},"vehicle_type_id":"4","last_reported":1760841834,"current_range_meters":15200,"station_id":"","pricing_plan_id":"cebpf4jnsgd1na2vs0mg"},{"bike_id":"92b855db-83ae-42a5-ae3c-3811d6f3b9c4","system_id":"levelo_inurba_marseille","lat":43.28679,"lon":5.36351,"is_reserved":false,"is_disabled":false,"rental_uris":{"android":"levelo://app?vid=92b855db-83ae-42a5-ae3c-3811d6f3b9c4","ios":"levelo://app?vid=92b855db-83ae-42a5-ae3c-3811d6f3b9c4"},"vehicle_type_id":"4","last_reported":1760841834,"current_range_meters":15200,"station_id":"ce4bhah2rcd13ifvqej0","pricing_plan_id":"cebpf4jnsgd1na2vs0mg"},{"bike_id":"ad36c776-eeed-41c2-aea5-f5b8af40c9de","system_id":"levelo_inurba_marseille","lat":43.28857,"lon":5.39318,"is_reserved":false,"is_disabled":false,"rental_uris":{"android":"levelo://app?vid=ad36c776-eeed-41c2-aea5-f5b8af40c9de","ios":"levelo://app?vid=ad36c776-eeed-41c2-aea5-f5b8af40c9de"},"vehicle_type_id":"4","last_reported":1760841834,"current_range_meters":15200,"station_id":"ce4bh2p2rcd13ifvqdi0","pricing_plan_id":"cebpf4jnsgd1na2vs0mg"},{"bike_id":"dc93ad0f-026e-4bfb-a302-4b74fc9c8814","system_id":"levelo_inurba_marseille","lat":43.31358,"lon":5.38486,"is_reserved":false,"is_disabled":false,"rental_uris":{"android":"levelo://app?vid=dc93ad0f-026e-4bfb-a302-4b74fc9c8814","ios":"levelo://app?vid=dc93ad0f-026e-4bfb-a302-4b74fc9c8814"},"vehicle_type_id":"4","last_reported":1760841834,"current_range_meters":15200,"station_id":"ce4bgt92rcd13ifvqcf0","pricing_plan_id":"cebpf4jnsgd1na2vs0mg"},{"bike_id":"33072f8a-fdd4-421e-bff0-051872342972","system_id":"levelo_inurba_marseille","lat":43.27988,"lon":5.41662,"is_reserved":false,"is_disabled":false,"rental_uris":{"android":"levelo://app?vid=33072f8a-fdd4-421e-bff0-051872342972","ios":"levelo://app?vid=33072f8a-fdd4-421e-bff0-051872342972"},"vehicle_type_id":"4","last_reported":1760841834,"current_range_meters":16000,"station_id":"ce4bho12rcd13ifvqh1g","pricing_plan_id":"cebpf4jnsgd1na2vs0mg"},{"bike_id":"7fd36eea-805d-4dce-89b5-46f277eaf158","system_id":"levelo_inurba_marseille","lat":43.305097,"lon":5.366695,"is_reserved":false,"is_disabled":false,"rental_uris":{"android":"levelo://app?vid=7fd36eea-805d-4dce-89b5-46f277eaf158","ios":"levelo://app?vid=7fd36eea-805d-4dce-89b5-46f277eaf158"},"vehicle_type_id":"4","last_reported":1760841834,"current_range_meters":16000,"station_id":"","pricing_plan_id":"cebpf4jnsgd1na2vs0mg"},{"bike_id":"8fc39a68-750e-4904-a3b6-7d372c0a4269","system_id":"levelo_inurba_marseille","lat":43.30781,"lon":5.37646,"is_reserved":false,"is_disabled":false,"rental_uris":{"android":"levelo://app?vid=8fc39a68-750e-4904-a3b6-7d372c0a4269","ios":"levelo://app?vid=8fc39a68-750e-4904-a3b6-7d372c0a4269"},"vehicle_type_id":"4","last_reported":1760841834,"current_range_meters":16000,"station_id":"ce4bgv92rcd13ifvqcq0","pricing_plan_id":"cebpf4jnsgd1na2vs0mg"},{"bike_id":"301be908-0c83-42b0-ae48-fa1a94fdb987","system_id":"levelo_inurba_marseille","lat":43.31065,"lon":5.38349,"is_reserved":false,"is_disabled":false,"rental_uris":{"android":"levelo://app?vid=301be908-0c83-42b0-ae48-fa1a94fdb987","ios":"levelo://app?vid=301be908-0c83-42b0-ae48-fa1a94fdb987"},"vehicle_type_id":"4","last_reported":1760841834,"current_range_meters":16000,"station_id":"ce4bgv92rcd13ifvqcr0","pricing_plan_id":"cebpf4jnsgd1na2vs0mg"},{"bike_id":"fbe586dc-ebc7-45f2-b699-4812fb9ca15d","system_id":"levelo_inurba_marseille","lat":43.25484,"lon":5.37649,"is_reserved":false,"is_disabled":true,"rental_uris":{"android":"levelo://app?vid=fbe586dc-ebc7-45f2-b699-4812fb9ca15d","ios":"levelo://app?vid=fbe586dc-ebc7-45f2-b699-4812fb9ca15d"},"vehicle_type_id":"4","last_reported":1760841834,"current_range_meters":16000,"station_id":"ce4bhh12rcd13ifvqff0","pricing_plan_id":"cebpf4jnsgd1na2vs0mg"},{"bike_id":"c004dbbf-9d0f-4636-8259-2fa60d5766da","system_id":"levelo_inurba_marseille","lat":43.30257,"lon":5.40066,"is_reserved":false,"is_disabled":false,"rental_uris":{"android":"levelo://app?vid=c004dbbf-9d0f-4636-8259-2fa60d5766da","ios":"levelo://app?vid=c004dbbf-9d0f-4636-8259-2fa60d5766da"},"vehicle_type_id":"4","last_reported":1760841834,"current_range_meters":16000,"station_id":"ce4bgvh2rcd13ifvqcs0","pricing_plan_id":"cebpf4jnsgd1na2vs0mg"},{"bike_id":"c04ec69d-6f4d-48f7-aaa3-f0b9e15d37d3","system_id":"levelo_inurba_marseille","lat":43.24948,"lon":5.40488,"is_reserved":false,"is_disabled":false,"rental_uris":{"android":"levelo://app?vid=c04ec69d-6f4d-48f7-aaa3-f0b9e15d37d3","ios":"levelo://app?vid=c04ec69d-6f4d-48f7-aaa3-f0b9e15d37d3"},"vehicle_type_id":"4","last_reported":1760841834,"current_range_meters":16000,"station_id":"st_d2ngiaodas8pm72gd1h0","pricing_plan_id":"cebpf4jnsgd1na2vs0mg"},{"bike_id":"c2109d25-d4ee-4a1f-897b-a03e90535513","system_id":"levelo_inurba_marseille","lat":43.28533,"lon":5.44108,"is_reserved":false,"is_disabled":false,"rental_uris":{"android":"levelo://app?vid=c2109d25-d4ee-4a1f-897b-a03e90535513","ios":"levelo://app?vid=c2109d25-d4ee-4a1f-897b-a03e90535513"},"vehicle_type_id":"4","last_reported":1760841834,"current_range_meters":16000,"station_id":"st_d3j3df2ikq2c7380ej80","pricing_plan_id":"cebpf4jnsgd1na2vs0mg"},{"bike_id":"0f787efd-37ca-4060-a03d-15d3c3ce389f","system_id":"levelo_inurba_marseille","lat":43.29995,"lon":5.37349,"is_reserved":false,"is_disabled":false,"rental_uris":{"android":"levelo://app?vid=0f787efd-37ca-4060-a03d-15d3c3ce389f","ios":"levelo://app?vid=0f787efd-37ca-4060-a03d-15d3c3ce389f"},"vehicle_type_id":"4","last_reported":1760841834,"current_range_meters":16000,"station_id":"","pricing_plan_id":"cebpf4jnsgd1na2vs0mg"},{"bike_id":"7a8ac50b-c3a4-490a-8f96-9c005f89ed5d","system_id":"levelo_inurba_marseille","lat":43.26521,"lon":5.39049,"is_reserved":false,"is_disabled":false,"rental_uris":{"android":"levelo://app?vid=7a8ac50b-c3a4-490a-8f96-9c005f89ed5d","ios":"levelo://app?vid=7a8ac50b-c3a4-490a-8f96-9c005f89ed5d"},"vehicle_type_id":"4","last_reported":1760841834,"current_range_meters":16400,"station_id":"","pricing_plan_id":"cebpf4jnsgd1na2vs0mg"},{"bike_id":"7b4102bf-aba1-447f-93de-ffef7042242e","system_id":"levelo_inurba_marseille","lat":43.27772,"lon":5.37595,"is_reserved":false,"is_disabled":false,"rental_uris":{"android":"levelo://app?vid=7b4102bf-aba1-447f-93de-ffef7042242e","ios":"levelo://app?vid=7b4102bf-aba1-447f-93de-ffef7042242e"},"vehicle_type_id":"4","last_reported":1760841834,"current_range_meters":16400,"station_id":"","pricing_plan_id":"cebpf4jnsgd1na2vs0mg"},{"bike_id":"4b9c1302-6548-4885-87dd-02faf8afefaf","system_id":"levelo_inurba_marseille","lat":43.30616,"lon":5.39357,"is_reserved":false,"is_disabled":false,"rental_uris":{"android":"levelo://app?vid=4b9c1302-6548-4885-87dd-02faf8afefaf","ios":"levelo://app?vid=4b9c1302-6548-4885-87dd-02faf8afefaf"},"vehicle_type_id":"4","last_reported":1760841834,"current_range_meters":16400,"station_id":"ce4bh0p2rcd13ifvqd80","pricing_plan_id":"cebpf4jnsgd1na2vs0mg"},{"bike_id":"86427311-b4dd-4aef-8f66-307154232324","system_id":"levelo_inurba_marseille","lat":43.284248,"lon":5.375134,"is_reserved":false,"is_disabled":false,"rental_uris":{"android":"levelo://app?vid=86427311-b4dd-4aef-8f66-307154232324","ios":"levelo://app?vid=86427311-b4dd-4aef-8f66-307154232324"},"vehicle_type_id":"4","last_reported":1760841834,"current_range_meters":16400,"station_id":"ce4bh412rcd13ifvqds0","pricing_plan_id":"cebpf4jnsgd1na2vs0mg"},{"bike_id":"ca920a6d-8ea9-4694-b95a-2cec25eae26c","system_id":"levelo_inurba_marseille","lat":43.24079,"lon":5.37754,"is_reserved":false,"is_disabled":false,"rental_uris":{"android":"levelo://app?vid=ca920a6d-8ea9-4694-b95a-2cec25eae26c","ios":"levelo://app?vid=ca920a6d-8ea9-4694-b95a-2cec25eae26c"},"vehicle_type_id":"4","last_reported":1760841834,"current_range_meters":16400,"station_id":"ce4bhnp2rcd13ifvqgvg","pricing_plan_id":"cebpf4jnsgd1na2vs0mg"},{"bike_id":"281275b0-340b-4d2d-bc29-085f43a86d4d","system_id":"levelo_inurba_marseille","lat":43.27377,"lon":5.36251,"is_reserved":false,"is_disabled":false,"rental_uris":{"android":"levelo://app?vid=281275b0-340b-4d2d-bc29-085f43a86d4d","ios":"levelo://app?vid=281275b0-340b-4d2d-bc29-085f43a86d4d"},"vehicle_type_id":"4","last_reported":1760841834,"current_range_meters":16400,"station_id":"","pricing_plan_id":"cebpf4jnsgd1na2vs0mg"},{"bike_id":"bce98ae8-dfdf-4c26-a4bd-718a9035c2fc","system_id":"levelo_inurba_marseille","lat":43.27945,"lon":5.41038,"is_reserved":false,"is_disabled":false,"rental_uris":{"android":"levelo://app?vid=bce98ae8-dfdf-4c26-a4bd-718a9035c2fc","ios":"levelo://app?vid=bce98ae8-dfdf-4c26-a4bd-718a9035c2fc"},"vehicle_type_id":"4","last_reported":1760841834,"current_range_meters":16400,"station_id":"ce4bhnp2rcd13ifvqh0g","pricing_plan_id":"cebpf4jnsgd1na2vs0mg"},{"bike_id":"9ef55a12-0368-4b91-a372-aa4bc05cd8f3","system_id":"levelo_inurba_marseille","lat":43.26548,"lon":5.37286,"is_reserved":false,"is_disabled":false,"rental_uris":{"android":"levelo://app?vid=9ef55a12-0368-4b91-a372-aa4bc05cd8f3","ios":"levelo://app?vid=9ef55a12-0368-4b91-a372-aa4bc05cd8f3"},"vehicle_type_id":"4","last_reported":1760841834,"current_range_meters":16400,"station_id":"ce4bhg12rcd13ifvqf70","pricing_plan_id":"cebpf4jnsgd1na2vs0mg"},{"bike_id":"d1668fd5-d05d-42a9-b5d1-4388db8ac6a3","system_id":"levelo_inurba_marseille","lat":43.31764,"lon":5.39029,"is_reserved":false,"is_disabled":false,"rental_uris":{"android":"levelo://app?vid=d1668fd5-d05d-42a9-b5d1-4388db8ac6a3","ios":"levelo://app?vid=d1668fd5-d05d-42a9-b5d1-4388db8ac6a3"},"vehicle_type_id":"4","last_reported":1760841834,"current_range_meters":16400,"station_id":"ce4bhqp2rcd13ifvqhng","pricing_plan_id":"cebpf4jnsgd1na2vs0mg"},{"bike_id":"980963e4-c771-4408-8b58-679e7e48399f","system_id":"levelo_inurba_marseille","lat":43.25584,"lon":5.38227,"is_reserved":false,"is_disabled":false,"rental_uris":{"android":"levelo://app?vid=980963e4-c771-4408-8b58-679e7e48399f","ios":"levelo://app?vid=980963e4-c771-4408-8b58-679e7e48399f"},"vehicle_type_id":"4","last_reported":1760841834,"current_range_meters":16400,"station_id":"ce4bhih2rcd13ifvqfs0","pricing_plan_id":"cebpf4jnsgd1na2vs0mg"},{"bike_id":"975218b1-0233-42f1-9373-40d58585c2f5","system_id":"levelo_inurba_marseille","lat":43.31364,"lon":5.38501,"is_reserved":false,"is_disabled":false,"rental_uris":{"android":"levelo://app?vid=975218b1-0233-42f1-9373-40d58585c2f5","ios":"levelo://app?vid=975218b1-0233-42f1-9373-40d58585c2f5"},"vehicle_type_id":"4","last_reported":1760841834,"current_range_meters":16800,"station_id":"ce4bgt92rcd13ifvqcf0","pricing_plan_id":"cebpf4jnsgd1na2vs0mg"},{"bike_id":"e32345b2-42c8-49e5-9197-90b6d021e018","system_id":"levelo_inurba_marseille","lat":43.287095,"lon":5.379272,"is_reserved":false,"is_disabled":false,"rental_uris":{"android":"levelo://app?vid=e32345b2-42c8-49e5-9197-90b6d021e018","ios":"levelo://app?vid=e32345b2-42c8-49e5-9197-90b6d021e018"},"vehicle_type_id":"4","last_reported":1760841834,"current_range_meters":16800,"station_id":"ce4bh9p2rcd13ifvqec0","pricing_plan_id":"cebpf4jnsgd1na2vs0mg"},{"bike_id":"c22e92c8-3fe0-4c56-ab21-210e12f7f0b4","system_id":"levelo_inurba_marseille","lat":43.3195,"lon":5.41532,"is_reserved":false,"is_disabled":false,"rental_uris":{"android":"levelo://app?vid=c22e92c8-3fe0-4c56-ab21-210e12f7f0b4","ios":"levelo://app?vid=c22e92c8-3fe0-4c56-ab21-210e12f7f0b4"},"vehicle_type_id":"4","last_reported":1760841834,"current_range_meters":16800,"station_id":"","pricing_plan_id":"cebpf4jnsgd1na2vs0mg"},{"bike_id":"9652283e-21f4-4490-ac9e-ffa9429f0005","system_id":"levelo_inurba_marseille","lat":43.29072,"lon":5.40544,"is_reserved":false,"is_disabled":false,"rental_uris":{"android":"levelo://app?vid=9652283e-21f4-4490-ac9e-ffa9429f0005","ios":"levelo://app?vid=9652283e-21f4-4490-ac9e-ffa9429f0005"},"vehicle_type_id":"4","last_reported":1760841834,"current_range_meters":16800,"station_id":"","pricing_plan_id":"cebpf4jnsgd1na2vs0mg"},{"bike_id":"61a03972-6032-4677-a33f-1ca16df398f0","system_id":"levelo_inurba_marseille","lat":43.30928,"lon":5.40173,"is_reserved":false,"is_disabled":false,"rental_uris":{"android":"levelo://app?vid=61a03972-6032-4677-a33f-1ca16df398f0","ios":"levelo://app?vid=61a03972-6032-4677-a33f-1ca16df398f0"},"vehicle_type_id":"4","last_reported":1760841834,"current_range_meters":16800,"station_id":"ce4bgvp2rcd13ifvqct0","pricing_plan_id":"cebpf4jnsgd1na2vs0mg"},{"bike_id":"a0d88737-c6da-4c3a-b384-e15f59c2346a","system_id":"levelo_inurba_marseille","lat":43.286636,"lon":5.363539,"is_reserved":false,"is_disabled":false,"rental_uris":{"android":"levelo://app?vid=a0d88737-c6da-4c3a-b384-e15f59c2346a","ios":"levelo://app?vid=a0d88737-c6da-4c3a-b384-e15f59c2346a"},"vehicle_type_id":"4","last_reported":1760841834,"current_range_meters":16800,"station_id":"ce4bhah2rcd13ifvqej0","pricing_plan_id":"cebpf4jnsgd1na2vs0mg"},{"bike_id":"5a35347d-1dbb-434c-8651-0148cd77cd1e","system_id":"levelo_inurba_marseille","lat":43.31545,"lon":5.38739,"is_reserved":false,"is_disabled":false,"rental_uris":{"android":"levelo://app?vid=5a35347d-1dbb-434c-8651-0148cd77cd1e","ios":"levelo://app?vid=5a35347d-1dbb-434c-8651-0148cd77cd1e"},"vehicle_type_id":"4","last_reported":1760841834,"current_range_meters":16800,"station_id":"","pricing_plan_id":"cebpf4jnsgd1na2vs0mg"},{"bike_id":"a52f1007-5553-4888-a41a-5e6c806468a7","system_id":"levelo_inurba_marseille","lat":43.31328,"lon":5.39697,"is_reserved":false,"is_disabled":false,"rental_uris":{"android":"levelo://app?vid=a52f1007-5553-4888-a41a-5e6c806468a7","ios":"levelo://app?vid=a52f1007-5553-4888-a41a-5e6c806468a7"},"vehicle_type_id":"4","last_reported":1760841834,"current_range_meters":16800,"station_id":"ce4bgvp2rcd13ifvqcu0","pricing_plan_id":"cebpf4jnsgd1na2vs0mg"},{"bike_id":"a5fc564a-c489-40d8-a469-6e76c4119dc1","system_id":"levelo_inurba_marseille","lat":43.28688,"lon":5.36352,"is_reserved":false,"is_disabled":false,"rental_uris":{"android":"levelo://app?vid=a5fc564a-c489-40d8-a469-6e76c4119dc1","ios":"levelo://app?vid=a5fc564a-c489-40d8-a469-6e76c4119dc1"},"vehicle_type_id":"4","last_reported":1760841834,"current_range_meters":16800,"station_id":"ce4bhah2rcd13ifvqej0","pricing_plan_id":"cebpf4jnsgd1na2vs0mg"},{"bike_id":"bf40278b-4bc5-4d5b-be65-c18872b0fe60","system_id":"levelo_inurba_marseille","lat":43.21193,"lon":5.35081,"is_reserved":false,"is_disabled":false,"rental_uris":{"android":"levelo://app?vid=bf40278b-4bc5-4d5b-be65-c18872b0fe60","ios":"levelo://app?vid=bf40278b-4bc5-4d5b-be65-c18872b0fe60"},"vehicle_type_id":"4","last_reported":1760841834,"current_range_meters":17200,"station_id":"st_cvj6sg6p6f1abm77japg","pricing_plan_id":"cebpf4jnsgd1na2vs0mg"},{"bike_id":"0a950a0d-01ce-40b2-be0e-ad7894fd72f2","system_id":"levelo_inurba_marseille","lat":43.3209,"lon":5.36787,"is_reserved":false,"is_disabled":true,"rental_uris":{"android":"levelo://app?vid=0a950a0d-01ce-40b2-be0e-ad7894fd72f2","ios":"levelo://app?vid=0a950a0d-01ce-40b2-be0e-ad7894fd72f2"},"vehicle_type_id":"4","last_reported":1760841834,"current_range_meters":17200,"station_id":"ce4bhrh2rcd13ifvqhug","pricing_plan_id":"cebpf4jnsgd1na2vs0mg"},{"bike_id":"3281eb69-9f14-48d9-a8af-bd1dbcbd3dc6","system_id":"levelo_inurba_marseille","lat":43.324924,"lon":5.365723,"is_reserved":false,"is_disabled":false,"rental_uris":{"android":"levelo://app?vid=3281eb69-9f14-48d9-a8af-bd1dbcbd3dc6","ios":"levelo://app?vid=3281eb69-9f14-48d9-a8af-bd1dbcbd3dc6"},"vehicle_type_id":"4","last_reported":1760841834,"current_range_meters":17200,"station_id":"ce4bhs12rcd13ifvqhvg","pricing_plan_id":"cebpf4jnsgd1na2vs0mg"},{"bike_id":"f1b8e04f-457e-461e-a0a7-0d512845fe50","system_id":"levelo_inurba_marseille","lat":43.333518,"lon":5.398652,"is_reserved":false,"is_disabled":false,"rental_uris":{"android":"levelo://app?vid=f1b8e04f-457e-461e-a0a7-0d512845fe50","ios":"levelo://app?vid=f1b8e04f-457e-461e-a0a7-0d512845fe50"},"vehicle_type_id":"4","last_reported":1760841834,"current_range_meters":17200,"station_id":"","pricing_plan_id":"cebpf4jnsgd1na2vs0mg"},{"bike_id":"e6a7d054-152f-48ef-adea-b2903c04274b","system_id":"levelo_inurba_marseille","lat":43.310772,"lon":5.383554,"is_reserved":false,"is_disabled":false,"rental_uris":{"android":"levelo://app?vid=e6a7d054-152f-48ef-adea-b2903c04274b","ios":"levelo://app?vid=e6a7d054-152f-48ef-adea-b2903c04274b"},"vehicle_type_id":"4","last_reported":1760841834,"current_range_meters":17200,"station_id":"ce4bgv92rcd13ifvqcr0","pricing_plan_id":"cebpf4jnsgd1na2vs0mg"},{"bike_id":"bb79989d-871e-48b8-a3e7-7a297a28b04c","system_id":"levelo_inurba_marseille","lat":43.281524,"lon":5.351267,"is_reserved":false,"is_disabled":false,"rental_uris":{"android":"levelo://app?vid=bb79989d-871e-48b8-a3e7-7a297a28b04c","ios":"levelo://app?vid=bb79989d-871e-48b8-a3e7-7a297a28b04c"},"vehicle_type_id":"4","last_reported":1760841834,"current_range_meters":17600,"station_id":"","pricing_plan_id":"cebpf4jnsgd1na2vs0mg"},{"bike_id":"5bd9155f-156c-49c8-8b0f-833732c1c592","system_id":"levelo_inurba_marseille","lat":43.28523,"lon":5.4414,"is_reserved":false,"is_disabled":false,"rental_uris":{"android":"levelo://app?vid=5bd9155f-156c-49c8-8b0f-833732c1c592","ios":"levelo://app?vid=5bd9155f-156c-49c8-8b0f-833732c1c592"},"vehicle_type_id":"4","last_reported":1760841834,"current_range_meters":17600,"station_id":"st_d3j3df2ikq2c7380ej80","pricing_plan_id":"cebpf4jnsgd1na2vs0mg"},{"bike_id":"ddb2b9bc-e02a-4792-aae2-e902e747eeed","system_id":"levelo_inurba_marseille","lat":43.28948,"lon":5.39612,"is_reserved":false,"is_disabled":false,"rental_uris":{"android":"levelo://app?vid=ddb2b9bc-e02a-4792-aae2-e902e747eeed","ios":"levelo://app?vid=ddb2b9bc-e02a-4792-aae2-e902e747eeed"},"vehicle_type_id":"4","last_reported":1760841834,"current_range_meters":17600,"station_id":"ce4bh3h2rcd13ifvqdn0","pricing_plan_id":"cebpf4jnsgd1na2vs0mg"},{"bike_id":"09c5c7ea-a1e5-441e-9d28-941694561539","system_id":"levelo_inurba_marseille","lat":43.31172,"lon":5.38736,"is_reserved":false,"is_disabled":false,"rental_uris":{"android":"levelo://app?vid=09c5c7ea-a1e5-441e-9d28-941694561539","ios":"levelo://app?vid=09c5c7ea-a1e5-441e-9d28-941694561539"},"vehicle_type_id":"4","last_reported":1760841834,"current_range_meters":17600,"station_id":"ce4bgv12rcd13ifvqcp0","pricing_plan_id":"cebpf4jnsgd1na2vs0mg"},{"bike_id":"62a2917a-11f1-4065-bafc-67f0f75ed065","system_id":"levelo_inurba_marseille","lat":43.313294,"lon":5.397056,"is_reserved":false,"is_disabled":false,"rental_uris":{"android":"levelo://app?vid=62a2917a-11f1-4065-bafc-67f0f75ed065","ios":"levelo://app?vid=62a2917a-11f1-4065-bafc-67f0f75ed065"},"vehicle_type_id":"4","last_reported":1760841834,"current_range_meters":17600,"station_id":"ce4bgvp2rcd13ifvqcu0","pricing_plan_id":"cebpf4jnsgd1na2vs0mg"},{"bike_id":"4bbd6801-e86f-4670-a08c-5a08e1dabb92","system_id":"levelo_inurba_marseille","lat":43.292184,"lon":5.380842,"is_reserved":false,"is_disabled":false,"rental_uris":{"android":"levelo://app?vid=4bbd6801-e86f-4670-a08c-5a08e1dabb92","ios":"levelo://app?vid=4bbd6801-e86f-4670-a08c-5a08e1dabb92"},"vehicle_type_id":"4","last_reported":1760841834,"current_range_meters":17600,"station_id":"","pricing_plan_id":"cebpf4jnsgd1na2vs0mg"},{"bike_id":"3d63e49a-c19e-4e35-b1c1-ade838826064","system_id":"levelo_inurba_marseille","lat":43.30546,"lon":5.38427,"is_reserved":false,"is_disabled":false,"rental_uris":{"android":"levelo://app?vid=3d63e49a-c19e-4e35-b1c1-ade838826064","ios":"levelo://app?vid=3d63e49a-c19e-4e35-b1c1-ade838826064"},"vehicle_type_id":"4","last_reported":1760841834,"current_range_meters":17600,"station_id":"ce4bgg92rcd13ifvqb30","pricing_plan_id":"cebpf4jnsgd1na2vs0mg"},{"bike_id":"28036086-9fc0-4694-90bd-3af15535beb3","system_id":"levelo_inurba_marseille","lat":43.29839,"lon":5.36268,"is_reserved":false,"is_disabled":true,"rental_uris":{"android":"levelo://app?vid=28036086-9fc0-4694-90bd-3af15535beb3","ios":"levelo://app?vid=28036086-9fc0-4694-90bd-3af15535beb3"},"vehicle_type_id":"4","last_reported":1760841834,"current_range_meters":17600,"station_id":"ce4bgpp2rcd13ifvqc3g","pricing_plan_id":"cebpf4jnsgd1na2vs0mg"},{"bike_id":"c1797d73-9a57-4ace-9913-3d5292c80a81","system_id":"levelo_inurba_marseille","lat":43.30318,"lon":5.40454,"is_reserved":false,"is_disabled":false,"rental_uris":{"android":"levelo://app?vid=c1797d73-9a57-4ace-9913-3d5292c80a81","ios":"levelo://app?vid=c1797d73-9a57-4ace-9913-3d5292c80a81"},"vehicle_type_id":"4","last_reported":1760841834,"current_range_meters":17600,"station_id":"ce4bh012rcd13ifvqd10","pricing_plan_id":"cebpf4jnsgd1na2vs0mg"},{"bike_id":"8c370b85-7300-4952-bf71-08899ecc1fd7","system_id":"levelo_inurba_marseille","lat":43.31074,"lon":5.38348,"is_reserved":false,"is_disabled":false,"rental_uris":{"android":"levelo://app?vid=8c370b85-7300-4952-bf71-08899ecc1fd7","ios":"levelo://app?vid=8c370b85-7300-4952-bf71-08899ecc1fd7"},"vehicle_type_id":"4","last_reported":1760841834,"current_range_meters":17600,"station_id":"ce4bgv92rcd13ifvqcr0","pricing_plan_id":"cebpf4jnsgd1na2vs0mg"},{"bike_id":"46cf8a89-bf50-4e8a-aeef-708ffee447d6","system_id":"levelo_inurba_marseille","lat":43.30299,"lon":5.39207,"is_reserved":false,"is_disabled":false,"rental_uris":{"android":"levelo://app?vid=46cf8a89-bf50-4e8a-aeef-708ffee447d6","ios":"levelo://app?vid=46cf8a89-bf50-4e8a-aeef-708ffee447d6"},"vehicle_type_id":"4","last_reported":1760841834,"current_range_meters":17600,"station_id":"ce4bgkh2rcd13ifvqbk0","pricing_plan_id":"cebpf4jnsgd1na2vs0mg"},{"bike_id":"da22a6bb-ece8-4168-87fa-39fdca8adc0a","system_id":"levelo_inurba_marseille","lat":43.248064,"lon":5.374574,"is_reserved":false,"is_disabled":false,"rental_uris":{"android":"levelo://app?vid=da22a6bb-ece8-4168-87fa-39fdca8adc0a","ios":"levelo://app?vid=da22a6bb-ece8-4168-87fa-39fdca8adc0a"},"vehicle_type_id":"4","last_reported":1760841834,"current_range_meters":17600,"station_id":"ce4bhgh2rcd13ifvqfb0","pricing_plan_id":"cebpf4jnsgd1na2vs0mg"},{"bike_id":"311d5b6a-2a78-40fa-b6b0-f5fc46e36810","system_id":"levelo_inurba_marseille","lat":43.288427,"lon":5.358717,"is_reserved":false,"is_disabled":false,"rental_uris":{"android":"levelo://app?vid=311d5b6a-2a78-40fa-b6b0-f5fc46e36810","ios":"levelo://app?vid=311d5b6a-2a78-40fa-b6b0-f5fc46e36810"},"vehicle_type_id":"4","last_reported":1760841834,"current_range_meters":18000,"station_id":"ce4bhb12rcd13ifvqem0","pricing_plan_id":"cebpf4jnsgd1na2vs0mg"},{"bike_id":"0efdc4b6-faae-410e-a01e-42fe021ab326","system_id":"levelo_inurba_marseille","lat":43.29208,"lon":5.39327,"is_reserved":false,"is_disabled":false,"rental_uris":{"android":"levelo://app?vid=0efdc4b6-faae-410e-a01e-42fe021ab326","ios":"levelo://app?vid=0efdc4b6-faae-410e-a01e-42fe021ab326"},"vehicle_type_id":"4","last_reported":1760841834,"current_range_meters":18000,"station_id":"ce4bh192rcd13ifvqdd0","pricing_plan_id":"cebpf4jnsgd1na2vs0mg"},{"bike_id":"88979df4-35e0-4f2c-b685-7ddc1720b501","system_id":"levelo_inurba_marseille","lat":43.26564,"lon":5.39027,"is_reserved":false,"is_disabled":false,"rental_uris":{"android":"levelo://app?vid=88979df4-35e0-4f2c-b685-7ddc1720b501","ios":"levelo://app?vid=88979df4-35e0-4f2c-b685-7ddc1720b501"},"vehicle_type_id":"4","last_reported":1760841834,"current_range_meters":18000,"station_id":"ce4bhe12rcd13ifvqf30","pricing_plan_id":"cebpf4jnsgd1na2vs0mg"},{"bike_id":"605c8a23-7906-4fb2-9c0a-c6590810f681","system_id":"levelo_inurba_marseille","lat":43.24166,"lon":5.36401,"is_reserved":false,"is_disabled":false,"rental_uris":{"android":"levelo://app?vid=605c8a23-7906-4fb2-9c0a-c6590810f681","ios":"levelo://app?vid=605c8a23-7906-4fb2-9c0a-c6590810f681"},"vehicle_type_id":"4","last_reported":1760841834,"current_range_meters":18000,"station_id":"cpo36qri1sfpv3e86is0","pricing_plan_id":"cebpf4jnsgd1na2vs0mg"},{"bike_id":"c530e950-50a8-4b2f-81e6-a5f7e6f752e8","system_id":"levelo_inurba_marseille","lat":43.33759,"lon":5.37473,"is_reserved":false,"is_disabled":false,"rental_uris":{"android":"levelo://app?vid=c530e950-50a8-4b2f-81e6-a5f7e6f752e8","ios":"levelo://app?vid=c530e950-50a8-4b2f-81e6-a5f7e6f752e8"},"vehicle_type_id":"4","last_reported":1760841834,"current_range_meters":18800,"station_id":"","pricing_plan_id":"cebpf4jnsgd1na2vs0mg"},{"bike_id":"14b61eee-06ce-44bc-a99e-8bf0c35b7935","system_id":"levelo_inurba_marseille","lat":43.25102,"lon":5.40322,"is_reserved":false,"is_disabled":false,"rental_uris":{"android":"levelo://app?vid=14b61eee-06ce-44bc-a99e-8bf0c35b7935","ios":"levelo://app?vid=14b61eee-06ce-44bc-a99e-8bf0c35b7935"},"vehicle_type_id":"4","last_reported":1760841834,"current_range_meters":18800,"station_id":"ce4bhlh2rcd13ifvqgig","pricing_plan_id":"cebpf4jnsgd1na2vs0mg"},{"bike_id":"6c16c784-173f-4ba8-9ed3-1caeb2a072bf","system_id":"levelo_inurba_marseille","lat":43.31361,"lon":5.38486,"is_reserved":false,"is_disabled":false,"rental_uris":{"android":"levelo://app?vid=6c16c784-173f-4ba8-9ed3-1caeb2a072bf","ios":"levelo://app?vid=6c16c784-173f-4ba8-9ed3-1caeb2a072bf"},"vehicle_type_id":"4","last_reported":1760841834,"current_range_meters":18800,"station_id":"ce4bgt92rcd13ifvqcf0","pricing_plan_id":"cebpf4jnsgd1na2vs0mg"},{"bike_id":"1dc63817-9625-4a50-a558-885b6834e4c5","system_id":"levelo_inurba_marseille","lat":43.30543,"lon":5.38433,"is_reserved":false,"is_disabled":false,"rental_uris":{"android":"levelo://app?vid=1dc63817-9625-4a50-a558-885b6834e4c5","ios":"levelo://app?vid=1dc63817-9625-4a50-a558-885b6834e4c5"},"vehicle_type_id":"4","last_reported":1760841834,"current_range_meters":18800,"station_id":"ce4bgg92rcd13ifvqb30","pricing_plan_id":"cebpf4jnsgd1na2vs0mg"},{"bike_id":"f55c2cd9-22c9-4c66-a3f8-1aca543cbf98","system_id":"levelo_inurba_marseille","lat":43.31688,"lon":5.4047,"is_reserved":false,"is_disabled":false,"rental_uris":{"android":"levelo://app?vid=f55c2cd9-22c9-4c66-a3f8-1aca543cbf98","ios":"levelo://app?vid=f55c2cd9-22c9-4c66-a3f8-1aca543cbf98"},"vehicle_type_id":"4","last_reported":1760841834,"current_range_meters":18800,"station_id":"ce4bh012rcd13ifvqd00","pricing_plan_id":"cebpf4jnsgd1na2vs0mg"},{"bike_id":"9aa893ee-1807-4639-a1a7-1714b8f2dc9d","system_id":"levelo_inurba_marseille","lat":43.27491,"lon":5.42452,"is_reserved":false,"is_disabled":false,"rental_uris":{"android":"levelo://app?vid=9aa893ee-1807-4639-a1a7-1714b8f2dc9d","ios":"levelo://app?vid=9aa893ee-1807-4639-a1a7-1714b8f2dc9d"},"vehicle_type_id":"4","last_reported":1760841834,"current_range_meters":19200,"station_id":"ce4bhn92rcd13ifvqgrg","pricing_plan_id":"cebpf4jnsgd1na2vs0mg"},{"bike_id":"443fc992-bd8f-4e48-89c4-ef1795929a1e","system_id":"levelo_inurba_marseille","lat":43.313671,"lon":5.384899,"is_reserved":false,"is_disabled":false,"rental_uris":{"android":"levelo://app?vid=443fc992-bd8f-4e48-89c4-ef1795929a1e","ios":"levelo://app?vid=443fc992-bd8f-4e48-89c4-ef1795929a1e"},"vehicle_type_id":"4","last_reported":1760841834,"current_range_meters":19200,"station_id":"ce4bgt92rcd13ifvqcf0","pricing_plan_id":"cebpf4jnsgd1na2vs0mg"},{"bike_id":"8f5b4e3f-d0c8-438b-955e-3fd6c08bc9d3","system_id":"levelo_inurba_marseille","lat":43.24162,"lon":5.36397,"is_reserved":false,"is_disabled":false,"rental_uris":{"android":"levelo://app?vid=8f5b4e3f-d0c8-438b-955e-3fd6c08bc9d3","ios":"levelo://app?vid=8f5b4e3f-d0c8-438b-955e-3fd6c08bc9d3"},"vehicle_type_id":"4","last_reported":1760841834,"current_range_meters":19200,"station_id":"cpo36qri1sfpv3e86is0","pricing_plan_id":"cebpf4jnsgd1na2vs0mg"},{"bike_id":"94c51fff-9dee-4eea-bbd8-6e1a11e313f7","system_id":"levelo_inurba_marseille","lat":43.28455,"lon":5.35893,"is_reserved":false,"is_disabled":false,"rental_uris":{"android":"levelo://app?vid=94c51fff-9dee-4eea-bbd8-6e1a11e313f7","ios":"levelo://app?vid=94c51fff-9dee-4eea-bbd8-6e1a11e313f7"},"vehicle_type_id":"4","last_reported":1760841834,"current_range_meters":19200,"station_id":"ce4bhah2rcd13ifvqei0","pricing_plan_id":"cebpf4jnsgd1na2vs0mg"},{"bike_id":"e343fae2-abdd-419f-add3-4252cf1a7c5a","system_id":"levelo_inurba_marseille","lat":43.30482,"lon":5.40078,"is_reserved":false,"is_disabled":false,"rental_uris":{"android":"levelo://app?vid=e343fae2-abdd-419f-add3-4252cf1a7c5a","ios":"levelo://app?vid=e343fae2-abdd-419f-add3-4252cf1a7c5a"},"vehicle_type_id":"4","last_reported":1760841834,"current_range_meters":19200,"station_id":"","pricing_plan_id":"cebpf4jnsgd1na2vs0mg"},{"bike_id":"27b5581b-44ff-4718-b758-98465db337b8","system_id":"levelo_inurba_marseille","lat":43.308837,"lon":5.396551,"is_reserved":false,"is_disabled":false,"rental_uris":{"android":"levelo://app?vid=27b5581b-44ff-4718-b758-98465db337b8","ios":"levelo://app?vid=27b5581b-44ff-4718-b758-98465db337b8"},"vehicle_type_id":"4","last_reported":1760841834,"current_range_meters":19200,"station_id":"ce4bh012rcd13ifvqcv0","pricing_plan_id":"cebpf4jnsgd1na2vs0mg"},{"bike_id":"7c9134d6-f24d-43fc-b5dd-c553a4300356","system_id":"levelo_inurba_marseille","lat":43.286063,"lon":5.370672,"is_reserved":false,"is_disabled":true,"rental_uris":{"android":"levelo://app?vid=7c9134d6-f24d-43fc-b5dd-c553a4300356","ios":"levelo://app?vid=7c9134d6-f24d-43fc-b5dd-c553a4300356"},"vehicle_type_id":"4","last_reported":1760841834,"current_range_meters":19200,"station_id":"ce4bht12rcd13ifvqi60","pricing_plan_id":"cebpf4jnsgd1na2vs0mg"},{"bike_id":"18c138af-545a-41ad-ba8b-7c7c1cddcec1","system_id":"levelo_inurba_marseille","lat":43.30775,"lon":5.37651,"is_reserved":false,"is_disabled":false,"rental_uris":{"android":"levelo://app?vid=18c138af-545a-41ad-ba8b-7c7c1cddcec1","ios":"levelo://app?vid=18c138af-545a-41ad-ba8b-7c7c1cddcec1"},"vehicle_type_id":"4","last_reported":1760841834,"current_range_meters":19200,"station_id":"ce4bgv92rcd13ifvqcq0","pricing_plan_id":"cebpf4jnsgd1na2vs0mg"},{"bike_id":"0000b6d3-e83a-4149-90d5-c0999f573ff8","system_id":"levelo_inurba_marseille","lat":43.32116,"lon":5.36811,"is_reserved":false,"is_disabled":false,"rental_uris":{"android":"levelo://app?vid=0000b6d3-e83a-4149-90d5-c0999f573ff8","ios":"levelo://app?vid=0000b6d3-e83a-4149-90d5-c0999f573ff8"},"vehicle_type_id":"4","last_reported":1760841834,"current_range_meters":19600,"station_id":"ce4bhrh2rcd13ifvqhug","pricing_plan_id":"cebpf4jnsgd1na2vs0mg"},{"bike_id":"bb211116-29a7-4e48-93ed-d4ab1a1c4665","system_id":"levelo_inurba_marseille","lat":43.25947,"lon":5.40892,"is_reserved":false,"is_disabled":false,"rental_uris":{"android":"levelo://app?vid=bb211116-29a7-4e48-93ed-d4ab1a1c4665","ios":"levelo://app?vid=bb211116-29a7-4e48-93ed-d4ab1a1c4665"},"vehicle_type_id":"4","last_reported":1760841834,"current_range_meters":19600,"station_id":"ce4bhm92rcd13ifvqglg","pricing_plan_id":"cebpf4jnsgd1na2vs0mg"},{"bike_id":"47ad36fc-1d6b-4faa-b0d4-aea7afc16122","system_id":"levelo_inurba_marseille","lat":43.30932,"lon":5.40146,"is_reserved":false,"is_disabled":false,"rental_uris":{"android":"levelo://app?vid=47ad36fc-1d6b-4faa-b0d4-aea7afc16122","ios":"levelo://app?vid=47ad36fc-1d6b-4faa-b0d4-aea7afc16122"},"vehicle_type_id":"4","last_reported":1760841834,"current_range_meters":19600,"station_id":"ce4bgvp2rcd13ifvqct0","pricing_plan_id":"cebpf4jnsgd1na2vs0mg"},{"bike_id":"348ab8cc-81cc-4702-b12d-7027572c1935","system_id":"levelo_inurba_marseille","lat":43.27382,"lon":5.36261,"is_reserved":false,"is_disabled":true,"rental_uris":{"android":"levelo://app?vid=348ab8cc-81cc-4702-b12d-7027572c1935","ios":"levelo://app?vid=348ab8cc-81cc-4702-b12d-7027572c1935"},"vehicle_type_id":"4","last_reported":1760841834,"current_range_meters":19600,"station_id":"ce4bhbh2rcd13ifvqeo0","pricing_plan_id":"cebpf4jnsgd1na2vs0mg"},{"bike_id":"16c6b20e-8897-40ab-b69d-f40016c13179","system_id":"levelo_inurba_marseille","lat":43.31118,"lon":5.3777,"is_reserved":false,"is_disabled":false,"rental_uris":{"android":"levelo://app?vid=16c6b20e-8897-40ab-b69d-f40016c13179","ios":"levelo://app?vid=16c6b20e-8897-40ab-b69d-f40016c13179"},"vehicle_type_id":"4","last_reported":1760841834,"current_range_meters":19600,"station_id":"ce4bgt92rcd13ifvqcg0","pricing_plan_id":"cebpf4jnsgd1na2vs0mg"},{"bike_id":"7aae7eeb-ada1-48a3-8415-9b13ecbae171","system_id":"levelo_inurba_marseille","lat":43.25108,"lon":5.40337,"is_reserved":false,"is_disabled":false,"rental_uris":{"android":"levelo://app?vid=7aae7eeb-ada1-48a3-8415-9b13ecbae171","ios":"levelo://app?vid=7aae7eeb-ada1-48a3-8415-9b13ecbae171"},"vehicle_type_id":"4","last_reported":1760841834,"current_range_meters":19600,"station_id":"ce4bhlh2rcd13ifvqgig","pricing_plan_id":"cebpf4jnsgd1na2vs0mg"},{"bike_id":"000ffae2-734f-491c-adc2-b06d24d3f805","system_id":"levelo_inurba_marseille","lat":43.29642,"lon":5.40586,"is_reserved":false,"is_disabled":false,"rental_uris":{"android":"levelo://app?vid=000ffae2-734f-491c-adc2-b06d24d3f805","ios":"levelo://app?vid=000ffae2-734f-491c-adc2-b06d24d3f805"},"vehicle_type_id":"4","last_reported":1760841834,"current_range_meters":19600,"station_id":"ce4bh0h2rcd13ifvqd60","pricing_plan_id":"cebpf4jnsgd1na2vs0mg"},{"bike_id":"814c3776-4ceb-40da-8355-ca650a748309","system_id":"levelo_inurba_marseille","lat":43.29036,"lon":5.39964,"is_reserved":false,"is_disabled":false,"rental_uris":{"android":"levelo://app?vid=814c3776-4ceb-40da-8355-ca650a748309","ios":"levelo://app?vid=814c3776-4ceb-40da-8355-ca650a748309"},"vehicle_type_id":"4","last_reported":1760841834,"current_range_meters":19600,"station_id":"ce4bh392rcd13ifvqdm0","pricing_plan_id":"cebpf4jnsgd1na2vs0mg"},{"bike_id":"554953b6-de25-4aa6-9f05-ef7f55b390ea","system_id":"levelo_inurba_marseille","lat":43.29267,"lon":5.384284,"is_reserved":false,"is_disabled":false,"rental_uris":{"android":"levelo://app?vid=554953b6-de25-4aa6-9f05-ef7f55b390ea","ios":"levelo://app?vid=554953b6-de25-4aa6-9f05-ef7f55b390ea"},"vehicle_type_id":"4","last_reported":1760841834,"current_range_meters":20000,"station_id":"","pricing_plan_id":"cebpf4jnsgd1na2vs0mg"},{"bike_id":"78b3bdff-c8c8-4550-9ff0-18c632b07088","system_id":"levelo_inurba_marseille","lat":43.31539,"lon":5.380284,"is_reserved":false,"is_disabled":false,"rental_uris":{"android":"levelo://app?vid=78b3bdff-c8c8-4550-9ff0-18c632b07088","ios":"levelo://app?vid=78b3bdff-c8c8-4550-9ff0-18c632b07088"},"vehicle_type_id":"4","last_reported":1760841834,"current_range_meters":20000,"station_id":"ce4bhsp2rcd13ifvqi50","pricing_plan_id":"cebpf4jnsgd1na2vs0mg"},{"bike_id":"5aaf4735-cb3d-4d3c-b922-9654de2ca31c","system_id":"levelo_inurba_marseille","lat":43.28113,"lon":5.37835,"is_reserved":false,"is_disabled":false,"rental_uris":{"android":"levelo://app?vid=5aaf4735-cb3d-4d3c-b922-9654de2ca31c","ios":"levelo://app?vid=5aaf4735-cb3d-4d3c-b922-9654de2ca31c"},"vehicle_type_id":"4","last_reported":1760841834,"current_range_meters":20000,"station_id":"ce4bha12rcd13ifvqee0","pricing_plan_id":"cebpf4jnsgd1na2vs0mg"},{"bike_id":"a084b6b2-1500-4098-9b79-15baacb33e8f","system_id":"levelo_inurba_marseille","lat":43.30885,"lon":5.39632,"is_reserved":false,"is_disabled":false,"rental_uris":{"android":"levelo://app?vid=a084b6b2-1500-4098-9b79-15baacb33e8f","ios":"levelo://app?vid=a084b6b2-1500-4098-9b79-15baacb33e8f"},"vehicle_type_id":"4","last_reported":1760841834,"current_range_meters":20000,"station_id":"ce4bh012rcd13ifvqcv0","pricing_plan_id":"cebpf4jnsgd1na2vs0mg"},{"bike_id":"6e8ed827-a6f7-46f1-ad28-2f0468b71691","system_id":"levelo_inurba_marseille","lat":43.32102,"lon":5.36778,"is_reserved":false,"is_disabled":true,"rental_uris":{"android":"levelo://app?vid=6e8ed827-a6f7-46f1-ad28-2f0468b71691","ios":"levelo://app?vid=6e8ed827-a6f7-46f1-ad28-2f0468b71691"},"vehicle_type_id":"4","last_reported":1760841834,"current_range_meters":20000,"station_id":"ce4bhrh2rcd13ifvqhug","pricing_plan_id":"cebpf4jnsgd1na2vs0mg"},{"bike_id":"e3ceb8f0-5e12-4ef4-a429-05541ebe2200","system_id":"levelo_inurba_marseille","lat":43.313686,"lon":5.384909,"is_reserved":false,"is_disabled":false,"rental_uris":{"android":"levelo://app?vid=e3ceb8f0-5e12-4ef4-a429-05541ebe2200","ios":"levelo://app?vid=e3ceb8f0-5e12-4ef4-a429-05541ebe2200"},"vehicle_type_id":"4","last_reported":1760841834,"current_range_meters":20000,"station_id":"ce4bgt92rcd13ifvqcf0","pricing_plan_id":"cebpf4jnsgd1na2vs0mg"},{"bike_id":"d06fb50d-c65b-432c-b433-e9f5248356cd","system_id":"levelo_inurba_marseille","lat":43.29004,"lon":5.35614,"is_reserved":false,"is_disabled":true,"rental_uris":{"android":"levelo://app?vid=d06fb50d-c65b-432c-b433-e9f5248356cd","ios":"levelo://app?vid=d06fb50d-c65b-432c-b433-e9f5248356cd"},"vehicle_type_id":"4","last_reported":1760841834,"current_range_meters":20000,"station_id":"ce4bhb92rcd13ifvqen0","pricing_plan_id":"cebpf4jnsgd1na2vs0mg"},{"bike_id":"faa3e668-6719-4125-8206-72a0a37494c0","system_id":"levelo_inurba_marseille","lat":43.2695,"lon":5.40253,"is_reserved":false,"is_disabled":true,"rental_uris":{"android":"levelo://app?vid=faa3e668-6719-4125-8206-72a0a37494c0","ios":"levelo://app?vid=faa3e668-6719-4125-8206-72a0a37494c0"},"vehicle_type_id":"4","last_reported":1760841834,"current_range_meters":20000,"station_id":"cjm6bp8fraef2m0cb0m0","pricing_plan_id":"cebpf4jnsgd1na2vs0mg"},{"bike_id":"c54dd721-7008-4232-b3a0-fdd93720912a","system_id":"levelo_inurba_marseille","lat":43.28464,"lon":5.35882,"is_reserved":false,"is_disabled":false,"rental_uris":{"android":"levelo://app?vid=c54dd721-7008-4232-b3a0-fdd93720912a","ios":"levelo://app?vid=c54dd721-7008-4232-b3a0-fdd93720912a"},"vehicle_type_id":"4","last_reported":1760841834,"current_range_meters":20400,"station_id":"ce4bhah2rcd13ifvqei0","pricing_plan_id":"cebpf4jnsgd1na2vs0mg"},{"bike_id":"66f7fe07-f70c-4306-a457-c24ce4f2f477","system_id":"levelo_inurba_marseille","lat":43.240687,"lon":5.377535,"is_reserved":false,"is_disabled":false,"rental_uris":{"android":"levelo://app?vid=66f7fe07-f70c-4306-a457-c24ce4f2f477","ios":"levelo://app?vid=66f7fe07-f70c-4306-a457-c24ce4f2f477"},"vehicle_type_id":"4","last_reported":1760841834,"current_range_meters":20400,"station_id":"ce4bhnp2rcd13ifvqgvg","pricing_plan_id":"cebpf4jnsgd1na2vs0mg"},{"bike_id":"428d12ef-10a9-4ec0-83e8-1af09fb92ee3","system_id":"levelo_inurba_marseille","lat":43.27899,"lon":5.38771,"is_reserved":false,"is_disabled":false,"rental_uris":{"android":"levelo://app?vid=428d12ef-10a9-4ec0-83e8-1af09fb92ee3","ios":"levelo://app?vid=428d12ef-10a9-4ec0-83e8-1af09fb92ee3"},"vehicle_type_id":"4","last_reported":1760841834,"current_range_meters":20400,"station_id":"","pricing_plan_id":"cebpf4jnsgd1na2vs0mg"},{"bike_id":"78fe83c7-5376-41e5-afa1-483e220954a6","system_id":"levelo_inurba_marseille","lat":43.2917,"lon":5.37051,"is_reserved":false,"is_disabled":false,"rental_uris":{"android":"levelo://app?vid=78fe83c7-5376-41e5-afa1-483e220954a6","ios":"levelo://app?vid=78fe83c7-5376-41e5-afa1-483e220954a6"},"vehicle_type_id":"4","last_reported":1760841834,"current_range_meters":20400,"station_id":"","pricing_plan_id":"cebpf4jnsgd1na2vs0mg"},{"bike_id":"7b337a6b-60f1-4325-85d3-02c30c39d179","system_id":"levelo_inurba_marseille","lat":43.291902,"lon":5.39306,"is_reserved":false,"is_disabled":false,"rental_uris":{"android":"levelo://app?vid=7b337a6b-60f1-4325-85d3-02c30c39d179","ios":"levelo://app?vid=7b337a6b-60f1-4325-85d3-02c30c39d179"},"vehicle_type_id":"4","last_reported":1760841834,"current_range_meters":20400,"station_id":"ce4bh192rcd13ifvqdd0","pricing_plan_id":"cebpf4jnsgd1na2vs0mg"},{"bike_id":"d6318f9e-0184-4ff6-931a-ee0c5a28c2b7","system_id":"levelo_inurba_marseille","lat":43.231957,"lon":5.355539,"is_reserved":false,"is_disabled":false,"rental_uris":{"android":"levelo://app?vid=d6318f9e-0184-4ff6-931a-ee0c5a28c2b7","ios":"levelo://app?vid=d6318f9e-0184-4ff6-931a-ee0c5a28c2b7"},"vehicle_type_id":"4","last_reported":1760841834,"current_range_meters":20400,"station_id":"ce4bhu92rcd13ifvqi70","pricing_plan_id":"cebpf4jnsgd1na2vs0mg"},{"bike_id":"8580f859-d8f4-44fb-9c0c-da0a57d43dea","system_id":"levelo_inurba_marseille","lat":43.30326,"lon":5.40449,"is_reserved":false,"is_disabled":false,"rental_uris":{"android":"levelo://app?vid=8580f859-d8f4-44fb-9c0c-da0a57d43dea","ios":"levelo://app?vid=8580f859-d8f4-44fb-9c0c-da0a57d43dea"},"vehicle_type_id":"4","last_reported":1760841834,"current_range_meters":20400,"station_id":"ce4bh012rcd13ifvqd10","pricing_plan_id":"cebpf4jnsgd1na2vs0mg"},{"bike_id":"78ed1f23-a0aa-47ea-b414-35a6bd3e9c11","system_id":"levelo_inurba_marseille","lat":43.238306,"lon":5.377676,"is_reserved":false,"is_disabled":false,"rental_uris":{"android":"levelo://app?vid=78ed1f23-a0aa-47ea-b414-35a6bd3e9c11","ios":"levelo://app?vid=78ed1f23-a0aa-47ea-b414-35a6bd3e9c11"},"vehicle_type_id":"4","last_reported":1760841834,"current_range_meters":20400,"station_id":"","pricing_plan_id":"cebpf4jnsgd1na2vs0mg"},{"bike_id":"85b449a8-b4c0-4dba-88fc-be4e8016e69f","system_id":"levelo_inurba_marseille","lat":43.30588,"lon":5.3934,"is_reserved":false,"is_disabled":false,"rental_uris":{"android":"levelo://app?vid=85b449a8-b4c0-4dba-88fc-be4e8016e69f","ios":"levelo://app?vid=85b449a8-b4c0-4dba-88fc-be4e8016e69f"},"vehicle_type_id":"4","last_reported":1760841834,"current_range_meters":20800,"station_id":"ce4bh0p2rcd13ifvqd80","pricing_plan_id":"cebpf4jnsgd1na2vs0mg"},{"bike_id":"81fee18c-da25-4715-ae44-9f4e3a7b4702","system_id":"levelo_inurba_marseille","lat":43.28405,"lon":5.3495,"is_reserved":false,"is_disabled":false,"rental_uris":{"android":"levelo://app?vid=81fee18c-da25-4715-ae44-9f4e3a7b4702","ios":"levelo://app?vid=81fee18c-da25-4715-ae44-9f4e3a7b4702"},"vehicle_type_id":"4","last_reported":1760841834,"current_range_meters":20800,"station_id":"","pricing_plan_id":"cebpf4jnsgd1na2vs0mg"},{"bike_id":"5b87a245-ba0a-4145-84ed-54302e4f634d","system_id":"levelo_inurba_marseille","lat":43.28621,"lon":5.37056,"is_reserved":false,"is_disabled":false,"rental_uris":{"android":"levelo://app?vid=5b87a245-ba0a-4145-84ed-54302e4f634d","ios":"levelo://app?vid=5b87a245-ba0a-4145-84ed-54302e4f634d"},"vehicle_type_id":"4","last_reported":1760841834,"current_range_meters":20800,"station_id":"ce4bht12rcd13ifvqi60","pricing_plan_id":"cebpf4jnsgd1na2vs0mg"},{"bike_id":"490c187a-0098-44bd-9010-902ebf6f6ea9","system_id":"levelo_inurba_marseille","lat":43.28276,"lon":5.3508,"is_reserved":false,"is_disabled":true,"rental_uris":{"android":"levelo://app?vid=490c187a-0098-44bd-9010-902ebf6f6ea9","ios":"levelo://app?vid=490c187a-0098-44bd-9010-902ebf6f6ea9"},"vehicle_type_id":"4","last_reported":1760841834,"current_range_meters":20800,"station_id":"ce4bhbp2rcd13ifvqerg","pricing_plan_id":"cebpf4jnsgd1na2vs0mg"},{"bike_id":"53a704ad-8951-4085-8857-3366eddd4a9b","system_id":"levelo_inurba_marseille","lat":43.29551,"lon":5.42294,"is_reserved":false,"is_disabled":false,"rental_uris":{"android":"levelo://app?vid=53a704ad-8951-4085-8857-3366eddd4a9b","ios":"levelo://app?vid=53a704ad-8951-4085-8857-3366eddd4a9b"},"vehicle_type_id":"4","last_reported":1760841834,"current_range_meters":20800,"station_id":"ce4bhph2rcd13ifvqhdg","pricing_plan_id":"cebpf4jnsgd1na2vs0mg"},{"bike_id":"f6bcfd0e-b247-4a30-9443-2755b83baa73","system_id":"levelo_inurba_marseille","lat":43.28155,"lon":5.42643,"is_reserved":false,"is_disabled":false,"rental_uris":{"android":"levelo://app?vid=f6bcfd0e-b247-4a30-9443-2755b83baa73","ios":"levelo://app?vid=f6bcfd0e-b247-4a30-9443-2755b83baa73"},"vehicle_type_id":"4","last_reported":1760841834,"current_range_meters":20800,"station_id":"ce4bhnh2rcd13ifvqgug","pricing_plan_id":"cebpf4jnsgd1na2vs0mg"},{"bike_id":"44def8bb-fc22-46bb-a308-b8e670ec5dfd","system_id":"levelo_inurba_marseille","lat":43.30131,"lon":5.37428,"is_reserved":false,"is_disabled":true,"rental_uris":{"android":"levelo://app?vid=44def8bb-fc22-46bb-a308-b8e670ec5dfd","ios":"levelo://app?vid=44def8bb-fc22-46bb-a308-b8e670ec5dfd"},"vehicle_type_id":"4","last_reported":1760841834,"current_range_meters":20800,"station_id":"ce4bgs92rcd13ifvqcc0","pricing_plan_id":"cebpf4jnsgd1na2vs0mg"},{"bike_id":"485cffec-ef53-4ade-ac71-bddbf39943bb","system_id":"levelo_inurba_marseille","lat":43.33839,"lon":5.3667,"is_reserved":false,"is_disabled":false,"rental_uris":{"android":"levelo://app?vid=485cffec-ef53-4ade-ac71-bddbf39943bb","ios":"levelo://app?vid=485cffec-ef53-4ade-ac71-bddbf39943bb"},"vehicle_type_id":"4","last_reported":1760841834,"current_range_meters":20800,"station_id":"","pricing_plan_id":"cebpf4jnsgd1na2vs0mg"},{"bike_id":"a6e1884f-76ca-449a-9150-7e1f37794b6c","system_id":"levelo_inurba_marseille","lat":43.289456,"lon":5.364099,"is_reserved":false,"is_disabled":true,"rental_uris":{"android":"levelo://app?vid=a6e1884f-76ca-449a-9150-7e1f37794b6c","ios":"levelo://app?vid=a6e1884f-76ca-449a-9150-7e1f37794b6c"},"vehicle_type_id":"4","last_reported":1760841834,"current_range_meters":20800,"station_id":"ce4bhc92rcd13ifvqetg","pricing_plan_id":"cebpf4jnsgd1na2vs0mg"},{"bike_id":"89da61db-7cbf-4bff-8b2f-4a64d504f5c7","system_id":"levelo_inurba_marseille","lat":43.23796,"lon":5.36631,"is_reserved":false,"is_disabled":false,"rental_uris":{"android":"levelo://app?vid=89da61db-7cbf-4bff-8b2f-4a64d504f5c7","ios":"levelo://app?vid=89da61db-7cbf-4bff-8b2f-4a64d504f5c7"},"vehicle_type_id":"4","last_reported":1760841834,"current_range_meters":20800,"station_id":"st_d3nk18o9ro0c73en2l3g","pricing_plan_id":"cebpf4jnsgd1na2vs0mg"},{"bike_id":"f6329290-5cde-49f5-9e2b-0690a2665b67","system_id":"levelo_inurba_marseille","lat":43.30595,"lon":5.3936,"is_reserved":false,"is_disabled":false,"rental_uris":{"android":"levelo://app?vid=f6329290-5cde-49f5-9e2b-0690a2665b67","ios":"levelo://app?vid=f6329290-5cde-49f5-9e2b-0690a2665b67"},"vehicle_type_id":"4","last_reported":1760841834,"current_range_meters":21600,"station_id":"ce4bh0p2rcd13ifvqd80","pricing_plan_id":"cebpf4jnsgd1na2vs0mg"},{"bike_id":"06c84d1b-6e81-4ab2-ab43-e166647822bc","system_id":"levelo_inurba_marseille","lat":43.28937,"lon":5.36857,"is_reserved":false,"is_disabled":false,"rental_uris":{"android":"levelo://app?vid=06c84d1b-6e81-4ab2-ab43-e166647822bc","ios":"levelo://app?vid=06c84d1b-6e81-4ab2-ab43-e166647822bc"},"vehicle_type_id":"4","last_reported":1760841834,"current_range_meters":21600,"station_id":"","pricing_plan_id":"cebpf4jnsgd1na2vs0mg"},{"bike_id":"5645f280-6685-434c-ba8a-063d786f43b4","system_id":"levelo_inurba_marseille","lat":43.311708,"lon":5.387187,"is_reserved":false,"is_disabled":false,"rental_uris":{"android":"levelo://app?vid=5645f280-6685-434c-ba8a-063d786f43b4","ios":"levelo://app?vid=5645f280-6685-434c-ba8a-063d786f43b4"},"vehicle_type_id":"4","last_reported":1760841834,"current_range_meters":21600,"station_id":"ce4bgv12rcd13ifvqcp0","pricing_plan_id":"cebpf4jnsgd1na2vs0mg"},