{"last_updated":1703095742,"ttl":30,"version":"2.2","data":{"bikes":[{"bike_id":"0b082827-88b1-4ea6-abbd-eb7964205fe9","system_id":"levelo_inurba_marseille","lat":43.31232,"lon":5.36857,"is_reserved":false,"is_disabled":false,"rental_uris":{"android":"levelo://app?vid=0b082827-88b1-4ea6-abbd-eb7964205fe9","ios":"levelo://app?vid=0b082827-88b1-4ea6-abbd-eb7964205fe9"},"vehicle_type_id":"4","last_reported":1703095742,"current_range_meters":400,"station_id":"ce4bgl92rcd13ifvqbq0","pricing_plan_id":"free"},{"bike_id":"76aa0364-c676-46a5-908a-138354467dd7","system_id":"levelo_inurba_marseille","lat":43.312239,"lon":5.368562,"is_reserved":false,"is_disabled":false,"rental_uris":{"android":"levelo://app?vid=76aa0364-c676-46a5-908a-138354467dd7","ios":"levelo://app?vid=76aa0364-c676-46a5-908a-138354467dd7"},"vehicle_type_id":"4","last_reported":1703095742,"current_range_meters":16000,"station_id":"ce4bgl92rcd13ifvqbq0","pricing_plan_id":"free"},{"bike_id":"1dd191b5-2e74-4d51-aef2-852a032c551d","system_id":"levelo_inurba_marseille","lat":43.312239,"lon":5.368562,"is_reserved":false,"is_disabled":false,"rental_uris":{"android":"levelo://app?vid=1dd191b5-2e74-4d51-aef2-852a032c551d","ios":"levelo://app?vid=1dd191b5-2e74-4d51-aef2-852a032c551d"},"vehicle_type_id":"4","last_reported":1703095742,"current_range_meters":1200,"station_id":"ce4bgl92rcd13ifvqbq0","pricing_plan_id":"free"},{"bike_id":"8ca4252f-c6cf-46d5-9f4f-e5917969f903","system_id":"levelo_inurba_marseille","lat":43.309076,"lon":5.368465,"is_reserved":false,"is_disabled":false,"rental_uris":{"android":"levelo://app?vid=8ca4252f-c6cf-46d5-9f4f-e5917969f903","ios":"levelo://app?vid=8ca4252f-c6cf-46d5-9f4f-e5917969f903"},"vehicle_type_id":"4","last_reported":1703095742,"current_range_meters":27200,"station_id":"ce4bgn92rcd13ifvqbvg","pricing_plan_id":"free"},{"bike_id":"9309bdce-689d-4d75-bee7-87ce85461c78","system_id":"levelo_inurba_marseille","lat":43.305989,"lon":5.37225,"is_reserved":false,"is_disabled":false,"rental_uris":{"android":"levelo://app?vid=9309bdce-689d-4d75-bee7-87ce85461c78","ios":"levelo://app?vid=9309bdce-689d-4d75-bee7-87ce85461c78"},"vehicle_type_id":"4","last_reported":1703095742,"current_range_meters":0,"station_id":"ce4bgqh2rcd13ifvqc4g","pricing_plan_id":"free"},{"bike_id":"3b114523-2dbc-4f0c-b3f1-b26420639ab9","system_id":"levelo_inurba_marseille","lat":43.305989,"lon":5.37225,"is_reserved":false,"is_disabled":false,"rental_uris":{"android":"levelo://app?vid=3b114523-2dbc-4f0c-b3f1-b26420639ab9","ios":"levelo://app?vid=3b114523-2dbc-4f0c-b3f1-b26420639ab9"},"vehicle_type_id":"4","last_reported":1703095742,"current_range_meters":16800,"station_id":"ce4bgqh2rcd13ifvqc4g","pricing_plan_id":"free"},{"bike_id":"03a7e4d9-3e23-4a6b-bdc9-a3307d2e53b7","system_id":"levelo_inurba_marseille","lat":43.305989,"lon":5.37225,"is_reserved":false,"is_disabled":false,"rental_uris":{"android":"levelo://app?vid=03a7e4d9-3e23-4a6b-bdc9-a3307d2e53b7","ios":"levelo://app?vid=03a7e4d9-3e23-4a6b-bdc9-a3307d2e53b7"},"vehicle_type_id":"4","last_reported":1703095742,"current_range_meters":8400,"station_id":"ce4bgqh2rcd13ifvqc4g","pricing_plan_id":"free"},{"bike_id":"23415b54-81cf-4182-ae47-ba2459cf2f98","system_id":"levelo_inurba_marseille","lat":43.30604,"lon":5.37235,"is_reserved":false,"is_disabled":false,"rental_uris":{"android":"levelo://app?vid=23415b54-81cf-4182-ae47-ba2459cf2f98","ios":"levelo://app?vid=23415b54-81cf-4182-ae47-ba2459cf2f98"},"vehicle_type_id":"4","last_reported":1703095742,"current_range_meters":30000,"station_id":"ce4bgqh2rcd13ifvqc4g","pricing_plan_id":"free"},{"bike_id":"599bb4f5-66a4-4fc5-8277-1276ceea93e4","system_id":"levelo_inurba_marseille","lat":43.305989,"lon":5.37225,"is_reserved":false,"is_disabled":false,"rental_uris":{"android":"levelo://app?vid=599bb4f5-66a4-4fc5-8277-1276ceea93e4","ios":"levelo://app?vid=599bb4f5-66a4-4fc5-8277-1276ceea93e4"},"vehicle_type_id":"4","last_reported":1703095742,"current_range_meters":9600,"station_id":"ce4bgqh2rcd13ifvqc4g","pricing_plan_id":"free"},{"bike_id":"2e62151a-223f-4f2b-a611-f2776d6c1e22","system_id":"levelo_inurba_marseille","lat":43.31118,"lon":5.37759,"is_reserved":false,"is_disabled":false,"rental_uris":{"android":"levelo://app?vid=2e62151a-223f-4f2b-a611-f2776d6c1e22","ios":"levelo://app?vid=2e62151a-223f-4f2b-a611-f2776d6c1e22"},"vehicle_type_id":"4","last_reported":1703095742,"current_range_meters":31200,"station_id":"ce4bgt92rcd13ifvqcg0","pricing_plan_id":"free"},{"bike_id":"e2b91c28-fdaf-46b6-a791-fc0aab66dba4","system_id":"levelo_inurba_marseille","lat":43.311131,"lon":5.377651,"is_reserved":false,"is_disabled":false,"rental_uris":{"android":"levelo://app?vid=e2b91c28-fdaf-46b6-a791-fc0aab66dba4","ios":"levelo://app?vid=e2b91c28-fdaf-46b6-a791-fc0aab66dba4"},"vehicle_type_id":"4","last_reported":1703095742,"current_range_meters":18000,"station_id":"ce4bgt92rcd13ifvqcg0","pricing_plan_id":"free"},{"bike_id":"eff27c4c-ed36-46d0-9b15-c668ae59eeff","system_id":"levelo_inurba_marseille","lat":43.307945,"lon":5.376487,"is_reserved":false,"is_disabled":false,"rental_uris":{"android":"levelo://app?vid=eff27c4c-ed36-46d0-9b15-c668ae59eeff","ios":"levelo://app?vid=eff27c4c-ed36-46d0-9b15-c668ae59eeff"},"vehicle_type_id":"4","last_reported":1703095742,"current_range_meters":16000,"station_id":"ce4bgv92rcd13ifvqcq0","pricing_plan_id":"free"},{"bike_id":"3ddbc120-220d-4103-a977-aca519a666e4","system_id":"levelo_inurba_marseille","lat":43.307945,"lon":5.376487,"is_reserved":false,"is_disabled":false,"rental_uris":{"android":"levelo://app?vid=3ddbc120-220d-4103-a977-aca519a666e4","ios":"levelo://app?vid=3ddbc120-220d-4103-a977-aca519a666e4"},"vehicle_type_id":"4","last_reported":1703095742,"current_range_meters":30000,"station_id":"ce4bgv92rcd13ifvqcq0","pricing_plan_id":"free"},{"bike_id":"51177a7b-3a6f-4094-b234-b499e5c3b5d8","system_id":"levelo_inurba_marseille","lat":43.307945,"lon":5.376487,"is_reserved":false,"is_disabled":false,"rental_uris":{"android":"levelo://app?vid=51177a7b-3a6f-4094-b234-b499e5c3b5d8","ios":"levelo://app?vid=51177a7b-3a6f-4094-b234-b499e5c3b5d8"},"vehicle_type_id":"4","last_reported":1703095742,"current_range_meters":30400,"station_id":"ce4bgv92rcd13ifvqcq0","pricing_plan_id":"free"},{"bike_id":"86d896a5-b68a-4367-afcd-8ed75048bb41","system_id":"levelo_inurba_marseille","lat":43.317075,"lon":5.377367,"is_reserved":false,"is_disabled":false,"rental_uris":{"android":"levelo://app?vid=86d896a5-b68a-4367-afcd-8ed75048bb41","ios":"levelo://app?vid=86d896a5-b68a-4367-afcd-8ed75048bb41"},"vehicle_type_id":"4","last_reported":1703095742,"current_range_meters":23200,"station_id":"ce4bgth2rcd13ifvqch0","pricing_plan_id":"free"},{"bike_id":"cbc6ee68-cb73-4034-b716-8d1c709b3f2a","system_id":"levelo_inurba_marseille","lat":43.308012,"lon":5.381511,"is_reserved":false,"is_disabled":false,"rental_uris":{"android":"levelo://app?vid=cbc6ee68-cb73-4034-b716-8d1c709b3f2a","ios":"levelo://app?vid=cbc6ee68-cb73-4034-b716-8d1c709b3f2a"},"vehicle_type_id":"4","last_reported":1703095742,"current_range_meters":12800,"station_id":"ce4bgt12rcd13ifvqce0","pricing_plan_id":"free"},{"bike_id":"fa37c14d-3023-4e84-82f8-8cde99d6949e","system_id":"levelo_inurba_marseille","lat":43.30143,"lon":5.37413,"is_reserved":false,"is_disabled":false,"rental_uris":{"android":"levelo://app?vid=fa37c14d-3023-4e84-82f8-8cde99d6949e","ios":"levelo://app?vid=fa37c14d-3023-4e84-82f8-8cde99d6949e"},"vehicle_type_id":"4","last_reported":1703095742,"current_range_meters":24000,"station_id":"ce4bgs92rcd13ifvqcc0","pricing_plan_id":"free"},{"bike_id":"6bd330e5-be91-4c6a-bd12-6b4c0748505e","system_id":"levelo_inurba_marseille","lat":43.319925,"lon":5.38151,"is_reserved":false,"is_disabled":false,"rental_uris":{"android":"levelo://app?vid=6bd330e5-be91-4c6a-bd12-6b4c0748505e","ios":"levelo://app?vid=6bd330e5-be91-4c6a-bd12-6b4c0748505e"},"vehicle_type_id":"4","last_reported":1703095742,"current_range_meters":11600,"station_id":"ce4bhr12rcd13ifvqhpg","pricing_plan_id":"free"},{"bike_id":"953d5feb-48a7-427e-a3e1-b62f811507e8","system_id":"levelo_inurba_marseille","lat":43.319935,"lon":5.381699,"is_reserved":false,"is_disabled":false,"rental_uris":{"android":"levelo://app?vid=953d5feb-48a7-427e-a3e1-b62f811507e8","ios":"levelo://app?vid=953d5feb-48a7-427e-a3e1-b62f811507e8"},"vehicle_type_id":"4","last_reported":1703095742,"current_range_meters":4800,"station_id":"ce4bhr12rcd13ifvqhpg","pricing_plan_id":"free"},{"bike_id":"1482da37-5c52-4dd0-a378-cba730d67319","system_id":"levelo_inurba_marseille","lat":43.313571,"lon":5.384829,"is_reserved":false,"is_disabled":false,"rental_uris":{"android":"levelo://app?vid=1482da37-5c52-4dd0-a378-cba730d67319","ios":"levelo://app?vid=1482da37-5c52-4dd0-a378-cba730d67319"},"vehicle_type_id":"4","last_reported":1703095742,"current_range_meters":22400,"station_id":"ce4bgt92rcd13ifvqcf0","pricing_plan_id":"free"},{"bike_id":"1db9b9d0-0db7-4263-8806-29dc522f1cf0","system_id":"levelo_inurba_marseille","lat":43.299222,"lon":5.365554,"is_reserved":false,"is_disabled":false,"rental_uris":{"android":"levelo://app?vid=1db9b9d0-0db7-4263-8806-29dc522f1cf0","ios":"levelo://app?vid=1db9b9d0-0db7-4263-8806-29dc522f1cf0"},"vehicle_type_id":"4","last_reported":1703095742,"current_range_meters":30000,"station_id":"ce4bgm92rcd13ifvqbr0","pricing_plan_id":"free"},{"bike_id":"59f78105-95b0-49b7-9ec6-adaeaf9784cb","system_id":"levelo_inurba_marseille","lat":43.311722,"lon":5.387247,"is_reserved":false,"is_disabled":false,"rental_uris":{"android":"levelo://app?vid=59f78105-95b0-49b7-9ec6-adaeaf9784cb","ios":"levelo://app?vid=59f78105-95b0-49b7-9ec6-adaeaf9784cb"},"vehicle_type_id":"4","last_reported":1703095742,"current_range_meters":9600,"station_id":"ce4bgv12rcd13ifvqcp0","pricing_plan_id":"free"},{"bike_id":"1b77dd70-b491-4da0-8f7e-06bdc7d43dbf","system_id":"levelo_inurba_marseille","lat":43.311722,"lon":5.387247,"is_reserved":false,"is_disabled":false,"rental_uris":{"android":"levelo://app?vid=1b77dd70-b491-4da0-8f7e-06bdc7d43dbf","ios":"levelo://app?vid=1b77dd70-b491-4da0-8f7e-06bdc7d43dbf"},"vehicle_type_id":"4","last_reported":1703095742,"current_range_meters":30000,"station_id":"ce4bgv12rcd13ifvqcp0","pricing_plan_id":"free"},{"bike_id":"66efcea4-b554-46e1-98b1-fd1e52adf883","system_id":"levelo_inurba_marseille","lat":43.297774,"lon":5.370875,"is_reserved":false,"is_disabled":false,"rental_uris":{"android":"levelo://app?vid=66efcea4-b554-46e1-98b1-fd1e52adf883","ios":"levelo://app?vid=66efcea4-b554-46e1-98b1-fd1e52adf883"},"vehicle_type_id":"4","last_reported":1703095742,"current_range_meters":24800,"station_id":"ce4bgop2rcd13ifvqc1g","pricing_plan_id":"free"},{"bike_id":"42b4ba70-a5af-457a-aa54-520550b3160d","system_id":"levelo_inurba_marseille","lat":43.297794,"lon":5.370888,"is_reserved":false,"is_disabled":false,"rental_uris":{"android":"levelo://app?vid=42b4ba70-a5af-457a-aa54-520550b3160d","ios":"levelo://app?vid=42b4ba70-a5af-457a-aa54-520550b3160d"},"vehicle_type_id":"4","last_reported":1703095742,"current_range_meters":23600,"station_id":"ce4bgop2rcd13ifvqc1g","pricing_plan_id":"free"},{"bike_id":"b8d2d249-a3a6-4543-b1c7-6b3650de13c5","system_id":"levelo_inurba_marseille","lat":43.322872,"lon":5.382756,"is_reserved":false,"is_disabled":false,"rental_uris":{"android":"levelo://app?vid=b8d2d249-a3a6-4543-b1c7-6b3650de13c5","ios":"levelo://app?vid=b8d2d249-a3a6-4543-b1c7-6b3650de13c5"},"vehicle_type_id":"4","last_reported":1703095742,"current_range_meters":31200,"station_id":"ce4bhr12rcd13ifvqhqg","pricing_plan_id":"free"},{"bike_id":"b209b91e-f95c-4c8a-b85c-6c83d55c8c8c","system_id":"levelo_inurba_marseille","lat":43.322872,"lon":5.382756,"is_reserved":false,"is_disabled":false,"rental_uris":{"android":"levelo://app?vid=b209b91e-f95c-4c8a-b85c-6c83d55c8c8c","ios":"levelo://app?vid=b209b91e-f95c-4c8a-b85c-6c83d55c8c8c"},"vehicle_type_id":"4","last_reported":1703095742,"current_range_meters":4400,"station_id":"ce4bhr12rcd13ifvqhqg","pricing_plan_id":"free"},{"bike_id":"c22e4b9f-ba20-4a7c-a7c8-fd0a73d903e0","system_id":"levelo_inurba_marseille","lat":43.328371,"lon":5.366909,"is_reserved":false,"is_disabled":false,"rental_uris":{"android":"levelo://app?vid=c22e4b9f-ba20-4a7c-a7c8-fd0a73d903e0","ios":"levelo://app?vid=c22e4b9f-ba20-4a7c-a7c8-fd0a73d903e0"},"vehicle_type_id":"4","last_reported":1703095742,"current_range_meters":22800,"station_id":"ce4bhs92rcd13ifvqi0g","pricing_plan_id":"free"},{"bike_id":"2a8a59a2-86cc-48a9-8714-ae0edcb4d489","system_id":"levelo_inurba_marseille","lat":43.328371,"lon":5.366909,"is_reserved":false,"is_disabled":false,"rental_uris":{"android":"levelo://app?vid=2a8a59a2-86cc-48a9-8714-ae0edcb4d489","ios":"levelo://app?vid=2a8a59a2-86cc-48a9-8714-ae0edcb4d489"},"vehicle_type_id":"4","last_reported":1703095742,"current_range_meters":1600,"station_id":"ce4bhs92rcd13ifvqi0g","pricing_plan_id":"free"},{"bike_id":"cd5520e1-9911-479e-b01d-84e4e120d603","system_id":"levelo_inurba_marseille","lat":43.328371,"lon":5.366909,"is_reserved":false,"is_disabled":false,"rental_uris":{"android":"levelo://app?vid=cd5520e1-9911-479e-b01d-84e4e120d603","ios":"levelo://app?vid=cd5520e1-9911-479e-b01d-84e4e120d603"},"vehicle_type_id":"4","last_reported":1703095742,"current_range_meters":16800,"station_id":"ce4bhs92rcd13ifvqi0g","pricing_plan_id":"free"},{"bike_id":"c12df297-168e-4ca3-95d9-a300ff1ffbd9","system_id":"levelo_inurba_marseille","lat":43.328371,"lon":5.366909,"is_reserved":false,"is_disabled":false,"rental_uris":{"android":"levelo://app?vid=c12df297-168e-4ca3-95d9-a300ff1ffbd9","ios":"levelo://app?vid=c12df297-168e-4ca3-95d9-a300ff1ffbd9"},"vehicle_type_id":"4","last_reported":1703095742,"current_range_meters":29200,"station_id":"ce4bhs92rcd13ifvqi0g","pricing_plan_id":"free"},{"bike_id":"cb97846c-9508-4ec4-82fd-1a637ef7dd90","system_id":"levelo_inurba_marseille","lat":43.328371,"lon":5.366909,"is_reserved":false,"is_disabled":false,"rental_uris":{"android":"levelo://app?vid=cb97846c-9508-4ec4-82fd-1a637ef7dd90","ios":"levelo://app?vid=cb97846c-9508-4ec4-82fd-1a637ef7dd90"},"vehicle_type_id":"4","last_reported":1703095742,"current_range_meters":0,"station_id":"ce4bhs92rcd13ifvqi0g","pricing_plan_id":"free"},{"bike_id":"f0fb333a-aba0-4fee-b784-47e38da3586e","system_id":"levelo_inurba_marseille","lat":43.328371,"lon":5.366909,"is_reserved":false,"is_disabled":false,"rental_uris":{"android":"levelo://app?vid=f0fb333a-aba0-4fee-b784-47e38da3586e","ios":"levelo://app?vid=f0fb333a-aba0-4fee-b784-47e38da3586e"},"vehicle_type_id":"4","last_reported":1703095742,"current_range_meters":23600,"station_id":"ce4bhs92rcd13ifvqi0g","pricing_plan_id":"free"},{"bike_id":"59581a9c-f177-4a96-aea6-b7baaa49a6a3","system_id":"levelo_inurba_marseille","lat":43.328371,"lon":5.366909,"is_reserved":false,"is_disabled":false,"rental_uris":{"android":"levelo://app?vid=59581a9c-f177-4a96-aea6-b7baaa49a6a3","ios":"levelo://app?vid=59581a9c-f177-4a96-aea6-b7baaa49a6a3"},"vehicle_type_id":"4","last_reported":1703095742,"current_range_meters":29200,"station_id":"ce4bhs92rcd13ifvqi0g","pricing_plan_id":"free"},{"bike_id":"eb8ebe7d-6983-4780-997c-9447c3c0c6e2","system_id":"levelo_inurba_marseille","lat":43.328371,"lon":5.366909,"is_reserved":false,"is_disabled":false,"rental_uris":{"android":"levelo://app?vid=eb8ebe7d-6983-4780-997c-9447c3c0c6e2","ios":"levelo://app?vid=eb8ebe7d-6983-4780-997c-9447c3c0c6e2"},"vehicle_type_id":"4","last_reported":1703095742,"current_range_meters":28000,"station_id":"ce4bhs92rcd13ifvqi0g","pricing_plan_id":"free"},{"bike_id":"bc81749c-97ac-487a-bc93-76443e598803","system_id":"levelo_inurba_marseille","lat":43.328371,"lon":5.366909,"is_reserved":false,"is_disabled":false,"rental_uris":{"android":"levelo://app?vid=bc81749c-97ac-487a-bc93-76443e598803","ios":"levelo://app?vid=bc81749c-97ac-487a-bc93-76443e598803"},"vehicle_type_id":"4","last_reported":1703095742,"current_range_meters":4400,"station_id":"ce4bhs92rcd13ifvqi0g","pricing_plan_id":"free"},{"bike_id":"e993829c-3df1-452b-b2e8-026467d7b973","system_id":"levelo_inurba_marseille","lat":43.297163,"lon":5.365866,"is_reserved":false,"is_disabled":false,"rental_uris":{"android":"levelo://app?vid=e993829c-3df1-452b-b2e8-026467d7b973","ios":"levelo://app?vid=e993829c-3df1-452b-b2e8-026467d7b973"},"vehicle_type_id":"4","last_reported":1703095742,"current_range_meters":13600,"station_id":"ce4bgn12rcd13ifvqbt0","pricing_plan_id":"free"},{"bike_id":"dbbe33b1-b8f1-4a26-9fec-10f4614c922c","system_id":"levelo_inurba_marseille","lat":43.297163,"lon":5.365866,"is_reserved":false,"is_disabled":false,"rental_uris":{"android":"levelo://app?vid=dbbe33b1-b8f1-4a26-9fec-10f4614c922c","ios":"levelo://app?vid=dbbe33b1-b8f1-4a26-9fec-10f4614c922c"},"vehicle_type_id":"4","last_reported":1703095742,"current_range_meters":23200,"station_id":"ce4bgn12rcd13ifvqbt0","pricing_plan_id":"free"},{"bike_id":"47d1b978-fc07-4a4f-b3f4-5eee57bd2618","system_id":"levelo_inurba_marseille","lat":43.297163,"lon":5.365866,"is_reserved":false,"is_disabled":false,"rental_uris":{"android":"levelo://app?vid=47d1b978-fc07-4a4f-b3f4-5eee57bd2618","ios":"levelo://app?vid=47d1b978-fc07-4a4f-b3f4-5eee57bd2618"},"vehicle_type_id":"4","last_reported":1703095742,"current_range_meters":7200,"station_id":"ce4bgn12rcd13ifvqbt0","pricing_plan_id":"free"},{"bike_id":"d82314ad-e7ab-4120-a3bc-0c0e4cb5eddc","system_id":"levelo_inurba_marseille","lat":43.297163,"lon":5.365866,"is_reserved":false,"is_disabled":false,"rental_uris":{"android":"levelo://app?vid=d82314ad-e7ab-4120-a3bc-0c0e4cb5eddc","ios":"levelo://app?vid=d82314ad-e7ab-4120-a3bc-0c0e4cb5eddc"},"vehicle_type_id":"4","last_reported":1703095742,"current_range_meters":4000,"station_id":"ce4bgn12rcd13ifvqbt0","pricing_plan_id":"free"},{"bike_id":"a4b945da-444a-4fae-980a-d9b23d1e5d82","system_id":"levelo_inurba_marseille","lat":43.297419,"lon":5.376483,"is_reserved":false,"is_disabled":false,"rental_uris":{"android":"levelo://app?vid=a4b945da-444a-4fae-980a-d9b23d1e5d82","ios":"levelo://app?vid=a4b945da-444a-4fae-980a-d9b23d1e5d82"},"vehicle_type_id":"4","last_reported":1703095742,"current_range_meters":17600,"station_id":"ce4bgkh2rcd13ifvqbl0","pricing_plan_id":"free"},{"bike_id":"1fd6c5ba-d4ce-4a74-86b1-e291748ee380","system_id":"levelo_inurba_marseille","lat":43.296129,"lon":5.370777,"is_reserved":false,"is_disabled":false,"rental_uris":{"android":"levelo://app?vid=1fd6c5ba-d4ce-4a74-86b1-e291748ee380","ios":"levelo://app?vid=1fd6c5ba-d4ce-4a74-86b1-e291748ee380"},"vehicle_type_id":"4","last_reported":1703095742,"current_range_meters":27600,"station_id":"ce4bgnh2rcd13ifvqc0g","pricing_plan_id":"free"},{"bike_id":"63f08e49-362b-40af-bb85-c6b6cebea5ee","system_id":"levelo_inurba_marseille","lat":43.309589,"lon":5.390258,"is_reserved":false,"is_disabled":false,"rental_uris":{"android":"levelo://app?vid=63f08e49-362b-40af-bb85-c6b6cebea5ee","ios":"levelo://app?vid=63f08e49-362b-40af-bb85-c6b6cebea5ee"},"vehicle_type_id":"4","last_reported":1703095742,"current_range_meters":3200,"station_id":"ce4bgup2rcd13ifvqco0","pricing_plan_id":"free"},{"bike_id":"0b302c3a-0edd-4d80-b6a2-0e41892114c5","system_id":"levelo_inurba_marseille","lat":43.317557,"lon":5.390173,"is_reserved":false,"is_disabled":false,"rental_uris":{"android":"levelo://app?vid=0b302c3a-0edd-4d80-b6a2-0e41892114c5","ios":"levelo://app?vid=0b302c3a-0edd-4d80-b6a2-0e41892114c5"},"vehicle_type_id":"4","last_reported":1703095742,"current_range_meters":8400,"station_id":"ce4bhqp2rcd13ifvqhng","pricing_plan_id":"free"},{"bike_id":"54370e98-7903-481c-a7dd-29c7052600c9","system_id":"levelo_inurba_marseille","lat":43.299707,"lon":5.384859,"is_reserved":false,"is_disabled":false,"rental_uris":{"android":"levelo://app?vid=54370e98-7903-481c-a7dd-29c7052600c9","ios":"levelo://app?vid=54370e98-7903-481c-a7dd-29c7052600c9"},"vehicle_type_id":"4","last_reported":1703095742,"current_range_meters":24400,"station_id":"ce4bgj92rcd13ifvqbd0","pricing_plan_id":"free"},{"bike_id":"1124a3bf-96d1-4970-8099-1d6e2de1af66","system_id":"levelo_inurba_marseille","lat":43.299707,"lon":5.384859,"is_reserved":false,"is_disabled":false,"rental_uris":{"android":"levelo://app?vid=1124a3bf-96d1-4970-8099-1d6e2de1af66","ios":"levelo://app?vid=1124a3bf-96d1-4970-8099-1d6e2de1af66"},"vehicle_type_id":"4","last_reported":1703095742,"current_range_meters":13200,"station_id":"ce4bgj92rcd13ifvqbd0","pricing_plan_id":"free"},{"bike_id":"4550f487-d586-45a0-b171-02ad6e0f3fdc","system_id":"levelo_inurba_marseille","lat":43.299707,"lon":5.384859,"is_reserved":false,"is_disabled":false,"rental_uris":{"android":"levelo://app?vid=4550f487-d586-45a0-b171-02ad6e0f3fdc","ios":"levelo://app?vid=4550f487-d586-45a0-b171-02ad6e0f3fdc"},"vehicle_type_id":"4","last_reported":1703095742,"current_range_meters":6000,"station_id":"ce4bgj92rcd13ifvqbd0","pricing_plan_id":"free"},{"bike_id":"1e1a8249-b7c9-47e1-a531-8b18f1af0717","system_id":"levelo_inurba_marseille","lat":43.299724,"lon":5.384848,"is_reserved":false,"is_disabled":false,"rental_uris":{"android":"levelo://app?vid=1e1a8249-b7c9-47e1-a531-8b18f1af0717","ios":"levelo://app?vid=1e1a8249-b7c9-47e1-a531-8b18f1af0717"},"vehicle_type_id":"4","last_reported":1703095742,"current_range_meters":16000,"station_id":"ce4bgj92rcd13ifvqbd0","pricing_plan_id":"free"},{"bike_id":"92a52b9e-9067-4dc6-a799-a225c33a3e3e","system_id":"levelo_inurba_marseille","lat":43.30055,"lon":5.38612,"is_reserved":false,"is_disabled":false,"rental_uris":{"android":"levelo://app?vid=92a52b9e-9067-4dc6-a799-a225c33a3e3e","ios":"levelo://app?vid=92a52b9e-9067-4dc6-a799-a225c33a3e3e"},"vehicle_type_id":"4","last_reported":1703095742,"current_range_meters":13200,"station_id":"","pricing_plan_id":"free"},{"bike_id":"849e0481-39e9-43e0-99b4-6350c00ea014","system_id":"levelo_inurba_marseille","lat":43.299717,"lon":5.384845,"is_reserved":false,"is_disabled":false,"rental_uris":{"android":"levelo://app?vid=849e0481-39e9-43e0-99b4-6350c00ea014","ios":"levelo://app?vid=849e0481-39e9-43e0-99b4-6350c00ea014"},"vehicle_type_id":"4","last_reported":1703095742,"current_range_meters":30000,"station_id":"ce4bgj92rcd13ifvqbd0","pricing_plan_id":"free"},{"bike_id":"18b830b4-248e-487b-add9-a2fc03605d09","system_id":"levelo_inurba_marseille","lat":43.32367,"lon":5.388836,"is_reserved":false,"is_disabled":false,"rental_uris":{"android":"levelo://app?vid=18b830b4-248e-487b-add9-a2fc03605d09","ios":"levelo://app?vid=18b830b4-248e-487b-add9-a2fc03605d09"},"vehicle_type_id":"4","last_reported":1703095742,"current_range_meters":6400,"station_id":"ce4bhqp2rcd13ifvqhog","pricing_plan_id":"free"},{"bike_id":"39a5a7f1-613e-4ce9-85dc-bf406e7675c4","system_id":"levelo_inurba_marseille","lat":43.32367,"lon":5.388836,"is_reserved":false,"is_disabled":false,"rental_uris":{"android":"levelo://app?vid=39a5a7f1-613e-4ce9-85dc-bf406e7675c4","ios":"levelo://app?vid=39a5a7f1-613e-4ce9-85dc-bf406e7675c4"},"vehicle_type_id":"4","last_reported":1703095742,"current_range_meters":3200,"station_id":"ce4bhqp2rcd13ifvqhog","pricing_plan_id":"free"},{"bike_id":"d89a6a0f-5ebb-492a-bb7f-450b4e71a42c","system_id":"levelo_inurba_marseille","lat":43.32367,"lon":5.388836,"is_reserved":false,"is_disabled":false,"rental_uris":{"android":"levelo://app?vid=d89a6a0f-5ebb-492a-bb7f-450b4e71a42c","ios":"levelo://app?vid=d89a6a0f-5ebb-492a-bb7f-450b4e71a42c"},"vehicle_type_id":"4","last_reported":1703095742,"current_range_meters":17200,"station_id":"ce4bhqp2rcd13ifvqhog","pricing_plan_id":"free"},{"bike_id":"67527d62-7adb-44f8-b1cd-7288b83769dc","system_id":"levelo_inurba_marseille","lat":43.29601,"lon":5.381084,"is_reserved":false,"is_disabled":false,"rental_uris":{"android":"levelo://app?vid=67527d62-7adb-44f8-b1cd-7288b83769dc","ios":"levelo://app?vid=67527d62-7adb-44f8-b1cd-7288b83769dc"},"vehicle_type_id":"4","last_reported":1703095742,"current_range_meters":15600,"station_id":"ce4bgl12rcd13ifvqbo0","pricing_plan_id":"free"},{"bike_id":"17b38bbf-dd7b-430f-9921-9095da6519dc","system_id":"levelo_inurba_marseille","lat":43.293009,"lon":5.374584,"is_reserved":false,"is_disabled":false,"rental_uris":{"android":"levelo://app?vid=17b38bbf-dd7b-430f-9921-9095da6519dc","ios":"levelo://app?vid=17b38bbf-dd7b-430f-9921-9095da6519dc"},"vehicle_type_id":"4","last_reported":1703095742,"current_range_meters":2000,"station_id":"ce4bgi12rcd13ifvqb70","pricing_plan_id":"free"},{"bike_id":"11c13d60-4638-49c4-9f45-5f0d5d9a18dd","system_id":"levelo_inurba_marseille","lat":43.302992,"lon":5.392136,"is_reserved":false,"is_disabled":false,"rental_uris":{"android":"levelo://app?vid=11c13d60-4638-49c4-9f45-5f0d5d9a18dd","ios":"levelo://app?vid=11c13d60-4638-49c4-9f45-5f0d5d9a18dd"},"vehicle_type_id":"4","last_reported":1703095742,"current_range_meters":20000,"station_id":"ce4bgkh2rcd13ifvqbk0","pricing_plan_id":"free"},{"bike_id":"2d6faa52-6016-4b9e-8d68-cfcebac515e4","system_id":"levelo_inurba_marseille","lat":43.303002,"lon":5.392142,"is_reserved":false,"is_disabled":false,"rental_uris":{"android":"levelo://app?vid=2d6faa52-6016-4b9e-8d68-cfcebac515e4","ios":"levelo://app?vid=2d6faa52-6016-4b9e-8d68-cfcebac515e4"},"vehicle_type_id":"4","last_reported":1703095742,"current_range_meters":19600,"station_id":"ce4bgkh2rcd13ifvqbk0","pricing_plan_id":"free"},{"bike_id":"7292012f-da9d-4ad7-9b4e-d7a0ddf2cd79","system_id":"levelo_inurba_marseille","lat":43.292311,"lon":5.360731,"is_reserved":false,"is_disabled":false,"rental_uris":{"android":"levelo://app?vid=7292012f-da9d-4ad7-9b4e-d7a0ddf2cd79","ios":"levelo://app?vid=7292012f-da9d-4ad7-9b4e-d7a0ddf2cd79"},"vehicle_type_id":"4","last_reported":1703095742,"current_range_meters":0,"station_id":"ce4bhbh2rcd13ifvqeqg","pricing_plan_id":"free"},{"bike_id":"67dbc710-e248-4701-92da-b94e6f063a32","system_id":"levelo_inurba_marseille","lat":43.32297,"lon":5.39239,"is_reserved":false,"is_disabled":false,"rental_uris":{"android":"levelo://app?vid=67dbc710-e248-4701-92da-b94e6f063a32","ios":"levelo://app?vid=67dbc710-e248-4701-92da-b94e6f063a32"},"vehicle_type_id":"4","last_reported":1703095742,"current_range_meters":3200,"station_id":"","pricing_plan_id":"free"},{"bike_id":"d334c886-b6e8-48a8-b49b-94a4bc9d2b2e","system_id":"levelo_inurba_marseille","lat":43.29265,"lon":5.376154,"is_reserved":false,"is_disabled":false,"rental_uris":{"android":"levelo://app?vid=d334c886-b6e8-48a8-b49b-94a4bc9d2b2e","ios":"levelo://app?vid=d334c886-b6e8-48a8-b49b-94a4bc9d2b2e"},"vehicle_type_id":"4","last_reported":1703095742,"current_range_meters":28800,"station_id":"","pricing_plan_id":"free"},{"bike_id":"e5eca80e-f16a-41ee-b5ac-f2f5e49f023b","system_id":"levelo_inurba_marseille","lat":43.29875,"lon":5.38895,"is_reserved":false,"is_disabled":false,"rental_uris":{"android":"levelo://app?vid=e5eca80e-f16a-41ee-b5ac-f2f5e49f023b","ios":"levelo://app?vid=e5eca80e-f16a-41ee-b5ac-f2f5e49f023b"},"vehicle_type_id":"4","last_reported":1703095742,"current_range_meters":17600,"station_id":"","pricing_plan_id":"free"},{"bike_id":"70023105-34d6-40be-9c2a-77d0ba3b9dd6","system_id":"levelo_inurba_marseille","lat":43.291675,"lon":5.371583,"is_reserved":false,"is_disabled":false,"rental_uris":{"android":"levelo://app?vid=70023105-34d6-40be-9c2a-77d0ba3b9dd6","ios":"levelo://app?vid=70023105-34d6-40be-9c2a-77d0ba3b9dd6"},"vehicle_type_id":"4","last_reported":1703095742,"current_range_meters":0,"station_id":"ce4bha92rcd13ifvqeh0","pricing_plan_id":"free"},{"bike_id":"d80aacb1-1de2-4c97-bfa7-d79fbffbe39f","system_id":"levelo_inurba_marseille","lat":43.29872,"lon":5.38896,"is_reserved":false,"is_disabled":false,"rental_uris":{"android":"levelo://app?vid=d80aacb1-1de2-4c97-bfa7-d79fbffbe39f","ios":"levelo://app?vid=d80aacb1-1de2-4c97-bfa7-d79fbffbe39f"},"vehicle_type_id":"4","last_reported":1703095742,"current_range_meters":16800,"station_id":"","pricing_plan_id":"free"},{"bike_id":"df478808-8bcb-44d9-b175-88738a5453c3","system_id":"levelo_inurba_marseille","lat":43.29876,"lon":5.38903,"is_reserved":false,"is_disabled":false,"rental_uris":{"android":"levelo://app?vid=df478808-8bcb-44d9-b175-88738a5453c3","ios":"levelo://app?vid=df478808-8bcb-44d9-b175-88738a5453c3"},"vehicle_type_id":"4","last_reported":1703095742,"current_range_meters":0,"station_id":"","pricing_plan_id":"free"},{"bike_id":"c12cde7d-f766-470c-a2d4-b50eac66e6ef","system_id":"levelo_inurba_marseille","lat":43.291671,"lon":5.371575,"is_reserved":false,"is_disabled":false,"rental_uris":{"android":"levelo://app?vid=c12cde7d-f766-470c-a2d4-b50eac66e6ef","ios":"levelo://app?vid=c12cde7d-f766-470c-a2d4-b50eac66e6ef"},"vehicle_type_id":"4","last_reported":1703095742,"current_range_meters":18400,"station_id":"ce4bha92rcd13ifvqeh0","pricing_plan_id":"free"},{"bike_id":"b318b2b9-02a7-41a6-b127-404f127a4921","system_id":"levelo_inurba_marseille","lat":43.291675,"lon":5.371583,"is_reserved":false,"is_disabled":false,"rental_uris":{"android":"levelo://app?vid=b318b2b9-02a7-41a6-b127-404f127a4921","ios":"levelo://app?vid=b318b2b9-02a7-41a6-b127-404f127a4921"},"vehicle_type_id":"4","last_reported":1703095742,"current_range_meters":14800,"station_id":"ce4bha92rcd13ifvqeh0","pricing_plan_id":"free"},{"bike_id":"9691e3e8-7c6a-47de-8f1d-10fce46a396a","system_id":"levelo_inurba_marseille","lat":43.291994,"lon":5.357886,"is_reserved":false,"is_disabled":false,"rental_uris":{"android":"levelo://app?vid=9691e3e8-7c6a-47de-8f1d-10fce46a396a","ios":"levelo://app?vid=9691e3e8-7c6a-47de-8f1d-10fce46a396a"},"vehicle_type_id":"4","last_reported":1703095742,"current_range_meters":20400,"station_id":"ce4bhb12rcd13ifvqel0","pricing_plan_id":"free"},{"bike_id":"b4d180a3-e15e-483f-a526-f89d0c81497b","system_id":"levelo_inurba_marseille","lat":43.325243,"lon":5.414326,"is_reserved":false,"is_disabled":false,"rental_uris":{"android":"levelo://app?vid=b4d180a3-e15e-483f-a526-f89d0c81497b","ios":"levelo://app?vid=b4d180a3-e15e-483f-a526-f89d0c81497b"},"vehicle_type_id":"4","last_reported":1703095742,"current_range_meters":11600,"station_id":"ce4bhq12rcd13ifvqhhg","pricing_plan_id":"free"},{"bike_id":"2b7d92fb-a275-4c79-b06d-20ae4470ba42","system_id":"levelo_inurba_marseille","lat":43.3133,"lon":5.39684,"is_reserved":false,"is_disabled":false,"rental_uris":{"android":"levelo://app?vid=2b7d92fb-a275-4c79-b06d-20ae4470ba42","ios":"levelo://app?vid=2b7d92fb-a275-4c79-b06d-20ae4470ba42"},"vehicle_type_id":"4","last_reported":1703095742,"current_range_meters":28800,"station_id":"ce4bgvp2rcd13ifvqcu0","pricing_plan_id":"free"},{"bike_id":"51d61e1e-d320-4568-a79c-5ebaf77871a3","system_id":"levelo_inurba_marseille","lat":43.309047,"lon":5.396551,"is_reserved":false,"is_disabled":false,"rental_uris":{"android":"levelo://app?vid=51d61e1e-d320-4568-a79c-5ebaf77871a3","ios":"levelo://app?vid=51d61e1e-d320-4568-a79c-5ebaf77871a3"},"vehicle_type_id":"4","last_reported":1703095742,"current_range_meters":13200,"station_id":"ce4bh012rcd13ifvqcv0","pricing_plan_id":"free"},{"bike_id":"c6c7962d-bff1-4f9c-8dbb-02771210adb1","system_id":"levelo_inurba_marseille","lat":43.300073,"lon":5.391425,"is_reserved":false,"is_disabled":false,"rental_uris":{"android":"levelo://app?vid=c6c7962d-bff1-4f9c-8dbb-02771210adb1","ios":"levelo://app?vid=c6c7962d-bff1-4f9c-8dbb-02771210adb1"},"vehicle_type_id":"4","last_reported":1703095742,"current_range_meters":5200,"station_id":"","pricing_plan_id":"free"},{"bike_id":"0fc0c073-39b9-4406-a3b2-86b160a34a0a","system_id":"levelo_inurba_marseille","lat":43.29529,"lon":5.385581,"is_reserved":false,"is_disabled":false,"rental_uris":{"android":"levelo://app?vid=0fc0c073-39b9-4406-a3b2-86b160a34a0a","ios":"levelo://app?vid=0fc0c073-39b9-4406-a3b2-86b160a34a0a"},"vehicle_type_id":"4","last_reported":1703095742,"current_range_meters":1600,"station_id":"ce4bgih2rcd13ifvqba0","pricing_plan_id":"free"},{"bike_id":"b2f35888-dc99-4f33-9987-fe12e27e4e36","system_id":"levelo_inurba_marseille","lat":43.290779,"lon":5.371482,"is_reserved":false,"is_disabled":false,"rental_uris":{"android":"levelo://app?vid=b2f35888-dc99-4f33-9987-fe12e27e4e36","ios":"levelo://app?vid=b2f35888-dc99-4f33-9987-fe12e27e4e36"},"vehicle_type_id":"4","last_reported":1703095742,"current_range_meters":11200,"station_id":"ce4bh5p2rcd13ifvqe4g","pricing_plan_id":"free"},{"bike_id":"3063efe7-d0f6-431f-9178-f099c32add42","system_id":"levelo_inurba_marseille","lat":43.290779,"lon":5.371482,"is_reserved":false,"is_disabled":false,"rental_uris":{"android":"levelo://app?vid=3063efe7-d0f6-431f-9178-f099c32add42","ios":"levelo://app?vid=3063efe7-d0f6-431f-9178-f099c32add42"},"vehicle_type_id":"4","last_reported":1703095742,"current_range_meters":17200,"station_id":"ce4bh5p2rcd13ifvqe4g","pricing_plan_id":"free"},{"bike_id":"e0ece858-1d70-4955-b576-440d64cf99d5","system_id":"levelo_inurba_marseille","lat":43.290779,"lon":5.371482,"is_reserved":false,"is_disabled":false,"rental_uris":{"android":"levelo://app?vid=e0ece858-1d70-4955-b576-440d64cf99d5","ios":"levelo://app?vid=e0ece858-1d70-4955-b576-440d64cf99d5"},"vehicle_type_id":"4","last_reported":1703095742,"current_range_meters":22800,"station_id":"ce4bh5p2rcd13ifvqe4g","pricing_plan_id":"free"},{"bike_id":"736be525-6e70-4af4-9106-598f786796a3","system_id":"levelo_inurba_marseille","lat":43.294153,"lon":5.386305,"is_reserved":false,"is_disabled":false,"rental_uris":{"android":"levelo://app?vid=736be525-6e70-4af4-9106-598f786796a3","ios":"levelo://app?vid=736be525-6e70-4af4-9106-598f786796a3"},"vehicle_type_id":"4","last_reported":1703095742,"current_range_meters":17600,"station_id":"ce4bh2h2rcd13ifvqdh0","pricing_plan_id":"free"},{"bike_id":"8c09a9f5-3c7d-4a8d-a29a-bfbf7b9b3333","system_id":"levelo_inurba_marseille","lat":43.294162,"lon":5.386292,"is_reserved":false,"is_disabled":false,"rental_uris":{"android":"levelo://app?vid=8c09a9f5-3c7d-4a8d-a29a-bfbf7b9b3333","ios":"levelo://app?vid=8c09a9f5-3c7d-4a8d-a29a-bfbf7b9b3333"},"vehicle_type_id":"4","last_reported":1703095742,"current_range_meters":28800,"station_id":"ce4bh2h2rcd13ifvqdh0","pricing_plan_id":"free"},{"bike_id":"259b6592-9e63-48e3-8b7c-e054ace04796","system_id":"levelo_inurba_marseille","lat":43.294162,"lon":5.386292,"is_reserved":false,"is_disabled":false,"rental_uris":{"android":"levelo://app?vid=259b6592-9e63-48e3-8b7c-e054ace04796","ios":"levelo://app?vid=259b6592-9e63-48e3-8b7c-e054ace04796"},"vehicle_type_id":"4","last_reported":1703095742,"current_range_meters":16400,"station_id":"ce4bh2h2rcd13ifvqdh0","pricing_plan_id":"free"},{"bike_id":"ff70859f-32fa-478e-b2c4-55517ec6c093","system_id":"levelo_inurba_marseille","lat":43.289468,"lon":5.363719,"is_reserved":false,"is_disabled":false,"rental_uris":{"android":"levelo://app?vid=ff70859f-32fa-478e-b2c4-55517ec6c093","ios":"levelo://app?vid=ff70859f-32fa-478e-b2c4-55517ec6c093"},"vehicle_type_id":"4","last_reported":1703095742,"current_range_meters":28400,"station_id":"ce4bhc92rcd13ifvqetg","pricing_plan_id":"free"},{"bike_id":"0268add6-93d3-421a-8b03-8daf19ea58ec","system_id":"levelo_inurba_marseille","lat":43.289184,"lon":5.366408,"is_reserved":false,"is_disabled":false,"rental_uris":{"android":"levelo://app?vid=0268add6-93d3-421a-8b03-8daf19ea58ec","ios":"levelo://app?vid=0268add6-93d3-421a-8b03-8daf19ea58ec"},"vehicle_type_id":"4","last_reported":1703095742,"current_range_meters":12800,"station_id":"ce4bhap2rcd13ifvqek0","pricing_plan_id":"free"},{"bike_id":"42a70c7c-43cb-4b8b-9f58-6708e40f43d4","system_id":"levelo_inurba_marseille","lat":43.289468,"lon":5.363719,"is_reserved":false,"is_disabled":false,"rental_uris":{"android":"levelo://app?vid=42a70c7c-43cb-4b8b-9f58-6708e40f43d4","ios":"levelo://app?vid=42a70c7c-43cb-4b8b-9f58-6708e40f43d4"},"vehicle_type_id":"4","last_reported":1703095742,"current_range_meters":26000,"station_id":"ce4bhc92rcd13ifvqetg","pricing_plan_id":"free"},{"bike_id":"b010feb0-b0b5-43e1-a9d0-3f8d1c25d648","system_id":"levelo_inurba_marseille","lat":43.292644,"lon":5.384257,"is_reserved":false,"is_disabled":false,"rental_uris":{"android":"levelo://app?vid=b010feb0-b0b5-43e1-a9d0-3f8d1c25d648","ios":"levelo://app?vid=b010feb0-b0b5-43e1-a9d0-3f8d1c25d648"},"vehicle_type_id":"4","last_reported":1703095742,"current_range_meters":7200,"station_id":"ce4bh692rcd13ifvqea0","pricing_plan_id":"free"},{"bike_id":"6b6e146a-f990-4796-8779-c1b673ab54b1","system_id":"levelo_inurba_marseille","lat":43.292642,"lon":5.384254,"is_reserved":false,"is_disabled":false,"rental_uris":{"android":"levelo://app?vid=6b6e146a-f990-4796-8779-c1b673ab54b1","ios":"levelo://app?vid=6b6e146a-f990-4796-8779-c1b673ab54b1"},"vehicle_type_id":"4","last_reported":1703095742,"current_range_meters":10800,"station_id":"ce4bh692rcd13ifvqea0","pricing_plan_id":"free"},{"bike_id":"a443caa4-fbb4-4141-a6fa-faf2d355fe83","system_id":"levelo_inurba_marseille","lat":43.292642,"lon":5.384254,"is_reserved":false,"is_disabled":false,"rental_uris":{"android":"levelo://app?vid=a443caa4-fbb4-4141-a6fa-faf2d355fe83","ios":"levelo://app?vid=a443caa4-fbb4-4141-a6fa-faf2d355fe83"},"vehicle_type_id":"4","last_reported":1703095742,"current_range_meters":4000,"station_id":"ce4bh692rcd13ifvqea0","pricing_plan_id":"free"},{"bike_id":"928a882c-0b5e-459e-8be7-d497620f57db","system_id":"levelo_inurba_marseille","lat":43.304296,"lon":5.397513,"is_reserved":false,"is_disabled":false,"rental_uris":{"android":"levelo://app?vid=928a882c-0b5e-459e-8be7-d497620f57db","ios":"levelo://app?vid=928a882c-0b5e-459e-8be7-d497620f57db"},"vehicle_type_id":"4","last_reported":1703095742,"current_range_meters":5600,"station_id":"ce4bh092rcd13ifvqd20","pricing_plan_id":"free"},{"bike_id":"34c65641-4bc1-4197-b217-a76243cd6c9c","system_id":"levelo_inurba_marseille","lat":43.33042,"lon":5.3892,"is_reserved":false,"is_disabled":false,"rental_uris":{"android":"levelo://app?vid=34c65641-4bc1-4197-b217-a76243cd6c9c","ios":"levelo://app?vid=34c65641-4bc1-4197-b217-a76243cd6c9c"},"vehicle_type_id":"4","last_reported":1703095742,"current_range_meters":23200,"station_id":"ce4bhr92rcd13ifvqhrg","pricing_plan_id":"free"},{"bike_id":"39e98c13-8bf5-4359-b4b2-7b9441a1d969","system_id":"levelo_inurba_marseille","lat":43.330442,"lon":5.389148,"is_reserved":false,"is_disabled":false,"rental_uris":{"android":"levelo://app?vid=39e98c13-8bf5-4359-b4b2-7b9441a1d969","ios":"levelo://app?vid=39e98c13-8bf5-4359-b4b2-7b9441a1d969"},"vehicle_type_id":"4","last_reported":1703095742,"current_range_meters":24800,"station_id":"ce4bhr92rcd13ifvqhrg","pricing_plan_id":"free"},{"bike_id":"03792874-86d9-468e-be10-3c6851108053","system_id":"levelo_inurba_marseille","lat":43.33041,"lon":5.38924,"is_reserved":false,"is_disabled":false,"rental_uris":{"android":"levelo://app?vid=03792874-86d9-468e-be10-3c6851108053","ios":"levelo://app?vid=03792874-86d9-468e-be10-3c6851108053"},"vehicle_type_id":"4","last_reported":1703095742,"current_range_meters":17600,"station_id":"ce4bhr92rcd13ifvqhrg","pricing_plan_id":"free"},{"bike_id":"a44c4c9a-083e-42e6-8e6d-8958a860af21","system_id":"levelo_inurba_marseille","lat":43.33042,"lon":5.38925,"is_reserved":false,"is_disabled":false,"rental_uris":{"android":"levelo://app?vid=a44c4c9a-083e-42e6-8e6d-8958a860af21","ios":"levelo://app?vid=a44c4c9a-083e-42e6-8e6d-8958a860af21"},"vehicle_type_id":"4","last_reported":1703095742,"current_range_meters":18800,"station_id":"ce4bhr92rcd13ifvqhrg","pricing_plan_id":"free"},{"bike_id":"f623c14e-84b0-4b7e-8604-cdb0ce9ad07f","system_id":"levelo_inurba_marseille","lat":43.290103,"lon":5.356114,"is_reserved":false,"is_disabled":false,"rental_uris":{"android":"levelo://app?vid=f623c14e-84b0-4b7e-8604-cdb0ce9ad07f","ios":"levelo://app?vid=f623c14e-84b0-4b7e-8604-cdb0ce9ad07f"},"vehicle_type_id":"4","last_reported":1703095742,"current_range_meters":5600,"station_id":"ce4bhb92rcd13ifvqen0","pricing_plan_id":"free"},{"bike_id":"90536312-f14b-4c7d-9b1a-bee06a58535e","system_id":"levelo_inurba_marseille","lat":43.290103,"lon":5.356114,"is_reserved":false,"is_disabled":false,"rental_uris":{"android":"levelo://app?vid=90536312-f14b-4c7d-9b1a-bee06a58535e","ios":"levelo://app?vid=90536312-f14b-4c7d-9b1a-bee06a58535e"},"vehicle_type_id":"4","last_reported":1703095742,"current_range_meters":31200,"station_id":"ce4bhb92rcd13ifvqen0","pricing_plan_id":"free"},{"bike_id":"e7aea416-932e-453f-a0d5-191844a25e41","system_id":"levelo_inurba_marseille","lat":43.29086,"lon":5.38141,"is_reserved":false,"is_disabled":false,"rental_uris":{"android":"levelo://app?vid=e7aea416-932e-453f-a0d5-191844a25e41","ios":"levelo://app?vid=e7aea416-932e-453f-a0d5-191844a25e41"},"vehicle_type_id":"4","last_reported":1703095742,"current_range_meters":10800,"station_id":"ce4bh512rcd13ifvqe2g","pricing_plan_id":"free"},{"bike_id":"48cfb840-a8b4-4b0b-a700-f2ef7ef1f86c","system_id":"levelo_inurba_marseille","lat":43.297815,"lon":5.393548,"is_reserved":false,"is_disabled":false,"rental_uris":{"android":"levelo://app?vid=48cfb840-a8b4-4b0b-a700-f2ef7ef1f86c","ios":"levelo://app?vid=48cfb840-a8b4-4b0b-a700-f2ef7ef1f86c"},"vehicle_type_id":"4","last_reported":1703095742,"current_range_meters":24000,"station_id":"chh1huq6cuj3fo74tm60","pricing_plan_id":"free"},{"bike_id":"73bc527e-3df7-4a0e-949f-24a4920ca289","system_id":"levelo_inurba_marseille","lat":43.29788,"lon":5.39344,"is_reserved":false,"is_disabled":false,"rental_uris":{"android":"levelo://app?vid=73bc527e-3df7-4a0e-949f-24a4920ca289","ios":"levelo://app?vid=73bc527e-3df7-4a0e-949f-24a4920ca289"},"vehicle_type_id":"4","last_reported":1703095742,"current_range_meters":15600,"station_id":"chh1huq6cuj3fo74tm60","pricing_plan_id":"free"},{"bike_id":"8e648802-fdf8-47f4-beeb-6da7c7b6223f","system_id":"levelo_inurba_marseille","lat":43.29789,"lon":5.39347,"is_reserved":false,"is_disabled":false,"rental_uris":{"android":"levelo://app?vid=8e648802-fdf8-47f4-beeb-6da7c7b6223f","ios":"levelo://app?vid=8e648802-fdf8-47f4-beeb-6da7c7b6223f"},"vehicle_type_id":"4","last_reported":1703095742,"current_range_meters":11200,"station_id":"chh1huq6cuj3fo74tm60","pricing_plan_id":"free"},{"bike_id":"58272020-b9b8-4ee6-8998-b7b5811459c3","system_id":"levelo_inurba_marseille","lat":43.2901,"lon":5.381269,"is_reserved":false,"is_disabled":false,"rental_uris":{"android":"levelo://app?vid=58272020-b9b8-4ee6-8998-b7b5811459c3","ios":"levelo://app?vid=58272020-b9b8-4ee6-8998-b7b5811459c3"},"vehicle_type_id":"4","last_reported":1703095742,"current_range_meters":5600,"station_id":"ce4bh4p2rcd13ifvqe1g","pricing_plan_id":"free"},{"bike_id":"2dbe9750-90e5-48ee-9698-48439bc33329","system_id":"levelo_inurba_marseille","lat":43.2901,"lon":5.381269,"is_reserved":false,"is_disabled":false,"rental_uris":{"android":"levelo://app?vid=2dbe9750-90e5-48ee-9698-48439bc33329","ios":"levelo://app?vid=2dbe9750-90e5-48ee-9698-48439bc33329"},"vehicle_type_id":"4","last_reported":1703095742,"current_range_meters":12800,"station_id":"ce4bh4p2rcd13ifvqe1g","pricing_plan_id":"free"},{"bike_id":"ecfe1b3e-c018-476b-9099-c63ba71c732f","system_id":"levelo_inurba_marseille","lat":43.28856,"lon":5.358371,"is_reserved":false,"is_disabled":false,"rental_uris":{"android":"levelo://app?vid=ecfe1b3e-c018-476b-9099-c63ba71c732f","ios":"levelo://app?vid=ecfe1b3e-c018-476b-9099-c63ba71c732f"},"vehicle_type_id":"4","last_reported":1703095742,"current_range_meters":12000,"station_id":"ce4bhb12rcd13ifvqem0","pricing_plan_id":"free"},{"bike_id":"b983c674-82f2-4ef8-b333-10792f9511b1","system_id":"levelo_inurba_marseille","lat":43.290094,"lon":5.381264,"is_reserved":false,"is_disabled":false,"rental_uris":{"android":"levelo://app?vid=b983c674-82f2-4ef8-b333-10792f9511b1","ios":"levelo://app?vid=b983c674-82f2-4ef8-b333-10792f9511b1"},"vehicle_type_id":"4","last_reported":1703095742,"current_range_meters":3200,"station_id":"ce4bh4p2rcd13ifvqe1g","pricing_plan_id":"free"},{"bike_id":"22368dc9-8aba-46d7-8e95-31c17019d674","system_id":"levelo_inurba_marseille","lat":43.28848,"lon":5.35852,"is_reserved":false,"is_disabled":false,"rental_uris":{"android":"levelo://app?vid=22368dc9-8aba-46d7-8e95-31c17019d674","ios":"levelo://app?vid=22368dc9-8aba-46d7-8e95-31c17019d674"},"vehicle_type_id":"4","last_reported":1703095742,"current_range_meters":0,"station_id":"ce4bhb12rcd13ifvqem0","pricing_plan_id":"free"},{"bike_id":"85a87a12-1154-4629-bb3c-1f7d589e7667","system_id":"levelo_inurba_marseille","lat":43.28848,"lon":5.35846,"is_reserved":false,"is_disabled":false,"rental_uris":{"android":"levelo://app?vid=85a87a12-1154-4629-bb3c-1f7d589e7667","ios":"levelo://app?vid=85a87a12-1154-4629-bb3c-1f7d589e7667"},"vehicle_type_id":"4","last_reported":1703095742,"current_range_meters":0,"station_id":"ce4bhb12rcd13ifvqem0","pricing_plan_id":"free"},{"bike_id":"783d1150-fe75-4d2f-adae-954941e05e4c","system_id":"levelo_inurba_marseille","lat":43.308557,"lon":5.401059,"is_reserved":false,"is_disabled":false,"rental_uris":{"android":"levelo://app?vid=783d1150-fe75-4d2f-adae-954941e05e4c","ios":"levelo://app?vid=783d1150-fe75-4d2f-adae-954941e05e4c"},"vehicle_type_id":"4","last_reported":1703095742,"current_range_meters":11200,"station_id":"","pricing_plan_id":"free"},{"bike_id":"efc8b483-666b-48da-afa0-0447382868fd","system_id":"levelo_inurba_marseille","lat":43.337448,"lon":5.374743,"is_reserved":false,"is_disabled":false,"rental_uris":{"android":"levelo://app?vid=efc8b483-666b-48da-afa0-0447382868fd","ios":"levelo://app?vid=efc8b483-666b-48da-afa0-0447382868fd"},"vehicle_type_id":"4","last_reported":1703095742,"current_range_meters":26400,"station_id":"","pricing_plan_id":"free"},{"bike_id":"fd4e7f60-d5f5-47e2-a4e2-0283faae9197","system_id":"levelo_inurba_marseille","lat":43.33752,"lon":5.37465,"is_reserved":false,"is_disabled":false,"rental_uris":{"android":"levelo://app?vid=fd4e7f60-d5f5-47e2-a4e2-0283faae9197","ios":"levelo://app?vid=fd4e7f60-d5f5-47e2-a4e2-0283faae9197"},"vehicle_type_id":"4","last_reported":1703095742,"current_range_meters":26000,"station_id":"","pricing_plan_id":"free"},{"bike_id":"db49a4ad-1c5d-4835-bfb3-97267bb6900f","system_id":"levelo_inurba_marseille","lat":43.306412,"lon":5.401035,"is_reserved":false,"is_disabled":false,"rental_uris":{"android":"levelo://app?vid=db49a4ad-1c5d-4835-bfb3-97267bb6900f","ios":"levelo://app?vid=db49a4ad-1c5d-4835-bfb3-97267bb6900f"},"vehicle_type_id":"4","last_reported":1703095742,"current_range_meters":3200,"station_id":"ce4bh112rcd13ifvqda0","pricing_plan_id":"free"},{"bike_id":"2cd9c4d8-1627-4c60-9032-13a6b96799f7","system_id":"levelo_inurba_marseille","lat":43.306412,"lon":5.401035,"is_reserved":false,"is_disabled":false,"rental_uris":{"android":"levelo://app?vid=2cd9c4d8-1627-4c60-9032-13a6b96799f7","ios":"levelo://app?vid=2cd9c4d8-1627-4c60-9032-13a6b96799f7"},"vehicle_type_id":"4","last_reported":1703095742,"current_range_meters":0,"station_id":"ce4bh112rcd13ifvqda0","pricing_plan_id":"free"},{"bike_id":"1acabeb8-867b-4e35-b84e-da7e08af8b45","system_id":"levelo_inurba_marseille","lat":43.306502,"lon":5.401011,"is_reserved":false,"is_disabled":false,"rental_uris":{"android":"levelo://app?vid=1acabeb8-867b-4e35-b84e-da7e08af8b45","ios":"levelo://app?vid=1acabeb8-867b-4e35-b84e-da7e08af8b45"},"vehicle_type_id":"4","last_reported":1703095742,"current_range_meters":28000,"station_id":"","pricing_plan_id":"free"},{"bike_id":"a9518b23-6559-4bd7-8e36-71edba51af59","system_id":"levelo_inurba_marseille","lat":43.30132,"lon":5.39858,"is_reserved":false,"is_disabled":false,"rental_uris":{"android":"levelo://app?vid=a9518b23-6559-4bd7-8e36-71edba51af59","ios":"levelo://app?vid=a9518b23-6559-4bd7-8e36-71edba51af59"},"vehicle_type_id":"4","last_reported":1703095742,"current_range_meters":16000,"station_id":"ce4bh0h2rcd13ifvqd40","pricing_plan_id":"free"},{"bike_id":"9ea85c1b-7ef7-47b9-995f-be7b24802afd","system_id":"levelo_inurba_marseille","lat":43.301117,"lon":5.398795,"is_reserved":false,"is_disabled":false,"rental_uris":{"android":"levelo://app?vid=9ea85c1b-7ef7-47b9-995f-be7b24802afd","ios":"levelo://app?vid=9ea85c1b-7ef7-47b9-995f-be7b24802afd"},"vehicle_type_id":"4","last_reported":1703095742,"current_range_meters":22400,"station_id":"ce4bh0h2rcd13ifvqd40","pricing_plan_id":"free"},{"bike_id":"49cd9255-05a6-472c-b1a4-a0d4ff1e81c9","system_id":"levelo_inurba_marseille","lat":43.28727,"lon":5.36078,"is_reserved":false,"is_disabled":false,"rental_uris":{"android":"levelo://app?vid=49cd9255-05a6-472c-b1a4-a0d4ff1e81c9","ios":"levelo://app?vid=49cd9255-05a6-472c-b1a4-a0d4ff1e81c9"},"vehicle_type_id":"4","last_reported":1703095742,"current_range_meters":8800,"station_id":"cki0cbj6b192h4jlfktg","pricing_plan_id":"free"},{"bike_id":"ab37d050-bbf0-4d4d-99a7-9871fcc0e748","system_id":"levelo_inurba_marseille","lat":43.30135,"lon":5.39874,"is_reserved":false,"is_disabled":false,"rental_uris":{"android":"levelo://app?vid=ab37d050-bbf0-4d4d-99a7-9871fcc0e748","ios":"levelo://app?vid=ab37d050-bbf0-4d4d-99a7-9871fcc0e748"},"vehicle_type_id":"4","last_reported":1703095742,"current_range_meters":5600,"station_id":"ce4bh0h2rcd13ifvqd40","pricing_plan_id":"free"},{"bike_id":"b44d00f5-284f-45ea-8d94-d8f22c00560e","system_id":"levelo_inurba_marseille","lat":43.28727,"lon":5.36078,"is_reserved":false,"is_disabled":false,"rental_uris":{"android":"levelo://app?vid=b44d00f5-284f-45ea-8d94-d8f22c00560e","ios":"levelo://app?vid=b44d00f5-284f-45ea-8d94-d8f22c00560e"},"vehicle_type_id":"4","last_reported":1703095742,"current_range_meters":11200,"station_id":"cki0cbj6b192h4jlfktg","pricing_plan_id":"free"},{"bike_id":"fe5566a0-dbed-4fca-b9fe-fd3c0b30dbca","system_id":"levelo_inurba_marseille","lat":43.30121,"lon":5.39876,"is_reserved":false,"is_disabled":false,"rental_uris":{"android":"levelo://app?vid=fe5566a0-dbed-4fca-b9fe-fd3c0b30dbca","ios":"levelo://app?vid=fe5566a0-dbed-4fca-b9fe-fd3c0b30dbca"},"vehicle_type_id":"4","last_reported":1703095742,"current_range_meters":19600,"station_id":"ce4bh0h2rcd13ifvqd40","pricing_plan_id":"free"},{"bike_id":"725807ea-fd4f-40b2-91c6-184f3b9e9323","system_id":"levelo_inurba_marseille","lat":43.298681,"lon":5.397225,"is_reserved":false,"is_disabled":false,"rental_uris":{"android":"levelo://app?vid=725807ea-fd4f-40b2-91c6-184f3b9e9323","ios":"levelo://app?vid=725807ea-fd4f-40b2-91c6-184f3b9e9323"},"vehicle_type_id":"4","last_reported":1703095742,"current_range_meters":5200,"station_id":"ce4bh0h2rcd13ifvqd50","pricing_plan_id":"free"},{"bike_id":"d05e487b-334e-461f-886f-c8c49fdd94bd","system_id":"levelo_inurba_marseille","lat":43.298681,"lon":5.397225,"is_reserved":false,"is_disabled":false,"rental_uris":{"android":"levelo://app?vid=d05e487b-334e-461f-886f-c8c49fdd94bd","ios":"levelo://app?vid=d05e487b-334e-461f-886f-c8c49fdd94bd"},"vehicle_type_id":"4","last_reported":1703095742,"current_range_meters":27200,"station_id":"ce4bh0h2rcd13ifvqd50","pricing_plan_id":"free"},{"bike_id":"4ff5873f-ae0a-4131-8e76-8cc1e4bf2479","system_id":"levelo_inurba_marseille","lat":43.29883,"lon":5.39748,"is_reserved":false,"is_disabled":false,"rental_uris":{"android":"levelo://app?vid=4ff5873f-ae0a-4131-8e76-8cc1e4bf2479","ios":"levelo://app?vid=4ff5873f-ae0a-4131-8e76-8cc1e4bf2479"},"vehicle_type_id":"4","last_reported":1703095742,"current_range_meters":31200,"station_id":"ce4bh0h2rcd13ifvqd50","pricing_plan_id":"free"},{"bike_id":"2c3f3ace-69cb-4cc9-ad03-d13e24f8edb6","system_id":"levelo_inurba_marseille","lat":43.295196,"lon":5.39397,"is_reserved":false,"is_disabled":false,"rental_uris":{"android":"levelo://app?vid=2c3f3ace-69cb-4cc9-ad03-d13e24f8edb6","ios":"levelo://app?vid=2c3f3ace-69cb-4cc9-ad03-d13e24f8edb6"},"vehicle_type_id":"4","last_reported":1703095742,"current_range_meters":20000,"station_id":"ce4bh292rcd13ifvqdf0","pricing_plan_id":"free"},{"bike_id":"5041b4ed-1d47-427a-acde-62682335f13d","system_id":"levelo_inurba_marseille","lat":43.29117,"lon":5.38779,"is_reserved":false,"is_disabled":false,"rental_uris":{"android":"levelo://app?vid=5041b4ed-1d47-427a-acde-62682335f13d","ios":"levelo://app?vid=5041b4ed-1d47-427a-acde-62682335f13d"},"vehicle_type_id":"4","last_reported":1703095742,"current_range_meters":0,"station_id":"","pricing_plan_id":"free"},{"bike_id":"a3242fad-fe8e-4ae6-af9b-f1e868dc0c14","system_id":"levelo_inurba_marseille","lat":43.302759,"lon":5.400793,"is_reserved":false,"is_disabled":false,"rental_uris":{"android":"levelo://app?vid=a3242fad-fe8e-4ae6-af9b-f1e868dc0c14","ios":"levelo://app?vid=a3242fad-fe8e-4ae6-af9b-f1e868dc0c14"},"vehicle_type_id":"4","last_reported":1703095742,"current_range_meters":14400,"station_id":"ce4bgvh2rcd13ifvqcs0","pricing_plan_id":"free"},{"bike_id":"61a977b7-9e9d-4ce9-ba53-8a6f4e099ebe","system_id":"levelo_inurba_marseille","lat":43.290345,"lon":5.38646,"is_reserved":false,"is_disabled":false,"rental_uris":{"android":"levelo://app?vid=61a977b7-9e9d-4ce9-ba53-8a6f4e099ebe","ios":"levelo://app?vid=61a977b7-9e9d-4ce9-ba53-8a6f4e099ebe"},"vehicle_type_id":"4","last_reported":1703095742,"current_range_meters":0,"station_id":"ce4bh4p2rcd13ifvqe0g","pricing_plan_id":"free"},{"bike_id":"f513cb0a-c85a-49a4-85e8-59f3af22699a","system_id":"levelo_inurba_marseille","lat":43.295196,"lon":5.39397,"is_reserved":false,"is_disabled":false,"rental_uris":{"android":"levelo://app?vid=f513cb0a-c85a-49a4-85e8-59f3af22699a","ios":"levelo://app?vid=f513cb0a-c85a-49a4-85e8-59f3af22699a"},"vehicle_type_id":"4","last_reported":1703095742,"current_range_meters":2000,"station_id":"ce4bh292rcd13ifvqdf0","pricing_plan_id":"free"},{"bike_id":"102d7666-47d6-4fb2-b301-3d397b50c8a5","system_id":"levelo_inurba_marseille","lat":43.290345,"lon":5.38646,"is_reserved":false,"is_disabled":false,"rental_uris":{"android":"levelo://app?vid=102d7666-47d6-4fb2-b301-3d397b50c8a5","ios":"levelo://app?vid=102d7666-47d6-4fb2-b301-3d397b50c8a5"},"vehicle_type_id":"4","last_reported":1703095742,"current_range_meters":6800,"station_id":"ce4bh4p2rcd13ifvqe0g","pricing_plan_id":"free"},{"bike_id":"de982ee8-55e7-4ed2-8c64-bfbb5f29e371","system_id":"levelo_inurba_marseille","lat":43.302759,"lon":5.400793,"is_reserved":false,"is_disabled":false,"rental_uris":{"android":"levelo://app?vid=de982ee8-55e7-4ed2-8c64-bfbb5f29e371","ios":"levelo://app?vid=de982ee8-55e7-4ed2-8c64-bfbb5f29e371"},"vehicle_type_id":"4","last_reported":1703095742,"current_range_meters":5600,"station_id":"ce4bgvh2rcd13ifvqcs0","pricing_plan_id":"free"},{"bike_id":"2611b209-1d0d-416c-b631-4369aaef304a","system_id":"levelo_inurba_marseille","lat":43.290336,"lon":5.386425,"is_reserved":false,"is_disabled":false,"rental_uris":{"android":"levelo://app?vid=2611b209-1d0d-416c-b631-4369aaef304a","ios":"levelo://app?vid=2611b209-1d0d-416c-b631-4369aaef304a"},"vehicle_type_id":"4","last_reported":1703095742,"current_range_meters":0,"station_id":"ce4bh4p2rcd13ifvqe0g","pricing_plan_id":"free"},{"bike_id":"02099ed2-bd18-4c09-9970-5a04c031a655","system_id":"levelo_inurba_marseille","lat":43.290345,"lon":5.38646,"is_reserved":false,"is_disabled":false,"rental_uris":{"android":"levelo://app?vid=02099ed2-bd18-4c09-9970-5a04c031a655","ios":"levelo://app?vid=02099ed2-bd18-4c09-9970-5a04c031a655"},"vehicle_type_id":"4","last_reported":1703095742,"current_range_meters":19200,"station_id":"ce4bh4p2rcd13ifvqe0g","pricing_plan_id":"free"},{"bike_id":"2e29b1e8-0f96-4a7b-8565-73c770304c78","system_id":"levelo_inurba_marseille","lat":43.290336,"lon":5.386425,"is_reserved":false,"is_disabled":false,"rental_uris":{"android":"levelo://app?vid=2e29b1e8-0f96-4a7b-8565-73c770304c78","ios":"levelo://app?vid=2e29b1e8-0f96-4a7b-8565-73c770304c78"},"vehicle_type_id":"4","last_reported":1703095742,"current_range_meters":20400,"station_id":"ce4bh4p2rcd13ifvqe0g","pricing_plan_id":"free"},{"bike_id":"c1f484c7-d97a-4392-b050-e4b4d2497346","system_id":"levelo_inurba_marseille","lat":43.290336,"lon":5.386425,"is_reserved":false,"is_disabled":false,"rental_uris":{"android":"levelo://app?vid=c1f484c7-d97a-4392-b050-e4b4d2497346","ios":"levelo://app?vid=c1f484c7-d97a-4392-b050-e4b4d2497346"},"vehicle_type_id":"4","last_reported":1703095742,"current_range_meters":5200,"station_id":"ce4bh4p2rcd13ifvqe0g","pricing_plan_id":"free"},{"bike_id":"689f39eb-5cbf-48d0-b919-db9c40bd5faf","system_id":"levelo_inurba_marseille","lat":43.302759,"lon":5.400793,"is_reserved":false,"is_disabled":false,"rental_uris":{"android":"levelo://app?vid=689f39eb-5cbf-48d0-b919-db9c40bd5faf","ios":"levelo://app?vid=689f39eb-5cbf-48d0-b919-db9c40bd5faf"},"vehicle_type_id":"4","last_reported":1703095742,"current_range_meters":21600,"station_id":"ce4bgvh2rcd13ifvqcs0","pricing_plan_id":"free"},{"bike_id":"5277c53e-ba32-4708-bc33-c99817c1efa8","system_id":"levelo_inurba_marseille","lat":43.287184,"lon":5.37937,"is_reserved":false,"is_disabled":false,"rental_uris":{"android":"levelo://app?vid=5277c53e-ba32-4708-bc33-c99817c1efa8","ios":"levelo://app?vid=5277c53e-ba32-4708-bc33-c99817c1efa8"},"vehicle_type_id":"4","last_reported":1703095742,"current_range_meters":13200,"station_id":"ce4bh9p2rcd13ifvqec0","pricing_plan_id":"free"},{"bike_id":"21321f06-a769-4364-a9e3-77a52bd1f533","system_id":"levelo_inurba_marseille","lat":43.287184,"lon":5.37937,"is_reserved":false,"is_disabled":false,"rental_uris":{"android":"levelo://app?vid=21321f06-a769-4364-a9e3-77a52bd1f533","ios":"levelo://app?vid=21321f06-a769-4364-a9e3-77a52bd1f533"},"vehicle_type_id":"4","last_reported":1703095742,"current_range_meters":17600,"station_id":"ce4bh9p2rcd13ifvqec0","pricing_plan_id":"free"},{"bike_id":"30b41aed-b375-4cfa-b849-c47f4e650fc0","system_id":"levelo_inurba_marseille","lat":43.28536,"lon":5.36884,"is_reserved":false,"is_disabled":false,"rental_uris":{"android":"levelo://app?vid=30b41aed-b375-4cfa-b849-c47f4e650fc0","ios":"levelo://app?vid=30b41aed-b375-4cfa-b849-c47f4e650fc0"},"vehicle_type_id":"4","last_reported":1703095742,"current_range_meters":17200,"station_id":"","pricing_plan_id":"free"},{"bike_id":"deb03d56-a258-4061-ade4-4c6def17ebc6","system_id":"levelo_inurba_marseille","lat":43.284538,"lon":5.358657,"is_reserved":false,"is_disabled":false,"rental_uris":{"android":"levelo://app?vid=deb03d56-a258-4061-ade4-4c6def17ebc6","ios":"levelo://app?vid=deb03d56-a258-4061-ade4-4c6def17ebc6"},"vehicle_type_id":"4","last_reported":1703095742,"current_range_meters":22400,"station_id":"ce4bhah2rcd13ifvqei0","pricing_plan_id":"free"},{"bike_id":"89216e79-3cbd-4003-990b-c120bbe8ba20","system_id":"levelo_inurba_marseille","lat":43.284538,"lon":5.358657,"is_reserved":false,"is_disabled":false,"rental_uris":{"android":"levelo://app?vid=89216e79-3cbd-4003-990b-c120bbe8ba20","ios":"levelo://app?vid=89216e79-3cbd-4003-990b-c120bbe8ba20"},"vehicle_type_id":"4","last_reported":1703095742,"current_range_meters":22800,"station_id":"ce4bhah2rcd13ifvqei0","pricing_plan_id":"free"},{"bike_id":"d82a2e53-1b75-4ef8-ba69-79189b9ecc9c","system_id":"levelo_inurba_marseille","lat":43.284538,"lon":5.358657,"is_reserved":false,"is_disabled":false,"rental_uris":{"android":"levelo://app?vid=d82a2e53-1b75-4ef8-ba69-79189b9ecc9c","ios":"levelo://app?vid=d82a2e53-1b75-4ef8-ba69-79189b9ecc9c"},"vehicle_type_id":"4","last_reported":1703095742,"current_range_meters":17600,"station_id":"ce4bhah2rcd13ifvqei0","pricing_plan_id":"free"},{"bike_id":"dd09a853-65c6-4925-8e1b-ae006bb957a5","system_id":"levelo_inurba_marseille","lat":43.28459,"lon":5.359,"is_reserved":false,"is_disabled":false,"rental_uris":{"android":"levelo://app?vid=dd09a853-65c6-4925-8e1b-ae006bb957a5","ios":"levelo://app?vid=dd09a853-65c6-4925-8e1b-ae006bb957a5"},"vehicle_type_id":"4","last_reported":1703095742,"current_range_meters":800,"station_id":"ce4bhah2rcd13ifvqei0","pricing_plan_id":"free"},{"bike_id":"6f56d9f1-693a-4252-9dcc-95c501b941b9","system_id":"levelo_inurba_marseille","lat":43.284534,"lon":5.358662,"is_reserved":false,"is_disabled":false,"rental_uris":{"android":"levelo://app?vid=6f56d9f1-693a-4252-9dcc-95c501b941b9","ios":"levelo://app?vid=6f56d9f1-693a-4252-9dcc-95c501b941b9"},"vehicle_type_id":"4","last_reported":1703095742,"current_range_meters":3200,"station_id":"ce4bhah2rcd13ifvqei0","pricing_plan_id":"free"},{"bike_id":"8ae616b6-c720-4a04-ae78-df7a5fb8a3d3","system_id":"levelo_inurba_marseille","lat":43.294314,"lon":5.397498,"is_reserved":false,"is_disabled":false,"rental_uris":{"android":"levelo://app?vid=8ae616b6-c720-4a04-ae78-df7a5fb8a3d3","ios":"levelo://app?vid=8ae616b6-c720-4a04-ae78-df7a5fb8a3d3"},"vehicle_type_id":"4","last_reported":1703095742,"current_range_meters":18800,"station_id":"ce4bh3h2rcd13ifvqdo0","pricing_plan_id":"free"},{"bike_id":"a9d595c3-6bdf-4999-88b4-7eeac5ab5e34","system_id":"levelo_inurba_marseille","lat":43.284538,"lon":5.358657,"is_reserved":false,"is_disabled":false,"rental_uris":{"android":"levelo://app?vid=a9d595c3-6bdf-4999-88b4-7eeac5ab5e34","ios":"levelo://app?vid=a9d595c3-6bdf-4999-88b4-7eeac5ab5e34"},"vehicle_type_id":"4","last_reported":1703095742,"current_range_meters":22400,"station_id":"ce4bhah2rcd13ifvqei0","pricing_plan_id":"free"},{"bike_id":"dcecfd1d-d01b-4687-87d0-1faec8541f82","system_id":"levelo_inurba_marseille","lat":43.294314,"lon":5.397498,"is_reserved":false,"is_disabled":false,"rental_uris":{"android":"levelo://app?vid=dcecfd1d-d01b-4687-87d0-1faec8541f82","ios":"levelo://app?vid=dcecfd1d-d01b-4687-87d0-1faec8541f82"},"vehicle_type_id":"4","last_reported":1703095742,"current_range_meters":3200,"station_id":"ce4bh3h2rcd13ifvqdo0","pricing_plan_id":"free"},{"bike_id":"b7c24e1c-ee55-4747-8b41-23ac307dc28e","system_id":"levelo_inurba_marseille","lat":43.294314,"lon":5.397498,"is_reserved":false,"is_disabled":false,"rental_uris":{"android":"levelo://app?vid=b7c24e1c-ee55-4747-8b41-23ac307dc28e","ios":"levelo://app?vid=b7c24e1c-ee55-4747-8b41-23ac307dc28e"},"vehicle_type_id":"4","last_reported":1703095742,"current_range_meters":30000,"station_id":"ce4bh3h2rcd13ifvqdo0","pricing_plan_id":"free"},{"bike_id":"00d7495d-8d63-4aa9-afd9-1e09650be0f8","system_id":"levelo_inurba_marseille","lat":43.294314,"lon":5.397498,"is_reserved":false,"is_disabled":false,"rental_uris":{"android":"levelo://app?vid=00d7495d-8d63-4aa9-afd9-1e09650be0f8","ios":"levelo://app?vid=00d7495d-8d63-4aa9-afd9-1e09650be0f8"},"vehicle_type_id":"4","last_reported":1703095742,"current_range_meters":17600,"station_id":"ce4bh3h2rcd13ifvqdo0","pricing_plan_id":"free"},{"bike_id":"7f31c261-b4c3-4ece-809c-0175459e0962","system_id":"levelo_inurba_marseille","lat":43.294314,"lon":5.397498,"is_reserved":false,"is_disabled":false,"rental_uris":{"android":"levelo://app?vid=7f31c261-b4c3-4ece-809c-0175459e0962","ios":"levelo://app?vid=7f31c261-b4c3-4ece-809c-0175459e0962"},"vehicle_type_id":"4","last_reported":1703095742,"current_range_meters":16800,"station_id":"ce4bh3h2rcd13ifvqdo0","pricing_plan_id":"free"},{"bike_id":"cd0c99aa-0b49-422c-882e-cd7d21d05d95","system_id":"levelo_inurba_marseille","lat":43.285856,"lon":5.350771,"is_reserved":false,"is_disabled":false,"rental_uris":{"android":"levelo://app?vid=cd0c99aa-0b49-422c-882e-cd7d21d05d95","ios":"levelo://app?vid=cd0c99aa-0b49-422c-882e-cd7d21d05d95"},"vehicle_type_id":"4","last_reported":1703095742,"current_range_meters":12400,"station_id":"ce4bhch2rcd13ifvqeug","pricing_plan_id":"free"},{"bike_id":"4ea381ba-f5ca-4402-a8ad-56297ca58f6f","system_id":"levelo_inurba_marseille","lat":43.285856,"lon":5.350771,"is_reserved":false,"is_disabled":false,"rental_uris":{"android":"levelo://app?vid=4ea381ba-f5ca-4402-a8ad-56297ca58f6f","ios":"levelo://app?vid=4ea381ba-f5ca-4402-a8ad-56297ca58f6f"},"vehicle_type_id":"4","last_reported":1703095742,"current_range_meters":21200,"station_id":"ce4bhch2rcd13ifvqeug","pricing_plan_id":"free"},{"bike_id":"4005d67c-e580-47a4-893b-53bd0a817d88","system_id":"levelo_inurba_marseille","lat":43.285856,"lon":5.350771,"is_reserved":false,"is_disabled":false,"rental_uris":{"android":"levelo://app?vid=4005d67c-e580-47a4-893b-53bd0a817d88","ios":"levelo://app?vid=4005d67c-e580-47a4-893b-53bd0a817d88"},"vehicle_type_id":"4","last_reported":1703095742,"current_range_meters":13200,"station_id":"ce4bhch2rcd13ifvqeug","pricing_plan_id":"free"},{"bike_id":"70231a4e-5b03-48ec-ae49-1772c70a77b5","system_id":"levelo_inurba_marseille","lat":43.285856,"lon":5.350771,"is_reserved":false,"is_disabled":false,"rental_uris":{"android":"levelo://app?vid=70231a4e-5b03-48ec-ae49-1772c70a77b5","ios":"levelo://app?vid=70231a4e-5b03-48ec-ae49-1772c70a77b5"},"vehicle_type_id":"4","last_reported":1703095742,"current_range_meters":800,"station_id":"ce4bhch2rcd13ifvqeug","pricing_plan_id":"free"},{"bike_id":"b1dab4de-0ade-4b74-94d9-fc33a4596fb1","system_id":"levelo_inurba_marseille","lat":43.285856,"lon":5.350771,"is_reserved":false,"is_disabled":false,"rental_uris":{"android":"levelo://app?vid=b1dab4de-0ade-4b74-94d9-fc33a4596fb1","ios":"levelo://app?vid=b1dab4de-0ade-4b74-94d9-fc33a4596fb1"},"vehicle_type_id":"4","last_reported":1703095742,"current_range_meters":19200,"station_id":"ce4bhch2rcd13ifvqeug","pricing_plan_id":"free"},{"bike_id":"b0d93208-ca47-4c43-9c18-0b96cf27fa60","system_id":"levelo_inurba_marseille","lat":43.283998,"lon":5.375062,"is_reserved":false,"is_disabled":false,"rental_uris":{"android":"levelo://app?vid=b0d93208-ca47-4c43-9c18-0b96cf27fa60","ios":"levelo://app?vid=b0d93208-ca47-4c43-9c18-0b96cf27fa60"},"vehicle_type_id":"4","last_reported":1703095742,"current_range_meters":12800,"station_id":"ce4bh412rcd13ifvqds0","pricing_plan_id":"free"},{"bike_id":"c714b37c-1e3f-4308-b91c-ba7a2008ed49","system_id":"levelo_inurba_marseille","lat":43.283998,"lon":5.375062,"is_reserved":false,"is_disabled":false,"rental_uris":{"android":"levelo://app?vid=c714b37c-1e3f-4308-b91c-ba7a2008ed49","ios":"levelo://app?vid=c714b37c-1e3f-4308-b91c-ba7a2008ed49"},"vehicle_type_id":"4","last_reported":1703095742,"current_range_meters":17600,"station_id":"ce4bh412rcd13ifvqds0","pricing_plan_id":"free"},{"bike_id":"140afee6-6197-47c0-b015-d085df09b284","system_id":"levelo_inurba_marseille","lat":43.284081,"lon":5.375177,"is_reserved":false,"is_disabled":false,"rental_uris":{"android":"levelo://app?vid=140afee6-6197-47c0-b015-d085df09b284","ios":"levelo://app?vid=140afee6-6197-47c0-b015-d085df09b284"},"vehicle_type_id":"4","last_reported":1703095742,"current_range_meters":17200,"station_id":"ce4bh412rcd13ifvqds0","pricing_plan_id":"free"},{"bike_id":"8538e6dd-dbef-4a5a-a119-9a857fd021ad","system_id":"levelo_inurba_marseille","lat":43.33218,"lon":5.397067,"is_reserved":false,"is_disabled":false,"rental_uris":{"android":"levelo://app?vid=8538e6dd-dbef-4a5a-a119-9a857fd021ad","ios":"levelo://app?vid=8538e6dd-dbef-4a5a-a119-9a857fd021ad"},"vehicle_type_id":"4","last_reported":1703095742,"current_range_meters":0,"station_id":"","pricing_plan_id":"free"},{"bike_id":"fcac4218-3055-4edc-8da5-dbb3faa636ca","system_id":"levelo_inurba_marseille","lat":43.2957,"lon":5.399867,"is_reserved":false,"is_disabled":false,"rental_uris":{"android":"levelo://app?vid=fcac4218-3055-4edc-8da5-dbb3faa636ca","ios":"levelo://app?vid=fcac4218-3055-4edc-8da5-dbb3faa636ca"},"vehicle_type_id":"4","last_reported":1703095742,"current_range_meters":0,"station_id":"ce4bh312rcd13ifvqdj0","pricing_plan_id":"free"},{"bike_id":"c0f1d721-572a-44f5-a0da-ec06ff86b781","system_id":"levelo_inurba_marseille","lat":43.286595,"lon":5.386795,"is_reserved":false,"is_disabled":false,"rental_uris":{"android":"levelo://app?vid=c0f1d721-572a-44f5-a0da-ec06ff86b781","ios":"levelo://app?vid=c0f1d721-572a-44f5-a0da-ec06ff86b781"},"vehicle_type_id":"4","last_reported":1703095742,"current_range_meters":4000,"station_id":"ce4bh492rcd13ifvqdug","pricing_plan_id":"free"},{"bike_id":"25108410-1c9f-4cd1-8c60-995e606e2e6c","system_id":"levelo_inurba_marseille","lat":43.286595,"lon":5.386795,"is_reserved":false,"is_disabled":false,"rental_uris":{"android":"levelo://app?vid=25108410-1c9f-4cd1-8c60-995e606e2e6c","ios":"levelo://app?vid=25108410-1c9f-4cd1-8c60-995e606e2e6c"},"vehicle_type_id":"4","last_reported":1703095742,"current_range_meters":19200,"station_id":"ce4bh492rcd13ifvqdug","pricing_plan_id":"free"},{"bike_id":"626c73e4-e751-496e-9f4a-c54c23c6b63d","system_id":"levelo_inurba_marseille","lat":43.286595,"lon":5.386795,"is_reserved":false,"is_disabled":false,"rental_uris":{"android":"levelo://app?vid=626c73e4-e751-496e-9f4a-c54c23c6b63d","ios":"levelo://app?vid=626c73e4-e751-496e-9f4a-c54c23c6b63d"},"vehicle_type_id":"4","last_reported":1703095742,"current_range_meters":0,"station_id":"ce4bh492rcd13ifvqdug","pricing_plan_id":"free"},{"bike_id":"2c408855-2c8b-4c91-8a59-2fa0905ff140","system_id":"levelo_inurba_marseille","lat":43.319179,"lon":5.407725,"is_reserved":false,"is_disabled":false,"rental_uris":{"android":"levelo://app?vid=2c408855-2c8b-4c91-8a59-2fa0905ff140","ios":"levelo://app?vid=2c408855-2c8b-4c91-8a59-2fa0905ff140"},"vehicle_type_id":"4","last_reported":1703095742,"current_range_meters":27600,"station_id":"ce4bhq12rcd13ifvqhig","pricing_plan_id":"free"},{"bike_id":"8ce43afd-976d-478d-8aa5-d6564af1b0c3","system_id":"levelo_inurba_marseille","lat":43.31892,"lon":5.40729,"is_reserved":false,"is_disabled":false,"rental_uris":{"android":"levelo://app?vid=8ce43afd-976d-478d-8aa5-d6564af1b0c3","ios":"levelo://app?vid=8ce43afd-976d-478d-8aa5-d6564af1b0c3"},"vehicle_type_id":"4","last_reported":1703095742,"current_range_meters":0,"station_id":"ce4bhq12rcd13ifvqhig","pricing_plan_id":"free"},{"bike_id":"dfb799e0-6b52-4b93-891e-f427333dec88","system_id":"levelo_inurba_marseille","lat":43.33717,"lon":5.391857,"is_reserved":false,"is_disabled":false,"rental_uris":{"android":"levelo://app?vid=dfb799e0-6b52-4b93-891e-f427333dec88","ios":"levelo://app?vid=dfb799e0-6b52-4b93-891e-f427333dec88"},"vehicle_type_id":"4","last_reported":1703095742,"current_range_meters":24800,"station_id":"ce4bhr92rcd13ifvqhsg","pricing_plan_id":"free"},{"bike_id":"0e6bbc92-cec6-497f-ad89-d75d7e889db3","system_id":"levelo_inurba_marseille","lat":43.33717,"lon":5.391857,"is_reserved":false,"is_disabled":false,"rental_uris":{"android":"levelo://app?vid=0e6bbc92-cec6-497f-ad89-d75d7e889db3","ios":"levelo://app?vid=0e6bbc92-cec6-497f-ad89-d75d7e889db3"},"vehicle_type_id":"4","last_reported":1703095742,"current_range_meters":31200,"station_id":"ce4bhr92rcd13ifvqhsg","pricing_plan_id":"free"},{"bike_id":"d6ceaf01-26b8-4886-ac1f-d274beda68aa","system_id":"levelo_inurba_marseille","lat":43.333431,"lon":5.398693,"is_reserved":false,"is_disabled":false,"rental_uris":{"android":"levelo://app?vid=d6ceaf01-26b8-4886-ac1f-d274beda68aa","ios":"levelo://app?vid=d6ceaf01-26b8-4886-ac1f-d274beda68aa"},"vehicle_type_id":"4","last_reported":1703095742,"current_range_meters":0,"station_id":"","pricing_plan_id":"free"},{"bike_id":"17f39f90-cdaf-4c4e-ba2d-eca8ec26d7fa","system_id":"levelo_inurba_marseille","lat":43.283494,"lon":5.380945,"is_reserved":false,"is_disabled":false,"rental_uris":{"android":"levelo://app?vid=17f39f90-cdaf-4c4e-ba2d-eca8ec26d7fa","ios":"levelo://app?vid=17f39f90-cdaf-4c4e-ba2d-eca8ec26d7fa"},"vehicle_type_id":"4","last_reported":1703095742,"current_range_meters":9200,"station_id":"ce4bh412rcd13ifvqdr0","pricing_plan_id":"free"},{"bike_id":"25acf729-0c15-45f0-8053-2c35b0919b50","system_id":"levelo_inurba_marseille","lat":43.284219,"lon":5.3497,"is_reserved":false,"is_disabled":false,"rental_uris":{"android":"levelo://app?vid=25acf729-0c15-45f0-8053-2c35b0919b50","ios":"levelo://app?vid=25acf729-0c15-45f0-8053-2c35b0919b50"},"vehicle_type_id":"4","last_reported":1703095742,"current_range_meters":24400,"station_id":"ce4bhbh2rcd13ifvqepg","pricing_plan_id":"free"},{"bike_id":"e68ad7a3-9f73-42da-8e90-59adcc6ccfbd","system_id":"levelo_inurba_marseille","lat":43.284219,"lon":5.3497,"is_reserved":false,"is_disabled":false,"rental_uris":{"android":"levelo://app?vid=e68ad7a3-9f73-42da-8e90-59adcc6ccfbd","ios":"levelo://app?vid=e68ad7a3-9f73-42da-8e90-59adcc6ccfbd"},"vehicle_type_id":"4","last_reported":1703095742,"current_range_meters":23200,"station_id":"ce4bhbh2rcd13ifvqepg","pricing_plan_id":"free"},{"bike_id":"5e3666e1-86ec-4715-881e-97fbe8493bb9","system_id":"levelo_inurba_marseille","lat":43.284217,"lon":5.349697,"is_reserved":false,"is_disabled":false,"rental_uris":{"android":"levelo://app?vid=5e3666e1-86ec-4715-881e-97fbe8493bb9","ios":"levelo://app?vid=5e3666e1-86ec-4715-881e-97fbe8493bb9"},"vehicle_type_id":"4","last_reported":1703095742,"current_range_meters":23600,"station_id":"ce4bhbh2rcd13ifvqepg","pricing_plan_id":"free"},{"bike_id":"99c0c118-61e8-4cea-80ff-9be3c4ac7cf7","system_id":"levelo_inurba_marseille","lat":43.284215,"lon":5.34984,"is_reserved":false,"is_disabled":false,"rental_uris":{"android":"levelo://app?vid=99c0c118-61e8-4cea-80ff-9be3c4ac7cf7","ios":"levelo://app?vid=99c0c118-61e8-4cea-80ff-9be3c4ac7cf7"},"vehicle_type_id":"4","last_reported":1703095742,"current_range_meters":2400,"station_id":"ce4bhbh2rcd13ifvqepg","pricing_plan_id":"free"},{"bike_id":"b85df6e5-946f-4ca9-b02b-bc3a9e578ef6","system_id":"levelo_inurba_marseille","lat":43.304188,"lon":5.412904,"is_reserved":false,"is_disabled":false,"rental_uris":{"android":"levelo://app?vid=b85df6e5-946f-4ca9-b02b-bc3a9e578ef6","ios":"levelo://app?vid=b85df6e5-946f-4ca9-b02b-bc3a9e578ef6"},"vehicle_type_id":"4","last_reported":1703095742,"current_range_meters":22000,"station_id":"ce4bhop2rcd13ifvqh8g","pricing_plan_id":"free"},{"bike_id":"d1282842-65d5-459c-8304-09596f3735d3","system_id":"levelo_inurba_marseille","lat":43.292724,"lon":5.401131,"is_reserved":false,"is_disabled":false,"rental_uris":{"android":"levelo://app?vid=d1282842-65d5-459c-8304-09596f3735d3","ios":"levelo://app?vid=d1282842-65d5-459c-8304-09596f3735d3"},"vehicle_type_id":"4","last_reported":1703095742,"current_range_meters":8400,"station_id":"ce4bh312rcd13ifvqdk0","pricing_plan_id":"free"},{"bike_id":"6dbebcfd-5cef-46d3-b6b1-24659f7d377a","system_id":"levelo_inurba_marseille","lat":43.285423,"lon":5.389693,"is_reserved":false,"is_disabled":false,"rental_uris":{"android":"levelo://app?vid=6dbebcfd-5cef-46d3-b6b1-24659f7d377a","ios":"levelo://app?vid=6dbebcfd-5cef-46d3-b6b1-24659f7d377a"},"vehicle_type_id":"4","last_reported":1703095742,"current_range_meters":0,"station_id":"","pricing_plan_id":"free"},{"bike_id":"d0822314-9e4e-492e-a3bc-9cd96a9a1d33","system_id":"levelo_inurba_marseille","lat":43.282744,"lon":5.350533,"is_reserved":false,"is_disabled":false,"rental_uris":{"android":"levelo://app?vid=d0822314-9e4e-492e-a3bc-9cd96a9a1d33","ios":"levelo://app?vid=d0822314-9e4e-492e-a3bc-9cd96a9a1d33"},"vehicle_type_id":"4","last_reported":1703095742,"current_range_meters":17200,"station_id":"ce4bhbp2rcd13ifvqerg","pricing_plan_id":"free"},{"bike_id":"82781934-6648-4510-88c5-d867394bb98b","system_id":"levelo_inurba_marseille","lat":43.283502,"lon":5.386471,"is_reserved":false,"is_disabled":false,"rental_uris":{"android":"levelo://app?vid=82781934-6648-4510-88c5-d867394bb98b","ios":"levelo://app?vid=82781934-6648-4510-88c5-d867394bb98b"},"vehicle_type_id":"4","last_reported":1703095742,"current_range_meters":4000,"station_id":"ce4bh492rcd13ifvqdvg","pricing_plan_id":"free"},{"bike_id":"3af23133-0197-40c1-970e-55f36fe14c51","system_id":"levelo_inurba_marseille","lat":43.282754,"lon":5.350519,"is_reserved":false,"is_disabled":false,"rental_uris":{"android":"levelo://app?vid=3af23133-0197-40c1-970e-55f36fe14c51","ios":"levelo://app?vid=3af23133-0197-40c1-970e-55f36fe14c51"},"vehicle_type_id":"4","last_reported":1703095742,"current_range_meters":6000,"station_id":"ce4bhbp2rcd13ifvqerg","pricing_plan_id":"free"},{"bike_id":"a94c83ab-9cc3-4b59-a127-690f7fe2290f","system_id":"levelo_inurba_marseille","lat":43.29041,"lon":5.399634,"is_reserved":false,"is_disabled":false,"rental_uris":{"android":"levelo://app?vid=a94c83ab-9cc3-4b59-a127-690f7fe2290f","ios":"levelo://app?vid=a94c83ab-9cc3-4b59-a127-690f7fe2290f"},"vehicle_type_id":"4","last_reported":1703095742,"current_range_meters":12000,"station_id":"ce4bh392rcd13ifvqdm0","pricing_plan_id":"free"},{"bike_id":"2d944f49-edbe-4691-9f43-7d807eef328f","system_id":"levelo_inurba_marseille","lat":43.28115,"lon":5.37837,"is_reserved":false,"is_disabled":false,"rental_uris":{"android":"levelo://app?vid=2d944f49-edbe-4691-9f43-7d807eef328f","ios":"levelo://app?vid=2d944f49-edbe-4691-9f43-7d807eef328f"},"vehicle_type_id":"4","last_reported":1703095742,"current_range_meters":8400,"station_id":"ce4bha12rcd13ifvqee0","pricing_plan_id":"free"},{"bike_id":"2ac416d0-3e76-41ff-9e5d-9e18c5a5f847","system_id":"levelo_inurba_marseille","lat":43.29041,"lon":5.399634,"is_reserved":false,"is_disabled":false,"rental_uris":{"android":"levelo://app?vid=2ac416d0-3e76-41ff-9e5d-9e18c5a5f847","ios":"levelo://app?vid=2ac416d0-3e76-41ff-9e5d-9e18c5a5f847"},"vehicle_type_id":"4","last_reported":1703095742,"current_range_meters":23600,"station_id":"ce4bh392rcd13ifvqdm0","pricing_plan_id":"free"},{"bike_id":"6f2b3dc4-86be-4456-8d58-e8aac0d544c2","system_id":"levelo_inurba_marseille","lat":43.28105,"lon":5.37834,"is_reserved":false,"is_disabled":false,"rental_uris":{"android":"levelo://app?vid=6f2b3dc4-86be-4456-8d58-e8aac0d544c2","ios":"levelo://app?vid=6f2b3dc4-86be-4456-8d58-e8aac0d544c2"},"vehicle_type_id":"4","last_reported":1703095742,"current_range_meters":25600,"station_id":"ce4bha12rcd13ifvqee0","pricing_plan_id":"free"},{"bike_id":"223eb927-939c-4c01-905f-3665bda85439","system_id":"levelo_inurba_marseille","lat":43.296263,"lon":5.40601,"is_reserved":false,"is_disabled":false,"rental_uris":{"android":"levelo://app?vid=223eb927-939c-4c01-905f-3665bda85439","ios":"levelo://app?vid=223eb927-939c-4c01-905f-3665bda85439"},"vehicle_type_id":"4","last_reported":1703095742,"current_range_meters":5600,"station_id":"ce4bh0h2rcd13ifvqd60","pricing_plan_id":"free"},{"bike_id":"4452f4a2-6461-4ea5-8215-95487e58b4ac","system_id":"levelo_inurba_marseille","lat":43.28573,"lon":5.394992,"is_reserved":false,"is_disabled":false,"rental_uris":{"android":"levelo://app?vid=4452f4a2-6461-4ea5-8215-95487e58b4ac","ios":"levelo://app?vid=4452f4a2-6461-4ea5-8215-95487e58b4ac"},"vehicle_type_id":"4","last_reported":1703095742,"current_range_meters":1200,"station_id":"ce4bh292rcd13ifvqdg0","pricing_plan_id":"free"},{"bike_id":"1d1555b5-648a-49b4-90c5-eeac61d8c337","system_id":"levelo_inurba_marseille","lat":43.304188,"lon":5.412904,"is_reserved":false,"is_disabled":false,"rental_uris":{"android":"levelo://app?vid=1d1555b5-648a-49b4-90c5-eeac61d8c337","ios":"levelo://app?vid=1d1555b5-648a-49b4-90c5-eeac61d8c337"},"vehicle_type_id":"4","last_reported":1703095742,"current_range_meters":7600,"station_id":"ce4bhop2rcd13ifvqh8g","pricing_plan_id":"free"},{"bike_id":"a65bc548-b9cd-4a09-99de-6a7cf1b6ce3e","system_id":"levelo_inurba_marseille","lat":43.304188,"lon":5.412904,"is_reserved":false,"is_disabled":false,"rental_uris":{"android":"levelo://app?vid=a65bc548-b9cd-4a09-99de-6a7cf1b6ce3e","ios":"levelo://app?vid=a65bc548-b9cd-4a09-99de-6a7cf1b6ce3e"},"vehicle_type_id":"4","last_reported":1703095742,"current_range_meters":21600,"station_id":"ce4bhop2rcd13ifvqh8g","pricing_plan_id":"free"},{"bike_id":"6c069660-8bd5-4f61-bd7e-30d8fc38374d","system_id":"levelo_inurba_marseille","lat":43.287154,"lon":5.399979,"is_reserved":false,"is_disabled":false,"rental_uris":{"android":"levelo://app?vid=6c069660-8bd5-4f61-bd7e-30d8fc38374d","ios":"levelo://app?vid=6c069660-8bd5-4f61-bd7e-30d8fc38374d"},"vehicle_type_id":"4","last_reported":1703095742,"current_range_meters":19200,"station_id":"ce4bho92rcd13ifvqh3g","pricing_plan_id":"free"},{"bike_id":"cb0668d4-d46c-4efe-a7e0-185ebe495ab4","system_id":"levelo_inurba_marseille","lat":43.280589,"lon":5.389193,"is_reserved":false,"is_disabled":false,"rental_uris":{"android":"levelo://app?vid=cb0668d4-d46c-4efe-a7e0-185ebe495ab4","ios":"levelo://app?vid=cb0668d4-d46c-4efe-a7e0-185ebe495ab4"},"vehicle_type_id":"4","last_reported":1703095742,"current_range_meters":6800,"station_id":"","pricing_plan_id":"free"},{"bike_id":"f51d2f3b-143d-4f58-9b0d-b059ad550fa4","system_id":"levelo_inurba_marseille","lat":43.27618,"lon":5.361009,"is_reserved":false,"is_disabled":false,"rental_uris":{"android":"levelo://app?vid=f51d2f3b-143d-4f58-9b0d-b059ad550fa4","ios":"levelo://app?vid=f51d2f3b-143d-4f58-9b0d-b059ad550fa4"},"vehicle_type_id":"4","last_reported":1703095742,"current_range_meters":2800,"station_id":"ce4bgj92rcd13ifvqbe0","pricing_plan_id":"free"},{"bike_id":"8b15046b-41d7-456b-afad-6a5e9f61ccb5","system_id":"levelo_inurba_marseille","lat":43.29173,"lon":5.41002,"is_reserved":false,"is_disabled":false,"rental_uris":{"android":"levelo://app?vid=8b15046b-41d7-456b-afad-6a5e9f61ccb5","ios":"levelo://app?vid=8b15046b-41d7-456b-afad-6a5e9f61ccb5"},"vehicle_type_id":"4","last_reported":1703095742,"current_range_meters":16800,"station_id":"","pricing_plan_id":"free"},{"bike_id":"d828e231-e4b0-408f-96c9-539f8bc58e02","system_id":"levelo_inurba_marseille","lat":43.280784,"lon":5.396622,"is_reserved":false,"is_disabled":false,"rental_uris":{"android":"levelo://app?vid=d828e231-e4b0-408f-96c9-539f8bc58e02","ios":"levelo://app?vid=d828e231-e4b0-408f-96c9-539f8bc58e02"},"vehicle_type_id":"4","last_reported":1703095742,"current_range_meters":17600,"station_id":"ce4bho12rcd13ifvqh2g","pricing_plan_id":"free"},{"bike_id":"05933d32-9344-4da0-b955-5d53d4bc2707","system_id":"levelo_inurba_marseille","lat":43.303837,"lon":5.418724,"is_reserved":false,"is_disabled":false,"rental_uris":{"android":"levelo://app?vid=05933d32-9344-4da0-b955-5d53d4bc2707","ios":"levelo://app?vid=05933d32-9344-4da0-b955-5d53d4bc2707"},"vehicle_type_id":"4","last_reported":1703095742,"current_range_meters":6000,"station_id":"ce4bhop2rcd13ifvqh7g","pricing_plan_id":"free"},{"bike_id":"b1e12e35-7a8b-41f1-b88b-ba296626d634","system_id":"levelo_inurba_marseille","lat":43.278401,"lon":5.392152,"is_reserved":false,"is_disabled":false,"rental_uris":{"android":"levelo://app?vid=b1e12e35-7a8b-41f1-b88b-ba296626d634","ios":"levelo://app?vid=b1e12e35-7a8b-41f1-b88b-ba296626d634"},"vehicle_type_id":"4","last_reported":1703095742,"current_range_meters":17600,"station_id":"ce4bhjp2rcd13ifvqga0","pricing_plan_id":"free"},{"bike_id":"8620807d-e7d9-49bd-a224-36b8c79adb00","system_id":"levelo_inurba_marseille","lat":43.303837,"lon":5.418724,"is_reserved":false,"is_disabled":false,"rental_uris":{"android":"levelo://app?vid=8620807d-e7d9-49bd-a224-36b8c79adb00","ios":"levelo://app?vid=8620807d-e7d9-49bd-a224-36b8c79adb00"},"vehicle_type_id":"4","last_reported":1703095742,"current_range_meters":29200,"station_id":"ce4bhop2rcd13ifvqh7g","pricing_plan_id":"free"},{"bike_id":"b18388b4-08e6-4679-a740-f4f2c11debc1","system_id":"levelo_inurba_marseille","lat":43.278399,"lon":5.392139,"is_reserved":false,"is_disabled":false,"rental_uris":{"android":"levelo://app?vid=b18388b4-08e6-4679-a740-f4f2c11debc1","ios":"levelo://app?vid=b18388b4-08e6-4679-a740-f4f2c11debc1"},"vehicle_type_id":"4","last_reported":1703095742,"current_range_meters":7600,"station_id":"ce4bhjp2rcd13ifvqga0","pricing_plan_id":"free"},{"bike_id":"570c54cd-2319-405d-9a8b-3e6fb1ef0b8f","system_id":"levelo_inurba_marseille","lat":43.278399,"lon":5.392139,"is_reserved":false,"is_disabled":false,"rental_uris":{"android":"levelo://app?vid=570c54cd-2319-405d-9a8b-3e6fb1ef0b8f","ios":"levelo://app?vid=570c54cd-2319-405d-9a8b-3e6fb1ef0b8f"},"vehicle_type_id":"4","last_reported":1703095742,"current_range_meters":25200,"station_id":"ce4bhjp2rcd13ifvqga0","pricing_plan_id":"free"},{"bike_id":"f9493f15-1b0f-4d94-8dbf-c9c98f9544a9","system_id":"levelo_inurba_marseille","lat":43.278399,"lon":5.392139,"is_reserved":false,"is_disabled":false,"rental_uris":{"android":"levelo://app?vid=f9493f15-1b0f-4d94-8dbf-c9c98f9544a9","ios":"levelo://app?vid=f9493f15-1b0f-4d94-8dbf-c9c98f9544a9"},"vehicle_type_id":"4","last_reported":1703095742,"current_range_meters":4000,"station_id":"ce4bhjp2rcd13ifvqga0","pricing_plan_id":"free"},{"bike_id":"de75819e-1034-49c6-8378-123d04bb7eda","system_id":"levelo_inurba_marseille","lat":43.278399,"lon":5.392139,"is_reserved":false,"is_disabled":false,"rental_uris":{"android":"levelo://app?vid=de75819e-1034-49c6-8378-123d04bb7eda","ios":"levelo://app?vid=de75819e-1034-49c6-8378-123d04bb7eda"},"vehicle_type_id":"4","last_reported":1703095742,"current_range_meters":22800,"station_id":"ce4bhjp2rcd13ifvqga0","pricing_plan_id":"free"},{"bike_id":"e62dfa17-99bc-4524-9872-8bf3e64eba1a","system_id":"levelo_inurba_marseille","lat":43.28006,"lon":5.40011,"is_reserved":false,"is_disabled":false,"rental_uris":{"android":"levelo://app?vid=e62dfa17-99bc-4524-9872-8bf3e64eba1a","ios":"levelo://app?vid=e62dfa17-99bc-4524-9872-8bf3e64eba1a"},"vehicle_type_id":"4","last_reported":1703095742,"current_range_meters":8800,"station_id":"ce4bho92rcd13ifvqh4g","pricing_plan_id":"free"},{"bike_id":"6f05fa8e-86ea-415e-a9b2-b3cdbb7d4208","system_id":"levelo_inurba_marseille","lat":43.279975,"lon":5.40009,"is_reserved":false,"is_disabled":false,"rental_uris":{"android":"levelo://app?vid=6f05fa8e-86ea-415e-a9b2-b3cdbb7d4208","ios":"levelo://app?vid=6f05fa8e-86ea-415e-a9b2-b3cdbb7d4208"},"vehicle_type_id":"4","last_reported":1703095742,"current_range_meters":21600,"station_id":"ce4bho92rcd13ifvqh4g","pricing_plan_id":"free"},{"bike_id":"a27ac77b-efdd-486f-9d35-52d719d1f5b6","system_id":"levelo_inurba_marseille","lat":43.317121,"lon":5.423936,"is_reserved":false,"is_disabled":false,"rental_uris":{"android":"levelo://app?vid=a27ac77b-efdd-486f-9d35-52d719d1f5b6","ios":"levelo://app?vid=a27ac77b-efdd-486f-9d35-52d719d1f5b6"},"vehicle_type_id":"4","last_reported":1703095742,"current_range_meters":22000,"station_id":"ce4bhp92rcd13ifvqhbg","pricing_plan_id":"free"},{"bike_id":"d04c46a2-68b4-4f99-b96a-186b6aa7a02e","system_id":"levelo_inurba_marseille","lat":43.317121,"lon":5.423936,"is_reserved":false,"is_disabled":false,"rental_uris":{"android":"levelo://app?vid=d04c46a2-68b4-4f99-b96a-186b6aa7a02e","ios":"levelo://app?vid=d04c46a2-68b4-4f99-b96a-186b6aa7a02e"},"vehicle_type_id":"4","last_reported":1703095742,"current_range_meters":400,"station_id":"ce4bhp92rcd13ifvqhbg","pricing_plan_id":"free"},{"bike_id":"6e68da4c-e104-449b-b675-1a0f7da0547c","system_id":"levelo_inurba_marseille","lat":43.310785,"lon":5.424305,"is_reserved":false,"is_disabled":false,"rental_uris":{"android":"levelo://app?vid=6e68da4c-e104-449b-b675-1a0f7da0547c","ios":"levelo://app?vid=6e68da4c-e104-449b-b675-1a0f7da0547c"},"vehicle_type_id":"4","last_reported":1703095742,"current_range_meters":16400,"station_id":"ce4bhp92rcd13ifvqhag","pricing_plan_id":"free"},{"bike_id":"b1217991-eb34-4f8d-83d1-0f20b4ac1aa1","system_id":"levelo_inurba_marseille","lat":43.310785,"lon":5.424305,"is_reserved":false,"is_disabled":false,"rental_uris":{"android":"levelo://app?vid=b1217991-eb34-4f8d-83d1-0f20b4ac1aa1","ios":"levelo://app?vid=b1217991-eb34-4f8d-83d1-0f20b4ac1aa1"},"vehicle_type_id":"4","last_reported":1703095742,"current_range_meters":21200,"station_id":"ce4bhp92rcd13ifvqhag","pricing_plan_id":"free"},{"bike_id":"69b9a328-d36c-4682-85c5-a4fc16278b27","system_id":"levelo_inurba_marseille","lat":43.340804,"lon":5.410219,"is_reserved":false,"is_disabled":false,"rental_uris":{"android":"levelo://app?vid=69b9a328-d36c-4682-85c5-a4fc16278b27","ios":"levelo://app?vid=69b9a328-d36c-4682-85c5-a4fc16278b27"},"vehicle_type_id":"4","last_reported":1703095742,"current_range_meters":12000,"station_id":"ce4bhqh2rcd13ifvqhlg","pricing_plan_id":"free"},{"bike_id":"974dc7db-ff3c-4554-8964-132f9db52d9b","system_id":"levelo_inurba_marseille","lat":43.276092,"lon":5.395289,"is_reserved":false,"is_disabled":false,"rental_uris":{"android":"levelo://app?vid=974dc7db-ff3c-4554-8964-132f9db52d9b","ios":"levelo://app?vid=974dc7db-ff3c-4554-8964-132f9db52d9b"},"vehicle_type_id":"4","last_reported":1703095742,"current_range_meters":3200,"station_id":"","pricing_plan_id":"free"},{"bike_id":"734004f6-e602-435e-82cc-5afccc25a9b9","system_id":"levelo_inurba_marseille","lat":43.274099,"lon":5.394019,"is_reserved":false,"is_disabled":false,"rental_uris":{"android":"levelo://app?vid=734004f6-e602-435e-82cc-5afccc25a9b9","ios":"levelo://app?vid=734004f6-e602-435e-82cc-5afccc25a9b9"},"vehicle_type_id":"4","last_reported":1703095742,"current_range_meters":16800,"station_id":"ce4bhdp2rcd13ifvqf20","pricing_plan_id":"free"},{"bike_id":"bd4ec920-3adc-4c2e-98ca-8474da7a123c","system_id":"levelo_inurba_marseille","lat":43.295511,"lon":5.422926,"is_reserved":false,"is_disabled":false,"rental_uris":{"android":"levelo://app?vid=bd4ec920-3adc-4c2e-98ca-8474da7a123c","ios":"levelo://app?vid=bd4ec920-3adc-4c2e-98ca-8474da7a123c"},"vehicle_type_id":"4","last_reported":1703095742,"current_range_meters":26400,"station_id":"ce4bhph2rcd13ifvqhdg","pricing_plan_id":"free"},{"bike_id":"6775fa28-c054-4548-8883-8c15991ec023","system_id":"levelo_inurba_marseille","lat":43.272124,"lon":5.391768,"is_reserved":false,"is_disabled":false,"rental_uris":{"android":"levelo://app?vid=6775fa28-c054-4548-8883-8c15991ec023","ios":"levelo://app?vid=6775fa28-c054-4548-8883-8c15991ec023"},"vehicle_type_id":"4","last_reported":1703095742,"current_range_meters":3200,"station_id":"ce4bhhp2rcd13ifvqfm0","pricing_plan_id":"free"},{"bike_id":"8a148d60-4e27-472e-b053-890372d6c441","system_id":"levelo_inurba_marseille","lat":43.27812,"lon":5.40705,"is_reserved":false,"is_disabled":false,"rental_uris":{"android":"levelo://app?vid=8a148d60-4e27-472e-b053-890372d6c441","ios":"levelo://app?vid=8a148d60-4e27-472e-b053-890372d6c441"},"vehicle_type_id":"4","last_reported":1703095742,"current_range_meters":8000,"station_id":"ce4bhnh2rcd13ifvqgtg","pricing_plan_id":"free"},{"bike_id":"f5f71290-e09c-4041-b2b4-2ce3e8cff220","system_id":"levelo_inurba_marseille","lat":43.27813,"lon":5.40711,"is_reserved":false,"is_disabled":false,"rental_uris":{"android":"levelo://app?vid=f5f71290-e09c-4041-b2b4-2ce3e8cff220","ios":"levelo://app?vid=f5f71290-e09c-4041-b2b4-2ce3e8cff220"},"vehicle_type_id":"4","last_reported":1703095742,"current_range_meters":17600,"station_id":"ce4bhnh2rcd13ifvqgtg","pricing_plan_id":"free"},{"bike_id":"b5256d90-edcd-4464-ba20-d3a39a54a145","system_id":"levelo_inurba_marseille","lat":43.278128,"lon":5.407195,"is_reserved":false,"is_disabled":false,"rental_uris":{"android":"levelo://app?vid=b5256d90-edcd-4464-ba20-d3a39a54a145","ios":"levelo://app?vid=b5256d90-edcd-4464-ba20-d3a39a54a145"},"vehicle_type_id":"4","last_reported":1703095742,"current_range_meters":0,"station_id":"ce4bhnh2rcd13ifvqgtg","pricing_plan_id":"free"},{"bike_id":"c3f5f519-a47e-451e-8849-44688548412b","system_id":"levelo_inurba_marseille","lat":43.27807,"lon":5.40709,"is_reserved":false,"is_disabled":false,"rental_uris":{"android":"levelo://app?vid=c3f5f519-a47e-451e-8849-44688548412b","ios":"levelo://app?vid=c3f5f519-a47e-451e-8849-44688548412b"},"vehicle_type_id":"4","last_reported":1703095742,"current_range_meters":19200,"station_id":"ce4bhnh2rcd13ifvqgtg","pricing_plan_id":"free"},{"bike_id":"15e97754-3170-45f7-876f-aac75b656ea9","system_id":"levelo_inurba_marseille","lat":43.279465,"lon":5.410561,"is_reserved":false,"is_disabled":false,"rental_uris":{"android":"levelo://app?vid=15e97754-3170-45f7-876f-aac75b656ea9","ios":"levelo://app?vid=15e97754-3170-45f7-876f-aac75b656ea9"},"vehicle_type_id":"4","last_reported":1703095742,"current_range_meters":5200,"station_id":"ce4bhnp2rcd13ifvqh0g","pricing_plan_id":"free"},{"bike_id":"afc5a1f8-322c-4e9e-9304-934e54b88f4c","system_id":"levelo_inurba_marseille","lat":43.279465,"lon":5.410561,"is_reserved":false,"is_disabled":false,"rental_uris":{"android":"levelo://app?vid=afc5a1f8-322c-4e9e-9304-934e54b88f4c","ios":"levelo://app?vid=afc5a1f8-322c-4e9e-9304-934e54b88f4c"},"vehicle_type_id":"4","last_reported":1703095742,"current_range_meters":400,"station_id":"ce4bhnp2rcd13ifvqh0g","pricing_plan_id":"free"},{"bike_id":"6ae8773f-81f8-4a7f-9658-397efcbaff7f","system_id":"levelo_inurba_marseille","lat":43.26681,"lon":5.382694,"is_reserved":false,"is_disabled":false,"rental_uris":{"android":"levelo://app?vid=6ae8773f-81f8-4a7f-9658-397efcbaff7f","ios":"levelo://app?vid=6ae8773f-81f8-4a7f-9658-397efcbaff7f"},"vehicle_type_id":"4","last_reported":1703095742,"current_range_meters":4400,"station_id":"ce4bhg92rcd13ifvqf90","pricing_plan_id":"free"},{"bike_id":"452a7a1c-5c65-478d-897b-b72be690cc7f","system_id":"levelo_inurba_marseille","lat":43.265714,"lon":5.372891,"is_reserved":false,"is_disabled":false,"rental_uris":{"android":"levelo://app?vid=452a7a1c-5c65-478d-897b-b72be690cc7f","ios":"levelo://app?vid=452a7a1c-5c65-478d-897b-b72be690cc7f"},"vehicle_type_id":"4","last_reported":1703095742,"current_range_meters":0,"station_id":"ce4bhg12rcd13ifvqf70","pricing_plan_id":"free"},{"bike_id":"375ea37e-dfd5-4b25-8c81-dd484cac2012","system_id":"levelo_inurba_marseille","lat":43.26566,"lon":5.39009,"is_reserved":false,"is_disabled":false,"rental_uris":{"android":"levelo://app?vid=375ea37e-dfd5-4b25-8c81-dd484cac2012","ios":"levelo://app?vid=375ea37e-dfd5-4b25-8c81-dd484cac2012"},"vehicle_type_id":"4","last_reported":1703095742,"current_range_meters":12400,"station_id":"ce4bhe12rcd13ifvqf30","pricing_plan_id":"free"},{"bike_id":"7c7bda9c-0c24-4a9a-a682-69088dd9a72b","system_id":"levelo_inurba_marseille","lat":43.26931,"lon":5.40251,"is_reserved":false,"is_disabled":false,"rental_uris":{"android":"levelo://app?vid=7c7bda9c-0c24-4a9a-a682-69088dd9a72b","ios":"levelo://app?vid=7c7bda9c-0c24-4a9a-a682-69088dd9a72b"},"vehicle_type_id":"4","last_reported":1703095742,"current_range_meters":4000,"station_id":"cjm6bp8fraef2m0cb0m0","pricing_plan_id":"free"},{"bike_id":"ffe5bd48-7f2e-4ac1-ae5d-bda4b93701f3","system_id":"levelo_inurba_marseille","lat":43.317104,"lon":5.436818,"is_reserved":false,"is_disabled":false,"rental_uris":{"android":"levelo://app?vid=ffe5bd48-7f2e-4ac1-ae5d-bda4b93701f3","ios":"levelo://app?vid=ffe5bd48-7f2e-4ac1-ae5d-bda4b93701f3"},"vehicle_type_id":"4","last_reported":1703095742,"current_range_meters":28400,"station_id":"ce4bhp92rcd13ifvqhcg","pricing_plan_id":"free"},{"bike_id":"ad28e483-36d4-48ac-9e0f-b7d268ca9026","system_id":"levelo_inurba_marseille","lat":43.271388,"lon":5.409269,"is_reserved":false,"is_disabled":false,"rental_uris":{"android":"levelo://app?vid=ad28e483-36d4-48ac-9e0f-b7d268ca9026","ios":"levelo://app?vid=ad28e483-36d4-48ac-9e0f-b7d268ca9026"},"vehicle_type_id":"4","last_reported":1703095742,"current_range_meters":11200,"station_id":"ce4bhl12rcd13ifvqgf0","pricing_plan_id":"free"},{"bike_id":"e0b195a2-9b60-4f57-bd9a-279d4707cc40","system_id":"levelo_inurba_marseille","lat":43.271388,"lon":5.409269,"is_reserved":false,"is_disabled":false,"rental_uris":{"android":"levelo://app?vid=e0b195a2-9b60-4f57-bd9a-279d4707cc40","ios":"levelo://app?vid=e0b195a2-9b60-4f57-bd9a-279d4707cc40"},"vehicle_type_id":"4","last_reported":1703095742,"current_range_meters":26800,"station_id":"ce4bhl12rcd13ifvqgf0","pricing_plan_id":"free"},{"bike_id":"2d71132e-75da-4e01-9a4a-d237894ca776","system_id":"levelo_inurba_marseille","lat":43.271368,"lon":5.40928,"is_reserved":false,"is_disabled":false,"rental_uris":{"android":"levelo://app?vid=2d71132e-75da-4e01-9a4a-d237894ca776","ios":"levelo://app?vid=2d71132e-75da-4e01-9a4a-d237894ca776"},"vehicle_type_id":"4","last_reported":1703095742,"current_range_meters":14800,"station_id":"ce4bhl12rcd13ifvqgf0","pricing_plan_id":"free"},{"bike_id":"11fec7ff-4782-4f85-9986-d176c2d66faa","system_id":"levelo_inurba_marseille","lat":43.271368,"lon":5.40928,"is_reserved":false,"is_disabled":false,"rental_uris":{"android":"levelo://app?vid=11fec7ff-4782-4f85-9986-d176c2d66faa","ios":"levelo://app?vid=11fec7ff-4782-4f85-9986-d176c2d66faa"},"vehicle_type_id":"4","last_reported":1703095742,"current_range_meters":30400,"station_id":"ce4bhl12rcd13ifvqgf0","pricing_plan_id":"free"},{"bike_id":"d649cf14-2bf7-463e-a525-1efdf77af8a1","system_id":"levelo_inurba_marseille","lat":43.267959,"lon":5.402685,"is_reserved":false,"is_disabled":false,"rental_uris":{"android":"levelo://app?vid=d649cf14-2bf7-463e-a525-1efdf77af8a1","ios":"levelo://app?vid=d649cf14-2bf7-463e-a525-1efdf77af8a1"},"vehicle_type_id":"4","last_reported":1703095742,"current_range_meters":17200,"station_id":"ce501612rcd8frsf0b60","pricing_plan_id":"free"},{"bike_id":"2ee1673b-902b-480b-bb70-36fdb8b648bf","system_id":"levelo_inurba_marseille","lat":43.2651,"lon":5.39469,"is_reserved":false,"is_disabled":false,"rental_uris":{"android":"levelo://app?vid=2ee1673b-902b-480b-bb70-36fdb8b648bf","ios":"levelo://app?vid=2ee1673b-902b-480b-bb70-36fdb8b648bf"},"vehicle_type_id":"4","last_reported":1703095742,"current_range_meters":18400,"station_id":"ce4bhi12rcd13ifvqfq0","pricing_plan_id":"free"},{"bike_id":"18dbda2e-12d1-45c1-914a-dc922409c40b","system_id":"levelo_inurba_marseille","lat":43.298768,"lon":5.43643,"is_reserved":false,"is_disabled":false,"rental_uris":{"android":"levelo://app?vid=18dbda2e-12d1-45c1-914a-dc922409c40b","ios":"levelo://app?vid=18dbda2e-12d1-45c1-914a-dc922409c40b"},"vehicle_type_id":"4","last_reported":1703095742,"current_range_meters":2000,"station_id":"ce4bhpp2rcd13ifvqhfg","pricing_plan_id":"free"},{"bike_id":"74b86536-4297-41f4-84b8-00cceb8360b3","system_id":"levelo_inurba_marseille","lat":43.281548,"lon":5.42643,"is_reserved":false,"is_disabled":false,"rental_uris":{"android":"levelo://app?vid=74b86536-4297-41f4-84b8-00cceb8360b3","ios":"levelo://app?vid=74b86536-4297-41f4-84b8-00cceb8360b3"},"vehicle_type_id":"4","last_reported":1703095742,"current_range_meters":30000,"station_id":"ce4bhnh2rcd13ifvqgug","pricing_plan_id":"free"},{"bike_id":"7942fcd2-247b-4f07-b81d-f3e0e5c73666","system_id":"levelo_inurba_marseille","lat":43.281548,"lon":5.42643,"is_reserved":false,"is_disabled":false,"rental_uris":{"android":"levelo://app?vid=7942fcd2-247b-4f07-b81d-f3e0e5c73666","ios":"levelo://app?vid=7942fcd2-247b-4f07-b81d-f3e0e5c73666"},"vehicle_type_id":"4","last_reported":1703095742,"current_range_meters":12400,"station_id":"ce4bhnh2rcd13ifvqgug","pricing_plan_id":"free"},{"bike_id":"f1fc0061-6850-415d-a8e2-0a92e93b0059","system_id":"levelo_inurba_marseille","lat":43.281548,"lon":5.42643,"is_reserved":false,"is_disabled":false,"rental_uris":{"android":"levelo://app?vid=f1fc0061-6850-415d-a8e2-0a92e93b0059","ios":"levelo://app?vid=f1fc0061-6850-415d-a8e2-0a92e93b0059"},"vehicle_type_id":"4","last_reported":1703095742,"current_range_meters":10800,"station_id":"ce4bhnh2rcd13ifvqgug","pricing_plan_id":"free"},{"bike_id":"370f6633-6f77-437a-b503-ddda6142bba8","system_id":"levelo_inurba_marseille","lat":43.2607,"lon":5.393983,"is_reserved":false,"is_disabled":false,"rental_uris":{"android":"levelo://app?vid=370f6633-6f77-437a-b503-ddda6142bba8","ios":"levelo://app?vid=370f6633-6f77-437a-b503-ddda6142bba8"},"vehicle_type_id":"4","last_reported":1703095742,"current_range_meters":21200,"station_id":"ce4bhh92rcd13ifvqfj0","pricing_plan_id":"free"},{"bike_id":"7dbce985-a659-4544-b4db-075ccab7324d","system_id":"levelo_inurba_marseille","lat":43.2607,"lon":5.393983,"is_reserved":false,"is_disabled":false,"rental_uris":{"android":"levelo://app?vid=7dbce985-a659-4544-b4db-075ccab7324d","ios":"levelo://app?vid=7dbce985-a659-4544-b4db-075ccab7324d"},"vehicle_type_id":"4","last_reported":1703095742,"current_range_meters":7600,"station_id":"ce4bhh92rcd13ifvqfj0","pricing_plan_id":"free"},{"bike_id":"5e1f97b1-3a5a-4358-b8dc-2adb61dc49bd","system_id":"levelo_inurba_marseille","lat":43.2607,"lon":5.393983,"is_reserved":false,"is_disabled":false,"rental_uris":{"android":"levelo://app?vid=5e1f97b1-3a5a-4358-b8dc-2adb61dc49bd","ios":"levelo://app?vid=5e1f97b1-3a5a-4358-b8dc-2adb61dc49bd"},"vehicle_type_id":"4","last_reported":1703095742,"current_range_meters":12400,"station_id":"ce4bhh92rcd13ifvqfj0","pricing_plan_id":"free"},{"bike_id":"69159315-8ce1-4814-acba-07cee1eceab6","system_id":"levelo_inurba_marseille","lat":43.2607,"lon":5.393983,"is_reserved":false,"is_disabled":false,"rental_uris":{"android":"levelo://app?vid=69159315-8ce1-4814-acba-07cee1eceab6","ios":"levelo://app?vid=69159315-8ce1-4814-acba-07cee1eceab6"},"vehicle_type_id":"4","last_reported":1703095742,"current_range_meters":7200,"station_id":"ce4bhh92rcd13ifvqfj0","pricing_plan_id":"free"},