{"last_updated":1746087254,"ttl":60,"version":"2.2","data":{"bikes":[{"bike_id":"00efbeb5-872a-4078-9994-9640cb88c828","system_id":"levelo_inurba_marseille","lat":43.25713,"lon":5.41123,"is_reserved":false,"is_disabled":false,"rental_uris":{"android":"levelo://app?vid=00efbeb5-872a-4078-9994-9640cb88c828","ios":"levelo://app?vid=00efbeb5-872a-4078-9994-9640cb88c828"},"vehicle_type_id":"4","last_reported":1746087254,"current_range_meters":2800,"station_id":"ce4bhkp2rcd13ifvqgd0","pricing_plan_id":"cebpf4jnsgd1na2vs0mg"},{"bike_id":"6d39fda9-3c78-49f4-b885-53f2b5e2439e","system_id":"levelo_inurba_marseille","lat":43.28611,"lon":5.35097,"is_reserved":false,"is_disabled":false,"rental_uris":{"android":"levelo://app?vid=6d39fda9-3c78-49f4-b885-53f2b5e2439e","ios":"levelo://app?vid=6d39fda9-3c78-49f4-b885-53f2b5e2439e"},"vehicle_type_id":"4","last_reported":1746087254,"current_range_meters":2800,"station_id":"ce4bhch2rcd13ifvqeug","pricing_plan_id":"cebpf4jnsgd1na2vs0mg"},{"bike_id":"8928452c-126d-400c-9131-f5e0ef3949da","system_id":"levelo_inurba_marseille","lat":43.32336,"lon":5.40626,"is_reserved":false,"is_disabled":false,"rental_uris":{"android":"levelo://app?vid=8928452c-126d-400c-9131-f5e0ef3949da","ios":"levelo://app?vid=8928452c-126d-400c-9131-f5e0ef3949da"},"vehicle_type_id":"4","last_reported":1746087254,"current_range_meters":2800,"station_id":"ce4bhq92rcd13ifvqhjg","pricing_plan_id":"cebpf4jnsgd1na2vs0mg"},{"bike_id":"673a0c3f-8ece-48df-a2aa-4780ac191d8f","system_id":"levelo_inurba_marseille","lat":43.3205,"lon":5.41589,"is_reserved":false,"is_disabled":false,"rental_uris":{"android":"levelo://app?vid=673a0c3f-8ece-48df-a2aa-4780ac191d8f","ios":"levelo://app?vid=673a0c3f-8ece-48df-a2aa-4780ac191d8f"},"vehicle_type_id":"4","last_reported":1746087254,"current_range_meters":3600,"station_id":"ce4bhq92rcd13ifvqhkg","pricing_plan_id":"cebpf4jnsgd1na2vs0mg"},{"bike_id":"e06e3ad6-0e5a-49f2-98bb-d0b7ffaaf745","system_id":"levelo_inurba_marseille","lat":43.23382,"lon":5.36127,"is_reserved":false,"is_disabled":false,"rental_uris":{"android":"levelo://app?vid=e06e3ad6-0e5a-49f2-98bb-d0b7ffaaf745","ios":"levelo://app?vid=e06e3ad6-0e5a-49f2-98bb-d0b7ffaaf745"},"vehicle_type_id":"4","last_reported":1746087254,"current_range_meters":3600,"station_id":"","pricing_plan_id":"cebpf4jnsgd1na2vs0mg"},{"bike_id":"6e3a19df-c55a-45b6-a5d7-8c86d346569c","system_id":"levelo_inurba_marseille","lat":43.255,"lon":5.37643,"is_reserved":false,"is_disabled":false,"rental_uris":{"android":"levelo://app?vid=6e3a19df-c55a-45b6-a5d7-8c86d346569c","ios":"levelo://app?vid=6e3a19df-c55a-45b6-a5d7-8c86d346569c"},"vehicle_type_id":"4","last_reported":1746087254,"current_range_meters":3600,"station_id":"ce4bhh12rcd13ifvqff0","pricing_plan_id":"cebpf4jnsgd1na2vs0mg"},{"bike_id":"28cc5454-f65a-40ce-b036-1c085a2f18c9","system_id":"levelo_inurba_marseille","lat":43.23151,"lon":5.43711,"is_reserved":false,"is_disabled":false,"rental_uris":{"android":"levelo://app?vid=28cc5454-f65a-40ce-b036-1c085a2f18c9","ios":"levelo://app?vid=28cc5454-f65a-40ce-b036-1c085a2f18c9"},"vehicle_type_id":"4","last_reported":1746087254,"current_range_meters":3600,"station_id":"ce4bhmp2rcd13ifvqgog","pricing_plan_id":"cebpf4jnsgd1na2vs0mg"},{"bike_id":"8c146972-cd04-483d-8611-73ce4c75f80d","system_id":"levelo_inurba_marseille","lat":43.28356,"lon":5.38094,"is_reserved":false,"is_disabled":false,"rental_uris":{"android":"levelo://app?vid=8c146972-cd04-483d-8611-73ce4c75f80d","ios":"levelo://app?vid=8c146972-cd04-483d-8611-73ce4c75f80d"},"vehicle_type_id":"4","last_reported":1746087254,"current_range_meters":3600,"station_id":"ce4bh412rcd13ifvqdr0","pricing_plan_id":"cebpf4jnsgd1na2vs0mg"},{"bike_id":"07161eee-e878-4e03-a3f5-86763fc8f41a","system_id":"levelo_inurba_marseille","lat":43.29074,"lon":5.37167,"is_reserved":false,"is_disabled":false,"rental_uris":{"android":"levelo://app?vid=07161eee-e878-4e03-a3f5-86763fc8f41a","ios":"levelo://app?vid=07161eee-e878-4e03-a3f5-86763fc8f41a"},"vehicle_type_id":"4","last_reported":1746087254,"current_range_meters":3600,"station_id":"ce4bh5p2rcd13ifvqe4g","pricing_plan_id":"cebpf4jnsgd1na2vs0mg"},{"bike_id":"2d0fea3e-041c-4d20-aeb7-63739e3d5c27","system_id":"levelo_inurba_marseille","lat":43.30659,"lon":5.36553,"is_reserved":false,"is_disabled":false,"rental_uris":{"android":"levelo://app?vid=2d0fea3e-041c-4d20-aeb7-63739e3d5c27","ios":"levelo://app?vid=2d0fea3e-041c-4d20-aeb7-63739e3d5c27"},"vehicle_type_id":"4","last_reported":1746087254,"current_range_meters":4000,"station_id":"","pricing_plan_id":"cebpf4jnsgd1na2vs0mg"},{"bike_id":"11a2cc84-a033-4339-942a-11c73b3902cb","system_id":"levelo_inurba_marseille","lat":43.27055,"lon":5.40249,"is_reserved":false,"is_disabled":false,"rental_uris":{"android":"levelo://app?vid=11a2cc84-a033-4339-942a-11c73b3902cb","ios":"levelo://app?vid=11a2cc84-a033-4339-942a-11c73b3902cb"},"vehicle_type_id":"4","last_reported":1746087254,"current_range_meters":4400,"station_id":"ce4bhk92rcd13ifvqgc0","pricing_plan_id":"cebpf4jnsgd1na2vs0mg"},{"bike_id":"acc44389-a25d-4480-a997-4b3109260d59","system_id":"levelo_inurba_marseille","lat":43.30354,"lon":5.41873,"is_reserved":false,"is_disabled":false,"rental_uris":{"android":"levelo://app?vid=acc44389-a25d-4480-a997-4b3109260d59","ios":"levelo://app?vid=acc44389-a25d-4480-a997-4b3109260d59"},"vehicle_type_id":"4","last_reported":1746087254,"current_range_meters":4400,"station_id":"ce4bhop2rcd13ifvqh7g","pricing_plan_id":"cebpf4jnsgd1na2vs0mg"},{"bike_id":"09926c63-4a3c-4d1a-9a2f-2bb349c9f1c9","system_id":"levelo_inurba_marseille","lat":43.28274,"lon":5.35063,"is_reserved":false,"is_disabled":false,"rental_uris":{"android":"levelo://app?vid=09926c63-4a3c-4d1a-9a2f-2bb349c9f1c9","ios":"levelo://app?vid=09926c63-4a3c-4d1a-9a2f-2bb349c9f1c9"},"vehicle_type_id":"4","last_reported":1746087254,"current_range_meters":4400,"station_id":"ce4bhbp2rcd13ifvqerg","pricing_plan_id":"cebpf4jnsgd1na2vs0mg"},{"bike_id":"387bc5ea-7c2b-41e1-a1e6-3b4cc71c9638","system_id":"levelo_inurba_marseille","lat":43.2418,"lon":5.3971,"is_reserved":false,"is_disabled":true,"rental_uris":{"android":"levelo://app?vid=387bc5ea-7c2b-41e1-a1e6-3b4cc71c9638","ios":"levelo://app?vid=387bc5ea-7c2b-41e1-a1e6-3b4cc71c9638"},"vehicle_type_id":"4","last_reported":1746087254,"current_range_meters":4400,"station_id":"ce4bhn12rcd13ifvqgpg","pricing_plan_id":"cebpf4jnsgd1na2vs0mg"},{"bike_id":"4e478382-670d-43a7-ba71-65906db4a772","system_id":"levelo_inurba_marseille","lat":43.29539,"lon":5.3751,"is_reserved":false,"is_disabled":false,"rental_uris":{"android":"levelo://app?vid=4e478382-670d-43a7-ba71-65906db4a772","ios":"levelo://app?vid=4e478382-670d-43a7-ba71-65906db4a772"},"vehicle_type_id":"4","last_reported":1746087254,"current_range_meters":4400,"station_id":"ce4bgkp2rcd13ifvqbmg","pricing_plan_id":"cebpf4jnsgd1na2vs0mg"},{"bike_id":"ff0c0d0e-14c4-4781-8df6-b3c83255cde4","system_id":"levelo_inurba_marseille","lat":43.33724,"lon":5.39183,"is_reserved":false,"is_disabled":false,"rental_uris":{"android":"levelo://app?vid=ff0c0d0e-14c4-4781-8df6-b3c83255cde4","ios":"levelo://app?vid=ff0c0d0e-14c4-4781-8df6-b3c83255cde4"},"vehicle_type_id":"4","last_reported":1746087254,"current_range_meters":4800,"station_id":"ce4bhr92rcd13ifvqhsg","pricing_plan_id":"cebpf4jnsgd1na2vs0mg"},{"bike_id":"fd34ca46-91ba-4102-a928-7ae5be7ba8fa","system_id":"levelo_inurba_marseille","lat":43.31687,"lon":5.40472,"is_reserved":false,"is_disabled":false,"rental_uris":{"android":"levelo://app?vid=fd34ca46-91ba-4102-a928-7ae5be7ba8fa","ios":"levelo://app?vid=fd34ca46-91ba-4102-a928-7ae5be7ba8fa"},"vehicle_type_id":"4","last_reported":1746087254,"current_range_meters":5600,"station_id":"ce4bh012rcd13ifvqd00","pricing_plan_id":"cebpf4jnsgd1na2vs0mg"},{"bike_id":"ed01b2d3-e777-4cde-b001-4acf8ff4f995","system_id":"levelo_inurba_marseille","lat":43.336088,"lon":5.410254,"is_reserved":false,"is_disabled":false,"rental_uris":{"android":"levelo://app?vid=ed01b2d3-e777-4cde-b001-4acf8ff4f995","ios":"levelo://app?vid=ed01b2d3-e777-4cde-b001-4acf8ff4f995"},"vehicle_type_id":"4","last_reported":1746087254,"current_range_meters":5600,"station_id":"ce4bhqh2rcd13ifvqhmg","pricing_plan_id":"cebpf4jnsgd1na2vs0mg"},{"bike_id":"2f3b16e5-1506-48f4-8507-b6d411b6bed5","system_id":"levelo_inurba_marseille","lat":43.25724,"lon":5.41113,"is_reserved":false,"is_disabled":false,"rental_uris":{"android":"levelo://app?vid=2f3b16e5-1506-48f4-8507-b6d411b6bed5","ios":"levelo://app?vid=2f3b16e5-1506-48f4-8507-b6d411b6bed5"},"vehicle_type_id":"4","last_reported":1746087254,"current_range_meters":6000,"station_id":"ce4bhkp2rcd13ifvqgd0","pricing_plan_id":"cebpf4jnsgd1na2vs0mg"},{"bike_id":"af45928f-99f5-4c10-8488-a1690bf972d2","system_id":"levelo_inurba_marseille","lat":43.294582,"lon":5.397698,"is_reserved":false,"is_disabled":true,"rental_uris":{"android":"levelo://app?vid=af45928f-99f5-4c10-8488-a1690bf972d2","ios":"levelo://app?vid=af45928f-99f5-4c10-8488-a1690bf972d2"},"vehicle_type_id":"4","last_reported":1746087254,"current_range_meters":6000,"station_id":"ce4bh3h2rcd13ifvqdo0","pricing_plan_id":"cebpf4jnsgd1na2vs0mg"},{"bike_id":"3c51200c-0f23-499c-aef9-9d47e698a558","system_id":"levelo_inurba_marseille","lat":43.276745,"lon":5.357309,"is_reserved":false,"is_disabled":false,"rental_uris":{"android":"levelo://app?vid=3c51200c-0f23-499c-aef9-9d47e698a558","ios":"levelo://app?vid=3c51200c-0f23-499c-aef9-9d47e698a558"},"vehicle_type_id":"4","last_reported":1746087254,"current_range_meters":6000,"station_id":"","pricing_plan_id":"cebpf4jnsgd1na2vs0mg"},{"bike_id":"76a9cd10-fdd4-4a05-acce-121be760d6db","system_id":"levelo_inurba_marseille","lat":43.27329,"lon":5.39123,"is_reserved":false,"is_disabled":true,"rental_uris":{"android":"levelo://app?vid=76a9cd10-fdd4-4a05-acce-121be760d6db","ios":"levelo://app?vid=76a9cd10-fdd4-4a05-acce-121be760d6db"},"vehicle_type_id":"4","last_reported":1746087254,"current_range_meters":6000,"station_id":"ce4bhgp2rcd13ifvqfe0","pricing_plan_id":"cebpf4jnsgd1na2vs0mg"},{"bike_id":"489415b8-9254-45c1-b00c-e7554d56755c","system_id":"levelo_inurba_marseille","lat":43.245224,"lon":5.412164,"is_reserved":false,"is_disabled":false,"rental_uris":{"android":"levelo://app?vid=489415b8-9254-45c1-b00c-e7554d56755c","ios":"levelo://app?vid=489415b8-9254-45c1-b00c-e7554d56755c"},"vehicle_type_id":"4","last_reported":1746087254,"current_range_meters":6400,"station_id":"","pricing_plan_id":"cebpf4jnsgd1na2vs0mg"},{"bike_id":"fb3b8183-90cd-43f4-8e49-d95b7778732d","system_id":"levelo_inurba_marseille","lat":43.25608,"lon":5.4052,"is_reserved":false,"is_disabled":false,"rental_uris":{"android":"levelo://app?vid=fb3b8183-90cd-43f4-8e49-d95b7778732d","ios":"levelo://app?vid=fb3b8183-90cd-43f4-8e49-d95b7778732d"},"vehicle_type_id":"4","last_reported":1746087254,"current_range_meters":6400,"station_id":"","pricing_plan_id":"cebpf4jnsgd1na2vs0mg"},{"bike_id":"cca19f2d-a4bd-4f25-93c7-8aa3c22528fc","system_id":"levelo_inurba_marseille","lat":43.293,"lon":5.37171,"is_reserved":false,"is_disabled":false,"rental_uris":{"android":"levelo://app?vid=cca19f2d-a4bd-4f25-93c7-8aa3c22528fc","ios":"levelo://app?vid=cca19f2d-a4bd-4f25-93c7-8aa3c22528fc"},"vehicle_type_id":"4","last_reported":1746087254,"current_range_meters":6400,"station_id":"ce4bgh92rcd13ifvqb40","pricing_plan_id":"cebpf4jnsgd1na2vs0mg"},{"bike_id":"9965e496-e128-48a0-9487-d7af7b498698","system_id":"levelo_inurba_marseille","lat":43.29189,"lon":5.39315,"is_reserved":false,"is_disabled":true,"rental_uris":{"android":"levelo://app?vid=9965e496-e128-48a0-9487-d7af7b498698","ios":"levelo://app?vid=9965e496-e128-48a0-9487-d7af7b498698"},"vehicle_type_id":"4","last_reported":1746087254,"current_range_meters":6400,"station_id":"ce4bh192rcd13ifvqdd0","pricing_plan_id":"cebpf4jnsgd1na2vs0mg"},{"bike_id":"890ebffd-feac-46ca-a570-0c21dc8fbdc3","system_id":"levelo_inurba_marseille","lat":43.27363,"lon":5.36242,"is_reserved":false,"is_disabled":false,"rental_uris":{"android":"levelo://app?vid=890ebffd-feac-46ca-a570-0c21dc8fbdc3","ios":"levelo://app?vid=890ebffd-feac-46ca-a570-0c21dc8fbdc3"},"vehicle_type_id":"4","last_reported":1746087254,"current_range_meters":6400,"station_id":"ce4bhbh2rcd13ifvqeo0","pricing_plan_id":"cebpf4jnsgd1na2vs0mg"},{"bike_id":"8e127416-9a59-497e-a6b1-aff1fa34a01e","system_id":"levelo_inurba_marseille","lat":43.28268,"lon":5.35058,"is_reserved":false,"is_disabled":false,"rental_uris":{"android":"levelo://app?vid=8e127416-9a59-497e-a6b1-aff1fa34a01e","ios":"levelo://app?vid=8e127416-9a59-497e-a6b1-aff1fa34a01e"},"vehicle_type_id":"4","last_reported":1746087254,"current_range_meters":6400,"station_id":"ce4bhbp2rcd13ifvqerg","pricing_plan_id":"cebpf4jnsgd1na2vs0mg"},{"bike_id":"5ee6cffc-f805-478c-bc26-c513586b9350","system_id":"levelo_inurba_marseille","lat":43.299063,"lon":5.436653,"is_reserved":false,"is_disabled":false,"rental_uris":{"android":"levelo://app?vid=5ee6cffc-f805-478c-bc26-c513586b9350","ios":"levelo://app?vid=5ee6cffc-f805-478c-bc26-c513586b9350"},"vehicle_type_id":"4","last_reported":1746087254,"current_range_meters":6800,"station_id":"ce4bhpp2rcd13ifvqhfg","pricing_plan_id":"cebpf4jnsgd1na2vs0mg"},{"bike_id":"b03038af-ca24-4b30-87ec-afa5b1bfa5af","system_id":"levelo_inurba_marseille","lat":43.25746,"lon":5.41115,"is_reserved":false,"is_disabled":false,"rental_uris":{"android":"levelo://app?vid=b03038af-ca24-4b30-87ec-afa5b1bfa5af","ios":"levelo://app?vid=b03038af-ca24-4b30-87ec-afa5b1bfa5af"},"vehicle_type_id":"4","last_reported":1746087254,"current_range_meters":6800,"station_id":"ce4bhkp2rcd13ifvqgd0","pricing_plan_id":"cebpf4jnsgd1na2vs0mg"},{"bike_id":"12254efa-64b2-4b5d-9da8-3ce0b24bc981","system_id":"levelo_inurba_marseille","lat":43.30371,"lon":5.42468,"is_reserved":false,"is_disabled":false,"rental_uris":{"android":"levelo://app?vid=12254efa-64b2-4b5d-9da8-3ce0b24bc981","ios":"levelo://app?vid=12254efa-64b2-4b5d-9da8-3ce0b24bc981"},"vehicle_type_id":"4","last_reported":1746087254,"current_range_meters":6800,"station_id":"ce4bhoh2rcd13ifvqh6g","pricing_plan_id":"cebpf4jnsgd1na2vs0mg"},{"bike_id":"be72c957-5086-45b5-b164-09f800df4fff","system_id":"levelo_inurba_marseille","lat":43.26794,"lon":5.402763,"is_reserved":false,"is_disabled":false,"rental_uris":{"android":"levelo://app?vid=be72c957-5086-45b5-b164-09f800df4fff","ios":"levelo://app?vid=be72c957-5086-45b5-b164-09f800df4fff"},"vehicle_type_id":"4","last_reported":1746087254,"current_range_meters":6800,"station_id":"ce501612rcd8frsf0b60","pricing_plan_id":"cebpf4jnsgd1na2vs0mg"},{"bike_id":"07edfd45-c3fa-4b57-b865-cf1bf9963264","system_id":"levelo_inurba_marseille","lat":43.23404,"lon":5.36454,"is_reserved":false,"is_disabled":false,"rental_uris":{"android":"levelo://app?vid=07edfd45-c3fa-4b57-b865-cf1bf9963264","ios":"levelo://app?vid=07edfd45-c3fa-4b57-b865-cf1bf9963264"},"vehicle_type_id":"4","last_reported":1746087254,"current_range_meters":6800,"station_id":"","pricing_plan_id":"cebpf4jnsgd1na2vs0mg"},{"bike_id":"06d4aaca-eadb-4fef-91cf-7d39ca5b048c","system_id":"levelo_inurba_marseille","lat":43.32339,"lon":5.40617,"is_reserved":false,"is_disabled":false,"rental_uris":{"android":"levelo://app?vid=06d4aaca-eadb-4fef-91cf-7d39ca5b048c","ios":"levelo://app?vid=06d4aaca-eadb-4fef-91cf-7d39ca5b048c"},"vehicle_type_id":"4","last_reported":1746087254,"current_range_meters":6800,"station_id":"ce4bhq92rcd13ifvqhjg","pricing_plan_id":"cebpf4jnsgd1na2vs0mg"},{"bike_id":"ab6cc9c9-69c8-48cc-bcbd-c9541d1c7966","system_id":"levelo_inurba_marseille","lat":43.29724,"lon":5.40125,"is_reserved":false,"is_disabled":false,"rental_uris":{"android":"levelo://app?vid=ab6cc9c9-69c8-48cc-bcbd-c9541d1c7966","ios":"levelo://app?vid=ab6cc9c9-69c8-48cc-bcbd-c9541d1c7966"},"vehicle_type_id":"4","last_reported":1746087254,"current_range_meters":7200,"station_id":"","pricing_plan_id":"cebpf4jnsgd1na2vs0mg"},{"bike_id":"a50a9f39-b71b-4238-bb87-4e01aacb4104","system_id":"levelo_inurba_marseille","lat":43.26787,"lon":5.39409,"is_reserved":false,"is_disabled":false,"rental_uris":{"android":"levelo://app?vid=a50a9f39-b71b-4238-bb87-4e01aacb4104","ios":"levelo://app?vid=a50a9f39-b71b-4238-bb87-4e01aacb4104"},"vehicle_type_id":"4","last_reported":1746087254,"current_range_meters":6800,"station_id":"ce4bhh12rcd13ifvqfg0","pricing_plan_id":"cebpf4jnsgd1na2vs0mg"},{"bike_id":"25a6ab30-32de-4f0e-8e11-90bd04ebdee9","system_id":"levelo_inurba_marseille","lat":43.31701,"lon":5.40473,"is_reserved":false,"is_disabled":true,"rental_uris":{"android":"levelo://app?vid=25a6ab30-32de-4f0e-8e11-90bd04ebdee9","ios":"levelo://app?vid=25a6ab30-32de-4f0e-8e11-90bd04ebdee9"},"vehicle_type_id":"4","last_reported":1746087254,"current_range_meters":7200,"station_id":"ce4bh012rcd13ifvqd00","pricing_plan_id":"cebpf4jnsgd1na2vs0mg"},{"bike_id":"c89af82b-d8de-4524-ac1f-cc5e38330d5b","system_id":"levelo_inurba_marseille","lat":43.324724,"lon":5.365809,"is_reserved":false,"is_disabled":false,"rental_uris":{"android":"levelo://app?vid=c89af82b-d8de-4524-ac1f-cc5e38330d5b","ios":"levelo://app?vid=c89af82b-d8de-4524-ac1f-cc5e38330d5b"},"vehicle_type_id":"4","last_reported":1746087254,"current_range_meters":8000,"station_id":"ce4bhs12rcd13ifvqhvg","pricing_plan_id":"cebpf4jnsgd1na2vs0mg"},{"bike_id":"cc108c06-16b9-41a9-8892-bf7b92dc1ff7","system_id":"levelo_inurba_marseille","lat":43.28079,"lon":5.39662,"is_reserved":false,"is_disabled":false,"rental_uris":{"android":"levelo://app?vid=cc108c06-16b9-41a9-8892-bf7b92dc1ff7","ios":"levelo://app?vid=cc108c06-16b9-41a9-8892-bf7b92dc1ff7"},"vehicle_type_id":"4","last_reported":1746087254,"current_range_meters":8000,"station_id":"ce4bho12rcd13ifvqh2g","pricing_plan_id":"cebpf4jnsgd1na2vs0mg"},{"bike_id":"24fe4670-2cfb-49d4-a3ec-2dd67a898c28","system_id":"levelo_inurba_marseille","lat":43.25724,"lon":5.41116,"is_reserved":false,"is_disabled":false,"rental_uris":{"android":"levelo://app?vid=24fe4670-2cfb-49d4-a3ec-2dd67a898c28","ios":"levelo://app?vid=24fe4670-2cfb-49d4-a3ec-2dd67a898c28"},"vehicle_type_id":"4","last_reported":1746087254,"current_range_meters":8000,"station_id":"ce4bhkp2rcd13ifvqgd0","pricing_plan_id":"cebpf4jnsgd1na2vs0mg"},{"bike_id":"ed89d67a-a922-469b-bbdc-d437af27a591","system_id":"levelo_inurba_marseille","lat":43.25936,"lon":5.40902,"is_reserved":false,"is_disabled":false,"rental_uris":{"android":"levelo://app?vid=ed89d67a-a922-469b-bbdc-d437af27a591","ios":"levelo://app?vid=ed89d67a-a922-469b-bbdc-d437af27a591"},"vehicle_type_id":"4","last_reported":1746087254,"current_range_meters":8400,"station_id":"ce4bhm92rcd13ifvqglg","pricing_plan_id":"cebpf4jnsgd1na2vs0mg"},{"bike_id":"8f05298f-51ea-488a-877a-6cc3ef31b345","system_id":"levelo_inurba_marseille","lat":43.27213,"lon":5.39181,"is_reserved":false,"is_disabled":false,"rental_uris":{"android":"levelo://app?vid=8f05298f-51ea-488a-877a-6cc3ef31b345","ios":"levelo://app?vid=8f05298f-51ea-488a-877a-6cc3ef31b345"},"vehicle_type_id":"4","last_reported":1746087254,"current_range_meters":8400,"station_id":"ce4bhhp2rcd13ifvqfm0","pricing_plan_id":"cebpf4jnsgd1na2vs0mg"},{"bike_id":"3afcf5ec-ea5b-419c-a004-0bcbfa95f4b5","system_id":"levelo_inurba_marseille","lat":43.28264,"lon":5.35055,"is_reserved":false,"is_disabled":false,"rental_uris":{"android":"levelo://app?vid=3afcf5ec-ea5b-419c-a004-0bcbfa95f4b5","ios":"levelo://app?vid=3afcf5ec-ea5b-419c-a004-0bcbfa95f4b5"},"vehicle_type_id":"4","last_reported":1746087254,"current_range_meters":8400,"station_id":"ce4bhbp2rcd13ifvqerg","pricing_plan_id":"cebpf4jnsgd1na2vs0mg"},{"bike_id":"7e2a28b0-d13a-43a4-8b9d-0330ddf14195","system_id":"levelo_inurba_marseille","lat":43.29005,"lon":5.35616,"is_reserved":false,"is_disabled":false,"rental_uris":{"android":"levelo://app?vid=7e2a28b0-d13a-43a4-8b9d-0330ddf14195","ios":"levelo://app?vid=7e2a28b0-d13a-43a4-8b9d-0330ddf14195"},"vehicle_type_id":"4","last_reported":1746087254,"current_range_meters":8400,"station_id":"ce4bhb92rcd13ifvqen0","pricing_plan_id":"cebpf4jnsgd1na2vs0mg"},{"bike_id":"7f770ba9-2e48-47c9-8bb4-942855273bad","system_id":"levelo_inurba_marseille","lat":43.25328,"lon":5.42402,"is_reserved":false,"is_disabled":false,"rental_uris":{"android":"levelo://app?vid=7f770ba9-2e48-47c9-8bb4-942855273bad","ios":"levelo://app?vid=7f770ba9-2e48-47c9-8bb4-942855273bad"},"vehicle_type_id":"4","last_reported":1746087254,"current_range_meters":8400,"station_id":"","pricing_plan_id":"cebpf4jnsgd1na2vs0mg"},{"bike_id":"25010089-4f90-4436-b2a9-d39b5a2185cc","system_id":"levelo_inurba_marseille","lat":43.28431,"lon":5.34986,"is_reserved":false,"is_disabled":false,"rental_uris":{"android":"levelo://app?vid=25010089-4f90-4436-b2a9-d39b5a2185cc","ios":"levelo://app?vid=25010089-4f90-4436-b2a9-d39b5a2185cc"},"vehicle_type_id":"4","last_reported":1746087254,"current_range_meters":8400,"station_id":"ce4bhbh2rcd13ifvqepg","pricing_plan_id":"cebpf4jnsgd1na2vs0mg"},{"bike_id":"f31bf073-e687-4787-90ee-691c464f7f3e","system_id":"levelo_inurba_marseille","lat":43.25724,"lon":5.41104,"is_reserved":false,"is_disabled":false,"rental_uris":{"android":"levelo://app?vid=f31bf073-e687-4787-90ee-691c464f7f3e","ios":"levelo://app?vid=f31bf073-e687-4787-90ee-691c464f7f3e"},"vehicle_type_id":"4","last_reported":1746087254,"current_range_meters":8800,"station_id":"ce4bhkp2rcd13ifvqgd0","pricing_plan_id":"cebpf4jnsgd1na2vs0mg"},{"bike_id":"8a08109b-abba-4662-b984-893ba2719fa3","system_id":"levelo_inurba_marseille","lat":43.24664,"lon":5.38153,"is_reserved":false,"is_disabled":false,"rental_uris":{"android":"levelo://app?vid=8a08109b-abba-4662-b984-893ba2719fa3","ios":"levelo://app?vid=8a08109b-abba-4662-b984-893ba2719fa3"},"vehicle_type_id":"4","last_reported":1746087254,"current_range_meters":8800,"station_id":"ce4bhih2rcd13ifvqfr0","pricing_plan_id":"cebpf4jnsgd1na2vs0mg"},{"bike_id":"9ede1e42-052c-4356-a5f5-ddadd7dfa1c8","system_id":"levelo_inurba_marseille","lat":43.22929,"lon":5.35372,"is_reserved":false,"is_disabled":false,"rental_uris":{"android":"levelo://app?vid=9ede1e42-052c-4356-a5f5-ddadd7dfa1c8","ios":"levelo://app?vid=9ede1e42-052c-4356-a5f5-ddadd7dfa1c8"},"vehicle_type_id":"4","last_reported":1746087254,"current_range_meters":8800,"station_id":"cpo3532slgdg3j2ikp40","pricing_plan_id":"cebpf4jnsgd1na2vs0mg"},{"bike_id":"3a6bed13-1a34-48f0-b750-0a5a4674ee4d","system_id":"levelo_inurba_marseille","lat":43.301083,"lon":5.383843,"is_reserved":false,"is_disabled":false,"rental_uris":{"android":"levelo://app?vid=3a6bed13-1a34-48f0-b750-0a5a4674ee4d","ios":"levelo://app?vid=3a6bed13-1a34-48f0-b750-0a5a4674ee4d"},"vehicle_type_id":"4","last_reported":1746087254,"current_range_meters":8800,"station_id":"","pricing_plan_id":"cebpf4jnsgd1na2vs0mg"},{"bike_id":"0e357378-e5ac-454f-ba61-d34a94e4ce96","system_id":"levelo_inurba_marseille","lat":43.23149,"lon":5.43704,"is_reserved":false,"is_disabled":false,"rental_uris":{"android":"levelo://app?vid=0e357378-e5ac-454f-ba61-d34a94e4ce96","ios":"levelo://app?vid=0e357378-e5ac-454f-ba61-d34a94e4ce96"},"vehicle_type_id":"4","last_reported":1746087254,"current_range_meters":8800,"station_id":"ce4bhmp2rcd13ifvqgog","pricing_plan_id":"cebpf4jnsgd1na2vs0mg"},{"bike_id":"c2822950-d0b4-4023-8870-6743aa9d2122","system_id":"levelo_inurba_marseille","lat":43.267765,"lon":5.394326,"is_reserved":false,"is_disabled":false,"rental_uris":{"android":"levelo://app?vid=c2822950-d0b4-4023-8870-6743aa9d2122","ios":"levelo://app?vid=c2822950-d0b4-4023-8870-6743aa9d2122"},"vehicle_type_id":"4","last_reported":1746087254,"current_range_meters":8800,"station_id":"ce4bhh12rcd13ifvqfg0","pricing_plan_id":"cebpf4jnsgd1na2vs0mg"},{"bike_id":"3e078eab-a33f-42d7-9bff-b794c7f4aee3","system_id":"levelo_inurba_marseille","lat":43.27616,"lon":5.36113,"is_reserved":false,"is_disabled":false,"rental_uris":{"android":"levelo://app?vid=3e078eab-a33f-42d7-9bff-b794c7f4aee3","ios":"levelo://app?vid=3e078eab-a33f-42d7-9bff-b794c7f4aee3"},"vehicle_type_id":"4","last_reported":1746087254,"current_range_meters":8400,"station_id":"ce4bgj92rcd13ifvqbe0","pricing_plan_id":"cebpf4jnsgd1na2vs0mg"},{"bike_id":"32ce8512-37aa-462d-8f4c-ff3f90e75cb2","system_id":"levelo_inurba_marseille","lat":43.24396,"lon":5.37056,"is_reserved":false,"is_disabled":false,"rental_uris":{"android":"levelo://app?vid=32ce8512-37aa-462d-8f4c-ff3f90e75cb2","ios":"levelo://app?vid=32ce8512-37aa-462d-8f4c-ff3f90e75cb2"},"vehicle_type_id":"4","last_reported":1746087254,"current_range_meters":9200,"station_id":"ce4bhhh2rcd13ifvqfk0","pricing_plan_id":"cebpf4jnsgd1na2vs0mg"},{"bike_id":"c5552acd-50fa-4b0d-95c7-8f6dc5626569","system_id":"levelo_inurba_marseille","lat":43.28072,"lon":5.39603,"is_reserved":false,"is_disabled":false,"rental_uris":{"android":"levelo://app?vid=c5552acd-50fa-4b0d-95c7-8f6dc5626569","ios":"levelo://app?vid=c5552acd-50fa-4b0d-95c7-8f6dc5626569"},"vehicle_type_id":"4","last_reported":1746087254,"current_range_meters":9200,"station_id":"ce4bho12rcd13ifvqh2g","pricing_plan_id":"cebpf4jnsgd1na2vs0mg"},{"bike_id":"fa0013e1-384c-4a43-9dc8-c63fff3d2b7e","system_id":"levelo_inurba_marseille","lat":43.23177,"lon":5.39998,"is_reserved":false,"is_disabled":false,"rental_uris":{"android":"levelo://app?vid=fa0013e1-384c-4a43-9dc8-c63fff3d2b7e","ios":"levelo://app?vid=fa0013e1-384c-4a43-9dc8-c63fff3d2b7e"},"vehicle_type_id":"4","last_reported":1746087254,"current_range_meters":9200,"station_id":"ce4bhn12rcd13ifvqgqg","pricing_plan_id":"cebpf4jnsgd1na2vs0mg"},{"bike_id":"912c7719-28e0-48e1-8454-fa465c703922","system_id":"levelo_inurba_marseille","lat":43.29497,"lon":5.37383,"is_reserved":false,"is_disabled":false,"rental_uris":{"android":"levelo://app?vid=912c7719-28e0-48e1-8454-fa465c703922","ios":"levelo://app?vid=912c7719-28e0-48e1-8454-fa465c703922"},"vehicle_type_id":"4","last_reported":1746087254,"current_range_meters":9200,"station_id":"","pricing_plan_id":"cebpf4jnsgd1na2vs0mg"},{"bike_id":"405fa080-f811-46f3-8582-d87d58738f3b","system_id":"levelo_inurba_marseille","lat":43.25741,"lon":5.41824,"is_reserved":false,"is_disabled":false,"rental_uris":{"android":"levelo://app?vid=405fa080-f811-46f3-8582-d87d58738f3b","ios":"levelo://app?vid=405fa080-f811-46f3-8582-d87d58738f3b"},"vehicle_type_id":"4","last_reported":1746087254,"current_range_meters":9200,"station_id":"","pricing_plan_id":"cebpf4jnsgd1na2vs0mg"},{"bike_id":"e5e92a64-e709-4b1a-a9b1-cbffe85789ca","system_id":"levelo_inurba_marseille","lat":43.255423,"lon":5.381443,"is_reserved":false,"is_disabled":false,"rental_uris":{"android":"levelo://app?vid=e5e92a64-e709-4b1a-a9b1-cbffe85789ca","ios":"levelo://app?vid=e5e92a64-e709-4b1a-a9b1-cbffe85789ca"},"vehicle_type_id":"4","last_reported":1746087254,"current_range_meters":9200,"station_id":"","pricing_plan_id":"cebpf4jnsgd1na2vs0mg"},{"bike_id":"8261973d-7fd9-4c15-8fb8-294a251b0456","system_id":"levelo_inurba_marseille","lat":43.29257,"lon":5.38605,"is_reserved":false,"is_disabled":true,"rental_uris":{"android":"levelo://app?vid=8261973d-7fd9-4c15-8fb8-294a251b0456","ios":"levelo://app?vid=8261973d-7fd9-4c15-8fb8-294a251b0456"},"vehicle_type_id":"4","last_reported":1746087254,"current_range_meters":9200,"station_id":"","pricing_plan_id":"cebpf4jnsgd1na2vs0mg"},{"bike_id":"fca9dc8b-9c20-4eab-83ff-17d0ce9a6922","system_id":"levelo_inurba_marseille","lat":43.260247,"lon":5.417441,"is_reserved":false,"is_disabled":false,"rental_uris":{"android":"levelo://app?vid=fca9dc8b-9c20-4eab-83ff-17d0ce9a6922","ios":"levelo://app?vid=fca9dc8b-9c20-4eab-83ff-17d0ce9a6922"},"vehicle_type_id":"4","last_reported":1746087254,"current_range_meters":9600,"station_id":"","pricing_plan_id":"cebpf4jnsgd1na2vs0mg"},{"bike_id":"2b2a06d1-8f59-45c2-bbee-a62c5742917e","system_id":"levelo_inurba_marseille","lat":43.29624,"lon":5.37716,"is_reserved":false,"is_disabled":false,"rental_uris":{"android":"levelo://app?vid=2b2a06d1-8f59-45c2-bbee-a62c5742917e","ios":"levelo://app?vid=2b2a06d1-8f59-45c2-bbee-a62c5742917e"},"vehicle_type_id":"4","last_reported":1746087254,"current_range_meters":9600,"station_id":"ce4bgi92rcd13ifvqb90","pricing_plan_id":"cebpf4jnsgd1na2vs0mg"},{"bike_id":"3ce5a6a0-7c75-4b93-962c-2dd6ababc3c9","system_id":"levelo_inurba_marseille","lat":43.22503,"lon":5.34772,"is_reserved":false,"is_disabled":false,"rental_uris":{"android":"levelo://app?vid=3ce5a6a0-7c75-4b93-962c-2dd6ababc3c9","ios":"levelo://app?vid=3ce5a6a0-7c75-4b93-962c-2dd6ababc3c9"},"vehicle_type_id":"4","last_reported":1746087254,"current_range_meters":9600,"station_id":"st_cvj5dfep6f1abm77gieg","pricing_plan_id":"cebpf4jnsgd1na2vs0mg"},{"bike_id":"a076933d-3a98-414c-b7e5-30c1a775a06f","system_id":"levelo_inurba_marseille","lat":43.31388,"lon":5.39087,"is_reserved":false,"is_disabled":false,"rental_uris":{"android":"levelo://app?vid=a076933d-3a98-414c-b7e5-30c1a775a06f","ios":"levelo://app?vid=a076933d-3a98-414c-b7e5-30c1a775a06f"},"vehicle_type_id":"4","last_reported":1746087254,"current_range_meters":10000,"station_id":"","pricing_plan_id":"cebpf4jnsgd1na2vs0mg"},{"bike_id":"3819a32f-68dd-4215-9bf7-326260f864b3","system_id":"levelo_inurba_marseille","lat":43.24386,"lon":5.37059,"is_reserved":false,"is_disabled":false,"rental_uris":{"android":"levelo://app?vid=3819a32f-68dd-4215-9bf7-326260f864b3","ios":"levelo://app?vid=3819a32f-68dd-4215-9bf7-326260f864b3"},"vehicle_type_id":"4","last_reported":1746087254,"current_range_meters":10000,"station_id":"ce4bhhh2rcd13ifvqfk0","pricing_plan_id":"cebpf4jnsgd1na2vs0mg"},{"bike_id":"5e4c092b-8e0c-42b5-afe1-aaa8ddde2acc","system_id":"levelo_inurba_marseille","lat":43.295309,"lon":5.39038,"is_reserved":false,"is_disabled":false,"rental_uris":{"android":"levelo://app?vid=5e4c092b-8e0c-42b5-afe1-aaa8ddde2acc","ios":"levelo://app?vid=5e4c092b-8e0c-42b5-afe1-aaa8ddde2acc"},"vehicle_type_id":"4","last_reported":1746087254,"current_range_meters":10000,"station_id":"ce4bh3p2rcd13ifvqdp0","pricing_plan_id":"cebpf4jnsgd1na2vs0mg"},{"bike_id":"379b8933-bc6e-4164-9d36-daaf2941e50f","system_id":"levelo_inurba_marseille","lat":43.30771,"lon":5.37492,"is_reserved":false,"is_disabled":false,"rental_uris":{"android":"levelo://app?vid=379b8933-bc6e-4164-9d36-daaf2941e50f","ios":"levelo://app?vid=379b8933-bc6e-4164-9d36-daaf2941e50f"},"vehicle_type_id":"4","last_reported":1746087254,"current_range_meters":10000,"station_id":"","pricing_plan_id":"cebpf4jnsgd1na2vs0mg"},{"bike_id":"bbd8a319-b891-4805-8568-02e06f0f5df0","system_id":"levelo_inurba_marseille","lat":43.29519,"lon":5.39042,"is_reserved":false,"is_disabled":false,"rental_uris":{"android":"levelo://app?vid=bbd8a319-b891-4805-8568-02e06f0f5df0","ios":"levelo://app?vid=bbd8a319-b891-4805-8568-02e06f0f5df0"},"vehicle_type_id":"4","last_reported":1746087254,"current_range_meters":10000,"station_id":"ce4bh3p2rcd13ifvqdp0","pricing_plan_id":"cebpf4jnsgd1na2vs0mg"},{"bike_id":"3716d17a-c495-4731-a70d-6de7f12ecef0","system_id":"levelo_inurba_marseille","lat":43.32351,"lon":5.38886,"is_reserved":false,"is_disabled":false,"rental_uris":{"android":"levelo://app?vid=3716d17a-c495-4731-a70d-6de7f12ecef0","ios":"levelo://app?vid=3716d17a-c495-4731-a70d-6de7f12ecef0"},"vehicle_type_id":"4","last_reported":1746087254,"current_range_meters":10000,"station_id":"ce4bhqp2rcd13ifvqhog","pricing_plan_id":"cebpf4jnsgd1na2vs0mg"},{"bike_id":"f8d0ebe1-4407-4e04-bea5-c677058e1642","system_id":"levelo_inurba_marseille","lat":43.28278,"lon":5.35069,"is_reserved":false,"is_disabled":false,"rental_uris":{"android":"levelo://app?vid=f8d0ebe1-4407-4e04-bea5-c677058e1642","ios":"levelo://app?vid=f8d0ebe1-4407-4e04-bea5-c677058e1642"},"vehicle_type_id":"4","last_reported":1746087254,"current_range_meters":10000,"station_id":"ce4bhbp2rcd13ifvqerg","pricing_plan_id":"cebpf4jnsgd1na2vs0mg"},{"bike_id":"42979274-76ae-42a2-b009-8dde9f74aa65","system_id":"levelo_inurba_marseille","lat":43.33033,"lon":5.39046,"is_reserved":false,"is_disabled":false,"rental_uris":{"android":"levelo://app?vid=42979274-76ae-42a2-b009-8dde9f74aa65","ios":"levelo://app?vid=42979274-76ae-42a2-b009-8dde9f74aa65"},"vehicle_type_id":"4","last_reported":1746087254,"current_range_meters":10800,"station_id":"ce4bhr92rcd13ifvqhrg","pricing_plan_id":"cebpf4jnsgd1na2vs0mg"},{"bike_id":"2c4e9a38-45ce-47ed-9e92-df5ce99e8715","system_id":"levelo_inurba_marseille","lat":43.2315,"lon":5.43705,"is_reserved":false,"is_disabled":false,"rental_uris":{"android":"levelo://app?vid=2c4e9a38-45ce-47ed-9e92-df5ce99e8715","ios":"levelo://app?vid=2c4e9a38-45ce-47ed-9e92-df5ce99e8715"},"vehicle_type_id":"4","last_reported":1746087254,"current_range_meters":11200,"station_id":"ce4bhmp2rcd13ifvqgog","pricing_plan_id":"cebpf4jnsgd1na2vs0mg"},{"bike_id":"7d6f4c11-8123-4151-8c18-b75485d6cc85","system_id":"levelo_inurba_marseille","lat":43.27625,"lon":5.36117,"is_reserved":false,"is_disabled":false,"rental_uris":{"android":"levelo://app?vid=7d6f4c11-8123-4151-8c18-b75485d6cc85","ios":"levelo://app?vid=7d6f4c11-8123-4151-8c18-b75485d6cc85"},"vehicle_type_id":"4","last_reported":1746087254,"current_range_meters":11200,"station_id":"ce4bgj92rcd13ifvqbe0","pricing_plan_id":"cebpf4jnsgd1na2vs0mg"},{"bike_id":"356f1f7a-85b4-466a-a5b8-7303a2582917","system_id":"levelo_inurba_marseille","lat":43.301347,"lon":5.374081,"is_reserved":false,"is_disabled":false,"rental_uris":{"android":"levelo://app?vid=356f1f7a-85b4-466a-a5b8-7303a2582917","ios":"levelo://app?vid=356f1f7a-85b4-466a-a5b8-7303a2582917"},"vehicle_type_id":"4","last_reported":1746087254,"current_range_meters":11200,"station_id":"ce4bgs92rcd13ifvqcc0","pricing_plan_id":"cebpf4jnsgd1na2vs0mg"},{"bike_id":"a86dc03d-0f12-4aa7-adef-cce1718c3aa9","system_id":"levelo_inurba_marseille","lat":43.28284,"lon":5.35062,"is_reserved":false,"is_disabled":false,"rental_uris":{"android":"levelo://app?vid=a86dc03d-0f12-4aa7-adef-cce1718c3aa9","ios":"levelo://app?vid=a86dc03d-0f12-4aa7-adef-cce1718c3aa9"},"vehicle_type_id":"4","last_reported":1746087254,"current_range_meters":11200,"station_id":"ce4bhbp2rcd13ifvqerg","pricing_plan_id":"cebpf4jnsgd1na2vs0mg"},{"bike_id":"22da4027-4f6f-45d1-9334-006a58311cd1","system_id":"levelo_inurba_marseille","lat":43.24083,"lon":5.36782,"is_reserved":false,"is_disabled":false,"rental_uris":{"android":"levelo://app?vid=22da4027-4f6f-45d1-9334-006a58311cd1","ios":"levelo://app?vid=22da4027-4f6f-45d1-9334-006a58311cd1"},"vehicle_type_id":"4","last_reported":1746087254,"current_range_meters":11200,"station_id":"","pricing_plan_id":"cebpf4jnsgd1na2vs0mg"},{"bike_id":"e1793f1e-a94b-46e8-96d1-06b7e46648a8","system_id":"levelo_inurba_marseille","lat":43.32355,"lon":5.38885,"is_reserved":false,"is_disabled":false,"rental_uris":{"android":"levelo://app?vid=e1793f1e-a94b-46e8-96d1-06b7e46648a8","ios":"levelo://app?vid=e1793f1e-a94b-46e8-96d1-06b7e46648a8"},"vehicle_type_id":"4","last_reported":1746087254,"current_range_meters":11200,"station_id":"ce4bhqp2rcd13ifvqhog","pricing_plan_id":"cebpf4jnsgd1na2vs0mg"},{"bike_id":"568e8226-15e0-4a16-bfa2-70ee45a44145","system_id":"levelo_inurba_marseille","lat":43.33601,"lon":5.40989,"is_reserved":false,"is_disabled":false,"rental_uris":{"android":"levelo://app?vid=568e8226-15e0-4a16-bfa2-70ee45a44145","ios":"levelo://app?vid=568e8226-15e0-4a16-bfa2-70ee45a44145"},"vehicle_type_id":"4","last_reported":1746087254,"current_range_meters":11200,"station_id":"ce4bhqh2rcd13ifvqhmg","pricing_plan_id":"cebpf4jnsgd1na2vs0mg"},{"bike_id":"5e843463-c9c2-45c8-9686-165217cd354c","system_id":"levelo_inurba_marseille","lat":43.25865,"lon":5.39893,"is_reserved":false,"is_disabled":false,"rental_uris":{"android":"levelo://app?vid=5e843463-c9c2-45c8-9686-165217cd354c","ios":"levelo://app?vid=5e843463-c9c2-45c8-9686-165217cd354c"},"vehicle_type_id":"4","last_reported":1746087254,"current_range_meters":11200,"station_id":"ce4bhl92rcd13ifvqghg","pricing_plan_id":"cebpf4jnsgd1na2vs0mg"},{"bike_id":"0c6d33b5-61d4-45e4-8fba-af4a77fe6a75","system_id":"levelo_inurba_marseille","lat":43.29844,"lon":5.36269,"is_reserved":false,"is_disabled":false,"rental_uris":{"android":"levelo://app?vid=0c6d33b5-61d4-45e4-8fba-af4a77fe6a75","ios":"levelo://app?vid=0c6d33b5-61d4-45e4-8fba-af4a77fe6a75"},"vehicle_type_id":"4","last_reported":1746087254,"current_range_meters":10800,"station_id":"ce4bgpp2rcd13ifvqc3g","pricing_plan_id":"cebpf4jnsgd1na2vs0mg"},{"bike_id":"d04f0a76-2c92-4c2d-89a9-12e38c51e336","system_id":"levelo_inurba_marseille","lat":43.29528,"lon":5.37501,"is_reserved":false,"is_disabled":false,"rental_uris":{"android":"levelo://app?vid=d04f0a76-2c92-4c2d-89a9-12e38c51e336","ios":"levelo://app?vid=d04f0a76-2c92-4c2d-89a9-12e38c51e336"},"vehicle_type_id":"4","last_reported":1746087254,"current_range_meters":11600,"station_id":"ce4bgkp2rcd13ifvqbmg","pricing_plan_id":"cebpf4jnsgd1na2vs0mg"},{"bike_id":"fd427e05-8ad1-4dac-ba3a-e42fe8245eb3","system_id":"levelo_inurba_marseille","lat":43.2842,"lon":5.35,"is_reserved":false,"is_disabled":true,"rental_uris":{"android":"levelo://app?vid=fd427e05-8ad1-4dac-ba3a-e42fe8245eb3","ios":"levelo://app?vid=fd427e05-8ad1-4dac-ba3a-e42fe8245eb3"},"vehicle_type_id":"4","last_reported":1746087254,"current_range_meters":11600,"station_id":"ce4bhbh2rcd13ifvqepg","pricing_plan_id":"cebpf4jnsgd1na2vs0mg"},{"bike_id":"9e43dbdf-97fd-4e0b-8659-76c0eeecf214","system_id":"levelo_inurba_marseille","lat":43.25706,"lon":5.41099,"is_reserved":false,"is_disabled":false,"rental_uris":{"android":"levelo://app?vid=9e43dbdf-97fd-4e0b-8659-76c0eeecf214","ios":"levelo://app?vid=9e43dbdf-97fd-4e0b-8659-76c0eeecf214"},"vehicle_type_id":"4","last_reported":1746087254,"current_range_meters":11600,"station_id":"ce4bhkp2rcd13ifvqgd0","pricing_plan_id":"cebpf4jnsgd1na2vs0mg"},{"bike_id":"d6831b15-be9f-4572-b4e0-abd8063d90fc","system_id":"levelo_inurba_marseille","lat":43.31742,"lon":5.39017,"is_reserved":false,"is_disabled":false,"rental_uris":{"android":"levelo://app?vid=d6831b15-be9f-4572-b4e0-abd8063d90fc","ios":"levelo://app?vid=d6831b15-be9f-4572-b4e0-abd8063d90fc"},"vehicle_type_id":"4","last_reported":1746087254,"current_range_meters":11600,"station_id":"ce4bhqp2rcd13ifvqhng","pricing_plan_id":"cebpf4jnsgd1na2vs0mg"},{"bike_id":"bded5638-5663-46d5-b164-b8214836c3ea","system_id":"levelo_inurba_marseille","lat":43.27301,"lon":5.39179,"is_reserved":false,"is_disabled":false,"rental_uris":{"android":"levelo://app?vid=bded5638-5663-46d5-b164-b8214836c3ea","ios":"levelo://app?vid=bded5638-5663-46d5-b164-b8214836c3ea"},"vehicle_type_id":"4","last_reported":1746087254,"current_range_meters":12000,"station_id":"","pricing_plan_id":"cebpf4jnsgd1na2vs0mg"},{"bike_id":"a732b3d6-472a-46b2-b5fc-7d86a14ed2fc","system_id":"levelo_inurba_marseille","lat":43.330148,"lon":5.390471,"is_reserved":false,"is_disabled":false,"rental_uris":{"android":"levelo://app?vid=a732b3d6-472a-46b2-b5fc-7d86a14ed2fc","ios":"levelo://app?vid=a732b3d6-472a-46b2-b5fc-7d86a14ed2fc"},"vehicle_type_id":"4","last_reported":1746087254,"current_range_meters":12000,"station_id":"ce4bhr92rcd13ifvqhrg","pricing_plan_id":"cebpf4jnsgd1na2vs0mg"},{"bike_id":"bb11ea71-0114-4106-ac41-11b8cc006828","system_id":"levelo_inurba_marseille","lat":43.30097,"lon":5.3906,"is_reserved":false,"is_disabled":false,"rental_uris":{"android":"levelo://app?vid=bb11ea71-0114-4106-ac41-11b8cc006828","ios":"levelo://app?vid=bb11ea71-0114-4106-ac41-11b8cc006828"},"vehicle_type_id":"4","last_reported":1746087254,"current_range_meters":12000,"station_id":"ce4bh192rcd13ifvqdb0","pricing_plan_id":"cebpf4jnsgd1na2vs0mg"},{"bike_id":"d38568e2-24ee-4cb1-89b1-979c87cd51c6","system_id":"levelo_inurba_marseille","lat":43.26573,"lon":5.39005,"is_reserved":false,"is_disabled":false,"rental_uris":{"android":"levelo://app?vid=d38568e2-24ee-4cb1-89b1-979c87cd51c6","ios":"levelo://app?vid=d38568e2-24ee-4cb1-89b1-979c87cd51c6"},"vehicle_type_id":"4","last_reported":1746087254,"current_range_meters":12400,"station_id":"ce4bhe12rcd13ifvqf30","pricing_plan_id":"cebpf4jnsgd1na2vs0mg"},{"bike_id":"6d7b213b-4449-4477-8ebc-9bcc58a5e565","system_id":"levelo_inurba_marseille","lat":43.22929,"lon":5.3537,"is_reserved":false,"is_disabled":false,"rental_uris":{"android":"levelo://app?vid=6d7b213b-4449-4477-8ebc-9bcc58a5e565","ios":"levelo://app?vid=6d7b213b-4449-4477-8ebc-9bcc58a5e565"},"vehicle_type_id":"4","last_reported":1746087254,"current_range_meters":12400,"station_id":"cpo3532slgdg3j2ikp40","pricing_plan_id":"cebpf4jnsgd1na2vs0mg"},{"bike_id":"4fc13aab-47ec-41bf-ba18-3346f7c81d19","system_id":"levelo_inurba_marseille","lat":43.33616,"lon":5.41059,"is_reserved":false,"is_disabled":false,"rental_uris":{"android":"levelo://app?vid=4fc13aab-47ec-41bf-ba18-3346f7c81d19","ios":"levelo://app?vid=4fc13aab-47ec-41bf-ba18-3346f7c81d19"},"vehicle_type_id":"4","last_reported":1746087254,"current_range_meters":12400,"station_id":"ce4bhqh2rcd13ifvqhmg","pricing_plan_id":"cebpf4jnsgd1na2vs0mg"},{"bike_id":"2c27a7a2-3425-4bc8-8800-38779687dcb9","system_id":"levelo_inurba_marseille","lat":43.23065,"lon":5.35487,"is_reserved":false,"is_disabled":false,"rental_uris":{"android":"levelo://app?vid=2c27a7a2-3425-4bc8-8800-38779687dcb9","ios":"levelo://app?vid=2c27a7a2-3425-4bc8-8800-38779687dcb9"},"vehicle_type_id":"4","last_reported":1746087254,"current_range_meters":12400,"station_id":"cpo3342slgdg3j2ifvpg","pricing_plan_id":"cebpf4jnsgd1na2vs0mg"},{"bike_id":"409d2a3a-07e6-42a9-a3c2-3a09c40d674d","system_id":"levelo_inurba_marseille","lat":43.29978,"lon":5.38484,"is_reserved":false,"is_disabled":false,"rental_uris":{"android":"levelo://app?vid=409d2a3a-07e6-42a9-a3c2-3a09c40d674d","ios":"levelo://app?vid=409d2a3a-07e6-42a9-a3c2-3a09c40d674d"},"vehicle_type_id":"4","last_reported":1746087254,"current_range_meters":12400,"station_id":"ce4bgj92rcd13ifvqbd0","pricing_plan_id":"cebpf4jnsgd1na2vs0mg"},{"bike_id":"a688b131-ae29-4f11-8812-f85f61aa6706","system_id":"levelo_inurba_marseille","lat":43.292101,"lon":5.393194,"is_reserved":false,"is_disabled":true,"rental_uris":{"android":"levelo://app?vid=a688b131-ae29-4f11-8812-f85f61aa6706","ios":"levelo://app?vid=a688b131-ae29-4f11-8812-f85f61aa6706"},"vehicle_type_id":"4","last_reported":1746087254,"current_range_meters":12400,"station_id":"ce4bhbh2rcd13ifvqeo0","pricing_plan_id":"cebpf4jnsgd1na2vs0mg"},{"bike_id":"7940bc1b-eaa7-4f49-a435-46dc9391f6a1","system_id":"levelo_inurba_marseille","lat":43.21199,"lon":5.351,"is_reserved":false,"is_disabled":false,"rental_uris":{"android":"levelo://app?vid=7940bc1b-eaa7-4f49-a435-46dc9391f6a1","ios":"levelo://app?vid=7940bc1b-eaa7-4f49-a435-46dc9391f6a1"},"vehicle_type_id":"4","last_reported":1746087254,"current_range_meters":12400,"station_id":"st_cvj6sg6p6f1abm77japg","pricing_plan_id":"cebpf4jnsgd1na2vs0mg"},{"bike_id":"34b484ab-c0f1-4e55-b51a-e2bafdafb63e","system_id":"levelo_inurba_marseille","lat":43.230567,"lon":5.35492,"is_reserved":false,"is_disabled":false,"rental_uris":{"android":"levelo://app?vid=34b484ab-c0f1-4e55-b51a-e2bafdafb63e","ios":"levelo://app?vid=34b484ab-c0f1-4e55-b51a-e2bafdafb63e"},"vehicle_type_id":"4","last_reported":1746087254,"current_range_meters":12400,"station_id":"cpo3342slgdg3j2ifvpg","pricing_plan_id":"cebpf4jnsgd1na2vs0mg"},{"bike_id":"e5c20201-7a50-4802-beb4-77f292621441","system_id":"levelo_inurba_marseille","lat":43.25582,"lon":5.38234,"is_reserved":false,"is_disabled":false,"rental_uris":{"android":"levelo://app?vid=e5c20201-7a50-4802-beb4-77f292621441","ios":"levelo://app?vid=e5c20201-7a50-4802-beb4-77f292621441"},"vehicle_type_id":"4","last_reported":1746087254,"current_range_meters":12800,"station_id":"ce4bhih2rcd13ifvqfs0","pricing_plan_id":"cebpf4jnsgd1na2vs0mg"},{"bike_id":"07541a4c-711f-473d-acfe-1eb9b677008b","system_id":"levelo_inurba_marseille","lat":43.32476,"lon":5.36585,"is_reserved":false,"is_disabled":true,"rental_uris":{"android":"levelo://app?vid=07541a4c-711f-473d-acfe-1eb9b677008b","ios":"levelo://app?vid=07541a4c-711f-473d-acfe-1eb9b677008b"},"vehicle_type_id":"4","last_reported":1746087254,"current_range_meters":12800,"station_id":"ce4bhs12rcd13ifvqhvg","pricing_plan_id":"cebpf4jnsgd1na2vs0mg"},{"bike_id":"2fab73d2-cef0-485f-94c0-49d3e5fcaea5","system_id":"levelo_inurba_marseille","lat":43.2319,"lon":5.40008,"is_reserved":false,"is_disabled":false,"rental_uris":{"android":"levelo://app?vid=2fab73d2-cef0-485f-94c0-49d3e5fcaea5","ios":"levelo://app?vid=2fab73d2-cef0-485f-94c0-49d3e5fcaea5"},"vehicle_type_id":"4","last_reported":1746087254,"current_range_meters":12800,"station_id":"ce4bhn12rcd13ifvqgqg","pricing_plan_id":"cebpf4jnsgd1na2vs0mg"},{"bike_id":"083163f5-e2fd-40d2-9e4f-7b3d2d85df31","system_id":"levelo_inurba_marseille","lat":43.27004,"lon":5.38714,"is_reserved":false,"is_disabled":true,"rental_uris":{"android":"levelo://app?vid=083163f5-e2fd-40d2-9e4f-7b3d2d85df31","ios":"levelo://app?vid=083163f5-e2fd-40d2-9e4f-7b3d2d85df31"},"vehicle_type_id":"4","last_reported":1746087254,"current_range_meters":12800,"station_id":"","pricing_plan_id":"cebpf4jnsgd1na2vs0mg"},{"bike_id":"fd7875a1-1cd0-47f8-880b-6ef58a6b7e2e","system_id":"levelo_inurba_marseille","lat":43.22938,"lon":5.3539,"is_reserved":false,"is_disabled":false,"rental_uris":{"android":"levelo://app?vid=fd7875a1-1cd0-47f8-880b-6ef58a6b7e2e","ios":"levelo://app?vid=fd7875a1-1cd0-47f8-880b-6ef58a6b7e2e"},"vehicle_type_id":"4","last_reported":1746087254,"current_range_meters":12800,"station_id":"cpo3532slgdg3j2ikp40","pricing_plan_id":"cebpf4jnsgd1na2vs0mg"},{"bike_id":"0602cf4b-4db4-48c2-a5d3-0aa7c3a32d80","system_id":"levelo_inurba_marseille","lat":43.27373,"lon":5.36251,"is_reserved":false,"is_disabled":false,"rental_uris":{"android":"levelo://app?vid=0602cf4b-4db4-48c2-a5d3-0aa7c3a32d80","ios":"levelo://app?vid=0602cf4b-4db4-48c2-a5d3-0aa7c3a32d80"},"vehicle_type_id":"4","last_reported":1746087254,"current_range_meters":12800,"station_id":"ce4bhbh2rcd13ifvqeo0","pricing_plan_id":"cebpf4jnsgd1na2vs0mg"},{"bike_id":"e8fa9120-40eb-4703-871e-013e250566a3","system_id":"levelo_inurba_marseille","lat":43.2843,"lon":5.34979,"is_reserved":false,"is_disabled":false,"rental_uris":{"android":"levelo://app?vid=e8fa9120-40eb-4703-871e-013e250566a3","ios":"levelo://app?vid=e8fa9120-40eb-4703-871e-013e250566a3"},"vehicle_type_id":"4","last_reported":1746087254,"current_range_meters":12800,"station_id":"ce4bhbh2rcd13ifvqepg","pricing_plan_id":"cebpf4jnsgd1na2vs0mg"},{"bike_id":"66cf9de5-17de-4e38-9ee0-8d2cef3b4ab3","system_id":"levelo_inurba_marseille","lat":43.30653,"lon":5.40077,"is_reserved":false,"is_disabled":false,"rental_uris":{"android":"levelo://app?vid=66cf9de5-17de-4e38-9ee0-8d2cef3b4ab3","ios":"levelo://app?vid=66cf9de5-17de-4e38-9ee0-8d2cef3b4ab3"},"vehicle_type_id":"4","last_reported":1746087254,"current_range_meters":12800,"station_id":"ce4bh112rcd13ifvqda0","pricing_plan_id":"cebpf4jnsgd1na2vs0mg"},{"bike_id":"8fe0967a-ca11-4d04-b0ff-2ade8e894140","system_id":"levelo_inurba_marseille","lat":43.29591,"lon":5.38086,"is_reserved":false,"is_disabled":false,"rental_uris":{"android":"levelo://app?vid=8fe0967a-ca11-4d04-b0ff-2ade8e894140","ios":"levelo://app?vid=8fe0967a-ca11-4d04-b0ff-2ade8e894140"},"vehicle_type_id":"4","last_reported":1746087254,"current_range_meters":13600,"station_id":"ce4bgl12rcd13ifvqbo0","pricing_plan_id":"cebpf4jnsgd1na2vs0mg"},{"bike_id":"9d807a80-3164-471f-af74-34a7b59d9d8e","system_id":"levelo_inurba_marseille","lat":43.23148,"lon":5.43715,"is_reserved":false,"is_disabled":false,"rental_uris":{"android":"levelo://app?vid=9d807a80-3164-471f-af74-34a7b59d9d8e","ios":"levelo://app?vid=9d807a80-3164-471f-af74-34a7b59d9d8e"},"vehicle_type_id":"4","last_reported":1746087254,"current_range_meters":14000,"station_id":"ce4bhmp2rcd13ifvqgog","pricing_plan_id":"cebpf4jnsgd1na2vs0mg"},{"bike_id":"1f051392-5b9a-40fa-bce5-1d601d32db11","system_id":"levelo_inurba_marseille","lat":43.28155,"lon":5.42643,"is_reserved":false,"is_disabled":false,"rental_uris":{"android":"levelo://app?vid=1f051392-5b9a-40fa-bce5-1d601d32db11","ios":"levelo://app?vid=1f051392-5b9a-40fa-bce5-1d601d32db11"},"vehicle_type_id":"4","last_reported":1746087254,"current_range_meters":14000,"station_id":"ce4bhnh2rcd13ifvqgug","pricing_plan_id":"cebpf4jnsgd1na2vs0mg"},{"bike_id":"68387bcf-91b9-4d94-9345-8087e5f6d466","system_id":"levelo_inurba_marseille","lat":43.31333,"lon":5.36771,"is_reserved":false,"is_disabled":true,"rental_uris":{"android":"levelo://app?vid=68387bcf-91b9-4d94-9345-8087e5f6d466","ios":"levelo://app?vid=68387bcf-91b9-4d94-9345-8087e5f6d466"},"vehicle_type_id":"4","last_reported":1746087254,"current_range_meters":14800,"station_id":"","pricing_plan_id":"cebpf4jnsgd1na2vs0mg"},{"bike_id":"a80efe56-7ec7-41b2-959d-a20ff548881b","system_id":"levelo_inurba_marseille","lat":43.323577,"lon":5.38883,"is_reserved":false,"is_disabled":false,"rental_uris":{"android":"levelo://app?vid=a80efe56-7ec7-41b2-959d-a20ff548881b","ios":"levelo://app?vid=a80efe56-7ec7-41b2-959d-a20ff548881b"},"vehicle_type_id":"4","last_reported":1746087254,"current_range_meters":14800,"station_id":"ce4bhqp2rcd13ifvqhog","pricing_plan_id":"cebpf4jnsgd1na2vs0mg"},{"bike_id":"f649bbcf-f1ec-41ae-9810-4157e3752ba7","system_id":"levelo_inurba_marseille","lat":43.314484,"lon":5.373727,"is_reserved":false,"is_disabled":false,"rental_uris":{"android":"levelo://app?vid=f649bbcf-f1ec-41ae-9810-4157e3752ba7","ios":"levelo://app?vid=f649bbcf-f1ec-41ae-9810-4157e3752ba7"},"vehicle_type_id":"4","last_reported":1746087254,"current_range_meters":14800,"station_id":"","pricing_plan_id":"cebpf4jnsgd1na2vs0mg"},{"bike_id":"bbcff541-303f-4235-a8d2-8050d962c06f","system_id":"levelo_inurba_marseille","lat":43.29704,"lon":5.3768,"is_reserved":false,"is_disabled":false,"rental_uris":{"android":"levelo://app?vid=bbcff541-303f-4235-a8d2-8050d962c06f","ios":"levelo://app?vid=bbcff541-303f-4235-a8d2-8050d962c06f"},"vehicle_type_id":"4","last_reported":1746087254,"current_range_meters":14800,"station_id":"ce4bgkh2rcd13ifvqbl0","pricing_plan_id":"cebpf4jnsgd1na2vs0mg"},{"bike_id":"b58385b2-d1b2-4ecc-af75-eb7cf4772905","system_id":"levelo_inurba_marseille","lat":43.23056,"lon":5.35491,"is_reserved":false,"is_disabled":false,"rental_uris":{"android":"levelo://app?vid=b58385b2-d1b2-4ecc-af75-eb7cf4772905","ios":"levelo://app?vid=b58385b2-d1b2-4ecc-af75-eb7cf4772905"},"vehicle_type_id":"4","last_reported":1746087254,"current_range_meters":14800,"station_id":"cpo3342slgdg3j2ifvpg","pricing_plan_id":"cebpf4jnsgd1na2vs0mg"},{"bike_id":"21be1867-8866-4421-8336-0c10e80428db","system_id":"levelo_inurba_marseille","lat":43.3109,"lon":5.4246,"is_reserved":false,"is_disabled":false,"rental_uris":{"android":"levelo://app?vid=21be1867-8866-4421-8336-0c10e80428db","ios":"levelo://app?vid=21be1867-8866-4421-8336-0c10e80428db"},"vehicle_type_id":"4","last_reported":1746087254,"current_range_meters":14800,"station_id":"ce4bhp92rcd13ifvqhag","pricing_plan_id":"cebpf4jnsgd1na2vs0mg"},{"bike_id":"865e4ccb-6efd-422d-875c-fe77cc61241e","system_id":"levelo_inurba_marseille","lat":43.24997,"lon":5.38927,"is_reserved":false,"is_disabled":false,"rental_uris":{"android":"levelo://app?vid=865e4ccb-6efd-422d-875c-fe77cc61241e","ios":"levelo://app?vid=865e4ccb-6efd-422d-875c-fe77cc61241e"},"vehicle_type_id":"4","last_reported":1746087254,"current_range_meters":14800,"station_id":"ce4bhgp2rcd13ifvqfd0","pricing_plan_id":"cebpf4jnsgd1na2vs0mg"},{"bike_id":"0c2fd97a-a68c-4bff-8f09-402b6ba070c9","system_id":"levelo_inurba_marseille","lat":43.33597,"lon":5.40971,"is_reserved":false,"is_disabled":false,"rental_uris":{"android":"levelo://app?vid=0c2fd97a-a68c-4bff-8f09-402b6ba070c9","ios":"levelo://app?vid=0c2fd97a-a68c-4bff-8f09-402b6ba070c9"},"vehicle_type_id":"4","last_reported":1746087254,"current_range_meters":15200,"station_id":"ce4bhqh2rcd13ifvqhmg","pricing_plan_id":"cebpf4jnsgd1na2vs0mg"},{"bike_id":"c04da574-a2d9-4d7b-aaa5-47e6514ce6b0","system_id":"levelo_inurba_marseille","lat":43.24394,"lon":5.3705,"is_reserved":false,"is_disabled":false,"rental_uris":{"android":"levelo://app?vid=c04da574-a2d9-4d7b-aaa5-47e6514ce6b0","ios":"levelo://app?vid=c04da574-a2d9-4d7b-aaa5-47e6514ce6b0"},"vehicle_type_id":"4","last_reported":1746087254,"current_range_meters":15200,"station_id":"ce4bhhh2rcd13ifvqfk0","pricing_plan_id":"cebpf4jnsgd1na2vs0mg"},{"bike_id":"dc2dfdc7-73a2-4f18-837a-0677b3a23fbe","system_id":"levelo_inurba_marseille","lat":43.33602,"lon":5.40996,"is_reserved":false,"is_disabled":false,"rental_uris":{"android":"levelo://app?vid=dc2dfdc7-73a2-4f18-837a-0677b3a23fbe","ios":"levelo://app?vid=dc2dfdc7-73a2-4f18-837a-0677b3a23fbe"},"vehicle_type_id":"4","last_reported":1746087254,"current_range_meters":15200,"station_id":"ce4bhqh2rcd13ifvqhmg","pricing_plan_id":"cebpf4jnsgd1na2vs0mg"},{"bike_id":"58e61467-50db-4ef1-a23a-155c99fb9f5b","system_id":"levelo_inurba_marseille","lat":43.31494,"lon":5.37272,"is_reserved":false,"is_disabled":false,"rental_uris":{"android":"levelo://app?vid=58e61467-50db-4ef1-a23a-155c99fb9f5b","ios":"levelo://app?vid=58e61467-50db-4ef1-a23a-155c99fb9f5b"},"vehicle_type_id":"4","last_reported":1746087254,"current_range_meters":16000,"station_id":"ce4bgt12rcd13ifvqcd0","pricing_plan_id":"cebpf4jnsgd1na2vs0mg"},{"bike_id":"836ad39e-bc25-448f-a165-9d5992bf7896","system_id":"levelo_inurba_marseille","lat":43.28615,"lon":5.35101,"is_reserved":false,"is_disabled":false,"rental_uris":{"android":"levelo://app?vid=836ad39e-bc25-448f-a165-9d5992bf7896","ios":"levelo://app?vid=836ad39e-bc25-448f-a165-9d5992bf7896"},"vehicle_type_id":"4","last_reported":1746087254,"current_range_meters":16000,"station_id":"ce4bhch2rcd13ifvqeug","pricing_plan_id":"cebpf4jnsgd1na2vs0mg"},{"bike_id":"a561fc75-679f-441f-9268-2649fce89604","system_id":"levelo_inurba_marseille","lat":43.24549,"lon":5.39525,"is_reserved":false,"is_disabled":false,"rental_uris":{"android":"levelo://app?vid=a561fc75-679f-441f-9268-2649fce89604","ios":"levelo://app?vid=a561fc75-679f-441f-9268-2649fce89604"},"vehicle_type_id":"4","last_reported":1746087254,"current_range_meters":16000,"station_id":"ce4bhlp2rcd13ifvqgjg","pricing_plan_id":"cebpf4jnsgd1na2vs0mg"},{"bike_id":"47336a5f-3ee7-4b51-8166-f1a8d67a4f3f","system_id":"levelo_inurba_marseille","lat":43.23177,"lon":5.39984,"is_reserved":false,"is_disabled":false,"rental_uris":{"android":"levelo://app?vid=47336a5f-3ee7-4b51-8166-f1a8d67a4f3f","ios":"levelo://app?vid=47336a5f-3ee7-4b51-8166-f1a8d67a4f3f"},"vehicle_type_id":"4","last_reported":1746087254,"current_range_meters":16000,"station_id":"ce4bhn12rcd13ifvqgqg","pricing_plan_id":"cebpf4jnsgd1na2vs0mg"},{"bike_id":"73a26878-3e76-49f4-af87-f3e68e462c42","system_id":"levelo_inurba_marseille","lat":43.31084,"lon":5.42424,"is_reserved":false,"is_disabled":false,"rental_uris":{"android":"levelo://app?vid=73a26878-3e76-49f4-af87-f3e68e462c42","ios":"levelo://app?vid=73a26878-3e76-49f4-af87-f3e68e462c42"},"vehicle_type_id":"4","last_reported":1746087254,"current_range_meters":16000,"station_id":"ce4bhp92rcd13ifvqhag","pricing_plan_id":"cebpf4jnsgd1na2vs0mg"},{"bike_id":"77a03c0a-3fe7-43c4-997c-d4c8fa7a3f56","system_id":"levelo_inurba_marseille","lat":43.32539,"lon":5.41433,"is_reserved":false,"is_disabled":false,"rental_uris":{"android":"levelo://app?vid=77a03c0a-3fe7-43c4-997c-d4c8fa7a3f56","ios":"levelo://app?vid=77a03c0a-3fe7-43c4-997c-d4c8fa7a3f56"},"vehicle_type_id":"4","last_reported":1746087254,"current_range_meters":16400,"station_id":"ce4bhq12rcd13ifvqhhg","pricing_plan_id":"cebpf4jnsgd1na2vs0mg"},{"bike_id":"b1b4d74f-092b-476b-abae-f60870c92748","system_id":"levelo_inurba_marseille","lat":43.25094,"lon":5.39517,"is_reserved":false,"is_disabled":false,"rental_uris":{"android":"levelo://app?vid=b1b4d74f-092b-476b-abae-f60870c92748","ios":"levelo://app?vid=b1b4d74f-092b-476b-abae-f60870c92748"},"vehicle_type_id":"4","last_reported":1746087254,"current_range_meters":16400,"station_id":"ce4bhm12rcd13ifvqgkg","pricing_plan_id":"cebpf4jnsgd1na2vs0mg"},{"bike_id":"5a92311b-afc6-484e-ba35-449afe75ce34","system_id":"levelo_inurba_marseille","lat":43.29805,"lon":5.3811,"is_reserved":false,"is_disabled":false,"rental_uris":{"android":"levelo://app?vid=5a92311b-afc6-484e-ba35-449afe75ce34","ios":"levelo://app?vid=5a92311b-afc6-484e-ba35-449afe75ce34"},"vehicle_type_id":"4","last_reported":1746087254,"current_range_meters":16400,"station_id":"ce4bgip2rcd13ifvqbb0","pricing_plan_id":"cebpf4jnsgd1na2vs0mg"},{"bike_id":"0b9ac188-19a7-4ad4-8279-34f1318ce56d","system_id":"levelo_inurba_marseille","lat":43.31278,"lon":5.37751,"is_reserved":false,"is_disabled":false,"rental_uris":{"android":"levelo://app?vid=0b9ac188-19a7-4ad4-8279-34f1318ce56d","ios":"levelo://app?vid=0b9ac188-19a7-4ad4-8279-34f1318ce56d"},"vehicle_type_id":"4","last_reported":1746087254,"current_range_meters":16400,"station_id":"","pricing_plan_id":"cebpf4jnsgd1na2vs0mg"},{"bike_id":"2e1ce04f-74c7-4d68-a96b-b9dc1d6897ee","system_id":"levelo_inurba_marseille","lat":43.32282,"lon":5.38283,"is_reserved":false,"is_disabled":false,"rental_uris":{"android":"levelo://app?vid=2e1ce04f-74c7-4d68-a96b-b9dc1d6897ee","ios":"levelo://app?vid=2e1ce04f-74c7-4d68-a96b-b9dc1d6897ee"},"vehicle_type_id":"4","last_reported":1746087254,"current_range_meters":16400,"station_id":"ce4bhr12rcd13ifvqhqg","pricing_plan_id":"cebpf4jnsgd1na2vs0mg"},{"bike_id":"e7ffe102-def9-44df-ab08-bcf2bfb76907","system_id":"levelo_inurba_marseille","lat":43.29637,"lon":5.37695,"is_reserved":false,"is_disabled":true,"rental_uris":{"android":"levelo://app?vid=e7ffe102-def9-44df-ab08-bcf2bfb76907","ios":"levelo://app?vid=e7ffe102-def9-44df-ab08-bcf2bfb76907"},"vehicle_type_id":"4","last_reported":1746087254,"current_range_meters":16400,"station_id":"ce4bgi92rcd13ifvqb90","pricing_plan_id":"cebpf4jnsgd1na2vs0mg"},{"bike_id":"0bffff10-143f-4e3c-87dd-e93d6fc37079","system_id":"levelo_inurba_marseille","lat":43.284167,"lon":5.349864,"is_reserved":false,"is_disabled":false,"rental_uris":{"android":"levelo://app?vid=0bffff10-143f-4e3c-87dd-e93d6fc37079","ios":"levelo://app?vid=0bffff10-143f-4e3c-87dd-e93d6fc37079"},"vehicle_type_id":"4","last_reported":1746087254,"current_range_meters":16800,"station_id":"ce4bhbh2rcd13ifvqepg","pricing_plan_id":"cebpf4jnsgd1na2vs0mg"},{"bike_id":"e5bd5ae2-4edf-4a10-88d9-b606dd3d1f0b","system_id":"levelo_inurba_marseille","lat":43.29704,"lon":5.37704,"is_reserved":false,"is_disabled":false,"rental_uris":{"android":"levelo://app?vid=e5bd5ae2-4edf-4a10-88d9-b606dd3d1f0b","ios":"levelo://app?vid=e5bd5ae2-4edf-4a10-88d9-b606dd3d1f0b"},"vehicle_type_id":"4","last_reported":1746087254,"current_range_meters":16400,"station_id":"ce4bgkh2rcd13ifvqbl0","pricing_plan_id":"cebpf4jnsgd1na2vs0mg"},{"bike_id":"16abf086-9b8c-433e-949a-7601ccf5d234","system_id":"levelo_inurba_marseille","lat":43.21751,"lon":5.34597,"is_reserved":false,"is_disabled":false,"rental_uris":{"android":"levelo://app?vid=16abf086-9b8c-433e-949a-7601ccf5d234","ios":"levelo://app?vid=16abf086-9b8c-433e-949a-7601ccf5d234"},"vehicle_type_id":"4","last_reported":1746087254,"current_range_meters":16800,"station_id":"st_cvj6r9ubvosntc0bgbag","pricing_plan_id":"cebpf4jnsgd1na2vs0mg"},{"bike_id":"0c7f2d70-b849-486d-bca2-848a564f0867","system_id":"levelo_inurba_marseille","lat":43.279988,"lon":5.400254,"is_reserved":false,"is_disabled":false,"rental_uris":{"android":"levelo://app?vid=0c7f2d70-b849-486d-bca2-848a564f0867","ios":"levelo://app?vid=0c7f2d70-b849-486d-bca2-848a564f0867"},"vehicle_type_id":"4","last_reported":1746087254,"current_range_meters":16800,"station_id":"ce4bho92rcd13ifvqh4g","pricing_plan_id":"cebpf4jnsgd1na2vs0mg"},{"bike_id":"8d17b367-8061-4c82-8409-5df859a79302","system_id":"levelo_inurba_marseille","lat":43.31988,"lon":5.38169,"is_reserved":false,"is_disabled":false,"rental_uris":{"android":"levelo://app?vid=8d17b367-8061-4c82-8409-5df859a79302","ios":"levelo://app?vid=8d17b367-8061-4c82-8409-5df859a79302"},"vehicle_type_id":"4","last_reported":1746087254,"current_range_meters":16800,"station_id":"ce4bhr12rcd13ifvqhpg","pricing_plan_id":"cebpf4jnsgd1na2vs0mg"},{"bike_id":"616d4413-d7dc-45e6-8285-5587eb2bc1f3","system_id":"levelo_inurba_marseille","lat":43.30539,"lon":5.38401,"is_reserved":false,"is_disabled":false,"rental_uris":{"android":"levelo://app?vid=616d4413-d7dc-45e6-8285-5587eb2bc1f3","ios":"levelo://app?vid=616d4413-d7dc-45e6-8285-5587eb2bc1f3"},"vehicle_type_id":"4","last_reported":1746087254,"current_range_meters":16800,"station_id":"ce4bgg92rcd13ifvqb30","pricing_plan_id":"cebpf4jnsgd1na2vs0mg"},{"bike_id":"207e1eb5-2bc7-4191-a4a7-391f960fed42","system_id":"levelo_inurba_marseille","lat":43.24807,"lon":5.37452,"is_reserved":false,"is_disabled":false,"rental_uris":{"android":"levelo://app?vid=207e1eb5-2bc7-4191-a4a7-391f960fed42","ios":"levelo://app?vid=207e1eb5-2bc7-4191-a4a7-391f960fed42"},"vehicle_type_id":"4","last_reported":1746087254,"current_range_meters":16800,"station_id":"ce4bhgh2rcd13ifvqfb0","pricing_plan_id":"cebpf4jnsgd1na2vs0mg"},{"bike_id":"314c570d-d342-4e1f-93ca-be55bfbed314","system_id":"levelo_inurba_marseille","lat":43.3074,"lon":5.42437,"is_reserved":false,"is_disabled":false,"rental_uris":{"android":"levelo://app?vid=314c570d-d342-4e1f-93ca-be55bfbed314","ios":"levelo://app?vid=314c570d-d342-4e1f-93ca-be55bfbed314"},"vehicle_type_id":"4","last_reported":1746087254,"current_range_meters":16800,"station_id":"st_cvj6ca6bvosntc0bfgr0","pricing_plan_id":"cebpf4jnsgd1na2vs0mg"},{"bike_id":"8a108257-ba62-40f1-b151-5864796d192a","system_id":"levelo_inurba_marseille","lat":43.21749,"lon":5.34588,"is_reserved":false,"is_disabled":false,"rental_uris":{"android":"levelo://app?vid=8a108257-ba62-40f1-b151-5864796d192a","ios":"levelo://app?vid=8a108257-ba62-40f1-b151-5864796d192a"},"vehicle_type_id":"4","last_reported":1746087254,"current_range_meters":17200,"station_id":"st_cvj6r9ubvosntc0bgbag","pricing_plan_id":"cebpf4jnsgd1na2vs0mg"},{"bike_id":"c65bb186-8778-44ae-baa8-77ec3ba73584","system_id":"levelo_inurba_marseille","lat":43.31542,"lon":5.38029,"is_reserved":false,"is_disabled":false,"rental_uris":{"android":"levelo://app?vid=c65bb186-8778-44ae-baa8-77ec3ba73584","ios":"levelo://app?vid=c65bb186-8778-44ae-baa8-77ec3ba73584"},"vehicle_type_id":"4","last_reported":1746087254,"current_range_meters":16800,"station_id":"ce4bhsp2rcd13ifvqi50","pricing_plan_id":"cebpf4jnsgd1na2vs0mg"},{"bike_id":"f62c7627-e66b-4496-abe5-805652b5605b","system_id":"levelo_inurba_marseille","lat":43.22933,"lon":5.35374,"is_reserved":false,"is_disabled":false,"rental_uris":{"android":"levelo://app?vid=f62c7627-e66b-4496-abe5-805652b5605b","ios":"levelo://app?vid=f62c7627-e66b-4496-abe5-805652b5605b"},"vehicle_type_id":"4","last_reported":1746087254,"current_range_meters":17200,"station_id":"cpo3532slgdg3j2ikp40","pricing_plan_id":"cebpf4jnsgd1na2vs0mg"},{"bike_id":"2f58eb3d-ff10-4be7-8a47-0055a4a7d348","system_id":"levelo_inurba_marseille","lat":43.26181,"lon":5.374395,"is_reserved":false,"is_disabled":false,"rental_uris":{"android":"levelo://app?vid=2f58eb3d-ff10-4be7-8a47-0055a4a7d348","ios":"levelo://app?vid=2f58eb3d-ff10-4be7-8a47-0055a4a7d348"},"vehicle_type_id":"4","last_reported":1746087254,"current_range_meters":17200,"station_id":"ce4bhgp2rcd13ifvqfc0","pricing_plan_id":"cebpf4jnsgd1na2vs0mg"},{"bike_id":"1bd1a463-337f-4c4e-98b6-b927dde62105","system_id":"levelo_inurba_marseille","lat":43.30386,"lon":5.4248,"is_reserved":false,"is_disabled":true,"rental_uris":{"android":"levelo://app?vid=1bd1a463-337f-4c4e-98b6-b927dde62105","ios":"levelo://app?vid=1bd1a463-337f-4c4e-98b6-b927dde62105"},"vehicle_type_id":"4","last_reported":1746087254,"current_range_meters":17200,"station_id":"ce4bhoh2rcd13ifvqh6g","pricing_plan_id":"cebpf4jnsgd1na2vs0mg"},{"bike_id":"33fac4a5-e169-4241-a55a-64a5c337bdfe","system_id":"levelo_inurba_marseille","lat":43.23145,"lon":5.43724,"is_reserved":false,"is_disabled":false,"rental_uris":{"android":"levelo://app?vid=33fac4a5-e169-4241-a55a-64a5c337bdfe","ios":"levelo://app?vid=33fac4a5-e169-4241-a55a-64a5c337bdfe"},"vehicle_type_id":"4","last_reported":1746087254,"current_range_meters":17600,"station_id":"ce4bhmp2rcd13ifvqgog","pricing_plan_id":"cebpf4jnsgd1na2vs0mg"},{"bike_id":"fd0ab90c-cc8a-440f-ad03-bc6ac1919eb1","system_id":"levelo_inurba_marseille","lat":43.28618,"lon":5.35094,"is_reserved":false,"is_disabled":false,"rental_uris":{"android":"levelo://app?vid=fd0ab90c-cc8a-440f-ad03-bc6ac1919eb1","ios":"levelo://app?vid=fd0ab90c-cc8a-440f-ad03-bc6ac1919eb1"},"vehicle_type_id":"4","last_reported":1746087254,"current_range_meters":17600,"station_id":"ce4bhch2rcd13ifvqeug","pricing_plan_id":"cebpf4jnsgd1na2vs0mg"},{"bike_id":"85526acc-28a7-4352-a4e7-3abd6a310fed","system_id":"levelo_inurba_marseille","lat":43.2827,"lon":5.35056,"is_reserved":false,"is_disabled":false,"rental_uris":{"android":"levelo://app?vid=85526acc-28a7-4352-a4e7-3abd6a310fed","ios":"levelo://app?vid=85526acc-28a7-4352-a4e7-3abd6a310fed"},"vehicle_type_id":"4","last_reported":1746087254,"current_range_meters":17600,"station_id":"ce4bhbp2rcd13ifvqerg","pricing_plan_id":"cebpf4jnsgd1na2vs0mg"},{"bike_id":"a0be4085-5aa1-4e70-8872-c0d0d5166c1f","system_id":"levelo_inurba_marseille","lat":43.32489,"lon":5.36561,"is_reserved":false,"is_disabled":false,"rental_uris":{"android":"levelo://app?vid=a0be4085-5aa1-4e70-8872-c0d0d5166c1f","ios":"levelo://app?vid=a0be4085-5aa1-4e70-8872-c0d0d5166c1f"},"vehicle_type_id":"4","last_reported":1746087254,"current_range_meters":18000,"station_id":"ce4bhs12rcd13ifvqhvg","pricing_plan_id":"cebpf4jnsgd1na2vs0mg"},{"bike_id":"c4906d23-e420-4c7f-82c3-23aabab9e794","system_id":"levelo_inurba_marseille","lat":43.29973,"lon":5.38482,"is_reserved":false,"is_disabled":false,"rental_uris":{"android":"levelo://app?vid=c4906d23-e420-4c7f-82c3-23aabab9e794","ios":"levelo://app?vid=c4906d23-e420-4c7f-82c3-23aabab9e794"},"vehicle_type_id":"4","last_reported":1746087254,"current_range_meters":18000,"station_id":"ce4bgj92rcd13ifvqbd0","pricing_plan_id":"cebpf4jnsgd1na2vs0mg"},{"bike_id":"58acca62-4c7e-4809-9247-da651af89e52","system_id":"levelo_inurba_marseille","lat":43.239587,"lon":5.366334,"is_reserved":false,"is_disabled":false,"rental_uris":{"android":"levelo://app?vid=58acca62-4c7e-4809-9247-da651af89e52","ios":"levelo://app?vid=58acca62-4c7e-4809-9247-da651af89e52"},"vehicle_type_id":"4","last_reported":1746087254,"current_range_meters":18000,"station_id":"ce4bhi12rcd13ifvqfp0","pricing_plan_id":"cebpf4jnsgd1na2vs0mg"},{"bike_id":"c7b75ff6-c0be-4f80-94ba-f7afc11fa6b7","system_id":"levelo_inurba_marseille","lat":43.217472,"lon":5.346071,"is_reserved":false,"is_disabled":false,"rental_uris":{"android":"levelo://app?vid=c7b75ff6-c0be-4f80-94ba-f7afc11fa6b7","ios":"levelo://app?vid=c7b75ff6-c0be-4f80-94ba-f7afc11fa6b7"},"vehicle_type_id":"4","last_reported":1746087254,"current_range_meters":18000,"station_id":"st_cvj6r9ubvosntc0bgbag","pricing_plan_id":"cebpf4jnsgd1na2vs0mg"},{"bike_id":"4fec10d1-ef71-4b58-8320-d49a3806ed8a","system_id":"levelo_inurba_marseille","lat":43.32015,"lon":5.38134,"is_reserved":false,"is_disabled":false,"rental_uris":{"android":"levelo://app?vid=4fec10d1-ef71-4b58-8320-d49a3806ed8a","ios":"levelo://app?vid=4fec10d1-ef71-4b58-8320-d49a3806ed8a"},"vehicle_type_id":"4","last_reported":1746087254,"current_range_meters":18800,"station_id":"ce4bhr12rcd13ifvqhpg","pricing_plan_id":"cebpf4jnsgd1na2vs0mg"},{"bike_id":"7c6dc1bf-0fa8-4cea-bdd8-7824d54eb30f","system_id":"levelo_inurba_marseille","lat":43.29894,"lon":5.43666,"is_reserved":false,"is_disabled":false,"rental_uris":{"android":"levelo://app?vid=7c6dc1bf-0fa8-4cea-bdd8-7824d54eb30f","ios":"levelo://app?vid=7c6dc1bf-0fa8-4cea-bdd8-7824d54eb30f"},"vehicle_type_id":"4","last_reported":1746087254,"current_range_meters":18800,"station_id":"ce4bhpp2rcd13ifvqhfg","pricing_plan_id":"cebpf4jnsgd1na2vs0mg"},{"bike_id":"cd1f00f1-de1f-4b99-b793-b6d2d379752c","system_id":"levelo_inurba_marseille","lat":43.25933,"lon":5.40879,"is_reserved":false,"is_disabled":false,"rental_uris":{"android":"levelo://app?vid=cd1f00f1-de1f-4b99-b793-b6d2d379752c","ios":"levelo://app?vid=cd1f00f1-de1f-4b99-b793-b6d2d379752c"},"vehicle_type_id":"4","last_reported":1746087254,"current_range_meters":18800,"station_id":"ce4bhm92rcd13ifvqglg","pricing_plan_id":"cebpf4jnsgd1na2vs0mg"},{"bike_id":"3aeb961f-88b6-47fd-986a-c7b2a855fefd","system_id":"levelo_inurba_marseille","lat":43.23067,"lon":5.35475,"is_reserved":false,"is_disabled":false,"rental_uris":{"android":"levelo://app?vid=3aeb961f-88b6-47fd-986a-c7b2a855fefd","ios":"levelo://app?vid=3aeb961f-88b6-47fd-986a-c7b2a855fefd"},"vehicle_type_id":"4","last_reported":1746087254,"current_range_meters":18800,"station_id":"cpo3342slgdg3j2ifvpg","pricing_plan_id":"cebpf4jnsgd1na2vs0mg"},{"bike_id":"a95dba47-54c0-43ea-a02c-c422bc9aa61b","system_id":"levelo_inurba_marseille","lat":43.25089,"lon":5.39519,"is_reserved":false,"is_disabled":false,"rental_uris":{"android":"levelo://app?vid=a95dba47-54c0-43ea-a02c-c422bc9aa61b","ios":"levelo://app?vid=a95dba47-54c0-43ea-a02c-c422bc9aa61b"},"vehicle_type_id":"4","last_reported":1746087254,"current_range_meters":18800,"station_id":"ce4bhm12rcd13ifvqgkg","pricing_plan_id":"cebpf4jnsgd1na2vs0mg"},{"bike_id":"677a381b-b527-42a3-b987-992902b9ea2d","system_id":"levelo_inurba_marseille","lat":43.2307,"lon":5.35499,"is_reserved":false,"is_disabled":false,"rental_uris":{"android":"levelo://app?vid=677a381b-b527-42a3-b987-992902b9ea2d","ios":"levelo://app?vid=677a381b-b527-42a3-b987-992902b9ea2d"},"vehicle_type_id":"4","last_reported":1746087254,"current_range_meters":18800,"station_id":"cpo3342slgdg3j2ifvpg","pricing_plan_id":"cebpf4jnsgd1na2vs0mg"},{"bike_id":"7acef1b3-6154-45d7-9dd4-b4c37b4ddc94","system_id":"levelo_inurba_marseille","lat":43.30474,"lon":5.37896,"is_reserved":false,"is_disabled":false,"rental_uris":{"android":"levelo://app?vid=7acef1b3-6154-45d7-9dd4-b4c37b4ddc94","ios":"levelo://app?vid=7acef1b3-6154-45d7-9dd4-b4c37b4ddc94"},"vehicle_type_id":"4","last_reported":1746087254,"current_range_meters":18800,"station_id":"ce4bgup2rcd13ifvqcn0","pricing_plan_id":"cebpf4jnsgd1na2vs0mg"},{"bike_id":"4cbfe738-e558-469c-817a-e1877eb559a4","system_id":"levelo_inurba_marseille","lat":43.30543,"lon":5.36725,"is_reserved":false,"is_disabled":false,"rental_uris":{"android":"levelo://app?vid=4cbfe738-e558-469c-817a-e1877eb559a4","ios":"levelo://app?vid=4cbfe738-e558-469c-817a-e1877eb559a4"},"vehicle_type_id":"4","last_reported":1746087254,"current_range_meters":18800,"station_id":"ce4bgrp2rcd13ifvqc9g","pricing_plan_id":"cebpf4jnsgd1na2vs0mg"},{"bike_id":"16129197-66c6-4c03-a3c5-69e3ef54434c","system_id":"levelo_inurba_marseille","lat":43.26565,"lon":5.38999,"is_reserved":false,"is_disabled":false,"rental_uris":{"android":"levelo://app?vid=16129197-66c6-4c03-a3c5-69e3ef54434c","ios":"levelo://app?vid=16129197-66c6-4c03-a3c5-69e3ef54434c"},"vehicle_type_id":"4","last_reported":1746087254,"current_range_meters":19200,"station_id":"ce4bhe12rcd13ifvqf30","pricing_plan_id":"cebpf4jnsgd1na2vs0mg"},{"bike_id":"2b633bb9-83a5-4d1e-8e12-e220dd22e2c0","system_id":"levelo_inurba_marseille","lat":43.324733,"lon":5.365734,"is_reserved":false,"is_disabled":false,"rental_uris":{"android":"levelo://app?vid=2b633bb9-83a5-4d1e-8e12-e220dd22e2c0","ios":"levelo://app?vid=2b633bb9-83a5-4d1e-8e12-e220dd22e2c0"},"vehicle_type_id":"4","last_reported":1746087254,"current_range_meters":19200,"station_id":"ce4bhs12rcd13ifvqhvg","pricing_plan_id":"cebpf4jnsgd1na2vs0mg"},{"bike_id":"36061ff9-936a-4e90-8fea-13b5c9cf9fd5","system_id":"levelo_inurba_marseille","lat":43.28271,"lon":5.35054,"is_reserved":false,"is_disabled":false,"rental_uris":{"android":"levelo://app?vid=36061ff9-936a-4e90-8fea-13b5c9cf9fd5","ios":"levelo://app?vid=36061ff9-936a-4e90-8fea-13b5c9cf9fd5"},"vehicle_type_id":"4","last_reported":1746087254,"current_range_meters":19200,"station_id":"ce4bhbp2rcd13ifvqerg","pricing_plan_id":"cebpf4jnsgd1na2vs0mg"},{"bike_id":"0de4f561-b786-4b29-84d2-44fe3ac7eca7","system_id":"levelo_inurba_marseille","lat":43.24393,"lon":5.37065,"is_reserved":false,"is_disabled":false,"rental_uris":{"android":"levelo://app?vid=0de4f561-b786-4b29-84d2-44fe3ac7eca7","ios":"levelo://app?vid=0de4f561-b786-4b29-84d2-44fe3ac7eca7"},"vehicle_type_id":"4","last_reported":1746087254,"current_range_meters":18800,"station_id":"ce4bhhh2rcd13ifvqfk0","pricing_plan_id":"cebpf4jnsgd1na2vs0mg"},{"bike_id":"0e08453b-46a4-4836-a50d-6d2aa41adb3e","system_id":"levelo_inurba_marseille","lat":43.29574,"lon":5.37522,"is_reserved":false,"is_disabled":false,"rental_uris":{"android":"levelo://app?vid=0e08453b-46a4-4836-a50d-6d2aa41adb3e","ios":"levelo://app?vid=0e08453b-46a4-4836-a50d-6d2aa41adb3e"},"vehicle_type_id":"4","last_reported":1746087254,"current_range_meters":19200,"station_id":"ce4bgh92rcd13ifvqb50","pricing_plan_id":"cebpf4jnsgd1na2vs0mg"},{"bike_id":"f1740731-d944-4a59-b097-56e723689018","system_id":"levelo_inurba_marseille","lat":43.27375,"lon":5.36247,"is_reserved":false,"is_disabled":false,"rental_uris":{"android":"levelo://app?vid=f1740731-d944-4a59-b097-56e723689018","ios":"levelo://app?vid=f1740731-d944-4a59-b097-56e723689018"},"vehicle_type_id":"4","last_reported":1746087254,"current_range_meters":19200,"station_id":"ce4bhbh2rcd13ifvqeo0","pricing_plan_id":"cebpf4jnsgd1na2vs0mg"},{"bike_id":"3ccd4a9b-ce78-4056-9847-fcc92723e397","system_id":"levelo_inurba_marseille","lat":43.273862,"lon":5.362631,"is_reserved":false,"is_disabled":true,"rental_uris":{"android":"levelo://app?vid=3ccd4a9b-ce78-4056-9847-fcc92723e397","ios":"levelo://app?vid=3ccd4a9b-ce78-4056-9847-fcc92723e397"},"vehicle_type_id":"4","last_reported":1746087254,"current_range_meters":19200,"station_id":"ce4bhbh2rcd13ifvqeo0","pricing_plan_id":"cebpf4jnsgd1na2vs0mg"},{"bike_id":"5d5940ed-95b0-46ff-8fe2-bea03e292d84","system_id":"levelo_inurba_marseille","lat":43.29003,"lon":5.35607,"is_reserved":false,"is_disabled":false,"rental_uris":{"android":"levelo://app?vid=5d5940ed-95b0-46ff-8fe2-bea03e292d84","ios":"levelo://app?vid=5d5940ed-95b0-46ff-8fe2-bea03e292d84"},"vehicle_type_id":"4","last_reported":1746087254,"current_range_meters":19200,"station_id":"ce4bhb92rcd13ifvqen0","pricing_plan_id":"cebpf4jnsgd1na2vs0mg"},{"bike_id":"7d887947-7c77-4e94-9b83-b22b164a0d9d","system_id":"levelo_inurba_marseille","lat":43.28268,"lon":5.35063,"is_reserved":false,"is_disabled":false,"rental_uris":{"android":"levelo://app?vid=7d887947-7c77-4e94-9b83-b22b164a0d9d","ios":"levelo://app?vid=7d887947-7c77-4e94-9b83-b22b164a0d9d"},"vehicle_type_id":"4","last_reported":1746087254,"current_range_meters":19200,"station_id":"ce4bhbp2rcd13ifvqerg","pricing_plan_id":"cebpf4jnsgd1na2vs0mg"},{"bike_id":"624c7449-7b2b-4967-9e4d-ecca762075ad","system_id":"levelo_inurba_marseille","lat":43.290365,"lon":5.386456,"is_reserved":false,"is_disabled":false,"rental_uris":{"android":"levelo://app?vid=624c7449-7b2b-4967-9e4d-ecca762075ad","ios":"levelo://app?vid=624c7449-7b2b-4967-9e4d-ecca762075ad"},"vehicle_type_id":"4","last_reported":1746087254,"current_range_meters":19600,"station_id":"ce4bh4p2rcd13ifvqe0g","pricing_plan_id":"cebpf4jnsgd1na2vs0mg"},{"bike_id":"79ad9b42-c98a-42dc-9c00-bba9c49a9175","system_id":"levelo_inurba_marseille","lat":43.25583,"lon":5.3823,"is_reserved":false,"is_disabled":false,"rental_uris":{"android":"levelo://app?vid=79ad9b42-c98a-42dc-9c00-bba9c49a9175","ios":"levelo://app?vid=79ad9b42-c98a-42dc-9c00-bba9c49a9175"},"vehicle_type_id":"4","last_reported":1746087254,"current_range_meters":19600,"station_id":"ce4bhih2rcd13ifvqfs0","pricing_plan_id":"cebpf4jnsgd1na2vs0mg"},{"bike_id":"f96cb21e-9a6a-4ece-9af2-e625dcef0f61","system_id":"levelo_inurba_marseille","lat":43.30265,"lon":5.37715,"is_reserved":false,"is_disabled":false,"rental_uris":{"android":"levelo://app?vid=f96cb21e-9a6a-4ece-9af2-e625dcef0f61","ios":"levelo://app?vid=f96cb21e-9a6a-4ece-9af2-e625dcef0f61"},"vehicle_type_id":"4","last_reported":1746087254,"current_range_meters":19600,"station_id":"ce4bguh2rcd13ifvqcj0","pricing_plan_id":"cebpf4jnsgd1na2vs0mg"},{"bike_id":"cd9a98f9-4b3a-4314-bb9a-8f1b3e46bde5","system_id":"levelo_inurba_marseille","lat":43.29582,"lon":5.36738,"is_reserved":false,"is_disabled":false,"rental_uris":{"android":"levelo://app?vid=cd9a98f9-4b3a-4314-bb9a-8f1b3e46bde5","ios":"levelo://app?vid=cd9a98f9-4b3a-4314-bb9a-8f1b3e46bde5"},"vehicle_type_id":"4","last_reported":1746087254,"current_range_meters":19200,"station_id":"ce4bgph2rcd13ifvqc2g","pricing_plan_id":"cebpf4jnsgd1na2vs0mg"},{"bike_id":"3a44d96b-725a-4a36-a006-4adae90cf9db","system_id":"levelo_inurba_marseille","lat":43.315302,"lon":5.380446,"is_reserved":false,"is_disabled":false,"rental_uris":{"android":"levelo://app?vid=3a44d96b-725a-4a36-a006-4adae90cf9db","ios":"levelo://app?vid=3a44d96b-725a-4a36-a006-4adae90cf9db"},"vehicle_type_id":"4","last_reported":1746087254,"current_range_meters":19600,"station_id":"ce4bhsp2rcd13ifvqi50","pricing_plan_id":"cebpf4jnsgd1na2vs0mg"},{"bike_id":"c0a72000-46b6-4527-9b1c-7432d6b2252e","system_id":"levelo_inurba_marseille","lat":43.27565,"lon":5.38392,"is_reserved":false,"is_disabled":true,"rental_uris":{"android":"levelo://app?vid=c0a72000-46b6-4527-9b1c-7432d6b2252e","ios":"levelo://app?vid=c0a72000-46b6-4527-9b1c-7432d6b2252e"},"vehicle_type_id":"4","last_reported":1746087254,"current_range_meters":19600,"station_id":"ce4bhh92rcd13ifvqfi0","pricing_plan_id":"cebpf4jnsgd1na2vs0mg"},{"bike_id":"4fa9ed5a-1b6b-4d0b-b845-d37eae4caf3e","system_id":"levelo_inurba_marseille","lat":43.3176,"lon":5.39017,"is_reserved":false,"is_disabled":false,"rental_uris":{"android":"levelo://app?vid=4fa9ed5a-1b6b-4d0b-b845-d37eae4caf3e","ios":"levelo://app?vid=4fa9ed5a-1b6b-4d0b-b845-d37eae4caf3e"},"vehicle_type_id":"4","last_reported":1746087254,"current_range_meters":19200,"station_id":"ce4bhqp2rcd13ifvqhng","pricing_plan_id":"cebpf4jnsgd1na2vs0mg"},{"bike_id":"aa27357f-dc7f-4741-8b2f-ad8fc4d8dfe9","system_id":"levelo_inurba_marseille","lat":43.276,"lon":5.36092,"is_reserved":false,"is_disabled":true,"rental_uris":{"android":"levelo://app?vid=aa27357f-dc7f-4741-8b2f-ad8fc4d8dfe9","ios":"levelo://app?vid=aa27357f-dc7f-4741-8b2f-ad8fc4d8dfe9"},"vehicle_type_id":"4","last_reported":1746087254,"current_range_meters":20000,"station_id":"ce4bgj92rcd13ifvqbe0","pricing_plan_id":"cebpf4jnsgd1na2vs0mg"},{"bike_id":"d0d1d91f-3118-4593-a768-d812e73c6a76","system_id":"levelo_inurba_marseille","lat":43.2293,"lon":5.35369,"is_reserved":false,"is_disabled":false,"rental_uris":{"android":"levelo://app?vid=d0d1d91f-3118-4593-a768-d812e73c6a76","ios":"levelo://app?vid=d0d1d91f-3118-4593-a768-d812e73c6a76"},"vehicle_type_id":"4","last_reported":1746087254,"current_range_meters":20000,"station_id":"cpo3532slgdg3j2ikp40","pricing_plan_id":"cebpf4jnsgd1na2vs0mg"},{"bike_id":"892d9a51-001b-42d0-a4e3-a6a5f757a630","system_id":"levelo_inurba_marseille","lat":43.27429,"lon":5.39408,"is_reserved":false,"is_disabled":false,"rental_uris":{"android":"levelo://app?vid=892d9a51-001b-42d0-a4e3-a6a5f757a630","ios":"levelo://app?vid=892d9a51-001b-42d0-a4e3-a6a5f757a630"},"vehicle_type_id":"4","last_reported":1746087254,"current_range_meters":19600,"station_id":"ce4bhdp2rcd13ifvqf20","pricing_plan_id":"cebpf4jnsgd1na2vs0mg"},{"bike_id":"9b38d887-e496-4cdf-b540-36b3bdf091bc","system_id":"levelo_inurba_marseille","lat":43.21752,"lon":5.346,"is_reserved":false,"is_disabled":false,"rental_uris":{"android":"levelo://app?vid=9b38d887-e496-4cdf-b540-36b3bdf091bc","ios":"levelo://app?vid=9b38d887-e496-4cdf-b540-36b3bdf091bc"},"vehicle_type_id":"4","last_reported":1746087254,"current_range_meters":20000,"station_id":"st_cvj6r9ubvosntc0bgbag","pricing_plan_id":"cebpf4jnsgd1na2vs0mg"},{"bike_id":"2d11cc72-bf59-462c-999d-e046cc962035","system_id":"levelo_inurba_marseille","lat":43.28265,"lon":5.35057,"is_reserved":false,"is_disabled":false,"rental_uris":{"android":"levelo://app?vid=2d11cc72-bf59-462c-999d-e046cc962035","ios":"levelo://app?vid=2d11cc72-bf59-462c-999d-e046cc962035"},"vehicle_type_id":"4","last_reported":1746087254,"current_range_meters":20000,"station_id":"ce4bhbp2rcd13ifvqerg","pricing_plan_id":"cebpf4jnsgd1na2vs0mg"},{"bike_id":"c49631c7-7251-453d-b532-906cd6caf0ef","system_id":"levelo_inurba_marseille","lat":43.284027,"lon":5.37516,"is_reserved":false,"is_disabled":true,"rental_uris":{"android":"levelo://app?vid=c49631c7-7251-453d-b532-906cd6caf0ef","ios":"levelo://app?vid=c49631c7-7251-453d-b532-906cd6caf0ef"},"vehicle_type_id":"4","last_reported":1746087254,"current_range_meters":20000,"station_id":"ce4bh412rcd13ifvqds0","pricing_plan_id":"cebpf4jnsgd1na2vs0mg"},{"bike_id":"70a7a3bb-9f8a-4563-938c-13dad70217c3","system_id":"levelo_inurba_marseille","lat":43.29585,"lon":5.36738,"is_reserved":false,"is_disabled":false,"rental_uris":{"android":"levelo://app?vid=70a7a3bb-9f8a-4563-938c-13dad70217c3","ios":"levelo://app?vid=70a7a3bb-9f8a-4563-938c-13dad70217c3"},"vehicle_type_id":"4","last_reported":1746087254,"current_range_meters":20000,"station_id":"ce4bgph2rcd13ifvqc2g","pricing_plan_id":"cebpf4jnsgd1na2vs0mg"},{"bike_id":"9948b8c0-52d2-4eb8-8da4-a50a93afeb9b","system_id":"levelo_inurba_marseille","lat":43.22922,"lon":5.35368,"is_reserved":false,"is_disabled":false,"rental_uris":{"android":"levelo://app?vid=9948b8c0-52d2-4eb8-8da4-a50a93afeb9b","ios":"levelo://app?vid=9948b8c0-52d2-4eb8-8da4-a50a93afeb9b"},"vehicle_type_id":"4","last_reported":1746087254,"current_range_meters":20400,"station_id":"cpo3532slgdg3j2ikp40","pricing_plan_id":"cebpf4jnsgd1na2vs0mg"},{"bike_id":"07f7430a-3ba6-4bd4-afa6-f0ed4df8fb43","system_id":"levelo_inurba_marseille","lat":43.27373,"lon":5.36255,"is_reserved":false,"is_disabled":false,"rental_uris":{"android":"levelo://app?vid=07f7430a-3ba6-4bd4-afa6-f0ed4df8fb43","ios":"levelo://app?vid=07f7430a-3ba6-4bd4-afa6-f0ed4df8fb43"},"vehicle_type_id":"4","last_reported":1746087254,"current_range_meters":20400,"station_id":"ce4bhbh2rcd13ifvqeo0","pricing_plan_id":"cebpf4jnsgd1na2vs0mg"},{"bike_id":"da19f286-df4e-4f1d-8924-70c6316c30cd","system_id":"levelo_inurba_marseille","lat":43.24647,"lon":5.389054,"is_reserved":false,"is_disabled":true,"rental_uris":{"android":"levelo://app?vid=da19f286-df4e-4f1d-8924-70c6316c30cd","ios":"levelo://app?vid=da19f286-df4e-4f1d-8924-70c6316c30cd"},"vehicle_type_id":"4","last_reported":1746087254,"current_range_meters":20400,"station_id":"ce4bhg12rcd13ifvqf60","pricing_plan_id":"cebpf4jnsgd1na2vs0mg"},{"bike_id":"cad06a61-a806-487c-9e18-d7fbe1875c4f","system_id":"levelo_inurba_marseille","lat":43.265472,"lon":5.372817,"is_reserved":false,"is_disabled":true,"rental_uris":{"android":"levelo://app?vid=cad06a61-a806-487c-9e18-d7fbe1875c4f","ios":"levelo://app?vid=cad06a61-a806-487c-9e18-d7fbe1875c4f"},"vehicle_type_id":"4","last_reported":1746087254,"current_range_meters":20800,"station_id":"ce4bhg12rcd13ifvqf70","pricing_plan_id":"cebpf4jnsgd1na2vs0mg"},{"bike_id":"43fdf588-8115-4b85-8382-fbc0f7bbe361","system_id":"levelo_inurba_marseille","lat":43.25583,"lon":5.38231,"is_reserved":false,"is_disabled":false,"rental_uris":{"android":"levelo://app?vid=43fdf588-8115-4b85-8382-fbc0f7bbe361","ios":"levelo://app?vid=43fdf588-8115-4b85-8382-fbc0f7bbe361"},"vehicle_type_id":"4","last_reported":1746087254,"current_range_meters":20400,"station_id":"ce4bhih2rcd13ifvqfs0","pricing_plan_id":"cebpf4jnsgd1na2vs0mg"},{"bike_id":"03058cd8-9d7a-46b5-899c-99dc5057d5dd","system_id":"levelo_inurba_marseille","lat":43.295292,"lon":5.390458,"is_reserved":false,"is_disabled":false,"rental_uris":{"android":"levelo://app?vid=03058cd8-9d7a-46b5-899c-99dc5057d5dd","ios":"levelo://app?vid=03058cd8-9d7a-46b5-899c-99dc5057d5dd"},"vehicle_type_id":"4","last_reported":1746087254,"current_range_meters":20800,"station_id":"ce4bh3p2rcd13ifvqdp0","pricing_plan_id":"cebpf4jnsgd1na2vs0mg"},{"bike_id":"cb2fd4b7-2d87-4f41-9958-eb181ed40115","system_id":"levelo_inurba_marseille","lat":43.30326,"lon":5.40422,"is_reserved":false,"is_disabled":false,"rental_uris":{"android":"levelo://app?vid=cb2fd4b7-2d87-4f41-9958-eb181ed40115","ios":"levelo://app?vid=cb2fd4b7-2d87-4f41-9958-eb181ed40115"},"vehicle_type_id":"4","last_reported":1746087254,"current_range_meters":20800,"station_id":"ce4bh012rcd13ifvqd10","pricing_plan_id":"cebpf4jnsgd1na2vs0mg"},{"bike_id":"a0b767f6-6270-4d49-b0d6-4b7a5a1d4a31","system_id":"levelo_inurba_marseille","lat":43.32043,"lon":5.41552,"is_reserved":false,"is_disabled":false,"rental_uris":{"android":"levelo://app?vid=a0b767f6-6270-4d49-b0d6-4b7a5a1d4a31","ios":"levelo://app?vid=a0b767f6-6270-4d49-b0d6-4b7a5a1d4a31"},"vehicle_type_id":"4","last_reported":1746087254,"current_range_meters":21600,"station_id":"ce4bhq92rcd13ifvqhkg","pricing_plan_id":"cebpf4jnsgd1na2vs0mg"},{"bike_id":"b6cea841-c9f2-45a6-a739-ea263947ca5f","system_id":"levelo_inurba_marseille","lat":43.23194,"lon":5.35546,"is_reserved":false,"is_disabled":false,"rental_uris":{"android":"levelo://app?vid=b6cea841-c9f2-45a6-a739-ea263947ca5f","ios":"levelo://app?vid=b6cea841-c9f2-45a6-a739-ea263947ca5f"},"vehicle_type_id":"4","last_reported":1746087254,"current_range_meters":21600,"station_id":"ce4bhu92rcd13ifvqi70","pricing_plan_id":"cebpf4jnsgd1na2vs0mg"},{"bike_id":"4e8a230c-6730-4c71-96e8-640984cd60b4","system_id":"levelo_inurba_marseille","lat":43.31997,"lon":5.3814,"is_reserved":false,"is_disabled":false,"rental_uris":{"android":"levelo://app?vid=4e8a230c-6730-4c71-96e8-640984cd60b4","ios":"levelo://app?vid=4e8a230c-6730-4c71-96e8-640984cd60b4"},"vehicle_type_id":"4","last_reported":1746087254,"current_range_meters":22000,"station_id":"ce4bhr12rcd13ifvqhpg","pricing_plan_id":"cebpf4jnsgd1na2vs0mg"},{"bike_id":"ecfa0523-10b7-410a-aaad-c5014251cf24","system_id":"levelo_inurba_marseille","lat":43.26057,"lon":5.39394,"is_reserved":false,"is_disabled":false,"rental_uris":{"android":"levelo://app?vid=ecfa0523-10b7-410a-aaad-c5014251cf24","ios":"levelo://app?vid=ecfa0523-10b7-410a-aaad-c5014251cf24"},"vehicle_type_id":"4","last_reported":1746087254,"current_range_meters":21600,"station_id":"ce4bhh92rcd13ifvqfj0","pricing_plan_id":"cebpf4jnsgd1na2vs0mg"},{"bike_id":"c695bac2-0581-4a6a-b9c9-eb8e0d8673ed","system_id":"levelo_inurba_marseille","lat":43.3373,"lon":5.39169,"is_reserved":false,"is_disabled":false,"rental_uris":{"android":"levelo://app?vid=c695bac2-0581-4a6a-b9c9-eb8e0d8673ed","ios":"levelo://app?vid=c695bac2-0581-4a6a-b9c9-eb8e0d8673ed"},"vehicle_type_id":"4","last_reported":1746087254,"current_range_meters":22000,"station_id":"ce4bhr92rcd13ifvqhsg","pricing_plan_id":"cebpf4jnsgd1na2vs0mg"},{"bike_id":"735d5b0a-b07a-42b6-9ca1-ad68b1dd40df","system_id":"levelo_inurba_marseille","lat":43.26029,"lon":5.37543,"is_reserved":false,"is_disabled":false,"rental_uris":{"android":"levelo://app?vid=735d5b0a-b07a-42b6-9ca1-ad68b1dd40df","ios":"levelo://app?vid=735d5b0a-b07a-42b6-9ca1-ad68b1dd40df"},"vehicle_type_id":"4","last_reported":1746087254,"current_range_meters":22000,"station_id":"ce4bhgh2rcd13ifvqfa0","pricing_plan_id":"cebpf4jnsgd1na2vs0mg"},{"bike_id":"27ebc894-5cc3-4b6b-8565-5118570c00bc","system_id":"levelo_inurba_marseille","lat":43.3247,"lon":5.366005,"is_reserved":false,"is_disabled":false,"rental_uris":{"android":"levelo://app?vid=27ebc894-5cc3-4b6b-8565-5118570c00bc","ios":"levelo://app?vid=27ebc894-5cc3-4b6b-8565-5118570c00bc"},"vehicle_type_id":"4","last_reported":1746087254,"current_range_meters":22000,"station_id":"ce4bhs12rcd13ifvqhvg","pricing_plan_id":"cebpf4jnsgd1na2vs0mg"},{"bike_id":"8c3f92d0-6f73-48cf-9ae4-5e64d8f4cdbb","system_id":"levelo_inurba_marseille","lat":43.28966,"lon":5.37836,"is_reserved":false,"is_disabled":false,"rental_uris":{"android":"levelo://app?vid=8c3f92d0-6f73-48cf-9ae4-5e64d8f4cdbb","ios":"levelo://app?vid=8c3f92d0-6f73-48cf-9ae4-5e64d8f4cdbb"},"vehicle_type_id":"4","last_reported":1746087254,"current_range_meters":21600,"station_id":"ce4bh9p2rcd13ifvqed0","pricing_plan_id":"cebpf4jnsgd1na2vs0mg"},{"bike_id":"9011d0a2-bd13-4e77-b3b9-c4b97dcb781f","system_id":"levelo_inurba_marseille","lat":43.32539,"lon":5.41423,"is_reserved":false,"is_disabled":false,"rental_uris":{"android":"levelo://app?vid=9011d0a2-bd13-4e77-b3b9-c4b97dcb781f","ios":"levelo://app?vid=9011d0a2-bd13-4e77-b3b9-c4b97dcb781f"},"vehicle_type_id":"4","last_reported":1746087254,"current_range_meters":22000,"station_id":"ce4bhq12rcd13ifvqhhg","pricing_plan_id":"cebpf4jnsgd1na2vs0mg"},{"bike_id":"49204aaa-3582-4fe7-b7a2-66cecba78def","system_id":"levelo_inurba_marseille","lat":43.25134,"lon":5.40377,"is_reserved":false,"is_disabled":true,"rental_uris":{"android":"levelo://app?vid=49204aaa-3582-4fe7-b7a2-66cecba78def","ios":"levelo://app?vid=49204aaa-3582-4fe7-b7a2-66cecba78def"},"vehicle_type_id":"4","last_reported":1746087254,"current_range_meters":22000,"station_id":"","pricing_plan_id":"cebpf4jnsgd1na2vs0mg"},{"bike_id":"cb89f51f-3376-40a4-ac4e-8d983293c40a","system_id":"levelo_inurba_marseille","lat":43.231887,"lon":5.355515,"is_reserved":false,"is_disabled":false,"rental_uris":{"android":"levelo://app?vid=cb89f51f-3376-40a4-ac4e-8d983293c40a","ios":"levelo://app?vid=cb89f51f-3376-40a4-ac4e-8d983293c40a"},"vehicle_type_id":"4","last_reported":1746087254,"current_range_meters":21600,"station_id":"ce4bhu92rcd13ifvqi70","pricing_plan_id":"cebpf4jnsgd1na2vs0mg"},{"bike_id":"c59b2838-527c-4999-85e5-f73b7780f76f","system_id":"levelo_inurba_marseille","lat":43.29624,"lon":5.37725,"is_reserved":false,"is_disabled":false,"rental_uris":{"android":"levelo://app?vid=c59b2838-527c-4999-85e5-f73b7780f76f","ios":"levelo://app?vid=c59b2838-527c-4999-85e5-f73b7780f76f"},"vehicle_type_id":"4","last_reported":1746087254,"current_range_meters":21600,"station_id":"ce4bgi92rcd13ifvqb90","pricing_plan_id":"cebpf4jnsgd1na2vs0mg"},{"bike_id":"09890f6f-8c43-4293-83ca-02698c247194","system_id":"levelo_inurba_marseille","lat":43.28446,"lon":5.39188,"is_reserved":false,"is_disabled":true,"rental_uris":{"android":"levelo://app?vid=09890f6f-8c43-4293-83ca-02698c247194","ios":"levelo://app?vid=09890f6f-8c43-4293-83ca-02698c247194"},"vehicle_type_id":"4","last_reported":1746087254,"current_range_meters":22400,"station_id":"ce4bhoh2rcd13ifvqh5g","pricing_plan_id":"cebpf4jnsgd1na2vs0mg"},{"bike_id":"2e521fa8-9a56-4170-baec-6b1806f24755","system_id":"levelo_inurba_marseille","lat":43.324761,"lon":5.365886,"is_reserved":false,"is_disabled":false,"rental_uris":{"android":"levelo://app?vid=2e521fa8-9a56-4170-baec-6b1806f24755","ios":"levelo://app?vid=2e521fa8-9a56-4170-baec-6b1806f24755"},"vehicle_type_id":"4","last_reported":1746087254,"current_range_meters":22400,"station_id":"ce4bhs12rcd13ifvqhvg","pricing_plan_id":"cebpf4jnsgd1na2vs0mg"},{"bike_id":"89a33b00-7254-4df6-ae40-9c45b935158d","system_id":"levelo_inurba_marseille","lat":43.225073,"lon":5.347838,"is_reserved":false,"is_disabled":true,"rental_uris":{"android":"levelo://app?vid=89a33b00-7254-4df6-ae40-9c45b935158d","ios":"levelo://app?vid=89a33b00-7254-4df6-ae40-9c45b935158d"},"vehicle_type_id":"4","last_reported":1746087254,"current_range_meters":22800,"station_id":"st_cvj5dfep6f1abm77gieg","pricing_plan_id":"cebpf4jnsgd1na2vs0mg"},{"bike_id":"cce7d4cb-815a-43e8-a8ce-f16da69b88ef","system_id":"levelo_inurba_marseille","lat":43.32099,"lon":5.36781,"is_reserved":false,"is_disabled":false,"rental_uris":{"android":"levelo://app?vid=cce7d4cb-815a-43e8-a8ce-f16da69b88ef","ios":"levelo://app?vid=cce7d4cb-815a-43e8-a8ce-f16da69b88ef"},"vehicle_type_id":"4","last_reported":1746087254,"current_range_meters":22800,"station_id":"ce4bhrh2rcd13ifvqhug","pricing_plan_id":"cebpf4jnsgd1na2vs0mg"},{"bike_id":"b6fbd6e4-836b-4feb-82be-b1fbb14ee47f","system_id":"levelo_inurba_marseille","lat":43.25713,"lon":5.4108,"is_reserved":false,"is_disabled":false,"rental_uris":{"android":"levelo://app?vid=b6fbd6e4-836b-4feb-82be-b1fbb14ee47f","ios":"levelo://app?vid=b6fbd6e4-836b-4feb-82be-b1fbb14ee47f"},"vehicle_type_id":"4","last_reported":1746087254,"current_range_meters":22800,"station_id":"ce4bhkp2rcd13ifvqgd0","pricing_plan_id":"cebpf4jnsgd1na2vs0mg"},{"bike_id":"80f37b6a-0501-4a49-868b-b115cc593366","system_id":"levelo_inurba_marseille","lat":43.27378,"lon":5.36253,"is_reserved":false,"is_disabled":false,"rental_uris":{"android":"levelo://app?vid=80f37b6a-0501-4a49-868b-b115cc593366","ios":"levelo://app?vid=80f37b6a-0501-4a49-868b-b115cc593366"},"vehicle_type_id":"4","last_reported":1746087254,"current_range_meters":22800,"station_id":"ce4bhbh2rcd13ifvqeo0","pricing_plan_id":"cebpf4jnsgd1na2vs0mg"},{"bike_id":"13a308e4-f442-40e8-9094-ee54d6d8bbd7","system_id":"levelo_inurba_marseille","lat":43.273724,"lon":5.362306,"is_reserved":false,"is_disabled":false,"rental_uris":{"android":"levelo://app?vid=13a308e4-f442-40e8-9094-ee54d6d8bbd7","ios":"levelo://app?vid=13a308e4-f442-40e8-9094-ee54d6d8bbd7"},"vehicle_type_id":"4","last_reported":1746087254,"current_range_meters":22800,"station_id":"","pricing_plan_id":"cebpf4jnsgd1na2vs0mg"},{"bike_id":"542c58da-893c-432a-b862-3a0bc81c3c12","system_id":"levelo_inurba_marseille","lat":43.324751,"lon":5.365883,"is_reserved":false,"is_disabled":false,"rental_uris":{"android":"levelo://app?vid=542c58da-893c-432a-b862-3a0bc81c3c12","ios":"levelo://app?vid=542c58da-893c-432a-b862-3a0bc81c3c12"},"vehicle_type_id":"4","last_reported":1746087254,"current_range_meters":23200,"station_id":"ce4bhs12rcd13ifvqhvg","pricing_plan_id":"cebpf4jnsgd1na2vs0mg"},{"bike_id":"57755ac3-b209-43a6-a0a1-7e50baed17a9","system_id":"levelo_inurba_marseille","lat":43.27177,"lon":5.40994,"is_reserved":false,"is_disabled":false,"rental_uris":{"android":"levelo://app?vid=57755ac3-b209-43a6-a0a1-7e50baed17a9","ios":"levelo://app?vid=57755ac3-b209-43a6-a0a1-7e50baed17a9"},"vehicle_type_id":"4","last_reported":1746087254,"current_range_meters":23200,"station_id":"ce4bhl12rcd13ifvqgf0","pricing_plan_id":"cebpf4jnsgd1na2vs0mg"},{"bike_id":"bdd874bf-8b3d-4076-a712-d07e93d4641c","system_id":"levelo_inurba_marseille","lat":43.330308,"lon":5.390284,"is_reserved":false,"is_disabled":false,"rental_uris":{"android":"levelo://app?vid=bdd874bf-8b3d-4076-a712-d07e93d4641c","ios":"levelo://app?vid=bdd874bf-8b3d-4076-a712-d07e93d4641c"},"vehicle_type_id":"4","last_reported":1746087254,"current_range_meters":23200,"station_id":"ce4bhr92rcd13ifvqhrg","pricing_plan_id":"cebpf4jnsgd1na2vs0mg"},{"bike_id":"ca56defd-0290-4d54-88e2-1f91c1ff3acc","system_id":"levelo_inurba_marseille","lat":43.34151,"lon":5.40909,"is_reserved":false,"is_disabled":false,"rental_uris":{"android":"levelo://app?vid=ca56defd-0290-4d54-88e2-1f91c1ff3acc","ios":"levelo://app?vid=ca56defd-0290-4d54-88e2-1f91c1ff3acc"},"vehicle_type_id":"4","last_reported":1746087254,"current_range_meters":23200,"station_id":"ce4bhqh2rcd13ifvqhlg","pricing_plan_id":"cebpf4jnsgd1na2vs0mg"},{"bike_id":"89d03ae9-9c85-4c47-8f13-71b786bb8ea9","system_id":"levelo_inurba_marseille","lat":43.251163,"lon":5.403125,"is_reserved":false,"is_disabled":false,"rental_uris":{"android":"levelo://app?vid=89d03ae9-9c85-4c47-8f13-71b786bb8ea9","ios":"levelo://app?vid=89d03ae9-9c85-4c47-8f13-71b786bb8ea9"},"vehicle_type_id":"4","last_reported":1746087254,"current_range_meters":23200,"station_id":"ce4bhlh2rcd13ifvqgig","pricing_plan_id":"cebpf4jnsgd1na2vs0mg"},{"bike_id":"94d4e8fc-3b03-43a2-b507-1893cb883275","system_id":"levelo_inurba_marseille","lat":43.32104,"lon":5.36761,"is_reserved":false,"is_disabled":false,"rental_uris":{"android":"levelo://app?vid=94d4e8fc-3b03-43a2-b507-1893cb883275","ios":"levelo://app?vid=94d4e8fc-3b03-43a2-b507-1893cb883275"},"vehicle_type_id":"4","last_reported":1746087254,"current_range_meters":23200,"station_id":"ce4bhrh2rcd13ifvqhug","pricing_plan_id":"cebpf4jnsgd1na2vs0mg"},{"bike_id":"8053b6f3-8b36-4add-b4e3-6190be97bf93","system_id":"levelo_inurba_marseille","lat":43.29844,"lon":5.36262,"is_reserved":false,"is_disabled":false,"rental_uris":{"android":"levelo://app?vid=8053b6f3-8b36-4add-b4e3-6190be97bf93","ios":"levelo://app?vid=8053b6f3-8b36-4add-b4e3-6190be97bf93"},"vehicle_type_id":"4","last_reported":1746087254,"current_range_meters":23200,"station_id":"ce4bgpp2rcd13ifvqc3g","pricing_plan_id":"cebpf4jnsgd1na2vs0mg"},{"bike_id":"f24ca205-8404-46ed-a88a-6af1b3334860","system_id":"levelo_inurba_marseille","lat":43.297603,"lon":5.38101,"is_reserved":false,"is_disabled":false,"rental_uris":{"android":"levelo://app?vid=f24ca205-8404-46ed-a88a-6af1b3334860","ios":"levelo://app?vid=f24ca205-8404-46ed-a88a-6af1b3334860"},"vehicle_type_id":"4","last_reported":1746087254,"current_range_meters":24000,"station_id":"ce4bgjp2rcd13ifvqbh0","pricing_plan_id":"cebpf4jnsgd1na2vs0mg"},{"bike_id":"97881b13-f9b3-4b7a-b397-a25fc4de79d9","system_id":"levelo_inurba_marseille","lat":43.29417,"lon":5.38624,"is_reserved":false,"is_disabled":false,"rental_uris":{"android":"levelo://app?vid=97881b13-f9b3-4b7a-b397-a25fc4de79d9","ios":"levelo://app?vid=97881b13-f9b3-4b7a-b397-a25fc4de79d9"},"vehicle_type_id":"4","last_reported":1746087254,"current_range_meters":24400,"station_id":"ce4bh2h2rcd13ifvqdh0","pricing_plan_id":"cebpf4jnsgd1na2vs0mg"},{"bike_id":"692a6206-ba59-4668-94a3-345d6ac95354","system_id":"levelo_inurba_marseille","lat":43.303714,"lon":5.42499,"is_reserved":false,"is_disabled":false,"rental_uris":{"android":"levelo://app?vid=692a6206-ba59-4668-94a3-345d6ac95354","ios":"levelo://app?vid=692a6206-ba59-4668-94a3-345d6ac95354"},"vehicle_type_id":"4","last_reported":1746087254,"current_range_meters":24000,"station_id":"ce4bhoh2rcd13ifvqh6g","pricing_plan_id":"cebpf4jnsgd1na2vs0mg"},{"bike_id":"2e0d34fa-abef-4d78-abd3-73851821c272","system_id":"levelo_inurba_marseille","lat":43.25004,"lon":5.38942,"is_reserved":false,"is_disabled":false,"rental_uris":{"android":"levelo://app?vid=2e0d34fa-abef-4d78-abd3-73851821c272","ios":"levelo://app?vid=2e0d34fa-abef-4d78-abd3-73851821c272"},"vehicle_type_id":"4","last_reported":1746087254,"current_range_meters":23200,"station_id":"ce4bhgp2rcd13ifvqfd0","pricing_plan_id":"cebpf4jnsgd1na2vs0mg"},{"bike_id":"eb90eeeb-0452-4885-88cd-e7be48a4b051","system_id":"levelo_inurba_marseille","lat":43.25124,"lon":5.403115,"is_reserved":false,"is_disabled":true,"rental_uris":{"android":"levelo://app?vid=eb90eeeb-0452-4885-88cd-e7be48a4b051","ios":"levelo://app?vid=eb90eeeb-0452-4885-88cd-e7be48a4b051"},"vehicle_type_id":"4","last_reported":1746087254,"current_range_meters":24000,"station_id":"ce4bhlh2rcd13ifvqgig","pricing_plan_id":"cebpf4jnsgd1na2vs0mg"},{"bike_id":"193ed332-6867-400b-a284-45ee810d4392","system_id":"levelo_inurba_marseille","lat":43.31488,"lon":5.3729,"is_reserved":false,"is_disabled":false,"rental_uris":{"android":"levelo://app?vid=193ed332-6867-400b-a284-45ee810d4392","ios":"levelo://app?vid=193ed332-6867-400b-a284-45ee810d4392"},"vehicle_type_id":"4","last_reported":1746087254,"current_range_meters":24400,"station_id":"ce4bgt12rcd13ifvqcd0","pricing_plan_id":"cebpf4jnsgd1na2vs0mg"},{"bike_id":"3c462008-3d06-4d97-a417-de654c9308be","system_id":"levelo_inurba_marseille","lat":43.26023,"lon":5.4174,"is_reserved":false,"is_disabled":false,"rental_uris":{"android":"levelo://app?vid=3c462008-3d06-4d97-a417-de654c9308be","ios":"levelo://app?vid=3c462008-3d06-4d97-a417-de654c9308be"},"vehicle_type_id":"4","last_reported":1746087254,"current_range_meters":24400,"station_id":"","pricing_plan_id":"cebpf4jnsgd1na2vs0mg"},{"bike_id":"de21e26b-7bb1-4725-8f81-bd0f74c2453d","system_id":"levelo_inurba_marseille","lat":43.278418,"lon":5.354492,"is_reserved":false,"is_disabled":false,"rental_uris":{"android":"levelo://app?vid=de21e26b-7bb1-4725-8f81-bd0f74c2453d","ios":"levelo://app?vid=de21e26b-7bb1-4725-8f81-bd0f74c2453d"},"vehicle_type_id":"4","last_reported":1746087254,"current_range_meters":24400,"station_id":"","pricing_plan_id":"cebpf4jnsgd1na2vs0mg"},{"bike_id":"ce275a13-b30a-4634-b231-60deaeabc0f9","system_id":"levelo_inurba_marseille","lat":43.21611,"lon":5.34475,"is_reserved":false,"is_disabled":false,"rental_uris":{"android":"levelo://app?vid=ce275a13-b30a-4634-b231-60deaeabc0f9","ios":"levelo://app?vid=ce275a13-b30a-4634-b231-60deaeabc0f9"},