{"last_updated":1746551360,"ttl":60,"version":"2.2","data":{"bikes":[{"bike_id":"545631c8-05b7-4070-95e3-52dc096addb5","system_id":"levelo_inurba_marseille","lat":43.272031,"lon":5.364686,"is_reserved":false,"is_disabled":true,"rental_uris":{"android":"levelo://app?vid=545631c8-05b7-4070-95e3-52dc096addb5","ios":"levelo://app?vid=545631c8-05b7-4070-95e3-52dc096addb5"},"vehicle_type_id":"4","last_reported":1746551360,"current_range_meters":0,"station_id":"","pricing_plan_id":"cebpf4jnsgd1na2vs0mg"},{"bike_id":"64a99dee-e5f5-406c-bb57-3c1dd0084469","system_id":"levelo_inurba_marseille","lat":43.23667,"lon":5.39143,"is_reserved":false,"is_disabled":true,"rental_uris":{"android":"levelo://app?vid=64a99dee-e5f5-406c-bb57-3c1dd0084469","ios":"levelo://app?vid=64a99dee-e5f5-406c-bb57-3c1dd0084469"},"vehicle_type_id":"4","last_reported":1746551360,"current_range_meters":0,"station_id":"","pricing_plan_id":"cebpf4jnsgd1na2vs0mg"},{"bike_id":"b56eeeb9-9ded-4dd2-9efa-c8d4f8a5e387","system_id":"levelo_inurba_marseille","lat":43.273595,"lon":5.42233,"is_reserved":false,"is_disabled":true,"rental_uris":{"android":"levelo://app?vid=b56eeeb9-9ded-4dd2-9efa-c8d4f8a5e387","ios":"levelo://app?vid=b56eeeb9-9ded-4dd2-9efa-c8d4f8a5e387"},"vehicle_type_id":"4","last_reported":1746551360,"current_range_meters":0,"station_id":"","pricing_plan_id":"cebpf4jnsgd1na2vs0mg"},{"bike_id":"2d251c8d-e9d0-476f-8622-cb88831f30c3","system_id":"levelo_inurba_marseille","lat":43.26997,"lon":5.38798,"is_reserved":false,"is_disabled":true,"rental_uris":{"android":"levelo://app?vid=2d251c8d-e9d0-476f-8622-cb88831f30c3","ios":"levelo://app?vid=2d251c8d-e9d0-476f-8622-cb88831f30c3"},"vehicle_type_id":"4","last_reported":1746551360,"current_range_meters":0,"station_id":"","pricing_plan_id":"cebpf4jnsgd1na2vs0mg"},{"bike_id":"6bb75941-322d-4e4d-9830-b45548800653","system_id":"levelo_inurba_marseille","lat":43.30953,"lon":5.39077,"is_reserved":false,"is_disabled":true,"rental_uris":{"android":"levelo://app?vid=6bb75941-322d-4e4d-9830-b45548800653","ios":"levelo://app?vid=6bb75941-322d-4e4d-9830-b45548800653"},"vehicle_type_id":"4","last_reported":1746551360,"current_range_meters":0,"station_id":"ce4bgup2rcd13ifvqco0","pricing_plan_id":"cebpf4jnsgd1na2vs0mg"},{"bike_id":"aae00376-1442-40d1-aec7-3d8d5183add0","system_id":"levelo_inurba_marseille","lat":43.28253,"lon":5.35064,"is_reserved":false,"is_disabled":true,"rental_uris":{"android":"levelo://app?vid=aae00376-1442-40d1-aec7-3d8d5183add0","ios":"levelo://app?vid=aae00376-1442-40d1-aec7-3d8d5183add0"},"vehicle_type_id":"4","last_reported":1746551360,"current_range_meters":0,"station_id":"ce4bhbp2rcd13ifvqerg","pricing_plan_id":"cebpf4jnsgd1na2vs0mg"},{"bike_id":"58757ac0-7579-4d61-99ba-8bfbe237fec8","system_id":"levelo_inurba_marseille","lat":43.27837,"lon":5.39217,"is_reserved":false,"is_disabled":true,"rental_uris":{"android":"levelo://app?vid=58757ac0-7579-4d61-99ba-8bfbe237fec8","ios":"levelo://app?vid=58757ac0-7579-4d61-99ba-8bfbe237fec8"},"vehicle_type_id":"4","last_reported":1746551360,"current_range_meters":0,"station_id":"ce4bhjp2rcd13ifvqga0","pricing_plan_id":"cebpf4jnsgd1na2vs0mg"},{"bike_id":"93f2bb7b-a697-40e8-aea4-dc5092a52451","system_id":"levelo_inurba_marseille","lat":43.27805,"lon":5.4073,"is_reserved":false,"is_disabled":true,"rental_uris":{"android":"levelo://app?vid=93f2bb7b-a697-40e8-aea4-dc5092a52451","ios":"levelo://app?vid=93f2bb7b-a697-40e8-aea4-dc5092a52451"},"vehicle_type_id":"4","last_reported":1746551360,"current_range_meters":0,"station_id":"ce4bhnh2rcd13ifvqgtg","pricing_plan_id":"cebpf4jnsgd1na2vs0mg"},{"bike_id":"f190d90e-89ab-4221-ac6f-fe018d86c48d","system_id":"levelo_inurba_marseille","lat":43.27942,"lon":5.41047,"is_reserved":false,"is_disabled":true,"rental_uris":{"android":"levelo://app?vid=f190d90e-89ab-4221-ac6f-fe018d86c48d","ios":"levelo://app?vid=f190d90e-89ab-4221-ac6f-fe018d86c48d"},"vehicle_type_id":"4","last_reported":1746551360,"current_range_meters":0,"station_id":"ce4bhnp2rcd13ifvqh0g","pricing_plan_id":"cebpf4jnsgd1na2vs0mg"},{"bike_id":"0763f69b-91c2-4f5d-be58-3dd6fd7f8d92","system_id":"levelo_inurba_marseille","lat":43.27942,"lon":5.41046,"is_reserved":false,"is_disabled":true,"rental_uris":{"android":"levelo://app?vid=0763f69b-91c2-4f5d-be58-3dd6fd7f8d92","ios":"levelo://app?vid=0763f69b-91c2-4f5d-be58-3dd6fd7f8d92"},"vehicle_type_id":"4","last_reported":1746551360,"current_range_meters":0,"station_id":"ce4bhnp2rcd13ifvqh0g","pricing_plan_id":"cebpf4jnsgd1na2vs0mg"},{"bike_id":"bcba558e-125c-402b-8bd0-08858ba91dff","system_id":"levelo_inurba_marseille","lat":43.28443,"lon":5.39171,"is_reserved":false,"is_disabled":true,"rental_uris":{"android":"levelo://app?vid=bcba558e-125c-402b-8bd0-08858ba91dff","ios":"levelo://app?vid=bcba558e-125c-402b-8bd0-08858ba91dff"},"vehicle_type_id":"4","last_reported":1746551360,"current_range_meters":0,"station_id":"ce4bhoh2rcd13ifvqh5g","pricing_plan_id":"cebpf4jnsgd1na2vs0mg"},{"bike_id":"d21d2f43-0a5d-4b9b-856f-9f4fb7eea10d","system_id":"levelo_inurba_marseille","lat":43.33001,"lon":5.39045,"is_reserved":false,"is_disabled":true,"rental_uris":{"android":"levelo://app?vid=d21d2f43-0a5d-4b9b-856f-9f4fb7eea10d","ios":"levelo://app?vid=d21d2f43-0a5d-4b9b-856f-9f4fb7eea10d"},"vehicle_type_id":"4","last_reported":1746551360,"current_range_meters":0,"station_id":"ce4bhr92rcd13ifvqhrg","pricing_plan_id":"cebpf4jnsgd1na2vs0mg"},{"bike_id":"f81320d8-175c-45df-ae5b-bfdba55f6786","system_id":"levelo_inurba_marseille","lat":43.2953,"lon":5.38544,"is_reserved":false,"is_disabled":true,"rental_uris":{"android":"levelo://app?vid=f81320d8-175c-45df-ae5b-bfdba55f6786","ios":"levelo://app?vid=f81320d8-175c-45df-ae5b-bfdba55f6786"},"vehicle_type_id":"4","last_reported":1746551360,"current_range_meters":400,"station_id":"ce4bgih2rcd13ifvqba0","pricing_plan_id":"cebpf4jnsgd1na2vs0mg"},{"bike_id":"328f418b-bcd7-4a9b-9537-c2ac283032ad","system_id":"levelo_inurba_marseille","lat":43.30086,"lon":5.39063,"is_reserved":false,"is_disabled":true,"rental_uris":{"android":"levelo://app?vid=328f418b-bcd7-4a9b-9537-c2ac283032ad","ios":"levelo://app?vid=328f418b-bcd7-4a9b-9537-c2ac283032ad"},"vehicle_type_id":"4","last_reported":1746551360,"current_range_meters":400,"station_id":"ce4bh192rcd13ifvqdb0","pricing_plan_id":"cebpf4jnsgd1na2vs0mg"},{"bike_id":"89004968-6d1e-4c99-93c0-1ab2a150fcc0","system_id":"levelo_inurba_marseille","lat":43.28266,"lon":5.35086,"is_reserved":false,"is_disabled":true,"rental_uris":{"android":"levelo://app?vid=89004968-6d1e-4c99-93c0-1ab2a150fcc0","ios":"levelo://app?vid=89004968-6d1e-4c99-93c0-1ab2a150fcc0"},"vehicle_type_id":"4","last_reported":1746551360,"current_range_meters":400,"station_id":"ce4bhbp2rcd13ifvqerg","pricing_plan_id":"cebpf4jnsgd1na2vs0mg"},{"bike_id":"cf838c88-3914-45fc-8c7a-e804e492353e","system_id":"levelo_inurba_marseille","lat":43.28262,"lon":5.35062,"is_reserved":false,"is_disabled":true,"rental_uris":{"android":"levelo://app?vid=cf838c88-3914-45fc-8c7a-e804e492353e","ios":"levelo://app?vid=cf838c88-3914-45fc-8c7a-e804e492353e"},"vehicle_type_id":"4","last_reported":1746551360,"current_range_meters":400,"station_id":"ce4bhbp2rcd13ifvqerg","pricing_plan_id":"cebpf4jnsgd1na2vs0mg"},{"bike_id":"42014624-9be9-4788-98a6-5afc023ce607","system_id":"levelo_inurba_marseille","lat":43.28617,"lon":5.35105,"is_reserved":false,"is_disabled":true,"rental_uris":{"android":"levelo://app?vid=42014624-9be9-4788-98a6-5afc023ce607","ios":"levelo://app?vid=42014624-9be9-4788-98a6-5afc023ce607"},"vehicle_type_id":"4","last_reported":1746551360,"current_range_meters":400,"station_id":"ce4bhch2rcd13ifvqeug","pricing_plan_id":"cebpf4jnsgd1na2vs0mg"},{"bike_id":"6cf47bdd-ced2-4b2a-8cd0-6d268005f238","system_id":"levelo_inurba_marseille","lat":43.27933,"lon":5.396,"is_reserved":false,"is_disabled":true,"rental_uris":{"android":"levelo://app?vid=6cf47bdd-ced2-4b2a-8cd0-6d268005f238","ios":"levelo://app?vid=6cf47bdd-ced2-4b2a-8cd0-6d268005f238"},"vehicle_type_id":"4","last_reported":1746551360,"current_range_meters":400,"station_id":"ce4bhf92rcd13ifvqf40","pricing_plan_id":"cebpf4jnsgd1na2vs0mg"},{"bike_id":"d95a4cc0-966c-4ab0-a632-978e2bd325cd","system_id":"levelo_inurba_marseille","lat":43.27971,"lon":5.38744,"is_reserved":false,"is_disabled":true,"rental_uris":{"android":"levelo://app?vid=d95a4cc0-966c-4ab0-a632-978e2bd325cd","ios":"levelo://app?vid=d95a4cc0-966c-4ab0-a632-978e2bd325cd"},"vehicle_type_id":"4","last_reported":1746551360,"current_range_meters":400,"station_id":"ce4bhg12rcd13ifvqf80","pricing_plan_id":"cebpf4jnsgd1na2vs0mg"},{"bike_id":"5613d14c-46f2-4653-b9e6-bf44581cdd80","system_id":"levelo_inurba_marseille","lat":43.27068,"lon":5.40274,"is_reserved":false,"is_disabled":true,"rental_uris":{"android":"levelo://app?vid=5613d14c-46f2-4653-b9e6-bf44581cdd80","ios":"levelo://app?vid=5613d14c-46f2-4653-b9e6-bf44581cdd80"},"vehicle_type_id":"4","last_reported":1746551360,"current_range_meters":400,"station_id":"ce4bhk92rcd13ifvqgc0","pricing_plan_id":"cebpf4jnsgd1na2vs0mg"},{"bike_id":"a5531676-0fa2-4c68-8467-d7319812391d","system_id":"levelo_inurba_marseille","lat":43.25867,"lon":5.39893,"is_reserved":false,"is_disabled":true,"rental_uris":{"android":"levelo://app?vid=a5531676-0fa2-4c68-8467-d7319812391d","ios":"levelo://app?vid=a5531676-0fa2-4c68-8467-d7319812391d"},"vehicle_type_id":"4","last_reported":1746551360,"current_range_meters":400,"station_id":"ce4bhl92rcd13ifvqghg","pricing_plan_id":"cebpf4jnsgd1na2vs0mg"},{"bike_id":"cc224eda-c7c6-4948-a473-5a8cfb4c2e79","system_id":"levelo_inurba_marseille","lat":43.30933,"lon":5.40144,"is_reserved":false,"is_disabled":true,"rental_uris":{"android":"levelo://app?vid=cc224eda-c7c6-4948-a473-5a8cfb4c2e79","ios":"levelo://app?vid=cc224eda-c7c6-4948-a473-5a8cfb4c2e79"},"vehicle_type_id":"4","last_reported":1746551360,"current_range_meters":800,"station_id":"ce4bgvp2rcd13ifvqct0","pricing_plan_id":"cebpf4jnsgd1na2vs0mg"},{"bike_id":"d3882df6-1e7c-4686-8493-b4c5b20a97a0","system_id":"levelo_inurba_marseille","lat":43.29018,"lon":5.3813,"is_reserved":false,"is_disabled":true,"rental_uris":{"android":"levelo://app?vid=d3882df6-1e7c-4686-8493-b4c5b20a97a0","ios":"levelo://app?vid=d3882df6-1e7c-4686-8493-b4c5b20a97a0"},"vehicle_type_id":"4","last_reported":1746551360,"current_range_meters":800,"station_id":"ce4bh4p2rcd13ifvqe1g","pricing_plan_id":"cebpf4jnsgd1na2vs0mg"},{"bike_id":"06e0276f-7a27-4b4e-b767-7090d2600cb3","system_id":"levelo_inurba_marseille","lat":43.29264,"lon":5.38432,"is_reserved":false,"is_disabled":true,"rental_uris":{"android":"levelo://app?vid=06e0276f-7a27-4b4e-b767-7090d2600cb3","ios":"levelo://app?vid=06e0276f-7a27-4b4e-b767-7090d2600cb3"},"vehicle_type_id":"4","last_reported":1746551360,"current_range_meters":800,"station_id":"ce4bh692rcd13ifvqea0","pricing_plan_id":"cebpf4jnsgd1na2vs0mg"},{"bike_id":"5065d57c-c557-4e50-92c1-b9a172ed439b","system_id":"levelo_inurba_marseille","lat":43.26783,"lon":5.3941,"is_reserved":false,"is_disabled":true,"rental_uris":{"android":"levelo://app?vid=5065d57c-c557-4e50-92c1-b9a172ed439b","ios":"levelo://app?vid=5065d57c-c557-4e50-92c1-b9a172ed439b"},"vehicle_type_id":"4","last_reported":1746551360,"current_range_meters":800,"station_id":"ce4bhh12rcd13ifvqfg0","pricing_plan_id":"cebpf4jnsgd1na2vs0mg"},{"bike_id":"4ffe7199-d251-428c-8b05-833c8197d08b","system_id":"levelo_inurba_marseille","lat":43.28705,"lon":5.39982,"is_reserved":false,"is_disabled":true,"rental_uris":{"android":"levelo://app?vid=4ffe7199-d251-428c-8b05-833c8197d08b","ios":"levelo://app?vid=4ffe7199-d251-428c-8b05-833c8197d08b"},"vehicle_type_id":"4","last_reported":1746551360,"current_range_meters":800,"station_id":"ce4bho92rcd13ifvqh3g","pricing_plan_id":"cebpf4jnsgd1na2vs0mg"},{"bike_id":"4c7bd437-0776-49ce-87cb-1314b9389a08","system_id":"levelo_inurba_marseille","lat":43.2956,"lon":5.42278,"is_reserved":false,"is_disabled":true,"rental_uris":{"android":"levelo://app?vid=4c7bd437-0776-49ce-87cb-1314b9389a08","ios":"levelo://app?vid=4c7bd437-0776-49ce-87cb-1314b9389a08"},"vehicle_type_id":"4","last_reported":1746551360,"current_range_meters":800,"station_id":"ce4bhph2rcd13ifvqhdg","pricing_plan_id":"cebpf4jnsgd1na2vs0mg"},{"bike_id":"e1543869-64da-4e4c-b40e-6e68e36a46be","system_id":"levelo_inurba_marseille","lat":43.32478,"lon":5.36558,"is_reserved":false,"is_disabled":true,"rental_uris":{"android":"levelo://app?vid=e1543869-64da-4e4c-b40e-6e68e36a46be","ios":"levelo://app?vid=e1543869-64da-4e4c-b40e-6e68e36a46be"},"vehicle_type_id":"4","last_reported":1746551360,"current_range_meters":800,"station_id":"ce4bhs12rcd13ifvqhvg","pricing_plan_id":"cebpf4jnsgd1na2vs0mg"},{"bike_id":"336211ac-1b07-482f-91de-e525eca3a981","system_id":"levelo_inurba_marseille","lat":43.315003,"lon":5.373163,"is_reserved":false,"is_disabled":true,"rental_uris":{"android":"levelo://app?vid=336211ac-1b07-482f-91de-e525eca3a981","ios":"levelo://app?vid=336211ac-1b07-482f-91de-e525eca3a981"},"vehicle_type_id":"4","last_reported":1746551360,"current_range_meters":1200,"station_id":"ce4bgt12rcd13ifvqcd0","pricing_plan_id":"cebpf4jnsgd1na2vs0mg"},{"bike_id":"3d4405da-cf1a-4d2d-a3f6-9105b8f09694","system_id":"levelo_inurba_marseille","lat":43.31087,"lon":5.38351,"is_reserved":false,"is_disabled":true,"rental_uris":{"android":"levelo://app?vid=3d4405da-cf1a-4d2d-a3f6-9105b8f09694","ios":"levelo://app?vid=3d4405da-cf1a-4d2d-a3f6-9105b8f09694"},"vehicle_type_id":"4","last_reported":1746551360,"current_range_meters":1200,"station_id":"ce4bgv92rcd13ifvqcr0","pricing_plan_id":"cebpf4jnsgd1na2vs0mg"},{"bike_id":"ba531870-92ad-4d13-929f-325081f213ab","system_id":"levelo_inurba_marseille","lat":43.30923,"lon":5.4015,"is_reserved":false,"is_disabled":true,"rental_uris":{"android":"levelo://app?vid=ba531870-92ad-4d13-929f-325081f213ab","ios":"levelo://app?vid=ba531870-92ad-4d13-929f-325081f213ab"},"vehicle_type_id":"4","last_reported":1746551360,"current_range_meters":1200,"station_id":"ce4bgvp2rcd13ifvqct0","pricing_plan_id":"cebpf4jnsgd1na2vs0mg"},{"bike_id":"86e4f51f-ebdb-49a9-9a13-d448c78ca911","system_id":"levelo_inurba_marseille","lat":43.298767,"lon":5.397283,"is_reserved":false,"is_disabled":false,"rental_uris":{"android":"levelo://app?vid=86e4f51f-ebdb-49a9-9a13-d448c78ca911","ios":"levelo://app?vid=86e4f51f-ebdb-49a9-9a13-d448c78ca911"},"vehicle_type_id":"4","last_reported":1746551360,"current_range_meters":1200,"station_id":"ce4bh0h2rcd13ifvqd50","pricing_plan_id":"cebpf4jnsgd1na2vs0mg"},{"bike_id":"da07fce8-d526-417c-ae72-f5d8f7868914","system_id":"levelo_inurba_marseille","lat":43.26078,"lon":5.39396,"is_reserved":false,"is_disabled":true,"rental_uris":{"android":"levelo://app?vid=da07fce8-d526-417c-ae72-f5d8f7868914","ios":"levelo://app?vid=da07fce8-d526-417c-ae72-f5d8f7868914"},"vehicle_type_id":"4","last_reported":1746551360,"current_range_meters":1200,"station_id":"ce4bhh92rcd13ifvqfj0","pricing_plan_id":"cebpf4jnsgd1na2vs0mg"},{"bike_id":"59d3dcef-65b5-4568-bb42-5f7289bb3107","system_id":"levelo_inurba_marseille","lat":43.28154,"lon":5.42646,"is_reserved":false,"is_disabled":true,"rental_uris":{"android":"levelo://app?vid=59d3dcef-65b5-4568-bb42-5f7289bb3107","ios":"levelo://app?vid=59d3dcef-65b5-4568-bb42-5f7289bb3107"},"vehicle_type_id":"4","last_reported":1746551360,"current_range_meters":1200,"station_id":"ce4bhnh2rcd13ifvqgug","pricing_plan_id":"cebpf4jnsgd1na2vs0mg"},{"bike_id":"8751460d-9288-4f20-a464-9aca910c033f","system_id":"levelo_inurba_marseille","lat":43.24068,"lon":5.37772,"is_reserved":false,"is_disabled":true,"rental_uris":{"android":"levelo://app?vid=8751460d-9288-4f20-a464-9aca910c033f","ios":"levelo://app?vid=8751460d-9288-4f20-a464-9aca910c033f"},"vehicle_type_id":"4","last_reported":1746551360,"current_range_meters":1200,"station_id":"ce4bhnp2rcd13ifvqgvg","pricing_plan_id":"cebpf4jnsgd1na2vs0mg"},{"bike_id":"10102646-70c8-4147-81cc-b3aa4198cc96","system_id":"levelo_inurba_marseille","lat":43.33026,"lon":5.39044,"is_reserved":false,"is_disabled":true,"rental_uris":{"android":"levelo://app?vid=10102646-70c8-4147-81cc-b3aa4198cc96","ios":"levelo://app?vid=10102646-70c8-4147-81cc-b3aa4198cc96"},"vehicle_type_id":"4","last_reported":1746551360,"current_range_meters":1200,"station_id":"ce4bhr92rcd13ifvqhrg","pricing_plan_id":"cebpf4jnsgd1na2vs0mg"},{"bike_id":"737eac3a-ccf3-435c-90f5-c9613b12c540","system_id":"levelo_inurba_marseille","lat":43.28608,"lon":5.37066,"is_reserved":false,"is_disabled":true,"rental_uris":{"android":"levelo://app?vid=737eac3a-ccf3-435c-90f5-c9613b12c540","ios":"levelo://app?vid=737eac3a-ccf3-435c-90f5-c9613b12c540"},"vehicle_type_id":"4","last_reported":1746551360,"current_range_meters":1600,"station_id":"","pricing_plan_id":"cebpf4jnsgd1na2vs0mg"},{"bike_id":"3a6e0528-e9fe-4ecc-a122-9b3427819a58","system_id":"levelo_inurba_marseille","lat":43.29937,"lon":5.36545,"is_reserved":false,"is_disabled":true,"rental_uris":{"android":"levelo://app?vid=3a6e0528-e9fe-4ecc-a122-9b3427819a58","ios":"levelo://app?vid=3a6e0528-e9fe-4ecc-a122-9b3427819a58"},"vehicle_type_id":"4","last_reported":1746551360,"current_range_meters":1600,"station_id":"ce4bgm92rcd13ifvqbr0","pricing_plan_id":"cebpf4jnsgd1na2vs0mg"},{"bike_id":"ec2fa52b-6636-4072-a7be-4851ebfbddde","system_id":"levelo_inurba_marseille","lat":43.287,"lon":5.37395,"is_reserved":false,"is_disabled":true,"rental_uris":{"android":"levelo://app?vid=ec2fa52b-6636-4072-a7be-4851ebfbddde","ios":"levelo://app?vid=ec2fa52b-6636-4072-a7be-4851ebfbddde"},"vehicle_type_id":"4","last_reported":1746551360,"current_range_meters":1600,"station_id":"ce4bh3p2rcd13ifvqdq0","pricing_plan_id":"cebpf4jnsgd1na2vs0mg"},{"bike_id":"969071a4-ab7b-464c-b5ba-5c324381fd54","system_id":"levelo_inurba_marseille","lat":43.290502,"lon":5.359157,"is_reserved":false,"is_disabled":true,"rental_uris":{"android":"levelo://app?vid=969071a4-ab7b-464c-b5ba-5c324381fd54","ios":"levelo://app?vid=969071a4-ab7b-464c-b5ba-5c324381fd54"},"vehicle_type_id":"4","last_reported":1746551360,"current_range_meters":1600,"station_id":"ce4bha92rcd13ifvqeg0","pricing_plan_id":"cebpf4jnsgd1na2vs0mg"},{"bike_id":"ebfbb76f-54cf-458a-ac44-ada89d954dfb","system_id":"levelo_inurba_marseille","lat":43.28457,"lon":5.35891,"is_reserved":false,"is_disabled":true,"rental_uris":{"android":"levelo://app?vid=ebfbb76f-54cf-458a-ac44-ada89d954dfb","ios":"levelo://app?vid=ebfbb76f-54cf-458a-ac44-ada89d954dfb"},"vehicle_type_id":"4","last_reported":1746551360,"current_range_meters":1600,"station_id":"ce4bhah2rcd13ifvqei0","pricing_plan_id":"cebpf4jnsgd1na2vs0mg"},{"bike_id":"e5dbcc53-7d7f-4ea3-9f12-4583f87c8180","system_id":"levelo_inurba_marseille","lat":43.26564,"lon":5.39066,"is_reserved":false,"is_disabled":true,"rental_uris":{"android":"levelo://app?vid=e5dbcc53-7d7f-4ea3-9f12-4583f87c8180","ios":"levelo://app?vid=e5dbcc53-7d7f-4ea3-9f12-4583f87c8180"},"vehicle_type_id":"4","last_reported":1746551360,"current_range_meters":1600,"station_id":"ce4bhe12rcd13ifvqf30","pricing_plan_id":"cebpf4jnsgd1na2vs0mg"},{"bike_id":"ab68db02-1259-4c1f-b293-3d86061c8481","system_id":"levelo_inurba_marseille","lat":43.27056,"lon":5.40271,"is_reserved":false,"is_disabled":true,"rental_uris":{"android":"levelo://app?vid=ab68db02-1259-4c1f-b293-3d86061c8481","ios":"levelo://app?vid=ab68db02-1259-4c1f-b293-3d86061c8481"},"vehicle_type_id":"4","last_reported":1746551360,"current_range_meters":1600,"station_id":"ce4bhk92rcd13ifvqgc0","pricing_plan_id":"cebpf4jnsgd1na2vs0mg"},{"bike_id":"85ff93b4-84ad-4e86-9aa2-11f143f5d84d","system_id":"levelo_inurba_marseille","lat":43.25104,"lon":5.39526,"is_reserved":false,"is_disabled":true,"rental_uris":{"android":"levelo://app?vid=85ff93b4-84ad-4e86-9aa2-11f143f5d84d","ios":"levelo://app?vid=85ff93b4-84ad-4e86-9aa2-11f143f5d84d"},"vehicle_type_id":"4","last_reported":1746551360,"current_range_meters":1600,"station_id":"ce4bhm12rcd13ifvqgkg","pricing_plan_id":"cebpf4jnsgd1na2vs0mg"},{"bike_id":"ce4fba01-adfc-437c-a046-94f4569c43bc","system_id":"levelo_inurba_marseille","lat":43.2594,"lon":5.40904,"is_reserved":false,"is_disabled":true,"rental_uris":{"android":"levelo://app?vid=ce4fba01-adfc-437c-a046-94f4569c43bc","ios":"levelo://app?vid=ce4fba01-adfc-437c-a046-94f4569c43bc"},"vehicle_type_id":"4","last_reported":1746551360,"current_range_meters":1600,"station_id":"ce4bhm92rcd13ifvqglg","pricing_plan_id":"cebpf4jnsgd1na2vs0mg"},{"bike_id":"2a929d62-0b9f-4310-a8c5-189aed9a658c","system_id":"levelo_inurba_marseille","lat":43.28699,"lon":5.39989,"is_reserved":false,"is_disabled":false,"rental_uris":{"android":"levelo://app?vid=2a929d62-0b9f-4310-a8c5-189aed9a658c","ios":"levelo://app?vid=2a929d62-0b9f-4310-a8c5-189aed9a658c"},"vehicle_type_id":"4","last_reported":1746551360,"current_range_meters":1600,"station_id":"ce4bho92rcd13ifvqh3g","pricing_plan_id":"cebpf4jnsgd1na2vs0mg"},{"bike_id":"88c3c6c1-a33a-48ed-b2a4-48c16332184c","system_id":"levelo_inurba_marseille","lat":43.27848,"lon":5.37406,"is_reserved":false,"is_disabled":true,"rental_uris":{"android":"levelo://app?vid=88c3c6c1-a33a-48ed-b2a4-48c16332184c","ios":"levelo://app?vid=88c3c6c1-a33a-48ed-b2a4-48c16332184c"},"vehicle_type_id":"4","last_reported":1746551360,"current_range_meters":2000,"station_id":"","pricing_plan_id":"cebpf4jnsgd1na2vs0mg"},{"bike_id":"d259af5d-44cb-4702-87df-6ceb22f70a15","system_id":"levelo_inurba_marseille","lat":43.299811,"lon":5.385023,"is_reserved":false,"is_disabled":true,"rental_uris":{"android":"levelo://app?vid=d259af5d-44cb-4702-87df-6ceb22f70a15","ios":"levelo://app?vid=d259af5d-44cb-4702-87df-6ceb22f70a15"},"vehicle_type_id":"4","last_reported":1746551360,"current_range_meters":2000,"station_id":"ce4bgj92rcd13ifvqbd0","pricing_plan_id":"cebpf4jnsgd1na2vs0mg"},{"bike_id":"b8168e77-1d98-4ec1-874d-8454549e1f57","system_id":"levelo_inurba_marseille","lat":43.273757,"lon":5.36261,"is_reserved":false,"is_disabled":true,"rental_uris":{"android":"levelo://app?vid=b8168e77-1d98-4ec1-874d-8454549e1f57","ios":"levelo://app?vid=b8168e77-1d98-4ec1-874d-8454549e1f57"},"vehicle_type_id":"4","last_reported":1746551360,"current_range_meters":2000,"station_id":"ce4bhbh2rcd13ifvqeo0","pricing_plan_id":"cebpf4jnsgd1na2vs0mg"},{"bike_id":"66b646b3-6352-44bb-9bfb-21570512e3e5","system_id":"levelo_inurba_marseille","lat":43.28107,"lon":5.40399,"is_reserved":false,"is_disabled":false,"rental_uris":{"android":"levelo://app?vid=66b646b3-6352-44bb-9bfb-21570512e3e5","ios":"levelo://app?vid=66b646b3-6352-44bb-9bfb-21570512e3e5"},"vehicle_type_id":"4","last_reported":1746551360,"current_range_meters":2800,"station_id":"","pricing_plan_id":"cebpf4jnsgd1na2vs0mg"},{"bike_id":"b173c2a4-eea2-42e7-88b7-3b7db5d4eb88","system_id":"levelo_inurba_marseille","lat":43.30534,"lon":5.38428,"is_reserved":false,"is_disabled":false,"rental_uris":{"android":"levelo://app?vid=b173c2a4-eea2-42e7-88b7-3b7db5d4eb88","ios":"levelo://app?vid=b173c2a4-eea2-42e7-88b7-3b7db5d4eb88"},"vehicle_type_id":"4","last_reported":1746551360,"current_range_meters":2800,"station_id":"ce4bgg92rcd13ifvqb30","pricing_plan_id":"cebpf4jnsgd1na2vs0mg"},{"bike_id":"3a397f5f-3d4e-415f-a088-8c4eabf3e8ff","system_id":"levelo_inurba_marseille","lat":43.31114,"lon":5.37771,"is_reserved":false,"is_disabled":false,"rental_uris":{"android":"levelo://app?vid=3a397f5f-3d4e-415f-a088-8c4eabf3e8ff","ios":"levelo://app?vid=3a397f5f-3d4e-415f-a088-8c4eabf3e8ff"},"vehicle_type_id":"4","last_reported":1746551360,"current_range_meters":3600,"station_id":"ce4bgt92rcd13ifvqcg0","pricing_plan_id":"cebpf4jnsgd1na2vs0mg"},{"bike_id":"eadc1418-0e52-4dfd-9695-4525d007567d","system_id":"levelo_inurba_marseille","lat":43.28702,"lon":5.37401,"is_reserved":false,"is_disabled":false,"rental_uris":{"android":"levelo://app?vid=eadc1418-0e52-4dfd-9695-4525d007567d","ios":"levelo://app?vid=eadc1418-0e52-4dfd-9695-4525d007567d"},"vehicle_type_id":"4","last_reported":1746551360,"current_range_meters":3600,"station_id":"ce4bh3p2rcd13ifvqdq0","pricing_plan_id":"cebpf4jnsgd1na2vs0mg"},{"bike_id":"61851d0c-c17c-4c33-9dd8-16a521b76c0c","system_id":"levelo_inurba_marseille","lat":43.265557,"lon":5.390353,"is_reserved":false,"is_disabled":false,"rental_uris":{"android":"levelo://app?vid=61851d0c-c17c-4c33-9dd8-16a521b76c0c","ios":"levelo://app?vid=61851d0c-c17c-4c33-9dd8-16a521b76c0c"},"vehicle_type_id":"4","last_reported":1746551360,"current_range_meters":3600,"station_id":"ce4bhe12rcd13ifvqf30","pricing_plan_id":"cebpf4jnsgd1na2vs0mg"},{"bike_id":"e7adc2c2-6808-4c63-a1b1-cceeef4a062c","system_id":"levelo_inurba_marseille","lat":43.31141,"lon":5.37309,"is_reserved":false,"is_disabled":false,"rental_uris":{"android":"levelo://app?vid=e7adc2c2-6808-4c63-a1b1-cceeef4a062c","ios":"levelo://app?vid=e7adc2c2-6808-4c63-a1b1-cceeef4a062c"},"vehicle_type_id":"4","last_reported":1746551360,"current_range_meters":4000,"station_id":"","pricing_plan_id":"cebpf4jnsgd1na2vs0mg"},{"bike_id":"397ed50a-607c-4162-846e-38e3cb87aeb4","system_id":"levelo_inurba_marseille","lat":43.31332,"lon":5.3969,"is_reserved":false,"is_disabled":false,"rental_uris":{"android":"levelo://app?vid=397ed50a-607c-4162-846e-38e3cb87aeb4","ios":"levelo://app?vid=397ed50a-607c-4162-846e-38e3cb87aeb4"},"vehicle_type_id":"4","last_reported":1746551360,"current_range_meters":4000,"station_id":"ce4bgvp2rcd13ifvqcu0","pricing_plan_id":"cebpf4jnsgd1na2vs0mg"},{"bike_id":"6898e72a-a173-42ab-a76b-c2caff3511fb","system_id":"levelo_inurba_marseille","lat":43.29006,"lon":5.35611,"is_reserved":false,"is_disabled":false,"rental_uris":{"android":"levelo://app?vid=6898e72a-a173-42ab-a76b-c2caff3511fb","ios":"levelo://app?vid=6898e72a-a173-42ab-a76b-c2caff3511fb"},"vehicle_type_id":"4","last_reported":1746551360,"current_range_meters":4000,"station_id":"ce4bhb92rcd13ifvqen0","pricing_plan_id":"cebpf4jnsgd1na2vs0mg"},{"bike_id":"2f7d878f-de48-4729-a716-86464a9b089d","system_id":"levelo_inurba_marseille","lat":43.2657,"lon":5.39014,"is_reserved":false,"is_disabled":false,"rental_uris":{"android":"levelo://app?vid=2f7d878f-de48-4729-a716-86464a9b089d","ios":"levelo://app?vid=2f7d878f-de48-4729-a716-86464a9b089d"},"vehicle_type_id":"4","last_reported":1746551360,"current_range_meters":4000,"station_id":"ce4bhe12rcd13ifvqf30","pricing_plan_id":"cebpf4jnsgd1na2vs0mg"},{"bike_id":"943dbb93-8711-4ac2-ac63-20f58f8e513f","system_id":"levelo_inurba_marseille","lat":43.27318,"lon":5.39112,"is_reserved":false,"is_disabled":false,"rental_uris":{"android":"levelo://app?vid=943dbb93-8711-4ac2-ac63-20f58f8e513f","ios":"levelo://app?vid=943dbb93-8711-4ac2-ac63-20f58f8e513f"},"vehicle_type_id":"4","last_reported":1746551360,"current_range_meters":4000,"station_id":"ce4bhgp2rcd13ifvqfe0","pricing_plan_id":"cebpf4jnsgd1na2vs0mg"},{"bike_id":"914a6ffb-c702-4271-a354-7ccf139d71f2","system_id":"levelo_inurba_marseille","lat":43.28152,"lon":5.42649,"is_reserved":false,"is_disabled":false,"rental_uris":{"android":"levelo://app?vid=914a6ffb-c702-4271-a354-7ccf139d71f2","ios":"levelo://app?vid=914a6ffb-c702-4271-a354-7ccf139d71f2"},"vehicle_type_id":"4","last_reported":1746551360,"current_range_meters":4000,"station_id":"ce4bhnh2rcd13ifvqgug","pricing_plan_id":"cebpf4jnsgd1na2vs0mg"},{"bike_id":"5c7249a3-596f-4101-8dbd-1087a1f3b438","system_id":"levelo_inurba_marseille","lat":43.231852,"lon":5.355541,"is_reserved":false,"is_disabled":false,"rental_uris":{"android":"levelo://app?vid=5c7249a3-596f-4101-8dbd-1087a1f3b438","ios":"levelo://app?vid=5c7249a3-596f-4101-8dbd-1087a1f3b438"},"vehicle_type_id":"4","last_reported":1746551360,"current_range_meters":4000,"station_id":"ce4bhu92rcd13ifvqi70","pricing_plan_id":"cebpf4jnsgd1na2vs0mg"},{"bike_id":"482344f1-460c-48ea-83dd-01b9a385e5cf","system_id":"levelo_inurba_marseille","lat":43.30662,"lon":5.368325,"is_reserved":false,"is_disabled":false,"rental_uris":{"android":"levelo://app?vid=482344f1-460c-48ea-83dd-01b9a385e5cf","ios":"levelo://app?vid=482344f1-460c-48ea-83dd-01b9a385e5cf"},"vehicle_type_id":"4","last_reported":1746551360,"current_range_meters":4400,"station_id":"","pricing_plan_id":"cebpf4jnsgd1na2vs0mg"},{"bike_id":"f8a2dc1d-368d-46b1-845e-1b2eda1bc869","system_id":"levelo_inurba_marseille","lat":43.29605,"lon":5.38101,"is_reserved":false,"is_disabled":false,"rental_uris":{"android":"levelo://app?vid=f8a2dc1d-368d-46b1-845e-1b2eda1bc869","ios":"levelo://app?vid=f8a2dc1d-368d-46b1-845e-1b2eda1bc869"},"vehicle_type_id":"4","last_reported":1746551360,"current_range_meters":4400,"station_id":"ce4bgl12rcd13ifvqbo0","pricing_plan_id":"cebpf4jnsgd1na2vs0mg"},{"bike_id":"13569714-aa4b-43b7-acf3-cc3ecd37c91b","system_id":"levelo_inurba_marseille","lat":43.29259,"lon":5.38442,"is_reserved":false,"is_disabled":false,"rental_uris":{"android":"levelo://app?vid=13569714-aa4b-43b7-acf3-cc3ecd37c91b","ios":"levelo://app?vid=13569714-aa4b-43b7-acf3-cc3ecd37c91b"},"vehicle_type_id":"4","last_reported":1746551360,"current_range_meters":4400,"station_id":"ce4bh692rcd13ifvqea0","pricing_plan_id":"cebpf4jnsgd1na2vs0mg"},{"bike_id":"497e4c70-b86f-4323-94b1-61b6e04bd599","system_id":"levelo_inurba_marseille","lat":43.25125,"lon":5.4033,"is_reserved":false,"is_disabled":false,"rental_uris":{"android":"levelo://app?vid=497e4c70-b86f-4323-94b1-61b6e04bd599","ios":"levelo://app?vid=497e4c70-b86f-4323-94b1-61b6e04bd599"},"vehicle_type_id":"4","last_reported":1746551360,"current_range_meters":4400,"station_id":"ce4bhlh2rcd13ifvqgig","pricing_plan_id":"cebpf4jnsgd1na2vs0mg"},{"bike_id":"ef7b03e1-5802-4feb-a6e2-352163b5999a","system_id":"levelo_inurba_marseille","lat":43.24183,"lon":5.39722,"is_reserved":false,"is_disabled":false,"rental_uris":{"android":"levelo://app?vid=ef7b03e1-5802-4feb-a6e2-352163b5999a","ios":"levelo://app?vid=ef7b03e1-5802-4feb-a6e2-352163b5999a"},"vehicle_type_id":"4","last_reported":1746551360,"current_range_meters":4400,"station_id":"ce4bhn12rcd13ifvqgpg","pricing_plan_id":"cebpf4jnsgd1na2vs0mg"},{"bike_id":"c87968f3-2fc6-4cbb-94d2-2e99f0123fce","system_id":"levelo_inurba_marseille","lat":43.29595,"lon":5.38099,"is_reserved":false,"is_disabled":false,"rental_uris":{"android":"levelo://app?vid=c87968f3-2fc6-4cbb-94d2-2e99f0123fce","ios":"levelo://app?vid=c87968f3-2fc6-4cbb-94d2-2e99f0123fce"},"vehicle_type_id":"4","last_reported":1746551360,"current_range_meters":4800,"station_id":"ce4bgl12rcd13ifvqbo0","pricing_plan_id":"cebpf4jnsgd1na2vs0mg"},{"bike_id":"f3cccabb-08f8-422d-a812-f9323b3a3bd1","system_id":"levelo_inurba_marseille","lat":43.30211,"lon":5.39475,"is_reserved":false,"is_disabled":false,"rental_uris":{"android":"levelo://app?vid=f3cccabb-08f8-422d-a812-f9323b3a3bd1","ios":"levelo://app?vid=f3cccabb-08f8-422d-a812-f9323b3a3bd1"},"vehicle_type_id":"4","last_reported":1746551360,"current_range_meters":4800,"station_id":"ce4bh0p2rcd13ifvqd70","pricing_plan_id":"cebpf4jnsgd1na2vs0mg"},{"bike_id":"d39dce0c-76f5-4849-a564-d33124f3be7b","system_id":"levelo_inurba_marseille","lat":43.28415,"lon":5.34978,"is_reserved":false,"is_disabled":false,"rental_uris":{"android":"levelo://app?vid=d39dce0c-76f5-4849-a564-d33124f3be7b","ios":"levelo://app?vid=d39dce0c-76f5-4849-a564-d33124f3be7b"},"vehicle_type_id":"4","last_reported":1746551360,"current_range_meters":4800,"station_id":"ce4bhbh2rcd13ifvqepg","pricing_plan_id":"cebpf4jnsgd1na2vs0mg"},{"bike_id":"9afdaa32-5437-40bb-b5dc-0e42f55a33ee","system_id":"levelo_inurba_marseille","lat":43.25384,"lon":5.41854,"is_reserved":false,"is_disabled":false,"rental_uris":{"android":"levelo://app?vid=9afdaa32-5437-40bb-b5dc-0e42f55a33ee","ios":"levelo://app?vid=9afdaa32-5437-40bb-b5dc-0e42f55a33ee"},"vehicle_type_id":"4","last_reported":1746551360,"current_range_meters":5600,"station_id":"","pricing_plan_id":"cebpf4jnsgd1na2vs0mg"},{"bike_id":"4108f062-7b99-4de2-abc0-6bda808ded6b","system_id":"levelo_inurba_marseille","lat":43.30236,"lon":5.40048,"is_reserved":false,"is_disabled":false,"rental_uris":{"android":"levelo://app?vid=4108f062-7b99-4de2-abc0-6bda808ded6b","ios":"levelo://app?vid=4108f062-7b99-4de2-abc0-6bda808ded6b"},"vehicle_type_id":"4","last_reported":1746551360,"current_range_meters":5600,"station_id":"ce4bgvh2rcd13ifvqcs0","pricing_plan_id":"cebpf4jnsgd1na2vs0mg"},{"bike_id":"915615f6-c2e3-47ad-9ebc-6a7084ea95b4","system_id":"levelo_inurba_marseille","lat":43.31325,"lon":5.39686,"is_reserved":false,"is_disabled":false,"rental_uris":{"android":"levelo://app?vid=915615f6-c2e3-47ad-9ebc-6a7084ea95b4","ios":"levelo://app?vid=915615f6-c2e3-47ad-9ebc-6a7084ea95b4"},"vehicle_type_id":"4","last_reported":1746551360,"current_range_meters":5600,"station_id":"ce4bgvp2rcd13ifvqcu0","pricing_plan_id":"cebpf4jnsgd1na2vs0mg"},{"bike_id":"00159f16-ffe5-4910-9184-1642beae5815","system_id":"levelo_inurba_marseille","lat":43.29227,"lon":5.36063,"is_reserved":false,"is_disabled":false,"rental_uris":{"android":"levelo://app?vid=00159f16-ffe5-4910-9184-1642beae5815","ios":"levelo://app?vid=00159f16-ffe5-4910-9184-1642beae5815"},"vehicle_type_id":"4","last_reported":1746551360,"current_range_meters":5600,"station_id":"ce4bhbh2rcd13ifvqeqg","pricing_plan_id":"cebpf4jnsgd1na2vs0mg"},{"bike_id":"ef85df44-c572-4b38-9810-58afe892c9f4","system_id":"levelo_inurba_marseille","lat":43.27173,"lon":5.40994,"is_reserved":false,"is_disabled":false,"rental_uris":{"android":"levelo://app?vid=ef85df44-c572-4b38-9810-58afe892c9f4","ios":"levelo://app?vid=ef85df44-c572-4b38-9810-58afe892c9f4"},"vehicle_type_id":"4","last_reported":1746551360,"current_range_meters":5600,"station_id":"ce4bhl12rcd13ifvqgf0","pricing_plan_id":"cebpf4jnsgd1na2vs0mg"},{"bike_id":"b4fb5917-65cd-4586-99be-5ddc06be1cf6","system_id":"levelo_inurba_marseille","lat":43.30789,"lon":5.43507,"is_reserved":false,"is_disabled":false,"rental_uris":{"android":"levelo://app?vid=b4fb5917-65cd-4586-99be-5ddc06be1cf6","ios":"levelo://app?vid=b4fb5917-65cd-4586-99be-5ddc06be1cf6"},"vehicle_type_id":"4","last_reported":1746551360,"current_range_meters":5600,"station_id":"ce4bhph2rcd13ifvqheg","pricing_plan_id":"cebpf4jnsgd1na2vs0mg"},{"bike_id":"d0a5bc78-287d-4da8-b0d4-e17b005d9fe1","system_id":"levelo_inurba_marseille","lat":43.284749,"lon":5.384189,"is_reserved":false,"is_disabled":false,"rental_uris":{"android":"levelo://app?vid=d0a5bc78-287d-4da8-b0d4-e17b005d9fe1","ios":"levelo://app?vid=d0a5bc78-287d-4da8-b0d4-e17b005d9fe1"},"vehicle_type_id":"4","last_reported":1746551360,"current_range_meters":6000,"station_id":"ce4bh512rcd13ifvqe3g","pricing_plan_id":"cebpf4jnsgd1na2vs0mg"},{"bike_id":"a9bccabd-7b33-444e-a24b-014e12575ad6","system_id":"levelo_inurba_marseille","lat":43.27373,"lon":5.36262,"is_reserved":false,"is_disabled":false,"rental_uris":{"android":"levelo://app?vid=a9bccabd-7b33-444e-a24b-014e12575ad6","ios":"levelo://app?vid=a9bccabd-7b33-444e-a24b-014e12575ad6"},"vehicle_type_id":"4","last_reported":1746551360,"current_range_meters":6000,"station_id":"ce4bhbh2rcd13ifvqeo0","pricing_plan_id":"cebpf4jnsgd1na2vs0mg"},{"bike_id":"6ddfab9f-2277-47db-9a29-a17f3e8cccb6","system_id":"levelo_inurba_marseille","lat":43.28268,"lon":5.35079,"is_reserved":false,"is_disabled":false,"rental_uris":{"android":"levelo://app?vid=6ddfab9f-2277-47db-9a29-a17f3e8cccb6","ios":"levelo://app?vid=6ddfab9f-2277-47db-9a29-a17f3e8cccb6"},"vehicle_type_id":"4","last_reported":1746551360,"current_range_meters":6000,"station_id":"ce4bhbp2rcd13ifvqerg","pricing_plan_id":"cebpf4jnsgd1na2vs0mg"},{"bike_id":"83cc1842-773c-46bc-8be1-caa63d83c3c2","system_id":"levelo_inurba_marseille","lat":43.25954,"lon":5.39541,"is_reserved":false,"is_disabled":false,"rental_uris":{"android":"levelo://app?vid=83cc1842-773c-46bc-8be1-caa63d83c3c2","ios":"levelo://app?vid=83cc1842-773c-46bc-8be1-caa63d83c3c2"},"vehicle_type_id":"4","last_reported":1746551360,"current_range_meters":6400,"station_id":"","pricing_plan_id":"cebpf4jnsgd1na2vs0mg"},{"bike_id":"d325f08c-6fbe-4c59-a1b6-9f5c9a42679c","system_id":"levelo_inurba_marseille","lat":43.3032,"lon":5.40437,"is_reserved":false,"is_disabled":false,"rental_uris":{"android":"levelo://app?vid=d325f08c-6fbe-4c59-a1b6-9f5c9a42679c","ios":"levelo://app?vid=d325f08c-6fbe-4c59-a1b6-9f5c9a42679c"},"vehicle_type_id":"4","last_reported":1746551360,"current_range_meters":6400,"station_id":"ce4bh012rcd13ifvqd10","pricing_plan_id":"cebpf4jnsgd1na2vs0mg"},{"bike_id":"9bdbd76c-cea5-4383-b4d7-896e8d09228b","system_id":"levelo_inurba_marseille","lat":43.29415,"lon":5.38623,"is_reserved":false,"is_disabled":false,"rental_uris":{"android":"levelo://app?vid=9bdbd76c-cea5-4383-b4d7-896e8d09228b","ios":"levelo://app?vid=9bdbd76c-cea5-4383-b4d7-896e8d09228b"},"vehicle_type_id":"4","last_reported":1746551360,"current_range_meters":6400,"station_id":"ce4bh2h2rcd13ifvqdh0","pricing_plan_id":"cebpf4jnsgd1na2vs0mg"},{"bike_id":"0ec06ab8-23d1-455c-a6a6-171a508a0acc","system_id":"levelo_inurba_marseille","lat":43.288539,"lon":5.393112,"is_reserved":false,"is_disabled":false,"rental_uris":{"android":"levelo://app?vid=0ec06ab8-23d1-455c-a6a6-171a508a0acc","ios":"levelo://app?vid=0ec06ab8-23d1-455c-a6a6-171a508a0acc"},"vehicle_type_id":"4","last_reported":1746551360,"current_range_meters":6400,"station_id":"ce4bh4p2rcd13ifvqe0g","pricing_plan_id":"cebpf4jnsgd1na2vs0mg"},{"bike_id":"22891a2f-3467-4ad8-bcf7-aef96b70b24e","system_id":"levelo_inurba_marseille","lat":43.26785,"lon":5.39423,"is_reserved":false,"is_disabled":false,"rental_uris":{"android":"levelo://app?vid=22891a2f-3467-4ad8-bcf7-aef96b70b24e","ios":"levelo://app?vid=22891a2f-3467-4ad8-bcf7-aef96b70b24e"},"vehicle_type_id":"4","last_reported":1746551360,"current_range_meters":6400,"station_id":"ce4bhh12rcd13ifvqfg0","pricing_plan_id":"cebpf4jnsgd1na2vs0mg"},{"bike_id":"416f578b-a76d-4698-b5ca-69135ef4b579","system_id":"levelo_inurba_marseille","lat":43.24168,"lon":5.36401,"is_reserved":false,"is_disabled":false,"rental_uris":{"android":"levelo://app?vid=416f578b-a76d-4698-b5ca-69135ef4b579","ios":"levelo://app?vid=416f578b-a76d-4698-b5ca-69135ef4b579"},"vehicle_type_id":"4","last_reported":1746551360,"current_range_meters":6400,"station_id":"cpo36qri1sfpv3e86is0","pricing_plan_id":"cebpf4jnsgd1na2vs0mg"},{"bike_id":"7570b735-eb54-403f-8c3d-af1cb0ac0d97","system_id":"levelo_inurba_marseille","lat":43.29253,"lon":5.40914,"is_reserved":false,"is_disabled":false,"rental_uris":{"android":"levelo://app?vid=7570b735-eb54-403f-8c3d-af1cb0ac0d97","ios":"levelo://app?vid=7570b735-eb54-403f-8c3d-af1cb0ac0d97"},"vehicle_type_id":"4","last_reported":1746551360,"current_range_meters":6800,"station_id":"ce4bh192rcd13ifvqdc0","pricing_plan_id":"cebpf4jnsgd1na2vs0mg"},{"bike_id":"493cef4a-42c9-4a6b-98ad-2e4185037735","system_id":"levelo_inurba_marseille","lat":43.26563,"lon":5.3728,"is_reserved":false,"is_disabled":false,"rental_uris":{"android":"levelo://app?vid=493cef4a-42c9-4a6b-98ad-2e4185037735","ios":"levelo://app?vid=493cef4a-42c9-4a6b-98ad-2e4185037735"},"vehicle_type_id":"4","last_reported":1746551360,"current_range_meters":6800,"station_id":"ce4bhg12rcd13ifvqf70","pricing_plan_id":"cebpf4jnsgd1na2vs0mg"},{"bike_id":"8205c74c-73d4-458a-82f4-439596dcde9c","system_id":"levelo_inurba_marseille","lat":43.24392,"lon":5.37053,"is_reserved":false,"is_disabled":false,"rental_uris":{"android":"levelo://app?vid=8205c74c-73d4-458a-82f4-439596dcde9c","ios":"levelo://app?vid=8205c74c-73d4-458a-82f4-439596dcde9c"},"vehicle_type_id":"4","last_reported":1746551360,"current_range_meters":6800,"station_id":"ce4bhhh2rcd13ifvqfk0","pricing_plan_id":"cebpf4jnsgd1na2vs0mg"},{"bike_id":"c081600a-151d-4b53-87c9-cab07754624b","system_id":"levelo_inurba_marseille","lat":43.2396,"lon":5.36631,"is_reserved":false,"is_disabled":false,"rental_uris":{"android":"levelo://app?vid=c081600a-151d-4b53-87c9-cab07754624b","ios":"levelo://app?vid=c081600a-151d-4b53-87c9-cab07754624b"},"vehicle_type_id":"4","last_reported":1746551360,"current_range_meters":6800,"station_id":"ce4bhi12rcd13ifvqfp0","pricing_plan_id":"cebpf4jnsgd1na2vs0mg"},{"bike_id":"8015471d-b111-49e7-ae88-6808aaa46e63","system_id":"levelo_inurba_marseille","lat":43.26196,"lon":5.37939,"is_reserved":false,"is_disabled":false,"rental_uris":{"android":"levelo://app?vid=8015471d-b111-49e7-ae88-6808aaa46e63","ios":"levelo://app?vid=8015471d-b111-49e7-ae88-6808aaa46e63"},"vehicle_type_id":"4","last_reported":1746551360,"current_range_meters":6800,"station_id":"ce4bhjp2rcd13ifvqg90","pricing_plan_id":"cebpf4jnsgd1na2vs0mg"},{"bike_id":"a76ec7f9-2229-4896-8498-566bced654e9","system_id":"levelo_inurba_marseille","lat":43.23183,"lon":5.39992,"is_reserved":false,"is_disabled":false,"rental_uris":{"android":"levelo://app?vid=a76ec7f9-2229-4896-8498-566bced654e9","ios":"levelo://app?vid=a76ec7f9-2229-4896-8498-566bced654e9"},"vehicle_type_id":"4","last_reported":1746551360,"current_range_meters":6800,"station_id":"ce4bhn12rcd13ifvqgqg","pricing_plan_id":"cebpf4jnsgd1na2vs0mg"},{"bike_id":"a52be029-4839-4437-95d7-793989729d94","system_id":"levelo_inurba_marseille","lat":43.27807,"lon":5.40717,"is_reserved":false,"is_disabled":false,"rental_uris":{"android":"levelo://app?vid=a52be029-4839-4437-95d7-793989729d94","ios":"levelo://app?vid=a52be029-4839-4437-95d7-793989729d94"},"vehicle_type_id":"4","last_reported":1746551360,"current_range_meters":6800,"station_id":"ce4bhnh2rcd13ifvqgtg","pricing_plan_id":"cebpf4jnsgd1na2vs0mg"},{"bike_id":"6b1056c6-7136-414d-88d9-8e413dfadb28","system_id":"levelo_inurba_marseille","lat":43.29719,"lon":5.374138,"is_reserved":false,"is_disabled":false,"rental_uris":{"android":"levelo://app?vid=6b1056c6-7136-414d-88d9-8e413dfadb28","ios":"levelo://app?vid=6b1056c6-7136-414d-88d9-8e413dfadb28"},"vehicle_type_id":"4","last_reported":1746551360,"current_range_meters":7200,"station_id":"ce4bgn12rcd13ifvqbt0","pricing_plan_id":"cebpf4jnsgd1na2vs0mg"},{"bike_id":"eca55edb-a3e5-4583-b469-7b42123be6b0","system_id":"levelo_inurba_marseille","lat":43.28462,"lon":5.35885,"is_reserved":false,"is_disabled":false,"rental_uris":{"android":"levelo://app?vid=eca55edb-a3e5-4583-b469-7b42123be6b0","ios":"levelo://app?vid=eca55edb-a3e5-4583-b469-7b42123be6b0"},"vehicle_type_id":"4","last_reported":1746551360,"current_range_meters":7200,"station_id":"ce4bhah2rcd13ifvqei0","pricing_plan_id":"cebpf4jnsgd1na2vs0mg"},{"bike_id":"cb11426a-6273-4867-aece-a381efa31fe9","system_id":"levelo_inurba_marseille","lat":43.2655,"lon":5.37284,"is_reserved":false,"is_disabled":false,"rental_uris":{"android":"levelo://app?vid=cb11426a-6273-4867-aece-a381efa31fe9","ios":"levelo://app?vid=cb11426a-6273-4867-aece-a381efa31fe9"},"vehicle_type_id":"4","last_reported":1746551360,"current_range_meters":7200,"station_id":"ce4bhg12rcd13ifvqf70","pricing_plan_id":"cebpf4jnsgd1na2vs0mg"},{"bike_id":"c806772d-d1c0-45c3-ab4b-7b052cedc9a2","system_id":"levelo_inurba_marseille","lat":43.25075,"lon":5.39514,"is_reserved":false,"is_disabled":false,"rental_uris":{"android":"levelo://app?vid=c806772d-d1c0-45c3-ab4b-7b052cedc9a2","ios":"levelo://app?vid=c806772d-d1c0-45c3-ab4b-7b052cedc9a2"},"vehicle_type_id":"4","last_reported":1746551360,"current_range_meters":7200,"station_id":"ce4bhm12rcd13ifvqgkg","pricing_plan_id":"cebpf4jnsgd1na2vs0mg"},{"bike_id":"7cf6cbff-0b9c-48ee-9298-52e88f5a74c8","system_id":"levelo_inurba_marseille","lat":43.27618,"lon":5.36111,"is_reserved":false,"is_disabled":false,"rental_uris":{"android":"levelo://app?vid=7cf6cbff-0b9c-48ee-9298-52e88f5a74c8","ios":"levelo://app?vid=7cf6cbff-0b9c-48ee-9298-52e88f5a74c8"},"vehicle_type_id":"4","last_reported":1746551360,"current_range_meters":8000,"station_id":"ce4bgj92rcd13ifvqbe0","pricing_plan_id":"cebpf4jnsgd1na2vs0mg"},{"bike_id":"9b014eb3-13bd-4fea-bde8-16840be22ca3","system_id":"levelo_inurba_marseille","lat":43.2904,"lon":5.3756,"is_reserved":false,"is_disabled":false,"rental_uris":{"android":"levelo://app?vid=9b014eb3-13bd-4fea-bde8-16840be22ca3","ios":"levelo://app?vid=9b014eb3-13bd-4fea-bde8-16840be22ca3"},"vehicle_type_id":"4","last_reported":1746551360,"current_range_meters":8000,"station_id":"ce4bh692rcd13ifvqe90","pricing_plan_id":"cebpf4jnsgd1na2vs0mg"},{"bike_id":"6e2c21db-0baa-4ede-8c9b-539f044fc0a6","system_id":"levelo_inurba_marseille","lat":43.280653,"lon":5.396597,"is_reserved":false,"is_disabled":false,"rental_uris":{"android":"levelo://app?vid=6e2c21db-0baa-4ede-8c9b-539f044fc0a6","ios":"levelo://app?vid=6e2c21db-0baa-4ede-8c9b-539f044fc0a6"},"vehicle_type_id":"4","last_reported":1746551360,"current_range_meters":8000,"station_id":"ce4bho12rcd13ifvqh2g","pricing_plan_id":"cebpf4jnsgd1na2vs0mg"},{"bike_id":"84796d25-aade-4960-ae15-0172d7b5b77e","system_id":"levelo_inurba_marseille","lat":43.31407,"lon":5.39373,"is_reserved":false,"is_disabled":false,"rental_uris":{"android":"levelo://app?vid=84796d25-aade-4960-ae15-0172d7b5b77e","ios":"levelo://app?vid=84796d25-aade-4960-ae15-0172d7b5b77e"},"vehicle_type_id":"4","last_reported":1746551360,"current_range_meters":8400,"station_id":"","pricing_plan_id":"cebpf4jnsgd1na2vs0mg"},{"bike_id":"9d8f73eb-df09-4699-86a7-d631e2319093","system_id":"levelo_inurba_marseille","lat":43.26266,"lon":5.37437,"is_reserved":false,"is_disabled":false,"rental_uris":{"android":"levelo://app?vid=9d8f73eb-df09-4699-86a7-d631e2319093","ios":"levelo://app?vid=9d8f73eb-df09-4699-86a7-d631e2319093"},"vehicle_type_id":"4","last_reported":1746551360,"current_range_meters":8400,"station_id":"","pricing_plan_id":"cebpf4jnsgd1na2vs0mg"},{"bike_id":"f35f651f-71bd-4b04-9162-b38a7dda782d","system_id":"levelo_inurba_marseille","lat":43.26779,"lon":5.39427,"is_reserved":false,"is_disabled":false,"rental_uris":{"android":"levelo://app?vid=f35f651f-71bd-4b04-9162-b38a7dda782d","ios":"levelo://app?vid=f35f651f-71bd-4b04-9162-b38a7dda782d"},"vehicle_type_id":"4","last_reported":1746551360,"current_range_meters":8400,"station_id":"ce4bhh12rcd13ifvqfg0","pricing_plan_id":"cebpf4jnsgd1na2vs0mg"},{"bike_id":"38f3e66d-f213-45a1-a009-d21d07de56db","system_id":"levelo_inurba_marseille","lat":43.25717,"lon":5.41115,"is_reserved":false,"is_disabled":false,"rental_uris":{"android":"levelo://app?vid=38f3e66d-f213-45a1-a009-d21d07de56db","ios":"levelo://app?vid=38f3e66d-f213-45a1-a009-d21d07de56db"},"vehicle_type_id":"4","last_reported":1746551360,"current_range_meters":8400,"station_id":"ce4bhkp2rcd13ifvqgd0","pricing_plan_id":"cebpf4jnsgd1na2vs0mg"},{"bike_id":"9d3fd1a0-e478-4ebd-9080-d3afe2d04ddf","system_id":"levelo_inurba_marseille","lat":43.33029,"lon":5.39045,"is_reserved":false,"is_disabled":false,"rental_uris":{"android":"levelo://app?vid=9d3fd1a0-e478-4ebd-9080-d3afe2d04ddf","ios":"levelo://app?vid=9d3fd1a0-e478-4ebd-9080-d3afe2d04ddf"},"vehicle_type_id":"4","last_reported":1746551360,"current_range_meters":8400,"station_id":"ce4bhr92rcd13ifvqhrg","pricing_plan_id":"cebpf4jnsgd1na2vs0mg"},{"bike_id":"503569af-07db-461f-918e-29f89d0c1c24","system_id":"levelo_inurba_marseille","lat":43.224946,"lon":5.34789,"is_reserved":false,"is_disabled":false,"rental_uris":{"android":"levelo://app?vid=503569af-07db-461f-918e-29f89d0c1c24","ios":"levelo://app?vid=503569af-07db-461f-918e-29f89d0c1c24"},"vehicle_type_id":"4","last_reported":1746551360,"current_range_meters":8800,"station_id":"","pricing_plan_id":"cebpf4jnsgd1na2vs0mg"},{"bike_id":"d452bf34-7ef8-4763-ba86-834f0c040fa8","system_id":"levelo_inurba_marseille","lat":43.30128,"lon":5.38781,"is_reserved":false,"is_disabled":false,"rental_uris":{"android":"levelo://app?vid=d452bf34-7ef8-4763-ba86-834f0c040fa8","ios":"levelo://app?vid=d452bf34-7ef8-4763-ba86-834f0c040fa8"},"vehicle_type_id":"4","last_reported":1746551360,"current_range_meters":8800,"station_id":"ce4bghh2rcd13ifvqb60","pricing_plan_id":"cebpf4jnsgd1na2vs0mg"},{"bike_id":"bfe26aff-b52c-4015-ba43-736a10d29ef2","system_id":"levelo_inurba_marseille","lat":43.30328,"lon":5.40433,"is_reserved":false,"is_disabled":false,"rental_uris":{"android":"levelo://app?vid=bfe26aff-b52c-4015-ba43-736a10d29ef2","ios":"levelo://app?vid=bfe26aff-b52c-4015-ba43-736a10d29ef2"},"vehicle_type_id":"4","last_reported":1746551360,"current_range_meters":8800,"station_id":"ce4bh012rcd13ifvqd10","pricing_plan_id":"cebpf4jnsgd1na2vs0mg"},{"bike_id":"c2fff035-6128-402a-b38b-ebc94261b3d8","system_id":"levelo_inurba_marseille","lat":43.211918,"lon":5.350699,"is_reserved":false,"is_disabled":false,"rental_uris":{"android":"levelo://app?vid=c2fff035-6128-402a-b38b-ebc94261b3d8","ios":"levelo://app?vid=c2fff035-6128-402a-b38b-ebc94261b3d8"},"vehicle_type_id":"4","last_reported":1746551360,"current_range_meters":8800,"station_id":"st_cvj6sg6p6f1abm77japg","pricing_plan_id":"cebpf4jnsgd1na2vs0mg"},{"bike_id":"0c377d9d-9a3a-47a7-9944-6039314b5e15","system_id":"levelo_inurba_marseille","lat":43.24596,"lon":5.40506,"is_reserved":false,"is_disabled":false,"rental_uris":{"android":"levelo://app?vid=0c377d9d-9a3a-47a7-9944-6039314b5e15","ios":"levelo://app?vid=0c377d9d-9a3a-47a7-9944-6039314b5e15"},"vehicle_type_id":"4","last_reported":1746551360,"current_range_meters":9200,"station_id":"","pricing_plan_id":"cebpf4jnsgd1na2vs0mg"},{"bike_id":"988b7d52-857b-4e5c-ab86-f801b0aed9ba","system_id":"levelo_inurba_marseille","lat":43.29034,"lon":5.37567,"is_reserved":false,"is_disabled":false,"rental_uris":{"android":"levelo://app?vid=988b7d52-857b-4e5c-ab86-f801b0aed9ba","ios":"levelo://app?vid=988b7d52-857b-4e5c-ab86-f801b0aed9ba"},"vehicle_type_id":"4","last_reported":1746551360,"current_range_meters":9200,"station_id":"ce4bh692rcd13ifvqe90","pricing_plan_id":"cebpf4jnsgd1na2vs0mg"},{"bike_id":"7ed2f0f4-ffe0-411c-896a-d646459d0c80","system_id":"levelo_inurba_marseille","lat":43.25115,"lon":5.4032,"is_reserved":false,"is_disabled":false,"rental_uris":{"android":"levelo://app?vid=7ed2f0f4-ffe0-411c-896a-d646459d0c80","ios":"levelo://app?vid=7ed2f0f4-ffe0-411c-896a-d646459d0c80"},"vehicle_type_id":"4","last_reported":1746551360,"current_range_meters":9200,"station_id":"ce4bhlh2rcd13ifvqgig","pricing_plan_id":"cebpf4jnsgd1na2vs0mg"},{"bike_id":"4be95b90-db9a-4205-9ad8-468cfd9c87c9","system_id":"levelo_inurba_marseille","lat":43.25509,"lon":5.37644,"is_reserved":false,"is_disabled":false,"rental_uris":{"android":"levelo://app?vid=4be95b90-db9a-4205-9ad8-468cfd9c87c9","ios":"levelo://app?vid=4be95b90-db9a-4205-9ad8-468cfd9c87c9"},"vehicle_type_id":"4","last_reported":1746551360,"current_range_meters":9600,"station_id":"ce4bhh12rcd13ifvqff0","pricing_plan_id":"cebpf4jnsgd1na2vs0mg"},{"bike_id":"1e6ef1b5-4779-4cb6-b6c7-5c78c344b341","system_id":"levelo_inurba_marseille","lat":43.23176,"lon":5.3999,"is_reserved":false,"is_disabled":false,"rental_uris":{"android":"levelo://app?vid=1e6ef1b5-4779-4cb6-b6c7-5c78c344b341","ios":"levelo://app?vid=1e6ef1b5-4779-4cb6-b6c7-5c78c344b341"},"vehicle_type_id":"4","last_reported":1746551360,"current_range_meters":9600,"station_id":"ce4bhn12rcd13ifvqgqg","pricing_plan_id":"cebpf4jnsgd1na2vs0mg"},{"bike_id":"862f33da-7f0a-4db8-984f-d875dfc80eb6","system_id":"levelo_inurba_marseille","lat":43.24078,"lon":5.37753,"is_reserved":false,"is_disabled":false,"rental_uris":{"android":"levelo://app?vid=862f33da-7f0a-4db8-984f-d875dfc80eb6","ios":"levelo://app?vid=862f33da-7f0a-4db8-984f-d875dfc80eb6"},"vehicle_type_id":"4","last_reported":1746551360,"current_range_meters":9600,"station_id":"ce4bhnp2rcd13ifvqgvg","pricing_plan_id":"cebpf4jnsgd1na2vs0mg"},{"bike_id":"f297ac92-a7d7-49b0-97eb-e3c158892b9c","system_id":"levelo_inurba_marseille","lat":43.23195,"lon":5.35558,"is_reserved":false,"is_disabled":false,"rental_uris":{"android":"levelo://app?vid=f297ac92-a7d7-49b0-97eb-e3c158892b9c","ios":"levelo://app?vid=f297ac92-a7d7-49b0-97eb-e3c158892b9c"},"vehicle_type_id":"4","last_reported":1746551360,"current_range_meters":9600,"station_id":"ce4bhu92rcd13ifvqi70","pricing_plan_id":"cebpf4jnsgd1na2vs0mg"},{"bike_id":"943d0601-5d73-468b-922c-7ef604961a21","system_id":"levelo_inurba_marseille","lat":43.21187,"lon":5.35076,"is_reserved":false,"is_disabled":false,"rental_uris":{"android":"levelo://app?vid=943d0601-5d73-468b-922c-7ef604961a21","ios":"levelo://app?vid=943d0601-5d73-468b-922c-7ef604961a21"},"vehicle_type_id":"4","last_reported":1746551360,"current_range_meters":9600,"station_id":"st_cvj6sg6p6f1abm77japg","pricing_plan_id":"cebpf4jnsgd1na2vs0mg"},{"bike_id":"fc453207-e37b-4b13-ae20-4430b65eb533","system_id":"levelo_inurba_marseille","lat":43.32442,"lon":5.39127,"is_reserved":false,"is_disabled":false,"rental_uris":{"android":"levelo://app?vid=fc453207-e37b-4b13-ae20-4430b65eb533","ios":"levelo://app?vid=fc453207-e37b-4b13-ae20-4430b65eb533"},"vehicle_type_id":"4","last_reported":1746551360,"current_range_meters":10000,"station_id":"","pricing_plan_id":"cebpf4jnsgd1na2vs0mg"},{"bike_id":"c9592205-9409-4f74-aed1-7c4141a58caa","system_id":"levelo_inurba_marseille","lat":43.2713,"lon":5.36449,"is_reserved":false,"is_disabled":false,"rental_uris":{"android":"levelo://app?vid=c9592205-9409-4f74-aed1-7c4141a58caa","ios":"levelo://app?vid=c9592205-9409-4f74-aed1-7c4141a58caa"},"vehicle_type_id":"4","last_reported":1746551360,"current_range_meters":10000,"station_id":"","pricing_plan_id":"cebpf4jnsgd1na2vs0mg"},{"bike_id":"afd0f53f-8b01-45c6-8297-62401ec921de","system_id":"levelo_inurba_marseille","lat":43.30145,"lon":5.37415,"is_reserved":false,"is_disabled":false,"rental_uris":{"android":"levelo://app?vid=afd0f53f-8b01-45c6-8297-62401ec921de","ios":"levelo://app?vid=afd0f53f-8b01-45c6-8297-62401ec921de"},"vehicle_type_id":"4","last_reported":1746551360,"current_range_meters":10800,"station_id":"ce4bgs92rcd13ifvqcc0","pricing_plan_id":"cebpf4jnsgd1na2vs0mg"},{"bike_id":"16eb647a-c5c4-4f27-baa2-13817d75e2c9","system_id":"levelo_inurba_marseille","lat":43.31074,"lon":5.38354,"is_reserved":false,"is_disabled":false,"rental_uris":{"android":"levelo://app?vid=16eb647a-c5c4-4f27-baa2-13817d75e2c9","ios":"levelo://app?vid=16eb647a-c5c4-4f27-baa2-13817d75e2c9"},"vehicle_type_id":"4","last_reported":1746551360,"current_range_meters":10800,"station_id":"ce4bgv92rcd13ifvqcr0","pricing_plan_id":"cebpf4jnsgd1na2vs0mg"},{"bike_id":"960747af-c38a-41de-aff1-908daedbaa3f","system_id":"levelo_inurba_marseille","lat":43.30884,"lon":5.39661,"is_reserved":false,"is_disabled":false,"rental_uris":{"android":"levelo://app?vid=960747af-c38a-41de-aff1-908daedbaa3f","ios":"levelo://app?vid=960747af-c38a-41de-aff1-908daedbaa3f"},"vehicle_type_id":"4","last_reported":1746551360,"current_range_meters":10800,"station_id":"ce4bh012rcd13ifvqcv0","pricing_plan_id":"cebpf4jnsgd1na2vs0mg"},{"bike_id":"56f1e631-0a49-43ea-be24-b43a13605acc","system_id":"levelo_inurba_marseille","lat":43.27995,"lon":5.40009,"is_reserved":false,"is_disabled":false,"rental_uris":{"android":"levelo://app?vid=56f1e631-0a49-43ea-be24-b43a13605acc","ios":"levelo://app?vid=56f1e631-0a49-43ea-be24-b43a13605acc"},"vehicle_type_id":"4","last_reported":1746551360,"current_range_meters":10800,"station_id":"ce4bho92rcd13ifvqh4g","pricing_plan_id":"cebpf4jnsgd1na2vs0mg"},{"bike_id":"3f84d55c-f7b3-443f-a8ba-1f83ba8291a2","system_id":"levelo_inurba_marseille","lat":43.211921,"lon":5.350706,"is_reserved":false,"is_disabled":false,"rental_uris":{"android":"levelo://app?vid=3f84d55c-f7b3-443f-a8ba-1f83ba8291a2","ios":"levelo://app?vid=3f84d55c-f7b3-443f-a8ba-1f83ba8291a2"},"vehicle_type_id":"4","last_reported":1746551360,"current_range_meters":10800,"station_id":"st_cvj6sg6p6f1abm77japg","pricing_plan_id":"cebpf4jnsgd1na2vs0mg"},{"bike_id":"5db8ffc1-50a4-4ef1-8c90-c9033a819380","system_id":"levelo_inurba_marseille","lat":43.30786,"lon":5.37633,"is_reserved":false,"is_disabled":false,"rental_uris":{"android":"levelo://app?vid=5db8ffc1-50a4-4ef1-8c90-c9033a819380","ios":"levelo://app?vid=5db8ffc1-50a4-4ef1-8c90-c9033a819380"},"vehicle_type_id":"4","last_reported":1746551360,"current_range_meters":11200,"station_id":"ce4bgv92rcd13ifvqcq0","pricing_plan_id":"cebpf4jnsgd1na2vs0mg"},{"bike_id":"b3920b57-95ec-4fd9-9773-ab280cf43e13","system_id":"levelo_inurba_marseille","lat":43.28855,"lon":5.35848,"is_reserved":false,"is_disabled":false,"rental_uris":{"android":"levelo://app?vid=b3920b57-95ec-4fd9-9773-ab280cf43e13","ios":"levelo://app?vid=b3920b57-95ec-4fd9-9773-ab280cf43e13"},"vehicle_type_id":"4","last_reported":1746551360,"current_range_meters":11200,"station_id":"ce4bhb12rcd13ifvqem0","pricing_plan_id":"cebpf4jnsgd1na2vs0mg"},{"bike_id":"d6918ebc-6bfa-45b6-9f2f-bdf2010f816b","system_id":"levelo_inurba_marseille","lat":43.30811,"lon":5.43544,"is_reserved":false,"is_disabled":false,"rental_uris":{"android":"levelo://app?vid=d6918ebc-6bfa-45b6-9f2f-bdf2010f816b","ios":"levelo://app?vid=d6918ebc-6bfa-45b6-9f2f-bdf2010f816b"},"vehicle_type_id":"4","last_reported":1746551360,"current_range_meters":11200,"station_id":"ce4bhph2rcd13ifvqheg","pricing_plan_id":"cebpf4jnsgd1na2vs0mg"},{"bike_id":"12274305-e282-4069-ad58-3850933524b9","system_id":"levelo_inurba_marseille","lat":43.29169,"lon":5.37168,"is_reserved":false,"is_disabled":false,"rental_uris":{"android":"levelo://app?vid=12274305-e282-4069-ad58-3850933524b9","ios":"levelo://app?vid=12274305-e282-4069-ad58-3850933524b9"},"vehicle_type_id":"4","last_reported":1746551360,"current_range_meters":11600,"station_id":"ce4bha92rcd13ifvqeh0","pricing_plan_id":"cebpf4jnsgd1na2vs0mg"},{"bike_id":"e09f1dbc-8a48-49f2-bf0a-7265d30677f4","system_id":"levelo_inurba_marseille","lat":43.26202,"lon":5.37937,"is_reserved":false,"is_disabled":false,"rental_uris":{"android":"levelo://app?vid=e09f1dbc-8a48-49f2-bf0a-7265d30677f4","ios":"levelo://app?vid=e09f1dbc-8a48-49f2-bf0a-7265d30677f4"},"vehicle_type_id":"4","last_reported":1746551360,"current_range_meters":11600,"station_id":"ce4bhjp2rcd13ifvqg90","pricing_plan_id":"cebpf4jnsgd1na2vs0mg"},{"bike_id":"998f7c17-fcbf-45fe-a581-5f44a96a5b9d","system_id":"levelo_inurba_marseille","lat":43.31085,"lon":5.42426,"is_reserved":false,"is_disabled":false,"rental_uris":{"android":"levelo://app?vid=998f7c17-fcbf-45fe-a581-5f44a96a5b9d","ios":"levelo://app?vid=998f7c17-fcbf-45fe-a581-5f44a96a5b9d"},"vehicle_type_id":"4","last_reported":1746551360,"current_range_meters":11600,"station_id":"ce4bhp92rcd13ifvqhag","pricing_plan_id":"cebpf4jnsgd1na2vs0mg"},{"bike_id":"94c636ea-bd9a-4309-be08-027a64946eb3","system_id":"levelo_inurba_marseille","lat":43.295349,"lon":5.390477,"is_reserved":false,"is_disabled":false,"rental_uris":{"android":"levelo://app?vid=94c636ea-bd9a-4309-be08-027a64946eb3","ios":"levelo://app?vid=94c636ea-bd9a-4309-be08-027a64946eb3"},"vehicle_type_id":"4","last_reported":1746551360,"current_range_meters":12000,"station_id":"ce4bh3p2rcd13ifvqdp0","pricing_plan_id":"cebpf4jnsgd1na2vs0mg"},{"bike_id":"4d41f66c-f615-49b2-a6d7-735e22d421fb","system_id":"levelo_inurba_marseille","lat":43.23187,"lon":5.39989,"is_reserved":false,"is_disabled":false,"rental_uris":{"android":"levelo://app?vid=4d41f66c-f615-49b2-a6d7-735e22d421fb","ios":"levelo://app?vid=4d41f66c-f615-49b2-a6d7-735e22d421fb"},"vehicle_type_id":"4","last_reported":1746551360,"current_range_meters":12000,"station_id":"ce4bhn12rcd13ifvqgqg","pricing_plan_id":"cebpf4jnsgd1na2vs0mg"},{"bike_id":"1aacf16d-d225-4998-9e93-eb86cbd8f614","system_id":"levelo_inurba_marseille","lat":43.28703,"lon":5.39974,"is_reserved":false,"is_disabled":false,"rental_uris":{"android":"levelo://app?vid=1aacf16d-d225-4998-9e93-eb86cbd8f614","ios":"levelo://app?vid=1aacf16d-d225-4998-9e93-eb86cbd8f614"},"vehicle_type_id":"4","last_reported":1746551360,"current_range_meters":12000,"station_id":"ce4bho92rcd13ifvqh3g","pricing_plan_id":"cebpf4jnsgd1na2vs0mg"},{"bike_id":"b9d889a1-6f8f-4145-8432-407a3df656c7","system_id":"levelo_inurba_marseille","lat":43.24144,"lon":5.36385,"is_reserved":false,"is_disabled":false,"rental_uris":{"android":"levelo://app?vid=b9d889a1-6f8f-4145-8432-407a3df656c7","ios":"levelo://app?vid=b9d889a1-6f8f-4145-8432-407a3df656c7"},"vehicle_type_id":"4","last_reported":1746551360,"current_range_meters":12000,"station_id":"cpo36qri1sfpv3e86is0","pricing_plan_id":"cebpf4jnsgd1na2vs0mg"},{"bike_id":"a192c9aa-9f28-4196-9e7f-edd2314f5589","system_id":"levelo_inurba_marseille","lat":43.29078,"lon":5.37174,"is_reserved":false,"is_disabled":false,"rental_uris":{"android":"levelo://app?vid=a192c9aa-9f28-4196-9e7f-edd2314f5589","ios":"levelo://app?vid=a192c9aa-9f28-4196-9e7f-edd2314f5589"},"vehicle_type_id":"4","last_reported":1746551360,"current_range_meters":12400,"station_id":"ce4bh5p2rcd13ifvqe4g","pricing_plan_id":"cebpf4jnsgd1na2vs0mg"},{"bike_id":"bf5b9255-eec2-439d-a49e-795e53ab27b5","system_id":"levelo_inurba_marseille","lat":43.28463,"lon":5.35891,"is_reserved":false,"is_disabled":false,"rental_uris":{"android":"levelo://app?vid=bf5b9255-eec2-439d-a49e-795e53ab27b5","ios":"levelo://app?vid=bf5b9255-eec2-439d-a49e-795e53ab27b5"},"vehicle_type_id":"4","last_reported":1746551360,"current_range_meters":12400,"station_id":"ce4bhah2rcd13ifvqei0","pricing_plan_id":"cebpf4jnsgd1na2vs0mg"},{"bike_id":"4a1d6427-9ab8-4dd4-bba8-1d9a00d292da","system_id":"levelo_inurba_marseille","lat":43.26564,"lon":5.39013,"is_reserved":false,"is_disabled":false,"rental_uris":{"android":"levelo://app?vid=4a1d6427-9ab8-4dd4-bba8-1d9a00d292da","ios":"levelo://app?vid=4a1d6427-9ab8-4dd4-bba8-1d9a00d292da"},"vehicle_type_id":"4","last_reported":1746551360,"current_range_meters":12400,"station_id":"ce4bhe12rcd13ifvqf30","pricing_plan_id":"cebpf4jnsgd1na2vs0mg"},{"bike_id":"e76947b6-1fa7-4892-97b7-a851cd815be7","system_id":"levelo_inurba_marseille","lat":43.26502,"lon":5.39544,"is_reserved":false,"is_disabled":false,"rental_uris":{"android":"levelo://app?vid=e76947b6-1fa7-4892-97b7-a851cd815be7","ios":"levelo://app?vid=e76947b6-1fa7-4892-97b7-a851cd815be7"},"vehicle_type_id":"4","last_reported":1746551360,"current_range_meters":12400,"station_id":"ce4bhi12rcd13ifvqfq0","pricing_plan_id":"cebpf4jnsgd1na2vs0mg"},{"bike_id":"2a71f28c-4141-4c52-ba5e-f5dc397b8234","system_id":"levelo_inurba_marseille","lat":43.24673,"lon":5.3814,"is_reserved":false,"is_disabled":false,"rental_uris":{"android":"levelo://app?vid=2a71f28c-4141-4c52-ba5e-f5dc397b8234","ios":"levelo://app?vid=2a71f28c-4141-4c52-ba5e-f5dc397b8234"},"vehicle_type_id":"4","last_reported":1746551360,"current_range_meters":12400,"station_id":"ce4bhih2rcd13ifvqfr0","pricing_plan_id":"cebpf4jnsgd1na2vs0mg"},{"bike_id":"00300daa-ec0b-4834-a54e-dbf97409005e","system_id":"levelo_inurba_marseille","lat":43.32289,"lon":5.38272,"is_reserved":false,"is_disabled":false,"rental_uris":{"android":"levelo://app?vid=00300daa-ec0b-4834-a54e-dbf97409005e","ios":"levelo://app?vid=00300daa-ec0b-4834-a54e-dbf97409005e"},"vehicle_type_id":"4","last_reported":1746551360,"current_range_meters":12400,"station_id":"ce4bhr12rcd13ifvqhqg","pricing_plan_id":"cebpf4jnsgd1na2vs0mg"},{"bike_id":"77736be4-8100-4144-998d-4bc8c18a5b3a","system_id":"levelo_inurba_marseille","lat":43.29779,"lon":5.39336,"is_reserved":false,"is_disabled":false,"rental_uris":{"android":"levelo://app?vid=77736be4-8100-4144-998d-4bc8c18a5b3a","ios":"levelo://app?vid=77736be4-8100-4144-998d-4bc8c18a5b3a"},"vehicle_type_id":"4","last_reported":1746551360,"current_range_meters":12400,"station_id":"chh1huq6cuj3fo74tm60","pricing_plan_id":"cebpf4jnsgd1na2vs0mg"},{"bike_id":"414e43ad-31b8-4d16-b32e-e779088da360","system_id":"levelo_inurba_marseille","lat":43.297899,"lon":5.393494,"is_reserved":false,"is_disabled":false,"rental_uris":{"android":"levelo://app?vid=414e43ad-31b8-4d16-b32e-e779088da360","ios":"levelo://app?vid=414e43ad-31b8-4d16-b32e-e779088da360"},"vehicle_type_id":"4","last_reported":1746551360,"current_range_meters":12400,"station_id":"chh1huq6cuj3fo74tm60","pricing_plan_id":"cebpf4jnsgd1na2vs0mg"},{"bike_id":"8d31de6f-b022-4d8a-a11c-2fb279e9f105","system_id":"levelo_inurba_marseille","lat":43.2841,"lon":5.34977,"is_reserved":false,"is_disabled":false,"rental_uris":{"android":"levelo://app?vid=8d31de6f-b022-4d8a-a11c-2fb279e9f105","ios":"levelo://app?vid=8d31de6f-b022-4d8a-a11c-2fb279e9f105"},"vehicle_type_id":"4","last_reported":1746551360,"current_range_meters":12800,"station_id":"ce4bhbh2rcd13ifvqepg","pricing_plan_id":"cebpf4jnsgd1na2vs0mg"},{"bike_id":"85519a58-7621-4715-8007-c7b2f9d78f1d","system_id":"levelo_inurba_marseille","lat":43.27807,"lon":5.40712,"is_reserved":false,"is_disabled":false,"rental_uris":{"android":"levelo://app?vid=85519a58-7621-4715-8007-c7b2f9d78f1d","ios":"levelo://app?vid=85519a58-7621-4715-8007-c7b2f9d78f1d"},"vehicle_type_id":"4","last_reported":1746551360,"current_range_meters":12800,"station_id":"ce4bhnh2rcd13ifvqgtg","pricing_plan_id":"cebpf4jnsgd1na2vs0mg"},{"bike_id":"b4bac287-3615-423a-bca2-a11fb80cb066","system_id":"levelo_inurba_marseille","lat":43.230568,"lon":5.354891,"is_reserved":false,"is_disabled":false,"rental_uris":{"android":"levelo://app?vid=b4bac287-3615-423a-bca2-a11fb80cb066","ios":"levelo://app?vid=b4bac287-3615-423a-bca2-a11fb80cb066"},"vehicle_type_id":"4","last_reported":1746551360,"current_range_meters":12800,"station_id":"cpo3342slgdg3j2ifvpg","pricing_plan_id":"cebpf4jnsgd1na2vs0mg"},{"bike_id":"065dfa79-5129-4665-ba10-4a802102a715","system_id":"levelo_inurba_marseille","lat":43.317217,"lon":5.423964,"is_reserved":false,"is_disabled":false,"rental_uris":{"android":"levelo://app?vid=065dfa79-5129-4665-ba10-4a802102a715","ios":"levelo://app?vid=065dfa79-5129-4665-ba10-4a802102a715"},"vehicle_type_id":"4","last_reported":1746551360,"current_range_meters":13600,"station_id":"","pricing_plan_id":"cebpf4jnsgd1na2vs0mg"},{"bike_id":"14e04799-47d7-407a-a818-6bec29180419","system_id":"levelo_inurba_marseille","lat":43.27836,"lon":5.39206,"is_reserved":false,"is_disabled":false,"rental_uris":{"android":"levelo://app?vid=14e04799-47d7-407a-a818-6bec29180419","ios":"levelo://app?vid=14e04799-47d7-407a-a818-6bec29180419"},"vehicle_type_id":"4","last_reported":1746551360,"current_range_meters":13600,"station_id":"ce4bhjp2rcd13ifvqga0","pricing_plan_id":"cebpf4jnsgd1na2vs0mg"},{"bike_id":"8a5554a2-b62f-4371-8d49-519ad97fb9f1","system_id":"levelo_inurba_marseille","lat":43.33055,"lon":5.3904,"is_reserved":false,"is_disabled":false,"rental_uris":{"android":"levelo://app?vid=8a5554a2-b62f-4371-8d49-519ad97fb9f1","ios":"levelo://app?vid=8a5554a2-b62f-4371-8d49-519ad97fb9f1"},"vehicle_type_id":"4","last_reported":1746551360,"current_range_meters":13600,"station_id":"ce4bhr92rcd13ifvqhrg","pricing_plan_id":"cebpf4jnsgd1na2vs0mg"},{"bike_id":"8ba7fccc-495b-43c2-be5f-88a4c7a8ccd7","system_id":"levelo_inurba_marseille","lat":43.24177,"lon":5.39729,"is_reserved":false,"is_disabled":false,"rental_uris":{"android":"levelo://app?vid=8ba7fccc-495b-43c2-be5f-88a4c7a8ccd7","ios":"levelo://app?vid=8ba7fccc-495b-43c2-be5f-88a4c7a8ccd7"},"vehicle_type_id":"4","last_reported":1746551360,"current_range_meters":14000,"station_id":"ce4bhn12rcd13ifvqgpg","pricing_plan_id":"cebpf4jnsgd1na2vs0mg"},{"bike_id":"741922f7-49ff-4751-a228-5a73f2c8c24d","system_id":"levelo_inurba_marseille","lat":43.24167,"lon":5.36405,"is_reserved":false,"is_disabled":false,"rental_uris":{"android":"levelo://app?vid=741922f7-49ff-4751-a228-5a73f2c8c24d","ios":"levelo://app?vid=741922f7-49ff-4751-a228-5a73f2c8c24d"},"vehicle_type_id":"4","last_reported":1746551360,"current_range_meters":14000,"station_id":"cpo36qri1sfpv3e86is0","pricing_plan_id":"cebpf4jnsgd1na2vs0mg"},{"bike_id":"1900e395-19ba-404e-aa6a-262b7656599d","system_id":"levelo_inurba_marseille","lat":43.2888,"lon":5.43707,"is_reserved":false,"is_disabled":false,"rental_uris":{"android":"levelo://app?vid=1900e395-19ba-404e-aa6a-262b7656599d","ios":"levelo://app?vid=1900e395-19ba-404e-aa6a-262b7656599d"},"vehicle_type_id":"4","last_reported":1746551360,"current_range_meters":14400,"station_id":"","pricing_plan_id":"cebpf4jnsgd1na2vs0mg"},{"bike_id":"5d80b954-4ab6-4737-9654-c9d81c9dc148","system_id":"levelo_inurba_marseille","lat":43.287157,"lon":5.379387,"is_reserved":false,"is_disabled":false,"rental_uris":{"android":"levelo://app?vid=5d80b954-4ab6-4737-9654-c9d81c9dc148","ios":"levelo://app?vid=5d80b954-4ab6-4737-9654-c9d81c9dc148"},"vehicle_type_id":"4","last_reported":1746551360,"current_range_meters":14400,"station_id":"ce4bh9p2rcd13ifvqec0","pricing_plan_id":"cebpf4jnsgd1na2vs0mg"},{"bike_id":"03bb5049-51e5-461e-8353-3cc13edfbfb8","system_id":"levelo_inurba_marseille","lat":43.239587,"lon":5.366247,"is_reserved":false,"is_disabled":false,"rental_uris":{"android":"levelo://app?vid=03bb5049-51e5-461e-8353-3cc13edfbfb8","ios":"levelo://app?vid=03bb5049-51e5-461e-8353-3cc13edfbfb8"},"vehicle_type_id":"4","last_reported":1746551360,"current_range_meters":14400,"station_id":"ce4bhi12rcd13ifvqfp0","pricing_plan_id":"cebpf4jnsgd1na2vs0mg"},{"bike_id":"db3458e2-f7fe-49eb-b6f4-fe7d452c23ea","system_id":"levelo_inurba_marseille","lat":43.24074,"lon":5.37753,"is_reserved":false,"is_disabled":false,"rental_uris":{"android":"levelo://app?vid=db3458e2-f7fe-49eb-b6f4-fe7d452c23ea","ios":"levelo://app?vid=db3458e2-f7fe-49eb-b6f4-fe7d452c23ea"},"vehicle_type_id":"4","last_reported":1746551360,"current_range_meters":14400,"station_id":"ce4bhnp2rcd13ifvqgvg","pricing_plan_id":"cebpf4jnsgd1na2vs0mg"},{"bike_id":"c65b64f5-a38f-4b33-a48f-6bb6c6b32a53","system_id":"levelo_inurba_marseille","lat":43.211892,"lon":5.350782,"is_reserved":false,"is_disabled":false,"rental_uris":{"android":"levelo://app?vid=c65b64f5-a38f-4b33-a48f-6bb6c6b32a53","ios":"levelo://app?vid=c65b64f5-a38f-4b33-a48f-6bb6c6b32a53"},"vehicle_type_id":"4","last_reported":1746551360,"current_range_meters":14400,"station_id":"st_cvj6sg6p6f1abm77japg","pricing_plan_id":"cebpf4jnsgd1na2vs0mg"},{"bike_id":"2e6e1291-19a0-42ee-93e5-a6cf4d00f8fb","system_id":"levelo_inurba_marseille","lat":43.304204,"lon":5.397497,"is_reserved":false,"is_disabled":false,"rental_uris":{"android":"levelo://app?vid=2e6e1291-19a0-42ee-93e5-a6cf4d00f8fb","ios":"levelo://app?vid=2e6e1291-19a0-42ee-93e5-a6cf4d00f8fb"},"vehicle_type_id":"4","last_reported":1746551360,"current_range_meters":14800,"station_id":"ce4bh092rcd13ifvqd20","pricing_plan_id":"cebpf4jnsgd1na2vs0mg"},{"bike_id":"3e89c6d1-4476-4d8c-b3aa-f6e8113c030a","system_id":"levelo_inurba_marseille","lat":43.32336,"lon":5.40625,"is_reserved":false,"is_disabled":false,"rental_uris":{"android":"levelo://app?vid=3e89c6d1-4476-4d8c-b3aa-f6e8113c030a","ios":"levelo://app?vid=3e89c6d1-4476-4d8c-b3aa-f6e8113c030a"},"vehicle_type_id":"4","last_reported":1746551360,"current_range_meters":14800,"station_id":"ce4bhq92rcd13ifvqhjg","pricing_plan_id":"cebpf4jnsgd1na2vs0mg"},{"bike_id":"09ef4981-3a95-459f-aa85-7d921dd4ebbc","system_id":"levelo_inurba_marseille","lat":43.25442,"lon":5.38251,"is_reserved":false,"is_disabled":false,"rental_uris":{"android":"levelo://app?vid=09ef4981-3a95-459f-aa85-7d921dd4ebbc","ios":"levelo://app?vid=09ef4981-3a95-459f-aa85-7d921dd4ebbc"},"vehicle_type_id":"4","last_reported":1746551360,"current_range_meters":15200,"station_id":"","pricing_plan_id":"cebpf4jnsgd1na2vs0mg"},{"bike_id":"a25a69f4-7751-4f55-a3b7-4f3039d77fd9","system_id":"levelo_inurba_marseille","lat":43.31119,"lon":5.37784,"is_reserved":false,"is_disabled":false,"rental_uris":{"android":"levelo://app?vid=a25a69f4-7751-4f55-a3b7-4f3039d77fd9","ios":"levelo://app?vid=a25a69f4-7751-4f55-a3b7-4f3039d77fd9"},"vehicle_type_id":"4","last_reported":1746551360,"current_range_meters":15200,"station_id":"ce4bgt92rcd13ifvqcg0","pricing_plan_id":"cebpf4jnsgd1na2vs0mg"},{"bike_id":"5f792297-f88d-4da0-ac40-43910bc681a7","system_id":"levelo_inurba_marseille","lat":43.30328,"lon":5.40428,"is_reserved":false,"is_disabled":false,"rental_uris":{"android":"levelo://app?vid=5f792297-f88d-4da0-ac40-43910bc681a7","ios":"levelo://app?vid=5f792297-f88d-4da0-ac40-43910bc681a7"},"vehicle_type_id":"4","last_reported":1746551360,"current_range_meters":15200,"station_id":"ce4bh012rcd13ifvqd10","pricing_plan_id":"cebpf4jnsgd1na2vs0mg"},{"bike_id":"0bf87b8e-3cb2-47a6-9006-bab7b6183966","system_id":"levelo_inurba_marseille","lat":43.26056,"lon":5.39399,"is_reserved":false,"is_disabled":false,"rental_uris":{"android":"levelo://app?vid=0bf87b8e-3cb2-47a6-9006-bab7b6183966","ios":"levelo://app?vid=0bf87b8e-3cb2-47a6-9006-bab7b6183966"},"vehicle_type_id":"4","last_reported":1746551360,"current_range_meters":15200,"station_id":"ce4bhh92rcd13ifvqfj0","pricing_plan_id":"cebpf4jnsgd1na2vs0mg"},{"bike_id":"34174d97-65e7-4c75-8a15-429287599e52","system_id":"levelo_inurba_marseille","lat":43.30798,"lon":5.38155,"is_reserved":false,"is_disabled":false,"rental_uris":{"android":"levelo://app?vid=34174d97-65e7-4c75-8a15-429287599e52","ios":"levelo://app?vid=34174d97-65e7-4c75-8a15-429287599e52"},"vehicle_type_id":"4","last_reported":1746551360,"current_range_meters":16000,"station_id":"ce4bgt12rcd13ifvqce0","pricing_plan_id":"cebpf4jnsgd1na2vs0mg"},{"bike_id":"0c6b4f22-b121-48fe-930e-ed944bfd9136","system_id":"levelo_inurba_marseille","lat":43.26208,"lon":5.3744,"is_reserved":false,"is_disabled":false,"rental_uris":{"android":"levelo://app?vid=0c6b4f22-b121-48fe-930e-ed944bfd9136","ios":"levelo://app?vid=0c6b4f22-b121-48fe-930e-ed944bfd9136"},"vehicle_type_id":"4","last_reported":1746551360,"current_range_meters":16000,"station_id":"ce4bhgp2rcd13ifvqfc0","pricing_plan_id":"cebpf4jnsgd1na2vs0mg"},{"bike_id":"e0f4f9d3-da81-48af-a159-daa600b00825","system_id":"levelo_inurba_marseille","lat":43.3171,"lon":5.43708,"is_reserved":false,"is_disabled":false,"rental_uris":{"android":"levelo://app?vid=e0f4f9d3-da81-48af-a159-daa600b00825","ios":"levelo://app?vid=e0f4f9d3-da81-48af-a159-daa600b00825"},"vehicle_type_id":"4","last_reported":1746551360,"current_range_meters":16000,"station_id":"ce4bhp92rcd13ifvqhcg","pricing_plan_id":"cebpf4jnsgd1na2vs0mg"},{"bike_id":"58411efa-40b6-47e6-84fd-2de00c33f67c","system_id":"levelo_inurba_marseille","lat":43.33002,"lon":5.39047,"is_reserved":false,"is_disabled":false,"rental_uris":{"android":"levelo://app?vid=58411efa-40b6-47e6-84fd-2de00c33f67c","ios":"levelo://app?vid=58411efa-40b6-47e6-84fd-2de00c33f67c"},"vehicle_type_id":"4","last_reported":1746551360,"current_range_meters":16000,"station_id":"ce4bhr92rcd13ifvqhrg","pricing_plan_id":"cebpf4jnsgd1na2vs0mg"},{"bike_id":"355f672d-5ab7-4352-980c-428a6a127f6d","system_id":"levelo_inurba_marseille","lat":43.3093,"lon":5.40146,"is_reserved":false,"is_disabled":false,"rental_uris":{"android":"levelo://app?vid=355f672d-5ab7-4352-980c-428a6a127f6d","ios":"levelo://app?vid=355f672d-5ab7-4352-980c-428a6a127f6d"},"vehicle_type_id":"4","last_reported":1746551360,"current_range_meters":16400,"station_id":"ce4bgvp2rcd13ifvqct0","pricing_plan_id":"cebpf4jnsgd1na2vs0mg"},{"bike_id":"2d4427e7-a7a4-433d-a972-af2598822e0f","system_id":"levelo_inurba_marseille","lat":43.28405,"lon":5.34994,"is_reserved":false,"is_disabled":false,"rental_uris":{"android":"levelo://app?vid=2d4427e7-a7a4-433d-a972-af2598822e0f","ios":"levelo://app?vid=2d4427e7-a7a4-433d-a972-af2598822e0f"},"vehicle_type_id":"4","last_reported":1746551360,"current_range_meters":16400,"station_id":"ce4bhbh2rcd13ifvqepg","pricing_plan_id":"cebpf4jnsgd1na2vs0mg"},{"bike_id":"d1a330da-6328-41bd-a21e-8f5936f057f3","system_id":"levelo_inurba_marseille","lat":43.27812,"lon":5.40722,"is_reserved":false,"is_disabled":false,"rental_uris":{"android":"levelo://app?vid=d1a330da-6328-41bd-a21e-8f5936f057f3","ios":"levelo://app?vid=d1a330da-6328-41bd-a21e-8f5936f057f3"},"vehicle_type_id":"4","last_reported":1746551360,"current_range_meters":16400,"station_id":"ce4bhnh2rcd13ifvqgtg","pricing_plan_id":"cebpf4jnsgd1na2vs0mg"},{"bike_id":"fb72ad90-cfcf-41c9-ae1c-efc9bee6cd8e","system_id":"levelo_inurba_marseille","lat":43.28733,"lon":5.3609,"is_reserved":false,"is_disabled":false,"rental_uris":{"android":"levelo://app?vid=fb72ad90-cfcf-41c9-ae1c-efc9bee6cd8e","ios":"levelo://app?vid=fb72ad90-cfcf-41c9-ae1c-efc9bee6cd8e"},"vehicle_type_id":"4","last_reported":1746551360,"current_range_meters":16400,"station_id":"cki0cbj6b192h4jlfktg","pricing_plan_id":"cebpf4jnsgd1na2vs0mg"},{"bike_id":"dcc9a5f6-b604-4eef-9243-95b1f62f7db3","system_id":"levelo_inurba_marseille","lat":43.31465,"lon":5.37825,"is_reserved":false,"is_disabled":false,"rental_uris":{"android":"levelo://app?vid=dcc9a5f6-b604-4eef-9243-95b1f62f7db3","ios":"levelo://app?vid=dcc9a5f6-b604-4eef-9243-95b1f62f7db3"},"vehicle_type_id":"4","last_reported":1746551360,"current_range_meters":16800,"station_id":"","pricing_plan_id":"cebpf4jnsgd1na2vs0mg"},{"bike_id":"2714f713-c769-4f6a-ac44-441a635e9cba","system_id":"levelo_inurba_marseille","lat":43.21635,"lon":5.34242,"is_reserved":false,"is_disabled":false,"rental_uris":{"android":"levelo://app?vid=2714f713-c769-4f6a-ac44-441a635e9cba","ios":"levelo://app?vid=2714f713-c769-4f6a-ac44-441a635e9cba"},"vehicle_type_id":"4","last_reported":1746551360,"current_range_meters":16800,"station_id":"","pricing_plan_id":"cebpf4jnsgd1na2vs0mg"},{"bike_id":"40fd1688-c944-4cf2-9591-74e6a15d7419","system_id":"levelo_inurba_marseille","lat":43.31749,"lon":5.37446,"is_reserved":false,"is_disabled":false,"rental_uris":{"android":"levelo://app?vid=40fd1688-c944-4cf2-9591-74e6a15d7419","ios":"levelo://app?vid=40fd1688-c944-4cf2-9591-74e6a15d7419"},"vehicle_type_id":"4","last_reported":1746551360,"current_range_meters":16800,"station_id":"","pricing_plan_id":"cebpf4jnsgd1na2vs0mg"},{"bike_id":"8238e730-8faa-4d8e-86d4-5f673c551ba2","system_id":"levelo_inurba_marseille","lat":43.30153,"lon":5.38092,"is_reserved":false,"is_disabled":false,"rental_uris":{"android":"levelo://app?vid=8238e730-8faa-4d8e-86d4-5f673c551ba2","ios":"levelo://app?vid=8238e730-8faa-4d8e-86d4-5f673c551ba2"},"vehicle_type_id":"4","last_reported":1746551360,"current_range_meters":16800,"station_id":"ce4bgjp2rcd13ifvqbh0","pricing_plan_id":"cebpf4jnsgd1na2vs0mg"},{"bike_id":"9167746a-5cef-43df-9218-86f5f4062b57","system_id":"levelo_inurba_marseille","lat":43.29018,"lon":5.38127,"is_reserved":false,"is_disabled":false,"rental_uris":{"android":"levelo://app?vid=9167746a-5cef-43df-9218-86f5f4062b57","ios":"levelo://app?vid=9167746a-5cef-43df-9218-86f5f4062b57"},"vehicle_type_id":"4","last_reported":1746551360,"current_range_meters":16800,"station_id":"ce4bh4p2rcd13ifvqe1g","pricing_plan_id":"cebpf4jnsgd1na2vs0mg"},{"bike_id":"2a369998-1285-403d-9e73-dca9b37dfd13","system_id":"levelo_inurba_marseille","lat":43.28272,"lon":5.35067,"is_reserved":false,"is_disabled":false,"rental_uris":{"android":"levelo://app?vid=2a369998-1285-403d-9e73-dca9b37dfd13","ios":"levelo://app?vid=2a369998-1285-403d-9e73-dca9b37dfd13"},"vehicle_type_id":"4","last_reported":1746551360,"current_range_meters":16800,"station_id":"ce4bhbp2rcd13ifvqerg","pricing_plan_id":"cebpf4jnsgd1na2vs0mg"},{"bike_id":"5ca6b1b0-adb7-49c1-9399-3f06849b084b","system_id":"levelo_inurba_marseille","lat":43.24807,"lon":5.37454,"is_reserved":false,"is_disabled":false,"rental_uris":{"android":"levelo://app?vid=5ca6b1b0-adb7-49c1-9399-3f06849b084b","ios":"levelo://app?vid=5ca6b1b0-adb7-49c1-9399-3f06849b084b"},"vehicle_type_id":"4","last_reported":1746551360,"current_range_meters":16800,"station_id":"ce4bhgh2rcd13ifvqfb0","pricing_plan_id":"cebpf4jnsgd1na2vs0mg"},{"bike_id":"c1ea240d-5dfc-4daf-8645-5bad5952f855","system_id":"levelo_inurba_marseille","lat":43.28607,"lon":5.35151,"is_reserved":false,"is_disabled":false,"rental_uris":{"android":"levelo://app?vid=c1ea240d-5dfc-4daf-8645-5bad5952f855","ios":"levelo://app?vid=c1ea240d-5dfc-4daf-8645-5bad5952f855"},"vehicle_type_id":"4","last_reported":1746551360,"current_range_meters":17200,"station_id":"ce4bhch2rcd13ifvqeug","pricing_plan_id":"cebpf4jnsgd1na2vs0mg"},{"bike_id":"0864a125-fb0d-47cb-9b11-1d43e7cf6fb3","system_id":"levelo_inurba_marseille","lat":43.27172,"lon":5.40996,"is_reserved":false,"is_disabled":false,"rental_uris":{"android":"levelo://app?vid=0864a125-fb0d-47cb-9b11-1d43e7cf6fb3","ios":"levelo://app?vid=0864a125-fb0d-47cb-9b11-1d43e7cf6fb3"},"vehicle_type_id":"4","last_reported":1746551360,"current_range_meters":17200,"station_id":"ce4bhl12rcd13ifvqgf0","pricing_plan_id":"cebpf4jnsgd1na2vs0mg"},{"bike_id":"28fa383c-d452-4713-8bdb-2e6881fe27d4","system_id":"levelo_inurba_marseille","lat":43.31117,"lon":5.37771,"is_reserved":false,"is_disabled":false,"rental_uris":{"android":"levelo://app?vid=28fa383c-d452-4713-8bdb-2e6881fe27d4","ios":"levelo://app?vid=28fa383c-d452-4713-8bdb-2e6881fe27d4"},"vehicle_type_id":"4","last_reported":1746551360,"current_range_meters":17600,"station_id":"","pricing_plan_id":"cebpf4jnsgd1na2vs0mg"},{"bike_id":"38cb66d2-55ae-4cf9-b9b1-5ff2cf6fd1ef","system_id":"levelo_inurba_marseille","lat":43.30302,"lon":5.36875,"is_reserved":false,"is_disabled":false,"rental_uris":{"android":"levelo://app?vid=38cb66d2-55ae-4cf9-b9b1-5ff2cf6fd1ef","ios":"levelo://app?vid=38cb66d2-55ae-4cf9-b9b1-5ff2cf6fd1ef"},"vehicle_type_id":"4","last_reported":1746551360,"current_range_meters":17600,"station_id":"ce4bgqh2rcd13ifvqc5g","pricing_plan_id":"cebpf4jnsgd1na2vs0mg"},{"bike_id":"d28ea3c6-633b-42d8-8eb3-5bdfab5dd246","system_id":"levelo_inurba_marseille","lat":43.31489,"lon":5.37307,"is_reserved":false,"is_disabled":false,"rental_uris":{"android":"levelo://app?vid=d28ea3c6-633b-42d8-8eb3-5bdfab5dd246","ios":"levelo://app?vid=d28ea3c6-633b-42d8-8eb3-5bdfab5dd246"},"vehicle_type_id":"4","last_reported":1746551360,"current_range_meters":17600,"station_id":"ce4bgt12rcd13ifvqcd0","pricing_plan_id":"cebpf4jnsgd1na2vs0mg"},{"bike_id":"e0786dd7-702b-4cae-aa99-2a6db6952679","system_id":"levelo_inurba_marseille","lat":43.26569,"lon":5.39015,"is_reserved":false,"is_disabled":false,"rental_uris":{"android":"levelo://app?vid=e0786dd7-702b-4cae-aa99-2a6db6952679","ios":"levelo://app?vid=e0786dd7-702b-4cae-aa99-2a6db6952679"},"vehicle_type_id":"4","last_reported":1746551360,"current_range_meters":17600,"station_id":"ce4bhe12rcd13ifvqf30","pricing_plan_id":"cebpf4jnsgd1na2vs0mg"},{"bike_id":"0271d7ed-1741-474d-9d01-a51e373fe520","system_id":"levelo_inurba_marseille","lat":43.26191,"lon":5.37454,"is_reserved":false,"is_disabled":false,"rental_uris":{"android":"levelo://app?vid=0271d7ed-1741-474d-9d01-a51e373fe520","ios":"levelo://app?vid=0271d7ed-1741-474d-9d01-a51e373fe520"},"vehicle_type_id":"4","last_reported":1746551360,"current_range_meters":17600,"station_id":"ce4bhgp2rcd13ifvqfc0","pricing_plan_id":"cebpf4jnsgd1na2vs0mg"},{"bike_id":"8797f1e6-03ea-423b-81c1-55e0e40cd331","system_id":"levelo_inurba_marseille","lat":43.28702,"lon":5.39988,"is_reserved":false,"is_disabled":false,"rental_uris":{"android":"levelo://app?vid=8797f1e6-03ea-423b-81c1-55e0e40cd331","ios":"levelo://app?vid=8797f1e6-03ea-423b-81c1-55e0e40cd331"},"vehicle_type_id":"4","last_reported":1746551360,"current_range_meters":17600,"station_id":"ce4bho92rcd13ifvqh3g","pricing_plan_id":"cebpf4jnsgd1na2vs0mg"},{"bike_id":"ac700e2e-c129-4f82-a3c3-f628077933a6","system_id":"levelo_inurba_marseille","lat":43.212024,"lon":5.350756,"is_reserved":false,"is_disabled":false,"rental_uris":{"android":"levelo://app?vid=ac700e2e-c129-4f82-a3c3-f628077933a6","ios":"levelo://app?vid=ac700e2e-c129-4f82-a3c3-f628077933a6"},"vehicle_type_id":"4","last_reported":1746551360,"current_range_meters":17600,"station_id":"st_cvj6sg6p6f1abm77japg","pricing_plan_id":"cebpf4jnsgd1na2vs0mg"},{"bike_id":"e5f3454b-79e9-4080-85df-b6f401bcc25b","system_id":"levelo_inurba_marseille","lat":43.29261,"lon":5.38429,"is_reserved":false,"is_disabled":false,"rental_uris":{"android":"levelo://app?vid=e5f3454b-79e9-4080-85df-b6f401bcc25b","ios":"levelo://app?vid=e5f3454b-79e9-4080-85df-b6f401bcc25b"},"vehicle_type_id":"4","last_reported":1746551360,"current_range_meters":18000,"station_id":"ce4bh692rcd13ifvqea0","pricing_plan_id":"cebpf4jnsgd1na2vs0mg"},{"bike_id":"02c3f926-1654-43a5-bdd5-0ab5d6602055","system_id":"levelo_inurba_marseille","lat":43.28264,"lon":5.35099,"is_reserved":false,"is_disabled":false,"rental_uris":{"android":"levelo://app?vid=02c3f926-1654-43a5-bdd5-0ab5d6602055","ios":"levelo://app?vid=02c3f926-1654-43a5-bdd5-0ab5d6602055"},"vehicle_type_id":"4","last_reported":1746551360,"current_range_meters":18000,"station_id":"ce4bhbp2rcd13ifvqerg","pricing_plan_id":"cebpf4jnsgd1na2vs0mg"},{"bike_id":"a73b2e20-3c86-499a-b909-1082c8030ca4","system_id":"levelo_inurba_marseille","lat":43.295543,"lon":5.422906,"is_reserved":false,"is_disabled":false,"rental_uris":{"android":"levelo://app?vid=a73b2e20-3c86-499a-b909-1082c8030ca4","ios":"levelo://app?vid=a73b2e20-3c86-499a-b909-1082c8030ca4"},"vehicle_type_id":"4","last_reported":1746551360,"current_range_meters":18000,"station_id":"ce4bhph2rcd13ifvqhdg","pricing_plan_id":"cebpf4jnsgd1na2vs0mg"},{"bike_id":"159b775d-3fa5-41bd-abd4-984929f44dfc","system_id":"levelo_inurba_marseille","lat":43.308,"lon":5.38153,"is_reserved":false,"is_disabled":false,"rental_uris":{"android":"levelo://app?vid=159b775d-3fa5-41bd-abd4-984929f44dfc","ios":"levelo://app?vid=159b775d-3fa5-41bd-abd4-984929f44dfc"},"vehicle_type_id":"4","last_reported":1746551360,"current_range_meters":18800,"station_id":"ce4bgt12rcd13ifvqce0","pricing_plan_id":"cebpf4jnsgd1na2vs0mg"},{"bike_id":"1aff87bd-1be4-45c8-8cfb-341b864c108b","system_id":"levelo_inurba_marseille","lat":43.311236,"lon":5.377886,"is_reserved":false,"is_disabled":false,"rental_uris":{"android":"levelo://app?vid=1aff87bd-1be4-45c8-8cfb-341b864c108b","ios":"levelo://app?vid=1aff87bd-1be4-45c8-8cfb-341b864c108b"},"vehicle_type_id":"4","last_reported":1746551360,"current_range_meters":18800,"station_id":"ce4bgt92rcd13ifvqcg0","pricing_plan_id":"cebpf4jnsgd1na2vs0mg"},{"bike_id":"f07de64d-7f37-4cfc-8dbc-f5c1442d050e","system_id":"levelo_inurba_marseille","lat":43.31114,"lon":5.377695,"is_reserved":false,"is_disabled":false,"rental_uris":{"android":"levelo://app?vid=f07de64d-7f37-4cfc-8dbc-f5c1442d050e","ios":"levelo://app?vid=f07de64d-7f37-4cfc-8dbc-f5c1442d050e"},"vehicle_type_id":"4","last_reported":1746551360,"current_range_meters":18800,"station_id":"ce4bgt92rcd13ifvqcg0","pricing_plan_id":"cebpf4jnsgd1na2vs0mg"},{"bike_id":"cc7508ec-a5bb-4eb3-a1e9-62999ba79ab9","system_id":"levelo_inurba_marseille","lat":43.28662,"lon":5.36349,"is_reserved":false,"is_disabled":false,"rental_uris":{"android":"levelo://app?vid=cc7508ec-a5bb-4eb3-a1e9-62999ba79ab9","ios":"levelo://app?vid=cc7508ec-a5bb-4eb3-a1e9-62999ba79ab9"},"vehicle_type_id":"4","last_reported":1746551360,"current_range_meters":18800,"station_id":"ce4bhah2rcd13ifvqej0","pricing_plan_id":"cebpf4jnsgd1na2vs0mg"},{"bike_id":"f0cb7797-82b2-4e10-94cf-efb0a24accb3","system_id":"levelo_inurba_marseille","lat":43.29004,"lon":5.356158,"is_reserved":false,"is_disabled":false,"rental_uris":{"android":"levelo://app?vid=f0cb7797-82b2-4e10-94cf-efb0a24accb3","ios":"levelo://app?vid=f0cb7797-82b2-4e10-94cf-efb0a24accb3"},"vehicle_type_id":"4","last_reported":1746551360,"current_range_meters":18800,"station_id":"ce4bhb92rcd13ifvqen0","pricing_plan_id":"cebpf4jnsgd1na2vs0mg"},{"bike_id":"5717337c-b4f5-4e73-a23e-847a54144983","system_id":"levelo_inurba_marseille","lat":43.28615,"lon":5.351007,"is_reserved":false,"is_disabled":false,"rental_uris":{"android":"levelo://app?vid=5717337c-b4f5-4e73-a23e-847a54144983","ios":"levelo://app?vid=5717337c-b4f5-4e73-a23e-847a54144983"},"vehicle_type_id":"4","last_reported":1746551360,"current_range_meters":18800,"station_id":"ce4bhch2rcd13ifvqeug","pricing_plan_id":"cebpf4jnsgd1na2vs0mg"},{"bike_id":"4fa44a4d-c738-41bc-9022-213fbeae4065","system_id":"levelo_inurba_marseille","lat":43.23188,"lon":5.39984,"is_reserved":false,"is_disabled":false,"rental_uris":{"android":"levelo://app?vid=4fa44a4d-c738-41bc-9022-213fbeae4065","ios":"levelo://app?vid=4fa44a4d-c738-41bc-9022-213fbeae4065"},"vehicle_type_id":"4","last_reported":1746551360,"current_range_meters":18800,"station_id":"ce4bhn12rcd13ifvqgqg","pricing_plan_id":"cebpf4jnsgd1na2vs0mg"},{"bike_id":"5a95b7eb-b3f3-49ae-b4fe-69cfdcbcd15f","system_id":"levelo_inurba_marseille","lat":43.33753,"lon":5.39173,"is_reserved":false,"is_disabled":false,"rental_uris":{"android":"levelo://app?vid=5a95b7eb-b3f3-49ae-b4fe-69cfdcbcd15f","ios":"levelo://app?vid=5a95b7eb-b3f3-49ae-b4fe-69cfdcbcd15f"},"vehicle_type_id":"4","last_reported":1746551360,"current_range_meters":18800,"station_id":"ce4bhr92rcd13ifvqhsg","pricing_plan_id":"cebpf4jnsgd1na2vs0mg"},{"bike_id":"4fc70a1c-ca39-42a5-9724-c7f08d069c6e","system_id":"levelo_inurba_marseille","lat":43.28722,"lon":5.36082,"is_reserved":false,"is_disabled":false,"rental_uris":{"android":"levelo://app?vid=4fc70a1c-ca39-42a5-9724-c7f08d069c6e","ios":"levelo://app?vid=4fc70a1c-ca39-42a5-9724-c7f08d069c6e"},"vehicle_type_id":"4","last_reported":1746551360,"current_range_meters":18800,"station_id":"cki0cbj6b192h4jlfktg","pricing_plan_id":"cebpf4jnsgd1na2vs0mg"},{"bike_id":"f2cbc067-41f0-4d89-9249-18e658d9bae2","system_id":"levelo_inurba_marseille","lat":43.29197,"lon":5.39325,"is_reserved":false,"is_disabled":false,"rental_uris":{"android":"levelo://app?vid=f2cbc067-41f0-4d89-9249-18e658d9bae2","ios":"levelo://app?vid=f2cbc067-41f0-4d89-9249-18e658d9bae2"},"vehicle_type_id":"4","last_reported":1746551360,"current_range_meters":19200,"station_id":"ce4bh192rcd13ifvqdd0","pricing_plan_id":"cebpf4jnsgd1na2vs0mg"},{"bike_id":"08708708-1c46-4676-b7b1-6fd7123c6b41","system_id":"levelo_inurba_marseille","lat":43.28682,"lon":5.38659,"is_reserved":false,"is_disabled":false,"rental_uris":{"android":"levelo://app?vid=08708708-1c46-4676-b7b1-6fd7123c6b41","ios":"levelo://app?vid=08708708-1c46-4676-b7b1-6fd7123c6b41"},"vehicle_type_id":"4","last_reported":1746551360,"current_range_meters":19600,"station_id":"ce4bh492rcd13ifvqdug","pricing_plan_id":"cebpf4jnsgd1na2vs0mg"},{"bike_id":"893351da-e362-46d6-96c5-859398234f92","system_id":"levelo_inurba_marseille","lat":43.28925,"lon":5.36399,"is_reserved":false,"is_disabled":false,"rental_uris":{"android":"levelo://app?vid=893351da-e362-46d6-96c5-859398234f92","ios":"levelo://app?vid=893351da-e362-46d6-96c5-859398234f92"},"vehicle_type_id":"4","last_reported":1746551360,"current_range_meters":19600,"station_id":"ce4bhc92rcd13ifvqetg","pricing_plan_id":"cebpf4jnsgd1na2vs0mg"},{"bike_id":"86aac975-5efa-4471-b431-8ed509ade609","system_id":"levelo_inurba_marseille","lat":43.28643,"lon":5.35118,"is_reserved":false,"is_disabled":false,"rental_uris":{"android":"levelo://app?vid=86aac975-5efa-4471-b431-8ed509ade609","ios":"levelo://app?vid=86aac975-5efa-4471-b431-8ed509ade609"},"vehicle_type_id":"4","last_reported":1746551360,"current_range_meters":19600,"station_id":"ce4bhch2rcd13ifvqeug","pricing_plan_id":"cebpf4jnsgd1na2vs0mg"},{"bike_id":"b02dd700-e1d0-4736-93d7-81d9f5d4b73b","system_id":"levelo_inurba_marseille","lat":43.25112,"lon":5.4032,"is_reserved":false,"is_disabled":false,"rental_uris":{"android":"levelo://app?vid=b02dd700-e1d0-4736-93d7-81d9f5d4b73b","ios":"levelo://app?vid=b02dd700-e1d0-4736-93d7-81d9f5d4b73b"},"vehicle_type_id":"4","last_reported":1746551360,"current_range_meters":19600,"station_id":"ce4bhlh2rcd13ifvqgig","pricing_plan_id":"cebpf4jnsgd1na2vs0mg"},{"bike_id":"bcabf015-c252-4c13-a19f-3682baa5f662","system_id":"levelo_inurba_marseille","lat":43.29576,"lon":5.36738,"is_reserved":false,"is_disabled":false,"rental_uris":{"android":"levelo://app?vid=bcabf015-c252-4c13-a19f-3682baa5f662","ios":"levelo://app?vid=bcabf015-c252-4c13-a19f-3682baa5f662"},"vehicle_type_id":"4","last_reported":1746551360,"current_range_meters":20000,"station_id":"ce4bgph2rcd13ifvqc2g","pricing_plan_id":"cebpf4jnsgd1na2vs0mg"},{"bike_id":"6de6857b-6786-4eb0-aede-91f98e73c63b","system_id":"levelo_inurba_marseille","lat":43.30133,"lon":5.39902,"is_reserved":false,"is_disabled":false,"rental_uris":{"android":"levelo://app?vid=6de6857b-6786-4eb0-aede-91f98e73c63b","ios":"levelo://app?vid=6de6857b-6786-4eb0-aede-91f98e73c63b"},"vehicle_type_id":"4","last_reported":1746551360,"current_range_meters":20000,"station_id":"ce4bh0h2rcd13ifvqd40","pricing_plan_id":"cebpf4jnsgd1na2vs0mg"},{"bike_id":"7c9d6f23-cabf-4e6c-a827-d653d272df41","system_id":"levelo_inurba_marseille","lat":43.28459,"lon":5.35884,"is_reserved":false,"is_disabled":false,"rental_uris":{"android":"levelo://app?vid=7c9d6f23-cabf-4e6c-a827-d653d272df41","ios":"levelo://app?vid=7c9d6f23-cabf-4e6c-a827-d653d272df41"},"vehicle_type_id":"4","last_reported":1746551360,"current_range_meters":20000,"station_id":"ce4bhah2rcd13ifvqei0","pricing_plan_id":"cebpf4jnsgd1na2vs0mg"},{"bike_id":"ced1369b-c3b8-4484-832b-2dc47996891f","system_id":"levelo_inurba_marseille","lat":43.26568,"lon":5.39011,"is_reserved":false,"is_disabled":false,"rental_uris":{"android":"levelo://app?vid=ced1369b-c3b8-4484-832b-2dc47996891f","ios":"levelo://app?vid=ced1369b-c3b8-4484-832b-2dc47996891f"},"vehicle_type_id":"4","last_reported":1746551360,"current_range_meters":20000,"station_id":"ce4bhe12rcd13ifvqf30","pricing_plan_id":"cebpf4jnsgd1na2vs0mg"},{"bike_id":"22f1f948-3074-439a-9c82-3bf534b56faf","system_id":"levelo_inurba_marseille","lat":43.249937,"lon":5.389233,"is_reserved":false,"is_disabled":false,"rental_uris":{"android":"levelo://app?vid=22f1f948-3074-439a-9c82-3bf534b56faf","ios":"levelo://app?vid=22f1f948-3074-439a-9c82-3bf534b56faf"},"vehicle_type_id":"4","last_reported":1746551360,"current_range_meters":20000,"station_id":"ce4bhgp2rcd13ifvqfd0","pricing_plan_id":"cebpf4jnsgd1na2vs0mg"},{"bike_id":"240d9a8d-438c-4125-a4d0-a117f9918a18","system_id":"levelo_inurba_marseille","lat":43.24387,"lon":5.37061,"is_reserved":false,"is_disabled":false,"rental_uris":{"android":"levelo://app?vid=240d9a8d-438c-4125-a4d0-a117f9918a18","ios":"levelo://app?vid=240d9a8d-438c-4125-a4d0-a117f9918a18"},"vehicle_type_id":"4","last_reported":1746551360,"current_range_meters":20000,"station_id":"ce4bhhh2rcd13ifvqfk0","pricing_plan_id":"cebpf4jnsgd1na2vs0mg"},{"bike_id":"81dd1c4b-6a3b-4570-b1e2-1c9b93ab7410","system_id":"levelo_inurba_marseille","lat":43.22523,"lon":5.34773,"is_reserved":false,"is_disabled":false,"rental_uris":{"android":"levelo://app?vid=81dd1c4b-6a3b-4570-b1e2-1c9b93ab7410","ios":"levelo://app?vid=81dd1c4b-6a3b-4570-b1e2-1c9b93ab7410"},"vehicle_type_id":"4","last_reported":1746551360,"current_range_meters":20000,"station_id":"st_cvj5dfep6f1abm77gieg","pricing_plan_id":"cebpf4jnsgd1na2vs0mg"},{"bike_id":"9e8664e4-3822-486d-8503-e51599bcd4c3","system_id":"levelo_inurba_marseille","lat":43.31075,"lon":5.38358,"is_reserved":false,"is_disabled":false,"rental_uris":{"android":"levelo://app?vid=9e8664e4-3822-486d-8503-e51599bcd4c3","ios":"levelo://app?vid=9e8664e4-3822-486d-8503-e51599bcd4c3"},"vehicle_type_id":"4","last_reported":1746551360,"current_range_meters":20400,"station_id":"ce4bgv92rcd13ifvqcr0","pricing_plan_id":"cebpf4jnsgd1na2vs0mg"},{"bike_id":"e750194c-c3e8-42b1-900f-45ce2cb9970b","system_id":"levelo_inurba_marseille","lat":43.30323,"lon":5.40438,"is_reserved":false,"is_disabled":false,"rental_uris":{"android":"levelo://app?vid=e750194c-c3e8-42b1-900f-45ce2cb9970b","ios":"levelo://app?vid=e750194c-c3e8-42b1-900f-45ce2cb9970b"},"vehicle_type_id":"4","last_reported":1746551360,"current_range_meters":20400,"station_id":"ce4bh012rcd13ifvqd10","pricing_plan_id":"cebpf4jnsgd1na2vs0mg"},{"bike_id":"50df7c20-ad5d-450b-96f9-1f11d6614e2e","system_id":"levelo_inurba_marseille","lat":43.28104,"lon":5.37842,"is_reserved":false,"is_disabled":false,"rental_uris":{"android":"levelo://app?vid=50df7c20-ad5d-450b-96f9-1f11d6614e2e","ios":"levelo://app?vid=50df7c20-ad5d-450b-96f9-1f11d6614e2e"},"vehicle_type_id":"4","last_reported":1746551360,"current_range_meters":20400,"station_id":"ce4bha12rcd13ifvqee0","pricing_plan_id":"cebpf4jnsgd1na2vs0mg"},{"bike_id":"0781f13e-0dfe-47e4-82dc-884a777d577f","system_id":"levelo_inurba_marseille","lat":43.282768,"lon":5.35061,"is_reserved":false,"is_disabled":false,"rental_uris":{"android":"levelo://app?vid=0781f13e-0dfe-47e4-82dc-884a777d577f","ios":"levelo://app?vid=0781f13e-0dfe-47e4-82dc-884a777d577f"},"vehicle_type_id":"4","last_reported":1746551360,"current_range_meters":20400,"station_id":"ce4bhbp2rcd13ifvqerg","pricing_plan_id":"cebpf4jnsgd1na2vs0mg"},{"bike_id":"e245f4dc-9932-44fb-8fab-5d77ceb73b32","system_id":"levelo_inurba_marseille","lat":43.28037,"lon":5.36946,"is_reserved":false,"is_disabled":false,"rental_uris":{"android":"levelo://app?vid=e245f4dc-9932-44fb-8fab-5d77ceb73b32","ios":"levelo://app?vid=e245f4dc-9932-44fb-8fab-5d77ceb73b32"},"vehicle_type_id":"4","last_reported":1746551360,"current_range_meters":20800,"station_id":"ce4bha12rcd13ifvqef0","pricing_plan_id":"cebpf4jnsgd1na2vs0mg"},{"bike_id":"62598368-b9b0-4300-80f1-611ac36985db","system_id":"levelo_inurba_marseille","lat":43.2841,"lon":5.34983,"is_reserved":false,"is_disabled":false,"rental_uris":{"android":"levelo://app?vid=62598368-b9b0-4300-80f1-611ac36985db","ios":"levelo://app?vid=62598368-b9b0-4300-80f1-611ac36985db"},"vehicle_type_id":"4","last_reported":1746551360,"current_range_meters":20800,"station_id":"ce4bhbh2rcd13ifvqepg","pricing_plan_id":"cebpf4jnsgd1na2vs0mg"},{"bike_id":"d6a6b3f7-0ab3-4f09-a1d5-3a7427cbcc94","system_id":"levelo_inurba_marseille","lat":43.273256,"lon":5.390932,"is_reserved":false,"is_disabled":false,"rental_uris":{"android":"levelo://app?vid=d6a6b3f7-0ab3-4f09-a1d5-3a7427cbcc94","ios":"levelo://app?vid=d6a6b3f7-0ab3-4f09-a1d5-3a7427cbcc94"},"vehicle_type_id":"4","last_reported":1746551360,"current_range_meters":20800,"station_id":"ce4bhgp2rcd13ifvqfe0","pricing_plan_id":"cebpf4jnsgd1na2vs0mg"},{"bike_id":"24384f0e-408a-42ee-9dc0-46996d573e79","system_id":"levelo_inurba_marseille","lat":43.22503,"lon":5.34787,"is_reserved":false,"is_disabled":false,"rental_uris":{"android":"levelo://app?vid=24384f0e-408a-42ee-9dc0-46996d573e79","ios":"levelo://app?vid=24384f0e-408a-42ee-9dc0-46996d573e79"},"vehicle_type_id":"4","last_reported":1746551360,"current_range_meters":20800,"station_id":"st_cvj5dfep6f1abm77gieg","pricing_plan_id":"cebpf4jnsgd1na2vs0mg"},{"bike_id":"a3ed077e-760f-4bb6-b7f5-6ec386df71d4","system_id":"levelo_inurba_marseille","lat":43.217502,"lon":5.346078,"is_reserved":false,"is_disabled":false,"rental_uris":{"android":"levelo://app?vid=a3ed077e-760f-4bb6-b7f5-6ec386df71d4","ios":"levelo://app?vid=a3ed077e-760f-4bb6-b7f5-6ec386df71d4"},"vehicle_type_id":"4","last_reported":1746551360,"current_range_meters":20800,"station_id":"st_cvj6r9ubvosntc0bgbag","pricing_plan_id":"cebpf4jnsgd1na2vs0mg"},{"bike_id":"0068b426-1b42-41b6-baaf-ccd06d8de363","system_id":"levelo_inurba_marseille","lat":43.281,"lon":5.37859,"is_reserved":false,"is_disabled":false,"rental_uris":{"android":"levelo://app?vid=0068b426-1b42-41b6-baaf-ccd06d8de363","ios":"levelo://app?vid=0068b426-1b42-41b6-baaf-ccd06d8de363"},"vehicle_type_id":"4","last_reported":1746551360,"current_range_meters":21600,"station_id":"ce4bha12rcd13ifvqee0","pricing_plan_id":"cebpf4jnsgd1na2vs0mg"},{"bike_id":"8d2a63f0-b431-4633-81a3-bf42723fa0a3","system_id":"levelo_inurba_marseille","lat":43.27067,"lon":5.42281,"is_reserved":false,"is_disabled":false,"rental_uris":{"android":"levelo://app?vid=8d2a63f0-b431-4633-81a3-bf42723fa0a3","ios":"levelo://app?vid=8d2a63f0-b431-4633-81a3-bf42723fa0a3"},"vehicle_type_id":"4","last_reported":1746551360,"current_range_meters":21600,"station_id":"ce4bhk92rcd13ifvqgb0","pricing_plan_id":"cebpf4jnsgd1na2vs0mg"},{"bike_id":"5fde9f8f-7bfd-45cd-99fd-4f6020eb1e3f","system_id":"levelo_inurba_marseille","lat":43.308014,"lon":5.435362,"is_reserved":false,"is_disabled":false,"rental_uris":{"android":"levelo://app?vid=5fde9f8f-7bfd-45cd-99fd-4f6020eb1e3f","ios":"levelo://app?vid=5fde9f8f-7bfd-45cd-99fd-4f6020eb1e3f"},"vehicle_type_id":"4","last_reported":1746551360,"current_range_meters":21600,"station_id":"ce4bhph2rcd13ifvqheg","pricing_plan_id":"cebpf4jnsgd1na2vs0mg"},{"bike_id":"63af6f78-57d5-4f3d-9494-a6d72ff84dc1","system_id":"levelo_inurba_marseille","lat":43.21187,"lon":5.35074,"is_reserved":false,"is_disabled":false,"rental_uris":{"android":"levelo://app?vid=63af6f78-57d5-4f3d-9494-a6d72ff84dc1","ios":"levelo://app?vid=63af6f78-57d5-4f3d-9494-a6d72ff84dc1"},"vehicle_type_id":"4","last_reported":1746551360,"current_range_meters":21600,"station_id":"st_cvj6sg6p6f1abm77japg","pricing_plan_id":"cebpf4jnsgd1na2vs0mg"},