{"last_updated":1687075671,"ttl":30,"version":"2.2","data":{"bikes":[{"bike_id":"7f565631-f165-4484-be99-e0ee3d4e4788","system_id":"levelo_inurba_marseille","lat":43.312239,"lon":5.368562,"is_reserved":false,"is_disabled":false,"rental_uris":{"android":"levelo://app?vid=7f565631-f165-4484-be99-e0ee3d4e4788","ios":"levelo://app?vid=7f565631-f165-4484-be99-e0ee3d4e4788"},"vehicle_type_id":"4","last_reported":1687075671,"current_range_meters":22400,"station_id":"ce4bgl92rcd13ifvqbq0","pricing_plan_id":"free"},{"bike_id":"833cc643-7a0b-43b4-8611-0dc0a866c5ca","system_id":"levelo_inurba_marseille","lat":43.312239,"lon":5.368562,"is_reserved":false,"is_disabled":false,"rental_uris":{"android":"levelo://app?vid=833cc643-7a0b-43b4-8611-0dc0a866c5ca","ios":"levelo://app?vid=833cc643-7a0b-43b4-8611-0dc0a866c5ca"},"vehicle_type_id":"4","last_reported":1687075671,"current_range_meters":29600,"station_id":"ce4bgl92rcd13ifvqbq0","pricing_plan_id":"free"},{"bike_id":"3de3f67c-ff60-4e62-91ec-9acb93562be9","system_id":"levelo_inurba_marseille","lat":43.312239,"lon":5.368562,"is_reserved":false,"is_disabled":false,"rental_uris":{"android":"levelo://app?vid=3de3f67c-ff60-4e62-91ec-9acb93562be9","ios":"levelo://app?vid=3de3f67c-ff60-4e62-91ec-9acb93562be9"},"vehicle_type_id":"4","last_reported":1687075671,"current_range_meters":800,"station_id":"ce4bgl92rcd13ifvqbq0","pricing_plan_id":"free"},{"bike_id":"723fca23-d0f2-4527-a128-a90699448ccd","system_id":"levelo_inurba_marseille","lat":43.312239,"lon":5.368562,"is_reserved":false,"is_disabled":false,"rental_uris":{"android":"levelo://app?vid=723fca23-d0f2-4527-a128-a90699448ccd","ios":"levelo://app?vid=723fca23-d0f2-4527-a128-a90699448ccd"},"vehicle_type_id":"4","last_reported":1687075671,"current_range_meters":29600,"station_id":"ce4bgl92rcd13ifvqbq0","pricing_plan_id":"free"},{"bike_id":"941f5c2b-2e54-43c8-947e-bb01de9380b3","system_id":"levelo_inurba_marseille","lat":43.314811,"lon":5.373103,"is_reserved":false,"is_disabled":false,"rental_uris":{"android":"levelo://app?vid=941f5c2b-2e54-43c8-947e-bb01de9380b3","ios":"levelo://app?vid=941f5c2b-2e54-43c8-947e-bb01de9380b3"},"vehicle_type_id":"4","last_reported":1687075671,"current_range_meters":28400,"station_id":"ce4bgt12rcd13ifvqcd0","pricing_plan_id":"free"},{"bike_id":"9c746439-937e-436d-8c66-cb90c42aae7f","system_id":"levelo_inurba_marseille","lat":43.31418,"lon":5.37351,"is_reserved":false,"is_disabled":false,"rental_uris":{"android":"levelo://app?vid=9c746439-937e-436d-8c66-cb90c42aae7f","ios":"levelo://app?vid=9c746439-937e-436d-8c66-cb90c42aae7f"},"vehicle_type_id":"4","last_reported":1687075671,"current_range_meters":26000,"station_id":"","pricing_plan_id":"free"},{"bike_id":"d914db77-80a8-47e7-ad64-8d7391a0e4da","system_id":"levelo_inurba_marseille","lat":43.315,"lon":5.37308,"is_reserved":false,"is_disabled":false,"rental_uris":{"android":"levelo://app?vid=d914db77-80a8-47e7-ad64-8d7391a0e4da","ios":"levelo://app?vid=d914db77-80a8-47e7-ad64-8d7391a0e4da"},"vehicle_type_id":"4","last_reported":1687075671,"current_range_meters":0,"station_id":"ce4bgt12rcd13ifvqcd0","pricing_plan_id":"free"},{"bike_id":"bc5dfdcd-9f3f-442f-8ff0-f90c18be3eef","system_id":"levelo_inurba_marseille","lat":43.30805,"lon":5.37045,"is_reserved":false,"is_disabled":false,"rental_uris":{"android":"levelo://app?vid=bc5dfdcd-9f3f-442f-8ff0-f90c18be3eef","ios":"levelo://app?vid=bc5dfdcd-9f3f-442f-8ff0-f90c18be3eef"},"vehicle_type_id":"4","last_reported":1687075671,"current_range_meters":0,"station_id":"","pricing_plan_id":"free"},{"bike_id":"0071e803-533c-4e83-ab82-65077a289e0c","system_id":"levelo_inurba_marseille","lat":43.30574,"lon":5.36541,"is_reserved":false,"is_disabled":false,"rental_uris":{"android":"levelo://app?vid=0071e803-533c-4e83-ab82-65077a289e0c","ios":"levelo://app?vid=0071e803-533c-4e83-ab82-65077a289e0c"},"vehicle_type_id":"4","last_reported":1687075671,"current_range_meters":0,"station_id":"","pricing_plan_id":"free"},{"bike_id":"d73fb3a4-2f79-49b2-a6ff-b4c05864a894","system_id":"levelo_inurba_marseille","lat":43.305368,"lon":5.367343,"is_reserved":false,"is_disabled":false,"rental_uris":{"android":"levelo://app?vid=d73fb3a4-2f79-49b2-a6ff-b4c05864a894","ios":"levelo://app?vid=d73fb3a4-2f79-49b2-a6ff-b4c05864a894"},"vehicle_type_id":"4","last_reported":1687075671,"current_range_meters":22800,"station_id":"ce4bgrp2rcd13ifvqc9g","pricing_plan_id":"free"},{"bike_id":"ee89a7ef-afa2-48f3-9ef8-a136738c3a20","system_id":"levelo_inurba_marseille","lat":43.305706,"lon":5.365654,"is_reserved":false,"is_disabled":false,"rental_uris":{"android":"levelo://app?vid=ee89a7ef-afa2-48f3-9ef8-a136738c3a20","ios":"levelo://app?vid=ee89a7ef-afa2-48f3-9ef8-a136738c3a20"},"vehicle_type_id":"4","last_reported":1687075671,"current_range_meters":31200,"station_id":"ce4bgs12rcd13ifvqcag","pricing_plan_id":"free"},{"bike_id":"d7210806-7dfb-4344-a5bd-402ad073b5b9","system_id":"levelo_inurba_marseille","lat":43.305706,"lon":5.365654,"is_reserved":false,"is_disabled":false,"rental_uris":{"android":"levelo://app?vid=d7210806-7dfb-4344-a5bd-402ad073b5b9","ios":"levelo://app?vid=d7210806-7dfb-4344-a5bd-402ad073b5b9"},"vehicle_type_id":"4","last_reported":1687075671,"current_range_meters":13200,"station_id":"ce4bgs12rcd13ifvqcag","pricing_plan_id":"free"},{"bike_id":"a28d60f7-4a5d-4a53-b37f-297bac07b940","system_id":"levelo_inurba_marseille","lat":43.305706,"lon":5.365654,"is_reserved":false,"is_disabled":false,"rental_uris":{"android":"levelo://app?vid=a28d60f7-4a5d-4a53-b37f-297bac07b940","ios":"levelo://app?vid=a28d60f7-4a5d-4a53-b37f-297bac07b940"},"vehicle_type_id":"4","last_reported":1687075671,"current_range_meters":31200,"station_id":"ce4bgs12rcd13ifvqcag","pricing_plan_id":"free"},{"bike_id":"7abd5c73-5ed8-4d4f-8e93-c8cdcccb7e78","system_id":"levelo_inurba_marseille","lat":43.305706,"lon":5.365654,"is_reserved":false,"is_disabled":false,"rental_uris":{"android":"levelo://app?vid=7abd5c73-5ed8-4d4f-8e93-c8cdcccb7e78","ios":"levelo://app?vid=7abd5c73-5ed8-4d4f-8e93-c8cdcccb7e78"},"vehicle_type_id":"4","last_reported":1687075671,"current_range_meters":22800,"station_id":"ce4bgs12rcd13ifvqcag","pricing_plan_id":"free"},{"bike_id":"74da80e7-5212-4f65-b20e-4b3538db4609","system_id":"levelo_inurba_marseille","lat":43.305989,"lon":5.37225,"is_reserved":false,"is_disabled":false,"rental_uris":{"android":"levelo://app?vid=74da80e7-5212-4f65-b20e-4b3538db4609","ios":"levelo://app?vid=74da80e7-5212-4f65-b20e-4b3538db4609"},"vehicle_type_id":"4","last_reported":1687075671,"current_range_meters":20800,"station_id":"ce4bgqh2rcd13ifvqc4g","pricing_plan_id":"free"},{"bike_id":"505e4bd6-364a-43ca-8e61-cbb867058604","system_id":"levelo_inurba_marseille","lat":43.305989,"lon":5.37225,"is_reserved":false,"is_disabled":false,"rental_uris":{"android":"levelo://app?vid=505e4bd6-364a-43ca-8e61-cbb867058604","ios":"levelo://app?vid=505e4bd6-364a-43ca-8e61-cbb867058604"},"vehicle_type_id":"4","last_reported":1687075671,"current_range_meters":20800,"station_id":"ce4bgqh2rcd13ifvqc4g","pricing_plan_id":"free"},{"bike_id":"c80a2ace-c699-4c19-a46a-bda66b35bf51","system_id":"levelo_inurba_marseille","lat":43.30592,"lon":5.37219,"is_reserved":false,"is_disabled":false,"rental_uris":{"android":"levelo://app?vid=c80a2ace-c699-4c19-a46a-bda66b35bf51","ios":"levelo://app?vid=c80a2ace-c699-4c19-a46a-bda66b35bf51"},"vehicle_type_id":"4","last_reported":1687075671,"current_range_meters":31200,"station_id":"ce4bgqh2rcd13ifvqc4g","pricing_plan_id":"free"},{"bike_id":"81f6f95d-2fb7-4e41-a65d-302cf42482d1","system_id":"levelo_inurba_marseille","lat":43.31115,"lon":5.37755,"is_reserved":false,"is_disabled":false,"rental_uris":{"android":"levelo://app?vid=81f6f95d-2fb7-4e41-a65d-302cf42482d1","ios":"levelo://app?vid=81f6f95d-2fb7-4e41-a65d-302cf42482d1"},"vehicle_type_id":"4","last_reported":1687075671,"current_range_meters":31200,"station_id":"ce4bgt92rcd13ifvqcg0","pricing_plan_id":"free"},{"bike_id":"76fa5610-05ac-4e06-ad92-76772f52bc44","system_id":"levelo_inurba_marseille","lat":43.31126,"lon":5.37758,"is_reserved":false,"is_disabled":false,"rental_uris":{"android":"levelo://app?vid=76fa5610-05ac-4e06-ad92-76772f52bc44","ios":"levelo://app?vid=76fa5610-05ac-4e06-ad92-76772f52bc44"},"vehicle_type_id":"4","last_reported":1687075671,"current_range_meters":22000,"station_id":"ce4bgt92rcd13ifvqcg0","pricing_plan_id":"free"},{"bike_id":"00ceb115-9360-4c81-9974-405cd0108abb","system_id":"levelo_inurba_marseille","lat":43.31129,"lon":5.37766,"is_reserved":false,"is_disabled":false,"rental_uris":{"android":"levelo://app?vid=00ceb115-9360-4c81-9974-405cd0108abb","ios":"levelo://app?vid=00ceb115-9360-4c81-9974-405cd0108abb"},"vehicle_type_id":"4","last_reported":1687075671,"current_range_meters":28800,"station_id":"ce4bgt92rcd13ifvqcg0","pricing_plan_id":"free"},{"bike_id":"ff809a52-c8c8-4c17-b4f9-30f22a540c0a","system_id":"levelo_inurba_marseille","lat":43.311125,"lon":5.377624,"is_reserved":false,"is_disabled":false,"rental_uris":{"android":"levelo://app?vid=ff809a52-c8c8-4c17-b4f9-30f22a540c0a","ios":"levelo://app?vid=ff809a52-c8c8-4c17-b4f9-30f22a540c0a"},"vehicle_type_id":"4","last_reported":1687075671,"current_range_meters":31200,"station_id":"ce4bgt92rcd13ifvqcg0","pricing_plan_id":"free"},{"bike_id":"a570d20f-6784-47db-b63a-0c489e10aa4c","system_id":"levelo_inurba_marseille","lat":43.311125,"lon":5.377624,"is_reserved":false,"is_disabled":false,"rental_uris":{"android":"levelo://app?vid=a570d20f-6784-47db-b63a-0c489e10aa4c","ios":"levelo://app?vid=a570d20f-6784-47db-b63a-0c489e10aa4c"},"vehicle_type_id":"4","last_reported":1687075671,"current_range_meters":31200,"station_id":"ce4bgt92rcd13ifvqcg0","pricing_plan_id":"free"},{"bike_id":"2424216c-0462-4ad0-b127-d0366c91b61c","system_id":"levelo_inurba_marseille","lat":43.31718,"lon":5.37721,"is_reserved":false,"is_disabled":false,"rental_uris":{"android":"levelo://app?vid=2424216c-0462-4ad0-b127-d0366c91b61c","ios":"levelo://app?vid=2424216c-0462-4ad0-b127-d0366c91b61c"},"vehicle_type_id":"4","last_reported":1687075671,"current_range_meters":29200,"station_id":"ce4bgth2rcd13ifvqch0","pricing_plan_id":"free"},{"bike_id":"3bbb518e-9a83-40f5-84e5-3a5e60f17226","system_id":"levelo_inurba_marseille","lat":43.317075,"lon":5.377367,"is_reserved":false,"is_disabled":false,"rental_uris":{"android":"levelo://app?vid=3bbb518e-9a83-40f5-84e5-3a5e60f17226","ios":"levelo://app?vid=3bbb518e-9a83-40f5-84e5-3a5e60f17226"},"vehicle_type_id":"4","last_reported":1687075671,"current_range_meters":25200,"station_id":"ce4bgth2rcd13ifvqch0","pricing_plan_id":"free"},{"bike_id":"03c63a22-5af4-4731-b58c-68faf2f7a292","system_id":"levelo_inurba_marseille","lat":43.31953,"lon":5.37473,"is_reserved":false,"is_disabled":false,"rental_uris":{"android":"levelo://app?vid=03c63a22-5af4-4731-b58c-68faf2f7a292","ios":"levelo://app?vid=03c63a22-5af4-4731-b58c-68faf2f7a292"},"vehicle_type_id":"4","last_reported":1687075671,"current_range_meters":29600,"station_id":"","pricing_plan_id":"free"},{"bike_id":"142ea6ff-5a56-4e78-a0fb-fc43c2431b5c","system_id":"levelo_inurba_marseille","lat":43.31713,"lon":5.37779,"is_reserved":false,"is_disabled":false,"rental_uris":{"android":"levelo://app?vid=142ea6ff-5a56-4e78-a0fb-fc43c2431b5c","ios":"levelo://app?vid=142ea6ff-5a56-4e78-a0fb-fc43c2431b5c"},"vehicle_type_id":"4","last_reported":1687075671,"current_range_meters":28800,"station_id":"","pricing_plan_id":"free"},{"bike_id":"0b8481c1-4338-452f-99c5-1b7dcbe5d4f8","system_id":"levelo_inurba_marseille","lat":43.303046,"lon":5.368981,"is_reserved":false,"is_disabled":false,"rental_uris":{"android":"levelo://app?vid=0b8481c1-4338-452f-99c5-1b7dcbe5d4f8","ios":"levelo://app?vid=0b8481c1-4338-452f-99c5-1b7dcbe5d4f8"},"vehicle_type_id":"4","last_reported":1687075671,"current_range_meters":4800,"station_id":"ce4bgqh2rcd13ifvqc5g","pricing_plan_id":"free"},{"bike_id":"050d6b4c-8e6d-460b-a1dc-ed3e403a7d3d","system_id":"levelo_inurba_marseille","lat":43.303046,"lon":5.368981,"is_reserved":false,"is_disabled":false,"rental_uris":{"android":"levelo://app?vid=050d6b4c-8e6d-460b-a1dc-ed3e403a7d3d","ios":"levelo://app?vid=050d6b4c-8e6d-460b-a1dc-ed3e403a7d3d"},"vehicle_type_id":"4","last_reported":1687075671,"current_range_meters":29600,"station_id":"ce4bgqh2rcd13ifvqc5g","pricing_plan_id":"free"},{"bike_id":"94107f06-e304-40bf-9c9b-91d6304d67c0","system_id":"levelo_inurba_marseille","lat":43.315289,"lon":5.380349,"is_reserved":false,"is_disabled":false,"rental_uris":{"android":"levelo://app?vid=94107f06-e304-40bf-9c9b-91d6304d67c0","ios":"levelo://app?vid=94107f06-e304-40bf-9c9b-91d6304d67c0"},"vehicle_type_id":"4","last_reported":1687075671,"current_range_meters":16800,"station_id":"ce4bhsp2rcd13ifvqi50","pricing_plan_id":"free"},{"bike_id":"8d51db3c-ddf0-4868-a42f-0868b9c8ed86","system_id":"levelo_inurba_marseille","lat":43.31538,"lon":5.38032,"is_reserved":false,"is_disabled":false,"rental_uris":{"android":"levelo://app?vid=8d51db3c-ddf0-4868-a42f-0868b9c8ed86","ios":"levelo://app?vid=8d51db3c-ddf0-4868-a42f-0868b9c8ed86"},"vehicle_type_id":"4","last_reported":1687075671,"current_range_meters":30800,"station_id":"ce4bhsp2rcd13ifvqi50","pricing_plan_id":"free"},{"bike_id":"54105187-4d93-4d9f-90b5-aa0b4942a62d","system_id":"levelo_inurba_marseille","lat":43.315289,"lon":5.380349,"is_reserved":false,"is_disabled":false,"rental_uris":{"android":"levelo://app?vid=54105187-4d93-4d9f-90b5-aa0b4942a62d","ios":"levelo://app?vid=54105187-4d93-4d9f-90b5-aa0b4942a62d"},"vehicle_type_id":"4","last_reported":1687075671,"current_range_meters":30400,"station_id":"ce4bhsp2rcd13ifvqi50","pricing_plan_id":"free"},{"bike_id":"cada2054-cd0b-4ffd-b35d-70e3683fc5a7","system_id":"levelo_inurba_marseille","lat":43.315293,"lon":5.380349,"is_reserved":false,"is_disabled":false,"rental_uris":{"android":"levelo://app?vid=cada2054-cd0b-4ffd-b35d-70e3683fc5a7","ios":"levelo://app?vid=cada2054-cd0b-4ffd-b35d-70e3683fc5a7"},"vehicle_type_id":"4","last_reported":1687075671,"current_range_meters":28000,"station_id":"ce4bhsp2rcd13ifvqi50","pricing_plan_id":"free"},{"bike_id":"d4825d2c-2fbc-4d09-ac0a-87be616d25f8","system_id":"levelo_inurba_marseille","lat":43.30171,"lon":5.36624,"is_reserved":false,"is_disabled":false,"rental_uris":{"android":"levelo://app?vid=d4825d2c-2fbc-4d09-ac0a-87be616d25f8","ios":"levelo://app?vid=d4825d2c-2fbc-4d09-ac0a-87be616d25f8"},"vehicle_type_id":"4","last_reported":1687075671,"current_range_meters":4400,"station_id":"ce4bgrh2rcd13ifvqc8g","pricing_plan_id":"free"},{"bike_id":"ae33307b-fcd5-479b-9ae1-9002ed226c6e","system_id":"levelo_inurba_marseille","lat":43.308012,"lon":5.381511,"is_reserved":false,"is_disabled":false,"rental_uris":{"android":"levelo://app?vid=ae33307b-fcd5-479b-9ae1-9002ed226c6e","ios":"levelo://app?vid=ae33307b-fcd5-479b-9ae1-9002ed226c6e"},"vehicle_type_id":"4","last_reported":1687075671,"current_range_meters":30800,"station_id":"ce4bgt12rcd13ifvqce0","pricing_plan_id":"free"},{"bike_id":"ee461953-85ce-40cd-8625-8a07bbb24295","system_id":"levelo_inurba_marseille","lat":43.308012,"lon":5.381511,"is_reserved":false,"is_disabled":false,"rental_uris":{"android":"levelo://app?vid=ee461953-85ce-40cd-8625-8a07bbb24295","ios":"levelo://app?vid=ee461953-85ce-40cd-8625-8a07bbb24295"},"vehicle_type_id":"4","last_reported":1687075671,"current_range_meters":25200,"station_id":"ce4bgt12rcd13ifvqce0","pricing_plan_id":"free"},{"bike_id":"2af58f89-da6c-4881-a491-0f999477af01","system_id":"levelo_inurba_marseille","lat":43.304606,"lon":5.379026,"is_reserved":false,"is_disabled":false,"rental_uris":{"android":"levelo://app?vid=2af58f89-da6c-4881-a491-0f999477af01","ios":"levelo://app?vid=2af58f89-da6c-4881-a491-0f999477af01"},"vehicle_type_id":"4","last_reported":1687075671,"current_range_meters":31200,"station_id":"ce4bgup2rcd13ifvqcn0","pricing_plan_id":"free"},{"bike_id":"9e5f4c10-ea50-4a32-a84d-11b8df68a189","system_id":"levelo_inurba_marseille","lat":43.304606,"lon":5.379026,"is_reserved":false,"is_disabled":false,"rental_uris":{"android":"levelo://app?vid=9e5f4c10-ea50-4a32-a84d-11b8df68a189","ios":"levelo://app?vid=9e5f4c10-ea50-4a32-a84d-11b8df68a189"},"vehicle_type_id":"4","last_reported":1687075671,"current_range_meters":28000,"station_id":"ce4bgup2rcd13ifvqcn0","pricing_plan_id":"free"},{"bike_id":"90673d94-9f73-4e56-88f7-3d56ffe099ae","system_id":"levelo_inurba_marseille","lat":43.3046,"lon":5.37902,"is_reserved":false,"is_disabled":false,"rental_uris":{"android":"levelo://app?vid=90673d94-9f73-4e56-88f7-3d56ffe099ae","ios":"levelo://app?vid=90673d94-9f73-4e56-88f7-3d56ffe099ae"},"vehicle_type_id":"4","last_reported":1687075671,"current_range_meters":25200,"station_id":"ce4bgup2rcd13ifvqcn0","pricing_plan_id":"free"},{"bike_id":"0f50bc38-376d-4bb7-ad7d-953ea3e74739","system_id":"levelo_inurba_marseille","lat":43.30458,"lon":5.37901,"is_reserved":false,"is_disabled":false,"rental_uris":{"android":"levelo://app?vid=0f50bc38-376d-4bb7-ad7d-953ea3e74739","ios":"levelo://app?vid=0f50bc38-376d-4bb7-ad7d-953ea3e74739"},"vehicle_type_id":"4","last_reported":1687075671,"current_range_meters":22400,"station_id":"ce4bgup2rcd13ifvqcn0","pricing_plan_id":"free"},{"bike_id":"43fc693e-f2a9-4aec-8fd9-d094bb02cb70","system_id":"levelo_inurba_marseille","lat":43.304606,"lon":5.379026,"is_reserved":false,"is_disabled":false,"rental_uris":{"android":"levelo://app?vid=43fc693e-f2a9-4aec-8fd9-d094bb02cb70","ios":"levelo://app?vid=43fc693e-f2a9-4aec-8fd9-d094bb02cb70"},"vehicle_type_id":"4","last_reported":1687075671,"current_range_meters":18400,"station_id":"ce4bgup2rcd13ifvqcn0","pricing_plan_id":"free"},{"bike_id":"e09f4f6c-6e9c-4c62-8dee-2839c1e646a2","system_id":"levelo_inurba_marseille","lat":43.30456,"lon":5.37902,"is_reserved":false,"is_disabled":false,"rental_uris":{"android":"levelo://app?vid=e09f4f6c-6e9c-4c62-8dee-2839c1e646a2","ios":"levelo://app?vid=e09f4f6c-6e9c-4c62-8dee-2839c1e646a2"},"vehicle_type_id":"4","last_reported":1687075671,"current_range_meters":29200,"station_id":"ce4bgup2rcd13ifvqcn0","pricing_plan_id":"free"},{"bike_id":"ede8fd9a-8e39-4e5b-b4e1-4b1ac522f932","system_id":"levelo_inurba_marseille","lat":43.3046,"lon":5.37908,"is_reserved":false,"is_disabled":false,"rental_uris":{"android":"levelo://app?vid=ede8fd9a-8e39-4e5b-b4e1-4b1ac522f932","ios":"levelo://app?vid=ede8fd9a-8e39-4e5b-b4e1-4b1ac522f932"},"vehicle_type_id":"4","last_reported":1687075671,"current_range_meters":30400,"station_id":"ce4bgup2rcd13ifvqcn0","pricing_plan_id":"free"},{"bike_id":"153b6a6d-6a74-4768-a482-d10d04572bbe","system_id":"levelo_inurba_marseille","lat":43.304606,"lon":5.379026,"is_reserved":false,"is_disabled":false,"rental_uris":{"android":"levelo://app?vid=153b6a6d-6a74-4768-a482-d10d04572bbe","ios":"levelo://app?vid=153b6a6d-6a74-4768-a482-d10d04572bbe"},"vehicle_type_id":"4","last_reported":1687075671,"current_range_meters":24000,"station_id":"ce4bgup2rcd13ifvqcn0","pricing_plan_id":"free"},{"bike_id":"d9f403ad-0894-4ea4-a2ff-e4309bd73b01","system_id":"levelo_inurba_marseille","lat":43.304606,"lon":5.379026,"is_reserved":false,"is_disabled":false,"rental_uris":{"android":"levelo://app?vid=d9f403ad-0894-4ea4-a2ff-e4309bd73b01","ios":"levelo://app?vid=d9f403ad-0894-4ea4-a2ff-e4309bd73b01"},"vehicle_type_id":"4","last_reported":1687075671,"current_range_meters":22800,"station_id":"ce4bgup2rcd13ifvqcn0","pricing_plan_id":"free"},{"bike_id":"40ecb688-5d63-43cc-81ef-bc92a7703ef5","system_id":"levelo_inurba_marseille","lat":43.304606,"lon":5.379026,"is_reserved":false,"is_disabled":false,"rental_uris":{"android":"levelo://app?vid=40ecb688-5d63-43cc-81ef-bc92a7703ef5","ios":"levelo://app?vid=40ecb688-5d63-43cc-81ef-bc92a7703ef5"},"vehicle_type_id":"4","last_reported":1687075671,"current_range_meters":16800,"station_id":"ce4bgup2rcd13ifvqcn0","pricing_plan_id":"free"},{"bike_id":"ae25242c-c1da-42c7-a52c-d68dce2ebdb6","system_id":"levelo_inurba_marseille","lat":43.302784,"lon":5.377158,"is_reserved":false,"is_disabled":false,"rental_uris":{"android":"levelo://app?vid=ae25242c-c1da-42c7-a52c-d68dce2ebdb6","ios":"levelo://app?vid=ae25242c-c1da-42c7-a52c-d68dce2ebdb6"},"vehicle_type_id":"4","last_reported":1687075671,"current_range_meters":27200,"station_id":"ce4bguh2rcd13ifvqcj0","pricing_plan_id":"free"},{"bike_id":"ed44baa6-1097-426f-b2df-9ef82c4d5a04","system_id":"levelo_inurba_marseille","lat":43.301429,"lon":5.37413,"is_reserved":false,"is_disabled":false,"rental_uris":{"android":"levelo://app?vid=ed44baa6-1097-426f-b2df-9ef82c4d5a04","ios":"levelo://app?vid=ed44baa6-1097-426f-b2df-9ef82c4d5a04"},"vehicle_type_id":"4","last_reported":1687075671,"current_range_meters":31200,"station_id":"ce4bgs92rcd13ifvqcc0","pricing_plan_id":"free"},{"bike_id":"485bc12e-b97d-460d-a761-3f26cdf7abb4","system_id":"levelo_inurba_marseille","lat":43.319935,"lon":5.381699,"is_reserved":false,"is_disabled":false,"rental_uris":{"android":"levelo://app?vid=485bc12e-b97d-460d-a761-3f26cdf7abb4","ios":"levelo://app?vid=485bc12e-b97d-460d-a761-3f26cdf7abb4"},"vehicle_type_id":"4","last_reported":1687075671,"current_range_meters":27600,"station_id":"ce4bhr12rcd13ifvqhpg","pricing_plan_id":"free"},{"bike_id":"40e7df5d-04d5-43a9-926f-863219d91841","system_id":"levelo_inurba_marseille","lat":43.319935,"lon":5.381699,"is_reserved":false,"is_disabled":false,"rental_uris":{"android":"levelo://app?vid=40e7df5d-04d5-43a9-926f-863219d91841","ios":"levelo://app?vid=40e7df5d-04d5-43a9-926f-863219d91841"},"vehicle_type_id":"4","last_reported":1687075671,"current_range_meters":29200,"station_id":"ce4bhr12rcd13ifvqhpg","pricing_plan_id":"free"},{"bike_id":"4c755050-5aed-45e0-9296-927fc41158ba","system_id":"levelo_inurba_marseille","lat":43.319935,"lon":5.381699,"is_reserved":false,"is_disabled":false,"rental_uris":{"android":"levelo://app?vid=4c755050-5aed-45e0-9296-927fc41158ba","ios":"levelo://app?vid=4c755050-5aed-45e0-9296-927fc41158ba"},"vehicle_type_id":"4","last_reported":1687075671,"current_range_meters":26400,"station_id":"ce4bhr12rcd13ifvqhpg","pricing_plan_id":"free"},{"bike_id":"3c3aa989-db63-4017-86a4-556c2b8f3d59","system_id":"levelo_inurba_marseille","lat":43.319935,"lon":5.381699,"is_reserved":false,"is_disabled":false,"rental_uris":{"android":"levelo://app?vid=3c3aa989-db63-4017-86a4-556c2b8f3d59","ios":"levelo://app?vid=3c3aa989-db63-4017-86a4-556c2b8f3d59"},"vehicle_type_id":"4","last_reported":1687075671,"current_range_meters":18800,"station_id":"ce4bhr12rcd13ifvqhpg","pricing_plan_id":"free"},{"bike_id":"1d47b2e2-b6b2-467e-89b2-30c2b3dd988b","system_id":"levelo_inurba_marseille","lat":43.31368,"lon":5.38508,"is_reserved":false,"is_disabled":false,"rental_uris":{"android":"levelo://app?vid=1d47b2e2-b6b2-467e-89b2-30c2b3dd988b","ios":"levelo://app?vid=1d47b2e2-b6b2-467e-89b2-30c2b3dd988b"},"vehicle_type_id":"4","last_reported":1687075671,"current_range_meters":12400,"station_id":"ce4bgt92rcd13ifvqcf0","pricing_plan_id":"free"},{"bike_id":"330412da-b9eb-49fa-9ba0-9288ee9ddd31","system_id":"levelo_inurba_marseille","lat":43.30046,"lon":5.37534,"is_reserved":false,"is_disabled":false,"rental_uris":{"android":"levelo://app?vid=330412da-b9eb-49fa-9ba0-9288ee9ddd31","ios":"levelo://app?vid=330412da-b9eb-49fa-9ba0-9288ee9ddd31"},"vehicle_type_id":"4","last_reported":1687075671,"current_range_meters":15600,"station_id":"","pricing_plan_id":"free"},{"bike_id":"691058ef-3225-465e-90fd-12f259766037","system_id":"levelo_inurba_marseille","lat":43.298433,"lon":5.362774,"is_reserved":false,"is_disabled":false,"rental_uris":{"android":"levelo://app?vid=691058ef-3225-465e-90fd-12f259766037","ios":"levelo://app?vid=691058ef-3225-465e-90fd-12f259766037"},"vehicle_type_id":"4","last_reported":1687075671,"current_range_meters":31600,"station_id":"ce4bgpp2rcd13ifvqc3g","pricing_plan_id":"free"},{"bike_id":"748c2fb6-6887-41cd-91c5-74fb8b130677","system_id":"levelo_inurba_marseille","lat":43.298433,"lon":5.362774,"is_reserved":false,"is_disabled":false,"rental_uris":{"android":"levelo://app?vid=748c2fb6-6887-41cd-91c5-74fb8b130677","ios":"levelo://app?vid=748c2fb6-6887-41cd-91c5-74fb8b130677"},"vehicle_type_id":"4","last_reported":1687075671,"current_range_meters":30400,"station_id":"ce4bgpp2rcd13ifvqc3g","pricing_plan_id":"free"},{"bike_id":"b6495f56-fb2a-48b5-b4af-6209b2768595","system_id":"levelo_inurba_marseille","lat":43.305364,"lon":5.384119,"is_reserved":false,"is_disabled":false,"rental_uris":{"android":"levelo://app?vid=b6495f56-fb2a-48b5-b4af-6209b2768595","ios":"levelo://app?vid=b6495f56-fb2a-48b5-b4af-6209b2768595"},"vehicle_type_id":"4","last_reported":1687075671,"current_range_meters":28400,"station_id":"ce4bgg92rcd13ifvqb30","pricing_plan_id":"free"},{"bike_id":"6179a3a9-9b13-4c55-84b6-fb9afc5ab5d9","system_id":"levelo_inurba_marseille","lat":43.299243,"lon":5.374807,"is_reserved":false,"is_disabled":false,"rental_uris":{"android":"levelo://app?vid=6179a3a9-9b13-4c55-84b6-fb9afc5ab5d9","ios":"levelo://app?vid=6179a3a9-9b13-4c55-84b6-fb9afc5ab5d9"},"vehicle_type_id":"4","last_reported":1687075671,"current_range_meters":26800,"station_id":"ce4bgjh2rcd13ifvqbg0","pricing_plan_id":"free"},{"bike_id":"25770cb1-3a99-48e9-8627-c0c87bcf7913","system_id":"levelo_inurba_marseille","lat":43.298433,"lon":5.362774,"is_reserved":false,"is_disabled":false,"rental_uris":{"android":"levelo://app?vid=25770cb1-3a99-48e9-8627-c0c87bcf7913","ios":"levelo://app?vid=25770cb1-3a99-48e9-8627-c0c87bcf7913"},"vehicle_type_id":"4","last_reported":1687075671,"current_range_meters":25600,"station_id":"ce4bgpp2rcd13ifvqc3g","pricing_plan_id":"free"},{"bike_id":"7180f0ad-7a5d-424a-b519-84480e387faf","system_id":"levelo_inurba_marseille","lat":43.29845,"lon":5.36275,"is_reserved":false,"is_disabled":false,"rental_uris":{"android":"levelo://app?vid=7180f0ad-7a5d-424a-b519-84480e387faf","ios":"levelo://app?vid=7180f0ad-7a5d-424a-b519-84480e387faf"},"vehicle_type_id":"4","last_reported":1687075671,"current_range_meters":28000,"station_id":"ce4bgpp2rcd13ifvqc3g","pricing_plan_id":"free"},{"bike_id":"33937691-a545-41b7-b0b2-52e4a239767f","system_id":"levelo_inurba_marseille","lat":43.298433,"lon":5.362774,"is_reserved":false,"is_disabled":false,"rental_uris":{"android":"levelo://app?vid=33937691-a545-41b7-b0b2-52e4a239767f","ios":"levelo://app?vid=33937691-a545-41b7-b0b2-52e4a239767f"},"vehicle_type_id":"4","last_reported":1687075671,"current_range_meters":29200,"station_id":"ce4bgpp2rcd13ifvqc3g","pricing_plan_id":"free"},{"bike_id":"4637b990-1e86-4cb4-b887-7325dc00c547","system_id":"levelo_inurba_marseille","lat":43.305364,"lon":5.384119,"is_reserved":false,"is_disabled":false,"rental_uris":{"android":"levelo://app?vid=4637b990-1e86-4cb4-b887-7325dc00c547","ios":"levelo://app?vid=4637b990-1e86-4cb4-b887-7325dc00c547"},"vehicle_type_id":"4","last_reported":1687075671,"current_range_meters":25200,"station_id":"ce4bgg92rcd13ifvqb30","pricing_plan_id":"free"},{"bike_id":"7c9be7e2-c3e6-4074-bfea-a88542bcbb7d","system_id":"levelo_inurba_marseille","lat":43.298433,"lon":5.362774,"is_reserved":false,"is_disabled":false,"rental_uris":{"android":"levelo://app?vid=7c9be7e2-c3e6-4074-bfea-a88542bcbb7d","ios":"levelo://app?vid=7c9be7e2-c3e6-4074-bfea-a88542bcbb7d"},"vehicle_type_id":"4","last_reported":1687075671,"current_range_meters":24000,"station_id":"ce4bgpp2rcd13ifvqc3g","pricing_plan_id":"free"},{"bike_id":"ba957c61-548f-43ba-868b-1f0bb86fd844","system_id":"levelo_inurba_marseille","lat":43.29782,"lon":5.37095,"is_reserved":false,"is_disabled":false,"rental_uris":{"android":"levelo://app?vid=ba957c61-548f-43ba-868b-1f0bb86fd844","ios":"levelo://app?vid=ba957c61-548f-43ba-868b-1f0bb86fd844"},"vehicle_type_id":"4","last_reported":1687075671,"current_range_meters":28400,"station_id":"ce4bgop2rcd13ifvqc1g","pricing_plan_id":"free"},{"bike_id":"e6aef004-006c-4f4f-bc78-d00ab72048d5","system_id":"levelo_inurba_marseille","lat":43.29782,"lon":5.37111,"is_reserved":false,"is_disabled":false,"rental_uris":{"android":"levelo://app?vid=e6aef004-006c-4f4f-bc78-d00ab72048d5","ios":"levelo://app?vid=e6aef004-006c-4f4f-bc78-d00ab72048d5"},"vehicle_type_id":"4","last_reported":1687075671,"current_range_meters":21600,"station_id":"ce4bgop2rcd13ifvqc1g","pricing_plan_id":"free"},{"bike_id":"d8eda6e4-f79f-4ded-bba3-de73394363f8","system_id":"levelo_inurba_marseille","lat":43.328371,"lon":5.366909,"is_reserved":false,"is_disabled":false,"rental_uris":{"android":"levelo://app?vid=d8eda6e4-f79f-4ded-bba3-de73394363f8","ios":"levelo://app?vid=d8eda6e4-f79f-4ded-bba3-de73394363f8"},"vehicle_type_id":"4","last_reported":1687075671,"current_range_meters":20800,"station_id":"ce4bhs92rcd13ifvqi0g","pricing_plan_id":"free"},{"bike_id":"dba9e30e-a749-43fa-a75b-51b691339771","system_id":"levelo_inurba_marseille","lat":43.328371,"lon":5.366909,"is_reserved":false,"is_disabled":false,"rental_uris":{"android":"levelo://app?vid=dba9e30e-a749-43fa-a75b-51b691339771","ios":"levelo://app?vid=dba9e30e-a749-43fa-a75b-51b691339771"},"vehicle_type_id":"4","last_reported":1687075671,"current_range_meters":31200,"station_id":"ce4bhs92rcd13ifvqi0g","pricing_plan_id":"free"},{"bike_id":"5a3d057e-bbd5-40c5-982e-f22c9ac8f3e3","system_id":"levelo_inurba_marseille","lat":43.328371,"lon":5.366909,"is_reserved":false,"is_disabled":false,"rental_uris":{"android":"levelo://app?vid=5a3d057e-bbd5-40c5-982e-f22c9ac8f3e3","ios":"levelo://app?vid=5a3d057e-bbd5-40c5-982e-f22c9ac8f3e3"},"vehicle_type_id":"4","last_reported":1687075671,"current_range_meters":2800,"station_id":"ce4bhs92rcd13ifvqi0g","pricing_plan_id":"free"},{"bike_id":"6d5ccf33-759a-4c7a-af82-9f67388b4177","system_id":"levelo_inurba_marseille","lat":43.328371,"lon":5.366909,"is_reserved":false,"is_disabled":false,"rental_uris":{"android":"levelo://app?vid=6d5ccf33-759a-4c7a-af82-9f67388b4177","ios":"levelo://app?vid=6d5ccf33-759a-4c7a-af82-9f67388b4177"},"vehicle_type_id":"4","last_reported":1687075671,"current_range_meters":30800,"station_id":"ce4bhs92rcd13ifvqi0g","pricing_plan_id":"free"},{"bike_id":"eb463cab-b54c-4ed2-a710-d6d777606789","system_id":"levelo_inurba_marseille","lat":43.328371,"lon":5.366909,"is_reserved":false,"is_disabled":false,"rental_uris":{"android":"levelo://app?vid=eb463cab-b54c-4ed2-a710-d6d777606789","ios":"levelo://app?vid=eb463cab-b54c-4ed2-a710-d6d777606789"},"vehicle_type_id":"4","last_reported":1687075671,"current_range_meters":18800,"station_id":"ce4bhs92rcd13ifvqi0g","pricing_plan_id":"free"},{"bike_id":"8ce6ec36-c402-41d9-b494-60c523b2e446","system_id":"levelo_inurba_marseille","lat":43.297163,"lon":5.365866,"is_reserved":false,"is_disabled":false,"rental_uris":{"android":"levelo://app?vid=8ce6ec36-c402-41d9-b494-60c523b2e446","ios":"levelo://app?vid=8ce6ec36-c402-41d9-b494-60c523b2e446"},"vehicle_type_id":"4","last_reported":1687075671,"current_range_meters":26400,"station_id":"ce4bgn12rcd13ifvqbt0","pricing_plan_id":"free"},{"bike_id":"69bf5c29-7e5d-45c7-b1b2-514d42707ee7","system_id":"levelo_inurba_marseille","lat":43.328371,"lon":5.366909,"is_reserved":false,"is_disabled":false,"rental_uris":{"android":"levelo://app?vid=69bf5c29-7e5d-45c7-b1b2-514d42707ee7","ios":"levelo://app?vid=69bf5c29-7e5d-45c7-b1b2-514d42707ee7"},"vehicle_type_id":"4","last_reported":1687075671,"current_range_meters":31200,"station_id":"ce4bhs92rcd13ifvqi0g","pricing_plan_id":"free"},{"bike_id":"3b343a5c-8423-476a-a7c8-83278a85a66d","system_id":"levelo_inurba_marseille","lat":43.328371,"lon":5.366909,"is_reserved":false,"is_disabled":false,"rental_uris":{"android":"levelo://app?vid=3b343a5c-8423-476a-a7c8-83278a85a66d","ios":"levelo://app?vid=3b343a5c-8423-476a-a7c8-83278a85a66d"},"vehicle_type_id":"4","last_reported":1687075671,"current_range_meters":800,"station_id":"ce4bhs92rcd13ifvqi0g","pricing_plan_id":"free"},{"bike_id":"731cce5d-c725-402d-b941-54910a08f036","system_id":"levelo_inurba_marseille","lat":43.32834,"lon":5.36686,"is_reserved":false,"is_disabled":false,"rental_uris":{"android":"levelo://app?vid=731cce5d-c725-402d-b941-54910a08f036","ios":"levelo://app?vid=731cce5d-c725-402d-b941-54910a08f036"},"vehicle_type_id":"4","last_reported":1687075671,"current_range_meters":31200,"station_id":"ce4bhs92rcd13ifvqi0g","pricing_plan_id":"free"},{"bike_id":"176f4894-d7fc-460e-aa5d-7c8c1e206dc3","system_id":"levelo_inurba_marseille","lat":43.297163,"lon":5.365866,"is_reserved":false,"is_disabled":false,"rental_uris":{"android":"levelo://app?vid=176f4894-d7fc-460e-aa5d-7c8c1e206dc3","ios":"levelo://app?vid=176f4894-d7fc-460e-aa5d-7c8c1e206dc3"},"vehicle_type_id":"4","last_reported":1687075671,"current_range_meters":12000,"station_id":"ce4bgn12rcd13ifvqbt0","pricing_plan_id":"free"},{"bike_id":"7305d8d9-7d56-41c2-ae77-869303774f4d","system_id":"levelo_inurba_marseille","lat":43.32837,"lon":5.3668,"is_reserved":false,"is_disabled":false,"rental_uris":{"android":"levelo://app?vid=7305d8d9-7d56-41c2-ae77-869303774f4d","ios":"levelo://app?vid=7305d8d9-7d56-41c2-ae77-869303774f4d"},"vehicle_type_id":"4","last_reported":1687075671,"current_range_meters":16400,"station_id":"ce4bhs92rcd13ifvqi0g","pricing_plan_id":"free"},{"bike_id":"dda6279d-c720-4a16-b12b-7a2eeb994a1a","system_id":"levelo_inurba_marseille","lat":43.297163,"lon":5.365866,"is_reserved":false,"is_disabled":false,"rental_uris":{"android":"levelo://app?vid=dda6279d-c720-4a16-b12b-7a2eeb994a1a","ios":"levelo://app?vid=dda6279d-c720-4a16-b12b-7a2eeb994a1a"},"vehicle_type_id":"4","last_reported":1687075671,"current_range_meters":0,"station_id":"ce4bgn12rcd13ifvqbt0","pricing_plan_id":"free"},{"bike_id":"88d0330c-5bb0-4a19-9b65-d4683b42e015","system_id":"levelo_inurba_marseille","lat":43.29683,"lon":5.36046,"is_reserved":false,"is_disabled":false,"rental_uris":{"android":"levelo://app?vid=88d0330c-5bb0-4a19-9b65-d4683b42e015","ios":"levelo://app?vid=88d0330c-5bb0-4a19-9b65-d4683b42e015"},"vehicle_type_id":"4","last_reported":1687075671,"current_range_meters":3600,"station_id":"","pricing_plan_id":"free"},{"bike_id":"36f1fec3-8fcf-47ce-b70d-a21aee193b91","system_id":"levelo_inurba_marseille","lat":43.29615,"lon":5.37146,"is_reserved":false,"is_disabled":false,"rental_uris":{"android":"levelo://app?vid=36f1fec3-8fcf-47ce-b70d-a21aee193b91","ios":"levelo://app?vid=36f1fec3-8fcf-47ce-b70d-a21aee193b91"},"vehicle_type_id":"4","last_reported":1687075671,"current_range_meters":30800,"station_id":"ce4bgk12rcd13ifvqbj0","pricing_plan_id":"free"},{"bike_id":"30fb9927-a13a-4518-8da5-e546e20849b6","system_id":"levelo_inurba_marseille","lat":43.29581,"lon":5.3674,"is_reserved":false,"is_disabled":false,"rental_uris":{"android":"levelo://app?vid=30fb9927-a13a-4518-8da5-e546e20849b6","ios":"levelo://app?vid=30fb9927-a13a-4518-8da5-e546e20849b6"},"vehicle_type_id":"4","last_reported":1687075671,"current_range_meters":11200,"station_id":"ce4bgph2rcd13ifvqc2g","pricing_plan_id":"free"},{"bike_id":"24f41ca5-b432-4feb-a0c8-a15026b97306","system_id":"levelo_inurba_marseille","lat":43.296131,"lon":5.370773,"is_reserved":false,"is_disabled":false,"rental_uris":{"android":"levelo://app?vid=24f41ca5-b432-4feb-a0c8-a15026b97306","ios":"levelo://app?vid=24f41ca5-b432-4feb-a0c8-a15026b97306"},"vehicle_type_id":"4","last_reported":1687075671,"current_range_meters":12800,"station_id":"ce4bgnh2rcd13ifvqc0g","pricing_plan_id":"free"},{"bike_id":"e7ba3014-7882-4336-8c1f-1a8931defcbf","system_id":"levelo_inurba_marseille","lat":43.29573,"lon":5.367355,"is_reserved":false,"is_disabled":false,"rental_uris":{"android":"levelo://app?vid=e7ba3014-7882-4336-8c1f-1a8931defcbf","ios":"levelo://app?vid=e7ba3014-7882-4336-8c1f-1a8931defcbf"},"vehicle_type_id":"4","last_reported":1687075671,"current_range_meters":30000,"station_id":"ce4bgph2rcd13ifvqc2g","pricing_plan_id":"free"},{"bike_id":"db5ca77a-dd8c-4e77-bc3b-a013e828b5ae","system_id":"levelo_inurba_marseille","lat":43.29573,"lon":5.367355,"is_reserved":false,"is_disabled":false,"rental_uris":{"android":"levelo://app?vid=db5ca77a-dd8c-4e77-bc3b-a013e828b5ae","ios":"levelo://app?vid=db5ca77a-dd8c-4e77-bc3b-a013e828b5ae"},"vehicle_type_id":"4","last_reported":1687075671,"current_range_meters":30400,"station_id":"ce4bgph2rcd13ifvqc2g","pricing_plan_id":"free"},{"bike_id":"cc4cfed6-9410-4838-8f26-a018eaf0c06d","system_id":"levelo_inurba_marseille","lat":43.299028,"lon":5.381509,"is_reserved":false,"is_disabled":false,"rental_uris":{"android":"levelo://app?vid=cc4cfed6-9410-4838-8f26-a018eaf0c06d","ios":"levelo://app?vid=cc4cfed6-9410-4838-8f26-a018eaf0c06d"},"vehicle_type_id":"4","last_reported":1687075671,"current_range_meters":19600,"station_id":"ce4bgj12rcd13ifvqbc0","pricing_plan_id":"free"},{"bike_id":"c330bf81-7662-4cc4-98c2-d16cb4df550f","system_id":"levelo_inurba_marseille","lat":43.309589,"lon":5.390258,"is_reserved":false,"is_disabled":false,"rental_uris":{"android":"levelo://app?vid=c330bf81-7662-4cc4-98c2-d16cb4df550f","ios":"levelo://app?vid=c330bf81-7662-4cc4-98c2-d16cb4df550f"},"vehicle_type_id":"4","last_reported":1687075671,"current_range_meters":25600,"station_id":"ce4bgup2rcd13ifvqco0","pricing_plan_id":"free"},{"bike_id":"c52d9d68-b043-48e5-b989-bf1a25946a12","system_id":"levelo_inurba_marseille","lat":43.299028,"lon":5.381509,"is_reserved":false,"is_disabled":false,"rental_uris":{"android":"levelo://app?vid=c52d9d68-b043-48e5-b989-bf1a25946a12","ios":"levelo://app?vid=c52d9d68-b043-48e5-b989-bf1a25946a12"},"vehicle_type_id":"4","last_reported":1687075671,"current_range_meters":28000,"station_id":"ce4bgj12rcd13ifvqbc0","pricing_plan_id":"free"},{"bike_id":"ff9ccb64-5426-43d5-afcf-f4ec02e013c3","system_id":"levelo_inurba_marseille","lat":43.30949,"lon":5.39043,"is_reserved":false,"is_disabled":false,"rental_uris":{"android":"levelo://app?vid=ff9ccb64-5426-43d5-afcf-f4ec02e013c3","ios":"levelo://app?vid=ff9ccb64-5426-43d5-afcf-f4ec02e013c3"},"vehicle_type_id":"4","last_reported":1687075671,"current_range_meters":23200,"station_id":"ce4bhoh2rcd13ifvqh6g","pricing_plan_id":"free"},{"bike_id":"c18824e4-26d3-48f7-af69-27c44319ec26","system_id":"levelo_inurba_marseille","lat":43.317557,"lon":5.390173,"is_reserved":false,"is_disabled":false,"rental_uris":{"android":"levelo://app?vid=c18824e4-26d3-48f7-af69-27c44319ec26","ios":"levelo://app?vid=c18824e4-26d3-48f7-af69-27c44319ec26"},"vehicle_type_id":"4","last_reported":1687075671,"current_range_meters":28400,"station_id":"ce4bhqp2rcd13ifvqhng","pricing_plan_id":"free"},{"bike_id":"4a10882c-7152-4233-bc08-3e7673adbd38","system_id":"levelo_inurba_marseille","lat":43.317557,"lon":5.390173,"is_reserved":false,"is_disabled":false,"rental_uris":{"android":"levelo://app?vid=4a10882c-7152-4233-bc08-3e7673adbd38","ios":"levelo://app?vid=4a10882c-7152-4233-bc08-3e7673adbd38"},"vehicle_type_id":"4","last_reported":1687075671,"current_range_meters":25600,"station_id":"ce4bhqp2rcd13ifvqhng","pricing_plan_id":"free"},{"bike_id":"dab115bf-1cab-4b8d-ad6a-67fda1d71234","system_id":"levelo_inurba_marseille","lat":43.31767,"lon":5.3901,"is_reserved":false,"is_disabled":false,"rental_uris":{"android":"levelo://app?vid=dab115bf-1cab-4b8d-ad6a-67fda1d71234","ios":"levelo://app?vid=dab115bf-1cab-4b8d-ad6a-67fda1d71234"},"vehicle_type_id":"4","last_reported":1687075671,"current_range_meters":25200,"station_id":"ce4bhqp2rcd13ifvqhng","pricing_plan_id":"free"},{"bike_id":"d89a6111-594c-4044-bab7-fa8ad5f81068","system_id":"levelo_inurba_marseille","lat":43.317557,"lon":5.390173,"is_reserved":false,"is_disabled":false,"rental_uris":{"android":"levelo://app?vid=d89a6111-594c-4044-bab7-fa8ad5f81068","ios":"levelo://app?vid=d89a6111-594c-4044-bab7-fa8ad5f81068"},"vehicle_type_id":"4","last_reported":1687075671,"current_range_meters":31200,"station_id":"ce4bhqp2rcd13ifvqhng","pricing_plan_id":"free"},{"bike_id":"f8feb3a3-a8a7-4217-a975-cbfff833ee26","system_id":"levelo_inurba_marseille","lat":43.295748,"lon":5.37522,"is_reserved":false,"is_disabled":false,"rental_uris":{"android":"levelo://app?vid=f8feb3a3-a8a7-4217-a975-cbfff833ee26","ios":"levelo://app?vid=f8feb3a3-a8a7-4217-a975-cbfff833ee26"},"vehicle_type_id":"4","last_reported":1687075671,"current_range_meters":30800,"station_id":"ce4bgh92rcd13ifvqb50","pricing_plan_id":"free"},{"bike_id":"c4da84fd-bb59-40a1-ba79-33b18823b17d","system_id":"levelo_inurba_marseille","lat":43.29798,"lon":5.38099,"is_reserved":false,"is_disabled":false,"rental_uris":{"android":"levelo://app?vid=c4da84fd-bb59-40a1-ba79-33b18823b17d","ios":"levelo://app?vid=c4da84fd-bb59-40a1-ba79-33b18823b17d"},"vehicle_type_id":"4","last_reported":1687075671,"current_range_meters":12400,"station_id":"ce4bgip2rcd13ifvqbb0","pricing_plan_id":"free"},{"bike_id":"3e71d77e-46a6-4a2b-ac56-7cc0cd6459eb","system_id":"levelo_inurba_marseille","lat":43.29576,"lon":5.37505,"is_reserved":false,"is_disabled":false,"rental_uris":{"android":"levelo://app?vid=3e71d77e-46a6-4a2b-ac56-7cc0cd6459eb","ios":"levelo://app?vid=3e71d77e-46a6-4a2b-ac56-7cc0cd6459eb"},"vehicle_type_id":"4","last_reported":1687075671,"current_range_meters":23200,"station_id":"ce4bgh92rcd13ifvqb50","pricing_plan_id":"free"},{"bike_id":"7a90a306-b712-4f5d-9806-324593b5ee8d","system_id":"levelo_inurba_marseille","lat":43.29578,"lon":5.3752,"is_reserved":false,"is_disabled":false,"rental_uris":{"android":"levelo://app?vid=7a90a306-b712-4f5d-9806-324593b5ee8d","ios":"levelo://app?vid=7a90a306-b712-4f5d-9806-324593b5ee8d"},"vehicle_type_id":"4","last_reported":1687075671,"current_range_meters":25200,"station_id":"ce4bgh92rcd13ifvqb50","pricing_plan_id":"free"},{"bike_id":"9e464fc2-6068-47b4-9fc7-c0412795b371","system_id":"levelo_inurba_marseille","lat":43.304274,"lon":5.388873,"is_reserved":false,"is_disabled":false,"rental_uris":{"android":"levelo://app?vid=9e464fc2-6068-47b4-9fc7-c0412795b371","ios":"levelo://app?vid=9e464fc2-6068-47b4-9fc7-c0412795b371"},"vehicle_type_id":"4","last_reported":1687075671,"current_range_meters":27600,"station_id":"ce4bgk12rcd13ifvqbi0","pricing_plan_id":"free"},{"bike_id":"8aa0b16e-011a-4771-92ae-9f29353dfb13","system_id":"levelo_inurba_marseille","lat":43.29578,"lon":5.37524,"is_reserved":false,"is_disabled":false,"rental_uris":{"android":"levelo://app?vid=8aa0b16e-011a-4771-92ae-9f29353dfb13","ios":"levelo://app?vid=8aa0b16e-011a-4771-92ae-9f29353dfb13"},"vehicle_type_id":"4","last_reported":1687075671,"current_range_meters":11600,"station_id":"ce4bgh92rcd13ifvqb50","pricing_plan_id":"free"},{"bike_id":"1e3e7482-cd9a-4ad3-8aa4-a23c1ec26bea","system_id":"levelo_inurba_marseille","lat":43.29575,"lon":5.37514,"is_reserved":false,"is_disabled":false,"rental_uris":{"android":"levelo://app?vid=1e3e7482-cd9a-4ad3-8aa4-a23c1ec26bea","ios":"levelo://app?vid=1e3e7482-cd9a-4ad3-8aa4-a23c1ec26bea"},"vehicle_type_id":"4","last_reported":1687075671,"current_range_meters":29200,"station_id":"ce4bgh92rcd13ifvqb50","pricing_plan_id":"free"},{"bike_id":"ea8d19c1-90a8-4256-8ce3-0cfac3665e7d","system_id":"levelo_inurba_marseille","lat":43.29571,"lon":5.37511,"is_reserved":false,"is_disabled":false,"rental_uris":{"android":"levelo://app?vid=ea8d19c1-90a8-4256-8ce3-0cfac3665e7d","ios":"levelo://app?vid=ea8d19c1-90a8-4256-8ce3-0cfac3665e7d"},"vehicle_type_id":"4","last_reported":1687075671,"current_range_meters":30000,"station_id":"ce4bgh92rcd13ifvqb50","pricing_plan_id":"free"},{"bike_id":"250c8a96-8498-4211-b8f3-1b00a8d1fbaf","system_id":"levelo_inurba_marseille","lat":43.296477,"lon":5.37768,"is_reserved":false,"is_disabled":false,"rental_uris":{"android":"levelo://app?vid=250c8a96-8498-4211-b8f3-1b00a8d1fbaf","ios":"levelo://app?vid=250c8a96-8498-4211-b8f3-1b00a8d1fbaf"},"vehicle_type_id":"4","last_reported":1687075671,"current_range_meters":13600,"station_id":"","pricing_plan_id":"free"},{"bike_id":"09576bdc-be54-481c-840a-878999517bfb","system_id":"levelo_inurba_marseille","lat":43.295748,"lon":5.37522,"is_reserved":false,"is_disabled":false,"rental_uris":{"android":"levelo://app?vid=09576bdc-be54-481c-840a-878999517bfb","ios":"levelo://app?vid=09576bdc-be54-481c-840a-878999517bfb"},"vehicle_type_id":"4","last_reported":1687075671,"current_range_meters":31200,"station_id":"ce4bgh92rcd13ifvqb50","pricing_plan_id":"free"},{"bike_id":"b9844620-2a5b-4458-9c34-186163dd77a8","system_id":"levelo_inurba_marseille","lat":43.30429,"lon":5.38887,"is_reserved":false,"is_disabled":false,"rental_uris":{"android":"levelo://app?vid=b9844620-2a5b-4458-9c34-186163dd77a8","ios":"levelo://app?vid=b9844620-2a5b-4458-9c34-186163dd77a8"},"vehicle_type_id":"4","last_reported":1687075671,"current_range_meters":19600,"station_id":"ce4bgk12rcd13ifvqbi0","pricing_plan_id":"free"},{"bike_id":"57c546ea-5c76-4487-82dc-eaf2c99526c1","system_id":"levelo_inurba_marseille","lat":43.2957,"lon":5.37521,"is_reserved":false,"is_disabled":false,"rental_uris":{"android":"levelo://app?vid=57c546ea-5c76-4487-82dc-eaf2c99526c1","ios":"levelo://app?vid=57c546ea-5c76-4487-82dc-eaf2c99526c1"},"vehicle_type_id":"4","last_reported":1687075671,"current_range_meters":30800,"station_id":"ce4bgh92rcd13ifvqb50","pricing_plan_id":"free"},{"bike_id":"523fc2c0-7036-4718-9d36-199d1e1ff94f","system_id":"levelo_inurba_marseille","lat":43.2957,"lon":5.37521,"is_reserved":false,"is_disabled":false,"rental_uris":{"android":"levelo://app?vid=523fc2c0-7036-4718-9d36-199d1e1ff94f","ios":"levelo://app?vid=523fc2c0-7036-4718-9d36-199d1e1ff94f"},"vehicle_type_id":"4","last_reported":1687075671,"current_range_meters":28800,"station_id":"ce4bgh92rcd13ifvqb50","pricing_plan_id":"free"},{"bike_id":"181c83d3-35e5-4363-9ad1-349ca3afea16","system_id":"levelo_inurba_marseille","lat":43.298037,"lon":5.381066,"is_reserved":false,"is_disabled":false,"rental_uris":{"android":"levelo://app?vid=181c83d3-35e5-4363-9ad1-349ca3afea16","ios":"levelo://app?vid=181c83d3-35e5-4363-9ad1-349ca3afea16"},"vehicle_type_id":"4","last_reported":1687075671,"current_range_meters":6400,"station_id":"ce4bgip2rcd13ifvqbb0","pricing_plan_id":"free"},{"bike_id":"5bd2e06f-a815-4c6e-b85f-5eca4b27fef1","system_id":"levelo_inurba_marseille","lat":43.295748,"lon":5.37522,"is_reserved":false,"is_disabled":false,"rental_uris":{"android":"levelo://app?vid=5bd2e06f-a815-4c6e-b85f-5eca4b27fef1","ios":"levelo://app?vid=5bd2e06f-a815-4c6e-b85f-5eca4b27fef1"},"vehicle_type_id":"4","last_reported":1687075671,"current_range_meters":13200,"station_id":"ce4bgh92rcd13ifvqb50","pricing_plan_id":"free"},{"bike_id":"31c214bb-08e2-4fdb-ad2e-626065ea5cd3","system_id":"levelo_inurba_marseille","lat":43.29569,"lon":5.37521,"is_reserved":false,"is_disabled":false,"rental_uris":{"android":"levelo://app?vid=31c214bb-08e2-4fdb-ad2e-626065ea5cd3","ios":"levelo://app?vid=31c214bb-08e2-4fdb-ad2e-626065ea5cd3"},"vehicle_type_id":"4","last_reported":1687075671,"current_range_meters":26400,"station_id":"ce4bgh92rcd13ifvqb50","pricing_plan_id":"free"},{"bike_id":"f632d761-42bb-476b-a895-6312bdabc091","system_id":"levelo_inurba_marseille","lat":43.304278,"lon":5.388868,"is_reserved":false,"is_disabled":false,"rental_uris":{"android":"levelo://app?vid=f632d761-42bb-476b-a895-6312bdabc091","ios":"levelo://app?vid=f632d761-42bb-476b-a895-6312bdabc091"},"vehicle_type_id":"4","last_reported":1687075671,"current_range_meters":21600,"station_id":"ce4bgk12rcd13ifvqbi0","pricing_plan_id":"free"},{"bike_id":"e578466e-94eb-4a1b-86d2-6467129847b8","system_id":"levelo_inurba_marseille","lat":43.304274,"lon":5.388873,"is_reserved":false,"is_disabled":false,"rental_uris":{"android":"levelo://app?vid=e578466e-94eb-4a1b-86d2-6467129847b8","ios":"levelo://app?vid=e578466e-94eb-4a1b-86d2-6467129847b8"},"vehicle_type_id":"4","last_reported":1687075671,"current_range_meters":18000,"station_id":"ce4bgk12rcd13ifvqbi0","pricing_plan_id":"free"},{"bike_id":"55c03336-b680-433c-ba82-838648dd5ebe","system_id":"levelo_inurba_marseille","lat":43.296263,"lon":5.377094,"is_reserved":false,"is_disabled":false,"rental_uris":{"android":"levelo://app?vid=55c03336-b680-433c-ba82-838648dd5ebe","ios":"levelo://app?vid=55c03336-b680-433c-ba82-838648dd5ebe"},"vehicle_type_id":"4","last_reported":1687075671,"current_range_meters":14800,"station_id":"ce4bgi92rcd13ifvqb90","pricing_plan_id":"free"},{"bike_id":"c3d67095-2118-4ede-bddb-605d46544bd2","system_id":"levelo_inurba_marseille","lat":43.295748,"lon":5.37522,"is_reserved":false,"is_disabled":false,"rental_uris":{"android":"levelo://app?vid=c3d67095-2118-4ede-bddb-605d46544bd2","ios":"levelo://app?vid=c3d67095-2118-4ede-bddb-605d46544bd2"},"vehicle_type_id":"4","last_reported":1687075671,"current_range_meters":31200,"station_id":"ce4bgh92rcd13ifvqb50","pricing_plan_id":"free"},{"bike_id":"a846ee6b-b1d7-4297-8e2f-c3dee8b1f167","system_id":"levelo_inurba_marseille","lat":43.296263,"lon":5.377094,"is_reserved":false,"is_disabled":false,"rental_uris":{"android":"levelo://app?vid=a846ee6b-b1d7-4297-8e2f-c3dee8b1f167","ios":"levelo://app?vid=a846ee6b-b1d7-4297-8e2f-c3dee8b1f167"},"vehicle_type_id":"4","last_reported":1687075671,"current_range_meters":28800,"station_id":"ce4bgi92rcd13ifvqb90","pricing_plan_id":"free"},{"bike_id":"02049657-5121-4fb7-9f37-295b75764de0","system_id":"levelo_inurba_marseille","lat":43.296277,"lon":5.377108,"is_reserved":false,"is_disabled":false,"rental_uris":{"android":"levelo://app?vid=02049657-5121-4fb7-9f37-295b75764de0","ios":"levelo://app?vid=02049657-5121-4fb7-9f37-295b75764de0"},"vehicle_type_id":"4","last_reported":1687075671,"current_range_meters":31200,"station_id":"ce4bgi92rcd13ifvqb90","pricing_plan_id":"free"},{"bike_id":"4838a826-69ed-41cc-9e4d-6cb0e4eddff0","system_id":"levelo_inurba_marseille","lat":43.296263,"lon":5.377094,"is_reserved":false,"is_disabled":false,"rental_uris":{"android":"levelo://app?vid=4838a826-69ed-41cc-9e4d-6cb0e4eddff0","ios":"levelo://app?vid=4838a826-69ed-41cc-9e4d-6cb0e4eddff0"},"vehicle_type_id":"4","last_reported":1687075671,"current_range_meters":31200,"station_id":"ce4bgi92rcd13ifvqb90","pricing_plan_id":"free"},{"bike_id":"063080e3-ae8a-48e1-a91a-d1ad1188cfcb","system_id":"levelo_inurba_marseille","lat":43.296277,"lon":5.377108,"is_reserved":false,"is_disabled":false,"rental_uris":{"android":"levelo://app?vid=063080e3-ae8a-48e1-a91a-d1ad1188cfcb","ios":"levelo://app?vid=063080e3-ae8a-48e1-a91a-d1ad1188cfcb"},"vehicle_type_id":"4","last_reported":1687075671,"current_range_meters":31200,"station_id":"ce4bgi92rcd13ifvqb90","pricing_plan_id":"free"},{"bike_id":"eb56f040-d7e3-440c-9d05-82afe187dd21","system_id":"levelo_inurba_marseille","lat":43.29995,"lon":5.38504,"is_reserved":false,"is_disabled":false,"rental_uris":{"android":"levelo://app?vid=eb56f040-d7e3-440c-9d05-82afe187dd21","ios":"levelo://app?vid=eb56f040-d7e3-440c-9d05-82afe187dd21"},"vehicle_type_id":"4","last_reported":1687075671,"current_range_meters":29600,"station_id":"","pricing_plan_id":"free"},{"bike_id":"c377970f-d980-4553-a42c-14c345d0eee7","system_id":"levelo_inurba_marseille","lat":43.29534,"lon":5.37507,"is_reserved":false,"is_disabled":false,"rental_uris":{"android":"levelo://app?vid=c377970f-d980-4553-a42c-14c345d0eee7","ios":"levelo://app?vid=c377970f-d980-4553-a42c-14c345d0eee7"},"vehicle_type_id":"4","last_reported":1687075671,"current_range_meters":28800,"station_id":"ce4bgkp2rcd13ifvqbmg","pricing_plan_id":"free"},{"bike_id":"b78f4452-6e43-41b2-83ac-83947519aec6","system_id":"levelo_inurba_marseille","lat":43.295279,"lon":5.375048,"is_reserved":false,"is_disabled":false,"rental_uris":{"android":"levelo://app?vid=b78f4452-6e43-41b2-83ac-83947519aec6","ios":"levelo://app?vid=b78f4452-6e43-41b2-83ac-83947519aec6"},"vehicle_type_id":"4","last_reported":1687075671,"current_range_meters":27200,"station_id":"ce4bgkp2rcd13ifvqbmg","pricing_plan_id":"free"},{"bike_id":"14179d8a-7d98-4cf1-acbc-0d67d2ba148d","system_id":"levelo_inurba_marseille","lat":43.295279,"lon":5.375048,"is_reserved":false,"is_disabled":false,"rental_uris":{"android":"levelo://app?vid=14179d8a-7d98-4cf1-acbc-0d67d2ba148d","ios":"levelo://app?vid=14179d8a-7d98-4cf1-acbc-0d67d2ba148d"},"vehicle_type_id":"4","last_reported":1687075671,"current_range_meters":31200,"station_id":"ce4bgkp2rcd13ifvqbmg","pricing_plan_id":"free"},{"bike_id":"6bf2229b-f534-4647-b322-42cb17c0e26c","system_id":"levelo_inurba_marseille","lat":43.32367,"lon":5.388836,"is_reserved":false,"is_disabled":false,"rental_uris":{"android":"levelo://app?vid=6bf2229b-f534-4647-b322-42cb17c0e26c","ios":"levelo://app?vid=6bf2229b-f534-4647-b322-42cb17c0e26c"},"vehicle_type_id":"4","last_reported":1687075671,"current_range_meters":18000,"station_id":"ce4bhqp2rcd13ifvqhog","pricing_plan_id":"free"},{"bike_id":"a5d34394-8ea3-4622-ac56-bc8a8abe2d11","system_id":"levelo_inurba_marseille","lat":43.32367,"lon":5.388836,"is_reserved":false,"is_disabled":false,"rental_uris":{"android":"levelo://app?vid=a5d34394-8ea3-4622-ac56-bc8a8abe2d11","ios":"levelo://app?vid=a5d34394-8ea3-4622-ac56-bc8a8abe2d11"},"vehicle_type_id":"4","last_reported":1687075671,"current_range_meters":31200,"station_id":"ce4bhqp2rcd13ifvqhog","pricing_plan_id":"free"},{"bike_id":"57f97489-c42b-4c9d-8f2a-d39ab8b39f5a","system_id":"levelo_inurba_marseille","lat":43.32367,"lon":5.388836,"is_reserved":false,"is_disabled":false,"rental_uris":{"android":"levelo://app?vid=57f97489-c42b-4c9d-8f2a-d39ab8b39f5a","ios":"levelo://app?vid=57f97489-c42b-4c9d-8f2a-d39ab8b39f5a"},"vehicle_type_id":"4","last_reported":1687075671,"current_range_meters":10400,"station_id":"ce4bhqp2rcd13ifvqhog","pricing_plan_id":"free"},{"bike_id":"2c9ad911-25e0-4222-8751-d809dfadd582","system_id":"levelo_inurba_marseille","lat":43.32367,"lon":5.388836,"is_reserved":false,"is_disabled":false,"rental_uris":{"android":"levelo://app?vid=2c9ad911-25e0-4222-8751-d809dfadd582","ios":"levelo://app?vid=2c9ad911-25e0-4222-8751-d809dfadd582"},"vehicle_type_id":"4","last_reported":1687075671,"current_range_meters":22000,"station_id":"ce4bhqp2rcd13ifvqhog","pricing_plan_id":"free"},{"bike_id":"6b4d4d55-f9ce-4a35-a295-795e3acc7e51","system_id":"levelo_inurba_marseille","lat":43.32367,"lon":5.388836,"is_reserved":false,"is_disabled":false,"rental_uris":{"android":"levelo://app?vid=6b4d4d55-f9ce-4a35-a295-795e3acc7e51","ios":"levelo://app?vid=6b4d4d55-f9ce-4a35-a295-795e3acc7e51"},"vehicle_type_id":"4","last_reported":1687075671,"current_range_meters":26400,"station_id":"ce4bhqp2rcd13ifvqhog","pricing_plan_id":"free"},{"bike_id":"27dd78af-fbb0-48ba-b80d-f7fbb1608659","system_id":"levelo_inurba_marseille","lat":43.32362,"lon":5.38885,"is_reserved":false,"is_disabled":false,"rental_uris":{"android":"levelo://app?vid=27dd78af-fbb0-48ba-b80d-f7fbb1608659","ios":"levelo://app?vid=27dd78af-fbb0-48ba-b80d-f7fbb1608659"},"vehicle_type_id":"4","last_reported":1687075671,"current_range_meters":30800,"station_id":"ce4bhqp2rcd13ifvqhog","pricing_plan_id":"free"},{"bike_id":"994ffda2-4c5a-4608-9f56-696508fcf4bd","system_id":"levelo_inurba_marseille","lat":43.32367,"lon":5.388836,"is_reserved":false,"is_disabled":false,"rental_uris":{"android":"levelo://app?vid=994ffda2-4c5a-4608-9f56-696508fcf4bd","ios":"levelo://app?vid=994ffda2-4c5a-4608-9f56-696508fcf4bd"},"vehicle_type_id":"4","last_reported":1687075671,"current_range_meters":13600,"station_id":"ce4bhqp2rcd13ifvqhog","pricing_plan_id":"free"},{"bike_id":"05d585c0-9c9e-4f05-83e5-50aae80e7424","system_id":"levelo_inurba_marseille","lat":43.32367,"lon":5.388836,"is_reserved":false,"is_disabled":false,"rental_uris":{"android":"levelo://app?vid=05d585c0-9c9e-4f05-83e5-50aae80e7424","ios":"levelo://app?vid=05d585c0-9c9e-4f05-83e5-50aae80e7424"},"vehicle_type_id":"4","last_reported":1687075671,"current_range_meters":31200,"station_id":"ce4bhqp2rcd13ifvqhog","pricing_plan_id":"free"},{"bike_id":"c25bbca6-334a-48c9-b2aa-c69eb97c9d81","system_id":"levelo_inurba_marseille","lat":43.32367,"lon":5.388836,"is_reserved":false,"is_disabled":false,"rental_uris":{"android":"levelo://app?vid=c25bbca6-334a-48c9-b2aa-c69eb97c9d81","ios":"levelo://app?vid=c25bbca6-334a-48c9-b2aa-c69eb97c9d81"},"vehicle_type_id":"4","last_reported":1687075671,"current_range_meters":10400,"station_id":"ce4bhqp2rcd13ifvqhog","pricing_plan_id":"free"},{"bike_id":"cfa9b4f7-7811-44b5-9d0b-f6805c1f39aa","system_id":"levelo_inurba_marseille","lat":43.29592,"lon":5.38098,"is_reserved":false,"is_disabled":false,"rental_uris":{"android":"levelo://app?vid=cfa9b4f7-7811-44b5-9d0b-f6805c1f39aa","ios":"levelo://app?vid=cfa9b4f7-7811-44b5-9d0b-f6805c1f39aa"},"vehicle_type_id":"4","last_reported":1687075671,"current_range_meters":26000,"station_id":"ce4bgl12rcd13ifvqbo0","pricing_plan_id":"free"},{"bike_id":"190a7e51-dc72-4b6e-ac40-a253683f2d70","system_id":"levelo_inurba_marseille","lat":43.292749,"lon":5.368402,"is_reserved":false,"is_disabled":false,"rental_uris":{"android":"levelo://app?vid=190a7e51-dc72-4b6e-ac40-a253683f2d70","ios":"levelo://app?vid=190a7e51-dc72-4b6e-ac40-a253683f2d70"},"vehicle_type_id":"4","last_reported":1687075671,"current_range_meters":26400,"station_id":"ce4bhbp2rcd13ifvqesg","pricing_plan_id":"free"},{"bike_id":"155da467-9ae3-4252-ba2b-8c4c47317ae5","system_id":"levelo_inurba_marseille","lat":43.29273,"lon":5.36847,"is_reserved":false,"is_disabled":false,"rental_uris":{"android":"levelo://app?vid=155da467-9ae3-4252-ba2b-8c4c47317ae5","ios":"levelo://app?vid=155da467-9ae3-4252-ba2b-8c4c47317ae5"},"vehicle_type_id":"4","last_reported":1687075671,"current_range_meters":3200,"station_id":"ce4bhbp2rcd13ifvqesg","pricing_plan_id":"free"},{"bike_id":"e472b653-dbe4-4521-b73b-2b82423d07fc","system_id":"levelo_inurba_marseille","lat":43.305994,"lon":5.393687,"is_reserved":false,"is_disabled":false,"rental_uris":{"android":"levelo://app?vid=e472b653-dbe4-4521-b73b-2b82423d07fc","ios":"levelo://app?vid=e472b653-dbe4-4521-b73b-2b82423d07fc"},"vehicle_type_id":"4","last_reported":1687075671,"current_range_meters":27600,"station_id":"ce4bh0p2rcd13ifvqd80","pricing_plan_id":"free"},{"bike_id":"77df2bf4-4245-4cdf-988b-e80dfbcbb74a","system_id":"levelo_inurba_marseille","lat":43.305994,"lon":5.393687,"is_reserved":false,"is_disabled":false,"rental_uris":{"android":"levelo://app?vid=77df2bf4-4245-4cdf-988b-e80dfbcbb74a","ios":"levelo://app?vid=77df2bf4-4245-4cdf-988b-e80dfbcbb74a"},"vehicle_type_id":"4","last_reported":1687075671,"current_range_meters":28000,"station_id":"ce4bh0p2rcd13ifvqd80","pricing_plan_id":"free"},{"bike_id":"389d1da6-385c-49d1-914e-406b622c1d39","system_id":"levelo_inurba_marseille","lat":43.293009,"lon":5.374584,"is_reserved":false,"is_disabled":false,"rental_uris":{"android":"levelo://app?vid=389d1da6-385c-49d1-914e-406b622c1d39","ios":"levelo://app?vid=389d1da6-385c-49d1-914e-406b622c1d39"},"vehicle_type_id":"4","last_reported":1687075671,"current_range_meters":2800,"station_id":"ce4bgi12rcd13ifvqb70","pricing_plan_id":"free"},{"bike_id":"675de7c5-63c3-465a-ab6f-fbd96e33e6c4","system_id":"levelo_inurba_marseille","lat":43.305994,"lon":5.393687,"is_reserved":false,"is_disabled":false,"rental_uris":{"android":"levelo://app?vid=675de7c5-63c3-465a-ab6f-fbd96e33e6c4","ios":"levelo://app?vid=675de7c5-63c3-465a-ab6f-fbd96e33e6c4"},"vehicle_type_id":"4","last_reported":1687075671,"current_range_meters":30800,"station_id":"ce4bh0p2rcd13ifvqd80","pricing_plan_id":"free"},{"bike_id":"877cbcf6-e121-41e3-b8fe-c12b05087f22","system_id":"levelo_inurba_marseille","lat":43.29292,"lon":5.37468,"is_reserved":false,"is_disabled":false,"rental_uris":{"android":"levelo://app?vid=877cbcf6-e121-41e3-b8fe-c12b05087f22","ios":"levelo://app?vid=877cbcf6-e121-41e3-b8fe-c12b05087f22"},"vehicle_type_id":"4","last_reported":1687075671,"current_range_meters":18800,"station_id":"ce4bgi12rcd13ifvqb70","pricing_plan_id":"free"},{"bike_id":"3c294bab-5a69-4dc1-9249-1336a975450d","system_id":"levelo_inurba_marseille","lat":43.30296,"lon":5.39211,"is_reserved":false,"is_disabled":false,"rental_uris":{"android":"levelo://app?vid=3c294bab-5a69-4dc1-9249-1336a975450d","ios":"levelo://app?vid=3c294bab-5a69-4dc1-9249-1336a975450d"},"vehicle_type_id":"4","last_reported":1687075671,"current_range_meters":31200,"station_id":"ce4bgkh2rcd13ifvqbk0","pricing_plan_id":"free"},{"bike_id":"82b292c7-423a-4c8f-9ac1-a431eceaddbf","system_id":"levelo_inurba_marseille","lat":43.30302,"lon":5.39219,"is_reserved":false,"is_disabled":false,"rental_uris":{"android":"levelo://app?vid=82b292c7-423a-4c8f-9ac1-a431eceaddbf","ios":"levelo://app?vid=82b292c7-423a-4c8f-9ac1-a431eceaddbf"},"vehicle_type_id":"4","last_reported":1687075671,"current_range_meters":28800,"station_id":"ce4bgkh2rcd13ifvqbk0","pricing_plan_id":"free"},{"bike_id":"94ee4f2d-f9d2-4818-a4b1-e7ccbc1ff1fc","system_id":"levelo_inurba_marseille","lat":43.293009,"lon":5.374584,"is_reserved":false,"is_disabled":false,"rental_uris":{"android":"levelo://app?vid=94ee4f2d-f9d2-4818-a4b1-e7ccbc1ff1fc","ios":"levelo://app?vid=94ee4f2d-f9d2-4818-a4b1-e7ccbc1ff1fc"},"vehicle_type_id":"4","last_reported":1687075671,"current_range_meters":30000,"station_id":"ce4bgi12rcd13ifvqb70","pricing_plan_id":"free"},{"bike_id":"aa8ddecd-d944-4466-bcae-3b13a7e54c68","system_id":"levelo_inurba_marseille","lat":43.292311,"lon":5.360731,"is_reserved":false,"is_disabled":false,"rental_uris":{"android":"levelo://app?vid=aa8ddecd-d944-4466-bcae-3b13a7e54c68","ios":"levelo://app?vid=aa8ddecd-d944-4466-bcae-3b13a7e54c68"},"vehicle_type_id":"4","last_reported":1687075671,"current_range_meters":28000,"station_id":"ce4bhbh2rcd13ifvqeqg","pricing_plan_id":"free"},{"bike_id":"34ea33a7-9114-4f1c-95b3-bae2cde91ce6","system_id":"levelo_inurba_marseille","lat":43.292311,"lon":5.360731,"is_reserved":false,"is_disabled":false,"rental_uris":{"android":"levelo://app?vid=34ea33a7-9114-4f1c-95b3-bae2cde91ce6","ios":"levelo://app?vid=34ea33a7-9114-4f1c-95b3-bae2cde91ce6"},"vehicle_type_id":"4","last_reported":1687075671,"current_range_meters":30000,"station_id":"ce4bhbh2rcd13ifvqeqg","pricing_plan_id":"free"},{"bike_id":"b1b4b194-3815-4792-ab50-d59cb0bcf256","system_id":"levelo_inurba_marseille","lat":43.292311,"lon":5.360731,"is_reserved":false,"is_disabled":false,"rental_uris":{"android":"levelo://app?vid=b1b4b194-3815-4792-ab50-d59cb0bcf256","ios":"levelo://app?vid=b1b4b194-3815-4792-ab50-d59cb0bcf256"},"vehicle_type_id":"4","last_reported":1687075671,"current_range_meters":31200,"station_id":"ce4bhbh2rcd13ifvqeqg","pricing_plan_id":"free"},{"bike_id":"341d01f5-e749-4288-af75-e70ce6c9fbd5","system_id":"levelo_inurba_marseille","lat":43.298764,"lon":5.388973,"is_reserved":false,"is_disabled":false,"rental_uris":{"android":"levelo://app?vid=341d01f5-e749-4288-af75-e70ce6c9fbd5","ios":"levelo://app?vid=341d01f5-e749-4288-af75-e70ce6c9fbd5"},"vehicle_type_id":"4","last_reported":1687075671,"current_range_meters":11200,"station_id":"ce4bh392rcd13ifvqdl0","pricing_plan_id":"free"},{"bike_id":"95b01322-5517-4bb8-b1ec-f027d7d049a4","system_id":"levelo_inurba_marseille","lat":43.292663,"lon":5.376394,"is_reserved":false,"is_disabled":false,"rental_uris":{"android":"levelo://app?vid=95b01322-5517-4bb8-b1ec-f027d7d049a4","ios":"levelo://app?vid=95b01322-5517-4bb8-b1ec-f027d7d049a4"},"vehicle_type_id":"4","last_reported":1687075671,"current_range_meters":31200,"station_id":"ce4bgi12rcd13ifvqb80","pricing_plan_id":"free"},{"bike_id":"46289fa7-65b2-43e0-962d-7f4b0c7e7f37","system_id":"levelo_inurba_marseille","lat":43.30884,"lon":5.39624,"is_reserved":false,"is_disabled":false,"rental_uris":{"android":"levelo://app?vid=46289fa7-65b2-43e0-962d-7f4b0c7e7f37","ios":"levelo://app?vid=46289fa7-65b2-43e0-962d-7f4b0c7e7f37"},"vehicle_type_id":"4","last_reported":1687075671,"current_range_meters":23600,"station_id":"ce4bh012rcd13ifvqcv0","pricing_plan_id":"free"},{"bike_id":"fdec3b17-726b-4ffe-b2dc-8da9341fb36c","system_id":"levelo_inurba_marseille","lat":43.29204,"lon":5.35793,"is_reserved":false,"is_disabled":false,"rental_uris":{"android":"levelo://app?vid=fdec3b17-726b-4ffe-b2dc-8da9341fb36c","ios":"levelo://app?vid=fdec3b17-726b-4ffe-b2dc-8da9341fb36c"},"vehicle_type_id":"4","last_reported":1687075671,"current_range_meters":29600,"station_id":"ce4bhb12rcd13ifvqel0","pricing_plan_id":"free"},{"bike_id":"a5e75aba-2943-4afd-849a-521344ae61c5","system_id":"levelo_inurba_marseille","lat":43.313291,"lon":5.396838,"is_reserved":false,"is_disabled":false,"rental_uris":{"android":"levelo://app?vid=a5e75aba-2943-4afd-849a-521344ae61c5","ios":"levelo://app?vid=a5e75aba-2943-4afd-849a-521344ae61c5"},"vehicle_type_id":"4","last_reported":1687075671,"current_range_meters":26400,"station_id":"ce4bgvp2rcd13ifvqcu0","pricing_plan_id":"free"},{"bike_id":"2b0aedbb-f6c9-4026-8f50-60792a4d6c25","system_id":"levelo_inurba_marseille","lat":43.30877,"lon":5.39638,"is_reserved":false,"is_disabled":false,"rental_uris":{"android":"levelo://app?vid=2b0aedbb-f6c9-4026-8f50-60792a4d6c25","ios":"levelo://app?vid=2b0aedbb-f6c9-4026-8f50-60792a4d6c25"},"vehicle_type_id":"4","last_reported":1687075671,"current_range_meters":18400,"station_id":"","pricing_plan_id":"free"},{"bike_id":"7bade496-d447-4f1b-a0ea-43edcbdd13b1","system_id":"levelo_inurba_marseille","lat":43.30903,"lon":5.39645,"is_reserved":false,"is_disabled":false,"rental_uris":{"android":"levelo://app?vid=7bade496-d447-4f1b-a0ea-43edcbdd13b1","ios":"levelo://app?vid=7bade496-d447-4f1b-a0ea-43edcbdd13b1"},"vehicle_type_id":"4","last_reported":1687075671,"current_range_meters":23200,"station_id":"ce4bh012rcd13ifvqcv0","pricing_plan_id":"free"},{"bike_id":"207ecc72-159c-4ae7-88aa-5dc2fac9a3d8","system_id":"levelo_inurba_marseille","lat":43.313291,"lon":5.396838,"is_reserved":false,"is_disabled":false,"rental_uris":{"android":"levelo://app?vid=207ecc72-159c-4ae7-88aa-5dc2fac9a3d8","ios":"levelo://app?vid=207ecc72-159c-4ae7-88aa-5dc2fac9a3d8"},"vehicle_type_id":"4","last_reported":1687075671,"current_range_meters":27600,"station_id":"ce4bgvp2rcd13ifvqcu0","pricing_plan_id":"free"},{"bike_id":"a5e39b87-abbf-44c2-bf7b-eabd53192e48","system_id":"levelo_inurba_marseille","lat":43.291994,"lon":5.357886,"is_reserved":false,"is_disabled":false,"rental_uris":{"android":"levelo://app?vid=a5e39b87-abbf-44c2-bf7b-eabd53192e48","ios":"levelo://app?vid=a5e39b87-abbf-44c2-bf7b-eabd53192e48"},"vehicle_type_id":"4","last_reported":1687075671,"current_range_meters":28000,"station_id":"ce4bhb12rcd13ifvqel0","pricing_plan_id":"free"},{"bike_id":"08e7f3b3-4b9a-45d9-9b63-b31d0ec72120","system_id":"levelo_inurba_marseille","lat":43.29188,"lon":5.35787,"is_reserved":false,"is_disabled":false,"rental_uris":{"android":"levelo://app?vid=08e7f3b3-4b9a-45d9-9b63-b31d0ec72120","ios":"levelo://app?vid=08e7f3b3-4b9a-45d9-9b63-b31d0ec72120"},"vehicle_type_id":"4","last_reported":1687075671,"current_range_meters":31200,"station_id":"ce4bhb12rcd13ifvqel0","pricing_plan_id":"free"},{"bike_id":"279e04c7-e537-4d5f-b788-544376849e28","system_id":"levelo_inurba_marseille","lat":43.313291,"lon":5.396838,"is_reserved":false,"is_disabled":false,"rental_uris":{"android":"levelo://app?vid=279e04c7-e537-4d5f-b788-544376849e28","ios":"levelo://app?vid=279e04c7-e537-4d5f-b788-544376849e28"},"vehicle_type_id":"4","last_reported":1687075671,"current_range_meters":31200,"station_id":"ce4bgvp2rcd13ifvqcu0","pricing_plan_id":"free"},{"bike_id":"2c2bd094-5ccd-443b-8115-70615c977b46","system_id":"levelo_inurba_marseille","lat":43.313291,"lon":5.396838,"is_reserved":false,"is_disabled":false,"rental_uris":{"android":"levelo://app?vid=2c2bd094-5ccd-443b-8115-70615c977b46","ios":"levelo://app?vid=2c2bd094-5ccd-443b-8115-70615c977b46"},"vehicle_type_id":"4","last_reported":1687075671,"current_range_meters":22800,"station_id":"ce4bgvp2rcd13ifvqcu0","pricing_plan_id":"free"},{"bike_id":"426905e2-11bb-43f4-8a7a-9e1e7b6a6d8b","system_id":"levelo_inurba_marseille","lat":43.30892,"lon":5.3966,"is_reserved":false,"is_disabled":false,"rental_uris":{"android":"levelo://app?vid=426905e2-11bb-43f4-8a7a-9e1e7b6a6d8b","ios":"levelo://app?vid=426905e2-11bb-43f4-8a7a-9e1e7b6a6d8b"},"vehicle_type_id":"4","last_reported":1687075671,"current_range_meters":11600,"station_id":"","pricing_plan_id":"free"},{"bike_id":"b0d2b540-25f5-4d5b-98a7-3c4837e75b54","system_id":"levelo_inurba_marseille","lat":43.290624,"lon":5.359245,"is_reserved":false,"is_disabled":false,"rental_uris":{"android":"levelo://app?vid=b0d2b540-25f5-4d5b-98a7-3c4837e75b54","ios":"levelo://app?vid=b0d2b540-25f5-4d5b-98a7-3c4837e75b54"},"vehicle_type_id":"4","last_reported":1687075671,"current_range_meters":28000,"station_id":"ce4bha92rcd13ifvqeg0","pricing_plan_id":"free"},{"bike_id":"a3e489f3-f2bd-4582-a863-cfa82cc6be64","system_id":"levelo_inurba_marseille","lat":43.290624,"lon":5.359245,"is_reserved":false,"is_disabled":false,"rental_uris":{"android":"levelo://app?vid=a3e489f3-f2bd-4582-a863-cfa82cc6be64","ios":"levelo://app?vid=a3e489f3-f2bd-4582-a863-cfa82cc6be64"},"vehicle_type_id":"4","last_reported":1687075671,"current_range_meters":14000,"station_id":"ce4bha92rcd13ifvqeg0","pricing_plan_id":"free"},{"bike_id":"6a8b856a-2769-4865-86dc-9a97782975f0","system_id":"levelo_inurba_marseille","lat":43.29041,"lon":5.35926,"is_reserved":false,"is_disabled":false,"rental_uris":{"android":"levelo://app?vid=6a8b856a-2769-4865-86dc-9a97782975f0","ios":"levelo://app?vid=6a8b856a-2769-4865-86dc-9a97782975f0"},"vehicle_type_id":"4","last_reported":1687075671,"current_range_meters":0,"station_id":"","pricing_plan_id":"free"},{"bike_id":"3e5a9051-760c-4529-87e9-7b18c4ffc31e","system_id":"levelo_inurba_marseille","lat":43.28937,"lon":5.36639,"is_reserved":false,"is_disabled":false,"rental_uris":{"android":"levelo://app?vid=3e5a9051-760c-4529-87e9-7b18c4ffc31e","ios":"levelo://app?vid=3e5a9051-760c-4529-87e9-7b18c4ffc31e"},"vehicle_type_id":"4","last_reported":1687075671,"current_range_meters":27200,"station_id":"ce4bhap2rcd13ifvqek0","pricing_plan_id":"free"},{"bike_id":"bc871c24-d7fa-4be6-8d2e-33f3739145fe","system_id":"levelo_inurba_marseille","lat":43.30427,"lon":5.39747,"is_reserved":false,"is_disabled":false,"rental_uris":{"android":"levelo://app?vid=bc871c24-d7fa-4be6-8d2e-33f3739145fe","ios":"levelo://app?vid=bc871c24-d7fa-4be6-8d2e-33f3739145fe"},"vehicle_type_id":"4","last_reported":1687075671,"current_range_meters":31200,"station_id":"ce4bh092rcd13ifvqd20","pricing_plan_id":"free"},{"bike_id":"83fdf6bd-193b-4634-9358-cac1da76eb67","system_id":"levelo_inurba_marseille","lat":43.304296,"lon":5.397513,"is_reserved":false,"is_disabled":false,"rental_uris":{"android":"levelo://app?vid=83fdf6bd-193b-4634-9358-cac1da76eb67","ios":"levelo://app?vid=83fdf6bd-193b-4634-9358-cac1da76eb67"},"vehicle_type_id":"4","last_reported":1687075671,"current_range_meters":26800,"station_id":"ce4bh092rcd13ifvqd20","pricing_plan_id":"free"},{"bike_id":"07e10cdf-e3c6-4ac1-875f-031bc6c5f47c","system_id":"levelo_inurba_marseille","lat":43.304274,"lon":5.397513,"is_reserved":false,"is_disabled":false,"rental_uris":{"android":"levelo://app?vid=07e10cdf-e3c6-4ac1-875f-031bc6c5f47c","ios":"levelo://app?vid=07e10cdf-e3c6-4ac1-875f-031bc6c5f47c"},"vehicle_type_id":"4","last_reported":1687075671,"current_range_meters":30400,"station_id":"ce4bh092rcd13ifvqd20","pricing_plan_id":"free"},{"bike_id":"38eb09af-7166-42b9-865e-84246929498f","system_id":"levelo_inurba_marseille","lat":43.292642,"lon":5.384254,"is_reserved":false,"is_disabled":false,"rental_uris":{"android":"levelo://app?vid=38eb09af-7166-42b9-865e-84246929498f","ios":"levelo://app?vid=38eb09af-7166-42b9-865e-84246929498f"},"vehicle_type_id":"4","last_reported":1687075671,"current_range_meters":31200,"station_id":"ce4bh692rcd13ifvqea0","pricing_plan_id":"free"},{"bike_id":"7a19f85c-3a1e-497c-ac40-4aee991e94ff","system_id":"levelo_inurba_marseille","lat":43.33036,"lon":5.38919,"is_reserved":false,"is_disabled":false,"rental_uris":{"android":"levelo://app?vid=7a19f85c-3a1e-497c-ac40-4aee991e94ff","ios":"levelo://app?vid=7a19f85c-3a1e-497c-ac40-4aee991e94ff"},"vehicle_type_id":"4","last_reported":1687075671,"current_range_meters":31200,"station_id":"ce4bhr92rcd13ifvqhrg","pricing_plan_id":"free"},{"bike_id":"abe683c4-1005-478b-9c98-8e7695d3f91b","system_id":"levelo_inurba_marseille","lat":43.33037,"lon":5.38921,"is_reserved":false,"is_disabled":false,"rental_uris":{"android":"levelo://app?vid=abe683c4-1005-478b-9c98-8e7695d3f91b","ios":"levelo://app?vid=abe683c4-1005-478b-9c98-8e7695d3f91b"},"vehicle_type_id":"4","last_reported":1687075671,"current_range_meters":23200,"station_id":"ce4bhr92rcd13ifvqhrg","pricing_plan_id":"free"},{"bike_id":"69b9077c-e52f-467f-924c-edaaf68c6e10","system_id":"levelo_inurba_marseille","lat":43.33038,"lon":5.38922,"is_reserved":false,"is_disabled":false,"rental_uris":{"android":"levelo://app?vid=69b9077c-e52f-467f-924c-edaaf68c6e10","ios":"levelo://app?vid=69b9077c-e52f-467f-924c-edaaf68c6e10"},"vehicle_type_id":"4","last_reported":1687075671,"current_range_meters":31200,"station_id":"ce4bhr92rcd13ifvqhrg","pricing_plan_id":"free"},{"bike_id":"fa914137-8a19-49af-93ef-82351cad330f","system_id":"levelo_inurba_marseille","lat":43.33041,"lon":5.38918,"is_reserved":false,"is_disabled":false,"rental_uris":{"android":"levelo://app?vid=fa914137-8a19-49af-93ef-82351cad330f","ios":"levelo://app?vid=fa914137-8a19-49af-93ef-82351cad330f"},"vehicle_type_id":"4","last_reported":1687075671,"current_range_meters":18000,"station_id":"ce4bhr92rcd13ifvqhrg","pricing_plan_id":"free"},{"bike_id":"95c066a4-e4d6-47f9-9ac2-324b145985cd","system_id":"levelo_inurba_marseille","lat":43.3304,"lon":5.3892,"is_reserved":false,"is_disabled":false,"rental_uris":{"android":"levelo://app?vid=95c066a4-e4d6-47f9-9ac2-324b145985cd","ios":"levelo://app?vid=95c066a4-e4d6-47f9-9ac2-324b145985cd"},"vehicle_type_id":"4","last_reported":1687075671,"current_range_meters":12800,"station_id":"ce4bhr92rcd13ifvqhrg","pricing_plan_id":"free"},{"bike_id":"de1e93de-1fae-4e67-88d2-51f9864478a2","system_id":"levelo_inurba_marseille","lat":43.33041,"lon":5.3892,"is_reserved":false,"is_disabled":false,"rental_uris":{"android":"levelo://app?vid=de1e93de-1fae-4e67-88d2-51f9864478a2","ios":"levelo://app?vid=de1e93de-1fae-4e67-88d2-51f9864478a2"},"vehicle_type_id":"4","last_reported":1687075671,"current_range_meters":18000,"station_id":"ce4bhr92rcd13ifvqhrg","pricing_plan_id":"free"},{"bike_id":"55c4fc83-4495-499d-8f80-4b519db72cd9","system_id":"levelo_inurba_marseille","lat":43.33042,"lon":5.38919,"is_reserved":false,"is_disabled":false,"rental_uris":{"android":"levelo://app?vid=55c4fc83-4495-499d-8f80-4b519db72cd9","ios":"levelo://app?vid=55c4fc83-4495-499d-8f80-4b519db72cd9"},"vehicle_type_id":"4","last_reported":1687075671,"current_range_meters":31200,"station_id":"ce4bhr92rcd13ifvqhrg","pricing_plan_id":"free"},{"bike_id":"e066c9c0-81b0-4e01-84a1-c89d996d1e3b","system_id":"levelo_inurba_marseille","lat":43.290103,"lon":5.356114,"is_reserved":false,"is_disabled":false,"rental_uris":{"android":"levelo://app?vid=e066c9c0-81b0-4e01-84a1-c89d996d1e3b","ios":"levelo://app?vid=e066c9c0-81b0-4e01-84a1-c89d996d1e3b"},"vehicle_type_id":"4","last_reported":1687075671,"current_range_meters":30000,"station_id":"ce4bhb92rcd13ifvqen0","pricing_plan_id":"free"},{"bike_id":"f95d8be0-c840-4b03-9e0d-b8050ae0f057","system_id":"levelo_inurba_marseille","lat":43.33045,"lon":5.38921,"is_reserved":false,"is_disabled":false,"rental_uris":{"android":"levelo://app?vid=f95d8be0-c840-4b03-9e0d-b8050ae0f057","ios":"levelo://app?vid=f95d8be0-c840-4b03-9e0d-b8050ae0f057"},"vehicle_type_id":"4","last_reported":1687075671,"current_range_meters":24800,"station_id":"ce4bhr92rcd13ifvqhrg","pricing_plan_id":"free"},{"bike_id":"46a8e731-9ddb-4ace-907b-cbe70799f0ca","system_id":"levelo_inurba_marseille","lat":43.33043,"lon":5.38924,"is_reserved":false,"is_disabled":false,"rental_uris":{"android":"levelo://app?vid=46a8e731-9ddb-4ace-907b-cbe70799f0ca","ios":"levelo://app?vid=46a8e731-9ddb-4ace-907b-cbe70799f0ca"},"vehicle_type_id":"4","last_reported":1687075671,"current_range_meters":29600,"station_id":"ce4bhr92rcd13ifvqhrg","pricing_plan_id":"free"},{"bike_id":"8fff2c6b-7de2-42eb-b9c7-b4957e635223","system_id":"levelo_inurba_marseille","lat":43.33045,"lon":5.38922,"is_reserved":false,"is_disabled":false,"rental_uris":{"android":"levelo://app?vid=8fff2c6b-7de2-42eb-b9c7-b4957e635223","ios":"levelo://app?vid=8fff2c6b-7de2-42eb-b9c7-b4957e635223"},"vehicle_type_id":"4","last_reported":1687075671,"current_range_meters":18400,"station_id":"ce4bhr92rcd13ifvqhrg","pricing_plan_id":"free"},{"bike_id":"34e8793d-3e78-430c-9712-0f9923b8824e","system_id":"levelo_inurba_marseille","lat":43.33049,"lon":5.38918,"is_reserved":false,"is_disabled":false,"rental_uris":{"android":"levelo://app?vid=34e8793d-3e78-430c-9712-0f9923b8824e","ios":"levelo://app?vid=34e8793d-3e78-430c-9712-0f9923b8824e"},"vehicle_type_id":"4","last_reported":1687075671,"current_range_meters":28800,"station_id":"ce4bhr92rcd13ifvqhrg","pricing_plan_id":"free"},{"bike_id":"e657307e-dbd6-483c-9193-f3d25f0cef16","system_id":"levelo_inurba_marseille","lat":43.290104,"lon":5.356111,"is_reserved":false,"is_disabled":false,"rental_uris":{"android":"levelo://app?vid=e657307e-dbd6-483c-9193-f3d25f0cef16","ios":"levelo://app?vid=e657307e-dbd6-483c-9193-f3d25f0cef16"},"vehicle_type_id":"4","last_reported":1687075671,"current_range_meters":29200,"station_id":"ce4bhb92rcd13ifvqen0","pricing_plan_id":"free"},{"bike_id":"40e59e64-9295-42a0-9590-a684a2d1ed78","system_id":"levelo_inurba_marseille","lat":43.33049,"lon":5.38922,"is_reserved":false,"is_disabled":false,"rental_uris":{"android":"levelo://app?vid=40e59e64-9295-42a0-9590-a684a2d1ed78","ios":"levelo://app?vid=40e59e64-9295-42a0-9590-a684a2d1ed78"},"vehicle_type_id":"4","last_reported":1687075671,"current_range_meters":17600,"station_id":"ce4bhr92rcd13ifvqhrg","pricing_plan_id":"free"},{"bike_id":"4c52032b-ce52-4452-8b9f-9f212148fcc7","system_id":"levelo_inurba_marseille","lat":43.29595,"lon":5.39069,"is_reserved":false,"is_disabled":false,"rental_uris":{"android":"levelo://app?vid=4c52032b-ce52-4452-8b9f-9f212148fcc7","ios":"levelo://app?vid=4c52032b-ce52-4452-8b9f-9f212148fcc7"},"vehicle_type_id":"4","last_reported":1687075671,"current_range_meters":6400,"station_id":"","pricing_plan_id":"free"},{"bike_id":"1f06d9f4-2284-4de2-a168-44b150193abe","system_id":"levelo_inurba_marseille","lat":43.29785,"lon":5.39346,"is_reserved":false,"is_disabled":false,"rental_uris":{"android":"levelo://app?vid=1f06d9f4-2284-4de2-a168-44b150193abe","ios":"levelo://app?vid=1f06d9f4-2284-4de2-a168-44b150193abe"},"vehicle_type_id":"4","last_reported":1687075671,"current_range_meters":0,"station_id":"chh1huq6cuj3fo74tm60","pricing_plan_id":"free"},{"bike_id":"b9b44b37-7edf-4ab6-8685-17eb58a26dbc","system_id":"levelo_inurba_marseille","lat":43.295169,"lon":5.390426,"is_reserved":false,"is_disabled":false,"rental_uris":{"android":"levelo://app?vid=b9b44b37-7edf-4ab6-8685-17eb58a26dbc","ios":"levelo://app?vid=b9b44b37-7edf-4ab6-8685-17eb58a26dbc"},"vehicle_type_id":"4","last_reported":1687075671,"current_range_meters":28800,"station_id":"ce4bh3p2rcd13ifvqdp0","pricing_plan_id":"free"},{"bike_id":"936fbf11-1053-463f-aed4-42d471dd0481","system_id":"levelo_inurba_marseille","lat":43.29527,"lon":5.39043,"is_reserved":false,"is_disabled":false,"rental_uris":{"android":"levelo://app?vid=936fbf11-1053-463f-aed4-42d471dd0481","ios":"levelo://app?vid=936fbf11-1053-463f-aed4-42d471dd0481"},"vehicle_type_id":"4","last_reported":1687075672,"current_range_meters":26400,"station_id":"ce4bh3p2rcd13ifvqdp0","pricing_plan_id":"free"},{"bike_id":"20271c70-be52-486b-882d-7f6df7e77e9a","system_id":"levelo_inurba_marseille","lat":43.30979,"lon":5.40061,"is_reserved":false,"is_disabled":false,"rental_uris":{"android":"levelo://app?vid=20271c70-be52-486b-882d-7f6df7e77e9a","ios":"levelo://app?vid=20271c70-be52-486b-882d-7f6df7e77e9a"},"vehicle_type_id":"4","last_reported":1687075672,"current_range_meters":5600,"station_id":"","pricing_plan_id":"free"},{"bike_id":"fd234db2-f503-4041-8c0f-02fbb55d4916","system_id":"levelo_inurba_marseille","lat":43.29025,"lon":5.38132,"is_reserved":false,"is_disabled":false,"rental_uris":{"android":"levelo://app?vid=fd234db2-f503-4041-8c0f-02fbb55d4916","ios":"levelo://app?vid=fd234db2-f503-4041-8c0f-02fbb55d4916"},"vehicle_type_id":"4","last_reported":1687075672,"current_range_meters":30800,"station_id":"ce4bh4p2rcd13ifvqe1g","pricing_plan_id":"free"},{"bike_id":"c0fb8083-e02d-4dec-b1b9-fa095e6c5b75","system_id":"levelo_inurba_marseille","lat":43.337396,"lon":5.374526,"is_reserved":false,"is_disabled":false,"rental_uris":{"android":"levelo://app?vid=c0fb8083-e02d-4dec-b1b9-fa095e6c5b75","ios":"levelo://app?vid=c0fb8083-e02d-4dec-b1b9-fa095e6c5b75"},"vehicle_type_id":"4","last_reported":1687075672,"current_range_meters":0,"station_id":"ce4bhp92rcd13ifvqhag","pricing_plan_id":"free"},{"bike_id":"fecbd0c2-bfeb-4320-8680-9bf772d4dcfa","system_id":"levelo_inurba_marseille","lat":43.337417,"lon":5.374586,"is_reserved":false,"is_disabled":false,"rental_uris":{"android":"levelo://app?vid=fecbd0c2-bfeb-4320-8680-9bf772d4dcfa","ios":"levelo://app?vid=fecbd0c2-bfeb-4320-8680-9bf772d4dcfa"},"vehicle_type_id":"4","last_reported":1687075672,"current_range_meters":31200,"station_id":"","pricing_plan_id":"free"},{"bike_id":"e2136027-c5da-4737-8f84-5f5835af5a92","system_id":"levelo_inurba_marseille","lat":43.309371,"lon":5.401449,"is_reserved":false,"is_disabled":false,"rental_uris":{"android":"levelo://app?vid=e2136027-c5da-4737-8f84-5f5835af5a92","ios":"levelo://app?vid=e2136027-c5da-4737-8f84-5f5835af5a92"},"vehicle_type_id":"4","last_reported":1687075672,"current_range_meters":26800,"station_id":"ce4bgvp2rcd13ifvqct0","pricing_plan_id":"free"},{"bike_id":"4f356222-17b5-4ae9-9064-9f9fc4ff12ee","system_id":"levelo_inurba_marseille","lat":43.309371,"lon":5.401449,"is_reserved":false,"is_disabled":false,"rental_uris":{"android":"levelo://app?vid=4f356222-17b5-4ae9-9064-9f9fc4ff12ee","ios":"levelo://app?vid=4f356222-17b5-4ae9-9064-9f9fc4ff12ee"},"vehicle_type_id":"4","last_reported":1687075672,"current_range_meters":11600,"station_id":"ce4bgvp2rcd13ifvqct0","pricing_plan_id":"free"},{"bike_id":"84a1f1ce-a420-4d0a-90be-142424567589","system_id":"levelo_inurba_marseille","lat":43.309371,"lon":5.401449,"is_reserved":false,"is_disabled":false,"rental_uris":{"android":"levelo://app?vid=84a1f1ce-a420-4d0a-90be-142424567589","ios":"levelo://app?vid=84a1f1ce-a420-4d0a-90be-142424567589"},"vehicle_type_id":"4","last_reported":1687075672,"current_range_meters":2800,"station_id":"ce4bgvp2rcd13ifvqct0","pricing_plan_id":"free"},{"bike_id":"7701a17e-3305-4c9e-95b6-42a700bb9ef2","system_id":"levelo_inurba_marseille","lat":43.309371,"lon":5.401449,"is_reserved":false,"is_disabled":false,"rental_uris":{"android":"levelo://app?vid=7701a17e-3305-4c9e-95b6-42a700bb9ef2","ios":"levelo://app?vid=7701a17e-3305-4c9e-95b6-42a700bb9ef2"},"vehicle_type_id":"4","last_reported":1687075672,"current_range_meters":24000,"station_id":"ce4bgvp2rcd13ifvqct0","pricing_plan_id":"free"},{"bike_id":"7add96d3-64c8-4892-b080-a6eab9a74b8d","system_id":"levelo_inurba_marseille","lat":43.309371,"lon":5.401449,"is_reserved":false,"is_disabled":false,"rental_uris":{"android":"levelo://app?vid=7add96d3-64c8-4892-b080-a6eab9a74b8d","ios":"levelo://app?vid=7add96d3-64c8-4892-b080-a6eab9a74b8d"},"vehicle_type_id":"4","last_reported":1687075672,"current_range_meters":7600,"station_id":"ce4bgvp2rcd13ifvqct0","pricing_plan_id":"free"},{"bike_id":"0d2f385d-207e-4e83-9707-797f3496c11d","system_id":"levelo_inurba_marseille","lat":43.30649,"lon":5.40072,"is_reserved":false,"is_disabled":false,"rental_uris":{"android":"levelo://app?vid=0d2f385d-207e-4e83-9707-797f3496c11d","ios":"levelo://app?vid=0d2f385d-207e-4e83-9707-797f3496c11d"},"vehicle_type_id":"4","last_reported":1687075672,"current_range_meters":8800,"station_id":"ce4bh112rcd13ifvqda0","pricing_plan_id":"free"},{"bike_id":"41a8749b-6d93-4d1b-8e52-c5f60f65ae7c","system_id":"levelo_inurba_marseille","lat":43.33752,"lon":5.37443,"is_reserved":false,"is_disabled":false,"rental_uris":{"android":"levelo://app?vid=41a8749b-6d93-4d1b-8e52-c5f60f65ae7c","ios":"levelo://app?vid=41a8749b-6d93-4d1b-8e52-c5f60f65ae7c"},"vehicle_type_id":"4","last_reported":1687075672,"current_range_meters":27600,"station_id":"","pricing_plan_id":"free"},{"bike_id":"70ff8571-1cf2-4147-a7ae-e48cb29b3526","system_id":"levelo_inurba_marseille","lat":43.30644,"lon":5.40072,"is_reserved":false,"is_disabled":false,"rental_uris":{"android":"levelo://app?vid=70ff8571-1cf2-4147-a7ae-e48cb29b3526","ios":"levelo://app?vid=70ff8571-1cf2-4147-a7ae-e48cb29b3526"},"vehicle_type_id":"4","last_reported":1687075672,"current_range_meters":12400,"station_id":"ce4bh112rcd13ifvqda0","pricing_plan_id":"free"},{"bike_id":"79aeb243-40b9-4c4f-b95b-90e1c217502f","system_id":"levelo_inurba_marseille","lat":43.30647,"lon":5.40078,"is_reserved":false,"is_disabled":false,"rental_uris":{"android":"levelo://app?vid=79aeb243-40b9-4c4f-b95b-90e1c217502f","ios":"levelo://app?vid=79aeb243-40b9-4c4f-b95b-90e1c217502f"},"vehicle_type_id":"4","last_reported":1687075672,"current_range_meters":31200,"station_id":"ce4bh112rcd13ifvqda0","pricing_plan_id":"free"},{"bike_id":"62a093da-a0fe-468c-a21b-e310e8a5a031","system_id":"levelo_inurba_marseille","lat":43.30641,"lon":5.40076,"is_reserved":false,"is_disabled":false,"rental_uris":{"android":"levelo://app?vid=62a093da-a0fe-468c-a21b-e310e8a5a031","ios":"levelo://app?vid=62a093da-a0fe-468c-a21b-e310e8a5a031"},"vehicle_type_id":"4","last_reported":1687075672,"current_range_meters":12400,"station_id":"ce4bh112rcd13ifvqda0","pricing_plan_id":"free"},{"bike_id":"9fc2d521-b395-4924-8b62-ed7954c12a57","system_id":"levelo_inurba_marseille","lat":43.30636,"lon":5.40075,"is_reserved":false,"is_disabled":false,"rental_uris":{"android":"levelo://app?vid=9fc2d521-b395-4924-8b62-ed7954c12a57","ios":"levelo://app?vid=9fc2d521-b395-4924-8b62-ed7954c12a57"},"vehicle_type_id":"4","last_reported":1687075672,"current_range_meters":24000,"station_id":"ce4bh112rcd13ifvqda0","pricing_plan_id":"free"},{"bike_id":"9431a51f-e68a-4914-b96e-57b1f86f7e68","system_id":"levelo_inurba_marseille","lat":43.30641,"lon":5.40077,"is_reserved":false,"is_disabled":false,"rental_uris":{"android":"levelo://app?vid=9431a51f-e68a-4914-b96e-57b1f86f7e68","ios":"levelo://app?vid=9431a51f-e68a-4914-b96e-57b1f86f7e68"},"vehicle_type_id":"4","last_reported":1687075672,"current_range_meters":24800,"station_id":"ce4bh112rcd13ifvqda0","pricing_plan_id":"free"},{"bike_id":"0a863b74-b1d7-4a4d-b636-8de9698db32b","system_id":"levelo_inurba_marseille","lat":43.30639,"lon":5.40089,"is_reserved":false,"is_disabled":false,"rental_uris":{"android":"levelo://app?vid=0a863b74-b1d7-4a4d-b636-8de9698db32b","ios":"levelo://app?vid=0a863b74-b1d7-4a4d-b636-8de9698db32b"},"vehicle_type_id":"4","last_reported":1687075672,"current_range_meters":11600,"station_id":"ce4bh112rcd13ifvqda0","pricing_plan_id":"free"},{"bike_id":"395f5e88-55af-47d4-b488-3c0c072cd6d6","system_id":"levelo_inurba_marseille","lat":43.30632,"lon":5.40088,"is_reserved":false,"is_disabled":false,"rental_uris":{"android":"levelo://app?vid=395f5e88-55af-47d4-b488-3c0c072cd6d6","ios":"levelo://app?vid=395f5e88-55af-47d4-b488-3c0c072cd6d6"},"vehicle_type_id":"4","last_reported":1687075672,"current_range_meters":31200,"station_id":"ce4bh112rcd13ifvqda0","pricing_plan_id":"free"},{"bike_id":"d7609247-8dc9-4f3d-ac68-99205e3a7833","system_id":"levelo_inurba_marseille","lat":43.30128,"lon":5.39875,"is_reserved":false,"is_disabled":false,"rental_uris":{"android":"levelo://app?vid=d7609247-8dc9-4f3d-ac68-99205e3a7833","ios":"levelo://app?vid=d7609247-8dc9-4f3d-ac68-99205e3a7833"},"vehicle_type_id":"4","last_reported":1687075672,"current_range_meters":12400,"station_id":"ce4bh0h2rcd13ifvqd40","pricing_plan_id":"free"},{"bike_id":"994bee06-5a2a-4923-b24b-aaf451ec9fcc","system_id":"levelo_inurba_marseille","lat":43.298681,"lon":5.397225,"is_reserved":false,"is_disabled":false,"rental_uris":{"android":"levelo://app?vid=994bee06-5a2a-4923-b24b-aaf451ec9fcc","ios":"levelo://app?vid=994bee06-5a2a-4923-b24b-aaf451ec9fcc"},"vehicle_type_id":"4","last_reported":1687075672,"current_range_meters":31200,"station_id":"ce4bh0h2rcd13ifvqd50","pricing_plan_id":"free"},{"bike_id":"3582910f-9b14-4016-a5a8-c11c16333f00","system_id":"levelo_inurba_marseille","lat":43.298681,"lon":5.397225,"is_reserved":false,"is_disabled":false,"rental_uris":{"android":"levelo://app?vid=3582910f-9b14-4016-a5a8-c11c16333f00","ios":"levelo://app?vid=3582910f-9b14-4016-a5a8-c11c16333f00"},"vehicle_type_id":"4","last_reported":1687075672,"current_range_meters":30000,"station_id":"ce4bh0h2rcd13ifvqd50","pricing_plan_id":"free"},{"bike_id":"4df64033-ff54-45f8-85d9-e0ab2c47b944","system_id":"levelo_inurba_marseille","lat":43.29877,"lon":5.39728,"is_reserved":false,"is_disabled":false,"rental_uris":{"android":"levelo://app?vid=4df64033-ff54-45f8-85d9-e0ab2c47b944","ios":"levelo://app?vid=4df64033-ff54-45f8-85d9-e0ab2c47b944"},"vehicle_type_id":"4","last_reported":1687075672,"current_range_meters":25600,"station_id":"ce4bh0h2rcd13ifvqd50","pricing_plan_id":"free"},{"bike_id":"beca1915-ea86-45ac-9221-7d2a5bf109dc","system_id":"levelo_inurba_marseille","lat":43.29884,"lon":5.39738,"is_reserved":false,"is_disabled":false,"rental_uris":{"android":"levelo://app?vid=beca1915-ea86-45ac-9221-7d2a5bf109dc","ios":"levelo://app?vid=beca1915-ea86-45ac-9221-7d2a5bf109dc"},"vehicle_type_id":"4","last_reported":1687075672,"current_range_meters":21600,"station_id":"ce4bh0h2rcd13ifvqd50","pricing_plan_id":"free"},{"bike_id":"85b30dc9-5c99-4471-8d69-a95d819eab94","system_id":"levelo_inurba_marseille","lat":43.29876,"lon":5.39737,"is_reserved":false,"is_disabled":false,"rental_uris":{"android":"levelo://app?vid=85b30dc9-5c99-4471-8d69-a95d819eab94","ios":"levelo://app?vid=85b30dc9-5c99-4471-8d69-a95d819eab94"},"vehicle_type_id":"4","last_reported":1687075672,"current_range_meters":18400,"station_id":"ce4bh0h2rcd13ifvqd50","pricing_plan_id":"free"},{"bike_id":"c785f083-7452-4d1b-ae2d-f5afd58be341","system_id":"levelo_inurba_marseille","lat":43.298681,"lon":5.397225,"is_reserved":false,"is_disabled":false,"rental_uris":{"android":"levelo://app?vid=c785f083-7452-4d1b-ae2d-f5afd58be341","ios":"levelo://app?vid=c785f083-7452-4d1b-ae2d-f5afd58be341"},"vehicle_type_id":"4","last_reported":1687075672,"current_range_meters":27200,"station_id":"ce4bh0h2rcd13ifvqd50","pricing_plan_id":"free"},{"bike_id":"ad7fe07a-51f6-4b46-99f3-6d47e0bc02f9","system_id":"levelo_inurba_marseille","lat":43.286591,"lon":5.363346,"is_reserved":false,"is_disabled":false,"rental_uris":{"android":"levelo://app?vid=ad7fe07a-51f6-4b46-99f3-6d47e0bc02f9","ios":"levelo://app?vid=ad7fe07a-51f6-4b46-99f3-6d47e0bc02f9"},"vehicle_type_id":"4","last_reported":1687075672,"current_range_meters":17600,"station_id":"ce4bhah2rcd13ifvqej0","pricing_plan_id":"free"},{"bike_id":"e0b8b551-3b94-4a8b-9115-d0e25c950423","system_id":"levelo_inurba_marseille","lat":43.295194,"lon":5.39397,"is_reserved":false,"is_disabled":false,"rental_uris":{"android":"levelo://app?vid=e0b8b551-3b94-4a8b-9115-d0e25c950423","ios":"levelo://app?vid=e0b8b551-3b94-4a8b-9115-d0e25c950423"},"vehicle_type_id":"4","last_reported":1687075672,"current_range_meters":27200,"station_id":"ce4bh292rcd13ifvqdf0","pricing_plan_id":"free"},{"bike_id":"9b626bf4-13fb-47d1-9c45-ba0a74abde7b","system_id":"levelo_inurba_marseille","lat":43.30244,"lon":5.4005,"is_reserved":false,"is_disabled":false,"rental_uris":{"android":"levelo://app?vid=9b626bf4-13fb-47d1-9c45-ba0a74abde7b","ios":"levelo://app?vid=9b626bf4-13fb-47d1-9c45-ba0a74abde7b"},"vehicle_type_id":"4","last_reported":1687075672,"current_range_meters":17600,"station_id":"","pricing_plan_id":"free"},{"bike_id":"21cf0a29-31c0-46c5-9516-b0f5847b8ecc","system_id":"levelo_inurba_marseille","lat":43.30244,"lon":5.40051,"is_reserved":false,"is_disabled":false,"rental_uris":{"android":"levelo://app?vid=21cf0a29-31c0-46c5-9516-b0f5847b8ecc","ios":"levelo://app?vid=21cf0a29-31c0-46c5-9516-b0f5847b8ecc"},"vehicle_type_id":"4","last_reported":1687075672,"current_range_meters":14400,"station_id":"","pricing_plan_id":"free"},{"bike_id":"c16cd8a2-f45f-40d1-aaac-a94463da4f69","system_id":"levelo_inurba_marseille","lat":43.30245,"lon":5.40058,"is_reserved":false,"is_disabled":false,"rental_uris":{"android":"levelo://app?vid=c16cd8a2-f45f-40d1-aaac-a94463da4f69","ios":"levelo://app?vid=c16cd8a2-f45f-40d1-aaac-a94463da4f69"},"vehicle_type_id":"4","last_reported":1687075672,"current_range_meters":19200,"station_id":"","pricing_plan_id":"free"},{"bike_id":"23ed75f5-98f9-4078-b293-962b7f6d8657","system_id":"levelo_inurba_marseille","lat":43.302759,"lon":5.400793,"is_reserved":false,"is_disabled":false,"rental_uris":{"android":"levelo://app?vid=23ed75f5-98f9-4078-b293-962b7f6d8657","ios":"levelo://app?vid=23ed75f5-98f9-4078-b293-962b7f6d8657"},"vehicle_type_id":"4","last_reported":1687075672,"current_range_meters":31200,"station_id":"ce4bgvh2rcd13ifvqcs0","pricing_plan_id":"free"},{"bike_id":"0287f98a-d338-4eda-825e-5d11bf3aa33a","system_id":"levelo_inurba_marseille","lat":43.30243,"lon":5.40058,"is_reserved":false,"is_disabled":false,"rental_uris":{"android":"levelo://app?vid=0287f98a-d338-4eda-825e-5d11bf3aa33a","ios":"levelo://app?vid=0287f98a-d338-4eda-825e-5d11bf3aa33a"},"vehicle_type_id":"4","last_reported":1687075672,"current_range_meters":26800,"station_id":"","pricing_plan_id":"free"},{"bike_id":"8f392288-48e8-4530-bc9b-7a4bd7128a0b","system_id":"levelo_inurba_marseille","lat":43.302759,"lon":5.400793,"is_reserved":false,"is_disabled":false,"rental_uris":{"android":"levelo://app?vid=8f392288-48e8-4530-bc9b-7a4bd7128a0b","ios":"levelo://app?vid=8f392288-48e8-4530-bc9b-7a4bd7128a0b"},"vehicle_type_id":"4","last_reported":1687075672,"current_range_meters":31200,"station_id":"ce4bgvh2rcd13ifvqcs0","pricing_plan_id":"free"},{"bike_id":"19fdd951-f5fe-4f04-bed9-262a7b68e712","system_id":"levelo_inurba_marseille","lat":43.29024,"lon":5.38637,"is_reserved":false,"is_disabled":false,"rental_uris":{"android":"levelo://app?vid=19fdd951-f5fe-4f04-bed9-262a7b68e712","ios":"levelo://app?vid=19fdd951-f5fe-4f04-bed9-262a7b68e712"},"vehicle_type_id":"4","last_reported":1687075672,"current_range_meters":20400,"station_id":"ce4bh4p2rcd13ifvqe0g","pricing_plan_id":"free"},{"bike_id":"ccc4a240-8c5b-4aad-825b-624effa7dfdb","system_id":"levelo_inurba_marseille","lat":43.302759,"lon":5.400793,"is_reserved":false,"is_disabled":false,"rental_uris":{"android":"levelo://app?vid=ccc4a240-8c5b-4aad-825b-624effa7dfdb","ios":"levelo://app?vid=ccc4a240-8c5b-4aad-825b-624effa7dfdb"},"vehicle_type_id":"4","last_reported":1687075672,"current_range_meters":24400,"station_id":"ce4bgvh2rcd13ifvqcs0","pricing_plan_id":"free"},{"bike_id":"fe7f77cd-afb3-467b-99a3-1518357b1863","system_id":"levelo_inurba_marseille","lat":43.302759,"lon":5.400793,"is_reserved":false,"is_disabled":false,"rental_uris":{"android":"levelo://app?vid=fe7f77cd-afb3-467b-99a3-1518357b1863","ios":"levelo://app?vid=fe7f77cd-afb3-467b-99a3-1518357b1863"},"vehicle_type_id":"4","last_reported":1687075672,"current_range_meters":24800,"station_id":"ce4bgvh2rcd13ifvqcs0","pricing_plan_id":"free"},{"bike_id":"b9d11a7a-8b84-44d9-9906-bfd0c7fdc492","system_id":"levelo_inurba_marseille","lat":43.302759,"lon":5.400793,"is_reserved":false,"is_disabled":false,"rental_uris":{"android":"levelo://app?vid=b9d11a7a-8b84-44d9-9906-bfd0c7fdc492","ios":"levelo://app?vid=b9d11a7a-8b84-44d9-9906-bfd0c7fdc492"},"vehicle_type_id":"4","last_reported":1687075672,"current_range_meters":20800,"station_id":"ce4bgvh2rcd13ifvqcs0","pricing_plan_id":"free"},{"bike_id":"39ebb783-a4ad-497a-a8b4-f26310952609","system_id":"levelo_inurba_marseille","lat":43.30244,"lon":5.40062,"is_reserved":false,"is_disabled":false,"rental_uris":{"android":"levelo://app?vid=39ebb783-a4ad-497a-a8b4-f26310952609","ios":"levelo://app?vid=39ebb783-a4ad-497a-a8b4-f26310952609"},"vehicle_type_id":"4","last_reported":1687075672,"current_range_meters":25200,"station_id":"","pricing_plan_id":"free"},{"bike_id":"5551c0f2-7dff-4028-a828-1068d632361e","system_id":"levelo_inurba_marseille","lat":43.3024,"lon":5.4006,"is_reserved":false,"is_disabled":false,"rental_uris":{"android":"levelo://app?vid=5551c0f2-7dff-4028-a828-1068d632361e","ios":"levelo://app?vid=5551c0f2-7dff-4028-a828-1068d632361e"},"vehicle_type_id":"4","last_reported":1687075672,"current_range_meters":22400,"station_id":"","pricing_plan_id":"free"},{"bike_id":"2724b277-3342-4a61-8f2f-7eac0f1f36b4","system_id":"levelo_inurba_marseille","lat":43.3024,"lon":5.40062,"is_reserved":false,"is_disabled":false,"rental_uris":{"android":"levelo://app?vid=2724b277-3342-4a61-8f2f-7eac0f1f36b4","ios":"levelo://app?vid=2724b277-3342-4a61-8f2f-7eac0f1f36b4"},"vehicle_type_id":"4","last_reported":1687075672,"current_range_meters":26800,"station_id":"","pricing_plan_id":"free"},{"bike_id":"363358b6-1711-4e58-99d3-4183c9c5eb18","system_id":"levelo_inurba_marseille","lat":43.302759,"lon":5.400793,"is_reserved":false,"is_disabled":false,"rental_uris":{"android":"levelo://app?vid=363358b6-1711-4e58-99d3-4183c9c5eb18","ios":"levelo://app?vid=363358b6-1711-4e58-99d3-4183c9c5eb18"},"vehicle_type_id":"4","last_reported":1687075672,"current_range_meters":20800,"station_id":"ce4bgvh2rcd13ifvqcs0","pricing_plan_id":"free"},{"bike_id":"9471470d-b27d-4eca-8508-fc3a241a85a1","system_id":"levelo_inurba_marseille","lat":43.30253,"lon":5.40071,"is_reserved":false,"is_disabled":false,"rental_uris":{"android":"levelo://app?vid=9471470d-b27d-4eca-8508-fc3a241a85a1","ios":"levelo://app?vid=9471470d-b27d-4eca-8508-fc3a241a85a1"},"vehicle_type_id":"4","last_reported":1687075672,"current_range_meters":17600,"station_id":"ce4bgvh2rcd13ifvqcs0","pricing_plan_id":"free"},{"bike_id":"6e40926a-356b-4831-8b76-bfd9bcdd471c","system_id":"levelo_inurba_marseille","lat":43.302759,"lon":5.400793,"is_reserved":false,"is_disabled":false,"rental_uris":{"android":"levelo://app?vid=6e40926a-356b-4831-8b76-bfd9bcdd471c","ios":"levelo://app?vid=6e40926a-356b-4831-8b76-bfd9bcdd471c"},"vehicle_type_id":"4","last_reported":1687075672,"current_range_meters":26000,"station_id":"ce4bgvh2rcd13ifvqcs0","pricing_plan_id":"free"},{"bike_id":"4a74f9c8-3b59-4801-9fd4-445288615a3e","system_id":"levelo_inurba_marseille","lat":43.302759,"lon":5.400793,"is_reserved":false,"is_disabled":false,"rental_uris":{"android":"levelo://app?vid=4a74f9c8-3b59-4801-9fd4-445288615a3e","ios":"levelo://app?vid=4a74f9c8-3b59-4801-9fd4-445288615a3e"},"vehicle_type_id":"4","last_reported":1687075672,"current_range_meters":17600,"station_id":"ce4bgvh2rcd13ifvqcs0","pricing_plan_id":"free"},{"bike_id":"12a78189-b758-48a5-b733-0ce93b9b6027","system_id":"levelo_inurba_marseille","lat":43.28616,"lon":5.37066,"is_reserved":false,"is_disabled":false,"rental_uris":{"android":"levelo://app?vid=12a78189-b758-48a5-b733-0ce93b9b6027","ios":"levelo://app?vid=12a78189-b758-48a5-b733-0ce93b9b6027"},"vehicle_type_id":"4","last_reported":1687075672,"current_range_meters":31200,"station_id":"ce4bht12rcd13ifvqi60","pricing_plan_id":"free"},{"bike_id":"e799a2af-517e-4f5d-8de1-2901168c7d4f","system_id":"levelo_inurba_marseille","lat":43.28612,"lon":5.37061,"is_reserved":false,"is_disabled":false,"rental_uris":{"android":"levelo://app?vid=e799a2af-517e-4f5d-8de1-2901168c7d4f","ios":"levelo://app?vid=e799a2af-517e-4f5d-8de1-2901168c7d4f"},"vehicle_type_id":"4","last_reported":1687075672,"current_range_meters":31200,"station_id":"ce4bht12rcd13ifvqi60","pricing_plan_id":"free"},{"bike_id":"7da3b592-e297-4124-b47c-2c0227132438","system_id":"levelo_inurba_marseille","lat":43.28611,"lon":5.37063,"is_reserved":false,"is_disabled":false,"rental_uris":{"android":"levelo://app?vid=7da3b592-e297-4124-b47c-2c0227132438","ios":"levelo://app?vid=7da3b592-e297-4124-b47c-2c0227132438"},"vehicle_type_id":"4","last_reported":1687075672,"current_range_meters":30400,"station_id":"ce4bht12rcd13ifvqi60","pricing_plan_id":"free"},