{"last_updated":1784400262,"ttl":60,"version":"2.2","data":{"bikes":[{"bike_id":"ba0c28b1-8732-48e2-8079-f25b2b3fbc3c","system_id":"levelo_inurba_marseille","lat":43.337444,"lon":5.374475,"is_reserved":false,"is_disabled":false,"rental_uris":{"android":"levelo://app?vid=ba0c28b1-8732-48e2-8079-f25b2b3fbc3c","ios":"levelo://app?vid=ba0c28b1-8732-48e2-8079-f25b2b3fbc3c"},"vehicle_type_id":"4","last_reported":1784400263,"current_range_meters":0,"station_id":"","pricing_plan_id":"cebpf4jnsgd1na2vs0mg"},{"bike_id":"cec666c5-2396-4bda-bc79-7be17e8190d4","system_id":"levelo_inurba_marseille","lat":43.29275,"lon":5.36837,"is_reserved":false,"is_disabled":false,"rental_uris":{"android":"levelo://app?vid=cec666c5-2396-4bda-bc79-7be17e8190d4","ios":"levelo://app?vid=cec666c5-2396-4bda-bc79-7be17e8190d4"},"vehicle_type_id":"4","last_reported":1784400263,"current_range_meters":35600,"station_id":"","pricing_plan_id":"cebpf4jnsgd1na2vs0mg"},{"bike_id":"63dc20ac-90f4-4eae-ac6c-d24ae13a7929","system_id":"levelo_inurba_marseille","lat":43.25329,"lon":5.42167,"is_reserved":false,"is_disabled":false,"rental_uris":{"android":"levelo://app?vid=63dc20ac-90f4-4eae-ac6c-d24ae13a7929","ios":"levelo://app?vid=63dc20ac-90f4-4eae-ac6c-d24ae13a7929"},"vehicle_type_id":"4","last_reported":1784400263,"current_range_meters":31200,"station_id":"st_d2m65c5bi1j21697t3ng","pricing_plan_id":"cebpf4jnsgd1na2vs0mg"},{"bike_id":"2c586cc8-15f7-4241-a87a-059ae781a396","system_id":"levelo_inurba_marseille","lat":43.29048,"lon":5.35893,"is_reserved":false,"is_disabled":false,"rental_uris":{"android":"levelo://app?vid=2c586cc8-15f7-4241-a87a-059ae781a396","ios":"levelo://app?vid=2c586cc8-15f7-4241-a87a-059ae781a396"},"vehicle_type_id":"4","last_reported":1784400263,"current_range_meters":6000,"station_id":"ce4bha92rcd13ifvqeg0","pricing_plan_id":"cebpf4jnsgd1na2vs0mg"},{"bike_id":"8f0fed9e-dde8-4ceb-924d-24224ef116ca","system_id":"levelo_inurba_marseille","lat":43.30966,"lon":5.39048,"is_reserved":false,"is_disabled":false,"rental_uris":{"android":"levelo://app?vid=8f0fed9e-dde8-4ceb-924d-24224ef116ca","ios":"levelo://app?vid=8f0fed9e-dde8-4ceb-924d-24224ef116ca"},"vehicle_type_id":"4","last_reported":1784400263,"current_range_meters":14000,"station_id":"ce4bgup2rcd13ifvqco0","pricing_plan_id":"cebpf4jnsgd1na2vs0mg"},{"bike_id":"907f8459-e0e6-4dba-9fd7-5ff012118fa5","system_id":"levelo_inurba_marseille","lat":43.26031,"lon":5.37547,"is_reserved":false,"is_disabled":false,"rental_uris":{"android":"levelo://app?vid=907f8459-e0e6-4dba-9fd7-5ff012118fa5","ios":"levelo://app?vid=907f8459-e0e6-4dba-9fd7-5ff012118fa5"},"vehicle_type_id":"4","last_reported":1784400263,"current_range_meters":25200,"station_id":"ce4bhgh2rcd13ifvqfa0","pricing_plan_id":"cebpf4jnsgd1na2vs0mg"},{"bike_id":"e27e95f6-9b02-410d-bfe2-78fdcaa81660","system_id":"levelo_inurba_marseille","lat":43.26028,"lon":5.37549,"is_reserved":false,"is_disabled":false,"rental_uris":{"android":"levelo://app?vid=e27e95f6-9b02-410d-bfe2-78fdcaa81660","ios":"levelo://app?vid=e27e95f6-9b02-410d-bfe2-78fdcaa81660"},"vehicle_type_id":"4","last_reported":1784400263,"current_range_meters":6800,"station_id":"ce4bhgh2rcd13ifvqfa0","pricing_plan_id":"cebpf4jnsgd1na2vs0mg"},{"bike_id":"0673e49e-08da-43cf-a4af-aeedb0745f94","system_id":"levelo_inurba_marseille","lat":43.2953,"lon":5.375,"is_reserved":false,"is_disabled":false,"rental_uris":{"android":"levelo://app?vid=0673e49e-08da-43cf-a4af-aeedb0745f94","ios":"levelo://app?vid=0673e49e-08da-43cf-a4af-aeedb0745f94"},"vehicle_type_id":"4","last_reported":1784400263,"current_range_meters":9200,"station_id":"ce4bgkp2rcd13ifvqbmg","pricing_plan_id":"cebpf4jnsgd1na2vs0mg"},{"bike_id":"edc293ec-aaef-4cc0-903d-983aa4cb3d2f","system_id":"levelo_inurba_marseille","lat":43.30946,"lon":5.36679,"is_reserved":false,"is_disabled":false,"rental_uris":{"android":"levelo://app?vid=edc293ec-aaef-4cc0-903d-983aa4cb3d2f","ios":"levelo://app?vid=edc293ec-aaef-4cc0-903d-983aa4cb3d2f"},"vehicle_type_id":"4","last_reported":1784400263,"current_range_meters":5600,"station_id":"","pricing_plan_id":"cebpf4jnsgd1na2vs0mg"},{"bike_id":"24e35db2-cdfa-4bb0-b449-d3488930df77","system_id":"levelo_inurba_marseille","lat":43.24046,"lon":5.37774,"is_reserved":false,"is_disabled":false,"rental_uris":{"android":"levelo://app?vid=24e35db2-cdfa-4bb0-b449-d3488930df77","ios":"levelo://app?vid=24e35db2-cdfa-4bb0-b449-d3488930df77"},"vehicle_type_id":"4","last_reported":1784400263,"current_range_meters":39200,"station_id":"ce4bhnp2rcd13ifvqgvg","pricing_plan_id":"cebpf4jnsgd1na2vs0mg"},{"bike_id":"9da5cadf-cdd1-429b-9b5e-9173177dfcc4","system_id":"levelo_inurba_marseille","lat":43.24396,"lon":5.37072,"is_reserved":false,"is_disabled":false,"rental_uris":{"android":"levelo://app?vid=9da5cadf-cdd1-429b-9b5e-9173177dfcc4","ios":"levelo://app?vid=9da5cadf-cdd1-429b-9b5e-9173177dfcc4"},"vehicle_type_id":"4","last_reported":1784400263,"current_range_meters":10000,"station_id":"ce4bhhh2rcd13ifvqfk0","pricing_plan_id":"cebpf4jnsgd1na2vs0mg"},{"bike_id":"4c97a4b8-64e3-4026-b64c-e38ea480fc87","system_id":"levelo_inurba_marseille","lat":43.29205,"lon":5.35791,"is_reserved":false,"is_disabled":false,"rental_uris":{"android":"levelo://app?vid=4c97a4b8-64e3-4026-b64c-e38ea480fc87","ios":"levelo://app?vid=4c97a4b8-64e3-4026-b64c-e38ea480fc87"},"vehicle_type_id":"4","last_reported":1784400263,"current_range_meters":39200,"station_id":"ce4bhb12rcd13ifvqel0","pricing_plan_id":"cebpf4jnsgd1na2vs0mg"},{"bike_id":"e71494cd-d4a8-436a-a5c6-260a2924500e","system_id":"levelo_inurba_marseille","lat":43.2623,"lon":5.38764,"is_reserved":false,"is_disabled":true,"rental_uris":{"android":"levelo://app?vid=e71494cd-d4a8-436a-a5c6-260a2924500e","ios":"levelo://app?vid=e71494cd-d4a8-436a-a5c6-260a2924500e"},"vehicle_type_id":"4","last_reported":1784400263,"current_range_meters":27600,"station_id":"st_d8gjfg747rts73coq3b0","pricing_plan_id":"cebpf4jnsgd1na2vs0mg"},{"bike_id":"4dd83e35-73dd-44b8-9d3c-9c21e3418d4e","system_id":"levelo_inurba_marseille","lat":43.27481,"lon":5.42584,"is_reserved":false,"is_disabled":false,"rental_uris":{"android":"levelo://app?vid=4dd83e35-73dd-44b8-9d3c-9c21e3418d4e","ios":"levelo://app?vid=4dd83e35-73dd-44b8-9d3c-9c21e3418d4e"},"vehicle_type_id":"4","last_reported":1784400263,"current_range_meters":12000,"station_id":"st_d8t4bh7nbrqs73arha60","pricing_plan_id":"cebpf4jnsgd1na2vs0mg"},{"bike_id":"75a38f66-5c5b-4574-9a4f-caaf29b774e2","system_id":"levelo_inurba_marseille","lat":43.24171,"lon":5.36394,"is_reserved":false,"is_disabled":false,"rental_uris":{"android":"levelo://app?vid=75a38f66-5c5b-4574-9a4f-caaf29b774e2","ios":"levelo://app?vid=75a38f66-5c5b-4574-9a4f-caaf29b774e2"},"vehicle_type_id":"4","last_reported":1784400263,"current_range_meters":15200,"station_id":"cpo36qri1sfpv3e86is0","pricing_plan_id":"cebpf4jnsgd1na2vs0mg"},{"bike_id":"6666b766-2ccd-467a-ad53-5ec31fb4dec4","system_id":"levelo_inurba_marseille","lat":43.24753,"lon":5.37549,"is_reserved":false,"is_disabled":false,"rental_uris":{"android":"levelo://app?vid=6666b766-2ccd-467a-ad53-5ec31fb4dec4","ios":"levelo://app?vid=6666b766-2ccd-467a-ad53-5ec31fb4dec4"},"vehicle_type_id":"4","last_reported":1784400263,"current_range_meters":34800,"station_id":"","pricing_plan_id":"cebpf4jnsgd1na2vs0mg"},{"bike_id":"46306a0d-9235-46a7-be48-833c7f44f8a2","system_id":"levelo_inurba_marseille","lat":43.29487,"lon":5.43289,"is_reserved":false,"is_disabled":false,"rental_uris":{"android":"levelo://app?vid=46306a0d-9235-46a7-be48-833c7f44f8a2","ios":"levelo://app?vid=46306a0d-9235-46a7-be48-833c7f44f8a2"},"vehicle_type_id":"4","last_reported":1784400263,"current_range_meters":30800,"station_id":"st_d3j5ugp08ojc73fj9d10","pricing_plan_id":"cebpf4jnsgd1na2vs0mg"},{"bike_id":"553ae30a-302c-4a02-9db3-0c9b455f1aa4","system_id":"levelo_inurba_marseille","lat":43.29202,"lon":5.35796,"is_reserved":false,"is_disabled":false,"rental_uris":{"android":"levelo://app?vid=553ae30a-302c-4a02-9db3-0c9b455f1aa4","ios":"levelo://app?vid=553ae30a-302c-4a02-9db3-0c9b455f1aa4"},"vehicle_type_id":"4","last_reported":1784400263,"current_range_meters":14400,"station_id":"ce4bhb12rcd13ifvqel0","pricing_plan_id":"cebpf4jnsgd1na2vs0mg"},{"bike_id":"d7da764c-850d-4748-a1c2-68e3cab24b17","system_id":"levelo_inurba_marseille","lat":43.26223,"lon":5.38764,"is_reserved":false,"is_disabled":false,"rental_uris":{"android":"levelo://app?vid=d7da764c-850d-4748-a1c2-68e3cab24b17","ios":"levelo://app?vid=d7da764c-850d-4748-a1c2-68e3cab24b17"},"vehicle_type_id":"4","last_reported":1784400263,"current_range_meters":39200,"station_id":"st_d8gjfg747rts73coq3b0","pricing_plan_id":"cebpf4jnsgd1na2vs0mg"},{"bike_id":"45ef7f0d-946d-43b4-a41c-fb482c018cf9","system_id":"levelo_inurba_marseille","lat":43.29035,"lon":5.38633,"is_reserved":false,"is_disabled":false,"rental_uris":{"android":"levelo://app?vid=45ef7f0d-946d-43b4-a41c-fb482c018cf9","ios":"levelo://app?vid=45ef7f0d-946d-43b4-a41c-fb482c018cf9"},"vehicle_type_id":"4","last_reported":1784400263,"current_range_meters":37600,"station_id":"ce4bh4p2rcd13ifvqe0g","pricing_plan_id":"cebpf4jnsgd1na2vs0mg"},{"bike_id":"74db0d45-8e44-47c8-9bbb-438106ac8229","system_id":"levelo_inurba_marseille","lat":43.30824,"lon":5.38137,"is_reserved":false,"is_disabled":true,"rental_uris":{"android":"levelo://app?vid=74db0d45-8e44-47c8-9bbb-438106ac8229","ios":"levelo://app?vid=74db0d45-8e44-47c8-9bbb-438106ac8229"},"vehicle_type_id":"4","last_reported":1784400263,"current_range_meters":25600,"station_id":"ce4bgt12rcd13ifvqce0","pricing_plan_id":"cebpf4jnsgd1na2vs0mg"},{"bike_id":"69a785a6-531b-4020-bc06-f6e3aeadcc6f","system_id":"levelo_inurba_marseille","lat":43.2637,"lon":5.41074,"is_reserved":false,"is_disabled":false,"rental_uris":{"android":"levelo://app?vid=69a785a6-531b-4020-bc06-f6e3aeadcc6f","ios":"levelo://app?vid=69a785a6-531b-4020-bc06-f6e3aeadcc6f"},"vehicle_type_id":"4","last_reported":1784400263,"current_range_meters":6000,"station_id":"st_d4e5ca6na9uc73bfl5fg","pricing_plan_id":"cebpf4jnsgd1na2vs0mg"},{"bike_id":"129ac767-2638-4c48-b9ca-8da71d89525b","system_id":"levelo_inurba_marseille","lat":43.23901,"lon":5.37454,"is_reserved":false,"is_disabled":false,"rental_uris":{"android":"levelo://app?vid=129ac767-2638-4c48-b9ca-8da71d89525b","ios":"levelo://app?vid=129ac767-2638-4c48-b9ca-8da71d89525b"},"vehicle_type_id":"4","last_reported":1784400263,"current_range_meters":30000,"station_id":"st_d6sm7csbq4hs73f8fpjg","pricing_plan_id":"cebpf4jnsgd1na2vs0mg"},{"bike_id":"c180bc57-12f5-435a-8219-0c0ef26aa8c0","system_id":"levelo_inurba_marseille","lat":43.2254,"lon":5.34822,"is_reserved":false,"is_disabled":false,"rental_uris":{"android":"levelo://app?vid=c180bc57-12f5-435a-8219-0c0ef26aa8c0","ios":"levelo://app?vid=c180bc57-12f5-435a-8219-0c0ef26aa8c0"},"vehicle_type_id":"4","last_reported":1784400263,"current_range_meters":35200,"station_id":"st_cvj5dfep6f1abm77gieg","pricing_plan_id":"cebpf4jnsgd1na2vs0mg"},{"bike_id":"32c95016-82d3-4943-8193-1a98c4bf18c7","system_id":"levelo_inurba_marseille","lat":43.28101,"lon":5.35631,"is_reserved":false,"is_disabled":false,"rental_uris":{"android":"levelo://app?vid=32c95016-82d3-4943-8193-1a98c4bf18c7","ios":"levelo://app?vid=32c95016-82d3-4943-8193-1a98c4bf18c7"},"vehicle_type_id":"4","last_reported":1784400263,"current_range_meters":8000,"station_id":"","pricing_plan_id":"cebpf4jnsgd1na2vs0mg"},{"bike_id":"7c95905f-13e5-452f-8722-3d5cea639d10","system_id":"levelo_inurba_marseille","lat":43.29025,"lon":5.38643,"is_reserved":false,"is_disabled":false,"rental_uris":{"android":"levelo://app?vid=7c95905f-13e5-452f-8722-3d5cea639d10","ios":"levelo://app?vid=7c95905f-13e5-452f-8722-3d5cea639d10"},"vehicle_type_id":"4","last_reported":1784400263,"current_range_meters":17200,"station_id":"ce4bh4p2rcd13ifvqe0g","pricing_plan_id":"cebpf4jnsgd1na2vs0mg"},{"bike_id":"b07627d2-9fd8-480d-b402-c9b23b7accaf","system_id":"levelo_inurba_marseille","lat":43.301463,"lon":5.374155,"is_reserved":false,"is_disabled":false,"rental_uris":{"android":"levelo://app?vid=b07627d2-9fd8-480d-b402-c9b23b7accaf","ios":"levelo://app?vid=b07627d2-9fd8-480d-b402-c9b23b7accaf"},"vehicle_type_id":"4","last_reported":1784400263,"current_range_meters":9200,"station_id":"ce4bgs92rcd13ifvqcc0","pricing_plan_id":"cebpf4jnsgd1na2vs0mg"},{"bike_id":"4956dc47-f854-45cb-a05a-fa44ffdc5a4a","system_id":"levelo_inurba_marseille","lat":43.2886,"lon":5.35846,"is_reserved":false,"is_disabled":true,"rental_uris":{"android":"levelo://app?vid=4956dc47-f854-45cb-a05a-fa44ffdc5a4a","ios":"levelo://app?vid=4956dc47-f854-45cb-a05a-fa44ffdc5a4a"},"vehicle_type_id":"4","last_reported":1784400263,"current_range_meters":0,"station_id":"ce4bhb12rcd13ifvqem0","pricing_plan_id":"cebpf4jnsgd1na2vs0mg"},{"bike_id":"ef6880d0-6944-4f6a-8f40-6662368b8f75","system_id":"levelo_inurba_marseille","lat":43.31708,"lon":5.43707,"is_reserved":false,"is_disabled":false,"rental_uris":{"android":"levelo://app?vid=ef6880d0-6944-4f6a-8f40-6662368b8f75","ios":"levelo://app?vid=ef6880d0-6944-4f6a-8f40-6662368b8f75"},"vehicle_type_id":"4","last_reported":1784400263,"current_range_meters":10800,"station_id":"ce4bhp92rcd13ifvqhcg","pricing_plan_id":"cebpf4jnsgd1na2vs0mg"},{"bike_id":"1ec790fa-e31c-4751-aeb2-d119889b8c1a","system_id":"levelo_inurba_marseille","lat":43.23206,"lon":5.3554,"is_reserved":false,"is_disabled":false,"rental_uris":{"android":"levelo://app?vid=1ec790fa-e31c-4751-aeb2-d119889b8c1a","ios":"levelo://app?vid=1ec790fa-e31c-4751-aeb2-d119889b8c1a"},"vehicle_type_id":"4","last_reported":1784400263,"current_range_meters":28800,"station_id":"ce4bhu92rcd13ifvqi70","pricing_plan_id":"cebpf4jnsgd1na2vs0mg"},{"bike_id":"ac73781c-7964-453a-82c7-5e417be13435","system_id":"levelo_inurba_marseille","lat":43.28625,"lon":5.37048,"is_reserved":false,"is_disabled":false,"rental_uris":{"android":"levelo://app?vid=ac73781c-7964-453a-82c7-5e417be13435","ios":"levelo://app?vid=ac73781c-7964-453a-82c7-5e417be13435"},"vehicle_type_id":"4","last_reported":1784400263,"current_range_meters":32800,"station_id":"ce4bht12rcd13ifvqi60","pricing_plan_id":"cebpf4jnsgd1na2vs0mg"},{"bike_id":"431a9582-7044-41fd-aac9-f4abde960ed9","system_id":"levelo_inurba_marseille","lat":43.24822,"lon":5.3746,"is_reserved":false,"is_disabled":false,"rental_uris":{"android":"levelo://app?vid=431a9582-7044-41fd-aac9-f4abde960ed9","ios":"levelo://app?vid=431a9582-7044-41fd-aac9-f4abde960ed9"},"vehicle_type_id":"4","last_reported":1784400263,"current_range_meters":39200,"station_id":"ce4bhgh2rcd13ifvqfb0","pricing_plan_id":"cebpf4jnsgd1na2vs0mg"},{"bike_id":"9c50aa28-7710-4d02-a572-346f1354dd33","system_id":"levelo_inurba_marseille","lat":43.29195,"lon":5.35805,"is_reserved":false,"is_disabled":false,"rental_uris":{"android":"levelo://app?vid=9c50aa28-7710-4d02-a572-346f1354dd33","ios":"levelo://app?vid=9c50aa28-7710-4d02-a572-346f1354dd33"},"vehicle_type_id":"4","last_reported":1784400263,"current_range_meters":24000,"station_id":"ce4bhb12rcd13ifvqel0","pricing_plan_id":"cebpf4jnsgd1na2vs0mg"},{"bike_id":"d183c213-4177-4bf2-b9e0-24872be8a9c8","system_id":"levelo_inurba_marseille","lat":43.28473,"lon":5.48403,"is_reserved":false,"is_disabled":false,"rental_uris":{"android":"levelo://app?vid=d183c213-4177-4bf2-b9e0-24872be8a9c8","ios":"levelo://app?vid=d183c213-4177-4bf2-b9e0-24872be8a9c8"},"vehicle_type_id":"4","last_reported":1784400263,"current_range_meters":16800,"station_id":"st_d3svhcjqgbts73a3dn0g","pricing_plan_id":"cebpf4jnsgd1na2vs0mg"},{"bike_id":"5f123f66-0787-4c31-b9de-4a2233ee72ea","system_id":"levelo_inurba_marseille","lat":43.26046,"lon":5.37584,"is_reserved":false,"is_disabled":false,"rental_uris":{"android":"levelo://app?vid=5f123f66-0787-4c31-b9de-4a2233ee72ea","ios":"levelo://app?vid=5f123f66-0787-4c31-b9de-4a2233ee72ea"},"vehicle_type_id":"4","last_reported":1784400263,"current_range_meters":32800,"station_id":"ce4bhgh2rcd13ifvqfa0","pricing_plan_id":"cebpf4jnsgd1na2vs0mg"},{"bike_id":"e975d81f-466f-4fbf-9278-3f973430f9dc","system_id":"levelo_inurba_marseille","lat":43.26191,"lon":5.37456,"is_reserved":false,"is_disabled":false,"rental_uris":{"android":"levelo://app?vid=e975d81f-466f-4fbf-9278-3f973430f9dc","ios":"levelo://app?vid=e975d81f-466f-4fbf-9278-3f973430f9dc"},"vehicle_type_id":"4","last_reported":1784400263,"current_range_meters":17200,"station_id":"ce4bhgp2rcd13ifvqfc0","pricing_plan_id":"cebpf4jnsgd1na2vs0mg"},{"bike_id":"7c3e0a15-25b2-4865-8fc2-231bc81967db","system_id":"levelo_inurba_marseille","lat":43.2971,"lon":5.36621,"is_reserved":false,"is_disabled":false,"rental_uris":{"android":"levelo://app?vid=7c3e0a15-25b2-4865-8fc2-231bc81967db","ios":"levelo://app?vid=7c3e0a15-25b2-4865-8fc2-231bc81967db"},"vehicle_type_id":"4","last_reported":1784400263,"current_range_meters":33200,"station_id":"ce4bgn12rcd13ifvqbt0","pricing_plan_id":"cebpf4jnsgd1na2vs0mg"},{"bike_id":"3fce53fc-d81c-4096-a269-4244ea777b67","system_id":"levelo_inurba_marseille","lat":43.26214,"lon":5.37448,"is_reserved":false,"is_disabled":false,"rental_uris":{"android":"levelo://app?vid=3fce53fc-d81c-4096-a269-4244ea777b67","ios":"levelo://app?vid=3fce53fc-d81c-4096-a269-4244ea777b67"},"vehicle_type_id":"4","last_reported":1784400263,"current_range_meters":24000,"station_id":"ce4bhgp2rcd13ifvqfc0","pricing_plan_id":"cebpf4jnsgd1na2vs0mg"},{"bike_id":"c1999c83-e356-488b-a446-6330ee479931","system_id":"levelo_inurba_marseille","lat":43.2621,"lon":5.37441,"is_reserved":false,"is_disabled":false,"rental_uris":{"android":"levelo://app?vid=c1999c83-e356-488b-a446-6330ee479931","ios":"levelo://app?vid=c1999c83-e356-488b-a446-6330ee479931"},"vehicle_type_id":"4","last_reported":1784400263,"current_range_meters":12000,"station_id":"ce4bhgp2rcd13ifvqfc0","pricing_plan_id":"cebpf4jnsgd1na2vs0mg"},{"bike_id":"21f2fab3-3d0c-4e60-af28-36bc27fbf671","system_id":"levelo_inurba_marseille","lat":43.25555,"lon":5.38253,"is_reserved":false,"is_disabled":false,"rental_uris":{"android":"levelo://app?vid=21f2fab3-3d0c-4e60-af28-36bc27fbf671","ios":"levelo://app?vid=21f2fab3-3d0c-4e60-af28-36bc27fbf671"},"vehicle_type_id":"4","last_reported":1784400263,"current_range_meters":39200,"station_id":"ce4bhih2rcd13ifvqfs0","pricing_plan_id":"cebpf4jnsgd1na2vs0mg"},{"bike_id":"e0c7065e-7f74-4b06-ae7b-f933c635df87","system_id":"levelo_inurba_marseille","lat":43.29559,"lon":5.42292,"is_reserved":false,"is_disabled":false,"rental_uris":{"android":"levelo://app?vid=e0c7065e-7f74-4b06-ae7b-f933c635df87","ios":"levelo://app?vid=e0c7065e-7f74-4b06-ae7b-f933c635df87"},"vehicle_type_id":"4","last_reported":1784400263,"current_range_meters":38800,"station_id":"ce4bhph2rcd13ifvqhdg","pricing_plan_id":"cebpf4jnsgd1na2vs0mg"},{"bike_id":"3d9d15ce-5804-4209-b92a-723f598d0341","system_id":"levelo_inurba_marseille","lat":43.21196,"lon":5.35084,"is_reserved":false,"is_disabled":false,"rental_uris":{"android":"levelo://app?vid=3d9d15ce-5804-4209-b92a-723f598d0341","ios":"levelo://app?vid=3d9d15ce-5804-4209-b92a-723f598d0341"},"vehicle_type_id":"4","last_reported":1784400263,"current_range_meters":38400,"station_id":"st_cvj6sg6p6f1abm77japg","pricing_plan_id":"cebpf4jnsgd1na2vs0mg"},{"bike_id":"c71015cc-0adc-40e6-8268-5815fb57d25f","system_id":"levelo_inurba_marseille","lat":43.27618,"lon":5.361,"is_reserved":false,"is_disabled":false,"rental_uris":{"android":"levelo://app?vid=c71015cc-0adc-40e6-8268-5815fb57d25f","ios":"levelo://app?vid=c71015cc-0adc-40e6-8268-5815fb57d25f"},"vehicle_type_id":"4","last_reported":1784400263,"current_range_meters":24000,"station_id":"ce4bgj92rcd13ifvqbe0","pricing_plan_id":"cebpf4jnsgd1na2vs0mg"},{"bike_id":"fd0fa26b-6c7c-4e83-9727-1dc5be1b0015","system_id":"levelo_inurba_marseille","lat":43.28671,"lon":5.35168,"is_reserved":false,"is_disabled":false,"rental_uris":{"android":"levelo://app?vid=fd0fa26b-6c7c-4e83-9727-1dc5be1b0015","ios":"levelo://app?vid=fd0fa26b-6c7c-4e83-9727-1dc5be1b0015"},"vehicle_type_id":"4","last_reported":1784400263,"current_range_meters":30000,"station_id":"","pricing_plan_id":"cebpf4jnsgd1na2vs0mg"},{"bike_id":"f07c2055-5bfd-4a62-aa3e-77db94b5cfdb","system_id":"levelo_inurba_marseille","lat":43.29533,"lon":5.38539,"is_reserved":false,"is_disabled":false,"rental_uris":{"android":"levelo://app?vid=f07c2055-5bfd-4a62-aa3e-77db94b5cfdb","ios":"levelo://app?vid=f07c2055-5bfd-4a62-aa3e-77db94b5cfdb"},"vehicle_type_id":"4","last_reported":1784400263,"current_range_meters":39200,"station_id":"ce4bgih2rcd13ifvqba0","pricing_plan_id":"cebpf4jnsgd1na2vs0mg"},{"bike_id":"e1bb6861-ee59-438c-aa2a-2a553b2d6f43","system_id":"levelo_inurba_marseille","lat":43.27201,"lon":5.41001,"is_reserved":false,"is_disabled":false,"rental_uris":{"android":"levelo://app?vid=e1bb6861-ee59-438c-aa2a-2a553b2d6f43","ios":"levelo://app?vid=e1bb6861-ee59-438c-aa2a-2a553b2d6f43"},"vehicle_type_id":"4","last_reported":1784400263,"current_range_meters":30800,"station_id":"ce4bhl12rcd13ifvqgf0","pricing_plan_id":"cebpf4jnsgd1na2vs0mg"},{"bike_id":"c2e7fe27-d2b0-440e-b62d-ead50feed951","system_id":"levelo_inurba_marseille","lat":43.29495,"lon":5.43305,"is_reserved":false,"is_disabled":false,"rental_uris":{"android":"levelo://app?vid=c2e7fe27-d2b0-440e-b62d-ead50feed951","ios":"levelo://app?vid=c2e7fe27-d2b0-440e-b62d-ead50feed951"},"vehicle_type_id":"4","last_reported":1784400263,"current_range_meters":6800,"station_id":"st_d3j5ugp08ojc73fj9d10","pricing_plan_id":"cebpf4jnsgd1na2vs0mg"},{"bike_id":"68487660-d0f8-4357-a041-ea23c3836a53","system_id":"levelo_inurba_marseille","lat":43.26172,"lon":5.37469,"is_reserved":false,"is_disabled":true,"rental_uris":{"android":"levelo://app?vid=68487660-d0f8-4357-a041-ea23c3836a53","ios":"levelo://app?vid=68487660-d0f8-4357-a041-ea23c3836a53"},"vehicle_type_id":"4","last_reported":1784400263,"current_range_meters":38000,"station_id":"ce4bhgp2rcd13ifvqfc0","pricing_plan_id":"cebpf4jnsgd1na2vs0mg"},{"bike_id":"bf0fb640-39c3-470c-a606-595a512e41d7","system_id":"levelo_inurba_marseille","lat":43.3096,"lon":5.39118,"is_reserved":false,"is_disabled":false,"rental_uris":{"android":"levelo://app?vid=bf0fb640-39c3-470c-a606-595a512e41d7","ios":"levelo://app?vid=bf0fb640-39c3-470c-a606-595a512e41d7"},"vehicle_type_id":"4","last_reported":1784400263,"current_range_meters":39200,"station_id":"","pricing_plan_id":"cebpf4jnsgd1na2vs0mg"},{"bike_id":"5e68e8eb-1298-48ef-b9db-8ade665e727c","system_id":"levelo_inurba_marseille","lat":43.30926,"lon":5.40108,"is_reserved":false,"is_disabled":true,"rental_uris":{"android":"levelo://app?vid=5e68e8eb-1298-48ef-b9db-8ade665e727c","ios":"levelo://app?vid=5e68e8eb-1298-48ef-b9db-8ade665e727c"},"vehicle_type_id":"4","last_reported":1784400263,"current_range_meters":400,"station_id":"ce4bgvp2rcd13ifvqct0","pricing_plan_id":"cebpf4jnsgd1na2vs0mg"},{"bike_id":"2623e023-e953-40ac-8068-15d2169ca99d","system_id":"levelo_inurba_marseille","lat":43.28709,"lon":5.46672,"is_reserved":false,"is_disabled":false,"rental_uris":{"android":"levelo://app?vid=2623e023-e953-40ac-8068-15d2169ca99d","ios":"levelo://app?vid=2623e023-e953-40ac-8068-15d2169ca99d"},"vehicle_type_id":"4","last_reported":1784400263,"current_range_meters":38800,"station_id":"st_d6tc3vkotcvc738tfjhg","pricing_plan_id":"cebpf4jnsgd1na2vs0mg"},{"bike_id":"5b4027e9-78b0-4a64-a834-78af322d2a8c","system_id":"levelo_inurba_marseille","lat":43.29052,"lon":5.35879,"is_reserved":false,"is_disabled":false,"rental_uris":{"android":"levelo://app?vid=5b4027e9-78b0-4a64-a834-78af322d2a8c","ios":"levelo://app?vid=5b4027e9-78b0-4a64-a834-78af322d2a8c"},"vehicle_type_id":"4","last_reported":1784400263,"current_range_meters":40000,"station_id":"ce4bha92rcd13ifvqeg0","pricing_plan_id":"cebpf4jnsgd1na2vs0mg"},{"bike_id":"e531f566-1f08-41c3-a3f1-bb59e71ea1e1","system_id":"levelo_inurba_marseille","lat":43.30611,"lon":5.37209,"is_reserved":false,"is_disabled":false,"rental_uris":{"android":"levelo://app?vid=e531f566-1f08-41c3-a3f1-bb59e71ea1e1","ios":"levelo://app?vid=e531f566-1f08-41c3-a3f1-bb59e71ea1e1"},"vehicle_type_id":"4","last_reported":1784400263,"current_range_meters":32400,"station_id":"ce4bgqh2rcd13ifvqc4g","pricing_plan_id":"cebpf4jnsgd1na2vs0mg"},{"bike_id":"2d768b04-0d11-4bfc-8d50-310fa8cb1d7b","system_id":"levelo_inurba_marseille","lat":43.2954,"lon":5.38545,"is_reserved":false,"is_disabled":false,"rental_uris":{"android":"levelo://app?vid=2d768b04-0d11-4bfc-8d50-310fa8cb1d7b","ios":"levelo://app?vid=2d768b04-0d11-4bfc-8d50-310fa8cb1d7b"},"vehicle_type_id":"4","last_reported":1784400263,"current_range_meters":10800,"station_id":"ce4bgih2rcd13ifvqba0","pricing_plan_id":"cebpf4jnsgd1na2vs0mg"},{"bike_id":"5d09746b-912d-460d-99ac-8ef6073a7199","system_id":"levelo_inurba_marseille","lat":43.23971,"lon":5.36631,"is_reserved":false,"is_disabled":true,"rental_uris":{"android":"levelo://app?vid=5d09746b-912d-460d-99ac-8ef6073a7199","ios":"levelo://app?vid=5d09746b-912d-460d-99ac-8ef6073a7199"},"vehicle_type_id":"4","last_reported":1784400263,"current_range_meters":1600,"station_id":"ce4bhi12rcd13ifvqfp0","pricing_plan_id":"cebpf4jnsgd1na2vs0mg"},{"bike_id":"f8955ac0-4fb0-43de-bef9-e6c33ea71dd3","system_id":"levelo_inurba_marseille","lat":43.28618,"lon":5.351,"is_reserved":false,"is_disabled":true,"rental_uris":{"android":"levelo://app?vid=f8955ac0-4fb0-43de-bef9-e6c33ea71dd3","ios":"levelo://app?vid=f8955ac0-4fb0-43de-bef9-e6c33ea71dd3"},"vehicle_type_id":"4","last_reported":1784400263,"current_range_meters":29600,"station_id":"ce4bhch2rcd13ifvqeug","pricing_plan_id":"cebpf4jnsgd1na2vs0mg"},{"bike_id":"1aba4b2e-71a6-4e82-8e9d-0b35db6f35c2","system_id":"levelo_inurba_marseille","lat":43.24173,"lon":5.364,"is_reserved":false,"is_disabled":false,"rental_uris":{"android":"levelo://app?vid=1aba4b2e-71a6-4e82-8e9d-0b35db6f35c2","ios":"levelo://app?vid=1aba4b2e-71a6-4e82-8e9d-0b35db6f35c2"},"vehicle_type_id":"4","last_reported":1784400263,"current_range_meters":5600,"station_id":"cpo36qri1sfpv3e86is0","pricing_plan_id":"cebpf4jnsgd1na2vs0mg"},{"bike_id":"863d0357-9100-4091-8be6-61d932e4e898","system_id":"levelo_inurba_marseille","lat":43.33756,"lon":5.37458,"is_reserved":false,"is_disabled":false,"rental_uris":{"android":"levelo://app?vid=863d0357-9100-4091-8be6-61d932e4e898","ios":"levelo://app?vid=863d0357-9100-4091-8be6-61d932e4e898"},"vehicle_type_id":"4","last_reported":1784400263,"current_range_meters":39200,"station_id":"","pricing_plan_id":"cebpf4jnsgd1na2vs0mg"},{"bike_id":"0d249168-c1b9-4fc1-a9ca-ee81dcabf286","system_id":"levelo_inurba_marseille","lat":43.3084,"lon":5.40411,"is_reserved":false,"is_disabled":false,"rental_uris":{"android":"levelo://app?vid=0d249168-c1b9-4fc1-a9ca-ee81dcabf286","ios":"levelo://app?vid=0d249168-c1b9-4fc1-a9ca-ee81dcabf286"},"vehicle_type_id":"4","last_reported":1784400263,"current_range_meters":11200,"station_id":"","pricing_plan_id":"cebpf4jnsgd1na2vs0mg"},{"bike_id":"17cde94f-5eca-46ea-851a-5123e568f181","system_id":"levelo_inurba_marseille","lat":43.28622,"lon":5.35096,"is_reserved":false,"is_disabled":false,"rental_uris":{"android":"levelo://app?vid=17cde94f-5eca-46ea-851a-5123e568f181","ios":"levelo://app?vid=17cde94f-5eca-46ea-851a-5123e568f181"},"vehicle_type_id":"4","last_reported":1784400263,"current_range_meters":35200,"station_id":"ce4bhch2rcd13ifvqeug","pricing_plan_id":"cebpf4jnsgd1na2vs0mg"},{"bike_id":"42a06539-fa05-4673-9b8c-ca7a6023165c","system_id":"levelo_inurba_marseille","lat":43.26687,"lon":5.38238,"is_reserved":false,"is_disabled":false,"rental_uris":{"android":"levelo://app?vid=42a06539-fa05-4673-9b8c-ca7a6023165c","ios":"levelo://app?vid=42a06539-fa05-4673-9b8c-ca7a6023165c"},"vehicle_type_id":"4","last_reported":1784400263,"current_range_meters":38400,"station_id":"ce4bhg92rcd13ifvqf90","pricing_plan_id":"cebpf4jnsgd1na2vs0mg"},{"bike_id":"23eb5469-ce86-4640-b7e9-23db69dc1852","system_id":"levelo_inurba_marseille","lat":43.28163,"lon":5.42642,"is_reserved":false,"is_disabled":false,"rental_uris":{"android":"levelo://app?vid=23eb5469-ce86-4640-b7e9-23db69dc1852","ios":"levelo://app?vid=23eb5469-ce86-4640-b7e9-23db69dc1852"},"vehicle_type_id":"4","last_reported":1784400263,"current_range_meters":39200,"station_id":"ce4bhnh2rcd13ifvqgug","pricing_plan_id":"cebpf4jnsgd1na2vs0mg"},{"bike_id":"21ffdecd-7bfb-4301-89cc-c3b79c19e26c","system_id":"levelo_inurba_marseille","lat":43.29266,"lon":5.38436,"is_reserved":false,"is_disabled":false,"rental_uris":{"android":"levelo://app?vid=21ffdecd-7bfb-4301-89cc-c3b79c19e26c","ios":"levelo://app?vid=21ffdecd-7bfb-4301-89cc-c3b79c19e26c"},"vehicle_type_id":"4","last_reported":1784400263,"current_range_meters":28000,"station_id":"ce4bh692rcd13ifvqea0","pricing_plan_id":"cebpf4jnsgd1na2vs0mg"},{"bike_id":"8ba7f2d6-52d3-4c56-b19a-19a142e62779","system_id":"levelo_inurba_marseille","lat":43.24086,"lon":5.37737,"is_reserved":false,"is_disabled":false,"rental_uris":{"android":"levelo://app?vid=8ba7f2d6-52d3-4c56-b19a-19a142e62779","ios":"levelo://app?vid=8ba7f2d6-52d3-4c56-b19a-19a142e62779"},"vehicle_type_id":"4","last_reported":1784400263,"current_range_meters":12000,"station_id":"ce4bhnp2rcd13ifvqgvg","pricing_plan_id":"cebpf4jnsgd1na2vs0mg"},{"bike_id":"83430c1a-b44e-4fb6-9f9c-fdb69c2d228c","system_id":"levelo_inurba_marseille","lat":43.26071,"lon":5.39404,"is_reserved":false,"is_disabled":false,"rental_uris":{"android":"levelo://app?vid=83430c1a-b44e-4fb6-9f9c-fdb69c2d228c","ios":"levelo://app?vid=83430c1a-b44e-4fb6-9f9c-fdb69c2d228c"},"vehicle_type_id":"4","last_reported":1784400263,"current_range_meters":38000,"station_id":"ce4bhh92rcd13ifvqfj0","pricing_plan_id":"cebpf4jnsgd1na2vs0mg"},{"bike_id":"66afdf81-3bfc-4f74-a2b5-978630e17649","system_id":"levelo_inurba_marseille","lat":43.27922,"lon":5.37246,"is_reserved":false,"is_disabled":false,"rental_uris":{"android":"levelo://app?vid=66afdf81-3bfc-4f74-a2b5-978630e17649","ios":"levelo://app?vid=66afdf81-3bfc-4f74-a2b5-978630e17649"},"vehicle_type_id":"4","last_reported":1784400263,"current_range_meters":28000,"station_id":"","pricing_plan_id":"cebpf4jnsgd1na2vs0mg"},{"bike_id":"c3699d7f-7304-4eec-8a74-2a709837374f","system_id":"levelo_inurba_marseille","lat":43.28372,"lon":5.38627,"is_reserved":false,"is_disabled":true,"rental_uris":{"android":"levelo://app?vid=c3699d7f-7304-4eec-8a74-2a709837374f","ios":"levelo://app?vid=c3699d7f-7304-4eec-8a74-2a709837374f"},"vehicle_type_id":"4","last_reported":1784400263,"current_range_meters":16000,"station_id":"ce4bh492rcd13ifvqdvg","pricing_plan_id":"cebpf4jnsgd1na2vs0mg"},{"bike_id":"bbbaa790-124c-460e-90a5-a28da18bec6a","system_id":"levelo_inurba_marseille","lat":43.27999,"lon":5.40024,"is_reserved":false,"is_disabled":false,"rental_uris":{"android":"levelo://app?vid=bbbaa790-124c-460e-90a5-a28da18bec6a","ios":"levelo://app?vid=bbbaa790-124c-460e-90a5-a28da18bec6a"},"vehicle_type_id":"4","last_reported":1784400263,"current_range_meters":20800,"station_id":"ce4bho92rcd13ifvqh4g","pricing_plan_id":"cebpf4jnsgd1na2vs0mg"},{"bike_id":"aa30dd65-c709-4566-b285-77519e3da6b5","system_id":"levelo_inurba_marseille","lat":43.29973,"lon":5.38485,"is_reserved":false,"is_disabled":true,"rental_uris":{"android":"levelo://app?vid=aa30dd65-c709-4566-b285-77519e3da6b5","ios":"levelo://app?vid=aa30dd65-c709-4566-b285-77519e3da6b5"},"vehicle_type_id":"4","last_reported":1784400263,"current_range_meters":6000,"station_id":"ce4bgj92rcd13ifvqbd0","pricing_plan_id":"cebpf4jnsgd1na2vs0mg"},{"bike_id":"23de8611-783b-4cf4-b56e-53630c68b505","system_id":"levelo_inurba_marseille","lat":43.29705,"lon":5.36612,"is_reserved":false,"is_disabled":false,"rental_uris":{"android":"levelo://app?vid=23de8611-783b-4cf4-b56e-53630c68b505","ios":"levelo://app?vid=23de8611-783b-4cf4-b56e-53630c68b505"},"vehicle_type_id":"4","last_reported":1784400263,"current_range_meters":3200,"station_id":"ce4bgn12rcd13ifvqbt0","pricing_plan_id":"cebpf4jnsgd1na2vs0mg"},{"bike_id":"4120c7d7-1403-4d50-96ed-9b7731a97efc","system_id":"levelo_inurba_marseille","lat":43.3211,"lon":5.36762,"is_reserved":false,"is_disabled":false,"rental_uris":{"android":"levelo://app?vid=4120c7d7-1403-4d50-96ed-9b7731a97efc","ios":"levelo://app?vid=4120c7d7-1403-4d50-96ed-9b7731a97efc"},"vehicle_type_id":"4","last_reported":1784400263,"current_range_meters":26800,"station_id":"ce4bhrh2rcd13ifvqhug","pricing_plan_id":"cebpf4jnsgd1na2vs0mg"},{"bike_id":"b32936e5-7bdd-4eaf-adbe-3bd4bbf7a5ff","system_id":"levelo_inurba_marseille","lat":43.286949,"lon":5.373792,"is_reserved":false,"is_disabled":true,"rental_uris":{"android":"levelo://app?vid=b32936e5-7bdd-4eaf-adbe-3bd4bbf7a5ff","ios":"levelo://app?vid=b32936e5-7bdd-4eaf-adbe-3bd4bbf7a5ff"},"vehicle_type_id":"4","last_reported":1784400263,"current_range_meters":32400,"station_id":"ce4bh3p2rcd13ifvqdq0","pricing_plan_id":"cebpf4jnsgd1na2vs0mg"},{"bike_id":"7e62a1e7-e43e-4c6d-97fe-eb42228edf6d","system_id":"levelo_inurba_marseille","lat":43.2654,"lon":5.39404,"is_reserved":false,"is_disabled":false,"rental_uris":{"android":"levelo://app?vid=7e62a1e7-e43e-4c6d-97fe-eb42228edf6d","ios":"levelo://app?vid=7e62a1e7-e43e-4c6d-97fe-eb42228edf6d"},"vehicle_type_id":"4","last_reported":1784400263,"current_range_meters":9200,"station_id":"","pricing_plan_id":"cebpf4jnsgd1na2vs0mg"},{"bike_id":"1c9943fc-7075-4dc4-acdc-eb8a35bde452","system_id":"levelo_inurba_marseille","lat":43.29893,"lon":5.38897,"is_reserved":false,"is_disabled":false,"rental_uris":{"android":"levelo://app?vid=1c9943fc-7075-4dc4-acdc-eb8a35bde452","ios":"levelo://app?vid=1c9943fc-7075-4dc4-acdc-eb8a35bde452"},"vehicle_type_id":"4","last_reported":1784400263,"current_range_meters":8400,"station_id":"ce4bh392rcd13ifvqdl0","pricing_plan_id":"cebpf4jnsgd1na2vs0mg"},{"bike_id":"32f1426e-4a2e-46e1-8b91-800ee9257883","system_id":"levelo_inurba_marseille","lat":43.26374,"lon":5.41089,"is_reserved":false,"is_disabled":false,"rental_uris":{"android":"levelo://app?vid=32f1426e-4a2e-46e1-8b91-800ee9257883","ios":"levelo://app?vid=32f1426e-4a2e-46e1-8b91-800ee9257883"},"vehicle_type_id":"4","last_reported":1784400263,"current_range_meters":38000,"station_id":"st_d4e5ca6na9uc73bfl5fg","pricing_plan_id":"cebpf4jnsgd1na2vs0mg"},{"bike_id":"06732811-2ac2-497f-8d6b-a1bf0aa140c9","system_id":"levelo_inurba_marseille","lat":43.29057,"lon":5.35877,"is_reserved":false,"is_disabled":false,"rental_uris":{"android":"levelo://app?vid=06732811-2ac2-497f-8d6b-a1bf0aa140c9","ios":"levelo://app?vid=06732811-2ac2-497f-8d6b-a1bf0aa140c9"},"vehicle_type_id":"4","last_reported":1784400263,"current_range_meters":28800,"station_id":"ce4bha92rcd13ifvqeg0","pricing_plan_id":"cebpf4jnsgd1na2vs0mg"},{"bike_id":"682fc852-3dfc-4ff9-a889-b45119d39037","system_id":"levelo_inurba_marseille","lat":43.27852,"lon":5.39222,"is_reserved":false,"is_disabled":false,"rental_uris":{"android":"levelo://app?vid=682fc852-3dfc-4ff9-a889-b45119d39037","ios":"levelo://app?vid=682fc852-3dfc-4ff9-a889-b45119d39037"},"vehicle_type_id":"4","last_reported":1784400263,"current_range_meters":12000,"station_id":"ce4bhjp2rcd13ifvqga0","pricing_plan_id":"cebpf4jnsgd1na2vs0mg"},{"bike_id":"81587832-75ed-49cd-91c3-f57f9b8cec45","system_id":"levelo_inurba_marseille","lat":43.29064,"lon":5.35908,"is_reserved":false,"is_disabled":true,"rental_uris":{"android":"levelo://app?vid=81587832-75ed-49cd-91c3-f57f9b8cec45","ios":"levelo://app?vid=81587832-75ed-49cd-91c3-f57f9b8cec45"},"vehicle_type_id":"4","last_reported":1784400263,"current_range_meters":6400,"station_id":"ce4bha92rcd13ifvqeg0","pricing_plan_id":"cebpf4jnsgd1na2vs0mg"},{"bike_id":"c63c38ec-8e22-400e-b2e9-2243c31f13bb","system_id":"levelo_inurba_marseille","lat":43.29054,"lon":5.35898,"is_reserved":false,"is_disabled":false,"rental_uris":{"android":"levelo://app?vid=c63c38ec-8e22-400e-b2e9-2243c31f13bb","ios":"levelo://app?vid=c63c38ec-8e22-400e-b2e9-2243c31f13bb"},"vehicle_type_id":"4","last_reported":1784400263,"current_range_meters":28800,"station_id":"ce4bha92rcd13ifvqeg0","pricing_plan_id":"cebpf4jnsgd1na2vs0mg"},{"bike_id":"a4753ec5-acee-4a4b-830c-ea0e1c298f92","system_id":"levelo_inurba_marseille","lat":43.27954,"lon":5.41033,"is_reserved":false,"is_disabled":false,"rental_uris":{"android":"levelo://app?vid=a4753ec5-acee-4a4b-830c-ea0e1c298f92","ios":"levelo://app?vid=a4753ec5-acee-4a4b-830c-ea0e1c298f92"},"vehicle_type_id":"4","last_reported":1784400263,"current_range_meters":28000,"station_id":"ce4bhnp2rcd13ifvqh0g","pricing_plan_id":"cebpf4jnsgd1na2vs0mg"},{"bike_id":"131d4180-49b8-4bad-8c38-d5ddeed099e2","system_id":"levelo_inurba_marseille","lat":43.30947,"lon":5.38996,"is_reserved":false,"is_disabled":false,"rental_uris":{"android":"levelo://app?vid=131d4180-49b8-4bad-8c38-d5ddeed099e2","ios":"levelo://app?vid=131d4180-49b8-4bad-8c38-d5ddeed099e2"},"vehicle_type_id":"4","last_reported":1784400263,"current_range_meters":39200,"station_id":"ce4bgup2rcd13ifvqco0","pricing_plan_id":"cebpf4jnsgd1na2vs0mg"},{"bike_id":"845894b6-8a9b-465d-9c7c-5c5f502f64fb","system_id":"levelo_inurba_marseille","lat":43.28673,"lon":5.36073,"is_reserved":false,"is_disabled":false,"rental_uris":{"android":"levelo://app?vid=845894b6-8a9b-465d-9c7c-5c5f502f64fb","ios":"levelo://app?vid=845894b6-8a9b-465d-9c7c-5c5f502f64fb"},"vehicle_type_id":"4","last_reported":1784400263,"current_range_meters":38000,"station_id":"cki0cbj6b192h4jlfktg","pricing_plan_id":"cebpf4jnsgd1na2vs0mg"},{"bike_id":"9e0af9ec-9913-4615-b550-abfd082791d2","system_id":"levelo_inurba_marseille","lat":43.23181,"lon":5.43676,"is_reserved":false,"is_disabled":false,"rental_uris":{"android":"levelo://app?vid=9e0af9ec-9913-4615-b550-abfd082791d2","ios":"levelo://app?vid=9e0af9ec-9913-4615-b550-abfd082791d2"},"vehicle_type_id":"4","last_reported":1784400263,"current_range_meters":39200,"station_id":"ce4bhmp2rcd13ifvqgog","pricing_plan_id":"cebpf4jnsgd1na2vs0mg"},{"bike_id":"689b9f1f-53c1-40ae-8d80-e74d3eb04251","system_id":"levelo_inurba_marseille","lat":43.26026,"lon":5.3755,"is_reserved":false,"is_disabled":false,"rental_uris":{"android":"levelo://app?vid=689b9f1f-53c1-40ae-8d80-e74d3eb04251","ios":"levelo://app?vid=689b9f1f-53c1-40ae-8d80-e74d3eb04251"},"vehicle_type_id":"4","last_reported":1784400263,"current_range_meters":18800,"station_id":"ce4bhgh2rcd13ifvqfa0","pricing_plan_id":"cebpf4jnsgd1na2vs0mg"},{"bike_id":"ac9e4f91-b734-4756-9f64-e1c1a7e149b4","system_id":"levelo_inurba_marseille","lat":43.21198,"lon":5.35067,"is_reserved":false,"is_disabled":false,"rental_uris":{"android":"levelo://app?vid=ac9e4f91-b734-4756-9f64-e1c1a7e149b4","ios":"levelo://app?vid=ac9e4f91-b734-4756-9f64-e1c1a7e149b4"},"vehicle_type_id":"4","last_reported":1784400263,"current_range_meters":27600,"station_id":"st_cvj6sg6p6f1abm77japg","pricing_plan_id":"cebpf4jnsgd1na2vs0mg"},{"bike_id":"8f7ce815-39b3-459b-8e49-eaf2356e2e59","system_id":"levelo_inurba_marseille","lat":43.292,"lon":5.3583,"is_reserved":false,"is_disabled":false,"rental_uris":{"android":"levelo://app?vid=8f7ce815-39b3-459b-8e49-eaf2356e2e59","ios":"levelo://app?vid=8f7ce815-39b3-459b-8e49-eaf2356e2e59"},"vehicle_type_id":"4","last_reported":1784400263,"current_range_meters":24400,"station_id":"ce4bhb12rcd13ifvqel0","pricing_plan_id":"cebpf4jnsgd1na2vs0mg"},{"bike_id":"7e0515b8-5326-4e20-9b8b-e169b427c2c9","system_id":"levelo_inurba_marseille","lat":43.28425,"lon":5.3498,"is_reserved":false,"is_disabled":false,"rental_uris":{"android":"levelo://app?vid=7e0515b8-5326-4e20-9b8b-e169b427c2c9","ios":"levelo://app?vid=7e0515b8-5326-4e20-9b8b-e169b427c2c9"},"vehicle_type_id":"4","last_reported":1784400263,"current_range_meters":8000,"station_id":"ce4bhbh2rcd13ifvqepg","pricing_plan_id":"cebpf4jnsgd1na2vs0mg"},{"bike_id":"eb36d17f-e1be-4f5b-b325-9da13b057bf2","system_id":"levelo_inurba_marseille","lat":43.27369,"lon":5.36259,"is_reserved":false,"is_disabled":false,"rental_uris":{"android":"levelo://app?vid=eb36d17f-e1be-4f5b-b325-9da13b057bf2","ios":"levelo://app?vid=eb36d17f-e1be-4f5b-b325-9da13b057bf2"},"vehicle_type_id":"4","last_reported":1784400263,"current_range_meters":3600,"station_id":"ce4bhbh2rcd13ifvqeo0","pricing_plan_id":"cebpf4jnsgd1na2vs0mg"},{"bike_id":"7ff8118f-6c81-4cdf-8a1d-4753d954065d","system_id":"levelo_inurba_marseille","lat":43.29597,"lon":5.37962,"is_reserved":false,"is_disabled":false,"rental_uris":{"android":"levelo://app?vid=7ff8118f-6c81-4cdf-8a1d-4753d954065d","ios":"levelo://app?vid=7ff8118f-6c81-4cdf-8a1d-4753d954065d"},"vehicle_type_id":"4","last_reported":1784400263,"current_range_meters":6400,"station_id":"","pricing_plan_id":"cebpf4jnsgd1na2vs0mg"},{"bike_id":"0efa47ee-d0bf-416e-82f3-4055cb3fadd2","system_id":"levelo_inurba_marseille","lat":43.24797,"lon":5.3745,"is_reserved":false,"is_disabled":false,"rental_uris":{"android":"levelo://app?vid=0efa47ee-d0bf-416e-82f3-4055cb3fadd2","ios":"levelo://app?vid=0efa47ee-d0bf-416e-82f3-4055cb3fadd2"},"vehicle_type_id":"4","last_reported":1784400263,"current_range_meters":38000,"station_id":"ce4bhgh2rcd13ifvqfb0","pricing_plan_id":"cebpf4jnsgd1na2vs0mg"},{"bike_id":"1c885385-f984-4778-bce2-9178202bc388","system_id":"levelo_inurba_marseille","lat":43.3095,"lon":5.39033,"is_reserved":false,"is_disabled":false,"rental_uris":{"android":"levelo://app?vid=1c885385-f984-4778-bce2-9178202bc388","ios":"levelo://app?vid=1c885385-f984-4778-bce2-9178202bc388"},"vehicle_type_id":"4","last_reported":1784400263,"current_range_meters":40000,"station_id":"ce4bgup2rcd13ifvqco0","pricing_plan_id":"cebpf4jnsgd1na2vs0mg"},{"bike_id":"848a1aff-274a-4b44-93f8-df5211554a34","system_id":"levelo_inurba_marseille","lat":43.286996,"lon":5.373827,"is_reserved":false,"is_disabled":true,"rental_uris":{"android":"levelo://app?vid=848a1aff-274a-4b44-93f8-df5211554a34","ios":"levelo://app?vid=848a1aff-274a-4b44-93f8-df5211554a34"},"vehicle_type_id":"4","last_reported":1784400263,"current_range_meters":21600,"station_id":"ce4bh3p2rcd13ifvqdq0","pricing_plan_id":"cebpf4jnsgd1na2vs0mg"},{"bike_id":"f6e12f6d-c59f-4ea5-9c3f-41436ee67734","system_id":"levelo_inurba_marseille","lat":43.26186,"lon":5.37455,"is_reserved":false,"is_disabled":false,"rental_uris":{"android":"levelo://app?vid=f6e12f6d-c59f-4ea5-9c3f-41436ee67734","ios":"levelo://app?vid=f6e12f6d-c59f-4ea5-9c3f-41436ee67734"},"vehicle_type_id":"4","last_reported":1784400263,"current_range_meters":8400,"station_id":"ce4bhgp2rcd13ifvqfc0","pricing_plan_id":"cebpf4jnsgd1na2vs0mg"},{"bike_id":"1de5753c-f77d-4a34-b134-58bee8bc010c","system_id":"levelo_inurba_marseille","lat":43.2654,"lon":5.37292,"is_reserved":false,"is_disabled":false,"rental_uris":{"android":"levelo://app?vid=1de5753c-f77d-4a34-b134-58bee8bc010c","ios":"levelo://app?vid=1de5753c-f77d-4a34-b134-58bee8bc010c"},"vehicle_type_id":"4","last_reported":1784400263,"current_range_meters":20400,"station_id":"ce4bhg12rcd13ifvqf70","pricing_plan_id":"cebpf4jnsgd1na2vs0mg"},{"bike_id":"ca4c6107-089e-4005-9a78-e57fea2fc293","system_id":"levelo_inurba_marseille","lat":43.3149,"lon":5.37265,"is_reserved":false,"is_disabled":false,"rental_uris":{"android":"levelo://app?vid=ca4c6107-089e-4005-9a78-e57fea2fc293","ios":"levelo://app?vid=ca4c6107-089e-4005-9a78-e57fea2fc293"},"vehicle_type_id":"4","last_reported":1784400263,"current_range_meters":38400,"station_id":"ce4bgt12rcd13ifvqcd0","pricing_plan_id":"cebpf4jnsgd1na2vs0mg"},{"bike_id":"3c996adc-6afe-4aee-a281-ef5bb64a3846","system_id":"levelo_inurba_marseille","lat":43.30294,"lon":5.36886,"is_reserved":false,"is_disabled":true,"rental_uris":{"android":"levelo://app?vid=3c996adc-6afe-4aee-a281-ef5bb64a3846","ios":"levelo://app?vid=3c996adc-6afe-4aee-a281-ef5bb64a3846"},"vehicle_type_id":"4","last_reported":1784400263,"current_range_meters":1200,"station_id":"ce4bgqh2rcd13ifvqc5g","pricing_plan_id":"cebpf4jnsgd1na2vs0mg"},{"bike_id":"83283e5b-082f-4f1d-9c74-c06304a08b72","system_id":"levelo_inurba_marseille","lat":43.28405,"lon":5.34971,"is_reserved":false,"is_disabled":false,"rental_uris":{"android":"levelo://app?vid=83283e5b-082f-4f1d-9c74-c06304a08b72","ios":"levelo://app?vid=83283e5b-082f-4f1d-9c74-c06304a08b72"},"vehicle_type_id":"4","last_reported":1784400263,"current_range_meters":30000,"station_id":"ce4bhbh2rcd13ifvqepg","pricing_plan_id":"cebpf4jnsgd1na2vs0mg"},{"bike_id":"a7c42e62-f2d7-4f0f-96f4-b9d2418cea29","system_id":"levelo_inurba_marseille","lat":43.29643,"lon":5.4058,"is_reserved":false,"is_disabled":true,"rental_uris":{"android":"levelo://app?vid=a7c42e62-f2d7-4f0f-96f4-b9d2418cea29","ios":"levelo://app?vid=a7c42e62-f2d7-4f0f-96f4-b9d2418cea29"},"vehicle_type_id":"4","last_reported":1784400263,"current_range_meters":20000,"station_id":"ce4bh0h2rcd13ifvqd60","pricing_plan_id":"cebpf4jnsgd1na2vs0mg"},{"bike_id":"32595401-e31f-475e-aa23-6c17c87d3373","system_id":"levelo_inurba_marseille","lat":43.2969,"lon":5.37293,"is_reserved":false,"is_disabled":false,"rental_uris":{"android":"levelo://app?vid=32595401-e31f-475e-aa23-6c17c87d3373","ios":"levelo://app?vid=32595401-e31f-475e-aa23-6c17c87d3373"},"vehicle_type_id":"4","last_reported":1784400263,"current_range_meters":24400,"station_id":"ce4bgk12rcd13ifvqbj0","pricing_plan_id":"cebpf4jnsgd1na2vs0mg"},{"bike_id":"ae5a0ed2-8aa5-425b-99f6-2aee209ee161","system_id":"levelo_inurba_marseille","lat":43.292,"lon":5.35794,"is_reserved":false,"is_disabled":false,"rental_uris":{"android":"levelo://app?vid=ae5a0ed2-8aa5-425b-99f6-2aee209ee161","ios":"levelo://app?vid=ae5a0ed2-8aa5-425b-99f6-2aee209ee161"},"vehicle_type_id":"4","last_reported":1784400263,"current_range_meters":40000,"station_id":"ce4bhb12rcd13ifvqel0","pricing_plan_id":"cebpf4jnsgd1na2vs0mg"},{"bike_id":"2c3034d9-cfe0-4bed-ba66-d570d2e65392","system_id":"levelo_inurba_marseille","lat":43.29969,"lon":5.3849,"is_reserved":false,"is_disabled":true,"rental_uris":{"android":"levelo://app?vid=2c3034d9-cfe0-4bed-ba66-d570d2e65392","ios":"levelo://app?vid=2c3034d9-cfe0-4bed-ba66-d570d2e65392"},"vehicle_type_id":"4","last_reported":1784400263,"current_range_meters":22000,"station_id":"ce4bgj92rcd13ifvqbd0","pricing_plan_id":"cebpf4jnsgd1na2vs0mg"},{"bike_id":"0f6ff1da-c9e3-42e7-a8d3-8280d1c0addc","system_id":"levelo_inurba_marseille","lat":43.33718,"lon":5.37415,"is_reserved":false,"is_disabled":false,"rental_uris":{"android":"levelo://app?vid=0f6ff1da-c9e3-42e7-a8d3-8280d1c0addc","ios":"levelo://app?vid=0f6ff1da-c9e3-42e7-a8d3-8280d1c0addc"},"vehicle_type_id":"4","last_reported":1784400263,"current_range_meters":32000,"station_id":"","pricing_plan_id":"cebpf4jnsgd1na2vs0mg"},{"bike_id":"1e628dec-3141-48e0-b510-1c285ab03f4c","system_id":"levelo_inurba_marseille","lat":43.26394,"lon":5.41069,"is_reserved":false,"is_disabled":false,"rental_uris":{"android":"levelo://app?vid=1e628dec-3141-48e0-b510-1c285ab03f4c","ios":"levelo://app?vid=1e628dec-3141-48e0-b510-1c285ab03f4c"},"vehicle_type_id":"4","last_reported":1784400263,"current_range_meters":38000,"station_id":"st_d4e5ca6na9uc73bfl5fg","pricing_plan_id":"cebpf4jnsgd1na2vs0mg"},{"bike_id":"8337f5b4-2806-4bc0-9f71-af183adb5db8","system_id":"levelo_inurba_marseille","lat":43.23822,"lon":5.43512,"is_reserved":false,"is_disabled":false,"rental_uris":{"android":"levelo://app?vid=8337f5b4-2806-4bc0-9f71-af183adb5db8","ios":"levelo://app?vid=8337f5b4-2806-4bc0-9f71-af183adb5db8"},"vehicle_type_id":"4","last_reported":1784400263,"current_range_meters":7200,"station_id":"","pricing_plan_id":"cebpf4jnsgd1na2vs0mg"},{"bike_id":"0d69c6ad-1581-485b-8bcd-d541c4976ef8","system_id":"levelo_inurba_marseille","lat":43.31888,"lon":5.36796,"is_reserved":false,"is_disabled":false,"rental_uris":{"android":"levelo://app?vid=0d69c6ad-1581-485b-8bcd-d541c4976ef8","ios":"levelo://app?vid=0d69c6ad-1581-485b-8bcd-d541c4976ef8"},"vehicle_type_id":"4","last_reported":1784400263,"current_range_meters":11200,"station_id":"st_d6o2h0d0559c73evc1b0","pricing_plan_id":"cebpf4jnsgd1na2vs0mg"},{"bike_id":"40be4c54-40ac-4739-9dbd-caee54aec717","system_id":"levelo_inurba_marseille","lat":43.26534,"lon":5.37301,"is_reserved":false,"is_disabled":false,"rental_uris":{"android":"levelo://app?vid=40be4c54-40ac-4739-9dbd-caee54aec717","ios":"levelo://app?vid=40be4c54-40ac-4739-9dbd-caee54aec717"},"vehicle_type_id":"4","last_reported":1784400263,"current_range_meters":34000,"station_id":"ce4bhg12rcd13ifvqf70","pricing_plan_id":"cebpf4jnsgd1na2vs0mg"},{"bike_id":"8234e4ba-c0cc-45bb-8dac-83745f25b6f7","system_id":"levelo_inurba_marseille","lat":43.32487,"lon":5.36577,"is_reserved":false,"is_disabled":false,"rental_uris":{"android":"levelo://app?vid=8234e4ba-c0cc-45bb-8dac-83745f25b6f7","ios":"levelo://app?vid=8234e4ba-c0cc-45bb-8dac-83745f25b6f7"},"vehicle_type_id":"4","last_reported":1784400263,"current_range_meters":25600,"station_id":"ce4bhs12rcd13ifvqhvg","pricing_plan_id":"cebpf4jnsgd1na2vs0mg"},{"bike_id":"ad193227-d210-4e9a-af26-3f25b41f58db","system_id":"levelo_inurba_marseille","lat":43.2389,"lon":5.37461,"is_reserved":false,"is_disabled":false,"rental_uris":{"android":"levelo://app?vid=ad193227-d210-4e9a-af26-3f25b41f58db","ios":"levelo://app?vid=ad193227-d210-4e9a-af26-3f25b41f58db"},"vehicle_type_id":"4","last_reported":1784400263,"current_range_meters":38400,"station_id":"st_d6sm7csbq4hs73f8fpjg","pricing_plan_id":"cebpf4jnsgd1na2vs0mg"},{"bike_id":"ee06a958-7f2b-4eb7-a6b1-2d3112db17a0","system_id":"levelo_inurba_marseille","lat":43.3113,"lon":5.37802,"is_reserved":false,"is_disabled":false,"rental_uris":{"android":"levelo://app?vid=ee06a958-7f2b-4eb7-a6b1-2d3112db17a0","ios":"levelo://app?vid=ee06a958-7f2b-4eb7-a6b1-2d3112db17a0"},"vehicle_type_id":"4","last_reported":1784400263,"current_range_meters":6400,"station_id":"ce4bgt92rcd13ifvqcg0","pricing_plan_id":"cebpf4jnsgd1na2vs0mg"},{"bike_id":"b4a1516a-3f0d-4417-91ff-8020ff7af641","system_id":"levelo_inurba_marseille","lat":43.29613,"lon":5.37714,"is_reserved":false,"is_disabled":false,"rental_uris":{"android":"levelo://app?vid=b4a1516a-3f0d-4417-91ff-8020ff7af641","ios":"levelo://app?vid=b4a1516a-3f0d-4417-91ff-8020ff7af641"},"vehicle_type_id":"4","last_reported":1784400263,"current_range_meters":7200,"station_id":"ce4bgi92rcd13ifvqb90","pricing_plan_id":"cebpf4jnsgd1na2vs0mg"},{"bike_id":"6574ba80-d1cb-4d7c-8e97-996d3033fe32","system_id":"levelo_inurba_marseille","lat":43.26546,"lon":5.37278,"is_reserved":false,"is_disabled":false,"rental_uris":{"android":"levelo://app?vid=6574ba80-d1cb-4d7c-8e97-996d3033fe32","ios":"levelo://app?vid=6574ba80-d1cb-4d7c-8e97-996d3033fe32"},"vehicle_type_id":"4","last_reported":1784400263,"current_range_meters":5600,"station_id":"ce4bhg12rcd13ifvqf70","pricing_plan_id":"cebpf4jnsgd1na2vs0mg"},{"bike_id":"fbc2ea7e-7aa8-46c6-911e-98977f78f06c","system_id":"levelo_inurba_marseille","lat":43.26683,"lon":5.38282,"is_reserved":false,"is_disabled":false,"rental_uris":{"android":"levelo://app?vid=fbc2ea7e-7aa8-46c6-911e-98977f78f06c","ios":"levelo://app?vid=fbc2ea7e-7aa8-46c6-911e-98977f78f06c"},"vehicle_type_id":"4","last_reported":1784400263,"current_range_meters":39200,"station_id":"ce4bhg92rcd13ifvqf90","pricing_plan_id":"cebpf4jnsgd1na2vs0mg"},{"bike_id":"942148f9-90f2-4171-8f05-98ba0ca85bcb","system_id":"levelo_inurba_marseille","lat":43.28474,"lon":5.48395,"is_reserved":false,"is_disabled":false,"rental_uris":{"android":"levelo://app?vid=942148f9-90f2-4171-8f05-98ba0ca85bcb","ios":"levelo://app?vid=942148f9-90f2-4171-8f05-98ba0ca85bcb"},"vehicle_type_id":"4","last_reported":1784400263,"current_range_meters":3600,"station_id":"st_d3svhcjqgbts73a3dn0g","pricing_plan_id":"cebpf4jnsgd1na2vs0mg"},{"bike_id":"c810f4d1-b4da-406c-8d26-e38927a8150c","system_id":"levelo_inurba_marseille","lat":43.26653,"lon":5.38285,"is_reserved":false,"is_disabled":false,"rental_uris":{"android":"levelo://app?vid=c810f4d1-b4da-406c-8d26-e38927a8150c","ios":"levelo://app?vid=c810f4d1-b4da-406c-8d26-e38927a8150c"},"vehicle_type_id":"4","last_reported":1784400263,"current_range_meters":30400,"station_id":"ce4bhg92rcd13ifvqf90","pricing_plan_id":"cebpf4jnsgd1na2vs0mg"},{"bike_id":"54733892-ca4e-42e1-a6e2-3f31839f4a24","system_id":"levelo_inurba_marseille","lat":43.299612,"lon":5.413135,"is_reserved":false,"is_disabled":false,"rental_uris":{"android":"levelo://app?vid=54733892-ca4e-42e1-a6e2-3f31839f4a24","ios":"levelo://app?vid=54733892-ca4e-42e1-a6e2-3f31839f4a24"},"vehicle_type_id":"4","last_reported":1784400263,"current_range_meters":36400,"station_id":"ce4bhp12rcd13ifvqh9g","pricing_plan_id":"cebpf4jnsgd1na2vs0mg"},{"bike_id":"fa288643-b967-4c77-8362-0941ea5afa2f","system_id":"levelo_inurba_marseille","lat":43.2319,"lon":5.35552,"is_reserved":false,"is_disabled":false,"rental_uris":{"android":"levelo://app?vid=fa288643-b967-4c77-8362-0941ea5afa2f","ios":"levelo://app?vid=fa288643-b967-4c77-8362-0941ea5afa2f"},"vehicle_type_id":"4","last_reported":1784400263,"current_range_meters":7200,"station_id":"ce4bhu92rcd13ifvqi70","pricing_plan_id":"cebpf4jnsgd1na2vs0mg"},{"bike_id":"2a93def1-9840-4751-b465-b53bb0ce6123","system_id":"levelo_inurba_marseille","lat":43.2256,"lon":5.41633,"is_reserved":false,"is_disabled":false,"rental_uris":{"android":"levelo://app?vid=2a93def1-9840-4751-b465-b53bb0ce6123","ios":"levelo://app?vid=2a93def1-9840-4751-b465-b53bb0ce6123"},"vehicle_type_id":"4","last_reported":1784400263,"current_range_meters":10800,"station_id":"st_d2o4gvlbi1j2169b742g","pricing_plan_id":"cebpf4jnsgd1na2vs0mg"},{"bike_id":"d98a757a-6f6d-47aa-8f36-2e59d82959b6","system_id":"levelo_inurba_marseille","lat":43.25505,"lon":5.37658,"is_reserved":false,"is_disabled":false,"rental_uris":{"android":"levelo://app?vid=d98a757a-6f6d-47aa-8f36-2e59d82959b6","ios":"levelo://app?vid=d98a757a-6f6d-47aa-8f36-2e59d82959b6"},"vehicle_type_id":"4","last_reported":1784400263,"current_range_meters":8800,"station_id":"ce4bhh12rcd13ifvqff0","pricing_plan_id":"cebpf4jnsgd1na2vs0mg"},{"bike_id":"d2b08bfe-8d05-4397-91e9-fe938a2b845f","system_id":"levelo_inurba_marseille","lat":43.27505,"lon":5.42399,"is_reserved":false,"is_disabled":false,"rental_uris":{"android":"levelo://app?vid=d2b08bfe-8d05-4397-91e9-fe938a2b845f","ios":"levelo://app?vid=d2b08bfe-8d05-4397-91e9-fe938a2b845f"},"vehicle_type_id":"4","last_reported":1784400263,"current_range_meters":30800,"station_id":"ce4bhn92rcd13ifvqgrg","pricing_plan_id":"cebpf4jnsgd1na2vs0mg"},{"bike_id":"fe939a2c-91e3-4f8d-b743-2695d7ecae66","system_id":"levelo_inurba_marseille","lat":43.33133,"lon":5.37705,"is_reserved":false,"is_disabled":false,"rental_uris":{"android":"levelo://app?vid=fe939a2c-91e3-4f8d-b743-2695d7ecae66","ios":"levelo://app?vid=fe939a2c-91e3-4f8d-b743-2695d7ecae66"},"vehicle_type_id":"4","last_reported":1784400263,"current_range_meters":16800,"station_id":"st_d46cu089ee8s73dldbu0","pricing_plan_id":"cebpf4jnsgd1na2vs0mg"},{"bike_id":"f9c28d77-c063-4ec2-a454-bd584bcef964","system_id":"levelo_inurba_marseille","lat":43.2737,"lon":5.36265,"is_reserved":false,"is_disabled":false,"rental_uris":{"android":"levelo://app?vid=f9c28d77-c063-4ec2-a454-bd584bcef964","ios":"levelo://app?vid=f9c28d77-c063-4ec2-a454-bd584bcef964"},"vehicle_type_id":"4","last_reported":1784400263,"current_range_meters":39200,"station_id":"ce4bhbh2rcd13ifvqeo0","pricing_plan_id":"cebpf4jnsgd1na2vs0mg"},{"bike_id":"e97d923d-d560-461e-94e7-6b746b3d8d92","system_id":"levelo_inurba_marseille","lat":43.3209,"lon":5.36776,"is_reserved":false,"is_disabled":false,"rental_uris":{"android":"levelo://app?vid=e97d923d-d560-461e-94e7-6b746b3d8d92","ios":"levelo://app?vid=e97d923d-d560-461e-94e7-6b746b3d8d92"},"vehicle_type_id":"4","last_reported":1784400263,"current_range_meters":25200,"station_id":"ce4bhrh2rcd13ifvqhug","pricing_plan_id":"cebpf4jnsgd1na2vs0mg"},{"bike_id":"eb97f188-bf77-4cfa-82f5-3cc624843059","system_id":"levelo_inurba_marseille","lat":43.26946,"lon":5.38636,"is_reserved":false,"is_disabled":false,"rental_uris":{"android":"levelo://app?vid=eb97f188-bf77-4cfa-82f5-3cc624843059","ios":"levelo://app?vid=eb97f188-bf77-4cfa-82f5-3cc624843059"},"vehicle_type_id":"4","last_reported":1784400263,"current_range_meters":39200,"station_id":"ce4bhh92rcd13ifvqfh0","pricing_plan_id":"cebpf4jnsgd1na2vs0mg"},{"bike_id":"799154d0-b762-4c20-bcc9-9571ef6bdd9b","system_id":"levelo_inurba_marseille","lat":43.28685,"lon":5.38672,"is_reserved":false,"is_disabled":false,"rental_uris":{"android":"levelo://app?vid=799154d0-b762-4c20-bcc9-9571ef6bdd9b","ios":"levelo://app?vid=799154d0-b762-4c20-bcc9-9571ef6bdd9b"},"vehicle_type_id":"4","last_reported":1784400263,"current_range_meters":39200,"station_id":"ce4bh492rcd13ifvqdug","pricing_plan_id":"cebpf4jnsgd1na2vs0mg"},{"bike_id":"48837646-8c52-45de-9e76-9ec9cdd47775","system_id":"levelo_inurba_marseille","lat":43.28768,"lon":5.38542,"is_reserved":false,"is_disabled":false,"rental_uris":{"android":"levelo://app?vid=48837646-8c52-45de-9e76-9ec9cdd47775","ios":"levelo://app?vid=48837646-8c52-45de-9e76-9ec9cdd47775"},"vehicle_type_id":"4","last_reported":1784400263,"current_range_meters":9600,"station_id":"","pricing_plan_id":"cebpf4jnsgd1na2vs0mg"},{"bike_id":"a73f2824-04af-4eb1-8696-07548fb915c6","system_id":"levelo_inurba_marseille","lat":43.27069,"lon":5.42275,"is_reserved":false,"is_disabled":false,"rental_uris":{"android":"levelo://app?vid=a73f2824-04af-4eb1-8696-07548fb915c6","ios":"levelo://app?vid=a73f2824-04af-4eb1-8696-07548fb915c6"},"vehicle_type_id":"4","last_reported":1784400263,"current_range_meters":34800,"station_id":"ce4bhk92rcd13ifvqgb0","pricing_plan_id":"cebpf4jnsgd1na2vs0mg"},{"bike_id":"07a29b6d-a7c7-4fb1-b314-1e2fafb66d87","system_id":"levelo_inurba_marseille","lat":43.21755,"lon":5.34598,"is_reserved":false,"is_disabled":false,"rental_uris":{"android":"levelo://app?vid=07a29b6d-a7c7-4fb1-b314-1e2fafb66d87","ios":"levelo://app?vid=07a29b6d-a7c7-4fb1-b314-1e2fafb66d87"},"vehicle_type_id":"4","last_reported":1784400263,"current_range_meters":4800,"station_id":"st_cvj6r9ubvosntc0bgbag","pricing_plan_id":"cebpf4jnsgd1na2vs0mg"},{"bike_id":"368bfa52-7717-4573-aec6-c88a370481c9","system_id":"levelo_inurba_marseille","lat":43.29257,"lon":5.38447,"is_reserved":false,"is_disabled":true,"rental_uris":{"android":"levelo://app?vid=368bfa52-7717-4573-aec6-c88a370481c9","ios":"levelo://app?vid=368bfa52-7717-4573-aec6-c88a370481c9"},"vehicle_type_id":"4","last_reported":1784400263,"current_range_meters":0,"station_id":"ce4bh692rcd13ifvqea0","pricing_plan_id":"cebpf4jnsgd1na2vs0mg"},{"bike_id":"e845caaf-6f62-4afe-898b-175d7eec4dd5","system_id":"levelo_inurba_marseille","lat":43.29043,"lon":5.35911,"is_reserved":false,"is_disabled":true,"rental_uris":{"android":"levelo://app?vid=e845caaf-6f62-4afe-898b-175d7eec4dd5","ios":"levelo://app?vid=e845caaf-6f62-4afe-898b-175d7eec4dd5"},"vehicle_type_id":"4","last_reported":1784400263,"current_range_meters":10800,"station_id":"ce4bha92rcd13ifvqeg0","pricing_plan_id":"cebpf4jnsgd1na2vs0mg"},{"bike_id":"d229b9a2-486e-4d14-86e6-ad40b7cd481e","system_id":"levelo_inurba_marseille","lat":43.26202,"lon":5.37431,"is_reserved":false,"is_disabled":false,"rental_uris":{"android":"levelo://app?vid=d229b9a2-486e-4d14-86e6-ad40b7cd481e","ios":"levelo://app?vid=d229b9a2-486e-4d14-86e6-ad40b7cd481e"},"vehicle_type_id":"4","last_reported":1784400263,"current_range_meters":19600,"station_id":"ce4bhgp2rcd13ifvqfc0","pricing_plan_id":"cebpf4jnsgd1na2vs0mg"},{"bike_id":"a359700c-c900-4e40-af70-ebdfba9dee4b","system_id":"levelo_inurba_marseille","lat":43.25513,"lon":5.37653,"is_reserved":false,"is_disabled":false,"rental_uris":{"android":"levelo://app?vid=a359700c-c900-4e40-af70-ebdfba9dee4b","ios":"levelo://app?vid=a359700c-c900-4e40-af70-ebdfba9dee4b"},"vehicle_type_id":"4","last_reported":1784400263,"current_range_meters":28000,"station_id":"ce4bhh12rcd13ifvqff0","pricing_plan_id":"cebpf4jnsgd1na2vs0mg"},{"bike_id":"b64426df-a3f7-424e-923a-a5218fc5bce4","system_id":"levelo_inurba_marseille","lat":43.2768,"lon":5.38891,"is_reserved":false,"is_disabled":false,"rental_uris":{"android":"levelo://app?vid=b64426df-a3f7-424e-923a-a5218fc5bce4","ios":"levelo://app?vid=b64426df-a3f7-424e-923a-a5218fc5bce4"},"vehicle_type_id":"4","last_reported":1784400263,"current_range_meters":26000,"station_id":"ce4bhi12rcd13ifvqfo0","pricing_plan_id":"cebpf4jnsgd1na2vs0mg"},{"bike_id":"53cf9c8e-8b82-4ba6-9896-9c7dc78c0e2d","system_id":"levelo_inurba_marseille","lat":43.28211,"lon":5.39025,"is_reserved":false,"is_disabled":true,"rental_uris":{"android":"levelo://app?vid=53cf9c8e-8b82-4ba6-9896-9c7dc78c0e2d","ios":"levelo://app?vid=53cf9c8e-8b82-4ba6-9896-9c7dc78c0e2d"},"vehicle_type_id":"4","last_reported":1784400263,"current_range_meters":2000,"station_id":"","pricing_plan_id":"cebpf4jnsgd1na2vs0mg"},{"bike_id":"3d4aa178-44db-467e-a1bd-4fcdf991f22c","system_id":"levelo_inurba_marseille","lat":43.31714,"lon":5.43746,"is_reserved":false,"is_disabled":false,"rental_uris":{"android":"levelo://app?vid=3d4aa178-44db-467e-a1bd-4fcdf991f22c","ios":"levelo://app?vid=3d4aa178-44db-467e-a1bd-4fcdf991f22c"},"vehicle_type_id":"4","last_reported":1784400263,"current_range_meters":40000,"station_id":"ce4bhp92rcd13ifvqhcg","pricing_plan_id":"cebpf4jnsgd1na2vs0mg"},{"bike_id":"78b472ae-7ca1-438d-a65f-f93d06645001","system_id":"levelo_inurba_marseille","lat":43.29215,"lon":5.36007,"is_reserved":false,"is_disabled":true,"rental_uris":{"android":"levelo://app?vid=78b472ae-7ca1-438d-a65f-f93d06645001","ios":"levelo://app?vid=78b472ae-7ca1-438d-a65f-f93d06645001"},"vehicle_type_id":"4","last_reported":1784400263,"current_range_meters":3200,"station_id":"","pricing_plan_id":"cebpf4jnsgd1na2vs0mg"},{"bike_id":"4702e3a1-c863-438b-8146-e2987d253070","system_id":"levelo_inurba_marseille","lat":43.255819,"lon":5.382358,"is_reserved":false,"is_disabled":true,"rental_uris":{"android":"levelo://app?vid=4702e3a1-c863-438b-8146-e2987d253070","ios":"levelo://app?vid=4702e3a1-c863-438b-8146-e2987d253070"},"vehicle_type_id":"4","last_reported":1784400263,"current_range_meters":0,"station_id":"ce4bhih2rcd13ifvqfs0","pricing_plan_id":"cebpf4jnsgd1na2vs0mg"},{"bike_id":"bf010752-4ee2-4816-b256-1fb00bbe1bcc","system_id":"levelo_inurba_marseille","lat":43.28617,"lon":5.3511,"is_reserved":false,"is_disabled":true,"rental_uris":{"android":"levelo://app?vid=bf010752-4ee2-4816-b256-1fb00bbe1bcc","ios":"levelo://app?vid=bf010752-4ee2-4816-b256-1fb00bbe1bcc"},"vehicle_type_id":"4","last_reported":1784400263,"current_range_meters":15200,"station_id":"ce4bhch2rcd13ifvqeug","pricing_plan_id":"cebpf4jnsgd1na2vs0mg"},{"bike_id":"b8079c84-d50a-4522-861f-c59f854893f0","system_id":"levelo_inurba_marseille","lat":43.26191,"lon":5.37458,"is_reserved":false,"is_disabled":false,"rental_uris":{"android":"levelo://app?vid=b8079c84-d50a-4522-861f-c59f854893f0","ios":"levelo://app?vid=b8079c84-d50a-4522-861f-c59f854893f0"},"vehicle_type_id":"4","last_reported":1784400263,"current_range_meters":7200,"station_id":"ce4bhgp2rcd13ifvqfc0","pricing_plan_id":"cebpf4jnsgd1na2vs0mg"},{"bike_id":"348caf77-82d6-4562-a72e-c7becae0b0ae","system_id":"levelo_inurba_marseille","lat":43.230549,"lon":5.354901,"is_reserved":false,"is_disabled":false,"rental_uris":{"android":"levelo://app?vid=348caf77-82d6-4562-a72e-c7becae0b0ae","ios":"levelo://app?vid=348caf77-82d6-4562-a72e-c7becae0b0ae"},"vehicle_type_id":"4","last_reported":1784400263,"current_range_meters":38400,"station_id":"cpo3342slgdg3j2ifvpg","pricing_plan_id":"cebpf4jnsgd1na2vs0mg"},{"bike_id":"88b3333d-68df-42df-8ef7-a9a4f08abce5","system_id":"levelo_inurba_marseille","lat":43.22904,"lon":5.41522,"is_reserved":false,"is_disabled":false,"rental_uris":{"android":"levelo://app?vid=88b3333d-68df-42df-8ef7-a9a4f08abce5","ios":"levelo://app?vid=88b3333d-68df-42df-8ef7-a9a4f08abce5"},"vehicle_type_id":"4","last_reported":1784400263,"current_range_meters":22000,"station_id":"","pricing_plan_id":"cebpf4jnsgd1na2vs0mg"},{"bike_id":"eca0ae68-a3b8-42c7-b733-15dbcb35f804","system_id":"levelo_inurba_marseille","lat":43.26194,"lon":5.3745,"is_reserved":false,"is_disabled":false,"rental_uris":{"android":"levelo://app?vid=eca0ae68-a3b8-42c7-b733-15dbcb35f804","ios":"levelo://app?vid=eca0ae68-a3b8-42c7-b733-15dbcb35f804"},"vehicle_type_id":"4","last_reported":1784400263,"current_range_meters":9200,"station_id":"ce4bhgp2rcd13ifvqfc0","pricing_plan_id":"cebpf4jnsgd1na2vs0mg"},{"bike_id":"e51d5087-4196-46b0-b7bf-b467471bedab","system_id":"levelo_inurba_marseille","lat":43.27946,"lon":5.41035,"is_reserved":false,"is_disabled":false,"rental_uris":{"android":"levelo://app?vid=e51d5087-4196-46b0-b7bf-b467471bedab","ios":"levelo://app?vid=e51d5087-4196-46b0-b7bf-b467471bedab"},"vehicle_type_id":"4","last_reported":1784400263,"current_range_meters":27200,"station_id":"ce4bhnp2rcd13ifvqh0g","pricing_plan_id":"cebpf4jnsgd1na2vs0mg"},{"bike_id":"cbf57bb6-373a-442c-9860-92cf9215a1bb","system_id":"levelo_inurba_marseille","lat":43.30538,"lon":5.36523,"is_reserved":false,"is_disabled":true,"rental_uris":{"android":"levelo://app?vid=cbf57bb6-373a-442c-9860-92cf9215a1bb","ios":"levelo://app?vid=cbf57bb6-373a-442c-9860-92cf9215a1bb"},"vehicle_type_id":"4","last_reported":1784400263,"current_range_meters":24400,"station_id":"ce4bgs12rcd13ifvqcag","pricing_plan_id":"cebpf4jnsgd1na2vs0mg"},{"bike_id":"58657c2c-f213-4763-bf6c-55283490b915","system_id":"levelo_inurba_marseille","lat":43.26211,"lon":5.37472,"is_reserved":false,"is_disabled":false,"rental_uris":{"android":"levelo://app?vid=58657c2c-f213-4763-bf6c-55283490b915","ios":"levelo://app?vid=58657c2c-f213-4763-bf6c-55283490b915"},"vehicle_type_id":"4","last_reported":1784400263,"current_range_meters":38400,"station_id":"ce4bhgp2rcd13ifvqfc0","pricing_plan_id":"cebpf4jnsgd1na2vs0mg"},{"bike_id":"2a776eff-b75d-45bf-b8ad-a179b5f859c2","system_id":"levelo_inurba_marseille","lat":43.24813,"lon":5.37462,"is_reserved":false,"is_disabled":false,"rental_uris":{"android":"levelo://app?vid=2a776eff-b75d-45bf-b8ad-a179b5f859c2","ios":"levelo://app?vid=2a776eff-b75d-45bf-b8ad-a179b5f859c2"},"vehicle_type_id":"4","last_reported":1784400263,"current_range_meters":22800,"station_id":"ce4bhgh2rcd13ifvqfb0","pricing_plan_id":"cebpf4jnsgd1na2vs0mg"},{"bike_id":"b9bf91b1-f6c3-4792-a380-5b253e1ff4ad","system_id":"levelo_inurba_marseille","lat":43.2317,"lon":5.35581,"is_reserved":false,"is_disabled":false,"rental_uris":{"android":"levelo://app?vid=b9bf91b1-f6c3-4792-a380-5b253e1ff4ad","ios":"levelo://app?vid=b9bf91b1-f6c3-4792-a380-5b253e1ff4ad"},"vehicle_type_id":"4","last_reported":1784400263,"current_range_meters":30800,"station_id":"ce4bhu92rcd13ifvqi70","pricing_plan_id":"cebpf4jnsgd1na2vs0mg"},{"bike_id":"d0689963-1360-4eec-9974-1c99b2ed8187","system_id":"levelo_inurba_marseille","lat":43.30611,"lon":5.37212,"is_reserved":false,"is_disabled":true,"rental_uris":{"android":"levelo://app?vid=d0689963-1360-4eec-9974-1c99b2ed8187","ios":"levelo://app?vid=d0689963-1360-4eec-9974-1c99b2ed8187"},"vehicle_type_id":"4","last_reported":1784400263,"current_range_meters":36000,"station_id":"ce4bgqh2rcd13ifvqc4g","pricing_plan_id":"cebpf4jnsgd1na2vs0mg"},{"bike_id":"f0acc4c0-9d1e-4c9c-8330-34263bf6a4b8","system_id":"levelo_inurba_marseille","lat":43.289401,"lon":5.3963,"is_reserved":false,"is_disabled":false,"rental_uris":{"android":"levelo://app?vid=f0acc4c0-9d1e-4c9c-8330-34263bf6a4b8","ios":"levelo://app?vid=f0acc4c0-9d1e-4c9c-8330-34263bf6a4b8"},"vehicle_type_id":"4","last_reported":1784400263,"current_range_meters":26800,"station_id":"ce4bh3h2rcd13ifvqdn0","pricing_plan_id":"cebpf4jnsgd1na2vs0mg"},{"bike_id":"4f54c651-15d1-492f-8d09-70f1f809ad4f","system_id":"levelo_inurba_marseille","lat":43.27491,"lon":5.42551,"is_reserved":false,"is_disabled":false,"rental_uris":{"android":"levelo://app?vid=4f54c651-15d1-492f-8d09-70f1f809ad4f","ios":"levelo://app?vid=4f54c651-15d1-492f-8d09-70f1f809ad4f"},"vehicle_type_id":"4","last_reported":1784400263,"current_range_meters":20000,"station_id":"st_d8t4bh7nbrqs73arha60","pricing_plan_id":"cebpf4jnsgd1na2vs0mg"},{"bike_id":"7065528a-f292-4b1d-9927-6e05933d2cf0","system_id":"levelo_inurba_marseille","lat":43.22563,"lon":5.41626,"is_reserved":false,"is_disabled":false,"rental_uris":{"android":"levelo://app?vid=7065528a-f292-4b1d-9927-6e05933d2cf0","ios":"levelo://app?vid=7065528a-f292-4b1d-9927-6e05933d2cf0"},"vehicle_type_id":"4","last_reported":1784400263,"current_range_meters":26800,"station_id":"st_d2o4gvlbi1j2169b742g","pricing_plan_id":"cebpf4jnsgd1na2vs0mg"},{"bike_id":"e6734acc-296f-407e-890a-2f2e688cd6a0","system_id":"levelo_inurba_marseille","lat":43.29056,"lon":5.35924,"is_reserved":false,"is_disabled":false,"rental_uris":{"android":"levelo://app?vid=e6734acc-296f-407e-890a-2f2e688cd6a0","ios":"levelo://app?vid=e6734acc-296f-407e-890a-2f2e688cd6a0"},"vehicle_type_id":"4","last_reported":1784400263,"current_range_meters":40000,"station_id":"ce4bha92rcd13ifvqeg0","pricing_plan_id":"cebpf4jnsgd1na2vs0mg"},{"bike_id":"af11e03f-1528-4bf3-8c3f-52a367022a8f","system_id":"levelo_inurba_marseille","lat":43.30963,"lon":5.39045,"is_reserved":false,"is_disabled":false,"rental_uris":{"android":"levelo://app?vid=af11e03f-1528-4bf3-8c3f-52a367022a8f","ios":"levelo://app?vid=af11e03f-1528-4bf3-8c3f-52a367022a8f"},"vehicle_type_id":"4","last_reported":1784400263,"current_range_meters":20400,"station_id":"ce4bgup2rcd13ifvqco0","pricing_plan_id":"cebpf4jnsgd1na2vs0mg"},{"bike_id":"155e6389-cda9-43eb-993e-eb81b307637f","system_id":"levelo_inurba_marseille","lat":43.2842,"lon":5.34999,"is_reserved":false,"is_disabled":false,"rental_uris":{"android":"levelo://app?vid=155e6389-cda9-43eb-993e-eb81b307637f","ios":"levelo://app?vid=155e6389-cda9-43eb-993e-eb81b307637f"},"vehicle_type_id":"4","last_reported":1784400263,"current_range_meters":39200,"station_id":"ce4bhbh2rcd13ifvqepg","pricing_plan_id":"cebpf4jnsgd1na2vs0mg"},{"bike_id":"689b0fa2-77e4-469f-99bc-b7bbfbb9b4c3","system_id":"levelo_inurba_marseille","lat":43.24392,"lon":5.37039,"is_reserved":false,"is_disabled":false,"rental_uris":{"android":"levelo://app?vid=689b0fa2-77e4-469f-99bc-b7bbfbb9b4c3","ios":"levelo://app?vid=689b0fa2-77e4-469f-99bc-b7bbfbb9b4c3"},"vehicle_type_id":"4","last_reported":1784400263,"current_range_meters":40000,"station_id":"ce4bhhh2rcd13ifvqfk0","pricing_plan_id":"cebpf4jnsgd1na2vs0mg"},{"bike_id":"e35b3037-ccf2-48a7-b6f2-14a77143bba4","system_id":"levelo_inurba_marseille","lat":43.32353,"lon":5.36717,"is_reserved":false,"is_disabled":false,"rental_uris":{"android":"levelo://app?vid=e35b3037-ccf2-48a7-b6f2-14a77143bba4","ios":"levelo://app?vid=e35b3037-ccf2-48a7-b6f2-14a77143bba4"},"vehicle_type_id":"4","last_reported":1784400263,"current_range_meters":29600,"station_id":"ce4bhsh2rcd13ifvqi2g","pricing_plan_id":"cebpf4jnsgd1na2vs0mg"},{"bike_id":"c3f6adab-66b9-4d90-a4d1-5ded650c14a6","system_id":"levelo_inurba_marseille","lat":43.29171,"lon":5.37171,"is_reserved":false,"is_disabled":false,"rental_uris":{"android":"levelo://app?vid=c3f6adab-66b9-4d90-a4d1-5ded650c14a6","ios":"levelo://app?vid=c3f6adab-66b9-4d90-a4d1-5ded650c14a6"},"vehicle_type_id":"4","last_reported":1784400263,"current_range_meters":6400,"station_id":"ce4bha92rcd13ifvqeh0","pricing_plan_id":"cebpf4jnsgd1na2vs0mg"},{"bike_id":"7cb70b73-20f6-4880-b876-8231ebb394a1","system_id":"levelo_inurba_marseille","lat":43.297775,"lon":5.370941,"is_reserved":false,"is_disabled":false,"rental_uris":{"android":"levelo://app?vid=7cb70b73-20f6-4880-b876-8231ebb394a1","ios":"levelo://app?vid=7cb70b73-20f6-4880-b876-8231ebb394a1"},"vehicle_type_id":"4","last_reported":1784400263,"current_range_meters":38400,"station_id":"ce4bgop2rcd13ifvqc1g","pricing_plan_id":"cebpf4jnsgd1na2vs0mg"},{"bike_id":"b32aabde-9bb9-4939-8873-e24f0fd51c81","system_id":"levelo_inurba_marseille","lat":43.29559,"lon":5.38536,"is_reserved":false,"is_disabled":false,"rental_uris":{"android":"levelo://app?vid=b32aabde-9bb9-4939-8873-e24f0fd51c81","ios":"levelo://app?vid=b32aabde-9bb9-4939-8873-e24f0fd51c81"},"vehicle_type_id":"4","last_reported":1784400263,"current_range_meters":34800,"station_id":"ce4bgih2rcd13ifvqba0","pricing_plan_id":"cebpf4jnsgd1na2vs0mg"},{"bike_id":"5a291042-51a9-4959-b385-2a5b93f4d326","system_id":"levelo_inurba_marseille","lat":43.23148,"lon":5.4371,"is_reserved":false,"is_disabled":false,"rental_uris":{"android":"levelo://app?vid=5a291042-51a9-4959-b385-2a5b93f4d326","ios":"levelo://app?vid=5a291042-51a9-4959-b385-2a5b93f4d326"},"vehicle_type_id":"4","last_reported":1784400263,"current_range_meters":39200,"station_id":"ce4bhmp2rcd13ifvqgog","pricing_plan_id":"cebpf4jnsgd1na2vs0mg"},{"bike_id":"a109d0f5-fcbd-48b4-b6fc-4c3d118d00ea","system_id":"levelo_inurba_marseille","lat":43.28691,"lon":5.38665,"is_reserved":false,"is_disabled":false,"rental_uris":{"android":"levelo://app?vid=a109d0f5-fcbd-48b4-b6fc-4c3d118d00ea","ios":"levelo://app?vid=a109d0f5-fcbd-48b4-b6fc-4c3d118d00ea"},"vehicle_type_id":"4","last_reported":1784400263,"current_range_meters":3200,"station_id":"ce4bh492rcd13ifvqdug","pricing_plan_id":"cebpf4jnsgd1na2vs0mg"},{"bike_id":"99ebda50-fa03-4169-b699-7ab821f5d29d","system_id":"levelo_inurba_marseille","lat":43.27691,"lon":5.38852,"is_reserved":false,"is_disabled":true,"rental_uris":{"android":"levelo://app?vid=99ebda50-fa03-4169-b699-7ab821f5d29d","ios":"levelo://app?vid=99ebda50-fa03-4169-b699-7ab821f5d29d"},"vehicle_type_id":"4","last_reported":1784400263,"current_range_meters":0,"station_id":"ce4bhi12rcd13ifvqfo0","pricing_plan_id":"cebpf4jnsgd1na2vs0mg"},{"bike_id":"01e7462b-b9cf-469e-92a6-2a1201a0f2a3","system_id":"levelo_inurba_marseille","lat":43.30495,"lon":5.39846,"is_reserved":false,"is_disabled":true,"rental_uris":{"android":"levelo://app?vid=01e7462b-b9cf-469e-92a6-2a1201a0f2a3","ios":"levelo://app?vid=01e7462b-b9cf-469e-92a6-2a1201a0f2a3"},"vehicle_type_id":"4","last_reported":1784400263,"current_range_meters":4000,"station_id":"","pricing_plan_id":"cebpf4jnsgd1na2vs0mg"},{"bike_id":"08032647-4e4b-4d46-b2bb-1df2e3cbec8b","system_id":"levelo_inurba_marseille","lat":43.28362,"lon":5.43297,"is_reserved":false,"is_disabled":true,"rental_uris":{"android":"levelo://app?vid=08032647-4e4b-4d46-b2bb-1df2e3cbec8b","ios":"levelo://app?vid=08032647-4e4b-4d46-b2bb-1df2e3cbec8b"},"vehicle_type_id":"4","last_reported":1784400263,"current_range_meters":0,"station_id":"","pricing_plan_id":"cebpf4jnsgd1na2vs0mg"},{"bike_id":"83421b20-6d99-487f-a28a-d46689334d08","system_id":"levelo_inurba_marseille","lat":43.25186,"lon":5.37321,"is_reserved":false,"is_disabled":false,"rental_uris":{"android":"levelo://app?vid=83421b20-6d99-487f-a28a-d46689334d08","ios":"levelo://app?vid=83421b20-6d99-487f-a28a-d46689334d08"},"vehicle_type_id":"4","last_reported":1784400263,"current_range_meters":25600,"station_id":"","pricing_plan_id":"cebpf4jnsgd1na2vs0mg"},{"bike_id":"e4da44a5-167c-40db-af83-df82ead5b0dd","system_id":"levelo_inurba_marseille","lat":43.29065,"lon":5.35876,"is_reserved":false,"is_disabled":false,"rental_uris":{"android":"levelo://app?vid=e4da44a5-167c-40db-af83-df82ead5b0dd","ios":"levelo://app?vid=e4da44a5-167c-40db-af83-df82ead5b0dd"},"vehicle_type_id":"4","last_reported":1784400263,"current_range_meters":18000,"station_id":"ce4bha92rcd13ifvqeg0","pricing_plan_id":"cebpf4jnsgd1na2vs0mg"},{"bike_id":"2fd3fd2a-5afd-41dc-a0e5-4abd957555d4","system_id":"levelo_inurba_marseille","lat":43.26658,"lon":5.3827,"is_reserved":false,"is_disabled":false,"rental_uris":{"android":"levelo://app?vid=2fd3fd2a-5afd-41dc-a0e5-4abd957555d4","ios":"levelo://app?vid=2fd3fd2a-5afd-41dc-a0e5-4abd957555d4"},"vehicle_type_id":"4","last_reported":1784400263,"current_range_meters":16400,"station_id":"ce4bhg92rcd13ifvqf90","pricing_plan_id":"cebpf4jnsgd1na2vs0mg"},{"bike_id":"8b6331b3-2914-4282-8a4c-45cca24291f2","system_id":"levelo_inurba_marseille","lat":43.309261,"lon":5.401374,"is_reserved":false,"is_disabled":false,"rental_uris":{"android":"levelo://app?vid=8b6331b3-2914-4282-8a4c-45cca24291f2","ios":"levelo://app?vid=8b6331b3-2914-4282-8a4c-45cca24291f2"},"vehicle_type_id":"4","last_reported":1784400263,"current_range_meters":24800,"station_id":"","pricing_plan_id":"cebpf4jnsgd1na2vs0mg"},{"bike_id":"2c561735-5328-4e85-a2fd-62e80a3533e8","system_id":"levelo_inurba_marseille","lat":43.28616,"lon":5.35096,"is_reserved":false,"is_disabled":false,"rental_uris":{"android":"levelo://app?vid=2c561735-5328-4e85-a2fd-62e80a3533e8","ios":"levelo://app?vid=2c561735-5328-4e85-a2fd-62e80a3533e8"},"vehicle_type_id":"4","last_reported":1784400263,"current_range_meters":19200,"station_id":"ce4bhch2rcd13ifvqeug","pricing_plan_id":"cebpf4jnsgd1na2vs0mg"},{"bike_id":"a287babe-2875-4e47-a1fc-a71e0666296b","system_id":"levelo_inurba_marseille","lat":43.260263,"lon":5.375491,"is_reserved":false,"is_disabled":false,"rental_uris":{"android":"levelo://app?vid=a287babe-2875-4e47-a1fc-a71e0666296b","ios":"levelo://app?vid=a287babe-2875-4e47-a1fc-a71e0666296b"},"vehicle_type_id":"4","last_reported":1784400263,"current_range_meters":24400,"station_id":"ce4bh392rcd13ifvqdm0","pricing_plan_id":"cebpf4jnsgd1na2vs0mg"},{"bike_id":"75afa838-800c-42ea-894d-1b275c9061e2","system_id":"levelo_inurba_marseille","lat":43.28414,"lon":5.34993,"is_reserved":false,"is_disabled":false,"rental_uris":{"android":"levelo://app?vid=75afa838-800c-42ea-894d-1b275c9061e2","ios":"levelo://app?vid=75afa838-800c-42ea-894d-1b275c9061e2"},"vehicle_type_id":"4","last_reported":1784400263,"current_range_meters":27200,"station_id":"ce4bhbh2rcd13ifvqepg","pricing_plan_id":"cebpf4jnsgd1na2vs0mg"},{"bike_id":"0d3e100f-48fe-47e1-bef7-0a1dcfcc4955","system_id":"levelo_inurba_marseille","lat":43.33725,"lon":5.39206,"is_reserved":false,"is_disabled":false,"rental_uris":{"android":"levelo://app?vid=0d3e100f-48fe-47e1-bef7-0a1dcfcc4955","ios":"levelo://app?vid=0d3e100f-48fe-47e1-bef7-0a1dcfcc4955"},"vehicle_type_id":"4","last_reported":1784400263,"current_range_meters":39200,"station_id":"ce4bhr92rcd13ifvqhsg","pricing_plan_id":"cebpf4jnsgd1na2vs0mg"},{"bike_id":"f994dddc-9194-4b4c-a02e-45b8c9c31ce1","system_id":"levelo_inurba_marseille","lat":43.29601,"lon":5.37086,"is_reserved":false,"is_disabled":false,"rental_uris":{"android":"levelo://app?vid=f994dddc-9194-4b4c-a02e-45b8c9c31ce1","ios":"levelo://app?vid=f994dddc-9194-4b4c-a02e-45b8c9c31ce1"},"vehicle_type_id":"4","last_reported":1784400263,"current_range_meters":24000,"station_id":"","pricing_plan_id":"cebpf4jnsgd1na2vs0mg"},{"bike_id":"693d7ea8-9635-4a4a-8390-c5ba91e00163","system_id":"levelo_inurba_marseille","lat":43.27203,"lon":5.39174,"is_reserved":false,"is_disabled":true,"rental_uris":{"android":"levelo://app?vid=693d7ea8-9635-4a4a-8390-c5ba91e00163","ios":"levelo://app?vid=693d7ea8-9635-4a4a-8390-c5ba91e00163"},"vehicle_type_id":"4","last_reported":1784400263,"current_range_meters":2000,"station_id":"ce4bhhp2rcd13ifvqfm0","pricing_plan_id":"cebpf4jnsgd1na2vs0mg"},{"bike_id":"10ab9747-60d1-456c-988f-3885a506813c","system_id":"levelo_inurba_marseille","lat":43.27676,"lon":5.3888,"is_reserved":false,"is_disabled":false,"rental_uris":{"android":"levelo://app?vid=10ab9747-60d1-456c-988f-3885a506813c","ios":"levelo://app?vid=10ab9747-60d1-456c-988f-3885a506813c"},"vehicle_type_id":"4","last_reported":1784400263,"current_range_meters":28800,"station_id":"ce4bhi12rcd13ifvqfo0","pricing_plan_id":"cebpf4jnsgd1na2vs0mg"},{"bike_id":"9a4c1917-12d5-4fd0-beb9-9df30b58299b","system_id":"levelo_inurba_marseille","lat":43.23201,"lon":5.35544,"is_reserved":false,"is_disabled":false,"rental_uris":{"android":"levelo://app?vid=9a4c1917-12d5-4fd0-beb9-9df30b58299b","ios":"levelo://app?vid=9a4c1917-12d5-4fd0-beb9-9df30b58299b"},"vehicle_type_id":"4","last_reported":1784400263,"current_range_meters":38400,"station_id":"ce4bhu92rcd13ifvqi70","pricing_plan_id":"cebpf4jnsgd1na2vs0mg"},{"bike_id":"19d1c183-82a0-4677-880e-8a6faa8f1cc9","system_id":"levelo_inurba_marseille","lat":43.31897,"lon":5.36799,"is_reserved":false,"is_disabled":false,"rental_uris":{"android":"levelo://app?vid=19d1c183-82a0-4677-880e-8a6faa8f1cc9","ios":"levelo://app?vid=19d1c183-82a0-4677-880e-8a6faa8f1cc9"},"vehicle_type_id":"4","last_reported":1784400263,"current_range_meters":26800,"station_id":"st_d6o2h0d0559c73evc1b0","pricing_plan_id":"cebpf4jnsgd1na2vs0mg"},{"bike_id":"bf92e73f-5ebb-482e-9b16-38b660c0b75a","system_id":"levelo_inurba_marseille","lat":43.21678,"lon":5.34659,"is_reserved":false,"is_disabled":true,"rental_uris":{"android":"levelo://app?vid=bf92e73f-5ebb-482e-9b16-38b660c0b75a","ios":"levelo://app?vid=bf92e73f-5ebb-482e-9b16-38b660c0b75a"},"vehicle_type_id":"4","last_reported":1784400263,"current_range_meters":4800,"station_id":"","pricing_plan_id":"cebpf4jnsgd1na2vs0mg"},{"bike_id":"daa023e8-7cb3-46f6-99b4-3cf66be94332","system_id":"levelo_inurba_marseille","lat":43.29286,"lon":5.37144,"is_reserved":false,"is_disabled":true,"rental_uris":{"android":"levelo://app?vid=daa023e8-7cb3-46f6-99b4-3cf66be94332","ios":"levelo://app?vid=daa023e8-7cb3-46f6-99b4-3cf66be94332"},"vehicle_type_id":"4","last_reported":1784400263,"current_range_meters":38400,"station_id":"ce4bgh92rcd13ifvqb40","pricing_plan_id":"cebpf4jnsgd1na2vs0mg"},{"bike_id":"98bce0f5-25e4-4db3-b698-d3dcf6d7b213","system_id":"levelo_inurba_marseille","lat":43.24798,"lon":5.37447,"is_reserved":false,"is_disabled":false,"rental_uris":{"android":"levelo://app?vid=98bce0f5-25e4-4db3-b698-d3dcf6d7b213","ios":"levelo://app?vid=98bce0f5-25e4-4db3-b698-d3dcf6d7b213"},"vehicle_type_id":"4","last_reported":1784400263,"current_range_meters":26000,"station_id":"ce4bhgh2rcd13ifvqfb0","pricing_plan_id":"cebpf4jnsgd1na2vs0mg"},{"bike_id":"277ec21a-9e91-4589-adae-7060a2494c44","system_id":"levelo_inurba_marseille","lat":43.29518,"lon":5.38552,"is_reserved":false,"is_disabled":false,"rental_uris":{"android":"levelo://app?vid=277ec21a-9e91-4589-adae-7060a2494c44","ios":"levelo://app?vid=277ec21a-9e91-4589-adae-7060a2494c44"},"vehicle_type_id":"4","last_reported":1784400263,"current_range_meters":19200,"station_id":"ce4bgih2rcd13ifvqba0","pricing_plan_id":"cebpf4jnsgd1na2vs0mg"},{"bike_id":"5559fbf1-7808-42ec-b906-08a11baa28c8","system_id":"levelo_inurba_marseille","lat":43.29214,"lon":5.35784,"is_reserved":false,"is_disabled":false,"rental_uris":{"android":"levelo://app?vid=5559fbf1-7808-42ec-b906-08a11baa28c8","ios":"levelo://app?vid=5559fbf1-7808-42ec-b906-08a11baa28c8"},"vehicle_type_id":"4","last_reported":1784400263,"current_range_meters":38000,"station_id":"ce4bhb12rcd13ifvqel0","pricing_plan_id":"cebpf4jnsgd1na2vs0mg"},{"bike_id":"65af711a-d8c8-4fc4-8cbc-dcd0786d28fa","system_id":"levelo_inurba_marseille","lat":43.28846,"lon":5.35841,"is_reserved":false,"is_disabled":true,"rental_uris":{"android":"levelo://app?vid=65af711a-d8c8-4fc4-8cbc-dcd0786d28fa","ios":"levelo://app?vid=65af711a-d8c8-4fc4-8cbc-dcd0786d28fa"},"vehicle_type_id":"4","last_reported":1784400263,"current_range_meters":22400,"station_id":"ce4bhb12rcd13ifvqem0","pricing_plan_id":"cebpf4jnsgd1na2vs0mg"},{"bike_id":"f4888e7c-bc94-4685-b705-a9da47be9a56","system_id":"levelo_inurba_marseille","lat":43.28109,"lon":5.37703,"is_reserved":false,"is_disabled":false,"rental_uris":{"android":"levelo://app?vid=f4888e7c-bc94-4685-b705-a9da47be9a56","ios":"levelo://app?vid=f4888e7c-bc94-4685-b705-a9da47be9a56"},"vehicle_type_id":"4","last_reported":1784400263,"current_range_meters":25600,"station_id":"","pricing_plan_id":"cebpf4jnsgd1na2vs0mg"},{"bike_id":"69ad72e4-e4db-4835-9992-4a595ceeb796","system_id":"levelo_inurba_marseille","lat":43.29008,"lon":5.35608,"is_reserved":false,"is_disabled":false,"rental_uris":{"android":"levelo://app?vid=69ad72e4-e4db-4835-9992-4a595ceeb796","ios":"levelo://app?vid=69ad72e4-e4db-4835-9992-4a595ceeb796"},"vehicle_type_id":"4","last_reported":1784400263,"current_range_meters":38400,"station_id":"ce4bhb92rcd13ifvqen0","pricing_plan_id":"cebpf4jnsgd1na2vs0mg"},{"bike_id":"e33e7e56-b1af-4e57-9514-4de84c42a5c6","system_id":"levelo_inurba_marseille","lat":43.23959,"lon":5.36624,"is_reserved":false,"is_disabled":true,"rental_uris":{"android":"levelo://app?vid=e33e7e56-b1af-4e57-9514-4de84c42a5c6","ios":"levelo://app?vid=e33e7e56-b1af-4e57-9514-4de84c42a5c6"},"vehicle_type_id":"4","last_reported":1784400263,"current_range_meters":24400,"station_id":"ce4bhi12rcd13ifvqfp0","pricing_plan_id":"cebpf4jnsgd1na2vs0mg"},{"bike_id":"63c9a5f8-5662-4172-9f47-2c2abf431aef","system_id":"levelo_inurba_marseille","lat":43.250015,"lon":5.389257,"is_reserved":false,"is_disabled":false,"rental_uris":{"android":"levelo://app?vid=63c9a5f8-5662-4172-9f47-2c2abf431aef","ios":"levelo://app?vid=63c9a5f8-5662-4172-9f47-2c2abf431aef"},"vehicle_type_id":"4","last_reported":1784400263,"current_range_meters":35600,"station_id":"ce4bhgp2rcd13ifvqfd0","pricing_plan_id":"cebpf4jnsgd1na2vs0mg"},{"bike_id":"7604574c-06cb-407e-9e16-b7858411e1bc","system_id":"levelo_inurba_marseille","lat":43.27823,"lon":5.40696,"is_reserved":false,"is_disabled":true,"rental_uris":{"android":"levelo://app?vid=7604574c-06cb-407e-9e16-b7858411e1bc","ios":"levelo://app?vid=7604574c-06cb-407e-9e16-b7858411e1bc"},"vehicle_type_id":"4","last_reported":1784400263,"current_range_meters":17600,"station_id":"ce4bhnh2rcd13ifvqgtg","pricing_plan_id":"cebpf4jnsgd1na2vs0mg"},{"bike_id":"600d3649-4b6d-473c-a715-d27921e00684","system_id":"levelo_inurba_marseille","lat":43.23193,"lon":5.35546,"is_reserved":false,"is_disabled":false,"rental_uris":{"android":"levelo://app?vid=600d3649-4b6d-473c-a715-d27921e00684","ios":"levelo://app?vid=600d3649-4b6d-473c-a715-d27921e00684"},"vehicle_type_id":"4","last_reported":1784400263,"current_range_meters":21600,"station_id":"ce4bhu92rcd13ifvqi70","pricing_plan_id":"cebpf4jnsgd1na2vs0mg"},{"bike_id":"f8fa36eb-eef3-48b1-86da-a5155f36fe8e","system_id":"levelo_inurba_marseille","lat":43.3061,"lon":5.37227,"is_reserved":false,"is_disabled":false,"rental_uris":{"android":"levelo://app?vid=f8fa36eb-eef3-48b1-86da-a5155f36fe8e","ios":"levelo://app?vid=f8fa36eb-eef3-48b1-86da-a5155f36fe8e"},"vehicle_type_id":"4","last_reported":1784400263,"current_range_meters":35200,"station_id":"ce4bgqh2rcd13ifvqc4g","pricing_plan_id":"cebpf4jnsgd1na2vs0mg"},{"bike_id":"8601b829-59f8-4eab-bab2-2f8e891d8617","system_id":"levelo_inurba_marseille","lat":43.254993,"lon":5.376487,"is_reserved":false,"is_disabled":false,"rental_uris":{"android":"levelo://app?vid=8601b829-59f8-4eab-bab2-2f8e891d8617","ios":"levelo://app?vid=8601b829-59f8-4eab-bab2-2f8e891d8617"},"vehicle_type_id":"4","last_reported":1784400263,"current_range_meters":24400,"station_id":"ce4bhh12rcd13ifvqff0","pricing_plan_id":"cebpf4jnsgd1na2vs0mg"},{"bike_id":"716f162a-5575-4d63-902c-a48b4ef658b0","system_id":"levelo_inurba_marseille","lat":43.26249,"lon":5.40446,"is_reserved":false,"is_disabled":false,"rental_uris":{"android":"levelo://app?vid=716f162a-5575-4d63-902c-a48b4ef658b0","ios":"levelo://app?vid=716f162a-5575-4d63-902c-a48b4ef658b0"},"vehicle_type_id":"4","last_reported":1784400263,"current_range_meters":25200,"station_id":"ce4bhmh2rcd13ifvqgmg","pricing_plan_id":"cebpf4jnsgd1na2vs0mg"},{"bike_id":"81959744-4786-4515-8028-caa8a3c86e5c","system_id":"levelo_inurba_marseille","lat":43.23891,"lon":5.37432,"is_reserved":false,"is_disabled":false,"rental_uris":{"android":"levelo://app?vid=81959744-4786-4515-8028-caa8a3c86e5c","ios":"levelo://app?vid=81959744-4786-4515-8028-caa8a3c86e5c"},"vehicle_type_id":"4","last_reported":1784400263,"current_range_meters":38400,"station_id":"st_d6sm7csbq4hs73f8fpjg","pricing_plan_id":"cebpf4jnsgd1na2vs0mg"},{"bike_id":"26a91fcb-e18f-4c83-9039-eb8c6882e94b","system_id":"levelo_inurba_marseille","lat":43.27172,"lon":5.36279,"is_reserved":false,"is_disabled":true,"rental_uris":{"android":"levelo://app?vid=26a91fcb-e18f-4c83-9039-eb8c6882e94b","ios":"levelo://app?vid=26a91fcb-e18f-4c83-9039-eb8c6882e94b"},"vehicle_type_id":"4","last_reported":1784400263,"current_range_meters":0,"station_id":"","pricing_plan_id":"cebpf4jnsgd1na2vs0mg"},{"bike_id":"63c73c6f-6ab0-45a1-9e2d-8aab91f0e83e","system_id":"levelo_inurba_marseille","lat":43.30889,"lon":5.37181,"is_reserved":false,"is_disabled":false,"rental_uris":{"android":"levelo://app?vid=63c73c6f-6ab0-45a1-9e2d-8aab91f0e83e","ios":"levelo://app?vid=63c73c6f-6ab0-45a1-9e2d-8aab91f0e83e"},"vehicle_type_id":"4","last_reported":1784400263,"current_range_meters":38000,"station_id":"ce4bguh2rcd13ifvqckg","pricing_plan_id":"cebpf4jnsgd1na2vs0mg"},{"bike_id":"d32e5a8a-4ac8-467e-99e4-aa2ade6ae35b","system_id":"levelo_inurba_marseille","lat":43.31117,"lon":5.37768,"is_reserved":false,"is_disabled":false,"rental_uris":{"android":"levelo://app?vid=d32e5a8a-4ac8-467e-99e4-aa2ade6ae35b","ios":"levelo://app?vid=d32e5a8a-4ac8-467e-99e4-aa2ade6ae35b"},"vehicle_type_id":"4","last_reported":1784400263,"current_range_meters":11600,"station_id":"ce4bgt92rcd13ifvqcg0","pricing_plan_id":"cebpf4jnsgd1na2vs0mg"},{"bike_id":"9e7b599e-2368-470a-996a-9e46d15e7da0","system_id":"levelo_inurba_marseille","lat":43.25721,"lon":5.41109,"is_reserved":false,"is_disabled":false,"rental_uris":{"android":"levelo://app?vid=9e7b599e-2368-470a-996a-9e46d15e7da0","ios":"levelo://app?vid=9e7b599e-2368-470a-996a-9e46d15e7da0"},"vehicle_type_id":"4","last_reported":1784400263,"current_range_meters":10000,"station_id":"ce4bhkp2rcd13ifvqgd0","pricing_plan_id":"cebpf4jnsgd1na2vs0mg"},{"bike_id":"a8449df9-3dcb-423e-8663-39e92b6c6df2","system_id":"levelo_inurba_marseille","lat":43.24797,"lon":5.3747,"is_reserved":false,"is_disabled":false,"rental_uris":{"android":"levelo://app?vid=a8449df9-3dcb-423e-8663-39e92b6c6df2","ios":"levelo://app?vid=a8449df9-3dcb-423e-8663-39e92b6c6df2"},"vehicle_type_id":"4","last_reported":1784400263,"current_range_meters":39200,"station_id":"ce4bhgh2rcd13ifvqfb0","pricing_plan_id":"cebpf4jnsgd1na2vs0mg"},{"bike_id":"f09dcdf7-b880-45f2-8663-b12aa4a58089","system_id":"levelo_inurba_marseille","lat":43.32284,"lon":5.38258,"is_reserved":false,"is_disabled":false,"rental_uris":{"android":"levelo://app?vid=f09dcdf7-b880-45f2-8663-b12aa4a58089","ios":"levelo://app?vid=f09dcdf7-b880-45f2-8663-b12aa4a58089"},"vehicle_type_id":"4","last_reported":1784400263,"current_range_meters":35600,"station_id":"ce4bhr12rcd13ifvqhqg","pricing_plan_id":"cebpf4jnsgd1na2vs0mg"},{"bike_id":"2fab2bf4-eaeb-4215-beeb-cdf2200bdc77","system_id":"levelo_inurba_marseille","lat":43.23186,"lon":5.39988,"is_reserved":false,"is_disabled":false,"rental_uris":{"android":"levelo://app?vid=2fab2bf4-eaeb-4215-beeb-cdf2200bdc77","ios":"levelo://app?vid=2fab2bf4-eaeb-4215-beeb-cdf2200bdc77"},"vehicle_type_id":"4","last_reported":1784400263,"current_range_meters":35200,"station_id":"ce4bhn12rcd13ifvqgqg","pricing_plan_id":"cebpf4jnsgd1na2vs0mg"},{"bike_id":"3a7bc097-3d28-4f52-88ed-d3904da59c29","system_id":"levelo_inurba_marseille","lat":43.24473,"lon":5.42536,"is_reserved":false,"is_disabled":false,"rental_uris":{"android":"levelo://app?vid=3a7bc097-3d28-4f52-88ed-d3904da59c29","ios":"levelo://app?vid=3a7bc097-3d28-4f52-88ed-d3904da59c29"},"vehicle_type_id":"4","last_reported":1784400263,"current_range_meters":4800,"station_id":"st_d4a3vfp97mjs738cd8kg","pricing_plan_id":"cebpf4jnsgd1na2vs0mg"},{"bike_id":"659a68bc-86a6-4daf-9f1f-d3e7a32b91b8","system_id":"levelo_inurba_marseille","lat":43.23185,"lon":5.35564,"is_reserved":false,"is_disabled":false,"rental_uris":{"android":"levelo://app?vid=659a68bc-86a6-4daf-9f1f-d3e7a32b91b8","ios":"levelo://app?vid=659a68bc-86a6-4daf-9f1f-d3e7a32b91b8"},"vehicle_type_id":"4","last_reported":1784400263,"current_range_meters":38800,"station_id":"ce4bhu92rcd13ifvqi70","pricing_plan_id":"cebpf4jnsgd1na2vs0mg"},{"bike_id":"dd68f0d2-2405-425c-8bb2-3b99c67d8450","system_id":"levelo_inurba_marseille","lat":43.23905,"lon":5.37449,"is_reserved":false,"is_disabled":false,"rental_uris":{"android":"levelo://app?vid=dd68f0d2-2405-425c-8bb2-3b99c67d8450","ios":"levelo://app?vid=dd68f0d2-2405-425c-8bb2-3b99c67d8450"},"vehicle_type_id":"4","last_reported":1784400263,"current_range_meters":6400,"station_id":"st_d6sm7csbq4hs73f8fpjg","pricing_plan_id":"cebpf4jnsgd1na2vs0mg"},{"bike_id":"098cb1b0-aa89-454f-9bc2-2c4ea2f0e0ee","system_id":"levelo_inurba_marseille","lat":43.31523,"lon":5.40559,"is_reserved":false,"is_disabled":false,"rental_uris":{"android":"levelo://app?vid=098cb1b0-aa89-454f-9bc2-2c4ea2f0e0ee","ios":"levelo://app?vid=098cb1b0-aa89-454f-9bc2-2c4ea2f0e0ee"},"vehicle_type_id":"4","last_reported":1784400263,"current_range_meters":16400,"station_id":"","pricing_plan_id":"cebpf4jnsgd1na2vs0mg"},{"bike_id":"5e1cad78-c276-4d77-a65d-8173bc29cb67","system_id":"levelo_inurba_marseille","lat":43.25113,"lon":5.40985,"is_reserved":false,"is_disabled":false,"rental_uris":{"android":"levelo://app?vid=5e1cad78-c276-4d77-a65d-8173bc29cb67","ios":"levelo://app?vid=5e1cad78-c276-4d77-a65d-8173bc29cb67"},"vehicle_type_id":"4","last_reported":1784400263,"current_range_meters":35600,"station_id":"","pricing_plan_id":"cebpf4jnsgd1na2vs0mg"},{"bike_id":"be6bb617-0345-47d0-a9a1-2dfad3491c00","system_id":"levelo_inurba_marseille","lat":43.25514,"lon":5.37657,"is_reserved":false,"is_disabled":false,"rental_uris":{"android":"levelo://app?vid=be6bb617-0345-47d0-a9a1-2dfad3491c00","ios":"levelo://app?vid=be6bb617-0345-47d0-a9a1-2dfad3491c00"},"vehicle_type_id":"4","last_reported":1784400263,"current_range_meters":37600,"station_id":"ce4bhh12rcd13ifvqff0","pricing_plan_id":"cebpf4jnsgd1na2vs0mg"},{"bike_id":"aeadc001-b838-45ac-ab10-da795bb8945b","system_id":"levelo_inurba_marseille","lat":43.30409,"lon":5.41282,"is_reserved":false,"is_disabled":false,"rental_uris":{"android":"levelo://app?vid=aeadc001-b838-45ac-ab10-da795bb8945b","ios":"levelo://app?vid=aeadc001-b838-45ac-ab10-da795bb8945b"},"vehicle_type_id":"4","last_reported":1784400263,"current_range_meters":18000,"station_id":"ce4bhop2rcd13ifvqh8g","pricing_plan_id":"cebpf4jnsgd1na2vs0mg"},{"bike_id":"5a29e6f3-d0ba-49e7-af5d-f8e60471c1fc","system_id":"levelo_inurba_marseille","lat":43.27456,"lon":5.4241,"is_reserved":false,"is_disabled":true,"rental_uris":{"android":"levelo://app?vid=5a29e6f3-d0ba-49e7-af5d-f8e60471c1fc","ios":"levelo://app?vid=5a29e6f3-d0ba-49e7-af5d-f8e60471c1fc"},"vehicle_type_id":"4","last_reported":1784400263,"current_range_meters":6400,"station_id":"","pricing_plan_id":"cebpf4jnsgd1na2vs0mg"},{"bike_id":"6e2d7e69-8df1-40a6-90f7-e69b5c931535","system_id":"levelo_inurba_marseille","lat":43.229331,"lon":5.353792,"is_reserved":false,"is_disabled":false,"rental_uris":{"android":"levelo://app?vid=6e2d7e69-8df1-40a6-90f7-e69b5c931535","ios":"levelo://app?vid=6e2d7e69-8df1-40a6-90f7-e69b5c931535"},"vehicle_type_id":"4","last_reported":1784400263,"current_range_meters":26000,"station_id":"st_cvj5dfep6f1abm77gieg","pricing_plan_id":"cebpf4jnsgd1na2vs0mg"},{"bike_id":"d3b82640-d84c-42c7-8c57-b5a14f4fcab5","system_id":"levelo_inurba_marseille","lat":43.30898,"lon":5.37201,"is_reserved":false,"is_disabled":false,"rental_uris":{"android":"levelo://app?vid=d3b82640-d84c-42c7-8c57-b5a14f4fcab5","ios":"levelo://app?vid=d3b82640-d84c-42c7-8c57-b5a14f4fcab5"},"vehicle_type_id":"4","last_reported":1784400263,"current_range_meters":34000,"station_id":"ce4bguh2rcd13ifvqckg","pricing_plan_id":"cebpf4jnsgd1na2vs0mg"},{"bike_id":"57c66e41-d905-4d3e-bdab-9d946f2a37e8","system_id":"levelo_inurba_marseille","lat":43.286134,"lon":5.350956,"is_reserved":false,"is_disabled":false,"rental_uris":{"android":"levelo://app?vid=57c66e41-d905-4d3e-bdab-9d946f2a37e8","ios":"levelo://app?vid=57c66e41-d905-4d3e-bdab-9d946f2a37e8"},"vehicle_type_id":"4","last_reported":1784400263,"current_range_meters":24800,"station_id":"ce4bhch2rcd13ifvqeug","pricing_plan_id":"cebpf4jnsgd1na2vs0mg"},{"bike_id":"50aa6815-cb65-48bd-999a-1d2dfbbe24c7","system_id":"levelo_inurba_marseille","lat":43.28481,"lon":5.48395,"is_reserved":false,"is_disabled":false,"rental_uris":{"android":"levelo://app?vid=50aa6815-cb65-48bd-999a-1d2dfbbe24c7","ios":"levelo://app?vid=50aa6815-cb65-48bd-999a-1d2dfbbe24c7"},"vehicle_type_id":"4","last_reported":1784400263,"current_range_meters":38800,"station_id":"st_d3svhcjqgbts73a3dn0g","pricing_plan_id":"cebpf4jnsgd1na2vs0mg"},{"bike_id":"9bb0fd1c-c37f-4b19-9d13-0a17680fd6fb","system_id":"levelo_inurba_marseille","lat":43.32101,"lon":5.36775,"is_reserved":false,"is_disabled":false,"rental_uris":{"android":"levelo://app?vid=9bb0fd1c-c37f-4b19-9d13-0a17680fd6fb","ios":"levelo://app?vid=9bb0fd1c-c37f-4b19-9d13-0a17680fd6fb"},"vehicle_type_id":"4","last_reported":1784400263,"current_range_meters":25200,"station_id":"ce4bhrh2rcd13ifvqhug","pricing_plan_id":"cebpf4jnsgd1na2vs0mg"},{"bike_id":"24edfabe-0d7c-415b-8cf6-84bf60d5e889","system_id":"levelo_inurba_marseille","lat":43.26997,"lon":5.42808,"is_reserved":false,"is_disabled":false,"rental_uris":{"android":"levelo://app?vid=24edfabe-0d7c-415b-8cf6-84bf60d5e889","ios":"levelo://app?vid=24edfabe-0d7c-415b-8cf6-84bf60d5e889"},"vehicle_type_id":"4","last_reported":1784400263,"current_range_meters":10800,"station_id":"","pricing_plan_id":"cebpf4jnsgd1na2vs0mg"},{"bike_id":"83838866-7f3d-476c-a535-b28d91517fb5","system_id":"levelo_inurba_marseille","lat":43.23201,"lon":5.35553,"is_reserved":false,"is_disabled":false,"rental_uris":{"android":"levelo://app?vid=83838866-7f3d-476c-a535-b28d91517fb5","ios":"levelo://app?vid=83838866-7f3d-476c-a535-b28d91517fb5"},"vehicle_type_id":"4","last_reported":1784400263,"current_range_meters":38800,"station_id":"ce4bhu92rcd13ifvqi70","pricing_plan_id":"cebpf4jnsgd1na2vs0mg"},{"bike_id":"6008bac9-1b4a-4e1a-bdd1-227f44f19f7a","system_id":"levelo_inurba_marseille","lat":43.29273,"lon":5.3764,"is_reserved":false,"is_disabled":true,"rental_uris":{"android":"levelo://app?vid=6008bac9-1b4a-4e1a-bdd1-227f44f19f7a","ios":"levelo://app?vid=6008bac9-1b4a-4e1a-bdd1-227f44f19f7a"},"vehicle_type_id":"4","last_reported":1784400263,"current_range_meters":1600,"station_id":"ce4bgi12rcd13ifvqb80","pricing_plan_id":"cebpf4jnsgd1na2vs0mg"},{"bike_id":"ecae76fb-7cd6-40eb-8bd3-8ce7e9fee051","system_id":"levelo_inurba_marseille","lat":43.30944,"lon":5.39067,"is_reserved":false,"is_disabled":false,"rental_uris":{"android":"levelo://app?vid=ecae76fb-7cd6-40eb-8bd3-8ce7e9fee051","ios":"levelo://app?vid=ecae76fb-7cd6-40eb-8bd3-8ce7e9fee051"},"vehicle_type_id":"4","last_reported":1784400263,"current_range_meters":36000,"station_id":"ce4bgup2rcd13ifvqco0","pricing_plan_id":"cebpf4jnsgd1na2vs0mg"},{"bike_id":"9c5ae243-a595-4e35-88fb-72a80e87defd","system_id":"levelo_inurba_marseille","lat":43.29274,"lon":5.36839,"is_reserved":false,"is_disabled":false,"rental_uris":{"android":"levelo://app?vid=9c5ae243-a595-4e35-88fb-72a80e87defd","ios":"levelo://app?vid=9c5ae243-a595-4e35-88fb-72a80e87defd"},"vehicle_type_id":"4","last_reported":1784400263,"current_range_meters":35200,"station_id":"","pricing_plan_id":"cebpf4jnsgd1na2vs0mg"},{"bike_id":"4e7f76f1-a450-44ad-9e04-777888c5bf9e","system_id":"levelo_inurba_marseille","lat":43.23187,"lon":5.35574,"is_reserved":false,"is_disabled":false,"rental_uris":{"android":"levelo://app?vid=4e7f76f1-a450-44ad-9e04-777888c5bf9e","ios":"levelo://app?vid=4e7f76f1-a450-44ad-9e04-777888c5bf9e"},"vehicle_type_id":"4","last_reported":1784400263,"current_range_meters":7200,"station_id":"ce4bhu92rcd13ifvqi70","pricing_plan_id":"cebpf4jnsgd1na2vs0mg"},{"bike_id":"8dcdc21e-e66b-4d72-af5c-47ead77b75de","system_id":"levelo_inurba_marseille","lat":43.29528,"lon":5.38548,"is_reserved":false,"is_disabled":false,"rental_uris":{"android":"levelo://app?vid=8dcdc21e-e66b-4d72-af5c-47ead77b75de","ios":"levelo://app?vid=8dcdc21e-e66b-4d72-af5c-47ead77b75de"},"vehicle_type_id":"4","last_reported":1784400263,"current_range_meters":32800,"station_id":"ce4bgih2rcd13ifvqba0","pricing_plan_id":"cebpf4jnsgd1na2vs0mg"},{"bike_id":"a86deb64-24a8-41a6-a9c7-d169fc97becf","system_id":"levelo_inurba_marseille","lat":43.33759,"lon":5.37448,"is_reserved":false,"is_disabled":false,"rental_uris":{"android":"levelo://app?vid=a86deb64-24a8-41a6-a9c7-d169fc97becf","ios":"levelo://app?vid=a86deb64-24a8-41a6-a9c7-d169fc97becf"},"vehicle_type_id":"4","last_reported":1784400263,"current_range_meters":31200,"station_id":"","pricing_plan_id":"cebpf4jnsgd1na2vs0mg"},