{"last_updated":1784404663,"ttl":60,"version":"2.2","data":{"bikes":[{"bike_id":"ba0c28b1-8732-48e2-8079-f25b2b3fbc3c","system_id":"levelo_inurba_marseille","lat":43.337444,"lon":5.374475,"is_reserved":false,"is_disabled":false,"rental_uris":{"android":"levelo://app?vid=ba0c28b1-8732-48e2-8079-f25b2b3fbc3c","ios":"levelo://app?vid=ba0c28b1-8732-48e2-8079-f25b2b3fbc3c"},"vehicle_type_id":"4","last_reported":1784404664,"current_range_meters":0,"station_id":"","pricing_plan_id":"cebpf4jnsgd1na2vs0mg"},{"bike_id":"cec666c5-2396-4bda-bc79-7be17e8190d4","system_id":"levelo_inurba_marseille","lat":43.29268,"lon":5.36847,"is_reserved":false,"is_disabled":false,"rental_uris":{"android":"levelo://app?vid=cec666c5-2396-4bda-bc79-7be17e8190d4","ios":"levelo://app?vid=cec666c5-2396-4bda-bc79-7be17e8190d4"},"vehicle_type_id":"4","last_reported":1784404664,"current_range_meters":35200,"station_id":"","pricing_plan_id":"cebpf4jnsgd1na2vs0mg"},{"bike_id":"63dc20ac-90f4-4eae-ac6c-d24ae13a7929","system_id":"levelo_inurba_marseille","lat":43.25332,"lon":5.42153,"is_reserved":false,"is_disabled":false,"rental_uris":{"android":"levelo://app?vid=63dc20ac-90f4-4eae-ac6c-d24ae13a7929","ios":"levelo://app?vid=63dc20ac-90f4-4eae-ac6c-d24ae13a7929"},"vehicle_type_id":"4","last_reported":1784404664,"current_range_meters":31200,"station_id":"st_d2m65c5bi1j21697t3ng","pricing_plan_id":"cebpf4jnsgd1na2vs0mg"},{"bike_id":"c67565f2-3c21-45fc-9967-cc9ff08260fe","system_id":"levelo_inurba_marseille","lat":43.2885,"lon":5.39321,"is_reserved":false,"is_disabled":false,"rental_uris":{"android":"levelo://app?vid=c67565f2-3c21-45fc-9967-cc9ff08260fe","ios":"levelo://app?vid=c67565f2-3c21-45fc-9967-cc9ff08260fe"},"vehicle_type_id":"4","last_reported":1784404664,"current_range_meters":9200,"station_id":"ce4bh2p2rcd13ifvqdi0","pricing_plan_id":"cebpf4jnsgd1na2vs0mg"},{"bike_id":"8f0fed9e-dde8-4ceb-924d-24224ef116ca","system_id":"levelo_inurba_marseille","lat":43.30951,"lon":5.39044,"is_reserved":false,"is_disabled":false,"rental_uris":{"android":"levelo://app?vid=8f0fed9e-dde8-4ceb-924d-24224ef116ca","ios":"levelo://app?vid=8f0fed9e-dde8-4ceb-924d-24224ef116ca"},"vehicle_type_id":"4","last_reported":1784404664,"current_range_meters":14000,"station_id":"ce4bgup2rcd13ifvqco0","pricing_plan_id":"cebpf4jnsgd1na2vs0mg"},{"bike_id":"907f8459-e0e6-4dba-9fd7-5ff012118fa5","system_id":"levelo_inurba_marseille","lat":43.26025,"lon":5.37543,"is_reserved":false,"is_disabled":false,"rental_uris":{"android":"levelo://app?vid=907f8459-e0e6-4dba-9fd7-5ff012118fa5","ios":"levelo://app?vid=907f8459-e0e6-4dba-9fd7-5ff012118fa5"},"vehicle_type_id":"4","last_reported":1784404664,"current_range_meters":27200,"station_id":"ce4bhgh2rcd13ifvqfa0","pricing_plan_id":"cebpf4jnsgd1na2vs0mg"},{"bike_id":"e27e95f6-9b02-410d-bfe2-78fdcaa81660","system_id":"levelo_inurba_marseille","lat":43.26029,"lon":5.37548,"is_reserved":false,"is_disabled":false,"rental_uris":{"android":"levelo://app?vid=e27e95f6-9b02-410d-bfe2-78fdcaa81660","ios":"levelo://app?vid=e27e95f6-9b02-410d-bfe2-78fdcaa81660"},"vehicle_type_id":"4","last_reported":1784404664,"current_range_meters":6800,"station_id":"ce4bhgh2rcd13ifvqfa0","pricing_plan_id":"cebpf4jnsgd1na2vs0mg"},{"bike_id":"cbee297e-b8b7-4582-81c1-6ddae4796615","system_id":"levelo_inurba_marseille","lat":43.29304,"lon":5.37149,"is_reserved":false,"is_disabled":false,"rental_uris":{"android":"levelo://app?vid=cbee297e-b8b7-4582-81c1-6ddae4796615","ios":"levelo://app?vid=cbee297e-b8b7-4582-81c1-6ddae4796615"},"vehicle_type_id":"4","last_reported":1784404664,"current_range_meters":38000,"station_id":"ce4bgh92rcd13ifvqb40","pricing_plan_id":"cebpf4jnsgd1na2vs0mg"},{"bike_id":"edc293ec-aaef-4cc0-903d-983aa4cb3d2f","system_id":"levelo_inurba_marseille","lat":43.30902,"lon":5.36717,"is_reserved":false,"is_disabled":false,"rental_uris":{"android":"levelo://app?vid=edc293ec-aaef-4cc0-903d-983aa4cb3d2f","ios":"levelo://app?vid=edc293ec-aaef-4cc0-903d-983aa4cb3d2f"},"vehicle_type_id":"4","last_reported":1784404664,"current_range_meters":4800,"station_id":"","pricing_plan_id":"cebpf4jnsgd1na2vs0mg"},{"bike_id":"14f453ad-1979-4bdf-bd4b-0d763e7231e8","system_id":"levelo_inurba_marseille","lat":43.23316,"lon":5.39886,"is_reserved":false,"is_disabled":true,"rental_uris":{"android":"levelo://app?vid=14f453ad-1979-4bdf-bd4b-0d763e7231e8","ios":"levelo://app?vid=14f453ad-1979-4bdf-bd4b-0d763e7231e8"},"vehicle_type_id":"4","last_reported":1784404664,"current_range_meters":0,"station_id":"","pricing_plan_id":"cebpf4jnsgd1na2vs0mg"},{"bike_id":"9da5cadf-cdd1-429b-9b5e-9173177dfcc4","system_id":"levelo_inurba_marseille","lat":43.24398,"lon":5.37057,"is_reserved":false,"is_disabled":false,"rental_uris":{"android":"levelo://app?vid=9da5cadf-cdd1-429b-9b5e-9173177dfcc4","ios":"levelo://app?vid=9da5cadf-cdd1-429b-9b5e-9173177dfcc4"},"vehicle_type_id":"4","last_reported":1784404664,"current_range_meters":10000,"station_id":"ce4bhhh2rcd13ifvqfk0","pricing_plan_id":"cebpf4jnsgd1na2vs0mg"},{"bike_id":"4c97a4b8-64e3-4026-b64c-e38ea480fc87","system_id":"levelo_inurba_marseille","lat":43.29207,"lon":5.35798,"is_reserved":false,"is_disabled":false,"rental_uris":{"android":"levelo://app?vid=4c97a4b8-64e3-4026-b64c-e38ea480fc87","ios":"levelo://app?vid=4c97a4b8-64e3-4026-b64c-e38ea480fc87"},"vehicle_type_id":"4","last_reported":1784404664,"current_range_meters":39200,"station_id":"ce4bhb12rcd13ifvqel0","pricing_plan_id":"cebpf4jnsgd1na2vs0mg"},{"bike_id":"e71494cd-d4a8-436a-a5c6-260a2924500e","system_id":"levelo_inurba_marseille","lat":43.26223,"lon":5.38782,"is_reserved":false,"is_disabled":true,"rental_uris":{"android":"levelo://app?vid=e71494cd-d4a8-436a-a5c6-260a2924500e","ios":"levelo://app?vid=e71494cd-d4a8-436a-a5c6-260a2924500e"},"vehicle_type_id":"4","last_reported":1784404664,"current_range_meters":27200,"station_id":"st_d8gjfg747rts73coq3b0","pricing_plan_id":"cebpf4jnsgd1na2vs0mg"},{"bike_id":"4dd83e35-73dd-44b8-9d3c-9c21e3418d4e","system_id":"levelo_inurba_marseille","lat":43.27485,"lon":5.4256,"is_reserved":false,"is_disabled":false,"rental_uris":{"android":"levelo://app?vid=4dd83e35-73dd-44b8-9d3c-9c21e3418d4e","ios":"levelo://app?vid=4dd83e35-73dd-44b8-9d3c-9c21e3418d4e"},"vehicle_type_id":"4","last_reported":1784404664,"current_range_meters":12000,"station_id":"st_d8t4bh7nbrqs73arha60","pricing_plan_id":"cebpf4jnsgd1na2vs0mg"},{"bike_id":"75a38f66-5c5b-4574-9a4f-caaf29b774e2","system_id":"levelo_inurba_marseille","lat":43.24174,"lon":5.36404,"is_reserved":false,"is_disabled":false,"rental_uris":{"android":"levelo://app?vid=75a38f66-5c5b-4574-9a4f-caaf29b774e2","ios":"levelo://app?vid=75a38f66-5c5b-4574-9a4f-caaf29b774e2"},"vehicle_type_id":"4","last_reported":1784404664,"current_range_meters":14800,"station_id":"cpo36qri1sfpv3e86is0","pricing_plan_id":"cebpf4jnsgd1na2vs0mg"},{"bike_id":"6666b766-2ccd-467a-ad53-5ec31fb4dec4","system_id":"levelo_inurba_marseille","lat":43.24801,"lon":5.37447,"is_reserved":false,"is_disabled":false,"rental_uris":{"android":"levelo://app?vid=6666b766-2ccd-467a-ad53-5ec31fb4dec4","ios":"levelo://app?vid=6666b766-2ccd-467a-ad53-5ec31fb4dec4"},"vehicle_type_id":"4","last_reported":1784404664,"current_range_meters":34800,"station_id":"ce4bhgh2rcd13ifvqfb0","pricing_plan_id":"cebpf4jnsgd1na2vs0mg"},{"bike_id":"819a0176-528b-4ffd-92e9-73eaea3ced8b","system_id":"levelo_inurba_marseille","lat":43.29479,"lon":5.43303,"is_reserved":false,"is_disabled":false,"rental_uris":{"android":"levelo://app?vid=819a0176-528b-4ffd-92e9-73eaea3ced8b","ios":"levelo://app?vid=819a0176-528b-4ffd-92e9-73eaea3ced8b"},"vehicle_type_id":"4","last_reported":1784404664,"current_range_meters":30400,"station_id":"st_d3j5ugp08ojc73fj9d10","pricing_plan_id":"cebpf4jnsgd1na2vs0mg"},{"bike_id":"553ae30a-302c-4a02-9db3-0c9b455f1aa4","system_id":"levelo_inurba_marseille","lat":43.29196,"lon":5.35823,"is_reserved":false,"is_disabled":false,"rental_uris":{"android":"levelo://app?vid=553ae30a-302c-4a02-9db3-0c9b455f1aa4","ios":"levelo://app?vid=553ae30a-302c-4a02-9db3-0c9b455f1aa4"},"vehicle_type_id":"4","last_reported":1784404664,"current_range_meters":14400,"station_id":"ce4bhb12rcd13ifvqel0","pricing_plan_id":"cebpf4jnsgd1na2vs0mg"},{"bike_id":"45ef7f0d-946d-43b4-a41c-fb482c018cf9","system_id":"levelo_inurba_marseille","lat":43.29031,"lon":5.38646,"is_reserved":false,"is_disabled":false,"rental_uris":{"android":"levelo://app?vid=45ef7f0d-946d-43b4-a41c-fb482c018cf9","ios":"levelo://app?vid=45ef7f0d-946d-43b4-a41c-fb482c018cf9"},"vehicle_type_id":"4","last_reported":1784404664,"current_range_meters":36800,"station_id":"ce4bh4p2rcd13ifvqe0g","pricing_plan_id":"cebpf4jnsgd1na2vs0mg"},{"bike_id":"74db0d45-8e44-47c8-9bbb-438106ac8229","system_id":"levelo_inurba_marseille","lat":43.30792,"lon":5.38139,"is_reserved":false,"is_disabled":true,"rental_uris":{"android":"levelo://app?vid=74db0d45-8e44-47c8-9bbb-438106ac8229","ios":"levelo://app?vid=74db0d45-8e44-47c8-9bbb-438106ac8229"},"vehicle_type_id":"4","last_reported":1784404664,"current_range_meters":25600,"station_id":"ce4bgt12rcd13ifvqce0","pricing_plan_id":"cebpf4jnsgd1na2vs0mg"},{"bike_id":"129ac767-2638-4c48-b9ca-8da71d89525b","system_id":"levelo_inurba_marseille","lat":43.2388,"lon":5.37426,"is_reserved":false,"is_disabled":false,"rental_uris":{"android":"levelo://app?vid=129ac767-2638-4c48-b9ca-8da71d89525b","ios":"levelo://app?vid=129ac767-2638-4c48-b9ca-8da71d89525b"},"vehicle_type_id":"4","last_reported":1784404664,"current_range_meters":30000,"station_id":"st_d6sm7csbq4hs73f8fpjg","pricing_plan_id":"cebpf4jnsgd1na2vs0mg"},{"bike_id":"c180bc57-12f5-435a-8219-0c0ef26aa8c0","system_id":"levelo_inurba_marseille","lat":43.2254,"lon":5.34822,"is_reserved":false,"is_disabled":false,"rental_uris":{"android":"levelo://app?vid=c180bc57-12f5-435a-8219-0c0ef26aa8c0","ios":"levelo://app?vid=c180bc57-12f5-435a-8219-0c0ef26aa8c0"},"vehicle_type_id":"4","last_reported":1784404664,"current_range_meters":35200,"station_id":"st_cvj5dfep6f1abm77gieg","pricing_plan_id":"cebpf4jnsgd1na2vs0mg"},{"bike_id":"32c95016-82d3-4943-8193-1a98c4bf18c7","system_id":"levelo_inurba_marseille","lat":43.28091,"lon":5.35643,"is_reserved":false,"is_disabled":false,"rental_uris":{"android":"levelo://app?vid=32c95016-82d3-4943-8193-1a98c4bf18c7","ios":"levelo://app?vid=32c95016-82d3-4943-8193-1a98c4bf18c7"},"vehicle_type_id":"4","last_reported":1784404664,"current_range_meters":8000,"station_id":"","pricing_plan_id":"cebpf4jnsgd1na2vs0mg"},{"bike_id":"7c95905f-13e5-452f-8722-3d5cea639d10","system_id":"levelo_inurba_marseille","lat":43.29019,"lon":5.38646,"is_reserved":false,"is_disabled":false,"rental_uris":{"android":"levelo://app?vid=7c95905f-13e5-452f-8722-3d5cea639d10","ios":"levelo://app?vid=7c95905f-13e5-452f-8722-3d5cea639d10"},"vehicle_type_id":"4","last_reported":1784404664,"current_range_meters":17200,"station_id":"ce4bh4p2rcd13ifvqe0g","pricing_plan_id":"cebpf4jnsgd1na2vs0mg"},{"bike_id":"add03c92-d1e5-48e6-bb38-c9bad1fbbdf8","system_id":"levelo_inurba_marseille","lat":43.26193,"lon":5.37451,"is_reserved":false,"is_disabled":false,"rental_uris":{"android":"levelo://app?vid=add03c92-d1e5-48e6-bb38-c9bad1fbbdf8","ios":"levelo://app?vid=add03c92-d1e5-48e6-bb38-c9bad1fbbdf8"},"vehicle_type_id":"4","last_reported":1784404664,"current_range_meters":16800,"station_id":"ce4bhgp2rcd13ifvqfc0","pricing_plan_id":"cebpf4jnsgd1na2vs0mg"},{"bike_id":"b07627d2-9fd8-480d-b402-c9b23b7accaf","system_id":"levelo_inurba_marseille","lat":43.3017,"lon":5.37299,"is_reserved":false,"is_disabled":false,"rental_uris":{"android":"levelo://app?vid=b07627d2-9fd8-480d-b402-c9b23b7accaf","ios":"levelo://app?vid=b07627d2-9fd8-480d-b402-c9b23b7accaf"},"vehicle_type_id":"4","last_reported":1784404664,"current_range_meters":9200,"station_id":"","pricing_plan_id":"cebpf4jnsgd1na2vs0mg"},{"bike_id":"d4b7aba9-fbf0-4792-9848-91e823b31b3b","system_id":"levelo_inurba_marseille","lat":43.30433,"lon":5.37657,"is_reserved":false,"is_disabled":false,"rental_uris":{"android":"levelo://app?vid=d4b7aba9-fbf0-4792-9848-91e823b31b3b","ios":"levelo://app?vid=d4b7aba9-fbf0-4792-9848-91e823b31b3b"},"vehicle_type_id":"4","last_reported":1784404664,"current_range_meters":35200,"station_id":"","pricing_plan_id":"cebpf4jnsgd1na2vs0mg"},{"bike_id":"ef6880d0-6944-4f6a-8f40-6662368b8f75","system_id":"levelo_inurba_marseille","lat":43.31715,"lon":5.43725,"is_reserved":false,"is_disabled":false,"rental_uris":{"android":"levelo://app?vid=ef6880d0-6944-4f6a-8f40-6662368b8f75","ios":"levelo://app?vid=ef6880d0-6944-4f6a-8f40-6662368b8f75"},"vehicle_type_id":"4","last_reported":1784404664,"current_range_meters":10800,"station_id":"ce4bhp92rcd13ifvqhcg","pricing_plan_id":"cebpf4jnsgd1na2vs0mg"},{"bike_id":"ac73781c-7964-453a-82c7-5e417be13435","system_id":"levelo_inurba_marseille","lat":43.28614,"lon":5.37077,"is_reserved":false,"is_disabled":false,"rental_uris":{"android":"levelo://app?vid=ac73781c-7964-453a-82c7-5e417be13435","ios":"levelo://app?vid=ac73781c-7964-453a-82c7-5e417be13435"},"vehicle_type_id":"4","last_reported":1784404664,"current_range_meters":32400,"station_id":"ce4bht12rcd13ifvqi60","pricing_plan_id":"cebpf4jnsgd1na2vs0mg"},{"bike_id":"431a9582-7044-41fd-aac9-f4abde960ed9","system_id":"levelo_inurba_marseille","lat":43.24793,"lon":5.37454,"is_reserved":false,"is_disabled":false,"rental_uris":{"android":"levelo://app?vid=431a9582-7044-41fd-aac9-f4abde960ed9","ios":"levelo://app?vid=431a9582-7044-41fd-aac9-f4abde960ed9"},"vehicle_type_id":"4","last_reported":1784404664,"current_range_meters":39200,"station_id":"ce4bhgh2rcd13ifvqfb0","pricing_plan_id":"cebpf4jnsgd1na2vs0mg"},{"bike_id":"d183c213-4177-4bf2-b9e0-24872be8a9c8","system_id":"levelo_inurba_marseille","lat":43.28479,"lon":5.48387,"is_reserved":false,"is_disabled":false,"rental_uris":{"android":"levelo://app?vid=d183c213-4177-4bf2-b9e0-24872be8a9c8","ios":"levelo://app?vid=d183c213-4177-4bf2-b9e0-24872be8a9c8"},"vehicle_type_id":"4","last_reported":1784404664,"current_range_meters":16400,"station_id":"st_d3svhcjqgbts73a3dn0g","pricing_plan_id":"cebpf4jnsgd1na2vs0mg"},{"bike_id":"5f123f66-0787-4c31-b9de-4a2233ee72ea","system_id":"levelo_inurba_marseille","lat":43.26023,"lon":5.37566,"is_reserved":false,"is_disabled":false,"rental_uris":{"android":"levelo://app?vid=5f123f66-0787-4c31-b9de-4a2233ee72ea","ios":"levelo://app?vid=5f123f66-0787-4c31-b9de-4a2233ee72ea"},"vehicle_type_id":"4","last_reported":1784404664,"current_range_meters":32800,"station_id":"ce4bhgh2rcd13ifvqfa0","pricing_plan_id":"cebpf4jnsgd1na2vs0mg"},{"bike_id":"e975d81f-466f-4fbf-9278-3f973430f9dc","system_id":"levelo_inurba_marseille","lat":43.26215,"lon":5.37466,"is_reserved":false,"is_disabled":false,"rental_uris":{"android":"levelo://app?vid=e975d81f-466f-4fbf-9278-3f973430f9dc","ios":"levelo://app?vid=e975d81f-466f-4fbf-9278-3f973430f9dc"},"vehicle_type_id":"4","last_reported":1784404664,"current_range_meters":17200,"station_id":"ce4bhgp2rcd13ifvqfc0","pricing_plan_id":"cebpf4jnsgd1na2vs0mg"},{"bike_id":"3fce53fc-d81c-4096-a269-4244ea777b67","system_id":"levelo_inurba_marseille","lat":43.26207,"lon":5.37451,"is_reserved":false,"is_disabled":false,"rental_uris":{"android":"levelo://app?vid=3fce53fc-d81c-4096-a269-4244ea777b67","ios":"levelo://app?vid=3fce53fc-d81c-4096-a269-4244ea777b67"},"vehicle_type_id":"4","last_reported":1784404664,"current_range_meters":24000,"station_id":"ce4bhgp2rcd13ifvqfc0","pricing_plan_id":"cebpf4jnsgd1na2vs0mg"},{"bike_id":"e4e84907-ec14-45d8-87f6-393f3d88ede8","system_id":"levelo_inurba_marseille","lat":43.29617,"lon":5.37714,"is_reserved":false,"is_disabled":false,"rental_uris":{"android":"levelo://app?vid=e4e84907-ec14-45d8-87f6-393f3d88ede8","ios":"levelo://app?vid=e4e84907-ec14-45d8-87f6-393f3d88ede8"},"vehicle_type_id":"4","last_reported":1784404664,"current_range_meters":38400,"station_id":"ce4bgi92rcd13ifvqb90","pricing_plan_id":"cebpf4jnsgd1na2vs0mg"},{"bike_id":"c1999c83-e356-488b-a446-6330ee479931","system_id":"levelo_inurba_marseille","lat":43.26204,"lon":5.37441,"is_reserved":false,"is_disabled":false,"rental_uris":{"android":"levelo://app?vid=c1999c83-e356-488b-a446-6330ee479931","ios":"levelo://app?vid=c1999c83-e356-488b-a446-6330ee479931"},"vehicle_type_id":"4","last_reported":1784404664,"current_range_meters":11600,"station_id":"ce4bhgp2rcd13ifvqfc0","pricing_plan_id":"cebpf4jnsgd1na2vs0mg"},{"bike_id":"e0c7065e-7f74-4b06-ae7b-f933c635df87","system_id":"levelo_inurba_marseille","lat":43.29538,"lon":5.42285,"is_reserved":false,"is_disabled":false,"rental_uris":{"android":"levelo://app?vid=e0c7065e-7f74-4b06-ae7b-f933c635df87","ios":"levelo://app?vid=e0c7065e-7f74-4b06-ae7b-f933c635df87"},"vehicle_type_id":"4","last_reported":1784404664,"current_range_meters":38800,"station_id":"ce4bhph2rcd13ifvqhdg","pricing_plan_id":"cebpf4jnsgd1na2vs0mg"},{"bike_id":"c71015cc-0adc-40e6-8268-5815fb57d25f","system_id":"levelo_inurba_marseille","lat":43.27614,"lon":5.3611,"is_reserved":false,"is_disabled":false,"rental_uris":{"android":"levelo://app?vid=c71015cc-0adc-40e6-8268-5815fb57d25f","ios":"levelo://app?vid=c71015cc-0adc-40e6-8268-5815fb57d25f"},"vehicle_type_id":"4","last_reported":1784404664,"current_range_meters":24000,"station_id":"ce4bgj92rcd13ifvqbe0","pricing_plan_id":"cebpf4jnsgd1na2vs0mg"},{"bike_id":"f07c2055-5bfd-4a62-aa3e-77db94b5cfdb","system_id":"levelo_inurba_marseille","lat":43.29534,"lon":5.3854,"is_reserved":false,"is_disabled":false,"rental_uris":{"android":"levelo://app?vid=f07c2055-5bfd-4a62-aa3e-77db94b5cfdb","ios":"levelo://app?vid=f07c2055-5bfd-4a62-aa3e-77db94b5cfdb"},"vehicle_type_id":"4","last_reported":1784404664,"current_range_meters":39200,"station_id":"ce4bgih2rcd13ifvqba0","pricing_plan_id":"cebpf4jnsgd1na2vs0mg"},{"bike_id":"e1bb6861-ee59-438c-aa2a-2a553b2d6f43","system_id":"levelo_inurba_marseille","lat":43.27189,"lon":5.41002,"is_reserved":false,"is_disabled":false,"rental_uris":{"android":"levelo://app?vid=e1bb6861-ee59-438c-aa2a-2a553b2d6f43","ios":"levelo://app?vid=e1bb6861-ee59-438c-aa2a-2a553b2d6f43"},"vehicle_type_id":"4","last_reported":1784404664,"current_range_meters":30800,"station_id":"ce4bhl12rcd13ifvqgf0","pricing_plan_id":"cebpf4jnsgd1na2vs0mg"},{"bike_id":"4627e2e3-1eb6-4c82-b7db-d939a615bbdb","system_id":"levelo_inurba_marseille","lat":43.29635,"lon":5.37169,"is_reserved":false,"is_disabled":false,"rental_uris":{"android":"levelo://app?vid=4627e2e3-1eb6-4c82-b7db-d939a615bbdb","ios":"levelo://app?vid=4627e2e3-1eb6-4c82-b7db-d939a615bbdb"},"vehicle_type_id":"4","last_reported":1784404664,"current_range_meters":22400,"station_id":"","pricing_plan_id":"cebpf4jnsgd1na2vs0mg"},{"bike_id":"c2e7fe27-d2b0-440e-b62d-ead50feed951","system_id":"levelo_inurba_marseille","lat":43.29494,"lon":5.43315,"is_reserved":false,"is_disabled":false,"rental_uris":{"android":"levelo://app?vid=c2e7fe27-d2b0-440e-b62d-ead50feed951","ios":"levelo://app?vid=c2e7fe27-d2b0-440e-b62d-ead50feed951"},"vehicle_type_id":"4","last_reported":1784404664,"current_range_meters":6800,"station_id":"st_d3j5ugp08ojc73fj9d10","pricing_plan_id":"cebpf4jnsgd1na2vs0mg"},{"bike_id":"68487660-d0f8-4357-a041-ea23c3836a53","system_id":"levelo_inurba_marseille","lat":43.26189,"lon":5.3747,"is_reserved":false,"is_disabled":true,"rental_uris":{"android":"levelo://app?vid=68487660-d0f8-4357-a041-ea23c3836a53","ios":"levelo://app?vid=68487660-d0f8-4357-a041-ea23c3836a53"},"vehicle_type_id":"4","last_reported":1784404664,"current_range_meters":37600,"station_id":"ce4bhgp2rcd13ifvqfc0","pricing_plan_id":"cebpf4jnsgd1na2vs0mg"},{"bike_id":"bf0fb640-39c3-470c-a606-595a512e41d7","system_id":"levelo_inurba_marseille","lat":43.30957,"lon":5.39102,"is_reserved":false,"is_disabled":false,"rental_uris":{"android":"levelo://app?vid=bf0fb640-39c3-470c-a606-595a512e41d7","ios":"levelo://app?vid=bf0fb640-39c3-470c-a606-595a512e41d7"},"vehicle_type_id":"4","last_reported":1784404664,"current_range_meters":39200,"station_id":"","pricing_plan_id":"cebpf4jnsgd1na2vs0mg"},{"bike_id":"a71c0af4-c799-4f73-8e10-90369b666faf","system_id":"levelo_inurba_marseille","lat":43.29489,"lon":5.43306,"is_reserved":false,"is_disabled":false,"rental_uris":{"android":"levelo://app?vid=a71c0af4-c799-4f73-8e10-90369b666faf","ios":"levelo://app?vid=a71c0af4-c799-4f73-8e10-90369b666faf"},"vehicle_type_id":"4","last_reported":1784404664,"current_range_meters":18800,"station_id":"st_d3j5ugp08ojc73fj9d10","pricing_plan_id":"cebpf4jnsgd1na2vs0mg"},{"bike_id":"2623e023-e953-40ac-8068-15d2169ca99d","system_id":"levelo_inurba_marseille","lat":43.28688,"lon":5.4668,"is_reserved":false,"is_disabled":false,"rental_uris":{"android":"levelo://app?vid=2623e023-e953-40ac-8068-15d2169ca99d","ios":"levelo://app?vid=2623e023-e953-40ac-8068-15d2169ca99d"},"vehicle_type_id":"4","last_reported":1784404664,"current_range_meters":38800,"station_id":"st_d6tc3vkotcvc738tfjhg","pricing_plan_id":"cebpf4jnsgd1na2vs0mg"},{"bike_id":"2497e015-ad7f-4a1a-8f89-569929571b22","system_id":"levelo_inurba_marseille","lat":43.229313,"lon":5.353813,"is_reserved":false,"is_disabled":false,"rental_uris":{"android":"levelo://app?vid=2497e015-ad7f-4a1a-8f89-569929571b22","ios":"levelo://app?vid=2497e015-ad7f-4a1a-8f89-569929571b22"},"vehicle_type_id":"4","last_reported":1784404664,"current_range_meters":37600,"station_id":"","pricing_plan_id":"cebpf4jnsgd1na2vs0mg"},{"bike_id":"52eb52b1-2d44-4892-961f-323c7efcbd08","system_id":"levelo_inurba_marseille","lat":43.30545,"lon":5.365336,"is_reserved":false,"is_disabled":false,"rental_uris":{"android":"levelo://app?vid=52eb52b1-2d44-4892-961f-323c7efcbd08","ios":"levelo://app?vid=52eb52b1-2d44-4892-961f-323c7efcbd08"},"vehicle_type_id":"4","last_reported":1784404664,"current_range_meters":32000,"station_id":"ce4bgs12rcd13ifvqcag","pricing_plan_id":"cebpf4jnsgd1na2vs0mg"},{"bike_id":"2d768b04-0d11-4bfc-8d50-310fa8cb1d7b","system_id":"levelo_inurba_marseille","lat":43.29534,"lon":5.38564,"is_reserved":false,"is_disabled":false,"rental_uris":{"android":"levelo://app?vid=2d768b04-0d11-4bfc-8d50-310fa8cb1d7b","ios":"levelo://app?vid=2d768b04-0d11-4bfc-8d50-310fa8cb1d7b"},"vehicle_type_id":"4","last_reported":1784404664,"current_range_meters":10800,"station_id":"ce4bgih2rcd13ifvqba0","pricing_plan_id":"cebpf4jnsgd1na2vs0mg"},{"bike_id":"5d09746b-912d-460d-99ac-8ef6073a7199","system_id":"levelo_inurba_marseille","lat":43.2397,"lon":5.36629,"is_reserved":false,"is_disabled":false,"rental_uris":{"android":"levelo://app?vid=5d09746b-912d-460d-99ac-8ef6073a7199","ios":"levelo://app?vid=5d09746b-912d-460d-99ac-8ef6073a7199"},"vehicle_type_id":"4","last_reported":1784404664,"current_range_meters":10800,"station_id":"ce4bhi12rcd13ifvqfp0","pricing_plan_id":"cebpf4jnsgd1na2vs0mg"},{"bike_id":"f8955ac0-4fb0-43de-bef9-e6c33ea71dd3","system_id":"levelo_inurba_marseille","lat":43.286146,"lon":5.351015,"is_reserved":false,"is_disabled":true,"rental_uris":{"android":"levelo://app?vid=f8955ac0-4fb0-43de-bef9-e6c33ea71dd3","ios":"levelo://app?vid=f8955ac0-4fb0-43de-bef9-e6c33ea71dd3"},"vehicle_type_id":"4","last_reported":1784404664,"current_range_meters":29600,"station_id":"ce4bhch2rcd13ifvqeug","pricing_plan_id":"cebpf4jnsgd1na2vs0mg"},{"bike_id":"1aba4b2e-71a6-4e82-8e9d-0b35db6f35c2","system_id":"levelo_inurba_marseille","lat":43.24171,"lon":5.36394,"is_reserved":false,"is_disabled":false,"rental_uris":{"android":"levelo://app?vid=1aba4b2e-71a6-4e82-8e9d-0b35db6f35c2","ios":"levelo://app?vid=1aba4b2e-71a6-4e82-8e9d-0b35db6f35c2"},"vehicle_type_id":"4","last_reported":1784404664,"current_range_meters":5600,"station_id":"cpo36qri1sfpv3e86is0","pricing_plan_id":"cebpf4jnsgd1na2vs0mg"},{"bike_id":"863d0357-9100-4091-8be6-61d932e4e898","system_id":"levelo_inurba_marseille","lat":43.33756,"lon":5.37458,"is_reserved":false,"is_disabled":false,"rental_uris":{"android":"levelo://app?vid=863d0357-9100-4091-8be6-61d932e4e898","ios":"levelo://app?vid=863d0357-9100-4091-8be6-61d932e4e898"},"vehicle_type_id":"4","last_reported":1784404664,"current_range_meters":38800,"station_id":"","pricing_plan_id":"cebpf4jnsgd1na2vs0mg"},{"bike_id":"0d249168-c1b9-4fc1-a9ca-ee81dcabf286","system_id":"levelo_inurba_marseille","lat":43.30826,"lon":5.40433,"is_reserved":false,"is_disabled":false,"rental_uris":{"android":"levelo://app?vid=0d249168-c1b9-4fc1-a9ca-ee81dcabf286","ios":"levelo://app?vid=0d249168-c1b9-4fc1-a9ca-ee81dcabf286"},"vehicle_type_id":"4","last_reported":1784404664,"current_range_meters":11200,"station_id":"","pricing_plan_id":"cebpf4jnsgd1na2vs0mg"},{"bike_id":"c313feda-318c-4b23-8c7c-ff5fc026ae14","system_id":"levelo_inurba_marseille","lat":43.3229,"lon":5.38288,"is_reserved":false,"is_disabled":false,"rental_uris":{"android":"levelo://app?vid=c313feda-318c-4b23-8c7c-ff5fc026ae14","ios":"levelo://app?vid=c313feda-318c-4b23-8c7c-ff5fc026ae14"},"vehicle_type_id":"4","last_reported":1784404664,"current_range_meters":18800,"station_id":"ce4bhr12rcd13ifvqhqg","pricing_plan_id":"cebpf4jnsgd1na2vs0mg"},{"bike_id":"42a06539-fa05-4673-9b8c-ca7a6023165c","system_id":"levelo_inurba_marseille","lat":43.26677,"lon":5.3826,"is_reserved":false,"is_disabled":false,"rental_uris":{"android":"levelo://app?vid=42a06539-fa05-4673-9b8c-ca7a6023165c","ios":"levelo://app?vid=42a06539-fa05-4673-9b8c-ca7a6023165c"},"vehicle_type_id":"4","last_reported":1784404664,"current_range_meters":38000,"station_id":"ce4bhg92rcd13ifvqf90","pricing_plan_id":"cebpf4jnsgd1na2vs0mg"},{"bike_id":"23eb5469-ce86-4640-b7e9-23db69dc1852","system_id":"levelo_inurba_marseille","lat":43.28146,"lon":5.42649,"is_reserved":false,"is_disabled":false,"rental_uris":{"android":"levelo://app?vid=23eb5469-ce86-4640-b7e9-23db69dc1852","ios":"levelo://app?vid=23eb5469-ce86-4640-b7e9-23db69dc1852"},"vehicle_type_id":"4","last_reported":1784404664,"current_range_meters":39200,"station_id":"ce4bhnh2rcd13ifvqgug","pricing_plan_id":"cebpf4jnsgd1na2vs0mg"},{"bike_id":"21ffdecd-7bfb-4301-89cc-c3b79c19e26c","system_id":"levelo_inurba_marseille","lat":43.29254,"lon":5.38453,"is_reserved":false,"is_disabled":false,"rental_uris":{"android":"levelo://app?vid=21ffdecd-7bfb-4301-89cc-c3b79c19e26c","ios":"levelo://app?vid=21ffdecd-7bfb-4301-89cc-c3b79c19e26c"},"vehicle_type_id":"4","last_reported":1784404664,"current_range_meters":28800,"station_id":"ce4bh692rcd13ifvqea0","pricing_plan_id":"cebpf4jnsgd1na2vs0mg"},{"bike_id":"8ba7f2d6-52d3-4c56-b19a-19a142e62779","system_id":"levelo_inurba_marseille","lat":43.24078,"lon":5.37766,"is_reserved":false,"is_disabled":false,"rental_uris":{"android":"levelo://app?vid=8ba7f2d6-52d3-4c56-b19a-19a142e62779","ios":"levelo://app?vid=8ba7f2d6-52d3-4c56-b19a-19a142e62779"},"vehicle_type_id":"4","last_reported":1784404664,"current_range_meters":11600,"station_id":"ce4bhnp2rcd13ifvqgvg","pricing_plan_id":"cebpf4jnsgd1na2vs0mg"},{"bike_id":"ffdafddb-edce-478b-b283-0a15f46a5cac","system_id":"levelo_inurba_marseille","lat":43.25876,"lon":5.39913,"is_reserved":false,"is_disabled":false,"rental_uris":{"android":"levelo://app?vid=ffdafddb-edce-478b-b283-0a15f46a5cac","ios":"levelo://app?vid=ffdafddb-edce-478b-b283-0a15f46a5cac"},"vehicle_type_id":"4","last_reported":1784404664,"current_range_meters":34000,"station_id":"ce4bhl92rcd13ifvqghg","pricing_plan_id":"cebpf4jnsgd1na2vs0mg"},{"bike_id":"66afdf81-3bfc-4f74-a2b5-978630e17649","system_id":"levelo_inurba_marseille","lat":43.27923,"lon":5.37264,"is_reserved":false,"is_disabled":false,"rental_uris":{"android":"levelo://app?vid=66afdf81-3bfc-4f74-a2b5-978630e17649","ios":"levelo://app?vid=66afdf81-3bfc-4f74-a2b5-978630e17649"},"vehicle_type_id":"4","last_reported":1784404664,"current_range_meters":28000,"station_id":"","pricing_plan_id":"cebpf4jnsgd1na2vs0mg"},{"bike_id":"086f96f1-060e-421d-b31e-daf3846d0ec6","system_id":"levelo_inurba_marseille","lat":43.29255,"lon":5.38432,"is_reserved":false,"is_disabled":false,"rental_uris":{"android":"levelo://app?vid=086f96f1-060e-421d-b31e-daf3846d0ec6","ios":"levelo://app?vid=086f96f1-060e-421d-b31e-daf3846d0ec6"},"vehicle_type_id":"4","last_reported":1784404664,"current_range_meters":39200,"station_id":"ce4bh692rcd13ifvqea0","pricing_plan_id":"cebpf4jnsgd1na2vs0mg"},{"bike_id":"c3699d7f-7304-4eec-8a74-2a709837374f","system_id":"levelo_inurba_marseille","lat":43.28349,"lon":5.38609,"is_reserved":false,"is_disabled":true,"rental_uris":{"android":"levelo://app?vid=c3699d7f-7304-4eec-8a74-2a709837374f","ios":"levelo://app?vid=c3699d7f-7304-4eec-8a74-2a709837374f"},"vehicle_type_id":"4","last_reported":1784404664,"current_range_meters":16000,"station_id":"ce4bh492rcd13ifvqdvg","pricing_plan_id":"cebpf4jnsgd1na2vs0mg"},{"bike_id":"bbbaa790-124c-460e-90a5-a28da18bec6a","system_id":"levelo_inurba_marseille","lat":43.28001,"lon":5.40014,"is_reserved":false,"is_disabled":false,"rental_uris":{"android":"levelo://app?vid=bbbaa790-124c-460e-90a5-a28da18bec6a","ios":"levelo://app?vid=bbbaa790-124c-460e-90a5-a28da18bec6a"},"vehicle_type_id":"4","last_reported":1784404664,"current_range_meters":20800,"station_id":"ce4bho92rcd13ifvqh4g","pricing_plan_id":"cebpf4jnsgd1na2vs0mg"},{"bike_id":"aa30dd65-c709-4566-b285-77519e3da6b5","system_id":"levelo_inurba_marseille","lat":43.29977,"lon":5.3849,"is_reserved":false,"is_disabled":false,"rental_uris":{"android":"levelo://app?vid=aa30dd65-c709-4566-b285-77519e3da6b5","ios":"levelo://app?vid=aa30dd65-c709-4566-b285-77519e3da6b5"},"vehicle_type_id":"4","last_reported":1784404664,"current_range_meters":38400,"station_id":"ce4bgj92rcd13ifvqbd0","pricing_plan_id":"cebpf4jnsgd1na2vs0mg"},{"bike_id":"60c0f697-8c2f-41cf-a189-03bcd6049afa","system_id":"levelo_inurba_marseille","lat":43.29382,"lon":5.3788,"is_reserved":false,"is_disabled":false,"rental_uris":{"android":"levelo://app?vid=60c0f697-8c2f-41cf-a189-03bcd6049afa","ios":"levelo://app?vid=60c0f697-8c2f-41cf-a189-03bcd6049afa"},"vehicle_type_id":"4","last_reported":1784404664,"current_range_meters":35200,"station_id":"ce4bgjh2rcd13ifvqbf0","pricing_plan_id":"cebpf4jnsgd1na2vs0mg"},{"bike_id":"56a61f99-62cc-4a88-9658-792cfabe3a9e","system_id":"levelo_inurba_marseille","lat":43.255,"lon":5.37649,"is_reserved":false,"is_disabled":false,"rental_uris":{"android":"levelo://app?vid=56a61f99-62cc-4a88-9658-792cfabe3a9e","ios":"levelo://app?vid=56a61f99-62cc-4a88-9658-792cfabe3a9e"},"vehicle_type_id":"4","last_reported":1784404664,"current_range_meters":35200,"station_id":"ce4bhh12rcd13ifvqff0","pricing_plan_id":"cebpf4jnsgd1na2vs0mg"},{"bike_id":"4120c7d7-1403-4d50-96ed-9b7731a97efc","system_id":"levelo_inurba_marseille","lat":43.32114,"lon":5.36792,"is_reserved":false,"is_disabled":false,"rental_uris":{"android":"levelo://app?vid=4120c7d7-1403-4d50-96ed-9b7731a97efc","ios":"levelo://app?vid=4120c7d7-1403-4d50-96ed-9b7731a97efc"},"vehicle_type_id":"4","last_reported":1784404664,"current_range_meters":26000,"station_id":"ce4bhrh2rcd13ifvqhug","pricing_plan_id":"cebpf4jnsgd1na2vs0mg"},{"bike_id":"b32936e5-7bdd-4eaf-adbe-3bd4bbf7a5ff","system_id":"levelo_inurba_marseille","lat":43.28689,"lon":5.37372,"is_reserved":false,"is_disabled":true,"rental_uris":{"android":"levelo://app?vid=b32936e5-7bdd-4eaf-adbe-3bd4bbf7a5ff","ios":"levelo://app?vid=b32936e5-7bdd-4eaf-adbe-3bd4bbf7a5ff"},"vehicle_type_id":"4","last_reported":1784404664,"current_range_meters":33200,"station_id":"ce4bh3p2rcd13ifvqdq0","pricing_plan_id":"cebpf4jnsgd1na2vs0mg"},{"bike_id":"7e62a1e7-e43e-4c6d-97fe-eb42228edf6d","system_id":"levelo_inurba_marseille","lat":43.2653,"lon":5.3941,"is_reserved":false,"is_disabled":false,"rental_uris":{"android":"levelo://app?vid=7e62a1e7-e43e-4c6d-97fe-eb42228edf6d","ios":"levelo://app?vid=7e62a1e7-e43e-4c6d-97fe-eb42228edf6d"},"vehicle_type_id":"4","last_reported":1784404664,"current_range_meters":9200,"station_id":"","pricing_plan_id":"cebpf4jnsgd1na2vs0mg"},{"bike_id":"fdc2e058-8161-46ff-9fa4-408d46e1d4b7","system_id":"levelo_inurba_marseille","lat":43.29262,"lon":5.37623,"is_reserved":false,"is_disabled":false,"rental_uris":{"android":"levelo://app?vid=fdc2e058-8161-46ff-9fa4-408d46e1d4b7","ios":"levelo://app?vid=fdc2e058-8161-46ff-9fa4-408d46e1d4b7"},"vehicle_type_id":"4","last_reported":1784404664,"current_range_meters":13600,"station_id":"ce4bgi12rcd13ifvqb80","pricing_plan_id":"cebpf4jnsgd1na2vs0mg"},{"bike_id":"32f1426e-4a2e-46e1-8b91-800ee9257883","system_id":"levelo_inurba_marseille","lat":43.26374,"lon":5.41084,"is_reserved":false,"is_disabled":false,"rental_uris":{"android":"levelo://app?vid=32f1426e-4a2e-46e1-8b91-800ee9257883","ios":"levelo://app?vid=32f1426e-4a2e-46e1-8b91-800ee9257883"},"vehicle_type_id":"4","last_reported":1784404664,"current_range_meters":38000,"station_id":"st_d4e5ca6na9uc73bfl5fg","pricing_plan_id":"cebpf4jnsgd1na2vs0mg"},{"bike_id":"06732811-2ac2-497f-8d6b-a1bf0aa140c9","system_id":"levelo_inurba_marseille","lat":43.29067,"lon":5.35911,"is_reserved":false,"is_disabled":false,"rental_uris":{"android":"levelo://app?vid=06732811-2ac2-497f-8d6b-a1bf0aa140c9","ios":"levelo://app?vid=06732811-2ac2-497f-8d6b-a1bf0aa140c9"},"vehicle_type_id":"4","last_reported":1784404664,"current_range_meters":28800,"station_id":"ce4bha92rcd13ifvqeg0","pricing_plan_id":"cebpf4jnsgd1na2vs0mg"},{"bike_id":"7bacaa53-ea48-4c21-98e9-800e4cae89fb","system_id":"levelo_inurba_marseille","lat":43.2854,"lon":5.44112,"is_reserved":false,"is_disabled":false,"rental_uris":{"android":"levelo://app?vid=7bacaa53-ea48-4c21-98e9-800e4cae89fb","ios":"levelo://app?vid=7bacaa53-ea48-4c21-98e9-800e4cae89fb"},"vehicle_type_id":"4","last_reported":1784404664,"current_range_meters":4000,"station_id":"st_d3j3df2ikq2c7380ej80","pricing_plan_id":"cebpf4jnsgd1na2vs0mg"},{"bike_id":"ace949b4-f2c6-47b9-81de-c1fc32a1ba71","system_id":"levelo_inurba_marseille","lat":43.29264,"lon":5.38431,"is_reserved":false,"is_disabled":false,"rental_uris":{"android":"levelo://app?vid=ace949b4-f2c6-47b9-81de-c1fc32a1ba71","ios":"levelo://app?vid=ace949b4-f2c6-47b9-81de-c1fc32a1ba71"},"vehicle_type_id":"4","last_reported":1784404664,"current_range_meters":4000,"station_id":"ce4bh692rcd13ifvqea0","pricing_plan_id":"cebpf4jnsgd1na2vs0mg"},{"bike_id":"81587832-75ed-49cd-91c3-f57f9b8cec45","system_id":"levelo_inurba_marseille","lat":43.29036,"lon":5.35934,"is_reserved":false,"is_disabled":true,"rental_uris":{"android":"levelo://app?vid=81587832-75ed-49cd-91c3-f57f9b8cec45","ios":"levelo://app?vid=81587832-75ed-49cd-91c3-f57f9b8cec45"},"vehicle_type_id":"4","last_reported":1784404664,"current_range_meters":6400,"station_id":"ce4bha92rcd13ifvqeg0","pricing_plan_id":"cebpf4jnsgd1na2vs0mg"},{"bike_id":"6f1aa2e5-85de-4154-8035-d978eada4fd6","system_id":"levelo_inurba_marseille","lat":43.30953,"lon":5.39051,"is_reserved":false,"is_disabled":false,"rental_uris":{"android":"levelo://app?vid=6f1aa2e5-85de-4154-8035-d978eada4fd6","ios":"levelo://app?vid=6f1aa2e5-85de-4154-8035-d978eada4fd6"},"vehicle_type_id":"4","last_reported":1784404664,"current_range_meters":39200,"station_id":"ce4bgup2rcd13ifvqco0","pricing_plan_id":"cebpf4jnsgd1na2vs0mg"},{"bike_id":"2c112d39-543b-420f-aeb1-be40d90baecc","system_id":"levelo_inurba_marseille","lat":43.2692,"lon":5.3891,"is_reserved":false,"is_disabled":false,"rental_uris":{"android":"levelo://app?vid=2c112d39-543b-420f-aeb1-be40d90baecc","ios":"levelo://app?vid=2c112d39-543b-420f-aeb1-be40d90baecc"},"vehicle_type_id":"4","last_reported":1784404664,"current_range_meters":28800,"station_id":"ce4bhhh2rcd13ifvqfl0","pricing_plan_id":"cebpf4jnsgd1na2vs0mg"},{"bike_id":"131d4180-49b8-4bad-8c38-d5ddeed099e2","system_id":"levelo_inurba_marseille","lat":43.30956,"lon":5.39059,"is_reserved":false,"is_disabled":false,"rental_uris":{"android":"levelo://app?vid=131d4180-49b8-4bad-8c38-d5ddeed099e2","ios":"levelo://app?vid=131d4180-49b8-4bad-8c38-d5ddeed099e2"},"vehicle_type_id":"4","last_reported":1784404664,"current_range_meters":39200,"station_id":"ce4bgup2rcd13ifvqco0","pricing_plan_id":"cebpf4jnsgd1na2vs0mg"},{"bike_id":"5522eae7-c621-415a-b785-17a8646eac1a","system_id":"levelo_inurba_marseille","lat":43.29565,"lon":5.37514,"is_reserved":false,"is_disabled":false,"rental_uris":{"android":"levelo://app?vid=5522eae7-c621-415a-b785-17a8646eac1a","ios":"levelo://app?vid=5522eae7-c621-415a-b785-17a8646eac1a"},"vehicle_type_id":"4","last_reported":1784404664,"current_range_meters":36000,"station_id":"ce4bgh92rcd13ifvqb50","pricing_plan_id":"cebpf4jnsgd1na2vs0mg"},{"bike_id":"9e0af9ec-9913-4615-b550-abfd082791d2","system_id":"levelo_inurba_marseille","lat":43.23152,"lon":5.43713,"is_reserved":false,"is_disabled":false,"rental_uris":{"android":"levelo://app?vid=9e0af9ec-9913-4615-b550-abfd082791d2","ios":"levelo://app?vid=9e0af9ec-9913-4615-b550-abfd082791d2"},"vehicle_type_id":"4","last_reported":1784404664,"current_range_meters":39200,"station_id":"ce4bhmp2rcd13ifvqgog","pricing_plan_id":"cebpf4jnsgd1na2vs0mg"},{"bike_id":"689b9f1f-53c1-40ae-8d80-e74d3eb04251","system_id":"levelo_inurba_marseille","lat":43.26034,"lon":5.37553,"is_reserved":false,"is_disabled":false,"rental_uris":{"android":"levelo://app?vid=689b9f1f-53c1-40ae-8d80-e74d3eb04251","ios":"levelo://app?vid=689b9f1f-53c1-40ae-8d80-e74d3eb04251"},"vehicle_type_id":"4","last_reported":1784404664,"current_range_meters":18000,"station_id":"ce4bhgh2rcd13ifvqfa0","pricing_plan_id":"cebpf4jnsgd1na2vs0mg"},{"bike_id":"ac9e4f91-b734-4756-9f64-e1c1a7e149b4","system_id":"levelo_inurba_marseille","lat":43.21191,"lon":5.35075,"is_reserved":false,"is_disabled":false,"rental_uris":{"android":"levelo://app?vid=ac9e4f91-b734-4756-9f64-e1c1a7e149b4","ios":"levelo://app?vid=ac9e4f91-b734-4756-9f64-e1c1a7e149b4"},"vehicle_type_id":"4","last_reported":1784404664,"current_range_meters":27600,"station_id":"st_cvj6sg6p6f1abm77japg","pricing_plan_id":"cebpf4jnsgd1na2vs0mg"},{"bike_id":"8f7ce815-39b3-459b-8e49-eaf2356e2e59","system_id":"levelo_inurba_marseille","lat":43.29197,"lon":5.35832,"is_reserved":false,"is_disabled":false,"rental_uris":{"android":"levelo://app?vid=8f7ce815-39b3-459b-8e49-eaf2356e2e59","ios":"levelo://app?vid=8f7ce815-39b3-459b-8e49-eaf2356e2e59"},"vehicle_type_id":"4","last_reported":1784404664,"current_range_meters":24400,"station_id":"ce4bhb12rcd13ifvqel0","pricing_plan_id":"cebpf4jnsgd1na2vs0mg"},{"bike_id":"eb36d17f-e1be-4f5b-b325-9da13b057bf2","system_id":"levelo_inurba_marseille","lat":43.27362,"lon":5.36259,"is_reserved":false,"is_disabled":false,"rental_uris":{"android":"levelo://app?vid=eb36d17f-e1be-4f5b-b325-9da13b057bf2","ios":"levelo://app?vid=eb36d17f-e1be-4f5b-b325-9da13b057bf2"},"vehicle_type_id":"4","last_reported":1784404664,"current_range_meters":3600,"station_id":"ce4bhbh2rcd13ifvqeo0","pricing_plan_id":"cebpf4jnsgd1na2vs0mg"},{"bike_id":"7ff8118f-6c81-4cdf-8a1d-4753d954065d","system_id":"levelo_inurba_marseille","lat":43.29614,"lon":5.37989,"is_reserved":false,"is_disabled":false,"rental_uris":{"android":"levelo://app?vid=7ff8118f-6c81-4cdf-8a1d-4753d954065d","ios":"levelo://app?vid=7ff8118f-6c81-4cdf-8a1d-4753d954065d"},"vehicle_type_id":"4","last_reported":1784404664,"current_range_meters":6000,"station_id":"","pricing_plan_id":"cebpf4jnsgd1na2vs0mg"},{"bike_id":"0efa47ee-d0bf-416e-82f3-4055cb3fadd2","system_id":"levelo_inurba_marseille","lat":43.24803,"lon":5.37448,"is_reserved":false,"is_disabled":false,"rental_uris":{"android":"levelo://app?vid=0efa47ee-d0bf-416e-82f3-4055cb3fadd2","ios":"levelo://app?vid=0efa47ee-d0bf-416e-82f3-4055cb3fadd2"},"vehicle_type_id":"4","last_reported":1784404664,"current_range_meters":38000,"station_id":"ce4bhgh2rcd13ifvqfb0","pricing_plan_id":"cebpf4jnsgd1na2vs0mg"},{"bike_id":"1c885385-f984-4778-bce2-9178202bc388","system_id":"levelo_inurba_marseille","lat":43.30953,"lon":5.39052,"is_reserved":false,"is_disabled":false,"rental_uris":{"android":"levelo://app?vid=1c885385-f984-4778-bce2-9178202bc388","ios":"levelo://app?vid=1c885385-f984-4778-bce2-9178202bc388"},"vehicle_type_id":"4","last_reported":1784404664,"current_range_meters":39200,"station_id":"ce4bgup2rcd13ifvqco0","pricing_plan_id":"cebpf4jnsgd1na2vs0mg"},{"bike_id":"848a1aff-274a-4b44-93f8-df5211554a34","system_id":"levelo_inurba_marseille","lat":43.28693,"lon":5.37395,"is_reserved":false,"is_disabled":true,"rental_uris":{"android":"levelo://app?vid=848a1aff-274a-4b44-93f8-df5211554a34","ios":"levelo://app?vid=848a1aff-274a-4b44-93f8-df5211554a34"},"vehicle_type_id":"4","last_reported":1784404664,"current_range_meters":21600,"station_id":"ce4bh3p2rcd13ifvqdq0","pricing_plan_id":"cebpf4jnsgd1na2vs0mg"},{"bike_id":"f34fd467-8084-4fad-b05a-2971b02d1cef","system_id":"levelo_inurba_marseille","lat":43.25086,"lon":5.39524,"is_reserved":false,"is_disabled":false,"rental_uris":{"android":"levelo://app?vid=f34fd467-8084-4fad-b05a-2971b02d1cef","ios":"levelo://app?vid=f34fd467-8084-4fad-b05a-2971b02d1cef"},"vehicle_type_id":"4","last_reported":1784404664,"current_range_meters":2800,"station_id":"ce4bhm12rcd13ifvqgkg","pricing_plan_id":"cebpf4jnsgd1na2vs0mg"},{"bike_id":"1de5753c-f77d-4a34-b134-58bee8bc010c","system_id":"levelo_inurba_marseille","lat":43.26548,"lon":5.37273,"is_reserved":false,"is_disabled":false,"rental_uris":{"android":"levelo://app?vid=1de5753c-f77d-4a34-b134-58bee8bc010c","ios":"levelo://app?vid=1de5753c-f77d-4a34-b134-58bee8bc010c"},"vehicle_type_id":"4","last_reported":1784404664,"current_range_meters":20000,"station_id":"ce4bhg12rcd13ifvqf70","pricing_plan_id":"cebpf4jnsgd1na2vs0mg"},{"bike_id":"4917c489-3cd6-429d-b7e8-06601c7db1ad","system_id":"levelo_inurba_marseille","lat":43.31495,"lon":5.37312,"is_reserved":false,"is_disabled":false,"rental_uris":{"android":"levelo://app?vid=4917c489-3cd6-429d-b7e8-06601c7db1ad","ios":"levelo://app?vid=4917c489-3cd6-429d-b7e8-06601c7db1ad"},"vehicle_type_id":"4","last_reported":1784404664,"current_range_meters":38400,"station_id":"ce4bgt12rcd13ifvqcd0","pricing_plan_id":"cebpf4jnsgd1na2vs0mg"},{"bike_id":"6b4ffa47-26c6-4c4a-bc20-f7d6b9c4c1b1","system_id":"levelo_inurba_marseille","lat":43.29094,"lon":5.38157,"is_reserved":false,"is_disabled":false,"rental_uris":{"android":"levelo://app?vid=6b4ffa47-26c6-4c4a-bc20-f7d6b9c4c1b1","ios":"levelo://app?vid=6b4ffa47-26c6-4c4a-bc20-f7d6b9c4c1b1"},"vehicle_type_id":"4","last_reported":1784404664,"current_range_meters":36000,"station_id":"ce4bh512rcd13ifvqe2g","pricing_plan_id":"cebpf4jnsgd1na2vs0mg"},{"bike_id":"a7c42e62-f2d7-4f0f-96f4-b9d2418cea29","system_id":"levelo_inurba_marseille","lat":43.29632,"lon":5.40544,"is_reserved":false,"is_disabled":true,"rental_uris":{"android":"levelo://app?vid=a7c42e62-f2d7-4f0f-96f4-b9d2418cea29","ios":"levelo://app?vid=a7c42e62-f2d7-4f0f-96f4-b9d2418cea29"},"vehicle_type_id":"4","last_reported":1784404664,"current_range_meters":20000,"station_id":"ce4bh0h2rcd13ifvqd60","pricing_plan_id":"cebpf4jnsgd1na2vs0mg"},{"bike_id":"32595401-e31f-475e-aa23-6c17c87d3373","system_id":"levelo_inurba_marseille","lat":43.29686,"lon":5.37293,"is_reserved":false,"is_disabled":false,"rental_uris":{"android":"levelo://app?vid=32595401-e31f-475e-aa23-6c17c87d3373","ios":"levelo://app?vid=32595401-e31f-475e-aa23-6c17c87d3373"},"vehicle_type_id":"4","last_reported":1784404664,"current_range_meters":30400,"station_id":"ce4bgk12rcd13ifvqbj0","pricing_plan_id":"cebpf4jnsgd1na2vs0mg"},{"bike_id":"ae5a0ed2-8aa5-425b-99f6-2aee209ee161","system_id":"levelo_inurba_marseille","lat":43.29189,"lon":5.35791,"is_reserved":false,"is_disabled":false,"rental_uris":{"android":"levelo://app?vid=ae5a0ed2-8aa5-425b-99f6-2aee209ee161","ios":"levelo://app?vid=ae5a0ed2-8aa5-425b-99f6-2aee209ee161"},"vehicle_type_id":"4","last_reported":1784404664,"current_range_meters":39200,"station_id":"ce4bhb12rcd13ifvqel0","pricing_plan_id":"cebpf4jnsgd1na2vs0mg"},{"bike_id":"2c3034d9-cfe0-4bed-ba66-d570d2e65392","system_id":"levelo_inurba_marseille","lat":43.29975,"lon":5.38497,"is_reserved":false,"is_disabled":true,"rental_uris":{"android":"levelo://app?vid=2c3034d9-cfe0-4bed-ba66-d570d2e65392","ios":"levelo://app?vid=2c3034d9-cfe0-4bed-ba66-d570d2e65392"},"vehicle_type_id":"4","last_reported":1784404664,"current_range_meters":22000,"station_id":"ce4bgj92rcd13ifvqbd0","pricing_plan_id":"cebpf4jnsgd1na2vs0mg"},{"bike_id":"0f6ff1da-c9e3-42e7-a8d3-8280d1c0addc","system_id":"levelo_inurba_marseille","lat":43.33718,"lon":5.37415,"is_reserved":false,"is_disabled":false,"rental_uris":{"android":"levelo://app?vid=0f6ff1da-c9e3-42e7-a8d3-8280d1c0addc","ios":"levelo://app?vid=0f6ff1da-c9e3-42e7-a8d3-8280d1c0addc"},"vehicle_type_id":"4","last_reported":1784404664,"current_range_meters":32000,"station_id":"","pricing_plan_id":"cebpf4jnsgd1na2vs0mg"},{"bike_id":"1e628dec-3141-48e0-b510-1c285ab03f4c","system_id":"levelo_inurba_marseille","lat":43.2643,"lon":5.41062,"is_reserved":false,"is_disabled":false,"rental_uris":{"android":"levelo://app?vid=1e628dec-3141-48e0-b510-1c285ab03f4c","ios":"levelo://app?vid=1e628dec-3141-48e0-b510-1c285ab03f4c"},"vehicle_type_id":"4","last_reported":1784404664,"current_range_meters":38000,"station_id":"st_d4e5ca6na9uc73bfl5fg","pricing_plan_id":"cebpf4jnsgd1na2vs0mg"},{"bike_id":"8337f5b4-2806-4bc0-9f71-af183adb5db8","system_id":"levelo_inurba_marseille","lat":43.23822,"lon":5.43512,"is_reserved":false,"is_disabled":false,"rental_uris":{"android":"levelo://app?vid=8337f5b4-2806-4bc0-9f71-af183adb5db8","ios":"levelo://app?vid=8337f5b4-2806-4bc0-9f71-af183adb5db8"},"vehicle_type_id":"4","last_reported":1784404664,"current_range_meters":7200,"station_id":"","pricing_plan_id":"cebpf4jnsgd1na2vs0mg"},{"bike_id":"0d69c6ad-1581-485b-8bcd-d541c4976ef8","system_id":"levelo_inurba_marseille","lat":43.31897,"lon":5.3684,"is_reserved":false,"is_disabled":false,"rental_uris":{"android":"levelo://app?vid=0d69c6ad-1581-485b-8bcd-d541c4976ef8","ios":"levelo://app?vid=0d69c6ad-1581-485b-8bcd-d541c4976ef8"},"vehicle_type_id":"4","last_reported":1784404664,"current_range_meters":11200,"station_id":"st_d6o2h0d0559c73evc1b0","pricing_plan_id":"cebpf4jnsgd1na2vs0mg"},{"bike_id":"7fea6ee8-6d46-40c5-8319-4588348004a0","system_id":"levelo_inurba_marseille","lat":43.28483,"lon":5.38565,"is_reserved":false,"is_disabled":false,"rental_uris":{"android":"levelo://app?vid=7fea6ee8-6d46-40c5-8319-4588348004a0","ios":"levelo://app?vid=7fea6ee8-6d46-40c5-8319-4588348004a0"},"vehicle_type_id":"4","last_reported":1784404664,"current_range_meters":33600,"station_id":"ce4bh8p2rcd13ifvqeb0","pricing_plan_id":"cebpf4jnsgd1na2vs0mg"},{"bike_id":"3225ddfb-aa7b-4b66-8f2d-f7d2175af62a","system_id":"levelo_inurba_marseille","lat":43.29603,"lon":5.36768,"is_reserved":false,"is_disabled":false,"rental_uris":{"android":"levelo://app?vid=3225ddfb-aa7b-4b66-8f2d-f7d2175af62a","ios":"levelo://app?vid=3225ddfb-aa7b-4b66-8f2d-f7d2175af62a"},"vehicle_type_id":"4","last_reported":1784404664,"current_range_meters":19600,"station_id":"","pricing_plan_id":"cebpf4jnsgd1na2vs0mg"},{"bike_id":"ad193227-d210-4e9a-af26-3f25b41f58db","system_id":"levelo_inurba_marseille","lat":43.23898,"lon":5.37448,"is_reserved":false,"is_disabled":false,"rental_uris":{"android":"levelo://app?vid=ad193227-d210-4e9a-af26-3f25b41f58db","ios":"levelo://app?vid=ad193227-d210-4e9a-af26-3f25b41f58db"},"vehicle_type_id":"4","last_reported":1784404664,"current_range_meters":38000,"station_id":"st_d6sm7csbq4hs73f8fpjg","pricing_plan_id":"cebpf4jnsgd1na2vs0mg"},{"bike_id":"ee06a958-7f2b-4eb7-a6b1-2d3112db17a0","system_id":"levelo_inurba_marseille","lat":43.3113,"lon":5.37788,"is_reserved":false,"is_disabled":false,"rental_uris":{"android":"levelo://app?vid=ee06a958-7f2b-4eb7-a6b1-2d3112db17a0","ios":"levelo://app?vid=ee06a958-7f2b-4eb7-a6b1-2d3112db17a0"},"vehicle_type_id":"4","last_reported":1784404664,"current_range_meters":6000,"station_id":"ce4bgt92rcd13ifvqcg0","pricing_plan_id":"cebpf4jnsgd1na2vs0mg"},{"bike_id":"6574ba80-d1cb-4d7c-8e97-996d3033fe32","system_id":"levelo_inurba_marseille","lat":43.26539,"lon":5.37294,"is_reserved":false,"is_disabled":false,"rental_uris":{"android":"levelo://app?vid=6574ba80-d1cb-4d7c-8e97-996d3033fe32","ios":"levelo://app?vid=6574ba80-d1cb-4d7c-8e97-996d3033fe32"},"vehicle_type_id":"4","last_reported":1784404664,"current_range_meters":5600,"station_id":"ce4bhg12rcd13ifvqf70","pricing_plan_id":"cebpf4jnsgd1na2vs0mg"},{"bike_id":"fbc2ea7e-7aa8-46c6-911e-98977f78f06c","system_id":"levelo_inurba_marseille","lat":43.2667,"lon":5.38267,"is_reserved":false,"is_disabled":false,"rental_uris":{"android":"levelo://app?vid=fbc2ea7e-7aa8-46c6-911e-98977f78f06c","ios":"levelo://app?vid=fbc2ea7e-7aa8-46c6-911e-98977f78f06c"},"vehicle_type_id":"4","last_reported":1784404664,"current_range_meters":39200,"station_id":"ce4bhg92rcd13ifvqf90","pricing_plan_id":"cebpf4jnsgd1na2vs0mg"},{"bike_id":"942148f9-90f2-4171-8f05-98ba0ca85bcb","system_id":"levelo_inurba_marseille","lat":43.28476,"lon":5.48401,"is_reserved":false,"is_disabled":false,"rental_uris":{"android":"levelo://app?vid=942148f9-90f2-4171-8f05-98ba0ca85bcb","ios":"levelo://app?vid=942148f9-90f2-4171-8f05-98ba0ca85bcb"},"vehicle_type_id":"4","last_reported":1784404664,"current_range_meters":3600,"station_id":"st_d3svhcjqgbts73a3dn0g","pricing_plan_id":"cebpf4jnsgd1na2vs0mg"},{"bike_id":"c810f4d1-b4da-406c-8d26-e38927a8150c","system_id":"levelo_inurba_marseille","lat":43.26682,"lon":5.38262,"is_reserved":false,"is_disabled":false,"rental_uris":{"android":"levelo://app?vid=c810f4d1-b4da-406c-8d26-e38927a8150c","ios":"levelo://app?vid=c810f4d1-b4da-406c-8d26-e38927a8150c"},"vehicle_type_id":"4","last_reported":1784404664,"current_range_meters":30000,"station_id":"ce4bhg92rcd13ifvqf90","pricing_plan_id":"cebpf4jnsgd1na2vs0mg"},{"bike_id":"54733892-ca4e-42e1-a6e2-3f31839f4a24","system_id":"levelo_inurba_marseille","lat":43.29975,"lon":5.41314,"is_reserved":false,"is_disabled":false,"rental_uris":{"android":"levelo://app?vid=54733892-ca4e-42e1-a6e2-3f31839f4a24","ios":"levelo://app?vid=54733892-ca4e-42e1-a6e2-3f31839f4a24"},"vehicle_type_id":"4","last_reported":1784404664,"current_range_meters":37600,"station_id":"ce4bhp12rcd13ifvqh9g","pricing_plan_id":"cebpf4jnsgd1na2vs0mg"},{"bike_id":"fa288643-b967-4c77-8362-0941ea5afa2f","system_id":"levelo_inurba_marseille","lat":43.23201,"lon":5.35559,"is_reserved":false,"is_disabled":false,"rental_uris":{"android":"levelo://app?vid=fa288643-b967-4c77-8362-0941ea5afa2f","ios":"levelo://app?vid=fa288643-b967-4c77-8362-0941ea5afa2f"},"vehicle_type_id":"4","last_reported":1784404664,"current_range_meters":7200,"station_id":"ce4bhu92rcd13ifvqi70","pricing_plan_id":"cebpf4jnsgd1na2vs0mg"},{"bike_id":"2a93def1-9840-4751-b465-b53bb0ce6123","system_id":"levelo_inurba_marseille","lat":43.2257,"lon":5.4158,"is_reserved":false,"is_disabled":false,"rental_uris":{"android":"levelo://app?vid=2a93def1-9840-4751-b465-b53bb0ce6123","ios":"levelo://app?vid=2a93def1-9840-4751-b465-b53bb0ce6123"},"vehicle_type_id":"4","last_reported":1784404664,"current_range_meters":10000,"station_id":"st_d2o4gvlbi1j2169b742g","pricing_plan_id":"cebpf4jnsgd1na2vs0mg"},{"bike_id":"d98a757a-6f6d-47aa-8f36-2e59d82959b6","system_id":"levelo_inurba_marseille","lat":43.25513,"lon":5.3765,"is_reserved":false,"is_disabled":false,"rental_uris":{"android":"levelo://app?vid=d98a757a-6f6d-47aa-8f36-2e59d82959b6","ios":"levelo://app?vid=d98a757a-6f6d-47aa-8f36-2e59d82959b6"},"vehicle_type_id":"4","last_reported":1784404664,"current_range_meters":8400,"station_id":"ce4bhh12rcd13ifvqff0","pricing_plan_id":"cebpf4jnsgd1na2vs0mg"},{"bike_id":"d2b08bfe-8d05-4397-91e9-fe938a2b845f","system_id":"levelo_inurba_marseille","lat":43.27493,"lon":5.42464,"is_reserved":false,"is_disabled":false,"rental_uris":{"android":"levelo://app?vid=d2b08bfe-8d05-4397-91e9-fe938a2b845f","ios":"levelo://app?vid=d2b08bfe-8d05-4397-91e9-fe938a2b845f"},"vehicle_type_id":"4","last_reported":1784404664,"current_range_meters":30400,"station_id":"ce4bhn92rcd13ifvqgrg","pricing_plan_id":"cebpf4jnsgd1na2vs0mg"},{"bike_id":"e97d923d-d560-461e-94e7-6b746b3d8d92","system_id":"levelo_inurba_marseille","lat":43.32099,"lon":5.36807,"is_reserved":false,"is_disabled":false,"rental_uris":{"android":"levelo://app?vid=e97d923d-d560-461e-94e7-6b746b3d8d92","ios":"levelo://app?vid=e97d923d-d560-461e-94e7-6b746b3d8d92"},"vehicle_type_id":"4","last_reported":1784404664,"current_range_meters":25200,"station_id":"ce4bhrh2rcd13ifvqhug","pricing_plan_id":"cebpf4jnsgd1na2vs0mg"},{"bike_id":"619e5f09-ff96-4b51-a528-52c8bcd40b9f","system_id":"levelo_inurba_marseille","lat":43.30948,"lon":5.39039,"is_reserved":false,"is_disabled":false,"rental_uris":{"android":"levelo://app?vid=619e5f09-ff96-4b51-a528-52c8bcd40b9f","ios":"levelo://app?vid=619e5f09-ff96-4b51-a528-52c8bcd40b9f"},"vehicle_type_id":"4","last_reported":1784404664,"current_range_meters":24000,"station_id":"ce4bgup2rcd13ifvqco0","pricing_plan_id":"cebpf4jnsgd1na2vs0mg"},{"bike_id":"48837646-8c52-45de-9e76-9ec9cdd47775","system_id":"levelo_inurba_marseille","lat":43.28764,"lon":5.38552,"is_reserved":false,"is_disabled":false,"rental_uris":{"android":"levelo://app?vid=48837646-8c52-45de-9e76-9ec9cdd47775","ios":"levelo://app?vid=48837646-8c52-45de-9e76-9ec9cdd47775"},"vehicle_type_id":"4","last_reported":1784404664,"current_range_meters":9600,"station_id":"","pricing_plan_id":"cebpf4jnsgd1na2vs0mg"},{"bike_id":"a73f2824-04af-4eb1-8696-07548fb915c6","system_id":"levelo_inurba_marseille","lat":43.27064,"lon":5.42295,"is_reserved":false,"is_disabled":false,"rental_uris":{"android":"levelo://app?vid=a73f2824-04af-4eb1-8696-07548fb915c6","ios":"levelo://app?vid=a73f2824-04af-4eb1-8696-07548fb915c6"},"vehicle_type_id":"4","last_reported":1784404664,"current_range_meters":34800,"station_id":"ce4bhk92rcd13ifvqgb0","pricing_plan_id":"cebpf4jnsgd1na2vs0mg"},{"bike_id":"a856cf43-2f13-4821-973d-7f5f6edf60e3","system_id":"levelo_inurba_marseille","lat":43.21739,"lon":5.34611,"is_reserved":false,"is_disabled":false,"rental_uris":{"android":"levelo://app?vid=a856cf43-2f13-4821-973d-7f5f6edf60e3","ios":"levelo://app?vid=a856cf43-2f13-4821-973d-7f5f6edf60e3"},"vehicle_type_id":"4","last_reported":1784404664,"current_range_meters":4800,"station_id":"st_cvj6r9ubvosntc0bgbag","pricing_plan_id":"cebpf4jnsgd1na2vs0mg"},{"bike_id":"6a3f944a-c0cc-474d-bd43-01bb88300b80","system_id":"levelo_inurba_marseille","lat":43.29564,"lon":5.37507,"is_reserved":false,"is_disabled":false,"rental_uris":{"android":"levelo://app?vid=6a3f944a-c0cc-474d-bd43-01bb88300b80","ios":"levelo://app?vid=6a3f944a-c0cc-474d-bd43-01bb88300b80"},"vehicle_type_id":"4","last_reported":1784404664,"current_range_meters":39200,"station_id":"ce4bgh92rcd13ifvqb50","pricing_plan_id":"cebpf4jnsgd1na2vs0mg"},{"bike_id":"c6b62028-2fba-481c-a2b5-507778ec7c93","system_id":"levelo_inurba_marseille","lat":43.3153,"lon":5.41351,"is_reserved":false,"is_disabled":true,"rental_uris":{"android":"levelo://app?vid=c6b62028-2fba-481c-a2b5-507778ec7c93","ios":"levelo://app?vid=c6b62028-2fba-481c-a2b5-507778ec7c93"},"vehicle_type_id":"4","last_reported":1784404664,"current_range_meters":0,"station_id":"","pricing_plan_id":"cebpf4jnsgd1na2vs0mg"},{"bike_id":"e845caaf-6f62-4afe-898b-175d7eec4dd5","system_id":"levelo_inurba_marseille","lat":43.29056,"lon":5.35926,"is_reserved":false,"is_disabled":true,"rental_uris":{"android":"levelo://app?vid=e845caaf-6f62-4afe-898b-175d7eec4dd5","ios":"levelo://app?vid=e845caaf-6f62-4afe-898b-175d7eec4dd5"},"vehicle_type_id":"4","last_reported":1784404664,"current_range_meters":10000,"station_id":"ce4bha92rcd13ifvqeg0","pricing_plan_id":"cebpf4jnsgd1na2vs0mg"},{"bike_id":"d229b9a2-486e-4d14-86e6-ad40b7cd481e","system_id":"levelo_inurba_marseille","lat":43.26195,"lon":5.37509,"is_reserved":false,"is_disabled":false,"rental_uris":{"android":"levelo://app?vid=d229b9a2-486e-4d14-86e6-ad40b7cd481e","ios":"levelo://app?vid=d229b9a2-486e-4d14-86e6-ad40b7cd481e"},"vehicle_type_id":"4","last_reported":1784404664,"current_range_meters":19200,"station_id":"","pricing_plan_id":"cebpf4jnsgd1na2vs0mg"},{"bike_id":"a359700c-c900-4e40-af70-ebdfba9dee4b","system_id":"levelo_inurba_marseille","lat":43.25511,"lon":5.37652,"is_reserved":false,"is_disabled":false,"rental_uris":{"android":"levelo://app?vid=a359700c-c900-4e40-af70-ebdfba9dee4b","ios":"levelo://app?vid=a359700c-c900-4e40-af70-ebdfba9dee4b"},"vehicle_type_id":"4","last_reported":1784404664,"current_range_meters":30000,"station_id":"ce4bhh12rcd13ifvqff0","pricing_plan_id":"cebpf4jnsgd1na2vs0mg"},{"bike_id":"b64426df-a3f7-424e-923a-a5218fc5bce4","system_id":"levelo_inurba_marseille","lat":43.27679,"lon":5.38921,"is_reserved":false,"is_disabled":false,"rental_uris":{"android":"levelo://app?vid=b64426df-a3f7-424e-923a-a5218fc5bce4","ios":"levelo://app?vid=b64426df-a3f7-424e-923a-a5218fc5bce4"},"vehicle_type_id":"4","last_reported":1784404664,"current_range_meters":26000,"station_id":"ce4bhi12rcd13ifvqfo0","pricing_plan_id":"cebpf4jnsgd1na2vs0mg"},{"bike_id":"3d4aa178-44db-467e-a1bd-4fcdf991f22c","system_id":"levelo_inurba_marseille","lat":43.31665,"lon":5.43715,"is_reserved":false,"is_disabled":false,"rental_uris":{"android":"levelo://app?vid=3d4aa178-44db-467e-a1bd-4fcdf991f22c","ios":"levelo://app?vid=3d4aa178-44db-467e-a1bd-4fcdf991f22c"},"vehicle_type_id":"4","last_reported":1784404664,"current_range_meters":39200,"station_id":"","pricing_plan_id":"cebpf4jnsgd1na2vs0mg"},{"bike_id":"78b472ae-7ca1-438d-a65f-f93d06645001","system_id":"levelo_inurba_marseille","lat":43.29266,"lon":5.36029,"is_reserved":false,"is_disabled":true,"rental_uris":{"android":"levelo://app?vid=78b472ae-7ca1-438d-a65f-f93d06645001","ios":"levelo://app?vid=78b472ae-7ca1-438d-a65f-f93d06645001"},"vehicle_type_id":"4","last_reported":1784404664,"current_range_meters":2800,"station_id":"","pricing_plan_id":"cebpf4jnsgd1na2vs0mg"},{"bike_id":"7ed54285-81bf-4e7e-93a1-2d3fde50d7b2","system_id":"levelo_inurba_marseille","lat":43.29295,"lon":5.37209,"is_reserved":false,"is_disabled":false,"rental_uris":{"android":"levelo://app?vid=7ed54285-81bf-4e7e-93a1-2d3fde50d7b2","ios":"levelo://app?vid=7ed54285-81bf-4e7e-93a1-2d3fde50d7b2"},"vehicle_type_id":"4","last_reported":1784404664,"current_range_meters":38000,"station_id":"ce4bgh92rcd13ifvqb40","pricing_plan_id":"cebpf4jnsgd1na2vs0mg"},{"bike_id":"bf010752-4ee2-4816-b256-1fb00bbe1bcc","system_id":"levelo_inurba_marseille","lat":43.28621,"lon":5.35074,"is_reserved":false,"is_disabled":true,"rental_uris":{"android":"levelo://app?vid=bf010752-4ee2-4816-b256-1fb00bbe1bcc","ios":"levelo://app?vid=bf010752-4ee2-4816-b256-1fb00bbe1bcc"},"vehicle_type_id":"4","last_reported":1784404664,"current_range_meters":14800,"station_id":"ce4bhch2rcd13ifvqeug","pricing_plan_id":"cebpf4jnsgd1na2vs0mg"},{"bike_id":"b8079c84-d50a-4522-861f-c59f854893f0","system_id":"levelo_inurba_marseille","lat":43.26188,"lon":5.37444,"is_reserved":false,"is_disabled":false,"rental_uris":{"android":"levelo://app?vid=b8079c84-d50a-4522-861f-c59f854893f0","ios":"levelo://app?vid=b8079c84-d50a-4522-861f-c59f854893f0"},"vehicle_type_id":"4","last_reported":1784404664,"current_range_meters":6800,"station_id":"ce4bhgp2rcd13ifvqfc0","pricing_plan_id":"cebpf4jnsgd1na2vs0mg"},{"bike_id":"348caf77-82d6-4562-a72e-c7becae0b0ae","system_id":"levelo_inurba_marseille","lat":43.230549,"lon":5.354901,"is_reserved":false,"is_disabled":false,"rental_uris":{"android":"levelo://app?vid=348caf77-82d6-4562-a72e-c7becae0b0ae","ios":"levelo://app?vid=348caf77-82d6-4562-a72e-c7becae0b0ae"},"vehicle_type_id":"4","last_reported":1784404664,"current_range_meters":38400,"station_id":"cpo3342slgdg3j2ifvpg","pricing_plan_id":"cebpf4jnsgd1na2vs0mg"},{"bike_id":"88b3333d-68df-42df-8ef7-a9a4f08abce5","system_id":"levelo_inurba_marseille","lat":43.22928,"lon":5.41497,"is_reserved":false,"is_disabled":false,"rental_uris":{"android":"levelo://app?vid=88b3333d-68df-42df-8ef7-a9a4f08abce5","ios":"levelo://app?vid=88b3333d-68df-42df-8ef7-a9a4f08abce5"},"vehicle_type_id":"4","last_reported":1784404664,"current_range_meters":22000,"station_id":"","pricing_plan_id":"cebpf4jnsgd1na2vs0mg"},{"bike_id":"eca0ae68-a3b8-42c7-b733-15dbcb35f804","system_id":"levelo_inurba_marseille","lat":43.26193,"lon":5.37462,"is_reserved":false,"is_disabled":false,"rental_uris":{"android":"levelo://app?vid=eca0ae68-a3b8-42c7-b733-15dbcb35f804","ios":"levelo://app?vid=eca0ae68-a3b8-42c7-b733-15dbcb35f804"},"vehicle_type_id":"4","last_reported":1784404664,"current_range_meters":8800,"station_id":"ce4bhgp2rcd13ifvqfc0","pricing_plan_id":"cebpf4jnsgd1na2vs0mg"},{"bike_id":"035222c8-2604-4663-bc5d-7c9f7e488ee9","system_id":"levelo_inurba_marseille","lat":43.25556,"lon":5.37634,"is_reserved":false,"is_disabled":true,"rental_uris":{"android":"levelo://app?vid=035222c8-2604-4663-bc5d-7c9f7e488ee9","ios":"levelo://app?vid=035222c8-2604-4663-bc5d-7c9f7e488ee9"},"vehicle_type_id":"4","last_reported":1784404664,"current_range_meters":0,"station_id":"","pricing_plan_id":"cebpf4jnsgd1na2vs0mg"},{"bike_id":"cbf57bb6-373a-442c-9860-92cf9215a1bb","system_id":"levelo_inurba_marseille","lat":43.30518,"lon":5.36504,"is_reserved":false,"is_disabled":true,"rental_uris":{"android":"levelo://app?vid=cbf57bb6-373a-442c-9860-92cf9215a1bb","ios":"levelo://app?vid=cbf57bb6-373a-442c-9860-92cf9215a1bb"},"vehicle_type_id":"4","last_reported":1784404664,"current_range_meters":24400,"station_id":"","pricing_plan_id":"cebpf4jnsgd1na2vs0mg"},{"bike_id":"58657c2c-f213-4763-bf6c-55283490b915","system_id":"levelo_inurba_marseille","lat":43.26228,"lon":5.37448,"is_reserved":false,"is_disabled":false,"rental_uris":{"android":"levelo://app?vid=58657c2c-f213-4763-bf6c-55283490b915","ios":"levelo://app?vid=58657c2c-f213-4763-bf6c-55283490b915"},"vehicle_type_id":"4","last_reported":1784404664,"current_range_meters":38400,"station_id":"ce4bhgp2rcd13ifvqfc0","pricing_plan_id":"cebpf4jnsgd1na2vs0mg"},{"bike_id":"262cca5e-777a-4abe-8b2a-530f93f2ed7a","system_id":"levelo_inurba_marseille","lat":43.30528,"lon":5.38423,"is_reserved":false,"is_disabled":false,"rental_uris":{"android":"levelo://app?vid=262cca5e-777a-4abe-8b2a-530f93f2ed7a","ios":"levelo://app?vid=262cca5e-777a-4abe-8b2a-530f93f2ed7a"},"vehicle_type_id":"4","last_reported":1784404664,"current_range_meters":34800,"station_id":"ce4bgg92rcd13ifvqb30","pricing_plan_id":"cebpf4jnsgd1na2vs0mg"},{"bike_id":"2a776eff-b75d-45bf-b8ad-a179b5f859c2","system_id":"levelo_inurba_marseille","lat":43.24809,"lon":5.37457,"is_reserved":false,"is_disabled":false,"rental_uris":{"android":"levelo://app?vid=2a776eff-b75d-45bf-b8ad-a179b5f859c2","ios":"levelo://app?vid=2a776eff-b75d-45bf-b8ad-a179b5f859c2"},"vehicle_type_id":"4","last_reported":1784404664,"current_range_meters":23200,"station_id":"ce4bhgh2rcd13ifvqfb0","pricing_plan_id":"cebpf4jnsgd1na2vs0mg"},{"bike_id":"83abe946-ea68-4397-bee3-4e1cc45eebb9","system_id":"levelo_inurba_marseille","lat":43.30877,"lon":5.39641,"is_reserved":false,"is_disabled":false,"rental_uris":{"android":"levelo://app?vid=83abe946-ea68-4397-bee3-4e1cc45eebb9","ios":"levelo://app?vid=83abe946-ea68-4397-bee3-4e1cc45eebb9"},"vehicle_type_id":"4","last_reported":1784404664,"current_range_meters":15200,"station_id":"ce4bh012rcd13ifvqcv0","pricing_plan_id":"cebpf4jnsgd1na2vs0mg"},{"bike_id":"b9bf91b1-f6c3-4792-a380-5b253e1ff4ad","system_id":"levelo_inurba_marseille","lat":43.23186,"lon":5.35555,"is_reserved":false,"is_disabled":false,"rental_uris":{"android":"levelo://app?vid=b9bf91b1-f6c3-4792-a380-5b253e1ff4ad","ios":"levelo://app?vid=b9bf91b1-f6c3-4792-a380-5b253e1ff4ad"},"vehicle_type_id":"4","last_reported":1784404664,"current_range_meters":30400,"station_id":"ce4bhu92rcd13ifvqi70","pricing_plan_id":"cebpf4jnsgd1na2vs0mg"},{"bike_id":"d0689963-1360-4eec-9974-1c99b2ed8187","system_id":"levelo_inurba_marseille","lat":43.30605,"lon":5.37213,"is_reserved":false,"is_disabled":true,"rental_uris":{"android":"levelo://app?vid=d0689963-1360-4eec-9974-1c99b2ed8187","ios":"levelo://app?vid=d0689963-1360-4eec-9974-1c99b2ed8187"},"vehicle_type_id":"4","last_reported":1784404664,"current_range_meters":35600,"station_id":"ce4bgqh2rcd13ifvqc4g","pricing_plan_id":"cebpf4jnsgd1na2vs0mg"},{"bike_id":"21e5d753-a3ca-4172-b625-536467a12d9a","system_id":"levelo_inurba_marseille","lat":43.28402,"lon":5.37512,"is_reserved":false,"is_disabled":false,"rental_uris":{"android":"levelo://app?vid=21e5d753-a3ca-4172-b625-536467a12d9a","ios":"levelo://app?vid=21e5d753-a3ca-4172-b625-536467a12d9a"},"vehicle_type_id":"4","last_reported":1784404664,"current_range_meters":23200,"station_id":"ce4bh412rcd13ifvqds0","pricing_plan_id":"cebpf4jnsgd1na2vs0mg"},{"bike_id":"4f54c651-15d1-492f-8d09-70f1f809ad4f","system_id":"levelo_inurba_marseille","lat":43.27432,"lon":5.42529,"is_reserved":false,"is_disabled":false,"rental_uris":{"android":"levelo://app?vid=4f54c651-15d1-492f-8d09-70f1f809ad4f","ios":"levelo://app?vid=4f54c651-15d1-492f-8d09-70f1f809ad4f"},"vehicle_type_id":"4","last_reported":1784404664,"current_range_meters":19600,"station_id":"","pricing_plan_id":"cebpf4jnsgd1na2vs0mg"},{"bike_id":"7065528a-f292-4b1d-9927-6e05933d2cf0","system_id":"levelo_inurba_marseille","lat":43.22564,"lon":5.4163,"is_reserved":false,"is_disabled":false,"rental_uris":{"android":"levelo://app?vid=7065528a-f292-4b1d-9927-6e05933d2cf0","ios":"levelo://app?vid=7065528a-f292-4b1d-9927-6e05933d2cf0"},"vehicle_type_id":"4","last_reported":1784404664,"current_range_meters":26800,"station_id":"st_d2o4gvlbi1j2169b742g","pricing_plan_id":"cebpf4jnsgd1na2vs0mg"},{"bike_id":"af11e03f-1528-4bf3-8c3f-52a367022a8f","system_id":"levelo_inurba_marseille","lat":43.30949,"lon":5.39055,"is_reserved":false,"is_disabled":false,"rental_uris":{"android":"levelo://app?vid=af11e03f-1528-4bf3-8c3f-52a367022a8f","ios":"levelo://app?vid=af11e03f-1528-4bf3-8c3f-52a367022a8f"},"vehicle_type_id":"4","last_reported":1784404664,"current_range_meters":34000,"station_id":"ce4bgup2rcd13ifvqco0","pricing_plan_id":"cebpf4jnsgd1na2vs0mg"},{"bike_id":"348b75e5-4fb3-4c00-93fa-971d31b369f6","system_id":"levelo_inurba_marseille","lat":43.29011,"lon":5.38648,"is_reserved":false,"is_disabled":false,"rental_uris":{"android":"levelo://app?vid=348b75e5-4fb3-4c00-93fa-971d31b369f6","ios":"levelo://app?vid=348b75e5-4fb3-4c00-93fa-971d31b369f6"},"vehicle_type_id":"4","last_reported":1784404664,"current_range_meters":24800,"station_id":"ce4bh4p2rcd13ifvqe0g","pricing_plan_id":"cebpf4jnsgd1na2vs0mg"},{"bike_id":"5ccc2bbe-4374-406f-b024-54a9e0247def","system_id":"levelo_inurba_marseille","lat":43.2951,"lon":5.39397,"is_reserved":false,"is_disabled":false,"rental_uris":{"android":"levelo://app?vid=5ccc2bbe-4374-406f-b024-54a9e0247def","ios":"levelo://app?vid=5ccc2bbe-4374-406f-b024-54a9e0247def"},"vehicle_type_id":"4","last_reported":1784404664,"current_range_meters":30000,"station_id":"ce4bh292rcd13ifvqdf0","pricing_plan_id":"cebpf4jnsgd1na2vs0mg"},{"bike_id":"e35b3037-ccf2-48a7-b6f2-14a77143bba4","system_id":"levelo_inurba_marseille","lat":43.32323,"lon":5.36744,"is_reserved":false,"is_disabled":false,"rental_uris":{"android":"levelo://app?vid=e35b3037-ccf2-48a7-b6f2-14a77143bba4","ios":"levelo://app?vid=e35b3037-ccf2-48a7-b6f2-14a77143bba4"},"vehicle_type_id":"4","last_reported":1784404664,"current_range_meters":29600,"station_id":"ce4bhsh2rcd13ifvqi2g","pricing_plan_id":"cebpf4jnsgd1na2vs0mg"},{"bike_id":"bb820a3d-e796-4992-8405-6ad30b05bd62","system_id":"levelo_inurba_marseille","lat":43.29524,"lon":5.3751,"is_reserved":false,"is_disabled":false,"rental_uris":{"android":"levelo://app?vid=bb820a3d-e796-4992-8405-6ad30b05bd62","ios":"levelo://app?vid=bb820a3d-e796-4992-8405-6ad30b05bd62"},"vehicle_type_id":"4","last_reported":1784404664,"current_range_meters":28800,"station_id":"ce4bgkp2rcd13ifvqbmg","pricing_plan_id":"cebpf4jnsgd1na2vs0mg"},{"bike_id":"ef8bf06c-bc30-4382-9ecb-851f8db73dfb","system_id":"levelo_inurba_marseille","lat":43.29765,"lon":5.37076,"is_reserved":false,"is_disabled":false,"rental_uris":{"android":"levelo://app?vid=ef8bf06c-bc30-4382-9ecb-851f8db73dfb","ios":"levelo://app?vid=ef8bf06c-bc30-4382-9ecb-851f8db73dfb"},"vehicle_type_id":"4","last_reported":1784404664,"current_range_meters":38400,"station_id":"ce4bgop2rcd13ifvqc1g","pricing_plan_id":"cebpf4jnsgd1na2vs0mg"},{"bike_id":"609c5ce3-deae-4b8d-823b-1e2454e13ff5","system_id":"levelo_inurba_marseille","lat":43.30944,"lon":5.39074,"is_reserved":false,"is_disabled":false,"rental_uris":{"android":"levelo://app?vid=609c5ce3-deae-4b8d-823b-1e2454e13ff5","ios":"levelo://app?vid=609c5ce3-deae-4b8d-823b-1e2454e13ff5"},"vehicle_type_id":"4","last_reported":1784404664,"current_range_meters":18800,"station_id":"ce4bgup2rcd13ifvqco0","pricing_plan_id":"cebpf4jnsgd1na2vs0mg"},{"bike_id":"3c94606d-8aaf-490a-9103-bb5e07876d7a","system_id":"levelo_inurba_marseille","lat":43.30901,"lon":5.36862,"is_reserved":false,"is_disabled":false,"rental_uris":{"android":"levelo://app?vid=3c94606d-8aaf-490a-9103-bb5e07876d7a","ios":"levelo://app?vid=3c94606d-8aaf-490a-9103-bb5e07876d7a"},"vehicle_type_id":"4","last_reported":1784404664,"current_range_meters":14000,"station_id":"ce4bgn92rcd13ifvqbvg","pricing_plan_id":"cebpf4jnsgd1na2vs0mg"},{"bike_id":"b32aabde-9bb9-4939-8873-e24f0fd51c81","system_id":"levelo_inurba_marseille","lat":43.29535,"lon":5.38543,"is_reserved":false,"is_disabled":false,"rental_uris":{"android":"levelo://app?vid=b32aabde-9bb9-4939-8873-e24f0fd51c81","ios":"levelo://app?vid=b32aabde-9bb9-4939-8873-e24f0fd51c81"},"vehicle_type_id":"4","last_reported":1784404664,"current_range_meters":34000,"station_id":"ce4bgih2rcd13ifvqba0","pricing_plan_id":"cebpf4jnsgd1na2vs0mg"},{"bike_id":"5a291042-51a9-4959-b385-2a5b93f4d326","system_id":"levelo_inurba_marseille","lat":43.23151,"lon":5.43726,"is_reserved":false,"is_disabled":false,"rental_uris":{"android":"levelo://app?vid=5a291042-51a9-4959-b385-2a5b93f4d326","ios":"levelo://app?vid=5a291042-51a9-4959-b385-2a5b93f4d326"},"vehicle_type_id":"4","last_reported":1784404664,"current_range_meters":39200,"station_id":"ce4bhmp2rcd13ifvqgog","pricing_plan_id":"cebpf4jnsgd1na2vs0mg"},{"bike_id":"0c53f957-b497-43e1-8002-af65ac35f176","system_id":"levelo_inurba_marseille","lat":43.31661,"lon":5.40416,"is_reserved":false,"is_disabled":false,"rental_uris":{"android":"levelo://app?vid=0c53f957-b497-43e1-8002-af65ac35f176","ios":"levelo://app?vid=0c53f957-b497-43e1-8002-af65ac35f176"},"vehicle_type_id":"4","last_reported":1784404664,"current_range_meters":16800,"station_id":"ce4bh012rcd13ifvqd00","pricing_plan_id":"cebpf4jnsgd1na2vs0mg"},{"bike_id":"64d33c18-c4f3-4737-9577-b41e842a00fd","system_id":"levelo_inurba_marseille","lat":43.298462,"lon":5.362768,"is_reserved":false,"is_disabled":false,"rental_uris":{"android":"levelo://app?vid=64d33c18-c4f3-4737-9577-b41e842a00fd","ios":"levelo://app?vid=64d33c18-c4f3-4737-9577-b41e842a00fd"},"vehicle_type_id":"4","last_reported":1784404664,"current_range_meters":34800,"station_id":"ce4bgpp2rcd13ifvqc3g","pricing_plan_id":"cebpf4jnsgd1na2vs0mg"},{"bike_id":"01e7462b-b9cf-469e-92a6-2a1201a0f2a3","system_id":"levelo_inurba_marseille","lat":43.30522,"lon":5.3987,"is_reserved":false,"is_disabled":true,"rental_uris":{"android":"levelo://app?vid=01e7462b-b9cf-469e-92a6-2a1201a0f2a3","ios":"levelo://app?vid=01e7462b-b9cf-469e-92a6-2a1201a0f2a3"},"vehicle_type_id":"4","last_reported":1784404664,"current_range_meters":4000,"station_id":"","pricing_plan_id":"cebpf4jnsgd1na2vs0mg"},{"bike_id":"cf34fd26-0aa1-4673-91d4-93bedb42cc36","system_id":"levelo_inurba_marseille","lat":43.29537,"lon":5.38538,"is_reserved":false,"is_disabled":false,"rental_uris":{"android":"levelo://app?vid=cf34fd26-0aa1-4673-91d4-93bedb42cc36","ios":"levelo://app?vid=cf34fd26-0aa1-4673-91d4-93bedb42cc36"},"vehicle_type_id":"4","last_reported":1784404664,"current_range_meters":6400,"station_id":"ce4bgih2rcd13ifvqba0","pricing_plan_id":"cebpf4jnsgd1na2vs0mg"},{"bike_id":"2fd3fd2a-5afd-41dc-a0e5-4abd957555d4","system_id":"levelo_inurba_marseille","lat":43.2668,"lon":5.38252,"is_reserved":false,"is_disabled":false,"rental_uris":{"android":"levelo://app?vid=2fd3fd2a-5afd-41dc-a0e5-4abd957555d4","ios":"levelo://app?vid=2fd3fd2a-5afd-41dc-a0e5-4abd957555d4"},"vehicle_type_id":"4","last_reported":1784404664,"current_range_meters":16400,"station_id":"ce4bhg92rcd13ifvqf90","pricing_plan_id":"cebpf4jnsgd1na2vs0mg"},{"bike_id":"8b6331b3-2914-4282-8a4c-45cca24291f2","system_id":"levelo_inurba_marseille","lat":43.3093,"lon":5.40141,"is_reserved":false,"is_disabled":false,"rental_uris":{"android":"levelo://app?vid=8b6331b3-2914-4282-8a4c-45cca24291f2","ios":"levelo://app?vid=8b6331b3-2914-4282-8a4c-45cca24291f2"},"vehicle_type_id":"4","last_reported":1784404664,"current_range_meters":24400,"station_id":"","pricing_plan_id":"cebpf4jnsgd1na2vs0mg"},{"bike_id":"a287babe-2875-4e47-a1fc-a71e0666296b","system_id":"levelo_inurba_marseille","lat":43.260263,"lon":5.375491,"is_reserved":false,"is_disabled":false,"rental_uris":{"android":"levelo://app?vid=a287babe-2875-4e47-a1fc-a71e0666296b","ios":"levelo://app?vid=a287babe-2875-4e47-a1fc-a71e0666296b"},"vehicle_type_id":"4","last_reported":1784404664,"current_range_meters":24400,"station_id":"ce4bh392rcd13ifvqdm0","pricing_plan_id":"cebpf4jnsgd1na2vs0mg"},{"bike_id":"50b83ea6-d1b5-4da1-9e1c-4b28c63b1664","system_id":"levelo_inurba_marseille","lat":43.29386,"lon":5.37869,"is_reserved":false,"is_disabled":false,"rental_uris":{"android":"levelo://app?vid=50b83ea6-d1b5-4da1-9e1c-4b28c63b1664","ios":"levelo://app?vid=50b83ea6-d1b5-4da1-9e1c-4b28c63b1664"},"vehicle_type_id":"4","last_reported":1784404664,"current_range_meters":34000,"station_id":"ce4bgjh2rcd13ifvqbf0","pricing_plan_id":"cebpf4jnsgd1na2vs0mg"},{"bike_id":"0d3e100f-48fe-47e1-bef7-0a1dcfcc4955","system_id":"levelo_inurba_marseille","lat":43.33719,"lon":5.39207,"is_reserved":false,"is_disabled":false,"rental_uris":{"android":"levelo://app?vid=0d3e100f-48fe-47e1-bef7-0a1dcfcc4955","ios":"levelo://app?vid=0d3e100f-48fe-47e1-bef7-0a1dcfcc4955"},"vehicle_type_id":"4","last_reported":1784404664,"current_range_meters":39200,"station_id":"ce4bhr92rcd13ifvqhsg","pricing_plan_id":"cebpf4jnsgd1na2vs0mg"},{"bike_id":"f994dddc-9194-4b4c-a02e-45b8c9c31ce1","system_id":"levelo_inurba_marseille","lat":43.29584,"lon":5.37108,"is_reserved":false,"is_disabled":false,"rental_uris":{"android":"levelo://app?vid=f994dddc-9194-4b4c-a02e-45b8c9c31ce1","ios":"levelo://app?vid=f994dddc-9194-4b4c-a02e-45b8c9c31ce1"},"vehicle_type_id":"4","last_reported":1784404664,"current_range_meters":24000,"station_id":"","pricing_plan_id":"cebpf4jnsgd1na2vs0mg"},{"bike_id":"5e89ce48-0a58-4092-aa98-38dd3cf0e6c6","system_id":"levelo_inurba_marseille","lat":43.29272,"lon":5.38437,"is_reserved":false,"is_disabled":false,"rental_uris":{"android":"levelo://app?vid=5e89ce48-0a58-4092-aa98-38dd3cf0e6c6","ios":"levelo://app?vid=5e89ce48-0a58-4092-aa98-38dd3cf0e6c6"},"vehicle_type_id":"4","last_reported":1784404664,"current_range_meters":16800,"station_id":"ce4bh692rcd13ifvqea0","pricing_plan_id":"cebpf4jnsgd1na2vs0mg"},{"bike_id":"b2d315fe-e3fe-48fa-bd27-9ba5c262a693","system_id":"levelo_inurba_marseille","lat":43.30953,"lon":5.39039,"is_reserved":false,"is_disabled":false,"rental_uris":{"android":"levelo://app?vid=b2d315fe-e3fe-48fa-bd27-9ba5c262a693","ios":"levelo://app?vid=b2d315fe-e3fe-48fa-bd27-9ba5c262a693"},"vehicle_type_id":"4","last_reported":1784404664,"current_range_meters":10000,"station_id":"ce4bgup2rcd13ifvqco0","pricing_plan_id":"cebpf4jnsgd1na2vs0mg"},{"bike_id":"10ab9747-60d1-456c-988f-3885a506813c","system_id":"levelo_inurba_marseille","lat":43.2767,"lon":5.38894,"is_reserved":false,"is_disabled":false,"rental_uris":{"android":"levelo://app?vid=10ab9747-60d1-456c-988f-3885a506813c","ios":"levelo://app?vid=10ab9747-60d1-456c-988f-3885a506813c"},"vehicle_type_id":"4","last_reported":1784404664,"current_range_meters":30800,"station_id":"ce4bhi12rcd13ifvqfo0","pricing_plan_id":"cebpf4jnsgd1na2vs0mg"},{"bike_id":"e8da02a0-c0f8-4018-887f-99d8deba4ede","system_id":"levelo_inurba_marseille","lat":43.28933,"lon":5.3657,"is_reserved":false,"is_disabled":false,"rental_uris":{"android":"levelo://app?vid=e8da02a0-c0f8-4018-887f-99d8deba4ede","ios":"levelo://app?vid=e8da02a0-c0f8-4018-887f-99d8deba4ede"},"vehicle_type_id":"4","last_reported":1784404664,"current_range_meters":35200,"station_id":"ce4bhap2rcd13ifvqek0","pricing_plan_id":"cebpf4jnsgd1na2vs0mg"},{"bike_id":"9a4c1917-12d5-4fd0-beb9-9df30b58299b","system_id":"levelo_inurba_marseille","lat":43.23206,"lon":5.35563,"is_reserved":false,"is_disabled":false,"rental_uris":{"android":"levelo://app?vid=9a4c1917-12d5-4fd0-beb9-9df30b58299b","ios":"levelo://app?vid=9a4c1917-12d5-4fd0-beb9-9df30b58299b"},"vehicle_type_id":"4","last_reported":1784404664,"current_range_meters":38000,"station_id":"ce4bhu92rcd13ifvqi70","pricing_plan_id":"cebpf4jnsgd1na2vs0mg"},{"bike_id":"19d1c183-82a0-4677-880e-8a6faa8f1cc9","system_id":"levelo_inurba_marseille","lat":43.31896,"lon":5.36785,"is_reserved":false,"is_disabled":false,"rental_uris":{"android":"levelo://app?vid=19d1c183-82a0-4677-880e-8a6faa8f1cc9","ios":"levelo://app?vid=19d1c183-82a0-4677-880e-8a6faa8f1cc9"},"vehicle_type_id":"4","last_reported":1784404664,"current_range_meters":28000,"station_id":"st_d6o2h0d0559c73evc1b0","pricing_plan_id":"cebpf4jnsgd1na2vs0mg"},{"bike_id":"2e35ff17-f209-4373-a43c-409dc4586a55","system_id":"levelo_inurba_marseille","lat":43.29607,"lon":5.3715,"is_reserved":false,"is_disabled":false,"rental_uris":{"android":"levelo://app?vid=2e35ff17-f209-4373-a43c-409dc4586a55","ios":"levelo://app?vid=2e35ff17-f209-4373-a43c-409dc4586a55"},"vehicle_type_id":"4","last_reported":1784404664,"current_range_meters":2800,"station_id":"","pricing_plan_id":"cebpf4jnsgd1na2vs0mg"},{"bike_id":"bf92e73f-5ebb-482e-9b16-38b660c0b75a","system_id":"levelo_inurba_marseille","lat":43.21786,"lon":5.34657,"is_reserved":false,"is_disabled":true,"rental_uris":{"android":"levelo://app?vid=bf92e73f-5ebb-482e-9b16-38b660c0b75a","ios":"levelo://app?vid=bf92e73f-5ebb-482e-9b16-38b660c0b75a"},"vehicle_type_id":"4","last_reported":1784404664,"current_range_meters":4400,"station_id":"","pricing_plan_id":"cebpf4jnsgd1na2vs0mg"},{"bike_id":"daa023e8-7cb3-46f6-99b4-3cf66be94332","system_id":"levelo_inurba_marseille","lat":43.29305,"lon":5.37135,"is_reserved":false,"is_disabled":true,"rental_uris":{"android":"levelo://app?vid=daa023e8-7cb3-46f6-99b4-3cf66be94332","ios":"levelo://app?vid=daa023e8-7cb3-46f6-99b4-3cf66be94332"},"vehicle_type_id":"4","last_reported":1784404664,"current_range_meters":38400,"station_id":"ce4bgh92rcd13ifvqb40","pricing_plan_id":"cebpf4jnsgd1na2vs0mg"},{"bike_id":"98bce0f5-25e4-4db3-b698-d3dcf6d7b213","system_id":"levelo_inurba_marseille","lat":43.24804,"lon":5.37446,"is_reserved":false,"is_disabled":false,"rental_uris":{"android":"levelo://app?vid=98bce0f5-25e4-4db3-b698-d3dcf6d7b213","ios":"levelo://app?vid=98bce0f5-25e4-4db3-b698-d3dcf6d7b213"},"vehicle_type_id":"4","last_reported":1784404664,"current_range_meters":27200,"station_id":"ce4bhgh2rcd13ifvqfb0","pricing_plan_id":"cebpf4jnsgd1na2vs0mg"},{"bike_id":"277ec21a-9e91-4589-adae-7060a2494c44","system_id":"levelo_inurba_marseille","lat":43.29503,"lon":5.38526,"is_reserved":false,"is_disabled":false,"rental_uris":{"android":"levelo://app?vid=277ec21a-9e91-4589-adae-7060a2494c44","ios":"levelo://app?vid=277ec21a-9e91-4589-adae-7060a2494c44"},"vehicle_type_id":"4","last_reported":1784404664,"current_range_meters":19600,"station_id":"ce4bgih2rcd13ifvqba0","pricing_plan_id":"cebpf4jnsgd1na2vs0mg"},{"bike_id":"b2d8fb16-ca8a-4352-a5ad-67e22af42ad7","system_id":"levelo_inurba_marseille","lat":43.29288,"lon":5.3715,"is_reserved":false,"is_disabled":false,"rental_uris":{"android":"levelo://app?vid=b2d8fb16-ca8a-4352-a5ad-67e22af42ad7","ios":"levelo://app?vid=b2d8fb16-ca8a-4352-a5ad-67e22af42ad7"},"vehicle_type_id":"4","last_reported":1784404664,"current_range_meters":38800,"station_id":"ce4bgh92rcd13ifvqb40","pricing_plan_id":"cebpf4jnsgd1na2vs0mg"},{"bike_id":"65af711a-d8c8-4fc4-8cbc-dcd0786d28fa","system_id":"levelo_inurba_marseille","lat":43.28868,"lon":5.35859,"is_reserved":false,"is_disabled":true,"rental_uris":{"android":"levelo://app?vid=65af711a-d8c8-4fc4-8cbc-dcd0786d28fa","ios":"levelo://app?vid=65af711a-d8c8-4fc4-8cbc-dcd0786d28fa"},"vehicle_type_id":"4","last_reported":1784404664,"current_range_meters":22000,"station_id":"ce4bhb12rcd13ifvqem0","pricing_plan_id":"cebpf4jnsgd1na2vs0mg"},{"bike_id":"f0da9134-f11f-4f60-a3b4-bd91a12f57b2","system_id":"levelo_inurba_marseille","lat":43.29991,"lon":5.38781,"is_reserved":false,"is_disabled":false,"rental_uris":{"android":"levelo://app?vid=f0da9134-f11f-4f60-a3b4-bd91a12f57b2","ios":"levelo://app?vid=f0da9134-f11f-4f60-a3b4-bd91a12f57b2"},"vehicle_type_id":"4","last_reported":1784404664,"current_range_meters":19200,"station_id":"","pricing_plan_id":"cebpf4jnsgd1na2vs0mg"},{"bike_id":"69ad72e4-e4db-4835-9992-4a595ceeb796","system_id":"levelo_inurba_marseille","lat":43.29004,"lon":5.35621,"is_reserved":false,"is_disabled":false,"rental_uris":{"android":"levelo://app?vid=69ad72e4-e4db-4835-9992-4a595ceeb796","ios":"levelo://app?vid=69ad72e4-e4db-4835-9992-4a595ceeb796"},"vehicle_type_id":"4","last_reported":1784404664,"current_range_meters":38000,"station_id":"ce4bhb92rcd13ifvqen0","pricing_plan_id":"cebpf4jnsgd1na2vs0mg"},{"bike_id":"e33e7e56-b1af-4e57-9514-4de84c42a5c6","system_id":"levelo_inurba_marseille","lat":43.2396,"lon":5.36618,"is_reserved":false,"is_disabled":true,"rental_uris":{"android":"levelo://app?vid=e33e7e56-b1af-4e57-9514-4de84c42a5c6","ios":"levelo://app?vid=e33e7e56-b1af-4e57-9514-4de84c42a5c6"},"vehicle_type_id":"4","last_reported":1784404664,"current_range_meters":24400,"station_id":"ce4bhi12rcd13ifvqfp0","pricing_plan_id":"cebpf4jnsgd1na2vs0mg"},{"bike_id":"7604574c-06cb-407e-9e16-b7858411e1bc","system_id":"levelo_inurba_marseille","lat":43.278,"lon":5.40756,"is_reserved":false,"is_disabled":true,"rental_uris":{"android":"levelo://app?vid=7604574c-06cb-407e-9e16-b7858411e1bc","ios":"levelo://app?vid=7604574c-06cb-407e-9e16-b7858411e1bc"},"vehicle_type_id":"4","last_reported":1784404664,"current_range_meters":17600,"station_id":"ce4bhnh2rcd13ifvqgtg","pricing_plan_id":"cebpf4jnsgd1na2vs0mg"},{"bike_id":"600d3649-4b6d-473c-a715-d27921e00684","system_id":"levelo_inurba_marseille","lat":43.23193,"lon":5.3554,"is_reserved":false,"is_disabled":false,"rental_uris":{"android":"levelo://app?vid=600d3649-4b6d-473c-a715-d27921e00684","ios":"levelo://app?vid=600d3649-4b6d-473c-a715-d27921e00684"},"vehicle_type_id":"4","last_reported":1784404664,"current_range_meters":21600,"station_id":"ce4bhu92rcd13ifvqi70","pricing_plan_id":"cebpf4jnsgd1na2vs0mg"},{"bike_id":"2a36e993-433d-4bb8-ae19-599287280205","system_id":"levelo_inurba_marseille","lat":43.3122,"lon":5.36869,"is_reserved":false,"is_disabled":false,"rental_uris":{"android":"levelo://app?vid=2a36e993-433d-4bb8-ae19-599287280205","ios":"levelo://app?vid=2a36e993-433d-4bb8-ae19-599287280205"},"vehicle_type_id":"4","last_reported":1784404664,"current_range_meters":36000,"station_id":"ce4bgl92rcd13ifvqbq0","pricing_plan_id":"cebpf4jnsgd1na2vs0mg"},{"bike_id":"8601b829-59f8-4eab-bab2-2f8e891d8617","system_id":"levelo_inurba_marseille","lat":43.254993,"lon":5.376487,"is_reserved":false,"is_disabled":false,"rental_uris":{"android":"levelo://app?vid=8601b829-59f8-4eab-bab2-2f8e891d8617","ios":"levelo://app?vid=8601b829-59f8-4eab-bab2-2f8e891d8617"},"vehicle_type_id":"4","last_reported":1784404664,"current_range_meters":24400,"station_id":"ce4bhh12rcd13ifvqff0","pricing_plan_id":"cebpf4jnsgd1na2vs0mg"},{"bike_id":"716f162a-5575-4d63-902c-a48b4ef658b0","system_id":"levelo_inurba_marseille","lat":43.26277,"lon":5.40452,"is_reserved":false,"is_disabled":false,"rental_uris":{"android":"levelo://app?vid=716f162a-5575-4d63-902c-a48b4ef658b0","ios":"levelo://app?vid=716f162a-5575-4d63-902c-a48b4ef658b0"},"vehicle_type_id":"4","last_reported":1784404664,"current_range_meters":25200,"station_id":"ce4bhmh2rcd13ifvqgmg","pricing_plan_id":"cebpf4jnsgd1na2vs0mg"},{"bike_id":"be7fdb4c-b38f-4a49-9af0-cfb20f5eabeb","system_id":"levelo_inurba_marseille","lat":43.30261,"lon":5.40084,"is_reserved":false,"is_disabled":false,"rental_uris":{"android":"levelo://app?vid=be7fdb4c-b38f-4a49-9af0-cfb20f5eabeb","ios":"levelo://app?vid=be7fdb4c-b38f-4a49-9af0-cfb20f5eabeb"},"vehicle_type_id":"4","last_reported":1784404664,"current_range_meters":5600,"station_id":"ce4bgvh2rcd13ifvqcs0","pricing_plan_id":"cebpf4jnsgd1na2vs0mg"},{"bike_id":"81959744-4786-4515-8028-caa8a3c86e5c","system_id":"levelo_inurba_marseille","lat":43.23896,"lon":5.37456,"is_reserved":false,"is_disabled":false,"rental_uris":{"android":"levelo://app?vid=81959744-4786-4515-8028-caa8a3c86e5c","ios":"levelo://app?vid=81959744-4786-4515-8028-caa8a3c86e5c"},"vehicle_type_id":"4","last_reported":1784404664,"current_range_meters":38400,"station_id":"st_d6sm7csbq4hs73f8fpjg","pricing_plan_id":"cebpf4jnsgd1na2vs0mg"},{"bike_id":"5c86d26e-fc15-401d-adac-561cb979e7f8","system_id":"levelo_inurba_marseille","lat":43.2318,"lon":5.3998,"is_reserved":false,"is_disabled":false,"rental_uris":{"android":"levelo://app?vid=5c86d26e-fc15-401d-adac-561cb979e7f8","ios":"levelo://app?vid=5c86d26e-fc15-401d-adac-561cb979e7f8"},"vehicle_type_id":"4","last_reported":1784404664,"current_range_meters":12000,"station_id":"ce4bhn12rcd13ifvqgqg","pricing_plan_id":"cebpf4jnsgd1na2vs0mg"},{"bike_id":"456b2f69-1aac-4cc7-8f9c-8249bfc29f35","system_id":"levelo_inurba_marseille","lat":43.29686,"lon":5.373,"is_reserved":false,"is_disabled":false,"rental_uris":{"android":"levelo://app?vid=456b2f69-1aac-4cc7-8f9c-8249bfc29f35","ios":"levelo://app?vid=456b2f69-1aac-4cc7-8f9c-8249bfc29f35"},"vehicle_type_id":"4","last_reported":1784404664,"current_range_meters":33600,"station_id":"ce4bgk12rcd13ifvqbj0","pricing_plan_id":"cebpf4jnsgd1na2vs0mg"},{"bike_id":"53a762e3-9eff-483e-a015-09a963601b51","system_id":"levelo_inurba_marseille","lat":43.29815,"lon":5.37118,"is_reserved":false,"is_disabled":false,"rental_uris":{"android":"levelo://app?vid=53a762e3-9eff-483e-a015-09a963601b51","ios":"levelo://app?vid=53a762e3-9eff-483e-a015-09a963601b51"},"vehicle_type_id":"4","last_reported":1784404664,"current_range_meters":11200,"station_id":"ce4bgop2rcd13ifvqc1g","pricing_plan_id":"cebpf4jnsgd1na2vs0mg"},{"bike_id":"9e7b599e-2368-470a-996a-9e46d15e7da0","system_id":"levelo_inurba_marseille","lat":43.2573,"lon":5.41108,"is_reserved":false,"is_disabled":false,"rental_uris":{"android":"levelo://app?vid=9e7b599e-2368-470a-996a-9e46d15e7da0","ios":"levelo://app?vid=9e7b599e-2368-470a-996a-9e46d15e7da0"},"vehicle_type_id":"4","last_reported":1784404664,"current_range_meters":30000,"station_id":"ce4bhkp2rcd13ifvqgd0","pricing_plan_id":"cebpf4jnsgd1na2vs0mg"},{"bike_id":"b10bc4e1-5c04-4f75-834c-c90c4a236dfa","system_id":"levelo_inurba_marseille","lat":43.30136,"lon":5.37428,"is_reserved":false,"is_disabled":false,"rental_uris":{"android":"levelo://app?vid=b10bc4e1-5c04-4f75-834c-c90c4a236dfa","ios":"levelo://app?vid=b10bc4e1-5c04-4f75-834c-c90c4a236dfa"},"vehicle_type_id":"4","last_reported":1784404664,"current_range_meters":39200,"station_id":"ce4bgs92rcd13ifvqcc0","pricing_plan_id":"cebpf4jnsgd1na2vs0mg"},{"bike_id":"a8449df9-3dcb-423e-8663-39e92b6c6df2","system_id":"levelo_inurba_marseille","lat":43.24824,"lon":5.37469,"is_reserved":false,"is_disabled":false,"rental_uris":{"android":"levelo://app?vid=a8449df9-3dcb-423e-8663-39e92b6c6df2","ios":"levelo://app?vid=a8449df9-3dcb-423e-8663-39e92b6c6df2"},"vehicle_type_id":"4","last_reported":1784404664,"current_range_meters":39200,"station_id":"ce4bhgh2rcd13ifvqfb0","pricing_plan_id":"cebpf4jnsgd1na2vs0mg"},{"bike_id":"f8682a6c-9f4b-4dea-838f-0babf71005da","system_id":"levelo_inurba_marseille","lat":43.24818,"lon":5.3745,"is_reserved":false,"is_disabled":false,"rental_uris":{"android":"levelo://app?vid=f8682a6c-9f4b-4dea-838f-0babf71005da","ios":"levelo://app?vid=f8682a6c-9f4b-4dea-838f-0babf71005da"},"vehicle_type_id":"4","last_reported":1784404664,"current_range_meters":39200,"station_id":"ce4bhgh2rcd13ifvqfb0","pricing_plan_id":"cebpf4jnsgd1na2vs0mg"},{"bike_id":"f09dcdf7-b880-45f2-8663-b12aa4a58089","system_id":"levelo_inurba_marseille","lat":43.32298,"lon":5.38281,"is_reserved":false,"is_disabled":false,"rental_uris":{"android":"levelo://app?vid=f09dcdf7-b880-45f2-8663-b12aa4a58089","ios":"levelo://app?vid=f09dcdf7-b880-45f2-8663-b12aa4a58089"},"vehicle_type_id":"4","last_reported":1784404664,"current_range_meters":40000,"station_id":"ce4bhr12rcd13ifvqhqg","pricing_plan_id":"cebpf4jnsgd1na2vs0mg"},{"bike_id":"2fab2bf4-eaeb-4215-beeb-cdf2200bdc77","system_id":"levelo_inurba_marseille","lat":43.23176,"lon":5.40029,"is_reserved":false,"is_disabled":false,"rental_uris":{"android":"levelo://app?vid=2fab2bf4-eaeb-4215-beeb-cdf2200bdc77","ios":"levelo://app?vid=2fab2bf4-eaeb-4215-beeb-cdf2200bdc77"},"vehicle_type_id":"4","last_reported":1784404664,"current_range_meters":35200,"station_id":"ce4bhn12rcd13ifvqgqg","pricing_plan_id":"cebpf4jnsgd1na2vs0mg"},{"bike_id":"3a7bc097-3d28-4f52-88ed-d3904da59c29","system_id":"levelo_inurba_marseille","lat":43.24483,"lon":5.42545,"is_reserved":false,"is_disabled":false,"rental_uris":{"android":"levelo://app?vid=3a7bc097-3d28-4f52-88ed-d3904da59c29","ios":"levelo://app?vid=3a7bc097-3d28-4f52-88ed-d3904da59c29"},"vehicle_type_id":"4","last_reported":1784404664,"current_range_meters":4800,"station_id":"st_d4a3vfp97mjs738cd8kg","pricing_plan_id":"cebpf4jnsgd1na2vs0mg"},{"bike_id":"659a68bc-86a6-4daf-9f1f-d3e7a32b91b8","system_id":"levelo_inurba_marseille","lat":43.23192,"lon":5.35541,"is_reserved":false,"is_disabled":false,"rental_uris":{"android":"levelo://app?vid=659a68bc-86a6-4daf-9f1f-d3e7a32b91b8","ios":"levelo://app?vid=659a68bc-86a6-4daf-9f1f-d3e7a32b91b8"},"vehicle_type_id":"4","last_reported":1784404664,"current_range_meters":38400,"station_id":"ce4bhu92rcd13ifvqi70","pricing_plan_id":"cebpf4jnsgd1na2vs0mg"},{"bike_id":"dd68f0d2-2405-425c-8bb2-3b99c67d8450","system_id":"levelo_inurba_marseille","lat":43.23891,"lon":5.37462,"is_reserved":false,"is_disabled":false,"rental_uris":{"android":"levelo://app?vid=dd68f0d2-2405-425c-8bb2-3b99c67d8450","ios":"levelo://app?vid=dd68f0d2-2405-425c-8bb2-3b99c67d8450"},"vehicle_type_id":"4","last_reported":1784404664,"current_range_meters":6000,"station_id":"st_d6sm7csbq4hs73f8fpjg","pricing_plan_id":"cebpf4jnsgd1na2vs0mg"},{"bike_id":"098cb1b0-aa89-454f-9bc2-2c4ea2f0e0ee","system_id":"levelo_inurba_marseille","lat":43.31587,"lon":5.4052,"is_reserved":false,"is_disabled":false,"rental_uris":{"android":"levelo://app?vid=098cb1b0-aa89-454f-9bc2-2c4ea2f0e0ee","ios":"levelo://app?vid=098cb1b0-aa89-454f-9bc2-2c4ea2f0e0ee"},"vehicle_type_id":"4","last_reported":1784404664,"current_range_meters":16000,"station_id":"","pricing_plan_id":"cebpf4jnsgd1na2vs0mg"},{"bike_id":"5e1cad78-c276-4d77-a65d-8173bc29cb67","system_id":"levelo_inurba_marseille","lat":43.25119,"lon":5.41009,"is_reserved":false,"is_disabled":false,"rental_uris":{"android":"levelo://app?vid=5e1cad78-c276-4d77-a65d-8173bc29cb67","ios":"levelo://app?vid=5e1cad78-c276-4d77-a65d-8173bc29cb67"},"vehicle_type_id":"4","last_reported":1784404664,"current_range_meters":35600,"station_id":"","pricing_plan_id":"cebpf4jnsgd1na2vs0mg"},{"bike_id":"2f35960b-8b85-4611-a5a3-b96abd996dfc","system_id":"levelo_inurba_marseille","lat":43.28146,"lon":5.42658,"is_reserved":false,"is_disabled":false,"rental_uris":{"android":"levelo://app?vid=2f35960b-8b85-4611-a5a3-b96abd996dfc","ios":"levelo://app?vid=2f35960b-8b85-4611-a5a3-b96abd996dfc"},"vehicle_type_id":"4","last_reported":1784404664,"current_range_meters":7200,"station_id":"ce4bhnh2rcd13ifvqgug","pricing_plan_id":"cebpf4jnsgd1na2vs0mg"},{"bike_id":"be6bb617-0345-47d0-a9a1-2dfad3491c00","system_id":"levelo_inurba_marseille","lat":43.25516,"lon":5.37665,"is_reserved":false,"is_disabled":false,"rental_uris":{"android":"levelo://app?vid=be6bb617-0345-47d0-a9a1-2dfad3491c00","ios":"levelo://app?vid=be6bb617-0345-47d0-a9a1-2dfad3491c00"},"vehicle_type_id":"4","last_reported":1784404664,"current_range_meters":37600,"station_id":"ce4bhh12rcd13ifvqff0","pricing_plan_id":"cebpf4jnsgd1na2vs0mg"},{"bike_id":"dcdd3db2-0fa6-41c2-891b-f3d0c3492165","system_id":"levelo_inurba_marseille","lat":43.29848,"lon":5.36275,"is_reserved":false,"is_disabled":false,"rental_uris":{"android":"levelo://app?vid=dcdd3db2-0fa6-41c2-891b-f3d0c3492165","ios":"levelo://app?vid=dcdd3db2-0fa6-41c2-891b-f3d0c3492165"},"vehicle_type_id":"4","last_reported":1784404664,"current_range_meters":8400,"station_id":"ce4bgpp2rcd13ifvqc3g","pricing_plan_id":"cebpf4jnsgd1na2vs0mg"},{"bike_id":"5a29e6f3-d0ba-49e7-af5d-f8e60471c1fc","system_id":"levelo_inurba_marseille","lat":43.27449,"lon":5.42515,"is_reserved":false,"is_disabled":true,"rental_uris":{"android":"levelo://app?vid=5a29e6f3-d0ba-49e7-af5d-f8e60471c1fc","ios":"levelo://app?vid=5a29e6f3-d0ba-49e7-af5d-f8e60471c1fc"},"vehicle_type_id":"4","last_reported":1784404664,"current_range_meters":6400,"station_id":"st_d8t4bh7nbrqs73arha60","pricing_plan_id":"cebpf4jnsgd1na2vs0mg"},{"bike_id":"6e2d7e69-8df1-40a6-90f7-e69b5c931535","system_id":"levelo_inurba_marseille","lat":43.229331,"lon":5.353792,"is_reserved":false,"is_disabled":false,"rental_uris":{"android":"levelo://app?vid=6e2d7e69-8df1-40a6-90f7-e69b5c931535","ios":"levelo://app?vid=6e2d7e69-8df1-40a6-90f7-e69b5c931535"},"vehicle_type_id":"4","last_reported":1784404664,"current_range_meters":26000,"station_id":"st_cvj5dfep6f1abm77gieg","pricing_plan_id":"cebpf4jnsgd1na2vs0mg"},{"bike_id":"d3b82640-d84c-42c7-8c57-b5a14f4fcab5","system_id":"levelo_inurba_marseille","lat":43.30872,"lon":5.37203,"is_reserved":false,"is_disabled":false,"rental_uris":{"android":"levelo://app?vid=d3b82640-d84c-42c7-8c57-b5a14f4fcab5","ios":"levelo://app?vid=d3b82640-d84c-42c7-8c57-b5a14f4fcab5"},"vehicle_type_id":"4","last_reported":1784404664,"current_range_meters":33600,"station_id":"ce4bguh2rcd13ifvqckg","pricing_plan_id":"cebpf4jnsgd1na2vs0mg"},{"bike_id":"53468b7c-aa52-4cfa-8f33-b13218c071d3","system_id":"levelo_inurba_marseille","lat":43.30252,"lon":5.40071,"is_reserved":false,"is_disabled":false,"rental_uris":{"android":"levelo://app?vid=53468b7c-aa52-4cfa-8f33-b13218c071d3","ios":"levelo://app?vid=53468b7c-aa52-4cfa-8f33-b13218c071d3"},"vehicle_type_id":"4","last_reported":1784404664,"current_range_meters":6400,"station_id":"ce4bgvh2rcd13ifvqcs0","pricing_plan_id":"cebpf4jnsgd1na2vs0mg"},{"bike_id":"57c66e41-d905-4d3e-bdab-9d946f2a37e8","system_id":"levelo_inurba_marseille","lat":43.286134,"lon":5.350956,"is_reserved":false,"is_disabled":false,"rental_uris":{"android":"levelo://app?vid=57c66e41-d905-4d3e-bdab-9d946f2a37e8","ios":"levelo://app?vid=57c66e41-d905-4d3e-bdab-9d946f2a37e8"},"vehicle_type_id":"4","last_reported":1784404664,"current_range_meters":24400,"station_id":"ce4bhch2rcd13ifvqeug","pricing_plan_id":"cebpf4jnsgd1na2vs0mg"},{"bike_id":"e3ff8ca4-8ba7-4046-9b4a-98c60d461c45","system_id":"levelo_inurba_marseille","lat":43.29076,"lon":5.38173,"is_reserved":false,"is_disabled":false,"rental_uris":{"android":"levelo://app?vid=e3ff8ca4-8ba7-4046-9b4a-98c60d461c45","ios":"levelo://app?vid=e3ff8ca4-8ba7-4046-9b4a-98c60d461c45"},"vehicle_type_id":"4","last_reported":1784404664,"current_range_meters":38400,"station_id":"ce4bh512rcd13ifvqe2g","pricing_plan_id":"cebpf4jnsgd1na2vs0mg"},{"bike_id":"50aa6815-cb65-48bd-999a-1d2dfbbe24c7","system_id":"levelo_inurba_marseille","lat":43.28479,"lon":5.48423,"is_reserved":false,"is_disabled":false,"rental_uris":{"android":"levelo://app?vid=50aa6815-cb65-48bd-999a-1d2dfbbe24c7","ios":"levelo://app?vid=50aa6815-cb65-48bd-999a-1d2dfbbe24c7"},"vehicle_type_id":"4","last_reported":1784404664,"current_range_meters":38800,"station_id":"st_d3svhcjqgbts73a3dn0g","pricing_plan_id":"cebpf4jnsgd1na2vs0mg"},{"bike_id":"9bb0fd1c-c37f-4b19-9d13-0a17680fd6fb","system_id":"levelo_inurba_marseille","lat":43.32109,"lon":5.36797,"is_reserved":false,"is_disabled":false,"rental_uris":{"android":"levelo://app?vid=9bb0fd1c-c37f-4b19-9d13-0a17680fd6fb","ios":"levelo://app?vid=9bb0fd1c-c37f-4b19-9d13-0a17680fd6fb"},"vehicle_type_id":"4","last_reported":1784404664,"current_range_meters":25200,"station_id":"ce4bhrh2rcd13ifvqhug","pricing_plan_id":"cebpf4jnsgd1na2vs0mg"},{"bike_id":"24edfabe-0d7c-415b-8cf6-84bf60d5e889","system_id":"levelo_inurba_marseille","lat":43.26991,"lon":5.42816,"is_reserved":false,"is_disabled":false,"rental_uris":{"android":"levelo://app?vid=24edfabe-0d7c-415b-8cf6-84bf60d5e889","ios":"levelo://app?vid=24edfabe-0d7c-415b-8cf6-84bf60d5e889"},"vehicle_type_id":"4","last_reported":1784404664,"current_range_meters":10800,"station_id":"","pricing_plan_id":"cebpf4jnsgd1na2vs0mg"},{"bike_id":"9e58c0fe-b43a-488c-be45-c838af5856b5","system_id":"levelo_inurba_marseille","lat":43.265,"lon":5.39538,"is_reserved":false,"is_disabled":false,"rental_uris":{"android":"levelo://app?vid=9e58c0fe-b43a-488c-be45-c838af5856b5","ios":"levelo://app?vid=9e58c0fe-b43a-488c-be45-c838af5856b5"},"vehicle_type_id":"4","last_reported":1784404664,"current_range_meters":6800,"station_id":"ce4bhi12rcd13ifvqfq0","pricing_plan_id":"cebpf4jnsgd1na2vs0mg"},{"bike_id":"ecae76fb-7cd6-40eb-8bd3-8ce7e9fee051","system_id":"levelo_inurba_marseille","lat":43.30947,"lon":5.39054,"is_reserved":false,"is_disabled":false,"rental_uris":{"android":"levelo://app?vid=ecae76fb-7cd6-40eb-8bd3-8ce7e9fee051","ios":"levelo://app?vid=ecae76fb-7cd6-40eb-8bd3-8ce7e9fee051"},"vehicle_type_id":"4","last_reported":1784404664,"current_range_meters":35600,"station_id":"ce4bgup2rcd13ifvqco0","pricing_plan_id":"cebpf4jnsgd1na2vs0mg"},{"bike_id":"5caa5fe3-e685-4b61-829b-c8aa8b73f49f","system_id":"levelo_inurba_marseille","lat":43.28725,"lon":5.36085,"is_reserved":false,"is_disabled":false,"rental_uris":{"android":"levelo://app?vid=5caa5fe3-e685-4b61-829b-c8aa8b73f49f","ios":"levelo://app?vid=5caa5fe3-e685-4b61-829b-c8aa8b73f49f"},"vehicle_type_id":"4","last_reported":1784404664,"current_range_meters":32400,"station_id":"cki0cbj6b192h4jlfktg","pricing_plan_id":"cebpf4jnsgd1na2vs0mg"},{"bike_id":"4e7f76f1-a450-44ad-9e04-777888c5bf9e","system_id":"levelo_inurba_marseille","lat":43.23192,"lon":5.35562,"is_reserved":false,"is_disabled":false,"rental_uris":{"android":"levelo://app?vid=4e7f76f1-a450-44ad-9e04-777888c5bf9e","ios":"levelo://app?vid=4e7f76f1-a450-44ad-9e04-777888c5bf9e"},"vehicle_type_id":"4","last_reported":1784404664,"current_range_meters":6800,"station_id":"ce4bhu92rcd13ifvqi70","pricing_plan_id":"cebpf4jnsgd1na2vs0mg"},{"bike_id":"8c008012-2029-4ba4-ba81-7cd103ac06e9","system_id":"levelo_inurba_marseille","lat":43.35311,"lon":5.36824,"is_reserved":false,"is_disabled":false,"rental_uris":{"android":"levelo://app?vid=8c008012-2029-4ba4-ba81-7cd103ac06e9","ios":"levelo://app?vid=8c008012-2029-4ba4-ba81-7cd103ac06e9"},"vehicle_type_id":"4","last_reported":1784404664,"current_range_meters":16400,"station_id":"","pricing_plan_id":"cebpf4jnsgd1na2vs0mg"},{"bike_id":"a86deb64-24a8-41a6-a9c7-d169fc97becf","system_id":"levelo_inurba_marseille","lat":43.33759,"lon":5.37448,"is_reserved":false,"is_disabled":false,"rental_uris":{"android":"levelo://app?vid=a86deb64-24a8-41a6-a9c7-d169fc97becf","ios":"levelo://app?vid=a86deb64-24a8-41a6-a9c7-d169fc97becf"},"vehicle_type_id":"4","last_reported":1784404664,"current_range_meters":31200,"station_id":"","pricing_plan_id":"cebpf4jnsgd1na2vs0mg"},{"bike_id":"6e070d4f-356d-412b-bd5d-2d333c502217","system_id":"levelo_inurba_marseille","lat":43.28231,"lon":5.39067,"is_reserved":false,"is_disabled":false,"rental_uris":{"android":"levelo://app?vid=6e070d4f-356d-412b-bd5d-2d333c502217","ios":"levelo://app?vid=6e070d4f-356d-412b-bd5d-2d333c502217"},"vehicle_type_id":"4","last_reported":1784404664,"current_range_meters":8000,"station_id":"ce4bhn92rcd13ifvqgsg","pricing_plan_id":"cebpf4jnsgd1na2vs0mg"},