{"last_updated":1703606894,"ttl":30,"version":"2.2","data":{"bikes":[{"bike_id":"05961405-46d4-4f65-8867-86cb7bdc5efa","system_id":"levelo_inurba_marseille","lat":43.309076,"lon":5.368465,"is_reserved":false,"is_disabled":false,"rental_uris":{"android":"levelo://app?vid=05961405-46d4-4f65-8867-86cb7bdc5efa","ios":"levelo://app?vid=05961405-46d4-4f65-8867-86cb7bdc5efa"},"vehicle_type_id":"4","last_reported":1703606894,"current_range_meters":24800,"station_id":"ce4bgn92rcd13ifvqbvg","pricing_plan_id":"free"},{"bike_id":"6aa30c3b-0f5f-46fc-a6ba-57d961d7b0f0","system_id":"levelo_inurba_marseille","lat":43.309076,"lon":5.368465,"is_reserved":false,"is_disabled":false,"rental_uris":{"android":"levelo://app?vid=6aa30c3b-0f5f-46fc-a6ba-57d961d7b0f0","ios":"levelo://app?vid=6aa30c3b-0f5f-46fc-a6ba-57d961d7b0f0"},"vehicle_type_id":"4","last_reported":1703606894,"current_range_meters":22000,"station_id":"ce4bgn92rcd13ifvqbvg","pricing_plan_id":"free"},{"bike_id":"98fc8f36-009c-49c0-bde9-eaacf0237add","system_id":"levelo_inurba_marseille","lat":43.314936,"lon":5.373934,"is_reserved":false,"is_disabled":false,"rental_uris":{"android":"levelo://app?vid=98fc8f36-009c-49c0-bde9-eaacf0237add","ios":"levelo://app?vid=98fc8f36-009c-49c0-bde9-eaacf0237add"},"vehicle_type_id":"4","last_reported":1703606894,"current_range_meters":25200,"station_id":"","pricing_plan_id":"free"},{"bike_id":"437be774-9347-4f56-865e-861017296255","system_id":"levelo_inurba_marseille","lat":43.318964,"lon":5.36877,"is_reserved":false,"is_disabled":false,"rental_uris":{"android":"levelo://app?vid=437be774-9347-4f56-865e-861017296255","ios":"levelo://app?vid=437be774-9347-4f56-865e-861017296255"},"vehicle_type_id":"4","last_reported":1703606894,"current_range_meters":11600,"station_id":"","pricing_plan_id":"free"},{"bike_id":"d035208e-fd28-4b6b-8af7-154ed7487ccc","system_id":"levelo_inurba_marseille","lat":43.305712,"lon":5.365641,"is_reserved":false,"is_disabled":false,"rental_uris":{"android":"levelo://app?vid=d035208e-fd28-4b6b-8af7-154ed7487ccc","ios":"levelo://app?vid=d035208e-fd28-4b6b-8af7-154ed7487ccc"},"vehicle_type_id":"4","last_reported":1703606894,"current_range_meters":14000,"station_id":"ce4bgs12rcd13ifvqcag","pricing_plan_id":"free"},{"bike_id":"ed0ee458-d167-4624-8c61-96e3c5ea9645","system_id":"levelo_inurba_marseille","lat":43.305706,"lon":5.365654,"is_reserved":false,"is_disabled":false,"rental_uris":{"android":"levelo://app?vid=ed0ee458-d167-4624-8c61-96e3c5ea9645","ios":"levelo://app?vid=ed0ee458-d167-4624-8c61-96e3c5ea9645"},"vehicle_type_id":"4","last_reported":1703606894,"current_range_meters":1600,"station_id":"ce4bgs12rcd13ifvqcag","pricing_plan_id":"free"},{"bike_id":"1cb2b7d9-a5f7-4b8b-8fdb-d35d5a789c50","system_id":"levelo_inurba_marseille","lat":43.305989,"lon":5.37225,"is_reserved":false,"is_disabled":false,"rental_uris":{"android":"levelo://app?vid=1cb2b7d9-a5f7-4b8b-8fdb-d35d5a789c50","ios":"levelo://app?vid=1cb2b7d9-a5f7-4b8b-8fdb-d35d5a789c50"},"vehicle_type_id":"4","last_reported":1703606894,"current_range_meters":4400,"station_id":"ce4bgqh2rcd13ifvqc4g","pricing_plan_id":"free"},{"bike_id":"f5485fb3-6908-4a19-9802-f3271733bbef","system_id":"levelo_inurba_marseille","lat":43.307945,"lon":5.376487,"is_reserved":false,"is_disabled":false,"rental_uris":{"android":"levelo://app?vid=f5485fb3-6908-4a19-9802-f3271733bbef","ios":"levelo://app?vid=f5485fb3-6908-4a19-9802-f3271733bbef"},"vehicle_type_id":"4","last_reported":1703606894,"current_range_meters":2000,"station_id":"ce4bgv92rcd13ifvqcq0","pricing_plan_id":"free"},{"bike_id":"6229a11e-67ff-4128-994f-a106996e1234","system_id":"levelo_inurba_marseille","lat":43.31,"lon":5.38157,"is_reserved":false,"is_disabled":false,"rental_uris":{"android":"levelo://app?vid=6229a11e-67ff-4128-994f-a106996e1234","ios":"levelo://app?vid=6229a11e-67ff-4128-994f-a106996e1234"},"vehicle_type_id":"4","last_reported":1703606894,"current_range_meters":22400,"station_id":"","pricing_plan_id":"free"},{"bike_id":"a14c9360-724c-4f3a-a46b-f91814898a85","system_id":"levelo_inurba_marseille","lat":43.308012,"lon":5.381511,"is_reserved":false,"is_disabled":false,"rental_uris":{"android":"levelo://app?vid=a14c9360-724c-4f3a-a46b-f91814898a85","ios":"levelo://app?vid=a14c9360-724c-4f3a-a46b-f91814898a85"},"vehicle_type_id":"4","last_reported":1703606894,"current_range_meters":27200,"station_id":"ce4bgt12rcd13ifvqce0","pricing_plan_id":"free"},{"bike_id":"a6e61589-8327-4977-9154-16206089e3bb","system_id":"levelo_inurba_marseille","lat":43.308012,"lon":5.381511,"is_reserved":false,"is_disabled":false,"rental_uris":{"android":"levelo://app?vid=a6e61589-8327-4977-9154-16206089e3bb","ios":"levelo://app?vid=a6e61589-8327-4977-9154-16206089e3bb"},"vehicle_type_id":"4","last_reported":1703606894,"current_range_meters":22400,"station_id":"ce4bgt12rcd13ifvqce0","pricing_plan_id":"free"},{"bike_id":"f9c0218b-5208-4023-a3a0-7953bfc9adf2","system_id":"levelo_inurba_marseille","lat":43.304678,"lon":5.37895,"is_reserved":false,"is_disabled":false,"rental_uris":{"android":"levelo://app?vid=f9c0218b-5208-4023-a3a0-7953bfc9adf2","ios":"levelo://app?vid=f9c0218b-5208-4023-a3a0-7953bfc9adf2"},"vehicle_type_id":"4","last_reported":1703606894,"current_range_meters":31200,"station_id":"ce4bgup2rcd13ifvqcn0","pricing_plan_id":"free"},{"bike_id":"015f3b0c-adfc-4673-bcc3-428f9b23222e","system_id":"levelo_inurba_marseille","lat":43.30471,"lon":5.37901,"is_reserved":false,"is_disabled":false,"rental_uris":{"android":"levelo://app?vid=015f3b0c-adfc-4673-bcc3-428f9b23222e","ios":"levelo://app?vid=015f3b0c-adfc-4673-bcc3-428f9b23222e"},"vehicle_type_id":"4","last_reported":1703606894,"current_range_meters":21200,"station_id":"ce4bgup2rcd13ifvqcn0","pricing_plan_id":"free"},{"bike_id":"22d71a78-2a5f-4c0b-882e-b54c45e425b9","system_id":"levelo_inurba_marseille","lat":43.30465,"lon":5.379,"is_reserved":false,"is_disabled":false,"rental_uris":{"android":"levelo://app?vid=22d71a78-2a5f-4c0b-882e-b54c45e425b9","ios":"levelo://app?vid=22d71a78-2a5f-4c0b-882e-b54c45e425b9"},"vehicle_type_id":"4","last_reported":1703606894,"current_range_meters":31200,"station_id":"ce4bgup2rcd13ifvqcn0","pricing_plan_id":"free"},{"bike_id":"739a0065-36ea-4553-b1d0-a415d59c5662","system_id":"levelo_inurba_marseille","lat":43.30464,"lon":5.37903,"is_reserved":false,"is_disabled":false,"rental_uris":{"android":"levelo://app?vid=739a0065-36ea-4553-b1d0-a415d59c5662","ios":"levelo://app?vid=739a0065-36ea-4553-b1d0-a415d59c5662"},"vehicle_type_id":"4","last_reported":1703606894,"current_range_meters":800,"station_id":"ce4bgup2rcd13ifvqcn0","pricing_plan_id":"free"},{"bike_id":"a9bb2618-5a29-43e2-b671-aa5febeaa61d","system_id":"levelo_inurba_marseille","lat":43.304616,"lon":5.379034,"is_reserved":false,"is_disabled":false,"rental_uris":{"android":"levelo://app?vid=a9bb2618-5a29-43e2-b671-aa5febeaa61d","ios":"levelo://app?vid=a9bb2618-5a29-43e2-b671-aa5febeaa61d"},"vehicle_type_id":"4","last_reported":1703606894,"current_range_meters":27200,"station_id":"ce4bgup2rcd13ifvqcn0","pricing_plan_id":"free"},{"bike_id":"0a6a2bb1-5bf3-43c7-9209-f443586e999b","system_id":"levelo_inurba_marseille","lat":43.30461,"lon":5.37903,"is_reserved":false,"is_disabled":false,"rental_uris":{"android":"levelo://app?vid=0a6a2bb1-5bf3-43c7-9209-f443586e999b","ios":"levelo://app?vid=0a6a2bb1-5bf3-43c7-9209-f443586e999b"},"vehicle_type_id":"4","last_reported":1703606894,"current_range_meters":8800,"station_id":"ce4bgup2rcd13ifvqcn0","pricing_plan_id":"free"},{"bike_id":"dc885e1b-7bbd-41be-bbd5-ce0fb070891a","system_id":"levelo_inurba_marseille","lat":43.324771,"lon":5.36557,"is_reserved":false,"is_disabled":false,"rental_uris":{"android":"levelo://app?vid=dc885e1b-7bbd-41be-bbd5-ce0fb070891a","ios":"levelo://app?vid=dc885e1b-7bbd-41be-bbd5-ce0fb070891a"},"vehicle_type_id":"4","last_reported":1703606894,"current_range_meters":30000,"station_id":"ce4bhs12rcd13ifvqhvg","pricing_plan_id":"free"},{"bike_id":"aae06b8e-34c5-4dc3-b902-060a6c0755d4","system_id":"levelo_inurba_marseille","lat":43.3045,"lon":5.37907,"is_reserved":false,"is_disabled":false,"rental_uris":{"android":"levelo://app?vid=aae06b8e-34c5-4dc3-b902-060a6c0755d4","ios":"levelo://app?vid=aae06b8e-34c5-4dc3-b902-060a6c0755d4"},"vehicle_type_id":"4","last_reported":1703606894,"current_range_meters":21200,"station_id":"ce4bgup2rcd13ifvqcn0","pricing_plan_id":"free"},{"bike_id":"f5c0e4d6-16bd-47eb-ba92-aa201d0984ce","system_id":"levelo_inurba_marseille","lat":43.324771,"lon":5.36557,"is_reserved":false,"is_disabled":false,"rental_uris":{"android":"levelo://app?vid=f5c0e4d6-16bd-47eb-ba92-aa201d0984ce","ios":"levelo://app?vid=f5c0e4d6-16bd-47eb-ba92-aa201d0984ce"},"vehicle_type_id":"4","last_reported":1703606894,"current_range_meters":28800,"station_id":"ce4bhs12rcd13ifvqhvg","pricing_plan_id":"free"},{"bike_id":"e101af2c-c501-4e28-8d72-12ad3a8d21a2","system_id":"levelo_inurba_marseille","lat":43.324771,"lon":5.36557,"is_reserved":false,"is_disabled":false,"rental_uris":{"android":"levelo://app?vid=e101af2c-c501-4e28-8d72-12ad3a8d21a2","ios":"levelo://app?vid=e101af2c-c501-4e28-8d72-12ad3a8d21a2"},"vehicle_type_id":"4","last_reported":1703606894,"current_range_meters":23200,"station_id":"ce4bhs12rcd13ifvqhvg","pricing_plan_id":"free"},{"bike_id":"c71dd009-75f2-420d-85f5-bc66201ab595","system_id":"levelo_inurba_marseille","lat":43.302784,"lon":5.377158,"is_reserved":false,"is_disabled":false,"rental_uris":{"android":"levelo://app?vid=c71dd009-75f2-420d-85f5-bc66201ab595","ios":"levelo://app?vid=c71dd009-75f2-420d-85f5-bc66201ab595"},"vehicle_type_id":"4","last_reported":1703606894,"current_range_meters":12800,"station_id":"ce4bguh2rcd13ifvqcj0","pricing_plan_id":"free"},{"bike_id":"9fd0f1fb-194c-4d6c-a7e1-13975396e81c","system_id":"levelo_inurba_marseille","lat":43.301453,"lon":5.37416,"is_reserved":false,"is_disabled":false,"rental_uris":{"android":"levelo://app?vid=9fd0f1fb-194c-4d6c-a7e1-13975396e81c","ios":"levelo://app?vid=9fd0f1fb-194c-4d6c-a7e1-13975396e81c"},"vehicle_type_id":"4","last_reported":1703606894,"current_range_meters":12800,"station_id":"","pricing_plan_id":"free"},{"bike_id":"26ba0bf8-bcdc-4522-9c8f-850e7bc2de96","system_id":"levelo_inurba_marseille","lat":43.30143,"lon":5.37419,"is_reserved":false,"is_disabled":false,"rental_uris":{"android":"levelo://app?vid=26ba0bf8-bcdc-4522-9c8f-850e7bc2de96","ios":"levelo://app?vid=26ba0bf8-bcdc-4522-9c8f-850e7bc2de96"},"vehicle_type_id":"4","last_reported":1703606894,"current_range_meters":21200,"station_id":"ce4bgs92rcd13ifvqcc0","pricing_plan_id":"free"},{"bike_id":"c923ad6c-7ed7-405f-9399-0e2ae3dd70bd","system_id":"levelo_inurba_marseille","lat":43.30143,"lon":5.37413,"is_reserved":false,"is_disabled":false,"rental_uris":{"android":"levelo://app?vid=c923ad6c-7ed7-405f-9399-0e2ae3dd70bd","ios":"levelo://app?vid=c923ad6c-7ed7-405f-9399-0e2ae3dd70bd"},"vehicle_type_id":"4","last_reported":1703606894,"current_range_meters":30000,"station_id":"ce4bgs92rcd13ifvqcc0","pricing_plan_id":"free"},{"bike_id":"70b0ad2a-6533-4324-9176-53aa3f1f6a7a","system_id":"levelo_inurba_marseille","lat":43.32,"lon":5.3814,"is_reserved":false,"is_disabled":false,"rental_uris":{"android":"levelo://app?vid=70b0ad2a-6533-4324-9176-53aa3f1f6a7a","ios":"levelo://app?vid=70b0ad2a-6533-4324-9176-53aa3f1f6a7a"},"vehicle_type_id":"4","last_reported":1703606894,"current_range_meters":2400,"station_id":"ce4bhr12rcd13ifvqhpg","pricing_plan_id":"free"},{"bike_id":"00224e63-2bd6-485a-8c12-dcec3d8f9c19","system_id":"levelo_inurba_marseille","lat":43.313571,"lon":5.384829,"is_reserved":false,"is_disabled":false,"rental_uris":{"android":"levelo://app?vid=00224e63-2bd6-485a-8c12-dcec3d8f9c19","ios":"levelo://app?vid=00224e63-2bd6-485a-8c12-dcec3d8f9c19"},"vehicle_type_id":"4","last_reported":1703606894,"current_range_meters":20000,"station_id":"ce4bgt92rcd13ifvqcf0","pricing_plan_id":"free"},{"bike_id":"5498561f-35b3-46bd-a0ec-94db0756b3f3","system_id":"levelo_inurba_marseille","lat":43.299222,"lon":5.365554,"is_reserved":false,"is_disabled":false,"rental_uris":{"android":"levelo://app?vid=5498561f-35b3-46bd-a0ec-94db0756b3f3","ios":"levelo://app?vid=5498561f-35b3-46bd-a0ec-94db0756b3f3"},"vehicle_type_id":"4","last_reported":1703606894,"current_range_meters":16800,"station_id":"ce4bgm92rcd13ifvqbr0","pricing_plan_id":"free"},{"bike_id":"cba702f6-92f9-4956-8748-484298d2bacf","system_id":"levelo_inurba_marseille","lat":43.299222,"lon":5.365554,"is_reserved":false,"is_disabled":false,"rental_uris":{"android":"levelo://app?vid=cba702f6-92f9-4956-8748-484298d2bacf","ios":"levelo://app?vid=cba702f6-92f9-4956-8748-484298d2bacf"},"vehicle_type_id":"4","last_reported":1703606894,"current_range_meters":14800,"station_id":"ce4bgm92rcd13ifvqbr0","pricing_plan_id":"free"},{"bike_id":"1cf95733-baeb-4982-96fb-a4413851cdf7","system_id":"levelo_inurba_marseille","lat":43.299222,"lon":5.365554,"is_reserved":false,"is_disabled":false,"rental_uris":{"android":"levelo://app?vid=1cf95733-baeb-4982-96fb-a4413851cdf7","ios":"levelo://app?vid=1cf95733-baeb-4982-96fb-a4413851cdf7"},"vehicle_type_id":"4","last_reported":1703606894,"current_range_meters":8000,"station_id":"ce4bgm92rcd13ifvqbr0","pricing_plan_id":"free"},{"bike_id":"2887044d-3dd3-4b24-9dc8-02198b1c6c84","system_id":"levelo_inurba_marseille","lat":43.299724,"lon":5.371829,"is_reserved":false,"is_disabled":false,"rental_uris":{"android":"levelo://app?vid=2887044d-3dd3-4b24-9dc8-02198b1c6c84","ios":"levelo://app?vid=2887044d-3dd3-4b24-9dc8-02198b1c6c84"},"vehicle_type_id":"4","last_reported":1703606894,"current_range_meters":2000,"station_id":"ce4bgr92rcd13ifvqc7g","pricing_plan_id":"free"},{"bike_id":"c90a5cbf-09e3-4586-94d5-b0434082822b","system_id":"levelo_inurba_marseille","lat":43.299222,"lon":5.365554,"is_reserved":false,"is_disabled":false,"rental_uris":{"android":"levelo://app?vid=c90a5cbf-09e3-4586-94d5-b0434082822b","ios":"levelo://app?vid=c90a5cbf-09e3-4586-94d5-b0434082822b"},"vehicle_type_id":"4","last_reported":1703606894,"current_range_meters":21200,"station_id":"ce4bgm92rcd13ifvqbr0","pricing_plan_id":"free"},{"bike_id":"d98e11a7-5351-470c-8825-ce65734f6e2d","system_id":"levelo_inurba_marseille","lat":43.299724,"lon":5.371829,"is_reserved":false,"is_disabled":false,"rental_uris":{"android":"levelo://app?vid=d98e11a7-5351-470c-8825-ce65734f6e2d","ios":"levelo://app?vid=d98e11a7-5351-470c-8825-ce65734f6e2d"},"vehicle_type_id":"4","last_reported":1703606894,"current_range_meters":6800,"station_id":"ce4bgr92rcd13ifvqc7g","pricing_plan_id":"free"},{"bike_id":"242173a6-86a9-4a69-9d62-18818bc143a1","system_id":"levelo_inurba_marseille","lat":43.299724,"lon":5.371829,"is_reserved":false,"is_disabled":false,"rental_uris":{"android":"levelo://app?vid=242173a6-86a9-4a69-9d62-18818bc143a1","ios":"levelo://app?vid=242173a6-86a9-4a69-9d62-18818bc143a1"},"vehicle_type_id":"4","last_reported":1703606894,"current_range_meters":30400,"station_id":"ce4bgr92rcd13ifvqc7g","pricing_plan_id":"free"},{"bike_id":"6229263c-108d-4bd5-9b30-eff981ca1f5e","system_id":"levelo_inurba_marseille","lat":43.29927,"lon":5.36553,"is_reserved":false,"is_disabled":false,"rental_uris":{"android":"levelo://app?vid=6229263c-108d-4bd5-9b30-eff981ca1f5e","ios":"levelo://app?vid=6229263c-108d-4bd5-9b30-eff981ca1f5e"},"vehicle_type_id":"4","last_reported":1703606894,"current_range_meters":20000,"station_id":"ce4bgm92rcd13ifvqbr0","pricing_plan_id":"free"},{"bike_id":"a5172819-5ff6-4eaf-98c2-1162910b4ee0","system_id":"levelo_inurba_marseille","lat":43.305364,"lon":5.384119,"is_reserved":false,"is_disabled":false,"rental_uris":{"android":"levelo://app?vid=a5172819-5ff6-4eaf-98c2-1162910b4ee0","ios":"levelo://app?vid=a5172819-5ff6-4eaf-98c2-1162910b4ee0"},"vehicle_type_id":"4","last_reported":1703606894,"current_range_meters":27600,"station_id":"ce4bgg92rcd13ifvqb30","pricing_plan_id":"free"},{"bike_id":"0b027942-0182-4d86-990d-704fbc027420","system_id":"levelo_inurba_marseille","lat":43.29853,"lon":5.36279,"is_reserved":false,"is_disabled":false,"rental_uris":{"android":"levelo://app?vid=0b027942-0182-4d86-990d-704fbc027420","ios":"levelo://app?vid=0b027942-0182-4d86-990d-704fbc027420"},"vehicle_type_id":"4","last_reported":1703606894,"current_range_meters":31200,"station_id":"ce4bgpp2rcd13ifvqc3g","pricing_plan_id":"free"},{"bike_id":"60a9e46e-d4ca-4956-ba81-bde3eeb8ce9e","system_id":"levelo_inurba_marseille","lat":43.298433,"lon":5.362774,"is_reserved":false,"is_disabled":false,"rental_uris":{"android":"levelo://app?vid=60a9e46e-d4ca-4956-ba81-bde3eeb8ce9e","ios":"levelo://app?vid=60a9e46e-d4ca-4956-ba81-bde3eeb8ce9e"},"vehicle_type_id":"4","last_reported":1703606894,"current_range_meters":31200,"station_id":"ce4bgpp2rcd13ifvqc3g","pricing_plan_id":"free"},{"bike_id":"b9608b36-0adc-4921-b944-3344c4704f12","system_id":"levelo_inurba_marseille","lat":43.29844,"lon":5.36285,"is_reserved":false,"is_disabled":false,"rental_uris":{"android":"levelo://app?vid=b9608b36-0adc-4921-b944-3344c4704f12","ios":"levelo://app?vid=b9608b36-0adc-4921-b944-3344c4704f12"},"vehicle_type_id":"4","last_reported":1703606894,"current_range_meters":24000,"station_id":"ce4bgpp2rcd13ifvqc3g","pricing_plan_id":"free"},{"bike_id":"e786662e-fc12-4212-9bc5-64336eb19af9","system_id":"levelo_inurba_marseille","lat":43.298433,"lon":5.362774,"is_reserved":false,"is_disabled":false,"rental_uris":{"android":"levelo://app?vid=e786662e-fc12-4212-9bc5-64336eb19af9","ios":"levelo://app?vid=e786662e-fc12-4212-9bc5-64336eb19af9"},"vehicle_type_id":"4","last_reported":1703606894,"current_range_meters":15600,"station_id":"ce4bgpp2rcd13ifvqc3g","pricing_plan_id":"free"},{"bike_id":"48bac091-a3fc-478f-9226-a0c4ba936854","system_id":"levelo_inurba_marseille","lat":43.298433,"lon":5.362774,"is_reserved":false,"is_disabled":false,"rental_uris":{"android":"levelo://app?vid=48bac091-a3fc-478f-9226-a0c4ba936854","ios":"levelo://app?vid=48bac091-a3fc-478f-9226-a0c4ba936854"},"vehicle_type_id":"4","last_reported":1703606894,"current_range_meters":23600,"station_id":"ce4bgpp2rcd13ifvqc3g","pricing_plan_id":"free"},{"bike_id":"4c92b629-1a1d-4404-b422-334632944f73","system_id":"levelo_inurba_marseille","lat":43.298433,"lon":5.362774,"is_reserved":false,"is_disabled":false,"rental_uris":{"android":"levelo://app?vid=4c92b629-1a1d-4404-b422-334632944f73","ios":"levelo://app?vid=4c92b629-1a1d-4404-b422-334632944f73"},"vehicle_type_id":"4","last_reported":1703606894,"current_range_meters":400,"station_id":"ce4bgpp2rcd13ifvqc3g","pricing_plan_id":"free"},{"bike_id":"ffa18e00-56e1-42d2-b5e3-5555b04a51b4","system_id":"levelo_inurba_marseille","lat":43.29842,"lon":5.36266,"is_reserved":false,"is_disabled":false,"rental_uris":{"android":"levelo://app?vid=ffa18e00-56e1-42d2-b5e3-5555b04a51b4","ios":"levelo://app?vid=ffa18e00-56e1-42d2-b5e3-5555b04a51b4"},"vehicle_type_id":"4","last_reported":1703606894,"current_range_meters":31200,"station_id":"ce4bgpp2rcd13ifvqc3g","pricing_plan_id":"free"},{"bike_id":"755e31db-0c7e-4e3e-9d1d-38bd7d5b4038","system_id":"levelo_inurba_marseille","lat":43.298433,"lon":5.362774,"is_reserved":false,"is_disabled":false,"rental_uris":{"android":"levelo://app?vid=755e31db-0c7e-4e3e-9d1d-38bd7d5b4038","ios":"levelo://app?vid=755e31db-0c7e-4e3e-9d1d-38bd7d5b4038"},"vehicle_type_id":"4","last_reported":1703606894,"current_range_meters":30400,"station_id":"ce4bgpp2rcd13ifvqc3g","pricing_plan_id":"free"},{"bike_id":"8b414ef6-e648-4831-9810-a223151100af","system_id":"levelo_inurba_marseille","lat":43.29836,"lon":5.36264,"is_reserved":false,"is_disabled":false,"rental_uris":{"android":"levelo://app?vid=8b414ef6-e648-4831-9810-a223151100af","ios":"levelo://app?vid=8b414ef6-e648-4831-9810-a223151100af"},"vehicle_type_id":"4","last_reported":1703606894,"current_range_meters":31200,"station_id":"ce4bgpp2rcd13ifvqc3g","pricing_plan_id":"free"},{"bike_id":"bd81edee-9a04-4438-abb8-587bbcc0890d","system_id":"levelo_inurba_marseille","lat":43.311722,"lon":5.387247,"is_reserved":false,"is_disabled":false,"rental_uris":{"android":"levelo://app?vid=bd81edee-9a04-4438-abb8-587bbcc0890d","ios":"levelo://app?vid=bd81edee-9a04-4438-abb8-587bbcc0890d"},"vehicle_type_id":"4","last_reported":1703606894,"current_range_meters":29200,"station_id":"ce4bgv12rcd13ifvqcp0","pricing_plan_id":"free"},{"bike_id":"de590336-77e5-4d71-b1b6-9c2359bbf817","system_id":"levelo_inurba_marseille","lat":43.311722,"lon":5.387247,"is_reserved":false,"is_disabled":false,"rental_uris":{"android":"levelo://app?vid=de590336-77e5-4d71-b1b6-9c2359bbf817","ios":"levelo://app?vid=de590336-77e5-4d71-b1b6-9c2359bbf817"},"vehicle_type_id":"4","last_reported":1703606894,"current_range_meters":26800,"station_id":"ce4bgv12rcd13ifvqcp0","pricing_plan_id":"free"},{"bike_id":"702ba885-cbd7-4ae9-af14-d89902cde706","system_id":"levelo_inurba_marseille","lat":43.297826,"lon":5.371023,"is_reserved":false,"is_disabled":false,"rental_uris":{"android":"levelo://app?vid=702ba885-cbd7-4ae9-af14-d89902cde706","ios":"levelo://app?vid=702ba885-cbd7-4ae9-af14-d89902cde706"},"vehicle_type_id":"4","last_reported":1703606894,"current_range_meters":28000,"station_id":"ce4bgop2rcd13ifvqc1g","pricing_plan_id":"free"},{"bike_id":"deaa60e3-faa1-4618-a611-d4fd33052f5d","system_id":"levelo_inurba_marseille","lat":43.32825,"lon":5.36693,"is_reserved":false,"is_disabled":false,"rental_uris":{"android":"levelo://app?vid=deaa60e3-faa1-4618-a611-d4fd33052f5d","ios":"levelo://app?vid=deaa60e3-faa1-4618-a611-d4fd33052f5d"},"vehicle_type_id":"4","last_reported":1703606894,"current_range_meters":5200,"station_id":"ce4bhs92rcd13ifvqi0g","pricing_plan_id":"free"},{"bike_id":"5fed18d1-7f81-4167-a351-7c4be7bb7921","system_id":"levelo_inurba_marseille","lat":43.32825,"lon":5.36681,"is_reserved":false,"is_disabled":false,"rental_uris":{"android":"levelo://app?vid=5fed18d1-7f81-4167-a351-7c4be7bb7921","ios":"levelo://app?vid=5fed18d1-7f81-4167-a351-7c4be7bb7921"},"vehicle_type_id":"4","last_reported":1703606894,"current_range_meters":1600,"station_id":"ce4bhs92rcd13ifvqi0g","pricing_plan_id":"free"},{"bike_id":"5c89eee7-6e83-42b4-bd81-efdcf68f6666","system_id":"levelo_inurba_marseille","lat":43.32826,"lon":5.36684,"is_reserved":false,"is_disabled":false,"rental_uris":{"android":"levelo://app?vid=5c89eee7-6e83-42b4-bd81-efdcf68f6666","ios":"levelo://app?vid=5c89eee7-6e83-42b4-bd81-efdcf68f6666"},"vehicle_type_id":"4","last_reported":1703606894,"current_range_meters":28800,"station_id":"ce4bhs92rcd13ifvqi0g","pricing_plan_id":"free"},{"bike_id":"a448ca86-2b35-41e1-89c4-32a99bab0563","system_id":"levelo_inurba_marseille","lat":43.328371,"lon":5.366909,"is_reserved":false,"is_disabled":false,"rental_uris":{"android":"levelo://app?vid=a448ca86-2b35-41e1-89c4-32a99bab0563","ios":"levelo://app?vid=a448ca86-2b35-41e1-89c4-32a99bab0563"},"vehicle_type_id":"4","last_reported":1703606894,"current_range_meters":7200,"station_id":"ce4bhs92rcd13ifvqi0g","pricing_plan_id":"free"},{"bike_id":"904f83aa-e9ab-401d-84c1-9edfed82b884","system_id":"levelo_inurba_marseille","lat":43.328371,"lon":5.366909,"is_reserved":false,"is_disabled":false,"rental_uris":{"android":"levelo://app?vid=904f83aa-e9ab-401d-84c1-9edfed82b884","ios":"levelo://app?vid=904f83aa-e9ab-401d-84c1-9edfed82b884"},"vehicle_type_id":"4","last_reported":1703606894,"current_range_meters":18800,"station_id":"ce4bhs92rcd13ifvqi0g","pricing_plan_id":"free"},{"bike_id":"6f67326a-1664-406f-9978-902e013e2357","system_id":"levelo_inurba_marseille","lat":43.328371,"lon":5.366909,"is_reserved":false,"is_disabled":false,"rental_uris":{"android":"levelo://app?vid=6f67326a-1664-406f-9978-902e013e2357","ios":"levelo://app?vid=6f67326a-1664-406f-9978-902e013e2357"},"vehicle_type_id":"4","last_reported":1703606894,"current_range_meters":10400,"station_id":"ce4bhs92rcd13ifvqi0g","pricing_plan_id":"free"},{"bike_id":"de708f00-7118-4d7c-9021-d7dcbd798473","system_id":"levelo_inurba_marseille","lat":43.328371,"lon":5.366909,"is_reserved":false,"is_disabled":false,"rental_uris":{"android":"levelo://app?vid=de708f00-7118-4d7c-9021-d7dcbd798473","ios":"levelo://app?vid=de708f00-7118-4d7c-9021-d7dcbd798473"},"vehicle_type_id":"4","last_reported":1703606894,"current_range_meters":24800,"station_id":"ce4bhs92rcd13ifvqi0g","pricing_plan_id":"free"},{"bike_id":"51714c4a-3132-4951-88ec-80e85fa125e8","system_id":"levelo_inurba_marseille","lat":43.328318,"lon":5.366859,"is_reserved":false,"is_disabled":false,"rental_uris":{"android":"levelo://app?vid=51714c4a-3132-4951-88ec-80e85fa125e8","ios":"levelo://app?vid=51714c4a-3132-4951-88ec-80e85fa125e8"},"vehicle_type_id":"4","last_reported":1703606894,"current_range_meters":5200,"station_id":"ce4bhs92rcd13ifvqi0g","pricing_plan_id":"free"},{"bike_id":"40c2b532-aa81-4c78-b896-98260fc2f589","system_id":"levelo_inurba_marseille","lat":43.297163,"lon":5.365866,"is_reserved":false,"is_disabled":false,"rental_uris":{"android":"levelo://app?vid=40c2b532-aa81-4c78-b896-98260fc2f589","ios":"levelo://app?vid=40c2b532-aa81-4c78-b896-98260fc2f589"},"vehicle_type_id":"4","last_reported":1703606894,"current_range_meters":31200,"station_id":"ce4bgn12rcd13ifvqbt0","pricing_plan_id":"free"},{"bike_id":"8fe70517-f44a-4cd8-b5cc-f9cbc1b0fa63","system_id":"levelo_inurba_marseille","lat":43.297163,"lon":5.365866,"is_reserved":false,"is_disabled":false,"rental_uris":{"android":"levelo://app?vid=8fe70517-f44a-4cd8-b5cc-f9cbc1b0fa63","ios":"levelo://app?vid=8fe70517-f44a-4cd8-b5cc-f9cbc1b0fa63"},"vehicle_type_id":"4","last_reported":1703606894,"current_range_meters":30400,"station_id":"ce4bgn12rcd13ifvqbt0","pricing_plan_id":"free"},{"bike_id":"921b424d-ad0d-4c7a-9d74-66e3a49bfa19","system_id":"levelo_inurba_marseille","lat":43.32934,"lon":5.36612,"is_reserved":false,"is_disabled":false,"rental_uris":{"android":"levelo://app?vid=921b424d-ad0d-4c7a-9d74-66e3a49bfa19","ios":"levelo://app?vid=921b424d-ad0d-4c7a-9d74-66e3a49bfa19"},"vehicle_type_id":"4","last_reported":1703606894,"current_range_meters":20800,"station_id":"","pricing_plan_id":"free"},{"bike_id":"644cdb0e-aeb6-4586-86e4-26767b3084cb","system_id":"levelo_inurba_marseille","lat":43.29573,"lon":5.367355,"is_reserved":false,"is_disabled":false,"rental_uris":{"android":"levelo://app?vid=644cdb0e-aeb6-4586-86e4-26767b3084cb","ios":"levelo://app?vid=644cdb0e-aeb6-4586-86e4-26767b3084cb"},"vehicle_type_id":"4","last_reported":1703606894,"current_range_meters":5200,"station_id":"ce4bgph2rcd13ifvqc2g","pricing_plan_id":"free"},{"bike_id":"598a3088-9005-434d-8937-b5d9054bb5d8","system_id":"levelo_inurba_marseille","lat":43.299028,"lon":5.381509,"is_reserved":false,"is_disabled":false,"rental_uris":{"android":"levelo://app?vid=598a3088-9005-434d-8937-b5d9054bb5d8","ios":"levelo://app?vid=598a3088-9005-434d-8937-b5d9054bb5d8"},"vehicle_type_id":"4","last_reported":1703606894,"current_range_meters":800,"station_id":"ce4bgj12rcd13ifvqbc0","pricing_plan_id":"free"},{"bike_id":"6a1097a2-d028-4694-8fd9-105667e31414","system_id":"levelo_inurba_marseille","lat":43.299028,"lon":5.381509,"is_reserved":false,"is_disabled":false,"rental_uris":{"android":"levelo://app?vid=6a1097a2-d028-4694-8fd9-105667e31414","ios":"levelo://app?vid=6a1097a2-d028-4694-8fd9-105667e31414"},"vehicle_type_id":"4","last_reported":1703606894,"current_range_meters":22800,"station_id":"ce4bgj12rcd13ifvqbc0","pricing_plan_id":"free"},{"bike_id":"54767a07-ad31-413a-84dd-d2f8378ad899","system_id":"levelo_inurba_marseille","lat":43.299028,"lon":5.381509,"is_reserved":false,"is_disabled":false,"rental_uris":{"android":"levelo://app?vid=54767a07-ad31-413a-84dd-d2f8378ad899","ios":"levelo://app?vid=54767a07-ad31-413a-84dd-d2f8378ad899"},"vehicle_type_id":"4","last_reported":1703606894,"current_range_meters":16400,"station_id":"ce4bgj12rcd13ifvqbc0","pricing_plan_id":"free"},{"bike_id":"8e270d40-5b3c-43d4-b807-820d83f8908a","system_id":"levelo_inurba_marseille","lat":43.309589,"lon":5.390258,"is_reserved":false,"is_disabled":false,"rental_uris":{"android":"levelo://app?vid=8e270d40-5b3c-43d4-b807-820d83f8908a","ios":"levelo://app?vid=8e270d40-5b3c-43d4-b807-820d83f8908a"},"vehicle_type_id":"4","last_reported":1703606894,"current_range_meters":25600,"station_id":"ce4bgup2rcd13ifvqco0","pricing_plan_id":"free"},{"bike_id":"6630e8ed-1566-484d-9bc5-1cd9908d4453","system_id":"levelo_inurba_marseille","lat":43.317557,"lon":5.390173,"is_reserved":false,"is_disabled":false,"rental_uris":{"android":"levelo://app?vid=6630e8ed-1566-484d-9bc5-1cd9908d4453","ios":"levelo://app?vid=6630e8ed-1566-484d-9bc5-1cd9908d4453"},"vehicle_type_id":"4","last_reported":1703606894,"current_range_meters":31200,"station_id":"ce4bhqp2rcd13ifvqhng","pricing_plan_id":"free"},{"bike_id":"1f8b878f-f671-4790-8d5b-c4dcdaf0ca88","system_id":"levelo_inurba_marseille","lat":43.317557,"lon":5.390173,"is_reserved":false,"is_disabled":false,"rental_uris":{"android":"levelo://app?vid=1f8b878f-f671-4790-8d5b-c4dcdaf0ca88","ios":"levelo://app?vid=1f8b878f-f671-4790-8d5b-c4dcdaf0ca88"},"vehicle_type_id":"4","last_reported":1703606894,"current_range_meters":27600,"station_id":"ce4bhqp2rcd13ifvqhng","pricing_plan_id":"free"},{"bike_id":"11a450a5-1df3-45ed-90fc-ffc21ef858f6","system_id":"levelo_inurba_marseille","lat":43.30399,"lon":5.38816,"is_reserved":false,"is_disabled":false,"rental_uris":{"android":"levelo://app?vid=11a450a5-1df3-45ed-90fc-ffc21ef858f6","ios":"levelo://app?vid=11a450a5-1df3-45ed-90fc-ffc21ef858f6"},"vehicle_type_id":"4","last_reported":1703606894,"current_range_meters":20800,"station_id":"","pricing_plan_id":"free"},{"bike_id":"d6737ac3-93da-4dc4-803d-493693c07c49","system_id":"levelo_inurba_marseille","lat":43.295748,"lon":5.37522,"is_reserved":false,"is_disabled":false,"rental_uris":{"android":"levelo://app?vid=d6737ac3-93da-4dc4-803d-493693c07c49","ios":"levelo://app?vid=d6737ac3-93da-4dc4-803d-493693c07c49"},"vehicle_type_id":"4","last_reported":1703606894,"current_range_meters":18800,"station_id":"ce4bgh92rcd13ifvqb50","pricing_plan_id":"free"},{"bike_id":"c7f586a2-42f0-4ba4-a71d-996b18d56a9f","system_id":"levelo_inurba_marseille","lat":43.30434,"lon":5.38886,"is_reserved":false,"is_disabled":false,"rental_uris":{"android":"levelo://app?vid=c7f586a2-42f0-4ba4-a71d-996b18d56a9f","ios":"levelo://app?vid=c7f586a2-42f0-4ba4-a71d-996b18d56a9f"},"vehicle_type_id":"4","last_reported":1703606894,"current_range_meters":18800,"station_id":"ce4bgk12rcd13ifvqbi0","pricing_plan_id":"free"},{"bike_id":"ff9a0a65-ed24-40e1-a28a-cd627382f318","system_id":"levelo_inurba_marseille","lat":43.296263,"lon":5.377094,"is_reserved":false,"is_disabled":false,"rental_uris":{"android":"levelo://app?vid=ff9a0a65-ed24-40e1-a28a-cd627382f318","ios":"levelo://app?vid=ff9a0a65-ed24-40e1-a28a-cd627382f318"},"vehicle_type_id":"4","last_reported":1703606894,"current_range_meters":26800,"station_id":"ce4bgi92rcd13ifvqb90","pricing_plan_id":"free"},{"bike_id":"968e4237-f3af-4538-aa16-76e1af395e7b","system_id":"levelo_inurba_marseille","lat":43.299724,"lon":5.384848,"is_reserved":false,"is_disabled":false,"rental_uris":{"android":"levelo://app?vid=968e4237-f3af-4538-aa16-76e1af395e7b","ios":"levelo://app?vid=968e4237-f3af-4538-aa16-76e1af395e7b"},"vehicle_type_id":"4","last_reported":1703606894,"current_range_meters":13200,"station_id":"ce4bgj92rcd13ifvqbd0","pricing_plan_id":"free"},{"bike_id":"2ea2a361-1567-4838-af38-1df0753e86a3","system_id":"levelo_inurba_marseille","lat":43.295279,"lon":5.375048,"is_reserved":false,"is_disabled":false,"rental_uris":{"android":"levelo://app?vid=2ea2a361-1567-4838-af38-1df0753e86a3","ios":"levelo://app?vid=2ea2a361-1567-4838-af38-1df0753e86a3"},"vehicle_type_id":"4","last_reported":1703606894,"current_range_meters":5600,"station_id":"ce4bgkp2rcd13ifvqbmg","pricing_plan_id":"free"},{"bike_id":"37b269ae-c476-4307-b23c-e4cc306f95be","system_id":"levelo_inurba_marseille","lat":43.323665,"lon":5.388852,"is_reserved":false,"is_disabled":false,"rental_uris":{"android":"levelo://app?vid=37b269ae-c476-4307-b23c-e4cc306f95be","ios":"levelo://app?vid=37b269ae-c476-4307-b23c-e4cc306f95be"},"vehicle_type_id":"4","last_reported":1703606894,"current_range_meters":22800,"station_id":"ce4bhqp2rcd13ifvqhog","pricing_plan_id":"free"},{"bike_id":"ad5b86d2-9018-4b7d-93ba-aeaaa5a0e592","system_id":"levelo_inurba_marseille","lat":43.29602,"lon":5.381084,"is_reserved":false,"is_disabled":false,"rental_uris":{"android":"levelo://app?vid=ad5b86d2-9018-4b7d-93ba-aeaaa5a0e592","ios":"levelo://app?vid=ad5b86d2-9018-4b7d-93ba-aeaaa5a0e592"},"vehicle_type_id":"4","last_reported":1703606894,"current_range_meters":24000,"station_id":"ce4bgl12rcd13ifvqbo0","pricing_plan_id":"free"},{"bike_id":"7359a322-3c61-4306-8a2d-b935f2d11d20","system_id":"levelo_inurba_marseille","lat":43.292749,"lon":5.368402,"is_reserved":false,"is_disabled":false,"rental_uris":{"android":"levelo://app?vid=7359a322-3c61-4306-8a2d-b935f2d11d20","ios":"levelo://app?vid=7359a322-3c61-4306-8a2d-b935f2d11d20"},"vehicle_type_id":"4","last_reported":1703606894,"current_range_meters":22400,"station_id":"ce4bhbp2rcd13ifvqesg","pricing_plan_id":"free"},{"bike_id":"d23ab6ac-30a7-45b0-b962-19b185286346","system_id":"levelo_inurba_marseille","lat":43.292749,"lon":5.368402,"is_reserved":false,"is_disabled":false,"rental_uris":{"android":"levelo://app?vid=d23ab6ac-30a7-45b0-b962-19b185286346","ios":"levelo://app?vid=d23ab6ac-30a7-45b0-b962-19b185286346"},"vehicle_type_id":"4","last_reported":1703606894,"current_range_meters":30800,"station_id":"ce4bhbp2rcd13ifvqesg","pricing_plan_id":"free"},{"bike_id":"daefe5b9-dbd5-4f9b-bc36-08910c10557a","system_id":"levelo_inurba_marseille","lat":43.292749,"lon":5.368402,"is_reserved":false,"is_disabled":false,"rental_uris":{"android":"levelo://app?vid=daefe5b9-dbd5-4f9b-bc36-08910c10557a","ios":"levelo://app?vid=daefe5b9-dbd5-4f9b-bc36-08910c10557a"},"vehicle_type_id":"4","last_reported":1703606894,"current_range_meters":2800,"station_id":"ce4bhbp2rcd13ifvqesg","pricing_plan_id":"free"},{"bike_id":"393c3c1a-4597-4620-86a6-b360b561ee65","system_id":"levelo_inurba_marseille","lat":43.292749,"lon":5.368402,"is_reserved":false,"is_disabled":false,"rental_uris":{"android":"levelo://app?vid=393c3c1a-4597-4620-86a6-b360b561ee65","ios":"levelo://app?vid=393c3c1a-4597-4620-86a6-b360b561ee65"},"vehicle_type_id":"4","last_reported":1703606894,"current_range_meters":19200,"station_id":"ce4bhbp2rcd13ifvqesg","pricing_plan_id":"free"},{"bike_id":"5e72f75c-29a5-4a17-99bd-44872208c57b","system_id":"levelo_inurba_marseille","lat":43.293009,"lon":5.374584,"is_reserved":false,"is_disabled":false,"rental_uris":{"android":"levelo://app?vid=5e72f75c-29a5-4a17-99bd-44872208c57b","ios":"levelo://app?vid=5e72f75c-29a5-4a17-99bd-44872208c57b"},"vehicle_type_id":"4","last_reported":1703606894,"current_range_meters":7200,"station_id":"ce4bgi12rcd13ifvqb70","pricing_plan_id":"free"},{"bike_id":"923138b7-b791-47e4-9a38-93b042717f0f","system_id":"levelo_inurba_marseille","lat":43.293009,"lon":5.374584,"is_reserved":false,"is_disabled":false,"rental_uris":{"android":"levelo://app?vid=923138b7-b791-47e4-9a38-93b042717f0f","ios":"levelo://app?vid=923138b7-b791-47e4-9a38-93b042717f0f"},"vehicle_type_id":"4","last_reported":1703606894,"current_range_meters":22000,"station_id":"ce4bgi12rcd13ifvqb70","pricing_plan_id":"free"},{"bike_id":"28142f1a-417e-4c54-aa4e-567fbc10175f","system_id":"levelo_inurba_marseille","lat":43.305994,"lon":5.393687,"is_reserved":false,"is_disabled":false,"rental_uris":{"android":"levelo://app?vid=28142f1a-417e-4c54-aa4e-567fbc10175f","ios":"levelo://app?vid=28142f1a-417e-4c54-aa4e-567fbc10175f"},"vehicle_type_id":"4","last_reported":1703606894,"current_range_meters":18800,"station_id":"ce4bh0p2rcd13ifvqd80","pricing_plan_id":"free"},{"bike_id":"a39e4df6-270c-48a5-bf5b-4369739a907b","system_id":"levelo_inurba_marseille","lat":43.293009,"lon":5.374584,"is_reserved":false,"is_disabled":false,"rental_uris":{"android":"levelo://app?vid=a39e4df6-270c-48a5-bf5b-4369739a907b","ios":"levelo://app?vid=a39e4df6-270c-48a5-bf5b-4369739a907b"},"vehicle_type_id":"4","last_reported":1703606894,"current_range_meters":12000,"station_id":"ce4bgi12rcd13ifvqb70","pricing_plan_id":"free"},{"bike_id":"b3e0b037-c6a1-4279-a535-ddb9be3f08ed","system_id":"levelo_inurba_marseille","lat":43.303002,"lon":5.392142,"is_reserved":false,"is_disabled":false,"rental_uris":{"android":"levelo://app?vid=b3e0b037-c6a1-4279-a535-ddb9be3f08ed","ios":"levelo://app?vid=b3e0b037-c6a1-4279-a535-ddb9be3f08ed"},"vehicle_type_id":"4","last_reported":1703606894,"current_range_meters":16000,"station_id":"ce4bgkh2rcd13ifvqbk0","pricing_plan_id":"free"},{"bike_id":"54ebf056-b2a1-4843-863f-ee2c94a9a867","system_id":"levelo_inurba_marseille","lat":43.2936,"lon":5.37835,"is_reserved":false,"is_disabled":false,"rental_uris":{"android":"levelo://app?vid=54ebf056-b2a1-4843-863f-ee2c94a9a867","ios":"levelo://app?vid=54ebf056-b2a1-4843-863f-ee2c94a9a867"},"vehicle_type_id":"4","last_reported":1703606894,"current_range_meters":13200,"station_id":"ce4bgjh2rcd13ifvqbf0","pricing_plan_id":"free"},{"bike_id":"a6c478e6-554c-4570-a53b-a57aeca6c785","system_id":"levelo_inurba_marseille","lat":43.292311,"lon":5.360731,"is_reserved":false,"is_disabled":false,"rental_uris":{"android":"levelo://app?vid=a6c478e6-554c-4570-a53b-a57aeca6c785","ios":"levelo://app?vid=a6c478e6-554c-4570-a53b-a57aeca6c785"},"vehicle_type_id":"4","last_reported":1703606894,"current_range_meters":18800,"station_id":"ce4bhbh2rcd13ifvqeqg","pricing_plan_id":"free"},{"bike_id":"389b2b5c-75e4-4f8b-8209-de11f9f8e70e","system_id":"levelo_inurba_marseille","lat":43.292311,"lon":5.360731,"is_reserved":false,"is_disabled":false,"rental_uris":{"android":"levelo://app?vid=389b2b5c-75e4-4f8b-8209-de11f9f8e70e","ios":"levelo://app?vid=389b2b5c-75e4-4f8b-8209-de11f9f8e70e"},"vehicle_type_id":"4","last_reported":1703606894,"current_range_meters":26000,"station_id":"ce4bhbh2rcd13ifvqeqg","pricing_plan_id":"free"},{"bike_id":"3bb8d376-dbd2-41c8-81d7-29c11ff68e70","system_id":"levelo_inurba_marseille","lat":43.298858,"lon":5.38895,"is_reserved":false,"is_disabled":false,"rental_uris":{"android":"levelo://app?vid=3bb8d376-dbd2-41c8-81d7-29c11ff68e70","ios":"levelo://app?vid=3bb8d376-dbd2-41c8-81d7-29c11ff68e70"},"vehicle_type_id":"4","last_reported":1703606894,"current_range_meters":20400,"station_id":"","pricing_plan_id":"free"},{"bike_id":"1bb7557e-eac8-4579-af6c-b9683358fea4","system_id":"levelo_inurba_marseille","lat":43.29884,"lon":5.389025,"is_reserved":false,"is_disabled":false,"rental_uris":{"android":"levelo://app?vid=1bb7557e-eac8-4579-af6c-b9683358fea4","ios":"levelo://app?vid=1bb7557e-eac8-4579-af6c-b9683358fea4"},"vehicle_type_id":"4","last_reported":1703606894,"current_range_meters":24000,"station_id":"","pricing_plan_id":"free"},{"bike_id":"ecf7037a-5dd4-4c9a-b322-90da0ef6c001","system_id":"levelo_inurba_marseille","lat":43.291671,"lon":5.371575,"is_reserved":false,"is_disabled":false,"rental_uris":{"android":"levelo://app?vid=ecf7037a-5dd4-4c9a-b322-90da0ef6c001","ios":"levelo://app?vid=ecf7037a-5dd4-4c9a-b322-90da0ef6c001"},"vehicle_type_id":"4","last_reported":1703606894,"current_range_meters":28400,"station_id":"ce4bha92rcd13ifvqeh0","pricing_plan_id":"free"},{"bike_id":"c72eb268-34a3-442d-a857-7a01ceb3d460","system_id":"levelo_inurba_marseille","lat":43.291671,"lon":5.371575,"is_reserved":false,"is_disabled":false,"rental_uris":{"android":"levelo://app?vid=c72eb268-34a3-442d-a857-7a01ceb3d460","ios":"levelo://app?vid=c72eb268-34a3-442d-a857-7a01ceb3d460"},"vehicle_type_id":"4","last_reported":1703606894,"current_range_meters":31200,"station_id":"ce4bha92rcd13ifvqeh0","pricing_plan_id":"free"},{"bike_id":"f8ad87fb-faf9-4310-8434-bc415fdf4816","system_id":"levelo_inurba_marseille","lat":43.29867,"lon":5.38909,"is_reserved":false,"is_disabled":false,"rental_uris":{"android":"levelo://app?vid=f8ad87fb-faf9-4310-8434-bc415fdf4816","ios":"levelo://app?vid=f8ad87fb-faf9-4310-8434-bc415fdf4816"},"vehicle_type_id":"4","last_reported":1703606894,"current_range_meters":22400,"station_id":"","pricing_plan_id":"free"},{"bike_id":"83da56ef-c98e-4a29-9845-cefd5b085f83","system_id":"levelo_inurba_marseille","lat":43.309038,"lon":5.396546,"is_reserved":false,"is_disabled":false,"rental_uris":{"android":"levelo://app?vid=83da56ef-c98e-4a29-9845-cefd5b085f83","ios":"levelo://app?vid=83da56ef-c98e-4a29-9845-cefd5b085f83"},"vehicle_type_id":"4","last_reported":1703606894,"current_range_meters":28000,"station_id":"ce4bh012rcd13ifvqcv0","pricing_plan_id":"free"},{"bike_id":"946069d7-1eb2-4e33-b5f5-c2f8a64b4da3","system_id":"levelo_inurba_marseille","lat":43.291994,"lon":5.357886,"is_reserved":false,"is_disabled":false,"rental_uris":{"android":"levelo://app?vid=946069d7-1eb2-4e33-b5f5-c2f8a64b4da3","ios":"levelo://app?vid=946069d7-1eb2-4e33-b5f5-c2f8a64b4da3"},"vehicle_type_id":"4","last_reported":1703606894,"current_range_meters":22000,"station_id":"ce4bhb12rcd13ifvqel0","pricing_plan_id":"free"},{"bike_id":"790dab66-c512-4533-a5d5-3371b219ae24","system_id":"levelo_inurba_marseille","lat":43.291994,"lon":5.357886,"is_reserved":false,"is_disabled":false,"rental_uris":{"android":"levelo://app?vid=790dab66-c512-4533-a5d5-3371b219ae24","ios":"levelo://app?vid=790dab66-c512-4533-a5d5-3371b219ae24"},"vehicle_type_id":"4","last_reported":1703606894,"current_range_meters":20800,"station_id":"ce4bhb12rcd13ifvqel0","pricing_plan_id":"free"},{"bike_id":"1b40ac93-7bbc-442e-956b-c070b9bfc0d6","system_id":"levelo_inurba_marseille","lat":43.313291,"lon":5.396838,"is_reserved":false,"is_disabled":false,"rental_uris":{"android":"levelo://app?vid=1b40ac93-7bbc-442e-956b-c070b9bfc0d6","ios":"levelo://app?vid=1b40ac93-7bbc-442e-956b-c070b9bfc0d6"},"vehicle_type_id":"4","last_reported":1703606894,"current_range_meters":7200,"station_id":"ce4bgvp2rcd13ifvqcu0","pricing_plan_id":"free"},{"bike_id":"88883b25-1fe5-4a9a-89fb-7e4178cecf60","system_id":"levelo_inurba_marseille","lat":43.309038,"lon":5.396546,"is_reserved":false,"is_disabled":false,"rental_uris":{"android":"levelo://app?vid=88883b25-1fe5-4a9a-89fb-7e4178cecf60","ios":"levelo://app?vid=88883b25-1fe5-4a9a-89fb-7e4178cecf60"},"vehicle_type_id":"4","last_reported":1703606894,"current_range_meters":25200,"station_id":"ce4bh012rcd13ifvqcv0","pricing_plan_id":"free"},{"bike_id":"0df67340-b95c-4e93-b186-b7dcf0b60984","system_id":"levelo_inurba_marseille","lat":43.309038,"lon":5.396546,"is_reserved":false,"is_disabled":false,"rental_uris":{"android":"levelo://app?vid=0df67340-b95c-4e93-b186-b7dcf0b60984","ios":"levelo://app?vid=0df67340-b95c-4e93-b186-b7dcf0b60984"},"vehicle_type_id":"4","last_reported":1703606894,"current_range_meters":5200,"station_id":"ce4bh012rcd13ifvqcv0","pricing_plan_id":"free"},{"bike_id":"e7dd7be3-9e73-46e8-904b-07246ac08773","system_id":"levelo_inurba_marseille","lat":43.302008,"lon":5.394694,"is_reserved":false,"is_disabled":false,"rental_uris":{"android":"levelo://app?vid=e7dd7be3-9e73-46e8-904b-07246ac08773","ios":"levelo://app?vid=e7dd7be3-9e73-46e8-904b-07246ac08773"},"vehicle_type_id":"4","last_reported":1703606894,"current_range_meters":14400,"station_id":"ce4bh0p2rcd13ifvqd70","pricing_plan_id":"free"},{"bike_id":"a899b957-f31d-418b-8379-94ce35e00c0e","system_id":"levelo_inurba_marseille","lat":43.290631,"lon":5.359244,"is_reserved":false,"is_disabled":false,"rental_uris":{"android":"levelo://app?vid=a899b957-f31d-418b-8379-94ce35e00c0e","ios":"levelo://app?vid=a899b957-f31d-418b-8379-94ce35e00c0e"},"vehicle_type_id":"4","last_reported":1703606894,"current_range_meters":22400,"station_id":"ce4bha92rcd13ifvqeg0","pricing_plan_id":"free"},{"bike_id":"9b9fd0a9-9215-44a3-8f29-b53a0a02e7b1","system_id":"levelo_inurba_marseille","lat":43.302008,"lon":5.394694,"is_reserved":false,"is_disabled":false,"rental_uris":{"android":"levelo://app?vid=9b9fd0a9-9215-44a3-8f29-b53a0a02e7b1","ios":"levelo://app?vid=9b9fd0a9-9215-44a3-8f29-b53a0a02e7b1"},"vehicle_type_id":"4","last_reported":1703606894,"current_range_meters":7200,"station_id":"ce4bh0p2rcd13ifvqd70","pricing_plan_id":"free"},{"bike_id":"73423b72-c39b-4ae8-8f75-5b3f7261b4b2","system_id":"levelo_inurba_marseille","lat":43.290327,"lon":5.375711,"is_reserved":false,"is_disabled":false,"rental_uris":{"android":"levelo://app?vid=73423b72-c39b-4ae8-8f75-5b3f7261b4b2","ios":"levelo://app?vid=73423b72-c39b-4ae8-8f75-5b3f7261b4b2"},"vehicle_type_id":"4","last_reported":1703606894,"current_range_meters":29600,"station_id":"ce4bh692rcd13ifvqe90","pricing_plan_id":"free"},{"bike_id":"04a29f43-a762-4724-9b3b-a55c832cbf9e","system_id":"levelo_inurba_marseille","lat":43.289184,"lon":5.366408,"is_reserved":false,"is_disabled":false,"rental_uris":{"android":"levelo://app?vid=04a29f43-a762-4724-9b3b-a55c832cbf9e","ios":"levelo://app?vid=04a29f43-a762-4724-9b3b-a55c832cbf9e"},"vehicle_type_id":"4","last_reported":1703606894,"current_range_meters":24400,"station_id":"ce4bhap2rcd13ifvqek0","pricing_plan_id":"free"},{"bike_id":"3c7cfa85-0357-4d89-bf9a-da8515dd40dd","system_id":"levelo_inurba_marseille","lat":43.290327,"lon":5.375711,"is_reserved":false,"is_disabled":false,"rental_uris":{"android":"levelo://app?vid=3c7cfa85-0357-4d89-bf9a-da8515dd40dd","ios":"levelo://app?vid=3c7cfa85-0357-4d89-bf9a-da8515dd40dd"},"vehicle_type_id":"4","last_reported":1703606894,"current_range_meters":18800,"station_id":"ce4bh692rcd13ifvqe90","pricing_plan_id":"free"},{"bike_id":"eaa459bd-f5b3-4628-88e8-b9c59d68cd12","system_id":"levelo_inurba_marseille","lat":43.290327,"lon":5.375711,"is_reserved":false,"is_disabled":false,"rental_uris":{"android":"levelo://app?vid=eaa459bd-f5b3-4628-88e8-b9c59d68cd12","ios":"levelo://app?vid=eaa459bd-f5b3-4628-88e8-b9c59d68cd12"},"vehicle_type_id":"4","last_reported":1703606894,"current_range_meters":26400,"station_id":"ce4bh692rcd13ifvqe90","pricing_plan_id":"free"},{"bike_id":"3186d49c-8357-4526-87c4-f650aa134c4c","system_id":"levelo_inurba_marseille","lat":43.289389,"lon":5.363919,"is_reserved":false,"is_disabled":false,"rental_uris":{"android":"levelo://app?vid=3186d49c-8357-4526-87c4-f650aa134c4c","ios":"levelo://app?vid=3186d49c-8357-4526-87c4-f650aa134c4c"},"vehicle_type_id":"4","last_reported":1703606894,"current_range_meters":30800,"station_id":"","pricing_plan_id":"free"},{"bike_id":"6cb96538-79ec-40bc-a00e-480a90aef5f9","system_id":"levelo_inurba_marseille","lat":43.290104,"lon":5.356111,"is_reserved":false,"is_disabled":false,"rental_uris":{"android":"levelo://app?vid=6cb96538-79ec-40bc-a00e-480a90aef5f9","ios":"levelo://app?vid=6cb96538-79ec-40bc-a00e-480a90aef5f9"},"vehicle_type_id":"4","last_reported":1703606894,"current_range_meters":25600,"station_id":"ce4bhb92rcd13ifvqen0","pricing_plan_id":"free"},{"bike_id":"f3c63c7b-09e2-4734-8986-14ad4d133994","system_id":"levelo_inurba_marseille","lat":43.3302,"lon":5.39033,"is_reserved":false,"is_disabled":false,"rental_uris":{"android":"levelo://app?vid=f3c63c7b-09e2-4734-8986-14ad4d133994","ios":"levelo://app?vid=f3c63c7b-09e2-4734-8986-14ad4d133994"},"vehicle_type_id":"4","last_reported":1703606894,"current_range_meters":10800,"station_id":"","pricing_plan_id":"free"},{"bike_id":"362e2f30-af6b-4221-90c8-d18da00c60f3","system_id":"levelo_inurba_marseille","lat":43.33023,"lon":5.39036,"is_reserved":false,"is_disabled":false,"rental_uris":{"android":"levelo://app?vid=362e2f30-af6b-4221-90c8-d18da00c60f3","ios":"levelo://app?vid=362e2f30-af6b-4221-90c8-d18da00c60f3"},"vehicle_type_id":"4","last_reported":1703606894,"current_range_meters":19200,"station_id":"","pricing_plan_id":"free"},{"bike_id":"dcae6206-c334-4261-beae-e3fcb175cc64","system_id":"levelo_inurba_marseille","lat":43.291994,"lon":5.392907,"is_reserved":false,"is_disabled":false,"rental_uris":{"android":"levelo://app?vid=dcae6206-c334-4261-beae-e3fcb175cc64","ios":"levelo://app?vid=dcae6206-c334-4261-beae-e3fcb175cc64"},"vehicle_type_id":"4","last_reported":1703606894,"current_range_meters":24400,"station_id":"ce4bh192rcd13ifvqdd0","pricing_plan_id":"free"},{"bike_id":"2a45dfb3-ed36-4258-9b24-e16363f0b9c5","system_id":"levelo_inurba_marseille","lat":43.289741,"lon":5.378306,"is_reserved":false,"is_disabled":false,"rental_uris":{"android":"levelo://app?vid=2a45dfb3-ed36-4258-9b24-e16363f0b9c5","ios":"levelo://app?vid=2a45dfb3-ed36-4258-9b24-e16363f0b9c5"},"vehicle_type_id":"4","last_reported":1703606894,"current_range_meters":27600,"station_id":"ce4bh9p2rcd13ifvqed0","pricing_plan_id":"free"},{"bike_id":"18ec1453-63e5-4b22-a54e-20e51e1a0d8d","system_id":"levelo_inurba_marseille","lat":43.330442,"lon":5.389148,"is_reserved":false,"is_disabled":false,"rental_uris":{"android":"levelo://app?vid=18ec1453-63e5-4b22-a54e-20e51e1a0d8d","ios":"levelo://app?vid=18ec1453-63e5-4b22-a54e-20e51e1a0d8d"},"vehicle_type_id":"4","last_reported":1703606894,"current_range_meters":20000,"station_id":"ce4bhr92rcd13ifvqhrg","pricing_plan_id":"free"},{"bike_id":"01eec893-cb22-47ea-ba6f-18aee64380c7","system_id":"levelo_inurba_marseille","lat":43.33026,"lon":5.39095,"is_reserved":false,"is_disabled":false,"rental_uris":{"android":"levelo://app?vid=01eec893-cb22-47ea-ba6f-18aee64380c7","ios":"levelo://app?vid=01eec893-cb22-47ea-ba6f-18aee64380c7"},"vehicle_type_id":"4","last_reported":1703606894,"current_range_meters":9600,"station_id":"","pricing_plan_id":"free"},{"bike_id":"44744124-9e61-4258-85cf-c34d225dd1f9","system_id":"levelo_inurba_marseille","lat":43.28856,"lon":5.358371,"is_reserved":false,"is_disabled":false,"rental_uris":{"android":"levelo://app?vid=44744124-9e61-4258-85cf-c34d225dd1f9","ios":"levelo://app?vid=44744124-9e61-4258-85cf-c34d225dd1f9"},"vehicle_type_id":"4","last_reported":1703606894,"current_range_meters":20800,"station_id":"ce4bhb12rcd13ifvqem0","pricing_plan_id":"free"},{"bike_id":"7a543b19-90cd-4a87-b80d-37f423d89307","system_id":"levelo_inurba_marseille","lat":43.33043,"lon":5.3913,"is_reserved":false,"is_disabled":false,"rental_uris":{"android":"levelo://app?vid=7a543b19-90cd-4a87-b80d-37f423d89307","ios":"levelo://app?vid=7a543b19-90cd-4a87-b80d-37f423d89307"},"vehicle_type_id":"4","last_reported":1703606894,"current_range_meters":8000,"station_id":"","pricing_plan_id":"free"},{"bike_id":"d672ff40-6da8-4d34-af8b-fe33b932ea53","system_id":"levelo_inurba_marseille","lat":43.28856,"lon":5.358371,"is_reserved":false,"is_disabled":false,"rental_uris":{"android":"levelo://app?vid=d672ff40-6da8-4d34-af8b-fe33b932ea53","ios":"levelo://app?vid=d672ff40-6da8-4d34-af8b-fe33b932ea53"},"vehicle_type_id":"4","last_reported":1703606894,"current_range_meters":17600,"station_id":"ce4bhb12rcd13ifvqem0","pricing_plan_id":"free"},{"bike_id":"f852aa2b-ef7a-43f3-b79a-0bbc7814b559","system_id":"levelo_inurba_marseille","lat":43.309371,"lon":5.401449,"is_reserved":false,"is_disabled":false,"rental_uris":{"android":"levelo://app?vid=f852aa2b-ef7a-43f3-b79a-0bbc7814b559","ios":"levelo://app?vid=f852aa2b-ef7a-43f3-b79a-0bbc7814b559"},"vehicle_type_id":"4","last_reported":1703606894,"current_range_meters":22000,"station_id":"ce4bgvp2rcd13ifvqct0","pricing_plan_id":"free"},{"bike_id":"0ebaa983-400d-456b-a940-4c868baa118c","system_id":"levelo_inurba_marseille","lat":43.306412,"lon":5.401035,"is_reserved":false,"is_disabled":false,"rental_uris":{"android":"levelo://app?vid=0ebaa983-400d-456b-a940-4c868baa118c","ios":"levelo://app?vid=0ebaa983-400d-456b-a940-4c868baa118c"},"vehicle_type_id":"4","last_reported":1703606894,"current_range_meters":11600,"station_id":"ce4bh112rcd13ifvqda0","pricing_plan_id":"free"},{"bike_id":"324608cd-33b0-417a-a71b-0f42b835dbd1","system_id":"levelo_inurba_marseille","lat":43.33755,"lon":5.374678,"is_reserved":false,"is_disabled":false,"rental_uris":{"android":"levelo://app?vid=324608cd-33b0-417a-a71b-0f42b835dbd1","ios":"levelo://app?vid=324608cd-33b0-417a-a71b-0f42b835dbd1"},"vehicle_type_id":"4","last_reported":1703606894,"current_range_meters":29600,"station_id":"","pricing_plan_id":"free"},{"bike_id":"088eacfa-022a-45c3-be1f-39a115813f60","system_id":"levelo_inurba_marseille","lat":43.306412,"lon":5.401035,"is_reserved":false,"is_disabled":false,"rental_uris":{"android":"levelo://app?vid=088eacfa-022a-45c3-be1f-39a115813f60","ios":"levelo://app?vid=088eacfa-022a-45c3-be1f-39a115813f60"},"vehicle_type_id":"4","last_reported":1703606894,"current_range_meters":18800,"station_id":"ce4bh112rcd13ifvqda0","pricing_plan_id":"free"},{"bike_id":"660c08ee-ec4a-4cd5-8f5b-1c388acea786","system_id":"levelo_inurba_marseille","lat":43.301117,"lon":5.398795,"is_reserved":false,"is_disabled":false,"rental_uris":{"android":"levelo://app?vid=660c08ee-ec4a-4cd5-8f5b-1c388acea786","ios":"levelo://app?vid=660c08ee-ec4a-4cd5-8f5b-1c388acea786"},"vehicle_type_id":"4","last_reported":1703606894,"current_range_meters":28800,"station_id":"ce4bh0h2rcd13ifvqd40","pricing_plan_id":"free"},{"bike_id":"01871cf8-7319-484d-83b7-cc6da6e280ef","system_id":"levelo_inurba_marseille","lat":43.30139,"lon":5.39863,"is_reserved":false,"is_disabled":false,"rental_uris":{"android":"levelo://app?vid=01871cf8-7319-484d-83b7-cc6da6e280ef","ios":"levelo://app?vid=01871cf8-7319-484d-83b7-cc6da6e280ef"},"vehicle_type_id":"4","last_reported":1703606894,"current_range_meters":25200,"station_id":"ce4bh0h2rcd13ifvqd40","pricing_plan_id":"free"},{"bike_id":"a6acd9bb-4ab6-40ce-a0f8-f6a69cc7f1ba","system_id":"levelo_inurba_marseille","lat":43.2866,"lon":5.3636,"is_reserved":false,"is_disabled":false,"rental_uris":{"android":"levelo://app?vid=a6acd9bb-4ab6-40ce-a0f8-f6a69cc7f1ba","ios":"levelo://app?vid=a6acd9bb-4ab6-40ce-a0f8-f6a69cc7f1ba"},"vehicle_type_id":"4","last_reported":1703606894,"current_range_meters":21200,"station_id":"ce4bhah2rcd13ifvqej0","pricing_plan_id":"free"},{"bike_id":"9010a516-95e6-406b-917f-5e2a36fd62b8","system_id":"levelo_inurba_marseille","lat":43.286568,"lon":5.363554,"is_reserved":false,"is_disabled":false,"rental_uris":{"android":"levelo://app?vid=9010a516-95e6-406b-917f-5e2a36fd62b8","ios":"levelo://app?vid=9010a516-95e6-406b-917f-5e2a36fd62b8"},"vehicle_type_id":"4","last_reported":1703606894,"current_range_meters":400,"station_id":"ce4bhah2rcd13ifvqej0","pricing_plan_id":"free"},{"bike_id":"620c537a-c0f6-44e8-8d82-29c6c39bf7bb","system_id":"levelo_inurba_marseille","lat":43.286961,"lon":5.373785,"is_reserved":false,"is_disabled":false,"rental_uris":{"android":"levelo://app?vid=620c537a-c0f6-44e8-8d82-29c6c39bf7bb","ios":"levelo://app?vid=620c537a-c0f6-44e8-8d82-29c6c39bf7bb"},"vehicle_type_id":"4","last_reported":1703606894,"current_range_meters":16000,"station_id":"ce4bh3p2rcd13ifvqdq0","pricing_plan_id":"free"},{"bike_id":"f9287cb1-0642-443d-b7a7-53df139b227a","system_id":"levelo_inurba_marseille","lat":43.290336,"lon":5.386425,"is_reserved":false,"is_disabled":false,"rental_uris":{"android":"levelo://app?vid=f9287cb1-0642-443d-b7a7-53df139b227a","ios":"levelo://app?vid=f9287cb1-0642-443d-b7a7-53df139b227a"},"vehicle_type_id":"4","last_reported":1703606894,"current_range_meters":20400,"station_id":"ce4bh4p2rcd13ifvqe0g","pricing_plan_id":"free"},{"bike_id":"d6c123b9-96a1-49ce-9485-064bf6af399e","system_id":"levelo_inurba_marseille","lat":43.302759,"lon":5.400793,"is_reserved":false,"is_disabled":false,"rental_uris":{"android":"levelo://app?vid=d6c123b9-96a1-49ce-9485-064bf6af399e","ios":"levelo://app?vid=d6c123b9-96a1-49ce-9485-064bf6af399e"},"vehicle_type_id":"4","last_reported":1703606894,"current_range_meters":30400,"station_id":"ce4bgvh2rcd13ifvqcs0","pricing_plan_id":"free"},{"bike_id":"7260845c-a0df-4ce3-b635-e91590bb4f9a","system_id":"levelo_inurba_marseille","lat":43.286068,"lon":5.370688,"is_reserved":false,"is_disabled":false,"rental_uris":{"android":"levelo://app?vid=7260845c-a0df-4ce3-b635-e91590bb4f9a","ios":"levelo://app?vid=7260845c-a0df-4ce3-b635-e91590bb4f9a"},"vehicle_type_id":"4","last_reported":1703606894,"current_range_meters":19600,"station_id":"ce4bht12rcd13ifvqi60","pricing_plan_id":"free"},{"bike_id":"b8ae8959-d827-4ceb-8ce0-3e03906d250d","system_id":"levelo_inurba_marseille","lat":43.28605,"lon":5.37068,"is_reserved":false,"is_disabled":false,"rental_uris":{"android":"levelo://app?vid=b8ae8959-d827-4ceb-8ce0-3e03906d250d","ios":"levelo://app?vid=b8ae8959-d827-4ceb-8ce0-3e03906d250d"},"vehicle_type_id":"4","last_reported":1703606894,"current_range_meters":26400,"station_id":"ce4bht12rcd13ifvqi60","pricing_plan_id":"free"},{"bike_id":"e42f2d48-1eac-4ea9-97da-9a200b97c493","system_id":"levelo_inurba_marseille","lat":43.28604,"lon":5.37065,"is_reserved":false,"is_disabled":false,"rental_uris":{"android":"levelo://app?vid=e42f2d48-1eac-4ea9-97da-9a200b97c493","ios":"levelo://app?vid=e42f2d48-1eac-4ea9-97da-9a200b97c493"},"vehicle_type_id":"4","last_reported":1703606894,"current_range_meters":24000,"station_id":"ce4bht12rcd13ifvqi60","pricing_plan_id":"free"},{"bike_id":"0ade99fb-20fc-423b-a697-58876a6bf0b1","system_id":"levelo_inurba_marseille","lat":43.287018,"lon":5.379422,"is_reserved":false,"is_disabled":false,"rental_uris":{"android":"levelo://app?vid=0ade99fb-20fc-423b-a697-58876a6bf0b1","ios":"levelo://app?vid=0ade99fb-20fc-423b-a697-58876a6bf0b1"},"vehicle_type_id":"4","last_reported":1703606894,"current_range_meters":17200,"station_id":"ce4bh9p2rcd13ifvqec0","pricing_plan_id":"free"},{"bike_id":"e2adfa7c-882e-48a1-9ee4-b36e6186ebbf","system_id":"levelo_inurba_marseille","lat":43.330912,"lon":5.396935,"is_reserved":false,"is_disabled":false,"rental_uris":{"android":"levelo://app?vid=e2adfa7c-882e-48a1-9ee4-b36e6186ebbf","ios":"levelo://app?vid=e2adfa7c-882e-48a1-9ee4-b36e6186ebbf"},"vehicle_type_id":"4","last_reported":1703606894,"current_range_meters":2400,"station_id":"","pricing_plan_id":"free"},{"bike_id":"d4a8c6f5-1913-4f5f-bcba-c2528c2f764a","system_id":"levelo_inurba_marseille","lat":43.284538,"lon":5.358657,"is_reserved":false,"is_disabled":false,"rental_uris":{"android":"levelo://app?vid=d4a8c6f5-1913-4f5f-bcba-c2528c2f764a","ios":"levelo://app?vid=d4a8c6f5-1913-4f5f-bcba-c2528c2f764a"},"vehicle_type_id":"4","last_reported":1703606894,"current_range_meters":31600,"station_id":"ce4bhah2rcd13ifvqei0","pricing_plan_id":"free"},{"bike_id":"71283b06-6af7-41ae-a62c-e10dff701164","system_id":"levelo_inurba_marseille","lat":43.284538,"lon":5.358657,"is_reserved":false,"is_disabled":false,"rental_uris":{"android":"levelo://app?vid=71283b06-6af7-41ae-a62c-e10dff701164","ios":"levelo://app?vid=71283b06-6af7-41ae-a62c-e10dff701164"},"vehicle_type_id":"4","last_reported":1703606894,"current_range_meters":28400,"station_id":"ce4bhah2rcd13ifvqei0","pricing_plan_id":"free"},{"bike_id":"ad28d462-7697-4caa-820c-1453694819f1","system_id":"levelo_inurba_marseille","lat":43.284538,"lon":5.358657,"is_reserved":false,"is_disabled":false,"rental_uris":{"android":"levelo://app?vid=ad28d462-7697-4caa-820c-1453694819f1","ios":"levelo://app?vid=ad28d462-7697-4caa-820c-1453694819f1"},"vehicle_type_id":"4","last_reported":1703606894,"current_range_meters":12800,"station_id":"ce4bhah2rcd13ifvqei0","pricing_plan_id":"free"},{"bike_id":"74593234-4595-46ca-bf10-c305e046fe13","system_id":"levelo_inurba_marseille","lat":43.284534,"lon":5.358662,"is_reserved":false,"is_disabled":false,"rental_uris":{"android":"levelo://app?vid=74593234-4595-46ca-bf10-c305e046fe13","ios":"levelo://app?vid=74593234-4595-46ca-bf10-c305e046fe13"},"vehicle_type_id":"4","last_reported":1703606894,"current_range_meters":16800,"station_id":"ce4bhah2rcd13ifvqei0","pricing_plan_id":"free"},{"bike_id":"49fe15ad-10be-4675-a337-184b67a7ad23","system_id":"levelo_inurba_marseille","lat":43.285856,"lon":5.350771,"is_reserved":false,"is_disabled":false,"rental_uris":{"android":"levelo://app?vid=49fe15ad-10be-4675-a337-184b67a7ad23","ios":"levelo://app?vid=49fe15ad-10be-4675-a337-184b67a7ad23"},"vehicle_type_id":"4","last_reported":1703606894,"current_range_meters":19600,"station_id":"ce4bhch2rcd13ifvqeug","pricing_plan_id":"free"},{"bike_id":"3c96003b-f2de-4d2c-aa9f-3ebbf306d2c2","system_id":"levelo_inurba_marseille","lat":43.285856,"lon":5.350771,"is_reserved":false,"is_disabled":false,"rental_uris":{"android":"levelo://app?vid=3c96003b-f2de-4d2c-aa9f-3ebbf306d2c2","ios":"levelo://app?vid=3c96003b-f2de-4d2c-aa9f-3ebbf306d2c2"},"vehicle_type_id":"4","last_reported":1703606894,"current_range_meters":18400,"station_id":"ce4bhch2rcd13ifvqeug","pricing_plan_id":"free"},{"bike_id":"51e17138-6637-4300-b9a2-aa8c98496572","system_id":"levelo_inurba_marseille","lat":43.285856,"lon":5.350771,"is_reserved":false,"is_disabled":false,"rental_uris":{"android":"levelo://app?vid=51e17138-6637-4300-b9a2-aa8c98496572","ios":"levelo://app?vid=51e17138-6637-4300-b9a2-aa8c98496572"},"vehicle_type_id":"4","last_reported":1703606894,"current_range_meters":22400,"station_id":"ce4bhch2rcd13ifvqeug","pricing_plan_id":"free"},{"bike_id":"b3c74a90-056c-47f9-bf2e-21253b84e506","system_id":"levelo_inurba_marseille","lat":43.283998,"lon":5.375062,"is_reserved":false,"is_disabled":false,"rental_uris":{"android":"levelo://app?vid=b3c74a90-056c-47f9-bf2e-21253b84e506","ios":"levelo://app?vid=b3c74a90-056c-47f9-bf2e-21253b84e506"},"vehicle_type_id":"4","last_reported":1703606894,"current_range_meters":23200,"station_id":"ce4bh412rcd13ifvqds0","pricing_plan_id":"free"},{"bike_id":"0d5a86eb-c1e8-453f-b9f8-51d2d5096a12","system_id":"levelo_inurba_marseille","lat":43.295713,"lon":5.399639,"is_reserved":false,"is_disabled":false,"rental_uris":{"android":"levelo://app?vid=0d5a86eb-c1e8-453f-b9f8-51d2d5096a12","ios":"levelo://app?vid=0d5a86eb-c1e8-453f-b9f8-51d2d5096a12"},"vehicle_type_id":"4","last_reported":1703606894,"current_range_meters":1200,"station_id":"ce4bh312rcd13ifvqdj0","pricing_plan_id":"free"},{"bike_id":"5f04d3dd-3688-4f4e-beda-19d871c9b670","system_id":"levelo_inurba_marseille","lat":43.283998,"lon":5.375062,"is_reserved":false,"is_disabled":false,"rental_uris":{"android":"levelo://app?vid=5f04d3dd-3688-4f4e-beda-19d871c9b670","ios":"levelo://app?vid=5f04d3dd-3688-4f4e-beda-19d871c9b670"},"vehicle_type_id":"4","last_reported":1703606894,"current_range_meters":5200,"station_id":"ce4bh412rcd13ifvqds0","pricing_plan_id":"free"},{"bike_id":"ff6ebe2d-10e0-4bee-8d5b-0d34d0573673","system_id":"levelo_inurba_marseille","lat":43.337151,"lon":5.39161,"is_reserved":false,"is_disabled":false,"rental_uris":{"android":"levelo://app?vid=ff6ebe2d-10e0-4bee-8d5b-0d34d0573673","ios":"levelo://app?vid=ff6ebe2d-10e0-4bee-8d5b-0d34d0573673"},"vehicle_type_id":"4","last_reported":1703606894,"current_range_meters":17200,"station_id":"ce4bhr92rcd13ifvqhsg","pricing_plan_id":"free"},{"bike_id":"32358c1c-e30e-473f-9e3b-ee56f5e3d31c","system_id":"levelo_inurba_marseille","lat":43.323464,"lon":5.406297,"is_reserved":false,"is_disabled":false,"rental_uris":{"android":"levelo://app?vid=32358c1c-e30e-473f-9e3b-ee56f5e3d31c","ios":"levelo://app?vid=32358c1c-e30e-473f-9e3b-ee56f5e3d31c"},"vehicle_type_id":"4","last_reported":1703606894,"current_range_meters":28000,"station_id":"ce4bhq92rcd13ifvqhjg","pricing_plan_id":"free"},{"bike_id":"f014d93c-6587-4fd6-b0e4-081acb085555","system_id":"levelo_inurba_marseille","lat":43.284683,"lon":5.384187,"is_reserved":false,"is_disabled":false,"rental_uris":{"android":"levelo://app?vid=f014d93c-6587-4fd6-b0e4-081acb085555","ios":"levelo://app?vid=f014d93c-6587-4fd6-b0e4-081acb085555"},"vehicle_type_id":"4","last_reported":1703606894,"current_range_meters":17200,"station_id":"ce4bh512rcd13ifvqe3g","pricing_plan_id":"free"},{"bike_id":"fea4b9ee-19e0-4716-9f94-4df9a96fcb90","system_id":"levelo_inurba_marseille","lat":43.297946,"lon":5.404063,"is_reserved":false,"is_disabled":false,"rental_uris":{"android":"levelo://app?vid=fea4b9ee-19e0-4716-9f94-4df9a96fcb90","ios":"levelo://app?vid=fea4b9ee-19e0-4716-9f94-4df9a96fcb90"},"vehicle_type_id":"4","last_reported":1703606894,"current_range_meters":23600,"station_id":"ce4bh112rcd13ifvqd90","pricing_plan_id":"free"},{"bike_id":"0603b024-70fb-459e-b7a1-092ca90c9f19","system_id":"levelo_inurba_marseille","lat":43.297946,"lon":5.404063,"is_reserved":false,"is_disabled":false,"rental_uris":{"android":"levelo://app?vid=0603b024-70fb-459e-b7a1-092ca90c9f19","ios":"levelo://app?vid=0603b024-70fb-459e-b7a1-092ca90c9f19"},"vehicle_type_id":"4","last_reported":1703606894,"current_range_meters":13600,"station_id":"ce4bh112rcd13ifvqd90","pricing_plan_id":"free"},{"bike_id":"929408d6-8d9c-42e5-bcbf-e961eef6e1da","system_id":"levelo_inurba_marseille","lat":43.283494,"lon":5.380945,"is_reserved":false,"is_disabled":false,"rental_uris":{"android":"levelo://app?vid=929408d6-8d9c-42e5-bcbf-e961eef6e1da","ios":"levelo://app?vid=929408d6-8d9c-42e5-bcbf-e961eef6e1da"},"vehicle_type_id":"4","last_reported":1703606894,"current_range_meters":0,"station_id":"ce4bh412rcd13ifvqdr0","pricing_plan_id":"free"},{"bike_id":"96f08949-9741-46b9-b3c5-0056fdb3c07d","system_id":"levelo_inurba_marseille","lat":43.283494,"lon":5.380945,"is_reserved":false,"is_disabled":false,"rental_uris":{"android":"levelo://app?vid=96f08949-9741-46b9-b3c5-0056fdb3c07d","ios":"levelo://app?vid=96f08949-9741-46b9-b3c5-0056fdb3c07d"},"vehicle_type_id":"4","last_reported":1703606894,"current_range_meters":18400,"station_id":"ce4bh412rcd13ifvqdr0","pricing_plan_id":"free"},{"bike_id":"e0b68692-8b72-46fb-ac41-394761fb3425","system_id":"levelo_inurba_marseille","lat":43.283494,"lon":5.380945,"is_reserved":false,"is_disabled":false,"rental_uris":{"android":"levelo://app?vid=e0b68692-8b72-46fb-ac41-394761fb3425","ios":"levelo://app?vid=e0b68692-8b72-46fb-ac41-394761fb3425"},"vehicle_type_id":"4","last_reported":1703606894,"current_range_meters":29200,"station_id":"ce4bh412rcd13ifvqdr0","pricing_plan_id":"free"},{"bike_id":"e485450b-2736-4f4c-b94b-0da5a69b88aa","system_id":"levelo_inurba_marseille","lat":43.33385,"lon":5.39822,"is_reserved":false,"is_disabled":false,"rental_uris":{"android":"levelo://app?vid=e485450b-2736-4f4c-b94b-0da5a69b88aa","ios":"levelo://app?vid=e485450b-2736-4f4c-b94b-0da5a69b88aa"},"vehicle_type_id":"4","last_reported":1703606894,"current_range_meters":22000,"station_id":"","pricing_plan_id":"free"},{"bike_id":"7ff874d5-4fe1-4acc-81db-b077e7e8c795","system_id":"levelo_inurba_marseille","lat":43.292724,"lon":5.401131,"is_reserved":false,"is_disabled":false,"rental_uris":{"android":"levelo://app?vid=7ff874d5-4fe1-4acc-81db-b077e7e8c795","ios":"levelo://app?vid=7ff874d5-4fe1-4acc-81db-b077e7e8c795"},"vehicle_type_id":"4","last_reported":1703606894,"current_range_meters":28000,"station_id":"ce4bh312rcd13ifvqdk0","pricing_plan_id":"free"},{"bike_id":"733c2589-bc20-4b60-9ea0-6ec24bc189a2","system_id":"levelo_inurba_marseille","lat":43.283502,"lon":5.386471,"is_reserved":false,"is_disabled":false,"rental_uris":{"android":"levelo://app?vid=733c2589-bc20-4b60-9ea0-6ec24bc189a2","ios":"levelo://app?vid=733c2589-bc20-4b60-9ea0-6ec24bc189a2"},"vehicle_type_id":"4","last_reported":1703606894,"current_range_meters":21200,"station_id":"ce4bh492rcd13ifvqdvg","pricing_plan_id":"free"},{"bike_id":"59b9cd85-659a-41c7-b3a2-cf53e34d104f","system_id":"levelo_inurba_marseille","lat":43.283502,"lon":5.386471,"is_reserved":false,"is_disabled":false,"rental_uris":{"android":"levelo://app?vid=59b9cd85-659a-41c7-b3a2-cf53e34d104f","ios":"levelo://app?vid=59b9cd85-659a-41c7-b3a2-cf53e34d104f"},"vehicle_type_id":"4","last_reported":1703606894,"current_range_meters":28800,"station_id":"ce4bh492rcd13ifvqdvg","pricing_plan_id":"free"},{"bike_id":"3a53bb59-69d0-469b-825f-d534a821ad18","system_id":"levelo_inurba_marseille","lat":43.282744,"lon":5.350533,"is_reserved":false,"is_disabled":false,"rental_uris":{"android":"levelo://app?vid=3a53bb59-69d0-469b-825f-d534a821ad18","ios":"levelo://app?vid=3a53bb59-69d0-469b-825f-d534a821ad18"},"vehicle_type_id":"4","last_reported":1703606894,"current_range_meters":22000,"station_id":"ce4bhbp2rcd13ifvqerg","pricing_plan_id":"free"},{"bike_id":"8a0c1706-63fa-4cd7-99df-a37cb551ceda","system_id":"levelo_inurba_marseille","lat":43.283502,"lon":5.386471,"is_reserved":false,"is_disabled":false,"rental_uris":{"android":"levelo://app?vid=8a0c1706-63fa-4cd7-99df-a37cb551ceda","ios":"levelo://app?vid=8a0c1706-63fa-4cd7-99df-a37cb551ceda"},"vehicle_type_id":"4","last_reported":1703606894,"current_range_meters":25600,"station_id":"ce4bh492rcd13ifvqdvg","pricing_plan_id":"free"},{"bike_id":"874247a8-b851-4752-bb55-16e8eebdc42c","system_id":"levelo_inurba_marseille","lat":43.280382,"lon":5.369291,"is_reserved":false,"is_disabled":false,"rental_uris":{"android":"levelo://app?vid=874247a8-b851-4752-bb55-16e8eebdc42c","ios":"levelo://app?vid=874247a8-b851-4752-bb55-16e8eebdc42c"},"vehicle_type_id":"4","last_reported":1703606894,"current_range_meters":27200,"station_id":"ce4bha12rcd13ifvqef0","pricing_plan_id":"free"},{"bike_id":"21cdddc6-61d7-4c4d-8e98-9b6c2f0d4480","system_id":"levelo_inurba_marseille","lat":43.280382,"lon":5.369291,"is_reserved":false,"is_disabled":false,"rental_uris":{"android":"levelo://app?vid=21cdddc6-61d7-4c4d-8e98-9b6c2f0d4480","ios":"levelo://app?vid=21cdddc6-61d7-4c4d-8e98-9b6c2f0d4480"},"vehicle_type_id":"4","last_reported":1703606894,"current_range_meters":18000,"station_id":"ce4bha12rcd13ifvqef0","pricing_plan_id":"free"},{"bike_id":"a7241d5c-5d81-486d-bb24-2a125409238d","system_id":"levelo_inurba_marseille","lat":43.28039,"lon":5.369297,"is_reserved":false,"is_disabled":false,"rental_uris":{"android":"levelo://app?vid=a7241d5c-5d81-486d-bb24-2a125409238d","ios":"levelo://app?vid=a7241d5c-5d81-486d-bb24-2a125409238d"},"vehicle_type_id":"4","last_reported":1703606894,"current_range_meters":28400,"station_id":"ce4bha12rcd13ifvqef0","pricing_plan_id":"free"},{"bike_id":"79a654b4-7e2e-4782-9a88-01bb282d237a","system_id":"levelo_inurba_marseille","lat":43.29041,"lon":5.399634,"is_reserved":false,"is_disabled":false,"rental_uris":{"android":"levelo://app?vid=79a654b4-7e2e-4782-9a88-01bb282d237a","ios":"levelo://app?vid=79a654b4-7e2e-4782-9a88-01bb282d237a"},"vehicle_type_id":"4","last_reported":1703606894,"current_range_meters":28400,"station_id":"ce4bh392rcd13ifvqdm0","pricing_plan_id":"free"},{"bike_id":"0b367a80-00b3-49a6-af52-48179ba90d52","system_id":"levelo_inurba_marseille","lat":43.29041,"lon":5.399634,"is_reserved":false,"is_disabled":false,"rental_uris":{"android":"levelo://app?vid=0b367a80-00b3-49a6-af52-48179ba90d52","ios":"levelo://app?vid=0b367a80-00b3-49a6-af52-48179ba90d52"},"vehicle_type_id":"4","last_reported":1703606894,"current_range_meters":16400,"station_id":"ce4bh392rcd13ifvqdm0","pricing_plan_id":"free"},{"bike_id":"728db37e-43ee-4eaa-826d-2a288cb4f624","system_id":"levelo_inurba_marseille","lat":43.281044,"lon":5.378308,"is_reserved":false,"is_disabled":false,"rental_uris":{"android":"levelo://app?vid=728db37e-43ee-4eaa-826d-2a288cb4f624","ios":"levelo://app?vid=728db37e-43ee-4eaa-826d-2a288cb4f624"},"vehicle_type_id":"4","last_reported":1703606894,"current_range_meters":29200,"station_id":"ce4bha12rcd13ifvqee0","pricing_plan_id":"free"},{"bike_id":"6db115f2-2b8f-4ffa-9e31-b66bc9e104e2","system_id":"levelo_inurba_marseille","lat":43.284462,"lon":5.392121,"is_reserved":false,"is_disabled":false,"rental_uris":{"android":"levelo://app?vid=6db115f2-2b8f-4ffa-9e31-b66bc9e104e2","ios":"levelo://app?vid=6db115f2-2b8f-4ffa-9e31-b66bc9e104e2"},"vehicle_type_id":"4","last_reported":1703606894,"current_range_meters":31200,"station_id":"ce4bhoh2rcd13ifvqh5g","pricing_plan_id":"free"},{"bike_id":"65119951-e790-4999-8774-7031ae3f11c9","system_id":"levelo_inurba_marseille","lat":43.28573,"lon":5.394992,"is_reserved":false,"is_disabled":false,"rental_uris":{"android":"levelo://app?vid=65119951-e790-4999-8774-7031ae3f11c9","ios":"levelo://app?vid=65119951-e790-4999-8774-7031ae3f11c9"},"vehicle_type_id":"4","last_reported":1703606894,"current_range_meters":14400,"station_id":"ce4bh292rcd13ifvqdg0","pricing_plan_id":"free"},{"bike_id":"59694483-c0c7-4e2b-a041-eb5f09ee04a9","system_id":"levelo_inurba_marseille","lat":43.285742,"lon":5.395004,"is_reserved":false,"is_disabled":false,"rental_uris":{"android":"levelo://app?vid=59694483-c0c7-4e2b-a041-eb5f09ee04a9","ios":"levelo://app?vid=59694483-c0c7-4e2b-a041-eb5f09ee04a9"},"vehicle_type_id":"4","last_reported":1703606894,"current_range_meters":16400,"station_id":"ce4bh292rcd13ifvqdg0","pricing_plan_id":"free"},{"bike_id":"08b9129a-cfc9-40ea-b2d0-b07247bef784","system_id":"levelo_inurba_marseille","lat":43.326605,"lon":5.409903,"is_reserved":false,"is_disabled":false,"rental_uris":{"android":"levelo://app?vid=08b9129a-cfc9-40ea-b2d0-b07247bef784","ios":"levelo://app?vid=08b9129a-cfc9-40ea-b2d0-b07247bef784"},"vehicle_type_id":"4","last_reported":1703606894,"current_range_meters":29200,"station_id":"ce4bhpp2rcd13ifvqhgg","pricing_plan_id":"free"},{"bike_id":"ac9dac70-196c-44e2-9dfb-24b71db226e1","system_id":"levelo_inurba_marseille","lat":43.326605,"lon":5.409903,"is_reserved":false,"is_disabled":false,"rental_uris":{"android":"levelo://app?vid=ac9dac70-196c-44e2-9dfb-24b71db226e1","ios":"levelo://app?vid=ac9dac70-196c-44e2-9dfb-24b71db226e1"},"vehicle_type_id":"4","last_reported":1703606894,"current_range_meters":26800,"station_id":"ce4bhpp2rcd13ifvqhgg","pricing_plan_id":"free"},{"bike_id":"12e2eb34-0a3c-49c1-b8e6-9db93976feb5","system_id":"levelo_inurba_marseille","lat":43.279087,"lon":5.380114,"is_reserved":false,"is_disabled":false,"rental_uris":{"android":"levelo://app?vid=12e2eb34-0a3c-49c1-b8e6-9db93976feb5","ios":"levelo://app?vid=12e2eb34-0a3c-49c1-b8e6-9db93976feb5"},"vehicle_type_id":"4","last_reported":1703606894,"current_range_meters":30400,"station_id":"ce4bhf92rcd13ifvqf50","pricing_plan_id":"free"},{"bike_id":"30f310ab-2186-4843-98a8-0917e06193d3","system_id":"levelo_inurba_marseille","lat":43.287154,"lon":5.399979,"is_reserved":false,"is_disabled":false,"rental_uris":{"android":"levelo://app?vid=30f310ab-2186-4843-98a8-0917e06193d3","ios":"levelo://app?vid=30f310ab-2186-4843-98a8-0917e06193d3"},"vehicle_type_id":"4","last_reported":1703606894,"current_range_meters":30400,"station_id":"ce4bho92rcd13ifvqh3g","pricing_plan_id":"free"},{"bike_id":"7f79ad9e-00fd-4174-9f6b-9ccf3762df86","system_id":"levelo_inurba_marseille","lat":43.287154,"lon":5.399979,"is_reserved":false,"is_disabled":false,"rental_uris":{"android":"levelo://app?vid=7f79ad9e-00fd-4174-9f6b-9ccf3762df86","ios":"levelo://app?vid=7f79ad9e-00fd-4174-9f6b-9ccf3762df86"},"vehicle_type_id":"4","last_reported":1703606894,"current_range_meters":26400,"station_id":"ce4bho92rcd13ifvqh3g","pricing_plan_id":"free"},{"bike_id":"85944aa3-9566-4184-94f0-1190b9e7e8cb","system_id":"levelo_inurba_marseille","lat":43.28707,"lon":5.39992,"is_reserved":false,"is_disabled":false,"rental_uris":{"android":"levelo://app?vid=85944aa3-9566-4184-94f0-1190b9e7e8cb","ios":"levelo://app?vid=85944aa3-9566-4184-94f0-1190b9e7e8cb"},"vehicle_type_id":"4","last_reported":1703606894,"current_range_meters":28400,"station_id":"ce4bho92rcd13ifvqh3g","pricing_plan_id":"free"},{"bike_id":"d0504263-1c23-49e1-b317-72ebd159c6d6","system_id":"levelo_inurba_marseille","lat":43.279742,"lon":5.38744,"is_reserved":false,"is_disabled":false,"rental_uris":{"android":"levelo://app?vid=d0504263-1c23-49e1-b317-72ebd159c6d6","ios":"levelo://app?vid=d0504263-1c23-49e1-b317-72ebd159c6d6"},"vehicle_type_id":"4","last_reported":1703606894,"current_range_meters":31200,"station_id":"ce4bhg12rcd13ifvqf80","pricing_plan_id":"free"},{"bike_id":"1f49b234-69ed-438e-8d08-179a4fc9c8c6","system_id":"levelo_inurba_marseille","lat":43.320045,"lon":5.415046,"is_reserved":false,"is_disabled":false,"rental_uris":{"android":"levelo://app?vid=1f49b234-69ed-438e-8d08-179a4fc9c8c6","ios":"levelo://app?vid=1f49b234-69ed-438e-8d08-179a4fc9c8c6"},"vehicle_type_id":"4","last_reported":1703606894,"current_range_meters":31200,"station_id":"ce4bhq92rcd13ifvqhkg","pricing_plan_id":"free"},{"bike_id":"c7bd3360-8623-45a1-80df-ba9edb342255","system_id":"levelo_inurba_marseille","lat":43.320045,"lon":5.415046,"is_reserved":false,"is_disabled":false,"rental_uris":{"android":"levelo://app?vid=c7bd3360-8623-45a1-80df-ba9edb342255","ios":"levelo://app?vid=c7bd3360-8623-45a1-80df-ba9edb342255"},"vehicle_type_id":"4","last_reported":1703606894,"current_range_meters":8800,"station_id":"ce4bhq92rcd13ifvqhkg","pricing_plan_id":"free"},{"bike_id":"0f9ba54f-2d34-4815-a7a3-85ee9d8e32a4","system_id":"levelo_inurba_marseille","lat":43.320045,"lon":5.415048,"is_reserved":false,"is_disabled":false,"rental_uris":{"android":"levelo://app?vid=0f9ba54f-2d34-4815-a7a3-85ee9d8e32a4","ios":"levelo://app?vid=0f9ba54f-2d34-4815-a7a3-85ee9d8e32a4"},"vehicle_type_id":"4","last_reported":1703606894,"current_range_meters":29600,"station_id":"ce4bhq92rcd13ifvqhkg","pricing_plan_id":"free"},{"bike_id":"0c5a5d98-eaad-40b2-af25-a1132f16165a","system_id":"levelo_inurba_marseille","lat":43.292571,"lon":5.409107,"is_reserved":false,"is_disabled":false,"rental_uris":{"android":"levelo://app?vid=0c5a5d98-eaad-40b2-af25-a1132f16165a","ios":"levelo://app?vid=0c5a5d98-eaad-40b2-af25-a1132f16165a"},"vehicle_type_id":"4","last_reported":1703606894,"current_range_meters":12000,"station_id":"ce4bh192rcd13ifvqdc0","pricing_plan_id":"free"},{"bike_id":"8dc4a5bb-1084-4d65-a32c-faaa259b0626","system_id":"levelo_inurba_marseille","lat":43.292571,"lon":5.409107,"is_reserved":false,"is_disabled":false,"rental_uris":{"android":"levelo://app?vid=8dc4a5bb-1084-4d65-a32c-faaa259b0626","ios":"levelo://app?vid=8dc4a5bb-1084-4d65-a32c-faaa259b0626"},"vehicle_type_id":"4","last_reported":1703606894,"current_range_meters":14800,"station_id":"ce4bh192rcd13ifvqdc0","pricing_plan_id":"free"},{"bike_id":"11bfe843-22bd-4dfe-9a34-43ec002dbd62","system_id":"levelo_inurba_marseille","lat":43.292571,"lon":5.409107,"is_reserved":false,"is_disabled":false,"rental_uris":{"android":"levelo://app?vid=11bfe843-22bd-4dfe-9a34-43ec002dbd62","ios":"levelo://app?vid=11bfe843-22bd-4dfe-9a34-43ec002dbd62"},"vehicle_type_id":"4","last_reported":1703606894,"current_range_meters":31600,"station_id":"ce4bh192rcd13ifvqdc0","pricing_plan_id":"free"},{"bike_id":"91df61cf-f20a-45e5-9dca-2f4bd0ae1975","system_id":"levelo_inurba_marseille","lat":43.276179,"lon":5.361009,"is_reserved":false,"is_disabled":false,"rental_uris":{"android":"levelo://app?vid=91df61cf-f20a-45e5-9dca-2f4bd0ae1975","ios":"levelo://app?vid=91df61cf-f20a-45e5-9dca-2f4bd0ae1975"},"vehicle_type_id":"4","last_reported":1703606894,"current_range_meters":20000,"station_id":"ce4bgj92rcd13ifvqbe0","pricing_plan_id":"free"},{"bike_id":"45918fa4-cf1a-4ae5-9a54-72e6ab924d02","system_id":"levelo_inurba_marseille","lat":43.27618,"lon":5.361009,"is_reserved":false,"is_disabled":false,"rental_uris":{"android":"levelo://app?vid=45918fa4-cf1a-4ae5-9a54-72e6ab924d02","ios":"levelo://app?vid=45918fa4-cf1a-4ae5-9a54-72e6ab924d02"},"vehicle_type_id":"4","last_reported":1703606894,"current_range_meters":18400,"station_id":"ce4bgj92rcd13ifvqbe0","pricing_plan_id":"free"},{"bike_id":"272aebf6-3871-4774-92ef-8806c2ff89d1","system_id":"levelo_inurba_marseille","lat":43.278399,"lon":5.392139,"is_reserved":false,"is_disabled":false,"rental_uris":{"android":"levelo://app?vid=272aebf6-3871-4774-92ef-8806c2ff89d1","ios":"levelo://app?vid=272aebf6-3871-4774-92ef-8806c2ff89d1"},"vehicle_type_id":"4","last_reported":1703606894,"current_range_meters":21200,"station_id":"ce4bhjp2rcd13ifvqga0","pricing_plan_id":"free"},{"bike_id":"5fd6c4d3-3f55-4134-98e3-205e0ba26463","system_id":"levelo_inurba_marseille","lat":43.273609,"lon":5.362708,"is_reserved":false,"is_disabled":false,"rental_uris":{"android":"levelo://app?vid=5fd6c4d3-3f55-4134-98e3-205e0ba26463","ios":"levelo://app?vid=5fd6c4d3-3f55-4134-98e3-205e0ba26463"},"vehicle_type_id":"4","last_reported":1703606894,"current_range_meters":21600,"station_id":"ce4bhbh2rcd13ifvqeo0","pricing_plan_id":"free"},{"bike_id":"7fd8adc9-eaba-4b41-9b46-6fb2539e2acd","system_id":"levelo_inurba_marseille","lat":43.276771,"lon":5.388799,"is_reserved":false,"is_disabled":false,"rental_uris":{"android":"levelo://app?vid=7fd8adc9-eaba-4b41-9b46-6fb2539e2acd","ios":"levelo://app?vid=7fd8adc9-eaba-4b41-9b46-6fb2539e2acd"},"vehicle_type_id":"4","last_reported":1703606894,"current_range_meters":22800,"station_id":"ce4bhi12rcd13ifvqfo0","pricing_plan_id":"free"},{"bike_id":"c807b277-1704-46fd-9976-fda8eb7df135","system_id":"levelo_inurba_marseille","lat":43.31081,"lon":5.42426,"is_reserved":false,"is_disabled":false,"rental_uris":{"android":"levelo://app?vid=c807b277-1704-46fd-9976-fda8eb7df135","ios":"levelo://app?vid=c807b277-1704-46fd-9976-fda8eb7df135"},"vehicle_type_id":"4","last_reported":1703606894,"current_range_meters":21200,"station_id":"ce4bhp92rcd13ifvqhag","pricing_plan_id":"free"},{"bike_id":"136cb9da-15ee-40e3-bc2c-40c9c9d6a86d","system_id":"levelo_inurba_marseille","lat":43.317121,"lon":5.423936,"is_reserved":false,"is_disabled":false,"rental_uris":{"android":"levelo://app?vid=136cb9da-15ee-40e3-bc2c-40c9c9d6a86d","ios":"levelo://app?vid=136cb9da-15ee-40e3-bc2c-40c9c9d6a86d"},"vehicle_type_id":"4","last_reported":1703606894,"current_range_meters":30000,"station_id":"ce4bhp92rcd13ifvqhbg","pricing_plan_id":"free"},{"bike_id":"c228ce51-0034-408b-93aa-dbde9bbacd8a","system_id":"levelo_inurba_marseille","lat":43.31084,"lon":5.42431,"is_reserved":false,"is_disabled":false,"rental_uris":{"android":"levelo://app?vid=c228ce51-0034-408b-93aa-dbde9bbacd8a","ios":"levelo://app?vid=c228ce51-0034-408b-93aa-dbde9bbacd8a"},"vehicle_type_id":"4","last_reported":1703606894,"current_range_meters":30400,"station_id":"ce4bhp92rcd13ifvqhag","pricing_plan_id":"free"},{"bike_id":"a5ef3ffe-074d-4034-8a49-1265e8309ea7","system_id":"levelo_inurba_marseille","lat":43.31085,"lon":5.42433,"is_reserved":false,"is_disabled":false,"rental_uris":{"android":"levelo://app?vid=a5ef3ffe-074d-4034-8a49-1265e8309ea7","ios":"levelo://app?vid=a5ef3ffe-074d-4034-8a49-1265e8309ea7"},"vehicle_type_id":"4","last_reported":1703606894,"current_range_meters":31200,"station_id":"ce4bhp92rcd13ifvqhag","pricing_plan_id":"free"},{"bike_id":"55c634c8-65ee-47b8-9656-14180506d92f","system_id":"levelo_inurba_marseille","lat":43.31082,"lon":5.42433,"is_reserved":false,"is_disabled":false,"rental_uris":{"android":"levelo://app?vid=55c634c8-65ee-47b8-9656-14180506d92f","ios":"levelo://app?vid=55c634c8-65ee-47b8-9656-14180506d92f"},"vehicle_type_id":"4","last_reported":1703606894,"current_range_meters":25600,"station_id":"ce4bhp92rcd13ifvqhag","pricing_plan_id":"free"},{"bike_id":"8688502e-c777-4738-8968-43d18688f77f","system_id":"levelo_inurba_marseille","lat":43.31082,"lon":5.42433,"is_reserved":false,"is_disabled":false,"rental_uris":{"android":"levelo://app?vid=8688502e-c777-4738-8968-43d18688f77f","ios":"levelo://app?vid=8688502e-c777-4738-8968-43d18688f77f"},"vehicle_type_id":"4","last_reported":1703606894,"current_range_meters":31200,"station_id":"ce4bhp92rcd13ifvqhag","pricing_plan_id":"free"},{"bike_id":"40000c49-67f1-4183-81bd-797685f5b1f8","system_id":"levelo_inurba_marseille","lat":43.31081,"lon":5.42435,"is_reserved":false,"is_disabled":false,"rental_uris":{"android":"levelo://app?vid=40000c49-67f1-4183-81bd-797685f5b1f8","ios":"levelo://app?vid=40000c49-67f1-4183-81bd-797685f5b1f8"},"vehicle_type_id":"4","last_reported":1703606894,"current_range_meters":28800,"station_id":"ce4bhp92rcd13ifvqhag","pricing_plan_id":"free"},{"bike_id":"c830441a-27e9-494a-8622-34ca6c78b4ee","system_id":"levelo_inurba_marseille","lat":43.31076,"lon":5.42435,"is_reserved":false,"is_disabled":false,"rental_uris":{"android":"levelo://app?vid=c830441a-27e9-494a-8622-34ca6c78b4ee","ios":"levelo://app?vid=c830441a-27e9-494a-8622-34ca6c78b4ee"},"vehicle_type_id":"4","last_reported":1703606894,"current_range_meters":22800,"station_id":"ce4bhp92rcd13ifvqhag","pricing_plan_id":"free"},{"bike_id":"68736a0c-c45e-44b7-9894-9250e5012bfe","system_id":"levelo_inurba_marseille","lat":43.31083,"lon":5.42436,"is_reserved":false,"is_disabled":false,"rental_uris":{"android":"levelo://app?vid=68736a0c-c45e-44b7-9894-9250e5012bfe","ios":"levelo://app?vid=68736a0c-c45e-44b7-9894-9250e5012bfe"},"vehicle_type_id":"4","last_reported":1703606894,"current_range_meters":26800,"station_id":"ce4bhp92rcd13ifvqhag","pricing_plan_id":"free"},{"bike_id":"b2974ce4-58ca-4652-8486-f4891c019db7","system_id":"levelo_inurba_marseille","lat":43.310785,"lon":5.424305,"is_reserved":false,"is_disabled":false,"rental_uris":{"android":"levelo://app?vid=b2974ce4-58ca-4652-8486-f4891c019db7","ios":"levelo://app?vid=b2974ce4-58ca-4652-8486-f4891c019db7"},"vehicle_type_id":"4","last_reported":1703606894,"current_range_meters":27600,"station_id":"ce4bhp92rcd13ifvqhag","pricing_plan_id":"free"},{"bike_id":"bb90a34b-3d33-434d-960c-40abe2f16ea4","system_id":"levelo_inurba_marseille","lat":43.31082,"lon":5.42439,"is_reserved":false,"is_disabled":false,"rental_uris":{"android":"levelo://app?vid=bb90a34b-3d33-434d-960c-40abe2f16ea4","ios":"levelo://app?vid=bb90a34b-3d33-434d-960c-40abe2f16ea4"},"vehicle_type_id":"4","last_reported":1703606894,"current_range_meters":28400,"station_id":"ce4bhp92rcd13ifvqhag","pricing_plan_id":"free"},{"bike_id":"5101677f-f514-415d-abbc-415dd1ae2306","system_id":"levelo_inurba_marseille","lat":43.274099,"lon":5.394019,"is_reserved":false,"is_disabled":false,"rental_uris":{"android":"levelo://app?vid=5101677f-f514-415d-abbc-415dd1ae2306","ios":"levelo://app?vid=5101677f-f514-415d-abbc-415dd1ae2306"},"vehicle_type_id":"4","last_reported":1703606894,"current_range_meters":15600,"station_id":"ce4bhdp2rcd13ifvqf20","pricing_plan_id":"free"},{"bike_id":"1d15b6fb-4c0e-4446-a794-4d1a49148511","system_id":"levelo_inurba_marseille","lat":43.274103,"lon":5.394016,"is_reserved":false,"is_disabled":false,"rental_uris":{"android":"levelo://app?vid=1d15b6fb-4c0e-4446-a794-4d1a49148511","ios":"levelo://app?vid=1d15b6fb-4c0e-4446-a794-4d1a49148511"},"vehicle_type_id":"4","last_reported":1703606894,"current_range_meters":12000,"station_id":"ce4bhdp2rcd13ifvqf20","pricing_plan_id":"free"},{"bike_id":"80176651-f608-4378-b5e2-19d27fdce81e","system_id":"levelo_inurba_marseille","lat":43.273125,"lon":5.390731,"is_reserved":false,"is_disabled":false,"rental_uris":{"android":"levelo://app?vid=80176651-f608-4378-b5e2-19d27fdce81e","ios":"levelo://app?vid=80176651-f608-4378-b5e2-19d27fdce81e"},"vehicle_type_id":"4","last_reported":1703606894,"current_range_meters":30000,"station_id":"ce4bhgp2rcd13ifvqfe0","pricing_plan_id":"free"},{"bike_id":"d1e397f3-b139-4ced-98a7-ebc706af9675","system_id":"levelo_inurba_marseille","lat":43.304096,"lon":5.425385,"is_reserved":false,"is_disabled":false,"rental_uris":{"android":"levelo://app?vid=d1e397f3-b139-4ced-98a7-ebc706af9675","ios":"levelo://app?vid=d1e397f3-b139-4ced-98a7-ebc706af9675"},"vehicle_type_id":"4","last_reported":1703606894,"current_range_meters":800,"station_id":"ce4bhoh2rcd13ifvqh6g","pricing_plan_id":"free"},{"bike_id":"f6133491-ff83-415f-8a7d-195abfef63a4","system_id":"levelo_inurba_marseille","lat":43.304096,"lon":5.425385,"is_reserved":false,"is_disabled":false,"rental_uris":{"android":"levelo://app?vid=f6133491-ff83-415f-8a7d-195abfef63a4","ios":"levelo://app?vid=f6133491-ff83-415f-8a7d-195abfef63a4"},"vehicle_type_id":"4","last_reported":1703606894,"current_range_meters":28000,"station_id":"ce4bhoh2rcd13ifvqh6g","pricing_plan_id":"free"},{"bike_id":"41382738-9e52-4dc6-a61d-5eed9f020555","system_id":"levelo_inurba_marseille","lat":43.304096,"lon":5.425385,"is_reserved":false,"is_disabled":false,"rental_uris":{"android":"levelo://app?vid=41382738-9e52-4dc6-a61d-5eed9f020555","ios":"levelo://app?vid=41382738-9e52-4dc6-a61d-5eed9f020555"},"vehicle_type_id":"4","last_reported":1703606894,"current_range_meters":17600,"station_id":"ce4bhoh2rcd13ifvqh6g","pricing_plan_id":"free"},{"bike_id":"e192df68-2c2b-482d-b6fd-3b8920434290","system_id":"levelo_inurba_marseille","lat":43.29555,"lon":5.42285,"is_reserved":false,"is_disabled":false,"rental_uris":{"android":"levelo://app?vid=e192df68-2c2b-482d-b6fd-3b8920434290","ios":"levelo://app?vid=e192df68-2c2b-482d-b6fd-3b8920434290"},"vehicle_type_id":"4","last_reported":1703606894,"current_range_meters":31200,"station_id":"ce4bhph2rcd13ifvqhdg","pricing_plan_id":"free"},{"bike_id":"23dbbee6-d4a1-4819-8d81-04184524b313","system_id":"levelo_inurba_marseille","lat":43.295511,"lon":5.422926,"is_reserved":false,"is_disabled":false,"rental_uris":{"android":"levelo://app?vid=23dbbee6-d4a1-4819-8d81-04184524b313","ios":"levelo://app?vid=23dbbee6-d4a1-4819-8d81-04184524b313"},"vehicle_type_id":"4","last_reported":1703606894,"current_range_meters":25600,"station_id":"ce4bhph2rcd13ifvqhdg","pricing_plan_id":"free"},{"bike_id":"75a3d808-f93a-40ac-9943-acf0ebc2e39d","system_id":"levelo_inurba_marseille","lat":43.272116,"lon":5.391763,"is_reserved":false,"is_disabled":false,"rental_uris":{"android":"levelo://app?vid=75a3d808-f93a-40ac-9943-acf0ebc2e39d","ios":"levelo://app?vid=75a3d808-f93a-40ac-9943-acf0ebc2e39d"},"vehicle_type_id":"4","last_reported":1703606894,"current_range_meters":20800,"station_id":"ce4bhhp2rcd13ifvqfm0","pricing_plan_id":"free"},{"bike_id":"ee78fdd1-f5d9-4b14-8e91-312083d967ed","system_id":"levelo_inurba_marseille","lat":43.269467,"lon":5.386439,"is_reserved":false,"is_disabled":false,"rental_uris":{"android":"levelo://app?vid=ee78fdd1-f5d9-4b14-8e91-312083d967ed","ios":"levelo://app?vid=ee78fdd1-f5d9-4b14-8e91-312083d967ed"},"vehicle_type_id":"4","last_reported":1703606894,"current_range_meters":22800,"station_id":"ce4bhh92rcd13ifvqfh0","pricing_plan_id":"free"},{"bike_id":"728c7f09-ad85-41d3-8d1d-cdb88fe294c6","system_id":"levelo_inurba_marseille","lat":43.269467,"lon":5.386439,"is_reserved":false,"is_disabled":false,"rental_uris":{"android":"levelo://app?vid=728c7f09-ad85-41d3-8d1d-cdb88fe294c6","ios":"levelo://app?vid=728c7f09-ad85-41d3-8d1d-cdb88fe294c6"},"vehicle_type_id":"4","last_reported":1703606894,"current_range_meters":16000,"station_id":"ce4bhh92rcd13ifvqfh0","pricing_plan_id":"free"},{"bike_id":"e8706573-0362-4e96-94c3-7c676f07d149","system_id":"levelo_inurba_marseille","lat":43.269467,"lon":5.386439,"is_reserved":false,"is_disabled":false,"rental_uris":{"android":"levelo://app?vid=e8706573-0362-4e96-94c3-7c676f07d149","ios":"levelo://app?vid=e8706573-0362-4e96-94c3-7c676f07d149"},"vehicle_type_id":"4","last_reported":1703606894,"current_range_meters":26000,"station_id":"ce4bhh92rcd13ifvqfh0","pricing_plan_id":"free"},{"bike_id":"1654d11a-8bc1-48d0-8ea2-9ef7c191e376","system_id":"levelo_inurba_marseille","lat":43.279465,"lon":5.410561,"is_reserved":false,"is_disabled":false,"rental_uris":{"android":"levelo://app?vid=1654d11a-8bc1-48d0-8ea2-9ef7c191e376","ios":"levelo://app?vid=1654d11a-8bc1-48d0-8ea2-9ef7c191e376"},"vehicle_type_id":"4","last_reported":1703606894,"current_range_meters":29200,"station_id":"ce4bhnp2rcd13ifvqh0g","pricing_plan_id":"free"},{"bike_id":"80a87b91-559f-423c-9e89-a48615c09940","system_id":"levelo_inurba_marseille","lat":43.279465,"lon":5.410561,"is_reserved":false,"is_disabled":false,"rental_uris":{"android":"levelo://app?vid=80a87b91-559f-423c-9e89-a48615c09940","ios":"levelo://app?vid=80a87b91-559f-423c-9e89-a48615c09940"},"vehicle_type_id":"4","last_reported":1703606894,"current_range_meters":18400,"station_id":"ce4bhnp2rcd13ifvqh0g","pricing_plan_id":"free"},{"bike_id":"e9898c28-a815-4561-ba5f-86f800c6489d","system_id":"levelo_inurba_marseille","lat":43.27986,"lon":5.41652,"is_reserved":false,"is_disabled":false,"rental_uris":{"android":"levelo://app?vid=e9898c28-a815-4561-ba5f-86f800c6489d","ios":"levelo://app?vid=e9898c28-a815-4561-ba5f-86f800c6489d"},"vehicle_type_id":"4","last_reported":1703606894,"current_range_meters":17200,"station_id":"ce4bho12rcd13ifvqh1g","pricing_plan_id":"free"},{"bike_id":"16aadf90-1f8d-4c0d-8615-10f6cd8ac2ac","system_id":"levelo_inurba_marseille","lat":43.308051,"lon":5.43527,"is_reserved":false,"is_disabled":false,"rental_uris":{"android":"levelo://app?vid=16aadf90-1f8d-4c0d-8615-10f6cd8ac2ac","ios":"levelo://app?vid=16aadf90-1f8d-4c0d-8615-10f6cd8ac2ac"},"vehicle_type_id":"4","last_reported":1703606894,"current_range_meters":29200,"station_id":"ce4bhph2rcd13ifvqheg","pricing_plan_id":"free"},{"bike_id":"e228c82f-cebd-4f9c-8b1e-cab3967975e3","system_id":"levelo_inurba_marseille","lat":43.308051,"lon":5.43527,"is_reserved":false,"is_disabled":false,"rental_uris":{"android":"levelo://app?vid=e228c82f-cebd-4f9c-8b1e-cab3967975e3","ios":"levelo://app?vid=e228c82f-cebd-4f9c-8b1e-cab3967975e3"},"vehicle_type_id":"4","last_reported":1703606894,"current_range_meters":30800,"station_id":"ce4bhph2rcd13ifvqheg","pricing_plan_id":"free"},{"bike_id":"193c16f5-4283-4718-ab6e-f141f0ecc0b3","system_id":"levelo_inurba_marseille","lat":43.2657,"lon":5.39011,"is_reserved":false,"is_disabled":false,"rental_uris":{"android":"levelo://app?vid=193c16f5-4283-4718-ab6e-f141f0ecc0b3","ios":"levelo://app?vid=193c16f5-4283-4718-ab6e-f141f0ecc0b3"},"vehicle_type_id":"4","last_reported":1703606894,"current_range_meters":6800,"station_id":"ce4bhe12rcd13ifvqf30","pricing_plan_id":"free"},{"bike_id":"7d271d38-32ef-4a00-9f16-faed2069a1c9","system_id":"levelo_inurba_marseille","lat":43.265569,"lon":5.390047,"is_reserved":false,"is_disabled":false,"rental_uris":{"android":"levelo://app?vid=7d271d38-32ef-4a00-9f16-faed2069a1c9","ios":"levelo://app?vid=7d271d38-32ef-4a00-9f16-faed2069a1c9"},"vehicle_type_id":"4","last_reported":1703606894,"current_range_meters":10000,"station_id":"ce4bhe12rcd13ifvqf30","pricing_plan_id":"free"},{"bike_id":"c0be2715-20b7-435a-8b55-c8f1e84a0717","system_id":"levelo_inurba_marseille","lat":43.26949,"lon":5.40262,"is_reserved":false,"is_disabled":false,"rental_uris":{"android":"levelo://app?vid=c0be2715-20b7-435a-8b55-c8f1e84a0717","ios":"levelo://app?vid=c0be2715-20b7-435a-8b55-c8f1e84a0717"},"vehicle_type_id":"4","last_reported":1703606894,"current_range_meters":24000,"station_id":"cjm6bp8fraef2m0cb0m0","pricing_plan_id":"free"},{"bike_id":"aec422d8-ccf0-4582-8f2f-80a691eb6bee","system_id":"levelo_inurba_marseille","lat":43.261782,"lon":5.374515,"is_reserved":false,"is_disabled":false,"rental_uris":{"android":"levelo://app?vid=aec422d8-ccf0-4582-8f2f-80a691eb6bee","ios":"levelo://app?vid=aec422d8-ccf0-4582-8f2f-80a691eb6bee"},"vehicle_type_id":"4","last_reported":1703606894,"current_range_meters":22400,"station_id":"ce4bhgp2rcd13ifvqfc0","pricing_plan_id":"free"},{"bike_id":"63d89596-1653-4f30-9490-0dfea57d67f4","system_id":"levelo_inurba_marseille","lat":43.261782,"lon":5.374515,"is_reserved":false,"is_disabled":false,"rental_uris":{"android":"levelo://app?vid=63d89596-1653-4f30-9490-0dfea57d67f4","ios":"levelo://app?vid=63d89596-1653-4f30-9490-0dfea57d67f4"},"vehicle_type_id":"4","last_reported":1703606894,"current_range_meters":31200,"station_id":"ce4bhgp2rcd13ifvqfc0","pricing_plan_id":"free"},{"bike_id":"29b1cb47-39d8-4ca3-ad2d-3c0afe4ff35f","system_id":"levelo_inurba_marseille","lat":43.261782,"lon":5.374515,"is_reserved":false,"is_disabled":false,"rental_uris":{"android":"levelo://app?vid=29b1cb47-39d8-4ca3-ad2d-3c0afe4ff35f","ios":"levelo://app?vid=29b1cb47-39d8-4ca3-ad2d-3c0afe4ff35f"},"vehicle_type_id":"4","last_reported":1703606894,"current_range_meters":18400,"station_id":"ce4bhgp2rcd13ifvqfc0","pricing_plan_id":"free"},{"bike_id":"9bdb05c1-fada-4121-b69e-6b2a9923186e","system_id":"levelo_inurba_marseille","lat":43.261782,"lon":5.374515,"is_reserved":false,"is_disabled":false,"rental_uris":{"android":"levelo://app?vid=9bdb05c1-fada-4121-b69e-6b2a9923186e","ios":"levelo://app?vid=9bdb05c1-fada-4121-b69e-6b2a9923186e"},"vehicle_type_id":"4","last_reported":1703606894,"current_range_meters":31200,"station_id":"ce4bhgp2rcd13ifvqfc0","pricing_plan_id":"free"},{"bike_id":"e152c434-b2a9-4d03-83aa-666795f334cc","system_id":"levelo_inurba_marseille","lat":43.261782,"lon":5.374515,"is_reserved":false,"is_disabled":false,"rental_uris":{"android":"levelo://app?vid=e152c434-b2a9-4d03-83aa-666795f334cc","ios":"levelo://app?vid=e152c434-b2a9-4d03-83aa-666795f334cc"},"vehicle_type_id":"4","last_reported":1703606894,"current_range_meters":25600,"station_id":"ce4bhgp2rcd13ifvqfc0","pricing_plan_id":"free"},{"bike_id":"11cba027-bad0-40f6-a097-9faabec42990","system_id":"levelo_inurba_marseille","lat":43.261782,"lon":5.374515,"is_reserved":false,"is_disabled":false,"rental_uris":{"android":"levelo://app?vid=11cba027-bad0-40f6-a097-9faabec42990","ios":"levelo://app?vid=11cba027-bad0-40f6-a097-9faabec42990"},"vehicle_type_id":"4","last_reported":1703606894,"current_range_meters":24000,"station_id":"ce4bhgp2rcd13ifvqfc0","pricing_plan_id":"free"},{"bike_id":"d25b2709-e678-4c2d-8f18-00ec93710a6d","system_id":"levelo_inurba_marseille","lat":43.261782,"lon":5.374515,"is_reserved":false,"is_disabled":false,"rental_uris":{"android":"levelo://app?vid=d25b2709-e678-4c2d-8f18-00ec93710a6d","ios":"levelo://app?vid=d25b2709-e678-4c2d-8f18-00ec93710a6d"},"vehicle_type_id":"4","last_reported":1703606894,"current_range_meters":31200,"station_id":"ce4bhgp2rcd13ifvqfc0","pricing_plan_id":"free"},{"bike_id":"b8096399-f1d8-4fa7-876d-43e35e37f96a","system_id":"levelo_inurba_marseille","lat":43.317104,"lon":5.436818,"is_reserved":false,"is_disabled":false,"rental_uris":{"android":"levelo://app?vid=b8096399-f1d8-4fa7-876d-43e35e37f96a","ios":"levelo://app?vid=b8096399-f1d8-4fa7-876d-43e35e37f96a"},"vehicle_type_id":"4","last_reported":1703606894,"current_range_meters":28800,"station_id":"ce4bhp92rcd13ifvqhcg","pricing_plan_id":"free"},{"bike_id":"cda41a4d-b5d5-4fb6-b81d-8278fc56f44b","system_id":"levelo_inurba_marseille","lat":43.261782,"lon":5.374515,"is_reserved":false,"is_disabled":false,"rental_uris":{"android":"levelo://app?vid=cda41a4d-b5d5-4fb6-b81d-8278fc56f44b","ios":"levelo://app?vid=cda41a4d-b5d5-4fb6-b81d-8278fc56f44b"},"vehicle_type_id":"4","last_reported":1703606894,"current_range_meters":31600,"station_id":"ce4bhgp2rcd13ifvqfc0","pricing_plan_id":"free"},{"bike_id":"c519091e-532c-46e0-8471-d0a75938e3af","system_id":"levelo_inurba_marseille","lat":43.262012,"lon":5.379307,"is_reserved":false,"is_disabled":false,"rental_uris":{"android":"levelo://app?vid=c519091e-532c-46e0-8471-d0a75938e3af","ios":"levelo://app?vid=c519091e-532c-46e0-8471-d0a75938e3af"},"vehicle_type_id":"4","last_reported":1703606894,"current_range_meters":12800,"station_id":"ce4bhjp2rcd13ifvqg90","pricing_plan_id":"free"},{"bike_id":"9b078962-b77e-4d48-8638-52bcf140c0a6","system_id":"levelo_inurba_marseille","lat":43.271388,"lon":5.409269,"is_reserved":false,"is_disabled":false,"rental_uris":{"android":"levelo://app?vid=9b078962-b77e-4d48-8638-52bcf140c0a6","ios":"levelo://app?vid=9b078962-b77e-4d48-8638-52bcf140c0a6"},"vehicle_type_id":"4","last_reported":1703606894,"current_range_meters":19600,"station_id":"ce4bhl12rcd13ifvqgf0","pricing_plan_id":"free"},{"bike_id":"a771fb5f-ab3e-4ff3-bdba-c60eddb2c956","system_id":"levelo_inurba_marseille","lat":43.26202,"lon":5.379299,"is_reserved":false,"is_disabled":false,"rental_uris":{"android":"levelo://app?vid=a771fb5f-ab3e-4ff3-bdba-c60eddb2c956","ios":"levelo://app?vid=a771fb5f-ab3e-4ff3-bdba-c60eddb2c956"},"vehicle_type_id":"4","last_reported":1703606894,"current_range_meters":26400,"station_id":"ce4bhjp2rcd13ifvqg90","pricing_plan_id":"free"},{"bike_id":"0b016fc2-c3e7-4ff6-817b-cf058fa98007","system_id":"levelo_inurba_marseille","lat":43.262012,"lon":5.379307,"is_reserved":false,"is_disabled":false,"rental_uris":{"android":"levelo://app?vid=0b016fc2-c3e7-4ff6-817b-cf058fa98007","ios":"levelo://app?vid=0b016fc2-c3e7-4ff6-817b-cf058fa98007"},"vehicle_type_id":"4","last_reported":1703606894,"current_range_meters":12400,"station_id":"ce4bhjp2rcd13ifvqg90","pricing_plan_id":"free"},{"bike_id":"765e2720-6ae0-47c8-8b7d-bf4ddbda9306","system_id":"levelo_inurba_marseille","lat":43.262012,"lon":5.379307,"is_reserved":false,"is_disabled":false,"rental_uris":{"android":"levelo://app?vid=765e2720-6ae0-47c8-8b7d-bf4ddbda9306","ios":"levelo://app?vid=765e2720-6ae0-47c8-8b7d-bf4ddbda9306"},