{"last_updated":1708538918,"ttl":30,"version":"2.2","data":{"bikes":[{"bike_id":"93f76804-64c4-400b-ab8b-c13830354947","system_id":"levelo_inurba_marseille","lat":43.31221,"lon":5.36861,"is_reserved":false,"is_disabled":false,"rental_uris":{"android":"levelo://app?vid=93f76804-64c4-400b-ab8b-c13830354947","ios":"levelo://app?vid=93f76804-64c4-400b-ab8b-c13830354947"},"vehicle_type_id":"4","last_reported":1708538918,"current_range_meters":0,"station_id":"ce4bgqh2rcd13ifvqc4g","pricing_plan_id":"cebpf4jnsgd1na2vs0mg"},{"bike_id":"517dfdd9-fdad-4e43-8aa4-d4d286df5584","system_id":"levelo_inurba_marseille","lat":43.292311,"lon":5.360731,"is_reserved":false,"is_disabled":false,"rental_uris":{"android":"levelo://app?vid=517dfdd9-fdad-4e43-8aa4-d4d286df5584","ios":"levelo://app?vid=517dfdd9-fdad-4e43-8aa4-d4d286df5584"},"vehicle_type_id":"4","last_reported":1708538918,"current_range_meters":2800,"station_id":"ce4bhbh2rcd13ifvqeqg","pricing_plan_id":"cebpf4jnsgd1na2vs0mg"},{"bike_id":"ad4b4edf-d0c4-49b1-bb77-55fa065eea93","system_id":"levelo_inurba_marseille","lat":43.309039,"lon":5.371797,"is_reserved":false,"is_disabled":false,"rental_uris":{"android":"levelo://app?vid=ad4b4edf-d0c4-49b1-bb77-55fa065eea93","ios":"levelo://app?vid=ad4b4edf-d0c4-49b1-bb77-55fa065eea93"},"vehicle_type_id":"4","last_reported":1708538918,"current_range_meters":6400,"station_id":"ce4bguh2rcd13ifvqckg","pricing_plan_id":"cebpf4jnsgd1na2vs0mg"},{"bike_id":"da6d42d1-576d-48ee-9015-b82a66daade9","system_id":"levelo_inurba_marseille","lat":43.309034,"lon":5.371783,"is_reserved":false,"is_disabled":false,"rental_uris":{"android":"levelo://app?vid=da6d42d1-576d-48ee-9015-b82a66daade9","ios":"levelo://app?vid=da6d42d1-576d-48ee-9015-b82a66daade9"},"vehicle_type_id":"4","last_reported":1708538918,"current_range_meters":5600,"station_id":"ce4bguh2rcd13ifvqckg","pricing_plan_id":"cebpf4jnsgd1na2vs0mg"},{"bike_id":"9b9b84cc-f639-4cf5-aa8a-caa21534001c","system_id":"levelo_inurba_marseille","lat":43.30546,"lon":5.36709,"is_reserved":false,"is_disabled":false,"rental_uris":{"android":"levelo://app?vid=9b9b84cc-f639-4cf5-aa8a-caa21534001c","ios":"levelo://app?vid=9b9b84cc-f639-4cf5-aa8a-caa21534001c"},"vehicle_type_id":"4","last_reported":1708538918,"current_range_meters":9200,"station_id":"ce4bgrp2rcd13ifvqc9g","pricing_plan_id":"cebpf4jnsgd1na2vs0mg"},{"bike_id":"06c5c821-1400-44f2-a0a7-3fc80cf47d12","system_id":"levelo_inurba_marseille","lat":43.30609,"lon":5.37232,"is_reserved":false,"is_disabled":false,"rental_uris":{"android":"levelo://app?vid=06c5c821-1400-44f2-a0a7-3fc80cf47d12","ios":"levelo://app?vid=06c5c821-1400-44f2-a0a7-3fc80cf47d12"},"vehicle_type_id":"4","last_reported":1708538918,"current_range_meters":22400,"station_id":"ce4bgqh2rcd13ifvqc4g","pricing_plan_id":"cebpf4jnsgd1na2vs0mg"},{"bike_id":"ab78e09f-00b9-4e42-928c-5f64982099cb","system_id":"levelo_inurba_marseille","lat":43.305989,"lon":5.37225,"is_reserved":false,"is_disabled":false,"rental_uris":{"android":"levelo://app?vid=ab78e09f-00b9-4e42-928c-5f64982099cb","ios":"levelo://app?vid=ab78e09f-00b9-4e42-928c-5f64982099cb"},"vehicle_type_id":"4","last_reported":1708538918,"current_range_meters":14000,"station_id":"ce4bgqh2rcd13ifvqc4g","pricing_plan_id":"cebpf4jnsgd1na2vs0mg"},{"bike_id":"7212c999-e3cb-4411-b082-117bd859cf42","system_id":"levelo_inurba_marseille","lat":43.305989,"lon":5.37225,"is_reserved":false,"is_disabled":false,"rental_uris":{"android":"levelo://app?vid=7212c999-e3cb-4411-b082-117bd859cf42","ios":"levelo://app?vid=7212c999-e3cb-4411-b082-117bd859cf42"},"vehicle_type_id":"4","last_reported":1708538918,"current_range_meters":19600,"station_id":"ce4bgqh2rcd13ifvqc4g","pricing_plan_id":"cebpf4jnsgd1na2vs0mg"},{"bike_id":"dc22c28f-522a-4fb4-b7ab-c6251b90de82","system_id":"levelo_inurba_marseille","lat":43.31654,"lon":5.37675,"is_reserved":false,"is_disabled":false,"rental_uris":{"android":"levelo://app?vid=dc22c28f-522a-4fb4-b7ab-c6251b90de82","ios":"levelo://app?vid=dc22c28f-522a-4fb4-b7ab-c6251b90de82"},"vehicle_type_id":"4","last_reported":1708538918,"current_range_meters":26800,"station_id":"","pricing_plan_id":"cebpf4jnsgd1na2vs0mg"},{"bike_id":"bc20c94f-9f31-4b66-9461-f1a24dda45ce","system_id":"levelo_inurba_marseille","lat":43.311131,"lon":5.377651,"is_reserved":false,"is_disabled":false,"rental_uris":{"android":"levelo://app?vid=bc20c94f-9f31-4b66-9461-f1a24dda45ce","ios":"levelo://app?vid=bc20c94f-9f31-4b66-9461-f1a24dda45ce"},"vehicle_type_id":"4","last_reported":1708538918,"current_range_meters":3200,"station_id":"ce4bgt92rcd13ifvqcg0","pricing_plan_id":"cebpf4jnsgd1na2vs0mg"},{"bike_id":"6356d138-f96c-4ece-b202-d8da273c62ab","system_id":"levelo_inurba_marseille","lat":43.316582,"lon":5.376807,"is_reserved":false,"is_disabled":false,"rental_uris":{"android":"levelo://app?vid=6356d138-f96c-4ece-b202-d8da273c62ab","ios":"levelo://app?vid=6356d138-f96c-4ece-b202-d8da273c62ab"},"vehicle_type_id":"4","last_reported":1708538918,"current_range_meters":11200,"station_id":"","pricing_plan_id":"cebpf4jnsgd1na2vs0mg"},{"bike_id":"8335b374-9ed7-4ebb-ab34-949d0718f352","system_id":"levelo_inurba_marseille","lat":43.307945,"lon":5.376487,"is_reserved":false,"is_disabled":false,"rental_uris":{"android":"levelo://app?vid=8335b374-9ed7-4ebb-ab34-949d0718f352","ios":"levelo://app?vid=8335b374-9ed7-4ebb-ab34-949d0718f352"},"vehicle_type_id":"4","last_reported":1708538918,"current_range_meters":22800,"station_id":"ce4bgv92rcd13ifvqcq0","pricing_plan_id":"cebpf4jnsgd1na2vs0mg"},{"bike_id":"e122d3cf-2dbb-4f60-b27b-ff2308d999db","system_id":"levelo_inurba_marseille","lat":43.307945,"lon":5.376487,"is_reserved":false,"is_disabled":false,"rental_uris":{"android":"levelo://app?vid=e122d3cf-2dbb-4f60-b27b-ff2308d999db","ios":"levelo://app?vid=e122d3cf-2dbb-4f60-b27b-ff2308d999db"},"vehicle_type_id":"4","last_reported":1708538918,"current_range_meters":10400,"station_id":"ce4bgv92rcd13ifvqcq0","pricing_plan_id":"cebpf4jnsgd1na2vs0mg"},{"bike_id":"b9b43757-2604-4d44-b7fe-8af614a65b5d","system_id":"levelo_inurba_marseille","lat":43.30782,"lon":5.37651,"is_reserved":false,"is_disabled":false,"rental_uris":{"android":"levelo://app?vid=b9b43757-2604-4d44-b7fe-8af614a65b5d","ios":"levelo://app?vid=b9b43757-2604-4d44-b7fe-8af614a65b5d"},"vehicle_type_id":"4","last_reported":1708538918,"current_range_meters":31200,"station_id":"","pricing_plan_id":"cebpf4jnsgd1na2vs0mg"},{"bike_id":"82927855-1e2e-411a-a6fb-a7723427e057","system_id":"levelo_inurba_marseille","lat":43.307945,"lon":5.376487,"is_reserved":false,"is_disabled":false,"rental_uris":{"android":"levelo://app?vid=82927855-1e2e-411a-a6fb-a7723427e057","ios":"levelo://app?vid=82927855-1e2e-411a-a6fb-a7723427e057"},"vehicle_type_id":"4","last_reported":1708538918,"current_range_meters":8400,"station_id":"ce4bgv92rcd13ifvqcq0","pricing_plan_id":"cebpf4jnsgd1na2vs0mg"},{"bike_id":"e9ca0df7-9d12-4d6a-95d0-ceeb7d710869","system_id":"levelo_inurba_marseille","lat":43.307945,"lon":5.376487,"is_reserved":false,"is_disabled":false,"rental_uris":{"android":"levelo://app?vid=e9ca0df7-9d12-4d6a-95d0-ceeb7d710869","ios":"levelo://app?vid=e9ca0df7-9d12-4d6a-95d0-ceeb7d710869"},"vehicle_type_id":"4","last_reported":1708538918,"current_range_meters":31200,"station_id":"ce4bgv92rcd13ifvqcq0","pricing_plan_id":"cebpf4jnsgd1na2vs0mg"},{"bike_id":"8acc267a-b18a-42c6-80fd-4f862e84038f","system_id":"levelo_inurba_marseille","lat":43.307945,"lon":5.376487,"is_reserved":false,"is_disabled":false,"rental_uris":{"android":"levelo://app?vid=8acc267a-b18a-42c6-80fd-4f862e84038f","ios":"levelo://app?vid=8acc267a-b18a-42c6-80fd-4f862e84038f"},"vehicle_type_id":"4","last_reported":1708538918,"current_range_meters":4800,"station_id":"ce4bgv92rcd13ifvqcq0","pricing_plan_id":"cebpf4jnsgd1na2vs0mg"},{"bike_id":"1f8ce3df-d832-40be-a14d-2642058d7db2","system_id":"levelo_inurba_marseille","lat":43.317075,"lon":5.377367,"is_reserved":false,"is_disabled":false,"rental_uris":{"android":"levelo://app?vid=1f8ce3df-d832-40be-a14d-2642058d7db2","ios":"levelo://app?vid=1f8ce3df-d832-40be-a14d-2642058d7db2"},"vehicle_type_id":"4","last_reported":1708538918,"current_range_meters":7600,"station_id":"ce4bgth2rcd13ifvqch0","pricing_plan_id":"cebpf4jnsgd1na2vs0mg"},{"bike_id":"2fdee98a-f697-45bc-8de9-c6509a38d890","system_id":"levelo_inurba_marseille","lat":43.317075,"lon":5.377367,"is_reserved":false,"is_disabled":false,"rental_uris":{"android":"levelo://app?vid=2fdee98a-f697-45bc-8de9-c6509a38d890","ios":"levelo://app?vid=2fdee98a-f697-45bc-8de9-c6509a38d890"},"vehicle_type_id":"4","last_reported":1708538918,"current_range_meters":6000,"station_id":"ce4bgth2rcd13ifvqch0","pricing_plan_id":"cebpf4jnsgd1na2vs0mg"},{"bike_id":"a9107724-bf94-4625-9505-de67816d6f9c","system_id":"levelo_inurba_marseille","lat":43.317075,"lon":5.377367,"is_reserved":false,"is_disabled":false,"rental_uris":{"android":"levelo://app?vid=a9107724-bf94-4625-9505-de67816d6f9c","ios":"levelo://app?vid=a9107724-bf94-4625-9505-de67816d6f9c"},"vehicle_type_id":"4","last_reported":1708538918,"current_range_meters":24400,"station_id":"ce4bgth2rcd13ifvqch0","pricing_plan_id":"cebpf4jnsgd1na2vs0mg"},{"bike_id":"8ff27116-61cb-4a49-9243-af905e081afb","system_id":"levelo_inurba_marseille","lat":43.317075,"lon":5.377367,"is_reserved":false,"is_disabled":false,"rental_uris":{"android":"levelo://app?vid=8ff27116-61cb-4a49-9243-af905e081afb","ios":"levelo://app?vid=8ff27116-61cb-4a49-9243-af905e081afb"},"vehicle_type_id":"4","last_reported":1708538918,"current_range_meters":22800,"station_id":"ce4bgth2rcd13ifvqch0","pricing_plan_id":"cebpf4jnsgd1na2vs0mg"},{"bike_id":"c640a8c1-4269-45c5-af59-6df7e4f3324e","system_id":"levelo_inurba_marseille","lat":43.317075,"lon":5.377367,"is_reserved":false,"is_disabled":false,"rental_uris":{"android":"levelo://app?vid=c640a8c1-4269-45c5-af59-6df7e4f3324e","ios":"levelo://app?vid=c640a8c1-4269-45c5-af59-6df7e4f3324e"},"vehicle_type_id":"4","last_reported":1708538918,"current_range_meters":20800,"station_id":"ce4bgth2rcd13ifvqch0","pricing_plan_id":"cebpf4jnsgd1na2vs0mg"},{"bike_id":"0f6f6541-413e-4380-9493-8d25b6d3d332","system_id":"levelo_inurba_marseille","lat":43.317075,"lon":5.377367,"is_reserved":false,"is_disabled":false,"rental_uris":{"android":"levelo://app?vid=0f6f6541-413e-4380-9493-8d25b6d3d332","ios":"levelo://app?vid=0f6f6541-413e-4380-9493-8d25b6d3d332"},"vehicle_type_id":"4","last_reported":1708538918,"current_range_meters":13600,"station_id":"ce4bgth2rcd13ifvqch0","pricing_plan_id":"cebpf4jnsgd1na2vs0mg"},{"bike_id":"a8b89967-58d9-4d90-b01a-f9ff64138810","system_id":"levelo_inurba_marseille","lat":43.305368,"lon":5.367343,"is_reserved":false,"is_disabled":false,"rental_uris":{"android":"levelo://app?vid=a8b89967-58d9-4d90-b01a-f9ff64138810","ios":"levelo://app?vid=a8b89967-58d9-4d90-b01a-f9ff64138810"},"vehicle_type_id":"4","last_reported":1708538918,"current_range_meters":0,"station_id":"ce4bgrp2rcd13ifvqc9g","pricing_plan_id":"cebpf4jnsgd1na2vs0mg"},{"bike_id":"f5c01f50-7f97-43ba-9b38-f2ff74e6ed2d","system_id":"levelo_inurba_marseille","lat":43.315293,"lon":5.380349,"is_reserved":false,"is_disabled":false,"rental_uris":{"android":"levelo://app?vid=f5c01f50-7f97-43ba-9b38-f2ff74e6ed2d","ios":"levelo://app?vid=f5c01f50-7f97-43ba-9b38-f2ff74e6ed2d"},"vehicle_type_id":"4","last_reported":1708538918,"current_range_meters":25200,"station_id":"ce4bhsp2rcd13ifvqi50","pricing_plan_id":"cebpf4jnsgd1na2vs0mg"},{"bike_id":"911c9a41-4423-49cc-a931-89696d48112c","system_id":"levelo_inurba_marseille","lat":43.309082,"lon":5.38209,"is_reserved":false,"is_disabled":false,"rental_uris":{"android":"levelo://app?vid=911c9a41-4423-49cc-a931-89696d48112c","ios":"levelo://app?vid=911c9a41-4423-49cc-a931-89696d48112c"},"vehicle_type_id":"4","last_reported":1708538918,"current_range_meters":6800,"station_id":"","pricing_plan_id":"cebpf4jnsgd1na2vs0mg"},{"bike_id":"9f7fbe67-2e14-4e6c-b9ab-b432a127abcb","system_id":"levelo_inurba_marseille","lat":43.304606,"lon":5.379026,"is_reserved":false,"is_disabled":false,"rental_uris":{"android":"levelo://app?vid=9f7fbe67-2e14-4e6c-b9ab-b432a127abcb","ios":"levelo://app?vid=9f7fbe67-2e14-4e6c-b9ab-b432a127abcb"},"vehicle_type_id":"4","last_reported":1708538918,"current_range_meters":0,"station_id":"ce4bgup2rcd13ifvqcn0","pricing_plan_id":"cebpf4jnsgd1na2vs0mg"},{"bike_id":"f2cff5d1-a87e-43e1-8ace-015f611533e5","system_id":"levelo_inurba_marseille","lat":43.324771,"lon":5.36557,"is_reserved":false,"is_disabled":false,"rental_uris":{"android":"levelo://app?vid=f2cff5d1-a87e-43e1-8ace-015f611533e5","ios":"levelo://app?vid=f2cff5d1-a87e-43e1-8ace-015f611533e5"},"vehicle_type_id":"4","last_reported":1708538918,"current_range_meters":9600,"station_id":"ce4bhs12rcd13ifvqhvg","pricing_plan_id":"cebpf4jnsgd1na2vs0mg"},{"bike_id":"2b8647a8-0869-4719-9173-7e6204bdc002","system_id":"levelo_inurba_marseille","lat":43.324771,"lon":5.36557,"is_reserved":false,"is_disabled":false,"rental_uris":{"android":"levelo://app?vid=2b8647a8-0869-4719-9173-7e6204bdc002","ios":"levelo://app?vid=2b8647a8-0869-4719-9173-7e6204bdc002"},"vehicle_type_id":"4","last_reported":1708538918,"current_range_meters":12400,"station_id":"ce4bhs12rcd13ifvqhvg","pricing_plan_id":"cebpf4jnsgd1na2vs0mg"},{"bike_id":"caaf26f8-fbed-445b-be7b-3ecf625cc521","system_id":"levelo_inurba_marseille","lat":43.324771,"lon":5.36557,"is_reserved":false,"is_disabled":false,"rental_uris":{"android":"levelo://app?vid=caaf26f8-fbed-445b-be7b-3ecf625cc521","ios":"levelo://app?vid=caaf26f8-fbed-445b-be7b-3ecf625cc521"},"vehicle_type_id":"4","last_reported":1708538918,"current_range_meters":25200,"station_id":"ce4bhs12rcd13ifvqhvg","pricing_plan_id":"cebpf4jnsgd1na2vs0mg"},{"bike_id":"70e7fea4-afdc-4b24-974a-e30d682b1311","system_id":"levelo_inurba_marseille","lat":43.324771,"lon":5.36557,"is_reserved":false,"is_disabled":false,"rental_uris":{"android":"levelo://app?vid=70e7fea4-afdc-4b24-974a-e30d682b1311","ios":"levelo://app?vid=70e7fea4-afdc-4b24-974a-e30d682b1311"},"vehicle_type_id":"4","last_reported":1708538918,"current_range_meters":10000,"station_id":"ce4bhs12rcd13ifvqhvg","pricing_plan_id":"cebpf4jnsgd1na2vs0mg"},{"bike_id":"6c581da6-d340-44bb-8dcf-2d6491d8b2b7","system_id":"levelo_inurba_marseille","lat":43.324771,"lon":5.36557,"is_reserved":false,"is_disabled":false,"rental_uris":{"android":"levelo://app?vid=6c581da6-d340-44bb-8dcf-2d6491d8b2b7","ios":"levelo://app?vid=6c581da6-d340-44bb-8dcf-2d6491d8b2b7"},"vehicle_type_id":"4","last_reported":1708538918,"current_range_meters":22800,"station_id":"ce4bhs12rcd13ifvqhvg","pricing_plan_id":"cebpf4jnsgd1na2vs0mg"},{"bike_id":"4cd60cd3-101b-4a05-9703-76840434a255","system_id":"levelo_inurba_marseille","lat":43.324771,"lon":5.36557,"is_reserved":false,"is_disabled":false,"rental_uris":{"android":"levelo://app?vid=4cd60cd3-101b-4a05-9703-76840434a255","ios":"levelo://app?vid=4cd60cd3-101b-4a05-9703-76840434a255"},"vehicle_type_id":"4","last_reported":1708538918,"current_range_meters":19600,"station_id":"ce4bhs12rcd13ifvqhvg","pricing_plan_id":"cebpf4jnsgd1na2vs0mg"},{"bike_id":"99502867-ea73-4e0d-8355-fb986062dd15","system_id":"levelo_inurba_marseille","lat":43.310804,"lon":5.38359,"is_reserved":false,"is_disabled":false,"rental_uris":{"android":"levelo://app?vid=99502867-ea73-4e0d-8355-fb986062dd15","ios":"levelo://app?vid=99502867-ea73-4e0d-8355-fb986062dd15"},"vehicle_type_id":"4","last_reported":1708538918,"current_range_meters":22400,"station_id":"ce4bgv92rcd13ifvqcr0","pricing_plan_id":"cebpf4jnsgd1na2vs0mg"},{"bike_id":"755aeb3a-95f9-4cb1-8871-668ab8c4c914","system_id":"levelo_inurba_marseille","lat":43.310712,"lon":5.383527,"is_reserved":false,"is_disabled":false,"rental_uris":{"android":"levelo://app?vid=755aeb3a-95f9-4cb1-8871-668ab8c4c914","ios":"levelo://app?vid=755aeb3a-95f9-4cb1-8871-668ab8c4c914"},"vehicle_type_id":"4","last_reported":1708538918,"current_range_meters":0,"station_id":"ce4bgv92rcd13ifvqcr0","pricing_plan_id":"cebpf4jnsgd1na2vs0mg"},{"bike_id":"972022a9-894c-4b38-81e2-29cf64f53229","system_id":"levelo_inurba_marseille","lat":43.310804,"lon":5.38359,"is_reserved":false,"is_disabled":false,"rental_uris":{"android":"levelo://app?vid=972022a9-894c-4b38-81e2-29cf64f53229","ios":"levelo://app?vid=972022a9-894c-4b38-81e2-29cf64f53229"},"vehicle_type_id":"4","last_reported":1708538918,"current_range_meters":20800,"station_id":"ce4bgv92rcd13ifvqcr0","pricing_plan_id":"cebpf4jnsgd1na2vs0mg"},{"bike_id":"12160d6a-abd1-452e-bf1a-c8f795d4ec5c","system_id":"levelo_inurba_marseille","lat":43.31072,"lon":5.38354,"is_reserved":false,"is_disabled":false,"rental_uris":{"android":"levelo://app?vid=12160d6a-abd1-452e-bf1a-c8f795d4ec5c","ios":"levelo://app?vid=12160d6a-abd1-452e-bf1a-c8f795d4ec5c"},"vehicle_type_id":"4","last_reported":1708538918,"current_range_meters":6000,"station_id":"ce4bgv92rcd13ifvqcr0","pricing_plan_id":"cebpf4jnsgd1na2vs0mg"},{"bike_id":"7c798200-3fba-4eae-995a-8db79d2ea263","system_id":"levelo_inurba_marseille","lat":43.295748,"lon":5.37522,"is_reserved":false,"is_disabled":false,"rental_uris":{"android":"levelo://app?vid=7c798200-3fba-4eae-995a-8db79d2ea263","ios":"levelo://app?vid=7c798200-3fba-4eae-995a-8db79d2ea263"},"vehicle_type_id":"4","last_reported":1708538918,"current_range_meters":17200,"station_id":"ce4bgh92rcd13ifvqb50","pricing_plan_id":"cebpf4jnsgd1na2vs0mg"},{"bike_id":"59262dd9-d701-40a0-8799-0aa618bee905","system_id":"levelo_inurba_marseille","lat":43.310692,"lon":5.383592,"is_reserved":false,"is_disabled":false,"rental_uris":{"android":"levelo://app?vid=59262dd9-d701-40a0-8799-0aa618bee905","ios":"levelo://app?vid=59262dd9-d701-40a0-8799-0aa618bee905"},"vehicle_type_id":"4","last_reported":1708538918,"current_range_meters":5200,"station_id":"ce4bgv92rcd13ifvqcr0","pricing_plan_id":"cebpf4jnsgd1na2vs0mg"},{"bike_id":"6f031ed2-5bfe-44a0-b498-ac5723b48d41","system_id":"levelo_inurba_marseille","lat":43.31072,"lon":5.38364,"is_reserved":false,"is_disabled":false,"rental_uris":{"android":"levelo://app?vid=6f031ed2-5bfe-44a0-b498-ac5723b48d41","ios":"levelo://app?vid=6f031ed2-5bfe-44a0-b498-ac5723b48d41"},"vehicle_type_id":"4","last_reported":1708538918,"current_range_meters":2000,"station_id":"ce4bgv92rcd13ifvqcr0","pricing_plan_id":"cebpf4jnsgd1na2vs0mg"},{"bike_id":"5960bdb0-8bb5-4736-b289-bce76703e12c","system_id":"levelo_inurba_marseille","lat":43.30285,"lon":5.37709,"is_reserved":false,"is_disabled":false,"rental_uris":{"android":"levelo://app?vid=5960bdb0-8bb5-4736-b289-bce76703e12c","ios":"levelo://app?vid=5960bdb0-8bb5-4736-b289-bce76703e12c"},"vehicle_type_id":"4","last_reported":1708538918,"current_range_meters":0,"station_id":"ce4bguh2rcd13ifvqcj0","pricing_plan_id":"cebpf4jnsgd1na2vs0mg"},{"bike_id":"60e57f9a-b2aa-425b-b808-b71522804694","system_id":"levelo_inurba_marseille","lat":43.30277,"lon":5.37702,"is_reserved":false,"is_disabled":false,"rental_uris":{"android":"levelo://app?vid=60e57f9a-b2aa-425b-b808-b71522804694","ios":"levelo://app?vid=60e57f9a-b2aa-425b-b808-b71522804694"},"vehicle_type_id":"4","last_reported":1708538918,"current_range_meters":9600,"station_id":"ce4bhs92rcd13ifvqi0g","pricing_plan_id":"cebpf4jnsgd1na2vs0mg"},{"bike_id":"8b8ccb63-86d8-4e73-9fde-40d5219041da","system_id":"levelo_inurba_marseille","lat":43.30276,"lon":5.37702,"is_reserved":false,"is_disabled":false,"rental_uris":{"android":"levelo://app?vid=8b8ccb63-86d8-4e73-9fde-40d5219041da","ios":"levelo://app?vid=8b8ccb63-86d8-4e73-9fde-40d5219041da"},"vehicle_type_id":"4","last_reported":1708538918,"current_range_meters":2800,"station_id":"ce4bguh2rcd13ifvqcj0","pricing_plan_id":"cebpf4jnsgd1na2vs0mg"},{"bike_id":"76cb3c24-5e51-42a4-8fa3-c5cd762ab669","system_id":"levelo_inurba_marseille","lat":43.30663,"lon":5.38177,"is_reserved":false,"is_disabled":false,"rental_uris":{"android":"levelo://app?vid=76cb3c24-5e51-42a4-8fa3-c5cd762ab669","ios":"levelo://app?vid=76cb3c24-5e51-42a4-8fa3-c5cd762ab669"},"vehicle_type_id":"4","last_reported":1708538918,"current_range_meters":23200,"station_id":"","pricing_plan_id":"cebpf4jnsgd1na2vs0mg"},{"bike_id":"f671f0f5-fc5f-47bf-89b2-f12af27bcf8c","system_id":"levelo_inurba_marseille","lat":43.30143,"lon":5.37413,"is_reserved":false,"is_disabled":false,"rental_uris":{"android":"levelo://app?vid=f671f0f5-fc5f-47bf-89b2-f12af27bcf8c","ios":"levelo://app?vid=f671f0f5-fc5f-47bf-89b2-f12af27bcf8c"},"vehicle_type_id":"4","last_reported":1708538918,"current_range_meters":15200,"station_id":"ce4bgs92rcd13ifvqcc0","pricing_plan_id":"cebpf4jnsgd1na2vs0mg"},{"bike_id":"d9bb063c-0141-4304-acb6-0af995d26434","system_id":"levelo_inurba_marseille","lat":43.301429,"lon":5.37413,"is_reserved":false,"is_disabled":false,"rental_uris":{"android":"levelo://app?vid=d9bb063c-0141-4304-acb6-0af995d26434","ios":"levelo://app?vid=d9bb063c-0141-4304-acb6-0af995d26434"},"vehicle_type_id":"4","last_reported":1708538918,"current_range_meters":14000,"station_id":"ce4bgs92rcd13ifvqcc0","pricing_plan_id":"cebpf4jnsgd1na2vs0mg"},{"bike_id":"d3aeb068-bd7b-49e8-816f-c6030cda4afc","system_id":"levelo_inurba_marseille","lat":43.319935,"lon":5.381699,"is_reserved":false,"is_disabled":false,"rental_uris":{"android":"levelo://app?vid=d3aeb068-bd7b-49e8-816f-c6030cda4afc","ios":"levelo://app?vid=d3aeb068-bd7b-49e8-816f-c6030cda4afc"},"vehicle_type_id":"4","last_reported":1708538918,"current_range_meters":28400,"station_id":"ce4bhr12rcd13ifvqhpg","pricing_plan_id":"cebpf4jnsgd1na2vs0mg"},{"bike_id":"bd6dd9e9-9b0d-4e67-8a52-ee9abfc17e25","system_id":"levelo_inurba_marseille","lat":43.319935,"lon":5.381699,"is_reserved":false,"is_disabled":false,"rental_uris":{"android":"levelo://app?vid=bd6dd9e9-9b0d-4e67-8a52-ee9abfc17e25","ios":"levelo://app?vid=bd6dd9e9-9b0d-4e67-8a52-ee9abfc17e25"},"vehicle_type_id":"4","last_reported":1708538918,"current_range_meters":6000,"station_id":"ce4bhr12rcd13ifvqhpg","pricing_plan_id":"cebpf4jnsgd1na2vs0mg"},{"bike_id":"28b24a55-362f-4212-a003-8d2ed4590f16","system_id":"levelo_inurba_marseille","lat":43.319935,"lon":5.381699,"is_reserved":false,"is_disabled":false,"rental_uris":{"android":"levelo://app?vid=28b24a55-362f-4212-a003-8d2ed4590f16","ios":"levelo://app?vid=28b24a55-362f-4212-a003-8d2ed4590f16"},"vehicle_type_id":"4","last_reported":1708538918,"current_range_meters":14000,"station_id":"ce4bhr12rcd13ifvqhpg","pricing_plan_id":"cebpf4jnsgd1na2vs0mg"},{"bike_id":"a88e631f-9ad3-4e3a-b1ce-d7828b6ae959","system_id":"levelo_inurba_marseille","lat":43.319935,"lon":5.381699,"is_reserved":false,"is_disabled":false,"rental_uris":{"android":"levelo://app?vid=a88e631f-9ad3-4e3a-b1ce-d7828b6ae959","ios":"levelo://app?vid=a88e631f-9ad3-4e3a-b1ce-d7828b6ae959"},"vehicle_type_id":"4","last_reported":1708538918,"current_range_meters":800,"station_id":"ce4bhr12rcd13ifvqhpg","pricing_plan_id":"cebpf4jnsgd1na2vs0mg"},{"bike_id":"8e2def0f-3cc0-4780-a4e7-d709135681cc","system_id":"levelo_inurba_marseille","lat":43.319935,"lon":5.381699,"is_reserved":false,"is_disabled":false,"rental_uris":{"android":"levelo://app?vid=8e2def0f-3cc0-4780-a4e7-d709135681cc","ios":"levelo://app?vid=8e2def0f-3cc0-4780-a4e7-d709135681cc"},"vehicle_type_id":"4","last_reported":1708538918,"current_range_meters":6400,"station_id":"ce4bhr12rcd13ifvqhpg","pricing_plan_id":"cebpf4jnsgd1na2vs0mg"},{"bike_id":"98d8335f-3648-40aa-9549-feae41fc01a4","system_id":"levelo_inurba_marseille","lat":43.319935,"lon":5.381699,"is_reserved":false,"is_disabled":false,"rental_uris":{"android":"levelo://app?vid=98d8335f-3648-40aa-9549-feae41fc01a4","ios":"levelo://app?vid=98d8335f-3648-40aa-9549-feae41fc01a4"},"vehicle_type_id":"4","last_reported":1708538918,"current_range_meters":22800,"station_id":"ce4bhr12rcd13ifvqhpg","pricing_plan_id":"cebpf4jnsgd1na2vs0mg"},{"bike_id":"2dfb92cc-ea3b-4091-8c27-ecfa50d3effe","system_id":"levelo_inurba_marseille","lat":43.31998,"lon":5.38166,"is_reserved":false,"is_disabled":false,"rental_uris":{"android":"levelo://app?vid=2dfb92cc-ea3b-4091-8c27-ecfa50d3effe","ios":"levelo://app?vid=2dfb92cc-ea3b-4091-8c27-ecfa50d3effe"},"vehicle_type_id":"4","last_reported":1708538918,"current_range_meters":4400,"station_id":"ce4bhr12rcd13ifvqhpg","pricing_plan_id":"cebpf4jnsgd1na2vs0mg"},{"bike_id":"40b606a5-2ea9-441c-94f6-c8c0b59b70ee","system_id":"levelo_inurba_marseille","lat":43.319935,"lon":5.381699,"is_reserved":false,"is_disabled":false,"rental_uris":{"android":"levelo://app?vid=40b606a5-2ea9-441c-94f6-c8c0b59b70ee","ios":"levelo://app?vid=40b606a5-2ea9-441c-94f6-c8c0b59b70ee"},"vehicle_type_id":"4","last_reported":1708538918,"current_range_meters":4800,"station_id":"ce4bhr12rcd13ifvqhpg","pricing_plan_id":"cebpf4jnsgd1na2vs0mg"},{"bike_id":"3e070cba-eec0-4ab7-964c-83cfa176d10d","system_id":"levelo_inurba_marseille","lat":43.299222,"lon":5.365554,"is_reserved":false,"is_disabled":false,"rental_uris":{"android":"levelo://app?vid=3e070cba-eec0-4ab7-964c-83cfa176d10d","ios":"levelo://app?vid=3e070cba-eec0-4ab7-964c-83cfa176d10d"},"vehicle_type_id":"4","last_reported":1708538918,"current_range_meters":30400,"station_id":"ce4bgm92rcd13ifvqbr0","pricing_plan_id":"cebpf4jnsgd1na2vs0mg"},{"bike_id":"8497808f-7833-41b8-890f-0101b90e8692","system_id":"levelo_inurba_marseille","lat":43.299222,"lon":5.365554,"is_reserved":false,"is_disabled":false,"rental_uris":{"android":"levelo://app?vid=8497808f-7833-41b8-890f-0101b90e8692","ios":"levelo://app?vid=8497808f-7833-41b8-890f-0101b90e8692"},"vehicle_type_id":"4","last_reported":1708538918,"current_range_meters":23200,"station_id":"ce4bgm92rcd13ifvqbr0","pricing_plan_id":"cebpf4jnsgd1na2vs0mg"},{"bike_id":"19f70122-7f35-4bb1-8da9-1af06a0d3c88","system_id":"levelo_inurba_marseille","lat":43.299724,"lon":5.371829,"is_reserved":false,"is_disabled":false,"rental_uris":{"android":"levelo://app?vid=19f70122-7f35-4bb1-8da9-1af06a0d3c88","ios":"levelo://app?vid=19f70122-7f35-4bb1-8da9-1af06a0d3c88"},"vehicle_type_id":"4","last_reported":1708538918,"current_range_meters":17600,"station_id":"ce4bgr92rcd13ifvqc7g","pricing_plan_id":"cebpf4jnsgd1na2vs0mg"},{"bike_id":"51a9463a-0282-40bd-bd09-abf498a1276f","system_id":"levelo_inurba_marseille","lat":43.29931,"lon":5.36544,"is_reserved":false,"is_disabled":false,"rental_uris":{"android":"levelo://app?vid=51a9463a-0282-40bd-bd09-abf498a1276f","ios":"levelo://app?vid=51a9463a-0282-40bd-bd09-abf498a1276f"},"vehicle_type_id":"4","last_reported":1708538918,"current_range_meters":11600,"station_id":"ce4bgm92rcd13ifvqbr0","pricing_plan_id":"cebpf4jnsgd1na2vs0mg"},{"bike_id":"2e6fa42f-d603-44ba-98a0-e311ba660f27","system_id":"levelo_inurba_marseille","lat":43.299222,"lon":5.365554,"is_reserved":false,"is_disabled":false,"rental_uris":{"android":"levelo://app?vid=2e6fa42f-d603-44ba-98a0-e311ba660f27","ios":"levelo://app?vid=2e6fa42f-d603-44ba-98a0-e311ba660f27"},"vehicle_type_id":"4","last_reported":1708538918,"current_range_meters":0,"station_id":"ce4bgm92rcd13ifvqbr0","pricing_plan_id":"cebpf4jnsgd1na2vs0mg"},{"bike_id":"c263ddc2-c641-4b9d-be29-24276f82ac05","system_id":"levelo_inurba_marseille","lat":43.31357,"lon":5.38641,"is_reserved":false,"is_disabled":false,"rental_uris":{"android":"levelo://app?vid=c263ddc2-c641-4b9d-be29-24276f82ac05","ios":"levelo://app?vid=c263ddc2-c641-4b9d-be29-24276f82ac05"},"vehicle_type_id":"4","last_reported":1708538918,"current_range_meters":24800,"station_id":"","pricing_plan_id":"cebpf4jnsgd1na2vs0mg"},{"bike_id":"e62f1d6a-1671-4d68-91ab-8410bf99e511","system_id":"levelo_inurba_marseille","lat":43.299243,"lon":5.374807,"is_reserved":false,"is_disabled":false,"rental_uris":{"android":"levelo://app?vid=e62f1d6a-1671-4d68-91ab-8410bf99e511","ios":"levelo://app?vid=e62f1d6a-1671-4d68-91ab-8410bf99e511"},"vehicle_type_id":"4","last_reported":1708538918,"current_range_meters":4800,"station_id":"ce4bgjh2rcd13ifvqbg0","pricing_plan_id":"cebpf4jnsgd1na2vs0mg"},{"bike_id":"eb6fc4c4-b120-4de5-97e0-a6ea01719e40","system_id":"levelo_inurba_marseille","lat":43.31186,"lon":5.38715,"is_reserved":false,"is_disabled":false,"rental_uris":{"android":"levelo://app?vid=eb6fc4c4-b120-4de5-97e0-a6ea01719e40","ios":"levelo://app?vid=eb6fc4c4-b120-4de5-97e0-a6ea01719e40"},"vehicle_type_id":"4","last_reported":1708538918,"current_range_meters":9600,"station_id":"ce4bgv12rcd13ifvqcp0","pricing_plan_id":"cebpf4jnsgd1na2vs0mg"},{"bike_id":"6cf5e101-dd2b-4bf0-9599-5d716a9b443d","system_id":"levelo_inurba_marseille","lat":43.311722,"lon":5.387247,"is_reserved":false,"is_disabled":false,"rental_uris":{"android":"levelo://app?vid=6cf5e101-dd2b-4bf0-9599-5d716a9b443d","ios":"levelo://app?vid=6cf5e101-dd2b-4bf0-9599-5d716a9b443d"},"vehicle_type_id":"4","last_reported":1708538918,"current_range_meters":12000,"station_id":"ce4bgv12rcd13ifvqcp0","pricing_plan_id":"cebpf4jnsgd1na2vs0mg"},{"bike_id":"4f73b9c7-e7bb-4aab-811e-8790757d23a1","system_id":"levelo_inurba_marseille","lat":43.311722,"lon":5.387247,"is_reserved":false,"is_disabled":false,"rental_uris":{"android":"levelo://app?vid=4f73b9c7-e7bb-4aab-811e-8790757d23a1","ios":"levelo://app?vid=4f73b9c7-e7bb-4aab-811e-8790757d23a1"},"vehicle_type_id":"4","last_reported":1708538918,"current_range_meters":1200,"station_id":"ce4bgv12rcd13ifvqcp0","pricing_plan_id":"cebpf4jnsgd1na2vs0mg"},{"bike_id":"11d1f8af-cdd1-49a7-b336-7e27d6bfd002","system_id":"levelo_inurba_marseille","lat":43.297774,"lon":5.370875,"is_reserved":false,"is_disabled":false,"rental_uris":{"android":"levelo://app?vid=11d1f8af-cdd1-49a7-b336-7e27d6bfd002","ios":"levelo://app?vid=11d1f8af-cdd1-49a7-b336-7e27d6bfd002"},"vehicle_type_id":"4","last_reported":1708538918,"current_range_meters":400,"station_id":"ce4bgop2rcd13ifvqc1g","pricing_plan_id":"cebpf4jnsgd1na2vs0mg"},{"bike_id":"cc5c838a-9515-488b-b1c4-895a7b35f6ff","system_id":"levelo_inurba_marseille","lat":43.297794,"lon":5.370888,"is_reserved":false,"is_disabled":false,"rental_uris":{"android":"levelo://app?vid=cc5c838a-9515-488b-b1c4-895a7b35f6ff","ios":"levelo://app?vid=cc5c838a-9515-488b-b1c4-895a7b35f6ff"},"vehicle_type_id":"4","last_reported":1708538918,"current_range_meters":19600,"station_id":"ce4bgop2rcd13ifvqc1g","pricing_plan_id":"cebpf4jnsgd1na2vs0mg"},{"bike_id":"39389220-87f0-471e-b756-1d83a87332bd","system_id":"levelo_inurba_marseille","lat":43.297774,"lon":5.370875,"is_reserved":false,"is_disabled":false,"rental_uris":{"android":"levelo://app?vid=39389220-87f0-471e-b756-1d83a87332bd","ios":"levelo://app?vid=39389220-87f0-471e-b756-1d83a87332bd"},"vehicle_type_id":"4","last_reported":1708538918,"current_range_meters":21200,"station_id":"ce4bgop2rcd13ifvqc1g","pricing_plan_id":"cebpf4jnsgd1na2vs0mg"},{"bike_id":"dc84b517-faa5-4085-b8eb-ffade7a3674d","system_id":"levelo_inurba_marseille","lat":43.322872,"lon":5.382756,"is_reserved":false,"is_disabled":false,"rental_uris":{"android":"levelo://app?vid=dc84b517-faa5-4085-b8eb-ffade7a3674d","ios":"levelo://app?vid=dc84b517-faa5-4085-b8eb-ffade7a3674d"},"vehicle_type_id":"4","last_reported":1708538918,"current_range_meters":24800,"station_id":"ce4bhr12rcd13ifvqhqg","pricing_plan_id":"cebpf4jnsgd1na2vs0mg"},{"bike_id":"8c38fcf2-2074-4863-b8d6-e4d0562d5ae9","system_id":"levelo_inurba_marseille","lat":43.322872,"lon":5.382756,"is_reserved":false,"is_disabled":false,"rental_uris":{"android":"levelo://app?vid=8c38fcf2-2074-4863-b8d6-e4d0562d5ae9","ios":"levelo://app?vid=8c38fcf2-2074-4863-b8d6-e4d0562d5ae9"},"vehicle_type_id":"4","last_reported":1708538918,"current_range_meters":24400,"station_id":"ce4bhr12rcd13ifvqhqg","pricing_plan_id":"cebpf4jnsgd1na2vs0mg"},{"bike_id":"3df50c36-c26a-452a-bce8-76fa0273b975","system_id":"levelo_inurba_marseille","lat":43.297163,"lon":5.365866,"is_reserved":false,"is_disabled":false,"rental_uris":{"android":"levelo://app?vid=3df50c36-c26a-452a-bce8-76fa0273b975","ios":"levelo://app?vid=3df50c36-c26a-452a-bce8-76fa0273b975"},"vehicle_type_id":"4","last_reported":1708538918,"current_range_meters":0,"station_id":"ce4bgn12rcd13ifvqbt0","pricing_plan_id":"cebpf4jnsgd1na2vs0mg"},{"bike_id":"3ceee747-03ba-4f5d-8ee7-78131e107b42","system_id":"levelo_inurba_marseille","lat":43.297163,"lon":5.365866,"is_reserved":false,"is_disabled":false,"rental_uris":{"android":"levelo://app?vid=3ceee747-03ba-4f5d-8ee7-78131e107b42","ios":"levelo://app?vid=3ceee747-03ba-4f5d-8ee7-78131e107b42"},"vehicle_type_id":"4","last_reported":1708538918,"current_range_meters":29200,"station_id":"ce4bgn12rcd13ifvqbt0","pricing_plan_id":"cebpf4jnsgd1na2vs0mg"},{"bike_id":"aee9d5f2-c295-4ac9-b725-225e78bbb180","system_id":"levelo_inurba_marseille","lat":43.297163,"lon":5.365866,"is_reserved":false,"is_disabled":false,"rental_uris":{"android":"levelo://app?vid=aee9d5f2-c295-4ac9-b725-225e78bbb180","ios":"levelo://app?vid=aee9d5f2-c295-4ac9-b725-225e78bbb180"},"vehicle_type_id":"4","last_reported":1708538918,"current_range_meters":31200,"station_id":"ce4bgn12rcd13ifvqbt0","pricing_plan_id":"cebpf4jnsgd1na2vs0mg"},{"bike_id":"b795ca7d-8f17-4176-8f06-a59ea67957b6","system_id":"levelo_inurba_marseille","lat":43.297163,"lon":5.365866,"is_reserved":false,"is_disabled":false,"rental_uris":{"android":"levelo://app?vid=b795ca7d-8f17-4176-8f06-a59ea67957b6","ios":"levelo://app?vid=b795ca7d-8f17-4176-8f06-a59ea67957b6"},"vehicle_type_id":"4","last_reported":1708538918,"current_range_meters":22800,"station_id":"ce4bgn12rcd13ifvqbt0","pricing_plan_id":"cebpf4jnsgd1na2vs0mg"},{"bike_id":"582f99f4-6790-4850-9fdb-a48b4c5856f9","system_id":"levelo_inurba_marseille","lat":43.297163,"lon":5.365866,"is_reserved":false,"is_disabled":false,"rental_uris":{"android":"levelo://app?vid=582f99f4-6790-4850-9fdb-a48b4c5856f9","ios":"levelo://app?vid=582f99f4-6790-4850-9fdb-a48b4c5856f9"},"vehicle_type_id":"4","last_reported":1708538918,"current_range_meters":31200,"station_id":"ce4bgn12rcd13ifvqbt0","pricing_plan_id":"cebpf4jnsgd1na2vs0mg"},{"bike_id":"85a4d11c-289d-4628-8388-5671fa361a18","system_id":"levelo_inurba_marseille","lat":43.29712,"lon":5.36616,"is_reserved":false,"is_disabled":false,"rental_uris":{"android":"levelo://app?vid=85a4d11c-289d-4628-8388-5671fa361a18","ios":"levelo://app?vid=85a4d11c-289d-4628-8388-5671fa361a18"},"vehicle_type_id":"4","last_reported":1708538918,"current_range_meters":28800,"station_id":"ce4bgn12rcd13ifvqbt0","pricing_plan_id":"cebpf4jnsgd1na2vs0mg"},{"bike_id":"d6691360-ca71-4f56-a2b0-1e5ce6e1787b","system_id":"levelo_inurba_marseille","lat":43.29711,"lon":5.36611,"is_reserved":false,"is_disabled":false,"rental_uris":{"android":"levelo://app?vid=d6691360-ca71-4f56-a2b0-1e5ce6e1787b","ios":"levelo://app?vid=d6691360-ca71-4f56-a2b0-1e5ce6e1787b"},"vehicle_type_id":"4","last_reported":1708538918,"current_range_meters":12000,"station_id":"ce4bgn12rcd13ifvqbt0","pricing_plan_id":"cebpf4jnsgd1na2vs0mg"},{"bike_id":"ab890e2d-a587-495f-b7b2-88650dab08d4","system_id":"levelo_inurba_marseille","lat":43.297163,"lon":5.365866,"is_reserved":false,"is_disabled":false,"rental_uris":{"android":"levelo://app?vid=ab890e2d-a587-495f-b7b2-88650dab08d4","ios":"levelo://app?vid=ab890e2d-a587-495f-b7b2-88650dab08d4"},"vehicle_type_id":"4","last_reported":1708538918,"current_range_meters":9600,"station_id":"ce4bgn12rcd13ifvqbt0","pricing_plan_id":"cebpf4jnsgd1na2vs0mg"},{"bike_id":"f8b8ee7f-8af0-462e-a186-2cf8dabeff50","system_id":"levelo_inurba_marseille","lat":43.297163,"lon":5.365866,"is_reserved":false,"is_disabled":false,"rental_uris":{"android":"levelo://app?vid=f8b8ee7f-8af0-462e-a186-2cf8dabeff50","ios":"levelo://app?vid=f8b8ee7f-8af0-462e-a186-2cf8dabeff50"},"vehicle_type_id":"4","last_reported":1708538918,"current_range_meters":24400,"station_id":"ce4bgn12rcd13ifvqbt0","pricing_plan_id":"cebpf4jnsgd1na2vs0mg"},{"bike_id":"8642fa6d-bfe9-46fc-a54b-7e0441e8cb2f","system_id":"levelo_inurba_marseille","lat":43.297163,"lon":5.365866,"is_reserved":false,"is_disabled":false,"rental_uris":{"android":"levelo://app?vid=8642fa6d-bfe9-46fc-a54b-7e0441e8cb2f","ios":"levelo://app?vid=8642fa6d-bfe9-46fc-a54b-7e0441e8cb2f"},"vehicle_type_id":"4","last_reported":1708538918,"current_range_meters":11600,"station_id":"ce4bgn12rcd13ifvqbt0","pricing_plan_id":"cebpf4jnsgd1na2vs0mg"},{"bike_id":"6426f1a4-04f2-46e3-bdc5-65ee31f68014","system_id":"levelo_inurba_marseille","lat":43.296921,"lon":5.376579,"is_reserved":false,"is_disabled":false,"rental_uris":{"android":"levelo://app?vid=6426f1a4-04f2-46e3-bdc5-65ee31f68014","ios":"levelo://app?vid=6426f1a4-04f2-46e3-bdc5-65ee31f68014"},"vehicle_type_id":"4","last_reported":1708538918,"current_range_meters":5600,"station_id":"ce4bgkh2rcd13ifvqbl0","pricing_plan_id":"cebpf4jnsgd1na2vs0mg"},{"bike_id":"7da70c33-2868-46c4-b9bf-8798bc931067","system_id":"levelo_inurba_marseille","lat":43.296131,"lon":5.370791,"is_reserved":false,"is_disabled":false,"rental_uris":{"android":"levelo://app?vid=7da70c33-2868-46c4-b9bf-8798bc931067","ios":"levelo://app?vid=7da70c33-2868-46c4-b9bf-8798bc931067"},"vehicle_type_id":"4","last_reported":1708538918,"current_range_meters":21200,"station_id":"ce4bgnh2rcd13ifvqc0g","pricing_plan_id":"cebpf4jnsgd1na2vs0mg"},{"bike_id":"de34b0ae-1ca6-4a95-bb98-ba995c9756f2","system_id":"levelo_inurba_marseille","lat":43.29585,"lon":5.36738,"is_reserved":false,"is_disabled":false,"rental_uris":{"android":"levelo://app?vid=de34b0ae-1ca6-4a95-bb98-ba995c9756f2","ios":"levelo://app?vid=de34b0ae-1ca6-4a95-bb98-ba995c9756f2"},"vehicle_type_id":"4","last_reported":1708538918,"current_range_meters":10800,"station_id":"ce4bgph2rcd13ifvqc2g","pricing_plan_id":"cebpf4jnsgd1na2vs0mg"},{"bike_id":"0d1fd924-b194-4905-940d-41b6e359f1ab","system_id":"levelo_inurba_marseille","lat":43.29573,"lon":5.367355,"is_reserved":false,"is_disabled":false,"rental_uris":{"android":"levelo://app?vid=0d1fd924-b194-4905-940d-41b6e359f1ab","ios":"levelo://app?vid=0d1fd924-b194-4905-940d-41b6e359f1ab"},"vehicle_type_id":"4","last_reported":1708538918,"current_range_meters":28000,"station_id":"ce4bgph2rcd13ifvqc2g","pricing_plan_id":"cebpf4jnsgd1na2vs0mg"},{"bike_id":"5f14e08c-652b-4362-a161-d830707dbc60","system_id":"levelo_inurba_marseille","lat":43.29573,"lon":5.367355,"is_reserved":false,"is_disabled":false,"rental_uris":{"android":"levelo://app?vid=5f14e08c-652b-4362-a161-d830707dbc60","ios":"levelo://app?vid=5f14e08c-652b-4362-a161-d830707dbc60"},"vehicle_type_id":"4","last_reported":1708538918,"current_range_meters":26400,"station_id":"ce4bgph2rcd13ifvqc2g","pricing_plan_id":"cebpf4jnsgd1na2vs0mg"},{"bike_id":"36d125ff-3de5-4c06-989e-911709625cc2","system_id":"levelo_inurba_marseille","lat":43.29573,"lon":5.367355,"is_reserved":false,"is_disabled":false,"rental_uris":{"android":"levelo://app?vid=36d125ff-3de5-4c06-989e-911709625cc2","ios":"levelo://app?vid=36d125ff-3de5-4c06-989e-911709625cc2"},"vehicle_type_id":"4","last_reported":1708538918,"current_range_meters":5200,"station_id":"ce4bgph2rcd13ifvqc2g","pricing_plan_id":"cebpf4jnsgd1na2vs0mg"},{"bike_id":"9c2d4533-4839-4c90-a61c-c48889c438d1","system_id":"levelo_inurba_marseille","lat":43.29573,"lon":5.367355,"is_reserved":false,"is_disabled":false,"rental_uris":{"android":"levelo://app?vid=9c2d4533-4839-4c90-a61c-c48889c438d1","ios":"levelo://app?vid=9c2d4533-4839-4c90-a61c-c48889c438d1"},"vehicle_type_id":"4","last_reported":1708538918,"current_range_meters":26000,"station_id":"ce4bgph2rcd13ifvqc2g","pricing_plan_id":"cebpf4jnsgd1na2vs0mg"},{"bike_id":"13bdab4c-b8e4-4966-89a3-64cea929eac6","system_id":"levelo_inurba_marseille","lat":43.299028,"lon":5.381509,"is_reserved":false,"is_disabled":false,"rental_uris":{"android":"levelo://app?vid=13bdab4c-b8e4-4966-89a3-64cea929eac6","ios":"levelo://app?vid=13bdab4c-b8e4-4966-89a3-64cea929eac6"},"vehicle_type_id":"4","last_reported":1708538918,"current_range_meters":10000,"station_id":"ce4bgj12rcd13ifvqbc0","pricing_plan_id":"cebpf4jnsgd1na2vs0mg"},{"bike_id":"ad146fb4-328b-4c05-9650-78369de14d78","system_id":"levelo_inurba_marseille","lat":43.296921,"lon":5.376579,"is_reserved":false,"is_disabled":false,"rental_uris":{"android":"levelo://app?vid=ad146fb4-328b-4c05-9650-78369de14d78","ios":"levelo://app?vid=ad146fb4-328b-4c05-9650-78369de14d78"},"vehicle_type_id":"4","last_reported":1708538918,"current_range_meters":8400,"station_id":"ce4bgkh2rcd13ifvqbl0","pricing_plan_id":"cebpf4jnsgd1na2vs0mg"},{"bike_id":"6cb7c06d-7a44-46eb-b580-af79588dfb0b","system_id":"levelo_inurba_marseille","lat":43.29907,"lon":5.38139,"is_reserved":false,"is_disabled":false,"rental_uris":{"android":"levelo://app?vid=6cb7c06d-7a44-46eb-b580-af79588dfb0b","ios":"levelo://app?vid=6cb7c06d-7a44-46eb-b580-af79588dfb0b"},"vehicle_type_id":"4","last_reported":1708538918,"current_range_meters":0,"station_id":"ce4bgj12rcd13ifvqbc0","pricing_plan_id":"cebpf4jnsgd1na2vs0mg"},{"bike_id":"eeb0e1e3-3de3-4948-b61b-46c0af147d85","system_id":"levelo_inurba_marseille","lat":43.29905,"lon":5.38138,"is_reserved":false,"is_disabled":false,"rental_uris":{"android":"levelo://app?vid=eeb0e1e3-3de3-4948-b61b-46c0af147d85","ios":"levelo://app?vid=eeb0e1e3-3de3-4948-b61b-46c0af147d85"},"vehicle_type_id":"4","last_reported":1708538918,"current_range_meters":28800,"station_id":"ce4bgj12rcd13ifvqbc0","pricing_plan_id":"cebpf4jnsgd1na2vs0mg"},{"bike_id":"ac6e4521-1f7a-4f95-bced-f0421ea4685a","system_id":"levelo_inurba_marseille","lat":43.309589,"lon":5.390258,"is_reserved":false,"is_disabled":false,"rental_uris":{"android":"levelo://app?vid=ac6e4521-1f7a-4f95-bced-f0421ea4685a","ios":"levelo://app?vid=ac6e4521-1f7a-4f95-bced-f0421ea4685a"},"vehicle_type_id":"4","last_reported":1708538918,"current_range_meters":800,"station_id":"ce4bgup2rcd13ifvqco0","pricing_plan_id":"cebpf4jnsgd1na2vs0mg"},{"bike_id":"6d38667b-caf7-426c-9682-4f401d1f605e","system_id":"levelo_inurba_marseille","lat":43.31761,"lon":5.39007,"is_reserved":false,"is_disabled":false,"rental_uris":{"android":"levelo://app?vid=6d38667b-caf7-426c-9682-4f401d1f605e","ios":"levelo://app?vid=6d38667b-caf7-426c-9682-4f401d1f605e"},"vehicle_type_id":"4","last_reported":1708538918,"current_range_meters":26000,"station_id":"ce4bhqp2rcd13ifvqhng","pricing_plan_id":"cebpf4jnsgd1na2vs0mg"},{"bike_id":"c4eea628-8412-4da0-8993-64b792016ba4","system_id":"levelo_inurba_marseille","lat":43.317612,"lon":5.390395,"is_reserved":false,"is_disabled":false,"rental_uris":{"android":"levelo://app?vid=c4eea628-8412-4da0-8993-64b792016ba4","ios":"levelo://app?vid=c4eea628-8412-4da0-8993-64b792016ba4"},"vehicle_type_id":"4","last_reported":1708538918,"current_range_meters":7200,"station_id":"ce4bhqp2rcd13ifvqhng","pricing_plan_id":"cebpf4jnsgd1na2vs0mg"},{"bike_id":"4a0c9a83-8027-44b7-b85e-04869bbae687","system_id":"levelo_inurba_marseille","lat":43.29799,"lon":5.381,"is_reserved":false,"is_disabled":false,"rental_uris":{"android":"levelo://app?vid=4a0c9a83-8027-44b7-b85e-04869bbae687","ios":"levelo://app?vid=4a0c9a83-8027-44b7-b85e-04869bbae687"},"vehicle_type_id":"4","last_reported":1708538918,"current_range_meters":0,"station_id":"ce4bgip2rcd13ifvqbb0","pricing_plan_id":"cebpf4jnsgd1na2vs0mg"},{"bike_id":"5c878b04-676a-4ce5-a8a7-e5c88b166b14","system_id":"levelo_inurba_marseille","lat":43.298037,"lon":5.381066,"is_reserved":false,"is_disabled":false,"rental_uris":{"android":"levelo://app?vid=5c878b04-676a-4ce5-a8a7-e5c88b166b14","ios":"levelo://app?vid=5c878b04-676a-4ce5-a8a7-e5c88b166b14"},"vehicle_type_id":"4","last_reported":1708538918,"current_range_meters":2000,"station_id":"ce4bgip2rcd13ifvqbb0","pricing_plan_id":"cebpf4jnsgd1na2vs0mg"},{"bike_id":"bc693254-db02-4d0c-b8b2-d92a0e0a189a","system_id":"levelo_inurba_marseille","lat":43.29793,"lon":5.38108,"is_reserved":false,"is_disabled":false,"rental_uris":{"android":"levelo://app?vid=bc693254-db02-4d0c-b8b2-d92a0e0a189a","ios":"levelo://app?vid=bc693254-db02-4d0c-b8b2-d92a0e0a189a"},"vehicle_type_id":"4","last_reported":1708538918,"current_range_meters":19200,"station_id":"ce4bgip2rcd13ifvqbb0","pricing_plan_id":"cebpf4jnsgd1na2vs0mg"},{"bike_id":"56bc69d9-f6e0-4bce-b317-6530ed3ae700","system_id":"levelo_inurba_marseille","lat":43.30431,"lon":5.38891,"is_reserved":false,"is_disabled":false,"rental_uris":{"android":"levelo://app?vid=56bc69d9-f6e0-4bce-b317-6530ed3ae700","ios":"levelo://app?vid=56bc69d9-f6e0-4bce-b317-6530ed3ae700"},"vehicle_type_id":"4","last_reported":1708538918,"current_range_meters":14000,"station_id":"ce4bgk12rcd13ifvqbi0","pricing_plan_id":"cebpf4jnsgd1na2vs0mg"},{"bike_id":"931fe482-db94-4aa4-a2b2-b99fbd3ec388","system_id":"levelo_inurba_marseille","lat":43.296277,"lon":5.377108,"is_reserved":false,"is_disabled":false,"rental_uris":{"android":"levelo://app?vid=931fe482-db94-4aa4-a2b2-b99fbd3ec388","ios":"levelo://app?vid=931fe482-db94-4aa4-a2b2-b99fbd3ec388"},"vehicle_type_id":"4","last_reported":1708538918,"current_range_meters":2000,"station_id":"ce4bgi92rcd13ifvqb90","pricing_plan_id":"cebpf4jnsgd1na2vs0mg"},{"bike_id":"d38190a1-8969-4cea-9abb-9d2fb8b89b6b","system_id":"levelo_inurba_marseille","lat":43.3043,"lon":5.38896,"is_reserved":false,"is_disabled":false,"rental_uris":{"android":"levelo://app?vid=d38190a1-8969-4cea-9abb-9d2fb8b89b6b","ios":"levelo://app?vid=d38190a1-8969-4cea-9abb-9d2fb8b89b6b"},"vehicle_type_id":"4","last_reported":1708538918,"current_range_meters":0,"station_id":"ce4bgk12rcd13ifvqbi0","pricing_plan_id":"cebpf4jnsgd1na2vs0mg"},{"bike_id":"a4e8b23e-6f0b-465b-a4c8-b18573ce4cac","system_id":"levelo_inurba_marseille","lat":43.29539,"lon":5.37439,"is_reserved":false,"is_disabled":false,"rental_uris":{"android":"levelo://app?vid=a4e8b23e-6f0b-465b-a4c8-b18573ce4cac","ios":"levelo://app?vid=a4e8b23e-6f0b-465b-a4c8-b18573ce4cac"},"vehicle_type_id":"4","last_reported":1708538918,"current_range_meters":0,"station_id":"","pricing_plan_id":"cebpf4jnsgd1na2vs0mg"},{"bike_id":"8d453d09-5543-4457-94af-ca7ba7a4e042","system_id":"levelo_inurba_marseille","lat":43.29668,"lon":5.37864,"is_reserved":false,"is_disabled":false,"rental_uris":{"android":"levelo://app?vid=8d453d09-5543-4457-94af-ca7ba7a4e042","ios":"levelo://app?vid=8d453d09-5543-4457-94af-ca7ba7a4e042"},"vehicle_type_id":"4","last_reported":1708538918,"current_range_meters":21200,"station_id":"","pricing_plan_id":"cebpf4jnsgd1na2vs0mg"},{"bike_id":"0b205bab-24a5-4225-b9e1-04a909a5b36e","system_id":"levelo_inurba_marseille","lat":43.29703,"lon":5.37964,"is_reserved":false,"is_disabled":false,"rental_uris":{"android":"levelo://app?vid=0b205bab-24a5-4225-b9e1-04a909a5b36e","ios":"levelo://app?vid=0b205bab-24a5-4225-b9e1-04a909a5b36e"},"vehicle_type_id":"4","last_reported":1708538918,"current_range_meters":15600,"station_id":"","pricing_plan_id":"cebpf4jnsgd1na2vs0mg"},{"bike_id":"a6784100-d746-45d0-8cbe-01c3d61828a2","system_id":"levelo_inurba_marseille","lat":43.299707,"lon":5.384859,"is_reserved":false,"is_disabled":false,"rental_uris":{"android":"levelo://app?vid=a6784100-d746-45d0-8cbe-01c3d61828a2","ios":"levelo://app?vid=a6784100-d746-45d0-8cbe-01c3d61828a2"},"vehicle_type_id":"4","last_reported":1708538918,"current_range_meters":20400,"station_id":"ce4bgj92rcd13ifvqbd0","pricing_plan_id":"cebpf4jnsgd1na2vs0mg"},{"bike_id":"b1f58038-9799-4b11-ae60-3bceb7404f00","system_id":"levelo_inurba_marseille","lat":43.29534,"lon":5.37509,"is_reserved":false,"is_disabled":false,"rental_uris":{"android":"levelo://app?vid=b1f58038-9799-4b11-ae60-3bceb7404f00","ios":"levelo://app?vid=b1f58038-9799-4b11-ae60-3bceb7404f00"},"vehicle_type_id":"4","last_reported":1708538918,"current_range_meters":3600,"station_id":"ce4bgkp2rcd13ifvqbmg","pricing_plan_id":"cebpf4jnsgd1na2vs0mg"},{"bike_id":"69a75d1a-b76c-4f44-96a0-09f1fb5545ba","system_id":"levelo_inurba_marseille","lat":43.299707,"lon":5.384859,"is_reserved":false,"is_disabled":false,"rental_uris":{"android":"levelo://app?vid=69a75d1a-b76c-4f44-96a0-09f1fb5545ba","ios":"levelo://app?vid=69a75d1a-b76c-4f44-96a0-09f1fb5545ba"},"vehicle_type_id":"4","last_reported":1708538918,"current_range_meters":16000,"station_id":"ce4bgj92rcd13ifvqbd0","pricing_plan_id":"cebpf4jnsgd1na2vs0mg"},{"bike_id":"bbc53601-d6b3-4b27-a312-df978c624924","system_id":"levelo_inurba_marseille","lat":43.299707,"lon":5.384859,"is_reserved":false,"is_disabled":false,"rental_uris":{"android":"levelo://app?vid=bbc53601-d6b3-4b27-a312-df978c624924","ios":"levelo://app?vid=bbc53601-d6b3-4b27-a312-df978c624924"},"vehicle_type_id":"4","last_reported":1708538918,"current_range_meters":24400,"station_id":"ce4bgj92rcd13ifvqbd0","pricing_plan_id":"cebpf4jnsgd1na2vs0mg"},{"bike_id":"4e9de9c6-da55-42c7-9e23-7cc786792173","system_id":"levelo_inurba_marseille","lat":43.295303,"lon":5.375012,"is_reserved":false,"is_disabled":false,"rental_uris":{"android":"levelo://app?vid=4e9de9c6-da55-42c7-9e23-7cc786792173","ios":"levelo://app?vid=4e9de9c6-da55-42c7-9e23-7cc786792173"},"vehicle_type_id":"4","last_reported":1708538918,"current_range_meters":25200,"station_id":"ce4bgkp2rcd13ifvqbmg","pricing_plan_id":"cebpf4jnsgd1na2vs0mg"},{"bike_id":"a1c52c4d-2b2e-464d-a3b8-ad196ffe1d7b","system_id":"levelo_inurba_marseille","lat":43.29656,"lon":5.37905,"is_reserved":false,"is_disabled":false,"rental_uris":{"android":"levelo://app?vid=a1c52c4d-2b2e-464d-a3b8-ad196ffe1d7b","ios":"levelo://app?vid=a1c52c4d-2b2e-464d-a3b8-ad196ffe1d7b"},"vehicle_type_id":"4","last_reported":1708538918,"current_range_meters":14000,"station_id":"","pricing_plan_id":"cebpf4jnsgd1na2vs0mg"},{"bike_id":"046dfe3a-89c2-4077-ba3d-2b9cdfaab6e8","system_id":"levelo_inurba_marseille","lat":43.299717,"lon":5.384845,"is_reserved":false,"is_disabled":false,"rental_uris":{"android":"levelo://app?vid=046dfe3a-89c2-4077-ba3d-2b9cdfaab6e8","ios":"levelo://app?vid=046dfe3a-89c2-4077-ba3d-2b9cdfaab6e8"},"vehicle_type_id":"4","last_reported":1708538918,"current_range_meters":26400,"station_id":"ce4bgj92rcd13ifvqbd0","pricing_plan_id":"cebpf4jnsgd1na2vs0mg"},{"bike_id":"8abd3e7f-3023-47ef-a12c-ee21cabbbbb3","system_id":"levelo_inurba_marseille","lat":43.29975,"lon":5.38493,"is_reserved":false,"is_disabled":false,"rental_uris":{"android":"levelo://app?vid=8abd3e7f-3023-47ef-a12c-ee21cabbbbb3","ios":"levelo://app?vid=8abd3e7f-3023-47ef-a12c-ee21cabbbbb3"},"vehicle_type_id":"4","last_reported":1708538918,"current_range_meters":31200,"station_id":"ce4bgj92rcd13ifvqbd0","pricing_plan_id":"cebpf4jnsgd1na2vs0mg"},{"bike_id":"f40448d9-34a5-46b4-a3d3-8fef9e591273","system_id":"levelo_inurba_marseille","lat":43.29526,"lon":5.37508,"is_reserved":false,"is_disabled":false,"rental_uris":{"android":"levelo://app?vid=f40448d9-34a5-46b4-a3d3-8fef9e591273","ios":"levelo://app?vid=f40448d9-34a5-46b4-a3d3-8fef9e591273"},"vehicle_type_id":"4","last_reported":1708538918,"current_range_meters":9200,"station_id":"ce4bgkp2rcd13ifvqbmg","pricing_plan_id":"cebpf4jnsgd1na2vs0mg"},{"bike_id":"550c58d9-8423-4974-a3bd-41df17fd88ff","system_id":"levelo_inurba_marseille","lat":43.29973,"lon":5.38493,"is_reserved":false,"is_disabled":false,"rental_uris":{"android":"levelo://app?vid=550c58d9-8423-4974-a3bd-41df17fd88ff","ios":"levelo://app?vid=550c58d9-8423-4974-a3bd-41df17fd88ff"},"vehicle_type_id":"4","last_reported":1708538918,"current_range_meters":28400,"station_id":"ce4bgj92rcd13ifvqbd0","pricing_plan_id":"cebpf4jnsgd1na2vs0mg"},{"bike_id":"83245025-7708-4fa7-af7a-b7b1f6321f27","system_id":"levelo_inurba_marseille","lat":43.299717,"lon":5.384845,"is_reserved":false,"is_disabled":false,"rental_uris":{"android":"levelo://app?vid=83245025-7708-4fa7-af7a-b7b1f6321f27","ios":"levelo://app?vid=83245025-7708-4fa7-af7a-b7b1f6321f27"},"vehicle_type_id":"4","last_reported":1708538918,"current_range_meters":30400,"station_id":"ce4bgj92rcd13ifvqbd0","pricing_plan_id":"cebpf4jnsgd1na2vs0mg"},{"bike_id":"acf74330-9b38-44a0-aa13-b4f874ae19f0","system_id":"levelo_inurba_marseille","lat":43.300138,"lon":5.385567,"is_reserved":false,"is_disabled":false,"rental_uris":{"android":"levelo://app?vid=acf74330-9b38-44a0-aa13-b4f874ae19f0","ios":"levelo://app?vid=acf74330-9b38-44a0-aa13-b4f874ae19f0"},"vehicle_type_id":"4","last_reported":1708538918,"current_range_meters":0,"station_id":"","pricing_plan_id":"cebpf4jnsgd1na2vs0mg"},{"bike_id":"eafafb00-ffe5-4009-9eba-56d5f4129bd0","system_id":"levelo_inurba_marseille","lat":43.299717,"lon":5.384845,"is_reserved":false,"is_disabled":false,"rental_uris":{"android":"levelo://app?vid=eafafb00-ffe5-4009-9eba-56d5f4129bd0","ios":"levelo://app?vid=eafafb00-ffe5-4009-9eba-56d5f4129bd0"},"vehicle_type_id":"4","last_reported":1708538918,"current_range_meters":16800,"station_id":"ce4bgj92rcd13ifvqbd0","pricing_plan_id":"cebpf4jnsgd1na2vs0mg"},{"bike_id":"a8e6c34b-bf8c-4e6c-8742-c78743a99e5d","system_id":"levelo_inurba_marseille","lat":43.29964,"lon":5.38499,"is_reserved":false,"is_disabled":false,"rental_uris":{"android":"levelo://app?vid=a8e6c34b-bf8c-4e6c-8742-c78743a99e5d","ios":"levelo://app?vid=a8e6c34b-bf8c-4e6c-8742-c78743a99e5d"},"vehicle_type_id":"4","last_reported":1708538918,"current_range_meters":14400,"station_id":"ce4bgj92rcd13ifvqbd0","pricing_plan_id":"cebpf4jnsgd1na2vs0mg"},{"bike_id":"f5a6e152-3a79-4f60-abc6-b48b0a93776b","system_id":"levelo_inurba_marseille","lat":43.299717,"lon":5.384845,"is_reserved":false,"is_disabled":false,"rental_uris":{"android":"levelo://app?vid=f5a6e152-3a79-4f60-abc6-b48b0a93776b","ios":"levelo://app?vid=f5a6e152-3a79-4f60-abc6-b48b0a93776b"},"vehicle_type_id":"4","last_reported":1708538918,"current_range_meters":20400,"station_id":"ce4bgj92rcd13ifvqbd0","pricing_plan_id":"cebpf4jnsgd1na2vs0mg"},{"bike_id":"f92c4dc7-146c-4b21-80cd-5f3eb929a12d","system_id":"levelo_inurba_marseille","lat":43.29906,"lon":5.38519,"is_reserved":false,"is_disabled":false,"rental_uris":{"android":"levelo://app?vid=f92c4dc7-146c-4b21-80cd-5f3eb929a12d","ios":"levelo://app?vid=f92c4dc7-146c-4b21-80cd-5f3eb929a12d"},"vehicle_type_id":"4","last_reported":1708538918,"current_range_meters":0,"station_id":"","pricing_plan_id":"cebpf4jnsgd1na2vs0mg"},{"bike_id":"eddd358b-20d3-44c6-96c5-b426727f1aa8","system_id":"levelo_inurba_marseille","lat":43.301212,"lon":5.387862,"is_reserved":false,"is_disabled":false,"rental_uris":{"android":"levelo://app?vid=eddd358b-20d3-44c6-96c5-b426727f1aa8","ios":"levelo://app?vid=eddd358b-20d3-44c6-96c5-b426727f1aa8"},"vehicle_type_id":"4","last_reported":1708538918,"current_range_meters":24400,"station_id":"","pricing_plan_id":"cebpf4jnsgd1na2vs0mg"},{"bike_id":"14bf9683-89f0-404d-909c-e8d9100e3401","system_id":"levelo_inurba_marseille","lat":43.32365,"lon":5.38881,"is_reserved":false,"is_disabled":false,"rental_uris":{"android":"levelo://app?vid=14bf9683-89f0-404d-909c-e8d9100e3401","ios":"levelo://app?vid=14bf9683-89f0-404d-909c-e8d9100e3401"},"vehicle_type_id":"4","last_reported":1708538918,"current_range_meters":6000,"station_id":"ce4bhqp2rcd13ifvqhog","pricing_plan_id":"cebpf4jnsgd1na2vs0mg"},{"bike_id":"f6d70e1a-28a8-4fd6-82cd-ab78aeaef9da","system_id":"levelo_inurba_marseille","lat":43.32367,"lon":5.388836,"is_reserved":false,"is_disabled":false,"rental_uris":{"android":"levelo://app?vid=f6d70e1a-28a8-4fd6-82cd-ab78aeaef9da","ios":"levelo://app?vid=f6d70e1a-28a8-4fd6-82cd-ab78aeaef9da"},"vehicle_type_id":"4","last_reported":1708538918,"current_range_meters":23200,"station_id":"ce4bhqp2rcd13ifvqhog","pricing_plan_id":"cebpf4jnsgd1na2vs0mg"},{"bike_id":"f81f99fa-1975-4938-b2cd-60174445bc9d","system_id":"levelo_inurba_marseille","lat":43.32367,"lon":5.388836,"is_reserved":false,"is_disabled":false,"rental_uris":{"android":"levelo://app?vid=f81f99fa-1975-4938-b2cd-60174445bc9d","ios":"levelo://app?vid=f81f99fa-1975-4938-b2cd-60174445bc9d"},"vehicle_type_id":"4","last_reported":1708538918,"current_range_meters":4400,"station_id":"ce4bhqp2rcd13ifvqhog","pricing_plan_id":"cebpf4jnsgd1na2vs0mg"},{"bike_id":"ab09c66e-d955-48e4-ad52-8c3824b3c8da","system_id":"levelo_inurba_marseille","lat":43.29602,"lon":5.381084,"is_reserved":false,"is_disabled":false,"rental_uris":{"android":"levelo://app?vid=ab09c66e-d955-48e4-ad52-8c3824b3c8da","ios":"levelo://app?vid=ab09c66e-d955-48e4-ad52-8c3824b3c8da"},"vehicle_type_id":"4","last_reported":1708538918,"current_range_meters":1600,"station_id":"ce4bgl12rcd13ifvqbo0","pricing_plan_id":"cebpf4jnsgd1na2vs0mg"},{"bike_id":"abfec679-72a6-44dc-b45f-5dda5cc54dd9","system_id":"levelo_inurba_marseille","lat":43.29602,"lon":5.381084,"is_reserved":false,"is_disabled":false,"rental_uris":{"android":"levelo://app?vid=abfec679-72a6-44dc-b45f-5dda5cc54dd9","ios":"levelo://app?vid=abfec679-72a6-44dc-b45f-5dda5cc54dd9"},"vehicle_type_id":"4","last_reported":1708538918,"current_range_meters":0,"station_id":"ce4bgl12rcd13ifvqbo0","pricing_plan_id":"cebpf4jnsgd1na2vs0mg"},{"bike_id":"065fcbaf-d09e-43ce-8c5a-a2c1b5da6a26","system_id":"levelo_inurba_marseille","lat":43.29573,"lon":5.367355,"is_reserved":false,"is_disabled":false,"rental_uris":{"android":"levelo://app?vid=065fcbaf-d09e-43ce-8c5a-a2c1b5da6a26","ios":"levelo://app?vid=065fcbaf-d09e-43ce-8c5a-a2c1b5da6a26"},"vehicle_type_id":"4","last_reported":1708538918,"current_range_meters":17200,"station_id":"ce4bgph2rcd13ifvqc2g","pricing_plan_id":"cebpf4jnsgd1na2vs0mg"},{"bike_id":"96a9b179-e9f6-4d6a-a2dd-5432a49fada5","system_id":"levelo_inurba_marseille","lat":43.293259,"lon":5.371586,"is_reserved":false,"is_disabled":false,"rental_uris":{"android":"levelo://app?vid=96a9b179-e9f6-4d6a-a2dd-5432a49fada5","ios":"levelo://app?vid=96a9b179-e9f6-4d6a-a2dd-5432a49fada5"},"vehicle_type_id":"4","last_reported":1708538918,"current_range_meters":19200,"station_id":"ce4bgh92rcd13ifvqb40","pricing_plan_id":"cebpf4jnsgd1na2vs0mg"},{"bike_id":"484f23a3-9025-4226-8056-3f666524197c","system_id":"levelo_inurba_marseille","lat":43.292749,"lon":5.368402,"is_reserved":false,"is_disabled":false,"rental_uris":{"android":"levelo://app?vid=484f23a3-9025-4226-8056-3f666524197c","ios":"levelo://app?vid=484f23a3-9025-4226-8056-3f666524197c"},"vehicle_type_id":"4","last_reported":1708538918,"current_range_meters":14800,"station_id":"ce4bhbp2rcd13ifvqesg","pricing_plan_id":"cebpf4jnsgd1na2vs0mg"},{"bike_id":"d54ce9fb-eaa3-4304-9fcb-fa34554c419d","system_id":"levelo_inurba_marseille","lat":43.292749,"lon":5.368402,"is_reserved":false,"is_disabled":false,"rental_uris":{"android":"levelo://app?vid=d54ce9fb-eaa3-4304-9fcb-fa34554c419d","ios":"levelo://app?vid=d54ce9fb-eaa3-4304-9fcb-fa34554c419d"},"vehicle_type_id":"4","last_reported":1708538918,"current_range_meters":6400,"station_id":"ce4bhbp2rcd13ifvqesg","pricing_plan_id":"cebpf4jnsgd1na2vs0mg"},{"bike_id":"c5d29e62-88cf-407d-99fe-a02daaa58434","system_id":"levelo_inurba_marseille","lat":43.305994,"lon":5.393687,"is_reserved":false,"is_disabled":false,"rental_uris":{"android":"levelo://app?vid=c5d29e62-88cf-407d-99fe-a02daaa58434","ios":"levelo://app?vid=c5d29e62-88cf-407d-99fe-a02daaa58434"},"vehicle_type_id":"4","last_reported":1708538918,"current_range_meters":12000,"station_id":"ce4bh0p2rcd13ifvqd80","pricing_plan_id":"cebpf4jnsgd1na2vs0mg"},{"bike_id":"35193c64-0b8c-4431-b0eb-4eacfe48e106","system_id":"levelo_inurba_marseille","lat":43.29275,"lon":5.36843,"is_reserved":false,"is_disabled":false,"rental_uris":{"android":"levelo://app?vid=35193c64-0b8c-4431-b0eb-4eacfe48e106","ios":"levelo://app?vid=35193c64-0b8c-4431-b0eb-4eacfe48e106"},"vehicle_type_id":"4","last_reported":1708538918,"current_range_meters":0,"station_id":"ce4bhbp2rcd13ifvqesg","pricing_plan_id":"cebpf4jnsgd1na2vs0mg"},{"bike_id":"8584dd87-3721-486f-9d2c-41e8a6298ed0","system_id":"levelo_inurba_marseille","lat":43.314811,"lon":5.373104,"is_reserved":false,"is_disabled":false,"rental_uris":{"android":"levelo://app?vid=8584dd87-3721-486f-9d2c-41e8a6298ed0","ios":"levelo://app?vid=8584dd87-3721-486f-9d2c-41e8a6298ed0"},"vehicle_type_id":"4","last_reported":1708538918,"current_range_meters":22000,"station_id":"ce4bgt12rcd13ifvqcd0","pricing_plan_id":"cebpf4jnsgd1na2vs0mg"},{"bike_id":"f1dd44d4-c2be-4e03-9686-dad0ed862fe1","system_id":"levelo_inurba_marseille","lat":43.292749,"lon":5.368402,"is_reserved":false,"is_disabled":false,"rental_uris":{"android":"levelo://app?vid=f1dd44d4-c2be-4e03-9686-dad0ed862fe1","ios":"levelo://app?vid=f1dd44d4-c2be-4e03-9686-dad0ed862fe1"},"vehicle_type_id":"4","last_reported":1708538918,"current_range_meters":6000,"station_id":"ce4bhbp2rcd13ifvqesg","pricing_plan_id":"cebpf4jnsgd1na2vs0mg"},{"bike_id":"3ddb5916-26c1-43f3-ac6b-5e1937dfebe7","system_id":"levelo_inurba_marseille","lat":43.305994,"lon":5.393687,"is_reserved":false,"is_disabled":false,"rental_uris":{"android":"levelo://app?vid=3ddb5916-26c1-43f3-ac6b-5e1937dfebe7","ios":"levelo://app?vid=3ddb5916-26c1-43f3-ac6b-5e1937dfebe7"},"vehicle_type_id":"4","last_reported":1708538918,"current_range_meters":1600,"station_id":"ce4bh0p2rcd13ifvqd80","pricing_plan_id":"cebpf4jnsgd1na2vs0mg"},{"bike_id":"5510f655-2193-4758-9f49-491911461ef7","system_id":"levelo_inurba_marseille","lat":43.305994,"lon":5.393687,"is_reserved":false,"is_disabled":false,"rental_uris":{"android":"levelo://app?vid=5510f655-2193-4758-9f49-491911461ef7","ios":"levelo://app?vid=5510f655-2193-4758-9f49-491911461ef7"},"vehicle_type_id":"4","last_reported":1708538918,"current_range_meters":6000,"station_id":"ce4bh0p2rcd13ifvqd80","pricing_plan_id":"cebpf4jnsgd1na2vs0mg"},{"bike_id":"0860af4b-b69c-455e-827d-13b612af59fd","system_id":"levelo_inurba_marseille","lat":43.305994,"lon":5.393687,"is_reserved":false,"is_disabled":false,"rental_uris":{"android":"levelo://app?vid=0860af4b-b69c-455e-827d-13b612af59fd","ios":"levelo://app?vid=0860af4b-b69c-455e-827d-13b612af59fd"},"vehicle_type_id":"4","last_reported":1708538918,"current_range_meters":26800,"station_id":"ce4bh0p2rcd13ifvqd80","pricing_plan_id":"cebpf4jnsgd1na2vs0mg"},{"bike_id":"1bb6ab16-3a52-4429-ba27-91028e8eb44a","system_id":"levelo_inurba_marseille","lat":43.305994,"lon":5.393687,"is_reserved":false,"is_disabled":false,"rental_uris":{"android":"levelo://app?vid=1bb6ab16-3a52-4429-ba27-91028e8eb44a","ios":"levelo://app?vid=1bb6ab16-3a52-4429-ba27-91028e8eb44a"},"vehicle_type_id":"4","last_reported":1708538918,"current_range_meters":800,"station_id":"ce4bh0p2rcd13ifvqd80","pricing_plan_id":"cebpf4jnsgd1na2vs0mg"},{"bike_id":"52873875-8f23-45cd-b420-d4af4ecb71f4","system_id":"levelo_inurba_marseille","lat":43.305994,"lon":5.393687,"is_reserved":false,"is_disabled":false,"rental_uris":{"android":"levelo://app?vid=52873875-8f23-45cd-b420-d4af4ecb71f4","ios":"levelo://app?vid=52873875-8f23-45cd-b420-d4af4ecb71f4"},"vehicle_type_id":"4","last_reported":1708538918,"current_range_meters":20000,"station_id":"ce4bh0p2rcd13ifvqd80","pricing_plan_id":"cebpf4jnsgd1na2vs0mg"},{"bike_id":"ffc5687c-dd94-4265-b49f-1e9fb41da25e","system_id":"levelo_inurba_marseille","lat":43.305994,"lon":5.393687,"is_reserved":false,"is_disabled":false,"rental_uris":{"android":"levelo://app?vid=ffc5687c-dd94-4265-b49f-1e9fb41da25e","ios":"levelo://app?vid=ffc5687c-dd94-4265-b49f-1e9fb41da25e"},"vehicle_type_id":"4","last_reported":1708538918,"current_range_meters":23200,"station_id":"ce4bh0p2rcd13ifvqd80","pricing_plan_id":"cebpf4jnsgd1na2vs0mg"},{"bike_id":"bd5ad9a3-7f8e-48c8-ac1d-a6b8f76ee307","system_id":"levelo_inurba_marseille","lat":43.2938,"lon":5.37862,"is_reserved":false,"is_disabled":false,"rental_uris":{"android":"levelo://app?vid=bd5ad9a3-7f8e-48c8-ac1d-a6b8f76ee307","ios":"levelo://app?vid=bd5ad9a3-7f8e-48c8-ac1d-a6b8f76ee307"},"vehicle_type_id":"4","last_reported":1708538918,"current_range_meters":0,"station_id":"ce4bgjh2rcd13ifvqbf0","pricing_plan_id":"cebpf4jnsgd1na2vs0mg"},{"bike_id":"ea2cb6af-628b-4d45-8810-c16430c34006","system_id":"levelo_inurba_marseille","lat":43.296263,"lon":5.40601,"is_reserved":false,"is_disabled":false,"rental_uris":{"android":"levelo://app?vid=ea2cb6af-628b-4d45-8810-c16430c34006","ios":"levelo://app?vid=ea2cb6af-628b-4d45-8810-c16430c34006"},"vehicle_type_id":"4","last_reported":1708538918,"current_range_meters":400,"station_id":"ce4bh0h2rcd13ifvqd60","pricing_plan_id":"cebpf4jnsgd1na2vs0mg"},{"bike_id":"1c093cad-3492-41c8-a01d-f137369f270e","system_id":"levelo_inurba_marseille","lat":43.302992,"lon":5.392136,"is_reserved":false,"is_disabled":false,"rental_uris":{"android":"levelo://app?vid=1c093cad-3492-41c8-a01d-f137369f270e","ios":"levelo://app?vid=1c093cad-3492-41c8-a01d-f137369f270e"},"vehicle_type_id":"4","last_reported":1708538918,"current_range_meters":20400,"station_id":"ce4bgkh2rcd13ifvqbk0","pricing_plan_id":"cebpf4jnsgd1na2vs0mg"},{"bike_id":"2e90d19d-6a15-4866-91b2-e8779b0372f3","system_id":"levelo_inurba_marseille","lat":43.2936,"lon":5.37835,"is_reserved":false,"is_disabled":false,"rental_uris":{"android":"levelo://app?vid=2e90d19d-6a15-4866-91b2-e8779b0372f3","ios":"levelo://app?vid=2e90d19d-6a15-4866-91b2-e8779b0372f3"},"vehicle_type_id":"4","last_reported":1708538918,"current_range_meters":0,"station_id":"ce4bgjh2rcd13ifvqbf0","pricing_plan_id":"cebpf4jnsgd1na2vs0mg"},{"bike_id":"210b2390-b68c-49a3-ae99-0409f45c62a7","system_id":"levelo_inurba_marseille","lat":43.292311,"lon":5.360731,"is_reserved":false,"is_disabled":false,"rental_uris":{"android":"levelo://app?vid=210b2390-b68c-49a3-ae99-0409f45c62a7","ios":"levelo://app?vid=210b2390-b68c-49a3-ae99-0409f45c62a7"},"vehicle_type_id":"4","last_reported":1708538918,"current_range_meters":17600,"station_id":"ce4bhbh2rcd13ifvqeqg","pricing_plan_id":"cebpf4jnsgd1na2vs0mg"},{"bike_id":"6e082bfc-bc61-4212-95f6-f4dd27ccfa8d","system_id":"levelo_inurba_marseille","lat":43.292311,"lon":5.360731,"is_reserved":false,"is_disabled":false,"rental_uris":{"android":"levelo://app?vid=6e082bfc-bc61-4212-95f6-f4dd27ccfa8d","ios":"levelo://app?vid=6e082bfc-bc61-4212-95f6-f4dd27ccfa8d"},"vehicle_type_id":"4","last_reported":1708538918,"current_range_meters":18400,"station_id":"ce4bhbh2rcd13ifvqeqg","pricing_plan_id":"cebpf4jnsgd1na2vs0mg"},{"bike_id":"066c3ee8-4497-4781-82ad-7d7b837eff01","system_id":"levelo_inurba_marseille","lat":43.292311,"lon":5.360731,"is_reserved":false,"is_disabled":false,"rental_uris":{"android":"levelo://app?vid=066c3ee8-4497-4781-82ad-7d7b837eff01","ios":"levelo://app?vid=066c3ee8-4497-4781-82ad-7d7b837eff01"},"vehicle_type_id":"4","last_reported":1708538918,"current_range_meters":400,"station_id":"ce4bhbh2rcd13ifvqeqg","pricing_plan_id":"cebpf4jnsgd1na2vs0mg"},{"bike_id":"4d550ecc-fe90-429d-924d-8a78a739f1a7","system_id":"levelo_inurba_marseille","lat":43.292311,"lon":5.360731,"is_reserved":false,"is_disabled":false,"rental_uris":{"android":"levelo://app?vid=4d550ecc-fe90-429d-924d-8a78a739f1a7","ios":"levelo://app?vid=4d550ecc-fe90-429d-924d-8a78a739f1a7"},"vehicle_type_id":"4","last_reported":1708538918,"current_range_meters":0,"station_id":"ce4bhbh2rcd13ifvqeqg","pricing_plan_id":"cebpf4jnsgd1na2vs0mg"},{"bike_id":"61f705f1-8e93-4b99-9ab0-6f286ee2cd40","system_id":"levelo_inurba_marseille","lat":43.300852,"lon":5.390859,"is_reserved":false,"is_disabled":false,"rental_uris":{"android":"levelo://app?vid=61f705f1-8e93-4b99-9ab0-6f286ee2cd40","ios":"levelo://app?vid=61f705f1-8e93-4b99-9ab0-6f286ee2cd40"},"vehicle_type_id":"4","last_reported":1708538918,"current_range_meters":6800,"station_id":"ce4bh192rcd13ifvqdb0","pricing_plan_id":"cebpf4jnsgd1na2vs0mg"},{"bike_id":"b683455d-7d96-4b7c-b61d-0456d4461f24","system_id":"levelo_inurba_marseille","lat":43.30085,"lon":5.390856,"is_reserved":false,"is_disabled":false,"rental_uris":{"android":"levelo://app?vid=b683455d-7d96-4b7c-b61d-0456d4461f24","ios":"levelo://app?vid=b683455d-7d96-4b7c-b61d-0456d4461f24"},"vehicle_type_id":"4","last_reported":1708538918,"current_range_meters":24400,"station_id":"ce4bh192rcd13ifvqdb0","pricing_plan_id":"cebpf4jnsgd1na2vs0mg"},{"bike_id":"6def3e69-3f1c-4788-830d-a3a345b9adb6","system_id":"levelo_inurba_marseille","lat":43.29222,"lon":5.36049,"is_reserved":false,"is_disabled":false,"rental_uris":{"android":"levelo://app?vid=6def3e69-3f1c-4788-830d-a3a345b9adb6","ios":"levelo://app?vid=6def3e69-3f1c-4788-830d-a3a345b9adb6"},"vehicle_type_id":"4","last_reported":1708538918,"current_range_meters":14000,"station_id":"ce4bhbh2rcd13ifvqeqg","pricing_plan_id":"cebpf4jnsgd1na2vs0mg"},{"bike_id":"82e2eb38-34c8-48e8-aa26-f7d6b6b95899","system_id":"levelo_inurba_marseille","lat":43.300852,"lon":5.390859,"is_reserved":false,"is_disabled":false,"rental_uris":{"android":"levelo://app?vid=82e2eb38-34c8-48e8-aa26-f7d6b6b95899","ios":"levelo://app?vid=82e2eb38-34c8-48e8-aa26-f7d6b6b95899"},"vehicle_type_id":"4","last_reported":1708538918,"current_range_meters":8400,"station_id":"ce4bh192rcd13ifvqdb0","pricing_plan_id":"cebpf4jnsgd1na2vs0mg"},{"bike_id":"e417ab8a-d831-46f2-ad3f-e7b66a3398bb","system_id":"levelo_inurba_marseille","lat":43.291675,"lon":5.371583,"is_reserved":false,"is_disabled":false,"rental_uris":{"android":"levelo://app?vid=e417ab8a-d831-46f2-ad3f-e7b66a3398bb","ios":"levelo://app?vid=e417ab8a-d831-46f2-ad3f-e7b66a3398bb"},"vehicle_type_id":"4","last_reported":1708538918,"current_range_meters":15600,"station_id":"ce4bha92rcd13ifvqeh0","pricing_plan_id":"cebpf4jnsgd1na2vs0mg"},{"bike_id":"de97b85f-d8c1-4ca0-bf4f-6316dd415b04","system_id":"levelo_inurba_marseille","lat":43.29882,"lon":5.38908,"is_reserved":false,"is_disabled":false,"rental_uris":{"android":"levelo://app?vid=de97b85f-d8c1-4ca0-bf4f-6316dd415b04","ios":"levelo://app?vid=de97b85f-d8c1-4ca0-bf4f-6316dd415b04"},"vehicle_type_id":"4","last_reported":1708538918,"current_range_meters":0,"station_id":"ce4bh392rcd13ifvqdl0","pricing_plan_id":"cebpf4jnsgd1na2vs0mg"},{"bike_id":"47da98c6-45a0-43a7-911f-fe95501dc3d1","system_id":"levelo_inurba_marseille","lat":43.29876,"lon":5.38905,"is_reserved":false,"is_disabled":false,"rental_uris":{"android":"levelo://app?vid=47da98c6-45a0-43a7-911f-fe95501dc3d1","ios":"levelo://app?vid=47da98c6-45a0-43a7-911f-fe95501dc3d1"},"vehicle_type_id":"4","last_reported":1708538918,"current_range_meters":14800,"station_id":"ce4bh392rcd13ifvqdl0","pricing_plan_id":"cebpf4jnsgd1na2vs0mg"},{"bike_id":"ebdec042-bcf0-435f-bdea-02885d2329bf","system_id":"levelo_inurba_marseille","lat":43.29875,"lon":5.38907,"is_reserved":false,"is_disabled":false,"rental_uris":{"android":"levelo://app?vid=ebdec042-bcf0-435f-bdea-02885d2329bf","ios":"levelo://app?vid=ebdec042-bcf0-435f-bdea-02885d2329bf"},"vehicle_type_id":"4","last_reported":1708538918,"current_range_meters":16800,"station_id":"ce4bh392rcd13ifvqdl0","pricing_plan_id":"cebpf4jnsgd1na2vs0mg"},{"bike_id":"6846fdc2-f039-4a86-a11f-093de62feec2","system_id":"levelo_inurba_marseille","lat":43.298691,"lon":5.389124,"is_reserved":false,"is_disabled":false,"rental_uris":{"android":"levelo://app?vid=6846fdc2-f039-4a86-a11f-093de62feec2","ios":"levelo://app?vid=6846fdc2-f039-4a86-a11f-093de62feec2"},"vehicle_type_id":"4","last_reported":1708538918,"current_range_meters":10000,"station_id":"ce4bh392rcd13ifvqdl0","pricing_plan_id":"cebpf4jnsgd1na2vs0mg"},{"bike_id":"67a4f3fc-1ed0-4c22-a29a-331c70a4747d","system_id":"levelo_inurba_marseille","lat":43.291994,"lon":5.357886,"is_reserved":false,"is_disabled":false,"rental_uris":{"android":"levelo://app?vid=67a4f3fc-1ed0-4c22-a29a-331c70a4747d","ios":"levelo://app?vid=67a4f3fc-1ed0-4c22-a29a-331c70a4747d"},"vehicle_type_id":"4","last_reported":1708538918,"current_range_meters":22400,"station_id":"ce4bhb12rcd13ifvqel0","pricing_plan_id":"cebpf4jnsgd1na2vs0mg"},{"bike_id":"29ab9af8-47dd-44cd-97c8-3beb629bf3ec","system_id":"levelo_inurba_marseille","lat":43.291994,"lon":5.357886,"is_reserved":false,"is_disabled":false,"rental_uris":{"android":"levelo://app?vid=29ab9af8-47dd-44cd-97c8-3beb629bf3ec","ios":"levelo://app?vid=29ab9af8-47dd-44cd-97c8-3beb629bf3ec"},"vehicle_type_id":"4","last_reported":1708538918,"current_range_meters":4000,"station_id":"ce4bhb12rcd13ifvqel0","pricing_plan_id":"cebpf4jnsgd1na2vs0mg"},{"bike_id":"92388346-68fa-4d1f-b085-0d500a716128","system_id":"levelo_inurba_marseille","lat":43.29193,"lon":5.35803,"is_reserved":false,"is_disabled":false,"rental_uris":{"android":"levelo://app?vid=92388346-68fa-4d1f-b085-0d500a716128","ios":"levelo://app?vid=92388346-68fa-4d1f-b085-0d500a716128"},"vehicle_type_id":"4","last_reported":1708538918,"current_range_meters":28000,"station_id":"ce4bhb12rcd13ifvqel0","pricing_plan_id":"cebpf4jnsgd1na2vs0mg"},{"bike_id":"4c79dbf3-648e-4b04-a815-6ea8b27e9798","system_id":"levelo_inurba_marseille","lat":43.313291,"lon":5.396838,"is_reserved":false,"is_disabled":false,"rental_uris":{"android":"levelo://app?vid=4c79dbf3-648e-4b04-a815-6ea8b27e9798","ios":"levelo://app?vid=4c79dbf3-648e-4b04-a815-6ea8b27e9798"},"vehicle_type_id":"4","last_reported":1708538918,"current_range_meters":16400,"station_id":"ce4bgvp2rcd13ifvqcu0","pricing_plan_id":"cebpf4jnsgd1na2vs0mg"},{"bike_id":"39975749-bd00-43f8-ae9b-d9c405b8909e","system_id":"levelo_inurba_marseille","lat":43.30881,"lon":5.39641,"is_reserved":false,"is_disabled":false,"rental_uris":{"android":"levelo://app?vid=39975749-bd00-43f8-ae9b-d9c405b8909e","ios":"levelo://app?vid=39975749-bd00-43f8-ae9b-d9c405b8909e"},"vehicle_type_id":"4","last_reported":1708538918,"current_range_meters":5200,"station_id":"ce4bh012rcd13ifvqcv0","pricing_plan_id":"cebpf4jnsgd1na2vs0mg"},{"bike_id":"bc0b17b8-0c0c-489a-931a-40d11f7e53ee","system_id":"levelo_inurba_marseille","lat":43.29529,"lon":5.385581,"is_reserved":false,"is_disabled":false,"rental_uris":{"android":"levelo://app?vid=bc0b17b8-0c0c-489a-931a-40d11f7e53ee","ios":"levelo://app?vid=bc0b17b8-0c0c-489a-931a-40d11f7e53ee"},"vehicle_type_id":"4","last_reported":1708538918,"current_range_meters":8400,"station_id":"ce4bgih2rcd13ifvqba0","pricing_plan_id":"cebpf4jnsgd1na2vs0mg"},{"bike_id":"87c7ccfc-0369-440c-ad33-8ef5b9c5492c","system_id":"levelo_inurba_marseille","lat":43.313291,"lon":5.396838,"is_reserved":false,"is_disabled":false,"rental_uris":{"android":"levelo://app?vid=87c7ccfc-0369-440c-ad33-8ef5b9c5492c","ios":"levelo://app?vid=87c7ccfc-0369-440c-ad33-8ef5b9c5492c"},"vehicle_type_id":"4","last_reported":1708538918,"current_range_meters":3600,"station_id":"ce4bgvp2rcd13ifvqcu0","pricing_plan_id":"cebpf4jnsgd1na2vs0mg"},{"bike_id":"81b91db9-270a-4ba2-8f30-204022e2ddb4","system_id":"levelo_inurba_marseille","lat":43.31332,"lon":5.39695,"is_reserved":false,"is_disabled":false,"rental_uris":{"android":"levelo://app?vid=81b91db9-270a-4ba2-8f30-204022e2ddb4","ios":"levelo://app?vid=81b91db9-270a-4ba2-8f30-204022e2ddb4"},"vehicle_type_id":"4","last_reported":1708538918,"current_range_meters":26000,"station_id":"ce4bgvp2rcd13ifvqcu0","pricing_plan_id":"cebpf4jnsgd1na2vs0mg"},{"bike_id":"310dea48-1035-4efe-97b9-de96ae8ccf5e","system_id":"levelo_inurba_marseille","lat":43.29187,"lon":5.35801,"is_reserved":false,"is_disabled":false,"rental_uris":{"android":"levelo://app?vid=310dea48-1035-4efe-97b9-de96ae8ccf5e","ios":"levelo://app?vid=310dea48-1035-4efe-97b9-de96ae8ccf5e"},"vehicle_type_id":"4","last_reported":1708538918,"current_range_meters":8800,"station_id":"ce4bhb12rcd13ifvqel0","pricing_plan_id":"cebpf4jnsgd1na2vs0mg"},{"bike_id":"b8994b5a-50b0-4bd8-836b-79581affbc8d","system_id":"levelo_inurba_marseille","lat":43.313291,"lon":5.396838,"is_reserved":false,"is_disabled":false,"rental_uris":{"android":"levelo://app?vid=b8994b5a-50b0-4bd8-836b-79581affbc8d","ios":"levelo://app?vid=b8994b5a-50b0-4bd8-836b-79581affbc8d"},"vehicle_type_id":"4","last_reported":1708538918,"current_range_meters":2800,"station_id":"ce4bgvp2rcd13ifvqcu0","pricing_plan_id":"cebpf4jnsgd1na2vs0mg"},{"bike_id":"c4c2e3f8-daa0-4b94-9882-6f8dc15a6f13","system_id":"levelo_inurba_marseille","lat":43.31334,"lon":5.39696,"is_reserved":false,"is_disabled":false,"rental_uris":{"android":"levelo://app?vid=c4c2e3f8-daa0-4b94-9882-6f8dc15a6f13","ios":"levelo://app?vid=c4c2e3f8-daa0-4b94-9882-6f8dc15a6f13"},"vehicle_type_id":"4","last_reported":1708538918,"current_range_meters":26800,"station_id":"ce4bgvp2rcd13ifvqcu0","pricing_plan_id":"cebpf4jnsgd1na2vs0mg"},{"bike_id":"9980a5ad-de0f-4fa3-b7a5-2842ecacb847","system_id":"levelo_inurba_marseille","lat":43.309047,"lon":5.396551,"is_reserved":false,"is_disabled":false,"rental_uris":{"android":"levelo://app?vid=9980a5ad-de0f-4fa3-b7a5-2842ecacb847","ios":"levelo://app?vid=9980a5ad-de0f-4fa3-b7a5-2842ecacb847"},"vehicle_type_id":"4","last_reported":1708538918,"current_range_meters":15600,"station_id":"ce4bh012rcd13ifvqcv0","pricing_plan_id":"cebpf4jnsgd1na2vs0mg"},{"bike_id":"d06ec4c5-9d3a-4e79-ab2e-78ffd25db690","system_id":"levelo_inurba_marseille","lat":43.309047,"lon":5.396551,"is_reserved":false,"is_disabled":false,"rental_uris":{"android":"levelo://app?vid=d06ec4c5-9d3a-4e79-ab2e-78ffd25db690","ios":"levelo://app?vid=d06ec4c5-9d3a-4e79-ab2e-78ffd25db690"},"vehicle_type_id":"4","last_reported":1708538918,"current_range_meters":2400,"station_id":"ce4bh012rcd13ifvqcv0","pricing_plan_id":"cebpf4jnsgd1na2vs0mg"},{"bike_id":"ed69923d-2586-4f85-be11-ec6dca21127e","system_id":"levelo_inurba_marseille","lat":43.313291,"lon":5.396838,"is_reserved":false,"is_disabled":false,"rental_uris":{"android":"levelo://app?vid=ed69923d-2586-4f85-be11-ec6dca21127e","ios":"levelo://app?vid=ed69923d-2586-4f85-be11-ec6dca21127e"},"vehicle_type_id":"4","last_reported":1708538918,"current_range_meters":0,"station_id":"ce4bgvp2rcd13ifvqcu0","pricing_plan_id":"cebpf4jnsgd1na2vs0mg"},{"bike_id":"5f17e328-d76c-4688-a620-14a9524efebf","system_id":"levelo_inurba_marseille","lat":43.296263,"lon":5.40601,"is_reserved":false,"is_disabled":false,"rental_uris":{"android":"levelo://app?vid=5f17e328-d76c-4688-a620-14a9524efebf","ios":"levelo://app?vid=5f17e328-d76c-4688-a620-14a9524efebf"},"vehicle_type_id":"4","last_reported":1708538918,"current_range_meters":3600,"station_id":"ce4bh0h2rcd13ifvqd60","pricing_plan_id":"cebpf4jnsgd1na2vs0mg"},{"bike_id":"e7685a00-3b1e-4d0e-9988-a0d294cdb5dd","system_id":"levelo_inurba_marseille","lat":43.309038,"lon":5.396546,"is_reserved":false,"is_disabled":false,"rental_uris":{"android":"levelo://app?vid=e7685a00-3b1e-4d0e-9988-a0d294cdb5dd","ios":"levelo://app?vid=e7685a00-3b1e-4d0e-9988-a0d294cdb5dd"},"vehicle_type_id":"4","last_reported":1708538918,"current_range_meters":22000,"station_id":"ce4bh012rcd13ifvqcv0","pricing_plan_id":"cebpf4jnsgd1na2vs0mg"},{"bike_id":"a432ab9f-685c-4b66-9de6-9ca469252cba","system_id":"levelo_inurba_marseille","lat":43.309047,"lon":5.396551,"is_reserved":false,"is_disabled":false,"rental_uris":{"android":"levelo://app?vid=a432ab9f-685c-4b66-9de6-9ca469252cba","ios":"levelo://app?vid=a432ab9f-685c-4b66-9de6-9ca469252cba"},"vehicle_type_id":"4","last_reported":1708538918,"current_range_meters":6000,"station_id":"ce4bh012rcd13ifvqcv0","pricing_plan_id":"cebpf4jnsgd1na2vs0mg"},{"bike_id":"894b1826-f42e-4407-ab09-a650a0b14f27","system_id":"levelo_inurba_marseille","lat":43.309038,"lon":5.396546,"is_reserved":false,"is_disabled":false,"rental_uris":{"android":"levelo://app?vid=894b1826-f42e-4407-ab09-a650a0b14f27","ios":"levelo://app?vid=894b1826-f42e-4407-ab09-a650a0b14f27"},"vehicle_type_id":"4","last_reported":1708538918,"current_range_meters":5200,"station_id":"ce4bh012rcd13ifvqcv0","pricing_plan_id":"cebpf4jnsgd1na2vs0mg"},{"bike_id":"347463a5-4a67-47a7-977e-c825227b1d15","system_id":"levelo_inurba_marseille","lat":43.29529,"lon":5.385581,"is_reserved":false,"is_disabled":false,"rental_uris":{"android":"levelo://app?vid=347463a5-4a67-47a7-977e-c825227b1d15","ios":"levelo://app?vid=347463a5-4a67-47a7-977e-c825227b1d15"},"vehicle_type_id":"4","last_reported":1708538918,"current_range_meters":5600,"station_id":"ce4bgih2rcd13ifvqba0","pricing_plan_id":"cebpf4jnsgd1na2vs0mg"},{"bike_id":"478558e3-8969-4cfe-9822-c1f33e17a8d4","system_id":"levelo_inurba_marseille","lat":43.29529,"lon":5.385581,"is_reserved":false,"is_disabled":false,"rental_uris":{"android":"levelo://app?vid=478558e3-8969-4cfe-9822-c1f33e17a8d4","ios":"levelo://app?vid=478558e3-8969-4cfe-9822-c1f33e17a8d4"},"vehicle_type_id":"4","last_reported":1708538918,"current_range_meters":12800,"station_id":"ce4bgih2rcd13ifvqba0","pricing_plan_id":"cebpf4jnsgd1na2vs0mg"},{"bike_id":"c743c78f-1066-4e47-942d-4c6bebbf703d","system_id":"levelo_inurba_marseille","lat":43.29529,"lon":5.385581,"is_reserved":false,"is_disabled":false,"rental_uris":{"android":"levelo://app?vid=c743c78f-1066-4e47-942d-4c6bebbf703d","ios":"levelo://app?vid=c743c78f-1066-4e47-942d-4c6bebbf703d"},"vehicle_type_id":"4","last_reported":1708538918,"current_range_meters":16800,"station_id":"ce4bgih2rcd13ifvqba0","pricing_plan_id":"cebpf4jnsgd1na2vs0mg"},{"bike_id":"c9e13040-1a79-41b6-a8d6-b896722cbea1","system_id":"levelo_inurba_marseille","lat":43.295328,"lon":5.38551,"is_reserved":false,"is_disabled":false,"rental_uris":{"android":"levelo://app?vid=c9e13040-1a79-41b6-a8d6-b896722cbea1","ios":"levelo://app?vid=c9e13040-1a79-41b6-a8d6-b896722cbea1"},"vehicle_type_id":"4","last_reported":1708538918,"current_range_meters":800,"station_id":"ce4bgih2rcd13ifvqba0","pricing_plan_id":"cebpf4jnsgd1na2vs0mg"},{"bike_id":"afc3e400-8768-43ea-b843-5237c3027222","system_id":"levelo_inurba_marseille","lat":43.29529,"lon":5.385581,"is_reserved":false,"is_disabled":false,"rental_uris":{"android":"levelo://app?vid=afc3e400-8768-43ea-b843-5237c3027222","ios":"levelo://app?vid=afc3e400-8768-43ea-b843-5237c3027222"},"vehicle_type_id":"4","last_reported":1708538918,"current_range_meters":28000,"station_id":"ce4bgih2rcd13ifvqba0","pricing_plan_id":"cebpf4jnsgd1na2vs0mg"},{"bike_id":"803f9f80-7289-49f5-9161-c7de9833dbf8","system_id":"levelo_inurba_marseille","lat":43.2934,"lon":5.38186,"is_reserved":false,"is_disabled":false,"rental_uris":{"android":"levelo://app?vid=803f9f80-7289-49f5-9161-c7de9833dbf8","ios":"levelo://app?vid=803f9f80-7289-49f5-9161-c7de9833dbf8"},"vehicle_type_id":"4","last_reported":1708538918,"current_range_meters":5200,"station_id":"","pricing_plan_id":"cebpf4jnsgd1na2vs0mg"},{"bike_id":"dd7704a6-a9f1-42ef-93f9-e6aecc3361c3","system_id":"levelo_inurba_marseille","lat":43.2913,"lon":5.35903,"is_reserved":false,"is_disabled":false,"rental_uris":{"android":"levelo://app?vid=dd7704a6-a9f1-42ef-93f9-e6aecc3361c3","ios":"levelo://app?vid=dd7704a6-a9f1-42ef-93f9-e6aecc3361c3"},"vehicle_type_id":"4","last_reported":1708538918,"current_range_meters":6000,"station_id":"","pricing_plan_id":"cebpf4jnsgd1na2vs0mg"},{"bike_id":"81a6b43c-abe8-4d0b-b030-408c6d9f35c1","system_id":"levelo_inurba_marseille","lat":43.302008,"lon":5.394694,"is_reserved":false,"is_disabled":false,"rental_uris":{"android":"levelo://app?vid=81a6b43c-abe8-4d0b-b030-408c6d9f35c1","ios":"levelo://app?vid=81a6b43c-abe8-4d0b-b030-408c6d9f35c1"},"vehicle_type_id":"4","last_reported":1708538918,"current_range_meters":400,"station_id":"ce4bh0p2rcd13ifvqd70","pricing_plan_id":"cebpf4jnsgd1na2vs0mg"},{"bike_id":"90fd2115-f8ca-4b3f-99cc-675a741b6473","system_id":"levelo_inurba_marseille","lat":43.290631,"lon":5.359244,"is_reserved":false,"is_disabled":false,"rental_uris":{"android":"levelo://app?vid=90fd2115-f8ca-4b3f-99cc-675a741b6473","ios":"levelo://app?vid=90fd2115-f8ca-4b3f-99cc-675a741b6473"},"vehicle_type_id":"4","last_reported":1708538918,"current_range_meters":6800,"station_id":"ce4bha92rcd13ifvqeg0","pricing_plan_id":"cebpf4jnsgd1na2vs0mg"},{"bike_id":"904d91b2-2ca1-45f5-b644-0a2683e62419","system_id":"levelo_inurba_marseille","lat":43.29038,"lon":5.35909,"is_reserved":false,"is_disabled":false,"rental_uris":{"android":"levelo://app?vid=904d91b2-2ca1-45f5-b644-0a2683e62419","ios":"levelo://app?vid=904d91b2-2ca1-45f5-b644-0a2683e62419"},"vehicle_type_id":"4","last_reported":1708538918,"current_range_meters":30400,"station_id":"ce4bha92rcd13ifvqeg0","pricing_plan_id":"cebpf4jnsgd1na2vs0mg"},{"bike_id":"1625bb0f-7af9-48c1-9aa5-f38f943eeca7","system_id":"levelo_inurba_marseille","lat":43.29004,"lon":5.37264,"is_reserved":false,"is_disabled":false,"rental_uris":{"android":"levelo://app?vid=1625bb0f-7af9-48c1-9aa5-f38f943eeca7","ios":"levelo://app?vid=1625bb0f-7af9-48c1-9aa5-f38f943eeca7"},"vehicle_type_id":"4","last_reported":1708538918,"current_range_meters":10000,"station_id":"","pricing_plan_id":"cebpf4jnsgd1na2vs0mg"},{"bike_id":"c6a4458d-7bf8-4121-8fad-46f4337427ca","system_id":"levelo_inurba_marseille","lat":43.294153,"lon":5.386305,"is_reserved":false,"is_disabled":false,"rental_uris":{"android":"levelo://app?vid=c6a4458d-7bf8-4121-8fad-46f4337427ca","ios":"levelo://app?vid=c6a4458d-7bf8-4121-8fad-46f4337427ca"},"vehicle_type_id":"4","last_reported":1708538918,"current_range_meters":7200,"station_id":"ce4bh2h2rcd13ifvqdh0","pricing_plan_id":"cebpf4jnsgd1na2vs0mg"},{"bike_id":"bea4945b-ccc5-4c1e-b740-4d09b8b00036","system_id":"levelo_inurba_marseille","lat":43.294153,"lon":5.386305,"is_reserved":false,"is_disabled":false,"rental_uris":{"android":"levelo://app?vid=bea4945b-ccc5-4c1e-b740-4d09b8b00036","ios":"levelo://app?vid=bea4945b-ccc5-4c1e-b740-4d09b8b00036"},"vehicle_type_id":"4","last_reported":1708538918,"current_range_meters":5600,"station_id":"ce4bh2h2rcd13ifvqdh0","pricing_plan_id":"cebpf4jnsgd1na2vs0mg"},{"bike_id":"9f989b1a-89bc-4e9c-a6cd-63b092b79fd3","system_id":"levelo_inurba_marseille","lat":43.290319,"lon":5.375732,"is_reserved":false,"is_disabled":false,"rental_uris":{"android":"levelo://app?vid=9f989b1a-89bc-4e9c-a6cd-63b092b79fd3","ios":"levelo://app?vid=9f989b1a-89bc-4e9c-a6cd-63b092b79fd3"},"vehicle_type_id":"4","last_reported":1708538918,"current_range_meters":17200,"station_id":"ce4bh692rcd13ifvqe90","pricing_plan_id":"cebpf4jnsgd1na2vs0mg"},{"bike_id":"4e0fa4c8-9161-4338-ab9b-d8a2bd4bd29e","system_id":"levelo_inurba_marseille","lat":43.290327,"lon":5.375711,"is_reserved":false,"is_disabled":false,"rental_uris":{"android":"levelo://app?vid=4e0fa4c8-9161-4338-ab9b-d8a2bd4bd29e","ios":"levelo://app?vid=4e0fa4c8-9161-4338-ab9b-d8a2bd4bd29e"},"vehicle_type_id":"4","last_reported":1708538918,"current_range_meters":25600,"station_id":"ce4bh692rcd13ifvqe90","pricing_plan_id":"cebpf4jnsgd1na2vs0mg"},{"bike_id":"67d8278f-1a49-4e5c-aa01-58faf7b7f256","system_id":"levelo_inurba_marseille","lat":43.29421,"lon":5.38629,"is_reserved":false,"is_disabled":false,"rental_uris":{"android":"levelo://app?vid=67d8278f-1a49-4e5c-aa01-58faf7b7f256","ios":"levelo://app?vid=67d8278f-1a49-4e5c-aa01-58faf7b7f256"},"vehicle_type_id":"4","last_reported":1708538918,"current_range_meters":0,"station_id":"ce4bh2h2rcd13ifvqdh0","pricing_plan_id":"cebpf4jnsgd1na2vs0mg"},{"bike_id":"aa01ea58-44fd-4850-a93b-f35c2a911af9","system_id":"levelo_inurba_marseille","lat":43.28944,"lon":5.36643,"is_reserved":false,"is_disabled":false,"rental_uris":{"android":"levelo://app?vid=aa01ea58-44fd-4850-a93b-f35c2a911af9","ios":"levelo://app?vid=aa01ea58-44fd-4850-a93b-f35c2a911af9"},"vehicle_type_id":"4","last_reported":1708538918,"current_range_meters":15600,"station_id":"ce4bhap2rcd13ifvqek0","pricing_plan_id":"cebpf4jnsgd1na2vs0mg"},{"bike_id":"db405dc5-9e15-4ab9-9488-10ad1eb94d7a","system_id":"levelo_inurba_marseille","lat":43.29415,"lon":5.38626,"is_reserved":false,"is_disabled":false,"rental_uris":{"android":"levelo://app?vid=db405dc5-9e15-4ab9-9488-10ad1eb94d7a","ios":"levelo://app?vid=db405dc5-9e15-4ab9-9488-10ad1eb94d7a"},"vehicle_type_id":"4","last_reported":1708538918,"current_range_meters":19600,"station_id":"ce4bh2h2rcd13ifvqdh0","pricing_plan_id":"cebpf4jnsgd1na2vs0mg"},{"bike_id":"837f2541-3da8-487b-9fa2-eefac39410e9","system_id":"levelo_inurba_marseille","lat":43.294153,"lon":5.386305,"is_reserved":false,"is_disabled":false,"rental_uris":{"android":"levelo://app?vid=837f2541-3da8-487b-9fa2-eefac39410e9","ios":"levelo://app?vid=837f2541-3da8-487b-9fa2-eefac39410e9"},"vehicle_type_id":"4","last_reported":1708538918,"current_range_meters":24400,"station_id":"ce4bh2h2rcd13ifvqdh0","pricing_plan_id":"cebpf4jnsgd1na2vs0mg"},{"bike_id":"77a7f300-0490-49cd-a213-69cb717972df","system_id":"levelo_inurba_marseille","lat":43.294162,"lon":5.386292,"is_reserved":false,"is_disabled":false,"rental_uris":{"android":"levelo://app?vid=77a7f300-0490-49cd-a213-69cb717972df","ios":"levelo://app?vid=77a7f300-0490-49cd-a213-69cb717972df"},"vehicle_type_id":"4","last_reported":1708538918,"current_range_meters":5200,"station_id":"ce4bh2h2rcd13ifvqdh0","pricing_plan_id":"cebpf4jnsgd1na2vs0mg"},{"bike_id":"abc4af71-146a-457d-a79d-70d51be6d1a1","system_id":"levelo_inurba_marseille","lat":43.289468,"lon":5.363719,"is_reserved":false,"is_disabled":false,"rental_uris":{"android":"levelo://app?vid=abc4af71-146a-457d-a79d-70d51be6d1a1","ios":"levelo://app?vid=abc4af71-146a-457d-a79d-70d51be6d1a1"},"vehicle_type_id":"4","last_reported":1708538918,"current_range_meters":10000,"station_id":"ce4bhc92rcd13ifvqetg","pricing_plan_id":"cebpf4jnsgd1na2vs0mg"},{"bike_id":"942be2b7-0b93-4180-b2bb-bbfa5203380d","system_id":"levelo_inurba_marseille","lat":43.289184,"lon":5.366408,"is_reserved":false,"is_disabled":false,"rental_uris":{"android":"levelo://app?vid=942be2b7-0b93-4180-b2bb-bbfa5203380d","ios":"levelo://app?vid=942be2b7-0b93-4180-b2bb-bbfa5203380d"},"vehicle_type_id":"4","last_reported":1708538918,"current_range_meters":2800,"station_id":"ce4bhap2rcd13ifvqek0","pricing_plan_id":"cebpf4jnsgd1na2vs0mg"},{"bike_id":"408b95c3-0e53-4e4a-aa42-82468c6b4123","system_id":"levelo_inurba_marseille","lat":43.289184,"lon":5.366408,"is_reserved":false,"is_disabled":false,"rental_uris":{"android":"levelo://app?vid=408b95c3-0e53-4e4a-aa42-82468c6b4123","ios":"levelo://app?vid=408b95c3-0e53-4e4a-aa42-82468c6b4123"},"vehicle_type_id":"4","last_reported":1708538918,"current_range_meters":24400,"station_id":"ce4bhap2rcd13ifvqek0","pricing_plan_id":"cebpf4jnsgd1na2vs0mg"},{"bike_id":"61647286-cee0-41d3-8d59-2e4665f13140","system_id":"levelo_inurba_marseille","lat":43.28933,"lon":5.36644,"is_reserved":false,"is_disabled":false,"rental_uris":{"android":"levelo://app?vid=61647286-cee0-41d3-8d59-2e4665f13140","ios":"levelo://app?vid=61647286-cee0-41d3-8d59-2e4665f13140"},"vehicle_type_id":"4","last_reported":1708538918,"current_range_meters":0,"station_id":"ce4bhap2rcd13ifvqek0","pricing_plan_id":"cebpf4jnsgd1na2vs0mg"},{"bike_id":"526ae2b9-206d-4efe-a253-34cc4ebee654","system_id":"levelo_inurba_marseille","lat":43.28933,"lon":5.36638,"is_reserved":false,"is_disabled":false,"rental_uris":{"android":"levelo://app?vid=526ae2b9-206d-4efe-a253-34cc4ebee654","ios":"levelo://app?vid=526ae2b9-206d-4efe-a253-34cc4ebee654"},"vehicle_type_id":"4","last_reported":1708538918,"current_range_meters":0,"station_id":"ce4bhah2rcd13ifvqei0","pricing_plan_id":"cebpf4jnsgd1na2vs0mg"},{"bike_id":"626c9d9b-28f5-465e-a159-0d97cc415873","system_id":"levelo_inurba_marseille","lat":43.289468,"lon":5.363719,"is_reserved":false,"is_disabled":false,"rental_uris":{"android":"levelo://app?vid=626c9d9b-28f5-465e-a159-0d97cc415873","ios":"levelo://app?vid=626c9d9b-28f5-465e-a159-0d97cc415873"},"vehicle_type_id":"4","last_reported":1708538918,"current_range_meters":23200,"station_id":"ce4bhc92rcd13ifvqetg","pricing_plan_id":"cebpf4jnsgd1na2vs0mg"},{"bike_id":"c70f5eff-8df3-438a-85c7-ddfb1f0001f8","system_id":"levelo_inurba_marseille","lat":43.29051,"lon":5.37795,"is_reserved":false,"is_disabled":false,"rental_uris":{"android":"levelo://app?vid=c70f5eff-8df3-438a-85c7-ddfb1f0001f8","ios":"levelo://app?vid=c70f5eff-8df3-438a-85c7-ddfb1f0001f8"},"vehicle_type_id":"4","last_reported":1708538918,"current_range_meters":0,"station_id":"","pricing_plan_id":"cebpf4jnsgd1na2vs0mg"},{"bike_id":"55507bfb-d559-4674-a8a4-5466acce51da","system_id":"levelo_inurba_marseille","lat":43.292431,"lon":5.383807,"is_reserved":false,"is_disabled":false,"rental_uris":{"android":"levelo://app?vid=55507bfb-d559-4674-a8a4-5466acce51da","ios":"levelo://app?vid=55507bfb-d559-4674-a8a4-5466acce51da"},"vehicle_type_id":"4","last_reported":1708538918,"current_range_meters":0,"station_id":"ce4bh692rcd13ifvqea0","pricing_plan_id":"cebpf4jnsgd1na2vs0mg"},{"bike_id":"93a6ab63-7bd0-4882-b262-0be331d9944f","system_id":"levelo_inurba_marseille","lat":43.29036,"lon":5.37793,"is_reserved":false,"is_disabled":false,"rental_uris":{"android":"levelo://app?vid=93a6ab63-7bd0-4882-b262-0be331d9944f","ios":"levelo://app?vid=93a6ab63-7bd0-4882-b262-0be331d9944f"},"vehicle_type_id":"4","last_reported":1708538918,"current_range_meters":21200,"station_id":"","pricing_plan_id":"cebpf4jnsgd1na2vs0mg"},{"bike_id":"6f34d85f-b98e-4af5-a4a7-b961b8c145bd","system_id":"levelo_inurba_marseille","lat":43.29261,"lon":5.38435,"is_reserved":false,"is_disabled":false,"rental_uris":{"android":"levelo://app?vid=6f34d85f-b98e-4af5-a4a7-b961b8c145bd","ios":"levelo://app?vid=6f34d85f-b98e-4af5-a4a7-b961b8c145bd"},"vehicle_type_id":"4","last_reported":1708538918,"current_range_meters":28400,"station_id":"ce4bh692rcd13ifvqea0","pricing_plan_id":"cebpf4jnsgd1na2vs0mg"},{"bike_id":"d5f6b345-9ff7-46d8-b459-08c6ff9f20a6","system_id":"levelo_inurba_marseille","lat":43.29263,"lon":5.3844,"is_reserved":false,"is_disabled":false,"rental_uris":{"android":"levelo://app?vid=d5f6b345-9ff7-46d8-b459-08c6ff9f20a6","ios":"levelo://app?vid=d5f6b345-9ff7-46d8-b459-08c6ff9f20a6"},"vehicle_type_id":"4","last_reported":1708538918,"current_range_meters":16400,"station_id":"ce4bh692rcd13ifvqea0","pricing_plan_id":"cebpf4jnsgd1na2vs0mg"},{"bike_id":"25abffea-be23-43ca-a784-5c98448ddec7","system_id":"levelo_inurba_marseille","lat":43.292644,"lon":5.384257,"is_reserved":false,"is_disabled":false,"rental_uris":{"android":"levelo://app?vid=25abffea-be23-43ca-a784-5c98448ddec7","ios":"levelo://app?vid=25abffea-be23-43ca-a784-5c98448ddec7"},"vehicle_type_id":"4","last_reported":1708538918,"current_range_meters":0,"station_id":"ce4bh692rcd13ifvqea0","pricing_plan_id":"cebpf4jnsgd1na2vs0mg"},{"bike_id":"b3d17ab6-29f5-4180-8069-dfb63752aceb","system_id":"levelo_inurba_marseille","lat":43.292644,"lon":5.384257,"is_reserved":false,"is_disabled":false,"rental_uris":{"android":"levelo://app?vid=b3d17ab6-29f5-4180-8069-dfb63752aceb","ios":"levelo://app?vid=b3d17ab6-29f5-4180-8069-dfb63752aceb"},"vehicle_type_id":"4","last_reported":1708538918,"current_range_meters":0,"station_id":"ce4bh692rcd13ifvqea0","pricing_plan_id":"cebpf4jnsgd1na2vs0mg"},{"bike_id":"83ac6469-9e75-4319-b116-5522c673cbd4","system_id":"levelo_inurba_marseille","lat":43.292644,"lon":5.384257,"is_reserved":false,"is_disabled":false,"rental_uris":{"android":"levelo://app?vid=83ac6469-9e75-4319-b116-5522c673cbd4","ios":"levelo://app?vid=83ac6469-9e75-4319-b116-5522c673cbd4"},"vehicle_type_id":"4","last_reported":1708538918,"current_range_meters":0,"station_id":"ce4bh692rcd13ifvqea0","pricing_plan_id":"cebpf4jnsgd1na2vs0mg"},{"bike_id":"7057e1e9-7035-48cc-adee-1fccff250f07","system_id":"levelo_inurba_marseille","lat":43.292642,"lon":5.384254,"is_reserved":false,"is_disabled":false,"rental_uris":{"android":"levelo://app?vid=7057e1e9-7035-48cc-adee-1fccff250f07","ios":"levelo://app?vid=7057e1e9-7035-48cc-adee-1fccff250f07"},"vehicle_type_id":"4","last_reported":1708538918,"current_range_meters":0,"station_id":"ce4bh692rcd13ifvqea0","pricing_plan_id":"cebpf4jnsgd1na2vs0mg"},{"bike_id":"64c8a977-e817-4529-bbbf-d54830de4873","system_id":"levelo_inurba_marseille","lat":43.29103,"lon":5.38085,"is_reserved":false,"is_disabled":false,"rental_uris":{"android":"levelo://app?vid=64c8a977-e817-4529-bbbf-d54830de4873","ios":"levelo://app?vid=64c8a977-e817-4529-bbbf-d54830de4873"},"vehicle_type_id":"4","last_reported":1708538918,"current_range_meters":8400,"station_id":"","pricing_plan_id":"cebpf4jnsgd1na2vs0mg"},{"bike_id":"ef7444d4-48b0-4dcb-b893-d9669e039c98","system_id":"levelo_inurba_marseille","lat":43.295169,"lon":5.390426,"is_reserved":false,"is_disabled":false,"rental_uris":{"android":"levelo://app?vid=ef7444d4-48b0-4dcb-b893-d9669e039c98","ios":"levelo://app?vid=ef7444d4-48b0-4dcb-b893-d9669e039c98"},"vehicle_type_id":"4","last_reported":1708538918,"current_range_meters":31600,"station_id":"ce4bh3p2rcd13ifvqdp0","pricing_plan_id":"cebpf4jnsgd1na2vs0mg"},{"bike_id":"c3a60c0c-280e-4fac-8cfe-c0d3bc7b779b","system_id":"levelo_inurba_marseille","lat":43.29271,"lon":5.38556,"is_reserved":false,"is_disabled":false,"rental_uris":{"android":"levelo://app?vid=c3a60c0c-280e-4fac-8cfe-c0d3bc7b779b","ios":"levelo://app?vid=c3a60c0c-280e-4fac-8cfe-c0d3bc7b779b"},"vehicle_type_id":"4","last_reported":1708538918,"current_range_meters":4400,"station_id":"","pricing_plan_id":"cebpf4jnsgd1na2vs0mg"},{"bike_id":"5116fc9a-14e9-480c-b417-fa0ba090a2bd","system_id":"levelo_inurba_marseille","lat":43.290995,"lon":5.381361,"is_reserved":false,"is_disabled":false,"rental_uris":{"android":"levelo://app?vid=5116fc9a-14e9-480c-b417-fa0ba090a2bd","ios":"levelo://app?vid=5116fc9a-14e9-480c-b417-fa0ba090a2bd"},"vehicle_type_id":"4","last_reported":1708538918,"current_range_meters":0,"station_id":"ce4bh512rcd13ifvqe2g","pricing_plan_id":"cebpf4jnsgd1na2vs0mg"},{"bike_id":"2c2d9ad0-c694-4fb6-8b5e-56b597a6e559","system_id":"levelo_inurba_marseille","lat":43.29087,"lon":5.38119,"is_reserved":false,"is_disabled":false,"rental_uris":{"android":"levelo://app?vid=2c2d9ad0-c694-4fb6-8b5e-56b597a6e559","ios":"levelo://app?vid=2c2d9ad0-c694-4fb6-8b5e-56b597a6e559"},"vehicle_type_id":"4","last_reported":1708538918,"current_range_meters":11600,"station_id":"ce4bh512rcd13ifvqe2g","pricing_plan_id":"cebpf4jnsgd1na2vs0mg"},{"bike_id":"e63465fb-62ad-4db2-8176-9155c4ff1506","system_id":"levelo_inurba_marseille","lat":43.294153,"lon":5.386305,"is_reserved":false,"is_disabled":false,"rental_uris":{"android":"levelo://app?vid=e63465fb-62ad-4db2-8176-9155c4ff1506","ios":"levelo://app?vid=e63465fb-62ad-4db2-8176-9155c4ff1506"},"vehicle_type_id":"4","last_reported":1708538918,"current_range_meters":8000,"station_id":"ce4bh2h2rcd13ifvqdh0","pricing_plan_id":"cebpf4jnsgd1na2vs0mg"},{"bike_id":"37918be2-5db2-4a0e-acd4-7f21e0cae96d","system_id":"levelo_inurba_marseille","lat":43.295169,"lon":5.390426,"is_reserved":false,"is_disabled":false,"rental_uris":{"android":"levelo://app?vid=37918be2-5db2-4a0e-acd4-7f21e0cae96d","ios":"levelo://app?vid=37918be2-5db2-4a0e-acd4-7f21e0cae96d"},"vehicle_type_id":"4","last_reported":1708538918,"current_range_meters":19600,"station_id":"ce4bh3p2rcd13ifvqdp0","pricing_plan_id":"cebpf4jnsgd1na2vs0mg"},{"bike_id":"189d7c8e-03de-424e-beb1-c6f696a7101e","system_id":"levelo_inurba_marseille","lat":43.29781,"lon":5.39326,"is_reserved":false,"is_disabled":false,"rental_uris":{"android":"levelo://app?vid=189d7c8e-03de-424e-beb1-c6f696a7101e","ios":"levelo://app?vid=189d7c8e-03de-424e-beb1-c6f696a7101e"},"vehicle_type_id":"4","last_reported":1708538918,"current_range_meters":13200,"station_id":"chh1huq6cuj3fo74tm60","pricing_plan_id":"cebpf4jnsgd1na2vs0mg"},{"bike_id":"44a89e8f-1f80-40b8-b906-40ffa11c2749","system_id":"levelo_inurba_marseille","lat":43.29777,"lon":5.39328,"is_reserved":false,"is_disabled":false,"rental_uris":{"android":"levelo://app?vid=44a89e8f-1f80-40b8-b906-40ffa11c2749","ios":"levelo://app?vid=44a89e8f-1f80-40b8-b906-40ffa11c2749"},"vehicle_type_id":"4","last_reported":1708538918,"current_range_meters":5200,"station_id":"chh1huq6cuj3fo74tm60","pricing_plan_id":"cebpf4jnsgd1na2vs0mg"},{"bike_id":"daf1e66a-77fe-4acd-839f-0cffee2a65ee","system_id":"levelo_inurba_marseille","lat":43.297815,"lon":5.393548,"is_reserved":false,"is_disabled":false,"rental_uris":{"android":"levelo://app?vid=daf1e66a-77fe-4acd-839f-0cffee2a65ee","ios":"levelo://app?vid=daf1e66a-77fe-4acd-839f-0cffee2a65ee"},"vehicle_type_id":"4","last_reported":1708538918,"current_range_meters":7600,"station_id":"chh1huq6cuj3fo74tm60","pricing_plan_id":"cebpf4jnsgd1na2vs0mg"},{"bike_id":"523e3524-70d1-47b6-9ae7-c7c8ce2ca05f","system_id":"levelo_inurba_marseille","lat":43.29528,"lon":5.3903,"is_reserved":false,"is_disabled":false,"rental_uris":{"android":"levelo://app?vid=523e3524-70d1-47b6-9ae7-c7c8ce2ca05f","ios":"levelo://app?vid=523e3524-70d1-47b6-9ae7-c7c8ce2ca05f"},"vehicle_type_id":"4","last_reported":1708538918,"current_range_meters":17200,"station_id":"ce4bh3p2rcd13ifvqdp0","pricing_plan_id":"cebpf4jnsgd1na2vs0mg"},