{"last_updated":1747433379,"ttl":60,"version":"2.2","data":{"bikes":[{"bike_id":"c0b9fd4f-e181-46ce-b0bf-f5119973334f","system_id":"levelo_inurba_marseille","lat":43.33771,"lon":5.37424,"is_reserved":false,"is_disabled":false,"rental_uris":{"android":"levelo://app?vid=c0b9fd4f-e181-46ce-b0bf-f5119973334f","ios":"levelo://app?vid=c0b9fd4f-e181-46ce-b0bf-f5119973334f"},"vehicle_type_id":"4","last_reported":1747433379,"current_range_meters":8400,"station_id":"","pricing_plan_id":"cebpf4jnsgd1na2vs0mg"},{"bike_id":"fc2577e7-1497-425b-9d4f-ab8d7dc843c6","system_id":"levelo_inurba_marseille","lat":43.33771,"lon":5.37485,"is_reserved":false,"is_disabled":true,"rental_uris":{"android":"levelo://app?vid=fc2577e7-1497-425b-9d4f-ab8d7dc843c6","ios":"levelo://app?vid=fc2577e7-1497-425b-9d4f-ab8d7dc843c6"},"vehicle_type_id":"4","last_reported":1747433379,"current_range_meters":0,"station_id":"","pricing_plan_id":"cebpf4jnsgd1na2vs0mg"},{"bike_id":"0322f8c0-478a-4036-9bba-8fce70858e9a","system_id":"levelo_inurba_marseille","lat":43.2822,"lon":5.34907,"is_reserved":false,"is_disabled":true,"rental_uris":{"android":"levelo://app?vid=0322f8c0-478a-4036-9bba-8fce70858e9a","ios":"levelo://app?vid=0322f8c0-478a-4036-9bba-8fce70858e9a"},"vehicle_type_id":"4","last_reported":1747433379,"current_range_meters":0,"station_id":"","pricing_plan_id":"cebpf4jnsgd1na2vs0mg"},{"bike_id":"ce4325af-2448-4172-bdec-81d552ee0b62","system_id":"levelo_inurba_marseille","lat":43.26179,"lon":5.41996,"is_reserved":false,"is_disabled":true,"rental_uris":{"android":"levelo://app?vid=ce4325af-2448-4172-bdec-81d552ee0b62","ios":"levelo://app?vid=ce4325af-2448-4172-bdec-81d552ee0b62"},"vehicle_type_id":"4","last_reported":1747433379,"current_range_meters":0,"station_id":"","pricing_plan_id":"cebpf4jnsgd1na2vs0mg"},{"bike_id":"2b8fbf5f-4106-421b-bd48-29543ccb14db","system_id":"levelo_inurba_marseille","lat":43.23708,"lon":5.36295,"is_reserved":false,"is_disabled":true,"rental_uris":{"android":"levelo://app?vid=2b8fbf5f-4106-421b-bd48-29543ccb14db","ios":"levelo://app?vid=2b8fbf5f-4106-421b-bd48-29543ccb14db"},"vehicle_type_id":"4","last_reported":1747433379,"current_range_meters":0,"station_id":"","pricing_plan_id":"cebpf4jnsgd1na2vs0mg"},{"bike_id":"5de4311e-acc0-4747-9be3-06bcfa4d137e","system_id":"levelo_inurba_marseille","lat":43.31987,"lon":5.38731,"is_reserved":false,"is_disabled":true,"rental_uris":{"android":"levelo://app?vid=5de4311e-acc0-4747-9be3-06bcfa4d137e","ios":"levelo://app?vid=5de4311e-acc0-4747-9be3-06bcfa4d137e"},"vehicle_type_id":"4","last_reported":1747433379,"current_range_meters":0,"station_id":"","pricing_plan_id":"cebpf4jnsgd1na2vs0mg"},{"bike_id":"792567c6-0442-4011-aff0-9c05e25deb48","system_id":"levelo_inurba_marseille","lat":43.337444,"lon":5.374475,"is_reserved":false,"is_disabled":true,"rental_uris":{"android":"levelo://app?vid=792567c6-0442-4011-aff0-9c05e25deb48","ios":"levelo://app?vid=792567c6-0442-4011-aff0-9c05e25deb48"},"vehicle_type_id":"4","last_reported":1747433379,"current_range_meters":0,"station_id":"","pricing_plan_id":"cebpf4jnsgd1na2vs0mg"},{"bike_id":"2df69ba7-5f49-4465-95d9-c71b1b8fa19a","system_id":"levelo_inurba_marseille","lat":43.29032,"lon":5.38122,"is_reserved":false,"is_disabled":true,"rental_uris":{"android":"levelo://app?vid=2df69ba7-5f49-4465-95d9-c71b1b8fa19a","ios":"levelo://app?vid=2df69ba7-5f49-4465-95d9-c71b1b8fa19a"},"vehicle_type_id":"4","last_reported":1747433379,"current_range_meters":0,"station_id":"ce4bh4p2rcd13ifvqe1g","pricing_plan_id":"cebpf4jnsgd1na2vs0mg"},{"bike_id":"da1e6129-1d19-4904-bc4e-62fece13081e","system_id":"levelo_inurba_marseille","lat":43.28485,"lon":5.38415,"is_reserved":false,"is_disabled":true,"rental_uris":{"android":"levelo://app?vid=da1e6129-1d19-4904-bc4e-62fece13081e","ios":"levelo://app?vid=da1e6129-1d19-4904-bc4e-62fece13081e"},"vehicle_type_id":"4","last_reported":1747433379,"current_range_meters":0,"station_id":"ce4bh512rcd13ifvqe3g","pricing_plan_id":"cebpf4jnsgd1na2vs0mg"},{"bike_id":"fb6f2778-0b8b-4a34-914e-292f575ad6f0","system_id":"levelo_inurba_marseille","lat":43.2927,"lon":5.38431,"is_reserved":false,"is_disabled":true,"rental_uris":{"android":"levelo://app?vid=fb6f2778-0b8b-4a34-914e-292f575ad6f0","ios":"levelo://app?vid=fb6f2778-0b8b-4a34-914e-292f575ad6f0"},"vehicle_type_id":"4","last_reported":1747433379,"current_range_meters":0,"station_id":"ce4bh692rcd13ifvqea0","pricing_plan_id":"cebpf4jnsgd1na2vs0mg"},{"bike_id":"c33000dc-eade-4881-af6f-7b82a1af4de2","system_id":"levelo_inurba_marseille","lat":43.30377,"lon":5.42481,"is_reserved":false,"is_disabled":true,"rental_uris":{"android":"levelo://app?vid=c33000dc-eade-4881-af6f-7b82a1af4de2","ios":"levelo://app?vid=c33000dc-eade-4881-af6f-7b82a1af4de2"},"vehicle_type_id":"4","last_reported":1747433379,"current_range_meters":0,"station_id":"ce4bhoh2rcd13ifvqh6g","pricing_plan_id":"cebpf4jnsgd1na2vs0mg"},{"bike_id":"c651a58a-693c-4942-980b-6d1c6ed6a73e","system_id":"levelo_inurba_marseille","lat":43.23191,"lon":5.35556,"is_reserved":false,"is_disabled":true,"rental_uris":{"android":"levelo://app?vid=c651a58a-693c-4942-980b-6d1c6ed6a73e","ios":"levelo://app?vid=c651a58a-693c-4942-980b-6d1c6ed6a73e"},"vehicle_type_id":"4","last_reported":1747433379,"current_range_meters":0,"station_id":"ce4bhu92rcd13ifvqi70","pricing_plan_id":"cebpf4jnsgd1na2vs0mg"},{"bike_id":"fc4c81c1-d472-4cad-a313-517d54fe18f4","system_id":"levelo_inurba_marseille","lat":43.29365,"lon":5.37092,"is_reserved":false,"is_disabled":true,"rental_uris":{"android":"levelo://app?vid=fc4c81c1-d472-4cad-a313-517d54fe18f4","ios":"levelo://app?vid=fc4c81c1-d472-4cad-a313-517d54fe18f4"},"vehicle_type_id":"4","last_reported":1747433379,"current_range_meters":400,"station_id":"","pricing_plan_id":"cebpf4jnsgd1na2vs0mg"},{"bike_id":"8bc59f09-925c-43ab-a1e2-397aabbe4e01","system_id":"levelo_inurba_marseille","lat":43.28289,"lon":5.40496,"is_reserved":false,"is_disabled":true,"rental_uris":{"android":"levelo://app?vid=8bc59f09-925c-43ab-a1e2-397aabbe4e01","ios":"levelo://app?vid=8bc59f09-925c-43ab-a1e2-397aabbe4e01"},"vehicle_type_id":"4","last_reported":1747433379,"current_range_meters":800,"station_id":"","pricing_plan_id":"cebpf4jnsgd1na2vs0mg"},{"bike_id":"610a7ca5-7649-44e5-913e-926d4d7778bb","system_id":"levelo_inurba_marseille","lat":43.2851,"lon":5.39829,"is_reserved":false,"is_disabled":true,"rental_uris":{"android":"levelo://app?vid=610a7ca5-7649-44e5-913e-926d4d7778bb","ios":"levelo://app?vid=610a7ca5-7649-44e5-913e-926d4d7778bb"},"vehicle_type_id":"4","last_reported":1747433379,"current_range_meters":1200,"station_id":"","pricing_plan_id":"cebpf4jnsgd1na2vs0mg"},{"bike_id":"c0782eb8-8b1f-44f2-a7ee-a9339d2bd2f3","system_id":"levelo_inurba_marseille","lat":43.28488,"lon":5.38411,"is_reserved":false,"is_disabled":true,"rental_uris":{"android":"levelo://app?vid=c0782eb8-8b1f-44f2-a7ee-a9339d2bd2f3","ios":"levelo://app?vid=c0782eb8-8b1f-44f2-a7ee-a9339d2bd2f3"},"vehicle_type_id":"4","last_reported":1747433379,"current_range_meters":1200,"station_id":"ce4bh512rcd13ifvqe3g","pricing_plan_id":"cebpf4jnsgd1na2vs0mg"},{"bike_id":"a2fbdedf-3659-48f8-a356-a837b69a4dff","system_id":"levelo_inurba_marseille","lat":43.25581,"lon":5.38228,"is_reserved":false,"is_disabled":true,"rental_uris":{"android":"levelo://app?vid=a2fbdedf-3659-48f8-a356-a837b69a4dff","ios":"levelo://app?vid=a2fbdedf-3659-48f8-a356-a837b69a4dff"},"vehicle_type_id":"4","last_reported":1747433379,"current_range_meters":1200,"station_id":"ce4bhih2rcd13ifvqfs0","pricing_plan_id":"cebpf4jnsgd1na2vs0mg"},{"bike_id":"c8107b40-4e78-47e4-a23d-10a935f8e353","system_id":"levelo_inurba_marseille","lat":43.26875,"lon":5.3703,"is_reserved":false,"is_disabled":true,"rental_uris":{"android":"levelo://app?vid=c8107b40-4e78-47e4-a23d-10a935f8e353","ios":"levelo://app?vid=c8107b40-4e78-47e4-a23d-10a935f8e353"},"vehicle_type_id":"4","last_reported":1747433379,"current_range_meters":1600,"station_id":"","pricing_plan_id":"cebpf4jnsgd1na2vs0mg"},{"bike_id":"fabb6282-2271-42be-af10-acea6050920b","system_id":"levelo_inurba_marseille","lat":43.29877,"lon":5.39727,"is_reserved":false,"is_disabled":true,"rental_uris":{"android":"levelo://app?vid=fabb6282-2271-42be-af10-acea6050920b","ios":"levelo://app?vid=fabb6282-2271-42be-af10-acea6050920b"},"vehicle_type_id":"4","last_reported":1747433379,"current_range_meters":1600,"station_id":"ce4bh0h2rcd13ifvqd50","pricing_plan_id":"cebpf4jnsgd1na2vs0mg"},{"bike_id":"e3187970-ad7d-470b-b162-8a17656ea247","system_id":"levelo_inurba_marseille","lat":43.2927,"lon":5.40902,"is_reserved":false,"is_disabled":true,"rental_uris":{"android":"levelo://app?vid=e3187970-ad7d-470b-b162-8a17656ea247","ios":"levelo://app?vid=e3187970-ad7d-470b-b162-8a17656ea247"},"vehicle_type_id":"4","last_reported":1747433379,"current_range_meters":1600,"station_id":"ce4bh192rcd13ifvqdc0","pricing_plan_id":"cebpf4jnsgd1na2vs0mg"},{"bike_id":"c343620f-f5c8-4ef9-be99-1453cc9c3cae","system_id":"levelo_inurba_marseille","lat":43.28937,"lon":5.39623,"is_reserved":false,"is_disabled":true,"rental_uris":{"android":"levelo://app?vid=c343620f-f5c8-4ef9-be99-1453cc9c3cae","ios":"levelo://app?vid=c343620f-f5c8-4ef9-be99-1453cc9c3cae"},"vehicle_type_id":"4","last_reported":1747433379,"current_range_meters":1600,"station_id":"ce4bh3h2rcd13ifvqdn0","pricing_plan_id":"cebpf4jnsgd1na2vs0mg"},{"bike_id":"a653d092-b831-4c97-84c6-8b670d798318","system_id":"levelo_inurba_marseille","lat":43.28209,"lon":5.39036,"is_reserved":false,"is_disabled":true,"rental_uris":{"android":"levelo://app?vid=a653d092-b831-4c97-84c6-8b670d798318","ios":"levelo://app?vid=a653d092-b831-4c97-84c6-8b670d798318"},"vehicle_type_id":"4","last_reported":1747433379,"current_range_meters":2000,"station_id":"","pricing_plan_id":"cebpf4jnsgd1na2vs0mg"},{"bike_id":"ca7006be-fb68-4e34-b297-a6e80790e901","system_id":"levelo_inurba_marseille","lat":43.3093,"lon":5.40141,"is_reserved":false,"is_disabled":true,"rental_uris":{"android":"levelo://app?vid=ca7006be-fb68-4e34-b297-a6e80790e901","ios":"levelo://app?vid=ca7006be-fb68-4e34-b297-a6e80790e901"},"vehicle_type_id":"4","last_reported":1747433379,"current_range_meters":2000,"station_id":"ce4bgvp2rcd13ifvqct0","pricing_plan_id":"cebpf4jnsgd1na2vs0mg"},{"bike_id":"4d4500d5-f50a-407a-b9e7-10b2212bd23a","system_id":"levelo_inurba_marseille","lat":43.30887,"lon":5.39643,"is_reserved":false,"is_disabled":false,"rental_uris":{"android":"levelo://app?vid=4d4500d5-f50a-407a-b9e7-10b2212bd23a","ios":"levelo://app?vid=4d4500d5-f50a-407a-b9e7-10b2212bd23a"},"vehicle_type_id":"4","last_reported":1747433379,"current_range_meters":2800,"station_id":"ce4bh012rcd13ifvqcv0","pricing_plan_id":"cebpf4jnsgd1na2vs0mg"},{"bike_id":"533f446c-5d0c-4f38-a691-37503f31bff6","system_id":"levelo_inurba_marseille","lat":43.29519,"lon":5.39399,"is_reserved":false,"is_disabled":false,"rental_uris":{"android":"levelo://app?vid=533f446c-5d0c-4f38-a691-37503f31bff6","ios":"levelo://app?vid=533f446c-5d0c-4f38-a691-37503f31bff6"},"vehicle_type_id":"4","last_reported":1747433379,"current_range_meters":2800,"station_id":"ce4bh292rcd13ifvqdf0","pricing_plan_id":"cebpf4jnsgd1na2vs0mg"},{"bike_id":"3165154a-7945-4aed-bc22-3bb8108f76c6","system_id":"levelo_inurba_marseille","lat":43.286995,"lon":5.373042,"is_reserved":false,"is_disabled":false,"rental_uris":{"android":"levelo://app?vid=3165154a-7945-4aed-bc22-3bb8108f76c6","ios":"levelo://app?vid=3165154a-7945-4aed-bc22-3bb8108f76c6"},"vehicle_type_id":"4","last_reported":1747433379,"current_range_meters":2800,"station_id":"ce4bh3p2rcd13ifvqdq0","pricing_plan_id":"cebpf4jnsgd1na2vs0mg"},{"bike_id":"eddb1938-f556-4e44-927d-18713da67bed","system_id":"levelo_inurba_marseille","lat":43.29263,"lon":5.37622,"is_reserved":false,"is_disabled":false,"rental_uris":{"android":"levelo://app?vid=eddb1938-f556-4e44-927d-18713da67bed","ios":"levelo://app?vid=eddb1938-f556-4e44-927d-18713da67bed"},"vehicle_type_id":"4","last_reported":1747433379,"current_range_meters":3200,"station_id":"ce4bgi12rcd13ifvqb80","pricing_plan_id":"cebpf4jnsgd1na2vs0mg"},{"bike_id":"2fe6891e-a3a6-48f8-b783-dea05da84b85","system_id":"levelo_inurba_marseille","lat":43.29199,"lon":5.358,"is_reserved":false,"is_disabled":false,"rental_uris":{"android":"levelo://app?vid=2fe6891e-a3a6-48f8-b783-dea05da84b85","ios":"levelo://app?vid=2fe6891e-a3a6-48f8-b783-dea05da84b85"},"vehicle_type_id":"4","last_reported":1747433379,"current_range_meters":3200,"station_id":"ce4bhb12rcd13ifvqel0","pricing_plan_id":"cebpf4jnsgd1na2vs0mg"},{"bike_id":"65a72300-52a2-4688-adf7-6109bac9d104","system_id":"levelo_inurba_marseille","lat":43.30593,"lon":5.39349,"is_reserved":false,"is_disabled":false,"rental_uris":{"android":"levelo://app?vid=65a72300-52a2-4688-adf7-6109bac9d104","ios":"levelo://app?vid=65a72300-52a2-4688-adf7-6109bac9d104"},"vehicle_type_id":"4","last_reported":1747433379,"current_range_meters":3600,"station_id":"ce4bh0p2rcd13ifvqd80","pricing_plan_id":"cebpf4jnsgd1na2vs0mg"},{"bike_id":"80d0d83f-909d-4568-b4e7-8a3ef4eed2de","system_id":"levelo_inurba_marseille","lat":43.253963,"lon":5.418934,"is_reserved":false,"is_disabled":false,"rental_uris":{"android":"levelo://app?vid=80d0d83f-909d-4568-b4e7-8a3ef4eed2de","ios":"levelo://app?vid=80d0d83f-909d-4568-b4e7-8a3ef4eed2de"},"vehicle_type_id":"4","last_reported":1747433379,"current_range_meters":4000,"station_id":"","pricing_plan_id":"cebpf4jnsgd1na2vs0mg"},{"bike_id":"8d7bfadb-d1f3-4d81-bea5-3c3b8493a5b8","system_id":"levelo_inurba_marseille","lat":43.29976,"lon":5.38495,"is_reserved":false,"is_disabled":false,"rental_uris":{"android":"levelo://app?vid=8d7bfadb-d1f3-4d81-bea5-3c3b8493a5b8","ios":"levelo://app?vid=8d7bfadb-d1f3-4d81-bea5-3c3b8493a5b8"},"vehicle_type_id":"4","last_reported":1747433379,"current_range_meters":4000,"station_id":"ce4bgj92rcd13ifvqbd0","pricing_plan_id":"cebpf4jnsgd1na2vs0mg"},{"bike_id":"738913b9-b6e5-47fe-9e14-55fba01163ef","system_id":"levelo_inurba_marseille","lat":43.28158,"lon":5.42639,"is_reserved":false,"is_disabled":false,"rental_uris":{"android":"levelo://app?vid=738913b9-b6e5-47fe-9e14-55fba01163ef","ios":"levelo://app?vid=738913b9-b6e5-47fe-9e14-55fba01163ef"},"vehicle_type_id":"4","last_reported":1747433379,"current_range_meters":4000,"station_id":"ce4bhnh2rcd13ifvqgug","pricing_plan_id":"cebpf4jnsgd1na2vs0mg"},{"bike_id":"8eb1f58f-aa4f-4974-816f-c27c18b7dfee","system_id":"levelo_inurba_marseille","lat":43.24652,"lon":5.38882,"is_reserved":false,"is_disabled":false,"rental_uris":{"android":"levelo://app?vid=8eb1f58f-aa4f-4974-816f-c27c18b7dfee","ios":"levelo://app?vid=8eb1f58f-aa4f-4974-816f-c27c18b7dfee"},"vehicle_type_id":"4","last_reported":1747433379,"current_range_meters":4800,"station_id":"ce4bhg12rcd13ifvqf60","pricing_plan_id":"cebpf4jnsgd1na2vs0mg"},{"bike_id":"35b63b59-2aa3-4698-b2d6-fe9115e9b103","system_id":"levelo_inurba_marseille","lat":43.24996,"lon":5.38933,"is_reserved":false,"is_disabled":false,"rental_uris":{"android":"levelo://app?vid=35b63b59-2aa3-4698-b2d6-fe9115e9b103","ios":"levelo://app?vid=35b63b59-2aa3-4698-b2d6-fe9115e9b103"},"vehicle_type_id":"4","last_reported":1747433379,"current_range_meters":4800,"station_id":"ce4bhgp2rcd13ifvqfd0","pricing_plan_id":"cebpf4jnsgd1na2vs0mg"},{"bike_id":"aec5af64-5758-4d49-b2f9-eff089336aac","system_id":"levelo_inurba_marseille","lat":43.28093,"lon":5.39664,"is_reserved":false,"is_disabled":false,"rental_uris":{"android":"levelo://app?vid=aec5af64-5758-4d49-b2f9-eff089336aac","ios":"levelo://app?vid=aec5af64-5758-4d49-b2f9-eff089336aac"},"vehicle_type_id":"4","last_reported":1747433379,"current_range_meters":4800,"station_id":"ce4bho12rcd13ifvqh2g","pricing_plan_id":"cebpf4jnsgd1na2vs0mg"},{"bike_id":"7eb7be2d-3eec-4648-b495-0d532492ed4d","system_id":"levelo_inurba_marseille","lat":43.23195,"lon":5.35549,"is_reserved":false,"is_disabled":false,"rental_uris":{"android":"levelo://app?vid=7eb7be2d-3eec-4648-b495-0d532492ed4d","ios":"levelo://app?vid=7eb7be2d-3eec-4648-b495-0d532492ed4d"},"vehicle_type_id":"4","last_reported":1747433379,"current_range_meters":4800,"station_id":"ce4bhu92rcd13ifvqi70","pricing_plan_id":"cebpf4jnsgd1na2vs0mg"},{"bike_id":"da36a3f9-3171-4d1c-85c5-8d3c32a7bc01","system_id":"levelo_inurba_marseille","lat":43.31123,"lon":5.37762,"is_reserved":false,"is_disabled":false,"rental_uris":{"android":"levelo://app?vid=da36a3f9-3171-4d1c-85c5-8d3c32a7bc01","ios":"levelo://app?vid=da36a3f9-3171-4d1c-85c5-8d3c32a7bc01"},"vehicle_type_id":"4","last_reported":1747433379,"current_range_meters":5600,"station_id":"ce4bgt92rcd13ifvqcg0","pricing_plan_id":"cebpf4jnsgd1na2vs0mg"},{"bike_id":"7b872a81-d582-4037-8629-f416a519d9f1","system_id":"levelo_inurba_marseille","lat":43.29092,"lon":5.38114,"is_reserved":false,"is_disabled":false,"rental_uris":{"android":"levelo://app?vid=7b872a81-d582-4037-8629-f416a519d9f1","ios":"levelo://app?vid=7b872a81-d582-4037-8629-f416a519d9f1"},"vehicle_type_id":"4","last_reported":1747433379,"current_range_meters":5600,"station_id":"ce4bh512rcd13ifvqe2g","pricing_plan_id":"cebpf4jnsgd1na2vs0mg"},{"bike_id":"ec82b09f-348b-46ef-919d-f478aa787858","system_id":"levelo_inurba_marseille","lat":43.2293,"lon":5.35375,"is_reserved":false,"is_disabled":false,"rental_uris":{"android":"levelo://app?vid=ec82b09f-348b-46ef-919d-f478aa787858","ios":"levelo://app?vid=ec82b09f-348b-46ef-919d-f478aa787858"},"vehicle_type_id":"4","last_reported":1747433379,"current_range_meters":5600,"station_id":"cpo3532slgdg3j2ikp40","pricing_plan_id":"cebpf4jnsgd1na2vs0mg"},{"bike_id":"6fa9e772-3d07-48cc-af00-0a04d4ffa1a2","system_id":"levelo_inurba_marseille","lat":43.25125,"lon":5.40318,"is_reserved":false,"is_disabled":false,"rental_uris":{"android":"levelo://app?vid=6fa9e772-3d07-48cc-af00-0a04d4ffa1a2","ios":"levelo://app?vid=6fa9e772-3d07-48cc-af00-0a04d4ffa1a2"},"vehicle_type_id":"4","last_reported":1747433379,"current_range_meters":6400,"station_id":"ce4bhlh2rcd13ifvqgig","pricing_plan_id":"cebpf4jnsgd1na2vs0mg"},{"bike_id":"8fb6cb13-56bc-44a4-9dbe-951a05f71757","system_id":"levelo_inurba_marseille","lat":43.25088,"lon":5.39518,"is_reserved":false,"is_disabled":false,"rental_uris":{"android":"levelo://app?vid=8fb6cb13-56bc-44a4-9dbe-951a05f71757","ios":"levelo://app?vid=8fb6cb13-56bc-44a4-9dbe-951a05f71757"},"vehicle_type_id":"4","last_reported":1747433379,"current_range_meters":6400,"station_id":"ce4bhm12rcd13ifvqgkg","pricing_plan_id":"cebpf4jnsgd1na2vs0mg"},{"bike_id":"2ef74e98-a4f6-4f17-96bd-8b6ca0d6e13f","system_id":"levelo_inurba_marseille","lat":43.231875,"lon":5.399885,"is_reserved":false,"is_disabled":false,"rental_uris":{"android":"levelo://app?vid=2ef74e98-a4f6-4f17-96bd-8b6ca0d6e13f","ios":"levelo://app?vid=2ef74e98-a4f6-4f17-96bd-8b6ca0d6e13f"},"vehicle_type_id":"4","last_reported":1747433379,"current_range_meters":6400,"station_id":"ce4bhn12rcd13ifvqgqg","pricing_plan_id":"cebpf4jnsgd1na2vs0mg"},{"bike_id":"ec2cf44a-d2ce-40ed-aaeb-ddb24e07b8b0","system_id":"levelo_inurba_marseille","lat":43.23188,"lon":5.3998,"is_reserved":false,"is_disabled":false,"rental_uris":{"android":"levelo://app?vid=ec2cf44a-d2ce-40ed-aaeb-ddb24e07b8b0","ios":"levelo://app?vid=ec2cf44a-d2ce-40ed-aaeb-ddb24e07b8b0"},"vehicle_type_id":"4","last_reported":1747433379,"current_range_meters":6400,"station_id":"ce4bhn12rcd13ifvqgqg","pricing_plan_id":"cebpf4jnsgd1na2vs0mg"},{"bike_id":"deb72f86-18c7-4059-b066-9e7105249bc3","system_id":"levelo_inurba_marseille","lat":43.32661,"lon":5.41,"is_reserved":false,"is_disabled":false,"rental_uris":{"android":"levelo://app?vid=deb72f86-18c7-4059-b066-9e7105249bc3","ios":"levelo://app?vid=deb72f86-18c7-4059-b066-9e7105249bc3"},"vehicle_type_id":"4","last_reported":1747433379,"current_range_meters":6400,"station_id":"ce4bhpp2rcd13ifvqhgg","pricing_plan_id":"cebpf4jnsgd1na2vs0mg"},{"bike_id":"d93d0c6d-be90-4a1f-bc81-4d02d1453c4b","system_id":"levelo_inurba_marseille","lat":43.22514,"lon":5.34775,"is_reserved":false,"is_disabled":false,"rental_uris":{"android":"levelo://app?vid=d93d0c6d-be90-4a1f-bc81-4d02d1453c4b","ios":"levelo://app?vid=d93d0c6d-be90-4a1f-bc81-4d02d1453c4b"},"vehicle_type_id":"4","last_reported":1747433379,"current_range_meters":6400,"station_id":"st_cvj5dfep6f1abm77gieg","pricing_plan_id":"cebpf4jnsgd1na2vs0mg"},{"bike_id":"06e20113-a5f1-4fe5-b188-f647ff408cc7","system_id":"levelo_inurba_marseille","lat":43.27718,"lon":5.41929,"is_reserved":false,"is_disabled":false,"rental_uris":{"android":"levelo://app?vid=06e20113-a5f1-4fe5-b188-f647ff408cc7","ios":"levelo://app?vid=06e20113-a5f1-4fe5-b188-f647ff408cc7"},"vehicle_type_id":"4","last_reported":1747433379,"current_range_meters":6800,"station_id":"","pricing_plan_id":"cebpf4jnsgd1na2vs0mg"},{"bike_id":"f768f02c-a770-46ed-b9fb-ed1e435a3c0f","system_id":"levelo_inurba_marseille","lat":43.3294,"lon":5.38993,"is_reserved":false,"is_disabled":false,"rental_uris":{"android":"levelo://app?vid=f768f02c-a770-46ed-b9fb-ed1e435a3c0f","ios":"levelo://app?vid=f768f02c-a770-46ed-b9fb-ed1e435a3c0f"},"vehicle_type_id":"4","last_reported":1747433379,"current_range_meters":6800,"station_id":"","pricing_plan_id":"cebpf4jnsgd1na2vs0mg"},{"bike_id":"f8bef29a-1c6c-4a23-8f6a-4b760357c234","system_id":"levelo_inurba_marseille","lat":43.29259,"lon":5.40906,"is_reserved":false,"is_disabled":false,"rental_uris":{"android":"levelo://app?vid=f8bef29a-1c6c-4a23-8f6a-4b760357c234","ios":"levelo://app?vid=f8bef29a-1c6c-4a23-8f6a-4b760357c234"},"vehicle_type_id":"4","last_reported":1747433379,"current_range_meters":6800,"station_id":"ce4bh192rcd13ifvqdc0","pricing_plan_id":"cebpf4jnsgd1na2vs0mg"},{"bike_id":"10a03f29-c19b-490f-8867-3dc944fbed36","system_id":"levelo_inurba_marseille","lat":43.30428,"lon":5.39747,"is_reserved":false,"is_disabled":false,"rental_uris":{"android":"levelo://app?vid=10a03f29-c19b-490f-8867-3dc944fbed36","ios":"levelo://app?vid=10a03f29-c19b-490f-8867-3dc944fbed36"},"vehicle_type_id":"4","last_reported":1747433379,"current_range_meters":7200,"station_id":"ce4bh092rcd13ifvqd20","pricing_plan_id":"cebpf4jnsgd1na2vs0mg"},{"bike_id":"b15acf99-a4c0-4a0e-8ffe-93213d16b527","system_id":"levelo_inurba_marseille","lat":43.3546,"lon":5.35725,"is_reserved":false,"is_disabled":false,"rental_uris":{"android":"levelo://app?vid=b15acf99-a4c0-4a0e-8ffe-93213d16b527","ios":"levelo://app?vid=b15acf99-a4c0-4a0e-8ffe-93213d16b527"},"vehicle_type_id":"4","last_reported":1747433379,"current_range_meters":8000,"station_id":"","pricing_plan_id":"cebpf4jnsgd1na2vs0mg"},{"bike_id":"b89a24e6-5078-471a-88fa-2c70cdf078ca","system_id":"levelo_inurba_marseille","lat":43.31009,"lon":5.37559,"is_reserved":false,"is_disabled":false,"rental_uris":{"android":"levelo://app?vid=b89a24e6-5078-471a-88fa-2c70cdf078ca","ios":"levelo://app?vid=b89a24e6-5078-471a-88fa-2c70cdf078ca"},"vehicle_type_id":"4","last_reported":1747433379,"current_range_meters":8000,"station_id":"","pricing_plan_id":"cebpf4jnsgd1na2vs0mg"},{"bike_id":"f8e4732a-2ecf-431c-8f66-abc7aabb8aa1","system_id":"levelo_inurba_marseille","lat":43.32938,"lon":5.39004,"is_reserved":false,"is_disabled":false,"rental_uris":{"android":"levelo://app?vid=f8e4732a-2ecf-431c-8f66-abc7aabb8aa1","ios":"levelo://app?vid=f8e4732a-2ecf-431c-8f66-abc7aabb8aa1"},"vehicle_type_id":"4","last_reported":1747433379,"current_range_meters":8000,"station_id":"","pricing_plan_id":"cebpf4jnsgd1na2vs0mg"},{"bike_id":"6dd57cf4-65e0-489e-905f-ab0dc1fdf6dd","system_id":"levelo_inurba_marseille","lat":43.32973,"lon":5.39351,"is_reserved":false,"is_disabled":false,"rental_uris":{"android":"levelo://app?vid=6dd57cf4-65e0-489e-905f-ab0dc1fdf6dd","ios":"levelo://app?vid=6dd57cf4-65e0-489e-905f-ab0dc1fdf6dd"},"vehicle_type_id":"4","last_reported":1747433379,"current_range_meters":8000,"station_id":"","pricing_plan_id":"cebpf4jnsgd1na2vs0mg"},{"bike_id":"78683b89-a50a-4769-a4c6-0da81ccf13df","system_id":"levelo_inurba_marseille","lat":43.27918,"lon":5.39578,"is_reserved":false,"is_disabled":false,"rental_uris":{"android":"levelo://app?vid=78683b89-a50a-4769-a4c6-0da81ccf13df","ios":"levelo://app?vid=78683b89-a50a-4769-a4c6-0da81ccf13df"},"vehicle_type_id":"4","last_reported":1747433379,"current_range_meters":8000,"station_id":"ce4bhf92rcd13ifvqf40","pricing_plan_id":"cebpf4jnsgd1na2vs0mg"},{"bike_id":"6d485413-0a5b-4296-862c-2c19c83ee78f","system_id":"levelo_inurba_marseille","lat":43.32348,"lon":5.40642,"is_reserved":false,"is_disabled":false,"rental_uris":{"android":"levelo://app?vid=6d485413-0a5b-4296-862c-2c19c83ee78f","ios":"levelo://app?vid=6d485413-0a5b-4296-862c-2c19c83ee78f"},"vehicle_type_id":"4","last_reported":1747433379,"current_range_meters":8000,"station_id":"ce4bhq92rcd13ifvqhjg","pricing_plan_id":"cebpf4jnsgd1na2vs0mg"},{"bike_id":"e64e4484-2db6-41f4-beb8-e0c0ae1263cd","system_id":"levelo_inurba_marseille","lat":43.28537,"lon":5.43023,"is_reserved":false,"is_disabled":false,"rental_uris":{"android":"levelo://app?vid=e64e4484-2db6-41f4-beb8-e0c0ae1263cd","ios":"levelo://app?vid=e64e4484-2db6-41f4-beb8-e0c0ae1263cd"},"vehicle_type_id":"4","last_reported":1747433379,"current_range_meters":8400,"station_id":"","pricing_plan_id":"cebpf4jnsgd1na2vs0mg"},{"bike_id":"695a63d9-be6f-4584-83cd-2bd1d0de1629","system_id":"levelo_inurba_marseille","lat":43.2954,"lon":5.38538,"is_reserved":false,"is_disabled":false,"rental_uris":{"android":"levelo://app?vid=695a63d9-be6f-4584-83cd-2bd1d0de1629","ios":"levelo://app?vid=695a63d9-be6f-4584-83cd-2bd1d0de1629"},"vehicle_type_id":"4","last_reported":1747433379,"current_range_meters":8400,"station_id":"ce4bgih2rcd13ifvqba0","pricing_plan_id":"cebpf4jnsgd1na2vs0mg"},{"bike_id":"c690320c-04c1-4a80-9ca9-3a118dda0e9a","system_id":"levelo_inurba_marseille","lat":43.290314,"lon":5.38645,"is_reserved":false,"is_disabled":false,"rental_uris":{"android":"levelo://app?vid=c690320c-04c1-4a80-9ca9-3a118dda0e9a","ios":"levelo://app?vid=c690320c-04c1-4a80-9ca9-3a118dda0e9a"},"vehicle_type_id":"4","last_reported":1747433379,"current_range_meters":8400,"station_id":"ce4bhb12rcd13ifvqel0","pricing_plan_id":"cebpf4jnsgd1na2vs0mg"},{"bike_id":"b83840fc-e8b5-4516-afbe-00694cb37051","system_id":"levelo_inurba_marseille","lat":43.24389,"lon":5.37064,"is_reserved":false,"is_disabled":false,"rental_uris":{"android":"levelo://app?vid=b83840fc-e8b5-4516-afbe-00694cb37051","ios":"levelo://app?vid=b83840fc-e8b5-4516-afbe-00694cb37051"},"vehicle_type_id":"4","last_reported":1747433379,"current_range_meters":8400,"station_id":"ce4bhhh2rcd13ifvqfk0","pricing_plan_id":"cebpf4jnsgd1na2vs0mg"},{"bike_id":"13302bee-f815-4369-81f7-9966c09f11d0","system_id":"levelo_inurba_marseille","lat":43.30375,"lon":5.42481,"is_reserved":false,"is_disabled":false,"rental_uris":{"android":"levelo://app?vid=13302bee-f815-4369-81f7-9966c09f11d0","ios":"levelo://app?vid=13302bee-f815-4369-81f7-9966c09f11d0"},"vehicle_type_id":"4","last_reported":1747433379,"current_range_meters":8400,"station_id":"ce4bhoh2rcd13ifvqh6g","pricing_plan_id":"cebpf4jnsgd1na2vs0mg"},{"bike_id":"2781ef4e-3651-4ce5-9a2e-f1d46595d329","system_id":"levelo_inurba_marseille","lat":43.32125,"lon":5.36778,"is_reserved":false,"is_disabled":false,"rental_uris":{"android":"levelo://app?vid=2781ef4e-3651-4ce5-9a2e-f1d46595d329","ios":"levelo://app?vid=2781ef4e-3651-4ce5-9a2e-f1d46595d329"},"vehicle_type_id":"4","last_reported":1747433379,"current_range_meters":8400,"station_id":"ce4bhrh2rcd13ifvqhug","pricing_plan_id":"cebpf4jnsgd1na2vs0mg"},{"bike_id":"6d36ce03-b344-4b5e-9465-9800cf819cb5","system_id":"levelo_inurba_marseille","lat":43.212,"lon":5.35076,"is_reserved":false,"is_disabled":false,"rental_uris":{"android":"levelo://app?vid=6d36ce03-b344-4b5e-9465-9800cf819cb5","ios":"levelo://app?vid=6d36ce03-b344-4b5e-9465-9800cf819cb5"},"vehicle_type_id":"4","last_reported":1747433379,"current_range_meters":8400,"station_id":"st_cvj6sg6p6f1abm77japg","pricing_plan_id":"cebpf4jnsgd1na2vs0mg"},{"bike_id":"02288632-79f4-483c-92bd-91cd61a950da","system_id":"levelo_inurba_marseille","lat":43.296417,"lon":5.36215,"is_reserved":false,"is_disabled":false,"rental_uris":{"android":"levelo://app?vid=02288632-79f4-483c-92bd-91cd61a950da","ios":"levelo://app?vid=02288632-79f4-483c-92bd-91cd61a950da"},"vehicle_type_id":"4","last_reported":1747433379,"current_range_meters":8800,"station_id":"","pricing_plan_id":"cebpf4jnsgd1na2vs0mg"},{"bike_id":"bbfb4aad-2100-4cdd-83d8-cfec5eb6fc7b","system_id":"levelo_inurba_marseille","lat":43.30602,"lon":5.37222,"is_reserved":false,"is_disabled":false,"rental_uris":{"android":"levelo://app?vid=bbfb4aad-2100-4cdd-83d8-cfec5eb6fc7b","ios":"levelo://app?vid=bbfb4aad-2100-4cdd-83d8-cfec5eb6fc7b"},"vehicle_type_id":"4","last_reported":1747433379,"current_range_meters":8800,"station_id":"ce4bgqh2rcd13ifvqc4g","pricing_plan_id":"cebpf4jnsgd1na2vs0mg"},{"bike_id":"e5fff148-2c4c-42e4-8ea1-58914929ffeb","system_id":"levelo_inurba_marseille","lat":43.27905,"lon":5.38709,"is_reserved":false,"is_disabled":false,"rental_uris":{"android":"levelo://app?vid=e5fff148-2c4c-42e4-8ea1-58914929ffeb","ios":"levelo://app?vid=e5fff148-2c4c-42e4-8ea1-58914929ffeb"},"vehicle_type_id":"4","last_reported":1747433379,"current_range_meters":8800,"station_id":"ce4bhg12rcd13ifvqf80","pricing_plan_id":"cebpf4jnsgd1na2vs0mg"},{"bike_id":"a7fd0861-fa86-48c1-a42f-40fb1b26955e","system_id":"levelo_inurba_marseille","lat":43.27991,"lon":5.41653,"is_reserved":false,"is_disabled":false,"rental_uris":{"android":"levelo://app?vid=a7fd0861-fa86-48c1-a42f-40fb1b26955e","ios":"levelo://app?vid=a7fd0861-fa86-48c1-a42f-40fb1b26955e"},"vehicle_type_id":"4","last_reported":1747433379,"current_range_meters":8800,"station_id":"ce4bho12rcd13ifvqh1g","pricing_plan_id":"cebpf4jnsgd1na2vs0mg"},{"bike_id":"4a07484a-afe5-412c-b3c0-444a3bb6c3c7","system_id":"levelo_inurba_marseille","lat":43.32662,"lon":5.40996,"is_reserved":false,"is_disabled":false,"rental_uris":{"android":"levelo://app?vid=4a07484a-afe5-412c-b3c0-444a3bb6c3c7","ios":"levelo://app?vid=4a07484a-afe5-412c-b3c0-444a3bb6c3c7"},"vehicle_type_id":"4","last_reported":1747433379,"current_range_meters":8800,"station_id":"ce4bhpp2rcd13ifvqhgg","pricing_plan_id":"cebpf4jnsgd1na2vs0mg"},{"bike_id":"a35ef56b-63be-4a96-9de7-814693a5818a","system_id":"levelo_inurba_marseille","lat":43.31737,"lon":5.37256,"is_reserved":false,"is_disabled":false,"rental_uris":{"android":"levelo://app?vid=a35ef56b-63be-4a96-9de7-814693a5818a","ios":"levelo://app?vid=a35ef56b-63be-4a96-9de7-814693a5818a"},"vehicle_type_id":"4","last_reported":1747433379,"current_range_meters":9200,"station_id":"","pricing_plan_id":"cebpf4jnsgd1na2vs0mg"},{"bike_id":"ad5f9cf6-9c88-49f6-b4d6-7ea60bde5bb4","system_id":"levelo_inurba_marseille","lat":43.30896,"lon":5.39656,"is_reserved":false,"is_disabled":false,"rental_uris":{"android":"levelo://app?vid=ad5f9cf6-9c88-49f6-b4d6-7ea60bde5bb4","ios":"levelo://app?vid=ad5f9cf6-9c88-49f6-b4d6-7ea60bde5bb4"},"vehicle_type_id":"4","last_reported":1747433379,"current_range_meters":9200,"station_id":"ce4bh012rcd13ifvqcv0","pricing_plan_id":"cebpf4jnsgd1na2vs0mg"},{"bike_id":"f0f7ca87-7ffb-46bd-ab65-ff44d1578193","system_id":"levelo_inurba_marseille","lat":43.32343,"lon":5.40622,"is_reserved":false,"is_disabled":false,"rental_uris":{"android":"levelo://app?vid=f0f7ca87-7ffb-46bd-ab65-ff44d1578193","ios":"levelo://app?vid=f0f7ca87-7ffb-46bd-ab65-ff44d1578193"},"vehicle_type_id":"4","last_reported":1747433379,"current_range_meters":9200,"station_id":"ce4bhq92rcd13ifvqhjg","pricing_plan_id":"cebpf4jnsgd1na2vs0mg"},{"bike_id":"8e1eb183-c00d-4646-a924-2a4f9123def5","system_id":"levelo_inurba_marseille","lat":43.321071,"lon":5.367694,"is_reserved":false,"is_disabled":false,"rental_uris":{"android":"levelo://app?vid=8e1eb183-c00d-4646-a924-2a4f9123def5","ios":"levelo://app?vid=8e1eb183-c00d-4646-a924-2a4f9123def5"},"vehicle_type_id":"4","last_reported":1747433379,"current_range_meters":9200,"station_id":"ce4bhrh2rcd13ifvqhug","pricing_plan_id":"cebpf4jnsgd1na2vs0mg"},{"bike_id":"a488853e-8708-42f9-a9f1-40f4dc62e03d","system_id":"levelo_inurba_marseille","lat":43.30569,"lon":5.37329,"is_reserved":false,"is_disabled":false,"rental_uris":{"android":"levelo://app?vid=a488853e-8708-42f9-a9f1-40f4dc62e03d","ios":"levelo://app?vid=a488853e-8708-42f9-a9f1-40f4dc62e03d"},"vehicle_type_id":"4","last_reported":1747433379,"current_range_meters":9600,"station_id":"","pricing_plan_id":"cebpf4jnsgd1na2vs0mg"},{"bike_id":"8e309cfc-0ca3-48f3-a747-b6aa5ceade8f","system_id":"levelo_inurba_marseille","lat":43.29866,"lon":5.3629,"is_reserved":false,"is_disabled":false,"rental_uris":{"android":"levelo://app?vid=8e309cfc-0ca3-48f3-a747-b6aa5ceade8f","ios":"levelo://app?vid=8e309cfc-0ca3-48f3-a747-b6aa5ceade8f"},"vehicle_type_id":"4","last_reported":1747433379,"current_range_meters":9600,"station_id":"ce4bgpp2rcd13ifvqc3g","pricing_plan_id":"cebpf4jnsgd1na2vs0mg"},{"bike_id":"a56ec710-457d-46fb-90e7-b84e2bffe9ab","system_id":"levelo_inurba_marseille","lat":43.29853,"lon":5.36279,"is_reserved":false,"is_disabled":false,"rental_uris":{"android":"levelo://app?vid=a56ec710-457d-46fb-90e7-b84e2bffe9ab","ios":"levelo://app?vid=a56ec710-457d-46fb-90e7-b84e2bffe9ab"},"vehicle_type_id":"4","last_reported":1747433379,"current_range_meters":9600,"station_id":"ce4bgpp2rcd13ifvqc3g","pricing_plan_id":"cebpf4jnsgd1na2vs0mg"},{"bike_id":"3a49fb96-1d0c-4469-9683-5397ce9e2b1d","system_id":"levelo_inurba_marseille","lat":43.30805,"lon":5.38162,"is_reserved":false,"is_disabled":false,"rental_uris":{"android":"levelo://app?vid=3a49fb96-1d0c-4469-9683-5397ce9e2b1d","ios":"levelo://app?vid=3a49fb96-1d0c-4469-9683-5397ce9e2b1d"},"vehicle_type_id":"4","last_reported":1747433379,"current_range_meters":9600,"station_id":"ce4bgt12rcd13ifvqce0","pricing_plan_id":"cebpf4jnsgd1na2vs0mg"},{"bike_id":"25102c3b-2fbb-400c-8820-f98bbff5bece","system_id":"levelo_inurba_marseille","lat":43.27915,"lon":5.39592,"is_reserved":false,"is_disabled":false,"rental_uris":{"android":"levelo://app?vid=25102c3b-2fbb-400c-8820-f98bbff5bece","ios":"levelo://app?vid=25102c3b-2fbb-400c-8820-f98bbff5bece"},"vehicle_type_id":"4","last_reported":1747433379,"current_range_meters":9600,"station_id":"ce4bhf92rcd13ifvqf40","pricing_plan_id":"cebpf4jnsgd1na2vs0mg"},{"bike_id":"5deb8060-b584-45ba-8ee7-be227a41b5a4","system_id":"levelo_inurba_marseille","lat":43.24686,"lon":5.38182,"is_reserved":false,"is_disabled":false,"rental_uris":{"android":"levelo://app?vid=5deb8060-b584-45ba-8ee7-be227a41b5a4","ios":"levelo://app?vid=5deb8060-b584-45ba-8ee7-be227a41b5a4"},"vehicle_type_id":"4","last_reported":1747433379,"current_range_meters":9600,"station_id":"ce4bhih2rcd13ifvqfr0","pricing_plan_id":"cebpf4jnsgd1na2vs0mg"},{"bike_id":"5bd7c68d-bffc-45e6-bca1-d02bf7a1c1bb","system_id":"levelo_inurba_marseille","lat":43.25887,"lon":5.39893,"is_reserved":false,"is_disabled":false,"rental_uris":{"android":"levelo://app?vid=5bd7c68d-bffc-45e6-bca1-d02bf7a1c1bb","ios":"levelo://app?vid=5bd7c68d-bffc-45e6-bca1-d02bf7a1c1bb"},"vehicle_type_id":"4","last_reported":1747433379,"current_range_meters":9600,"station_id":"ce4bhl92rcd13ifvqghg","pricing_plan_id":"cebpf4jnsgd1na2vs0mg"},{"bike_id":"cc997091-761a-4004-b43e-d05e1c15efff","system_id":"levelo_inurba_marseille","lat":43.23196,"lon":5.39987,"is_reserved":false,"is_disabled":false,"rental_uris":{"android":"levelo://app?vid=cc997091-761a-4004-b43e-d05e1c15efff","ios":"levelo://app?vid=cc997091-761a-4004-b43e-d05e1c15efff"},"vehicle_type_id":"4","last_reported":1747433379,"current_range_meters":9600,"station_id":"ce4bhn12rcd13ifvqgqg","pricing_plan_id":"cebpf4jnsgd1na2vs0mg"},{"bike_id":"3d6b5b36-a314-45fa-8bc0-68e5f98a5dde","system_id":"levelo_inurba_marseille","lat":43.22935,"lon":5.35381,"is_reserved":false,"is_disabled":false,"rental_uris":{"android":"levelo://app?vid=3d6b5b36-a314-45fa-8bc0-68e5f98a5dde","ios":"levelo://app?vid=3d6b5b36-a314-45fa-8bc0-68e5f98a5dde"},"vehicle_type_id":"4","last_reported":1747433379,"current_range_meters":9600,"station_id":"cpo3532slgdg3j2ikp40","pricing_plan_id":"cebpf4jnsgd1na2vs0mg"},{"bike_id":"e779e4bd-9564-4516-b9f7-54cd50682a2a","system_id":"levelo_inurba_marseille","lat":43.2957,"lon":5.37527,"is_reserved":false,"is_disabled":false,"rental_uris":{"android":"levelo://app?vid=e779e4bd-9564-4516-b9f7-54cd50682a2a","ios":"levelo://app?vid=e779e4bd-9564-4516-b9f7-54cd50682a2a"},"vehicle_type_id":"4","last_reported":1747433379,"current_range_meters":10000,"station_id":"ce4bgh92rcd13ifvqb50","pricing_plan_id":"cebpf4jnsgd1na2vs0mg"},{"bike_id":"71abf16d-0037-4503-8336-9084f9a4a4ec","system_id":"levelo_inurba_marseille","lat":43.30937,"lon":5.40144,"is_reserved":false,"is_disabled":false,"rental_uris":{"android":"levelo://app?vid=71abf16d-0037-4503-8336-9084f9a4a4ec","ios":"levelo://app?vid=71abf16d-0037-4503-8336-9084f9a4a4ec"},"vehicle_type_id":"4","last_reported":1747433379,"current_range_meters":10000,"station_id":"ce4bgvp2rcd13ifvqct0","pricing_plan_id":"cebpf4jnsgd1na2vs0mg"},{"bike_id":"3e480d2f-8011-45e8-bab5-26452b394142","system_id":"levelo_inurba_marseille","lat":43.2866,"lon":5.36342,"is_reserved":false,"is_disabled":false,"rental_uris":{"android":"levelo://app?vid=3e480d2f-8011-45e8-bab5-26452b394142","ios":"levelo://app?vid=3e480d2f-8011-45e8-bab5-26452b394142"},"vehicle_type_id":"4","last_reported":1747433379,"current_range_meters":10000,"station_id":"ce4bhah2rcd13ifvqej0","pricing_plan_id":"cebpf4jnsgd1na2vs0mg"},{"bike_id":"caa60b47-a02a-42e1-95d7-678109642ffd","system_id":"levelo_inurba_marseille","lat":43.25577,"lon":5.38241,"is_reserved":false,"is_disabled":false,"rental_uris":{"android":"levelo://app?vid=caa60b47-a02a-42e1-95d7-678109642ffd","ios":"levelo://app?vid=caa60b47-a02a-42e1-95d7-678109642ffd"},"vehicle_type_id":"4","last_reported":1747433379,"current_range_meters":10000,"station_id":"ce4bhih2rcd13ifvqfs0","pricing_plan_id":"cebpf4jnsgd1na2vs0mg"},{"bike_id":"5cf74a5b-3237-4306-8708-835ce896cf40","system_id":"levelo_inurba_marseille","lat":43.3199,"lon":5.38157,"is_reserved":false,"is_disabled":false,"rental_uris":{"android":"levelo://app?vid=5cf74a5b-3237-4306-8708-835ce896cf40","ios":"levelo://app?vid=5cf74a5b-3237-4306-8708-835ce896cf40"},"vehicle_type_id":"4","last_reported":1747433379,"current_range_meters":10000,"station_id":"ce4bhr12rcd13ifvqhpg","pricing_plan_id":"cebpf4jnsgd1na2vs0mg"},{"bike_id":"f25fbb4e-ed21-436e-870e-98f400d15677","system_id":"levelo_inurba_marseille","lat":43.28913,"lon":5.38406,"is_reserved":false,"is_disabled":false,"rental_uris":{"android":"levelo://app?vid=f25fbb4e-ed21-436e-870e-98f400d15677","ios":"levelo://app?vid=f25fbb4e-ed21-436e-870e-98f400d15677"},"vehicle_type_id":"4","last_reported":1747433379,"current_range_meters":10800,"station_id":"ce4bh612rcd13ifvqe6g","pricing_plan_id":"cebpf4jnsgd1na2vs0mg"},{"bike_id":"ec2adc05-c675-4624-8ed7-f8c2369f6eaa","system_id":"levelo_inurba_marseille","lat":43.2903,"lon":5.37551,"is_reserved":false,"is_disabled":false,"rental_uris":{"android":"levelo://app?vid=ec2adc05-c675-4624-8ed7-f8c2369f6eaa","ios":"levelo://app?vid=ec2adc05-c675-4624-8ed7-f8c2369f6eaa"},"vehicle_type_id":"4","last_reported":1747433379,"current_range_meters":10800,"station_id":"ce4bh692rcd13ifvqe90","pricing_plan_id":"cebpf4jnsgd1na2vs0mg"},{"bike_id":"44b99538-fb26-4f4c-9469-128b12406ff3","system_id":"levelo_inurba_marseille","lat":43.2867,"lon":5.36335,"is_reserved":false,"is_disabled":false,"rental_uris":{"android":"levelo://app?vid=44b99538-fb26-4f4c-9469-128b12406ff3","ios":"levelo://app?vid=44b99538-fb26-4f4c-9469-128b12406ff3"},"vehicle_type_id":"4","last_reported":1747433379,"current_range_meters":10800,"station_id":"ce4bhah2rcd13ifvqej0","pricing_plan_id":"cebpf4jnsgd1na2vs0mg"},{"bike_id":"3cff68fc-a34d-4791-935c-c62a1b6387c6","system_id":"levelo_inurba_marseille","lat":43.25825,"lon":5.39436,"is_reserved":false,"is_disabled":false,"rental_uris":{"android":"levelo://app?vid=3cff68fc-a34d-4791-935c-c62a1b6387c6","ios":"levelo://app?vid=3cff68fc-a34d-4791-935c-c62a1b6387c6"},"vehicle_type_id":"4","last_reported":1747433379,"current_range_meters":10800,"station_id":"ce4bhip2rcd13ifvqft0","pricing_plan_id":"cebpf4jnsgd1na2vs0mg"},{"bike_id":"af4d8ae5-b5e3-4ba4-bb1f-49c4a5ed79fd","system_id":"levelo_inurba_marseille","lat":43.28885,"lon":5.44912,"is_reserved":false,"is_disabled":false,"rental_uris":{"android":"levelo://app?vid=af4d8ae5-b5e3-4ba4-bb1f-49c4a5ed79fd","ios":"levelo://app?vid=af4d8ae5-b5e3-4ba4-bb1f-49c4a5ed79fd"},"vehicle_type_id":"4","last_reported":1747433379,"current_range_meters":11200,"station_id":"","pricing_plan_id":"cebpf4jnsgd1na2vs0mg"},{"bike_id":"8a61a1bc-5a2c-4409-b911-e09287002183","system_id":"levelo_inurba_marseille","lat":43.30996,"lon":5.37907,"is_reserved":false,"is_disabled":false,"rental_uris":{"android":"levelo://app?vid=8a61a1bc-5a2c-4409-b911-e09287002183","ios":"levelo://app?vid=8a61a1bc-5a2c-4409-b911-e09287002183"},"vehicle_type_id":"4","last_reported":1747433379,"current_range_meters":11200,"station_id":"","pricing_plan_id":"cebpf4jnsgd1na2vs0mg"},{"bike_id":"8daf4cda-515a-44e7-a2a4-3a34e4d9354c","system_id":"levelo_inurba_marseille","lat":43.29212,"lon":5.3931,"is_reserved":false,"is_disabled":false,"rental_uris":{"android":"levelo://app?vid=8daf4cda-515a-44e7-a2a4-3a34e4d9354c","ios":"levelo://app?vid=8daf4cda-515a-44e7-a2a4-3a34e4d9354c"},"vehicle_type_id":"4","last_reported":1747433379,"current_range_meters":11200,"station_id":"ce4bh192rcd13ifvqdd0","pricing_plan_id":"cebpf4jnsgd1na2vs0mg"},{"bike_id":"b49e5124-092d-4cd4-a2e2-7c3458330bd7","system_id":"levelo_inurba_marseille","lat":43.29448,"lon":5.39749,"is_reserved":false,"is_disabled":false,"rental_uris":{"android":"levelo://app?vid=b49e5124-092d-4cd4-a2e2-7c3458330bd7","ios":"levelo://app?vid=b49e5124-092d-4cd4-a2e2-7c3458330bd7"},"vehicle_type_id":"4","last_reported":1747433379,"current_range_meters":11200,"station_id":"ce4bh3h2rcd13ifvqdo0","pricing_plan_id":"cebpf4jnsgd1na2vs0mg"},{"bike_id":"fd36f2b2-ab3f-4773-a649-0c532c529c78","system_id":"levelo_inurba_marseille","lat":43.265588,"lon":5.372858,"is_reserved":false,"is_disabled":false,"rental_uris":{"android":"levelo://app?vid=fd36f2b2-ab3f-4773-a649-0c532c529c78","ios":"levelo://app?vid=fd36f2b2-ab3f-4773-a649-0c532c529c78"},"vehicle_type_id":"4","last_reported":1747433379,"current_range_meters":11200,"station_id":"ce4bhg12rcd13ifvqf70","pricing_plan_id":"cebpf4jnsgd1na2vs0mg"},{"bike_id":"4bb33cf8-ba2b-4943-9e07-00506ea3cdca","system_id":"levelo_inurba_marseille","lat":43.248117,"lon":5.374427,"is_reserved":false,"is_disabled":false,"rental_uris":{"android":"levelo://app?vid=4bb33cf8-ba2b-4943-9e07-00506ea3cdca","ios":"levelo://app?vid=4bb33cf8-ba2b-4943-9e07-00506ea3cdca"},"vehicle_type_id":"4","last_reported":1747433379,"current_range_meters":11200,"station_id":"ce4bhgh2rcd13ifvqfb0","pricing_plan_id":"cebpf4jnsgd1na2vs0mg"},{"bike_id":"e3b99155-a26a-490d-a8a8-2724e84f936b","system_id":"levelo_inurba_marseille","lat":43.30604,"lon":5.37227,"is_reserved":false,"is_disabled":false,"rental_uris":{"android":"levelo://app?vid=e3b99155-a26a-490d-a8a8-2724e84f936b","ios":"levelo://app?vid=e3b99155-a26a-490d-a8a8-2724e84f936b"},"vehicle_type_id":"4","last_reported":1747433379,"current_range_meters":11600,"station_id":"ce4bgqh2rcd13ifvqc4g","pricing_plan_id":"cebpf4jnsgd1na2vs0mg"},{"bike_id":"71a5abc1-f956-47fc-b070-898092ebe776","system_id":"levelo_inurba_marseille","lat":43.31487,"lon":5.37303,"is_reserved":false,"is_disabled":false,"rental_uris":{"android":"levelo://app?vid=71a5abc1-f956-47fc-b070-898092ebe776","ios":"levelo://app?vid=71a5abc1-f956-47fc-b070-898092ebe776"},"vehicle_type_id":"4","last_reported":1747433379,"current_range_meters":11600,"station_id":"ce4bgt12rcd13ifvqcd0","pricing_plan_id":"cebpf4jnsgd1na2vs0mg"},{"bike_id":"78199755-afb1-469f-8ef9-e063bff7ffe2","system_id":"levelo_inurba_marseille","lat":43.31166,"lon":5.38726,"is_reserved":false,"is_disabled":false,"rental_uris":{"android":"levelo://app?vid=78199755-afb1-469f-8ef9-e063bff7ffe2","ios":"levelo://app?vid=78199755-afb1-469f-8ef9-e063bff7ffe2"},"vehicle_type_id":"4","last_reported":1747433379,"current_range_meters":11600,"station_id":"ce4bgv12rcd13ifvqcp0","pricing_plan_id":"cebpf4jnsgd1na2vs0mg"},{"bike_id":"8987fbce-8a11-4f8c-b760-4938dd3e7003","system_id":"levelo_inurba_marseille","lat":43.24663,"lon":5.38161,"is_reserved":false,"is_disabled":false,"rental_uris":{"android":"levelo://app?vid=8987fbce-8a11-4f8c-b760-4938dd3e7003","ios":"levelo://app?vid=8987fbce-8a11-4f8c-b760-4938dd3e7003"},"vehicle_type_id":"4","last_reported":1747433379,"current_range_meters":11600,"station_id":"ce4bhih2rcd13ifvqfr0","pricing_plan_id":"cebpf4jnsgd1na2vs0mg"},{"bike_id":"f29a82b1-b1c6-469a-ad31-486669e75362","system_id":"levelo_inurba_marseille","lat":43.282315,"lon":5.3907,"is_reserved":false,"is_disabled":false,"rental_uris":{"android":"levelo://app?vid=f29a82b1-b1c6-469a-ad31-486669e75362","ios":"levelo://app?vid=f29a82b1-b1c6-469a-ad31-486669e75362"},"vehicle_type_id":"4","last_reported":1747433379,"current_range_meters":12000,"station_id":"","pricing_plan_id":"cebpf4jnsgd1na2vs0mg"},{"bike_id":"d0e9e561-52cf-4d86-a846-6563a71814a7","system_id":"levelo_inurba_marseille","lat":43.28683,"lon":5.38659,"is_reserved":false,"is_disabled":false,"rental_uris":{"android":"levelo://app?vid=d0e9e561-52cf-4d86-a846-6563a71814a7","ios":"levelo://app?vid=d0e9e561-52cf-4d86-a846-6563a71814a7"},"vehicle_type_id":"4","last_reported":1747433379,"current_range_meters":12000,"station_id":"ce4bh492rcd13ifvqdug","pricing_plan_id":"cebpf4jnsgd1na2vs0mg"},{"bike_id":"f45a477e-748a-43f5-adc9-3f473792f708","system_id":"levelo_inurba_marseille","lat":43.29019,"lon":5.3812,"is_reserved":false,"is_disabled":false,"rental_uris":{"android":"levelo://app?vid=f45a477e-748a-43f5-adc9-3f473792f708","ios":"levelo://app?vid=f45a477e-748a-43f5-adc9-3f473792f708"},"vehicle_type_id":"4","last_reported":1747433379,"current_range_meters":12000,"station_id":"ce4bh4p2rcd13ifvqe1g","pricing_plan_id":"cebpf4jnsgd1na2vs0mg"},{"bike_id":"8c096d36-b301-47ce-bf2e-0dfaa371183c","system_id":"levelo_inurba_marseille","lat":43.32287,"lon":5.38269,"is_reserved":false,"is_disabled":false,"rental_uris":{"android":"levelo://app?vid=8c096d36-b301-47ce-bf2e-0dfaa371183c","ios":"levelo://app?vid=8c096d36-b301-47ce-bf2e-0dfaa371183c"},"vehicle_type_id":"4","last_reported":1747433379,"current_range_meters":12000,"station_id":"ce4bhr12rcd13ifvqhqg","pricing_plan_id":"cebpf4jnsgd1na2vs0mg"},{"bike_id":"06fd2653-cc45-4799-9fd7-38fea29c613b","system_id":"levelo_inurba_marseille","lat":43.29905,"lon":5.38141,"is_reserved":false,"is_disabled":false,"rental_uris":{"android":"levelo://app?vid=06fd2653-cc45-4799-9fd7-38fea29c613b","ios":"levelo://app?vid=06fd2653-cc45-4799-9fd7-38fea29c613b"},"vehicle_type_id":"4","last_reported":1747433379,"current_range_meters":12400,"station_id":"","pricing_plan_id":"cebpf4jnsgd1na2vs0mg"},{"bike_id":"0373c9a2-9b2a-4d57-b104-2d14961208ac","system_id":"levelo_inurba_marseille","lat":43.29716,"lon":5.36592,"is_reserved":false,"is_disabled":false,"rental_uris":{"android":"levelo://app?vid=0373c9a2-9b2a-4d57-b104-2d14961208ac","ios":"levelo://app?vid=0373c9a2-9b2a-4d57-b104-2d14961208ac"},"vehicle_type_id":"4","last_reported":1747433379,"current_range_meters":12400,"station_id":"ce4bgn12rcd13ifvqbt0","pricing_plan_id":"cebpf4jnsgd1na2vs0mg"},{"bike_id":"6b22d085-5486-4c2f-8819-3b8733106875","system_id":"levelo_inurba_marseille","lat":43.29289,"lon":5.40108,"is_reserved":false,"is_disabled":false,"rental_uris":{"android":"levelo://app?vid=6b22d085-5486-4c2f-8819-3b8733106875","ios":"levelo://app?vid=6b22d085-5486-4c2f-8819-3b8733106875"},"vehicle_type_id":"4","last_reported":1747433379,"current_range_meters":12400,"station_id":"ce4bh312rcd13ifvqdk0","pricing_plan_id":"cebpf4jnsgd1na2vs0mg"},{"bike_id":"e5a2b069-efb7-48e5-8628-944f65ddff23","system_id":"levelo_inurba_marseille","lat":43.28411,"lon":5.37495,"is_reserved":false,"is_disabled":false,"rental_uris":{"android":"levelo://app?vid=e5a2b069-efb7-48e5-8628-944f65ddff23","ios":"levelo://app?vid=e5a2b069-efb7-48e5-8628-944f65ddff23"},"vehicle_type_id":"4","last_reported":1747433379,"current_range_meters":12400,"station_id":"ce4bh412rcd13ifvqds0","pricing_plan_id":"cebpf4jnsgd1na2vs0mg"},{"bike_id":"af44d4a3-d6a4-4f2a-9ee4-ed38f31a9dc5","system_id":"levelo_inurba_marseille","lat":43.24804,"lon":5.37443,"is_reserved":false,"is_disabled":false,"rental_uris":{"android":"levelo://app?vid=af44d4a3-d6a4-4f2a-9ee4-ed38f31a9dc5","ios":"levelo://app?vid=af44d4a3-d6a4-4f2a-9ee4-ed38f31a9dc5"},"vehicle_type_id":"4","last_reported":1747433379,"current_range_meters":12400,"station_id":"ce4bhgh2rcd13ifvqfb0","pricing_plan_id":"cebpf4jnsgd1na2vs0mg"},{"bike_id":"04a18447-2884-4855-b162-74adb2e2d419","system_id":"levelo_inurba_marseille","lat":43.24546,"lon":5.39522,"is_reserved":false,"is_disabled":false,"rental_uris":{"android":"levelo://app?vid=04a18447-2884-4855-b162-74adb2e2d419","ios":"levelo://app?vid=04a18447-2884-4855-b162-74adb2e2d419"},"vehicle_type_id":"4","last_reported":1747433379,"current_range_meters":12400,"station_id":"ce4bhlp2rcd13ifvqgjg","pricing_plan_id":"cebpf4jnsgd1na2vs0mg"},{"bike_id":"6ef1405f-7d64-49f6-949c-4cafd3e7a2da","system_id":"levelo_inurba_marseille","lat":43.30794,"lon":5.38153,"is_reserved":false,"is_disabled":false,"rental_uris":{"android":"levelo://app?vid=6ef1405f-7d64-49f6-949c-4cafd3e7a2da","ios":"levelo://app?vid=6ef1405f-7d64-49f6-949c-4cafd3e7a2da"},"vehicle_type_id":"4","last_reported":1747433379,"current_range_meters":12800,"station_id":"ce4bgt12rcd13ifvqce0","pricing_plan_id":"cebpf4jnsgd1na2vs0mg"},{"bike_id":"43570bb9-eac0-4ca2-91de-eda0f9fa952f","system_id":"levelo_inurba_marseille","lat":43.30641,"lon":5.4009,"is_reserved":false,"is_disabled":false,"rental_uris":{"android":"levelo://app?vid=43570bb9-eac0-4ca2-91de-eda0f9fa952f","ios":"levelo://app?vid=43570bb9-eac0-4ca2-91de-eda0f9fa952f"},"vehicle_type_id":"4","last_reported":1747433379,"current_range_meters":12800,"station_id":"ce4bh112rcd13ifvqda0","pricing_plan_id":"cebpf4jnsgd1na2vs0mg"},{"bike_id":"902fc8aa-d543-4644-8982-b961d5751a28","system_id":"levelo_inurba_marseille","lat":43.29039,"lon":5.39948,"is_reserved":false,"is_disabled":false,"rental_uris":{"android":"levelo://app?vid=902fc8aa-d543-4644-8982-b961d5751a28","ios":"levelo://app?vid=902fc8aa-d543-4644-8982-b961d5751a28"},"vehicle_type_id":"4","last_reported":1747433379,"current_range_meters":12800,"station_id":"ce4bh392rcd13ifvqdm0","pricing_plan_id":"cebpf4jnsgd1na2vs0mg"},{"bike_id":"ea0f1347-e44f-441b-92ab-c6214413c0cc","system_id":"levelo_inurba_marseille","lat":43.32112,"lon":5.36773,"is_reserved":false,"is_disabled":false,"rental_uris":{"android":"levelo://app?vid=ea0f1347-e44f-441b-92ab-c6214413c0cc","ios":"levelo://app?vid=ea0f1347-e44f-441b-92ab-c6214413c0cc"},"vehicle_type_id":"4","last_reported":1747433379,"current_range_meters":13600,"station_id":"ce4bhrh2rcd13ifvqhug","pricing_plan_id":"cebpf4jnsgd1na2vs0mg"},{"bike_id":"7f0f0eb1-eb6a-48f0-b4c4-ba8877209c3a","system_id":"levelo_inurba_marseille","lat":43.27198,"lon":5.36509,"is_reserved":false,"is_disabled":false,"rental_uris":{"android":"levelo://app?vid=7f0f0eb1-eb6a-48f0-b4c4-ba8877209c3a","ios":"levelo://app?vid=7f0f0eb1-eb6a-48f0-b4c4-ba8877209c3a"},"vehicle_type_id":"4","last_reported":1747433379,"current_range_meters":14000,"station_id":"","pricing_plan_id":"cebpf4jnsgd1na2vs0mg"},{"bike_id":"6a232314-5021-4775-9bcd-999efbac5a48","system_id":"levelo_inurba_marseille","lat":43.30794,"lon":5.38143,"is_reserved":false,"is_disabled":false,"rental_uris":{"android":"levelo://app?vid=6a232314-5021-4775-9bcd-999efbac5a48","ios":"levelo://app?vid=6a232314-5021-4775-9bcd-999efbac5a48"},"vehicle_type_id":"4","last_reported":1747433379,"current_range_meters":14000,"station_id":"ce4bgt12rcd13ifvqce0","pricing_plan_id":"cebpf4jnsgd1na2vs0mg"},{"bike_id":"51b14f2c-a860-4537-9033-48a7ce05506e","system_id":"levelo_inurba_marseille","lat":43.30932,"lon":5.40141,"is_reserved":false,"is_disabled":false,"rental_uris":{"android":"levelo://app?vid=51b14f2c-a860-4537-9033-48a7ce05506e","ios":"levelo://app?vid=51b14f2c-a860-4537-9033-48a7ce05506e"},"vehicle_type_id":"4","last_reported":1747433379,"current_range_meters":14000,"station_id":"ce4bgvp2rcd13ifvqct0","pricing_plan_id":"cebpf4jnsgd1na2vs0mg"},{"bike_id":"6da655b8-0421-4e8a-ae32-6637af746f6a","system_id":"levelo_inurba_marseille","lat":43.26825,"lon":5.411103,"is_reserved":false,"is_disabled":false,"rental_uris":{"android":"levelo://app?vid=6da655b8-0421-4e8a-ae32-6637af746f6a","ios":"levelo://app?vid=6da655b8-0421-4e8a-ae32-6637af746f6a"},"vehicle_type_id":"4","last_reported":1747433379,"current_range_meters":14400,"station_id":"","pricing_plan_id":"cebpf4jnsgd1na2vs0mg"},{"bike_id":"98a6622d-8d17-481b-9efe-a7755df3fbf6","system_id":"levelo_inurba_marseille","lat":43.29037,"lon":5.39968,"is_reserved":false,"is_disabled":false,"rental_uris":{"android":"levelo://app?vid=98a6622d-8d17-481b-9efe-a7755df3fbf6","ios":"levelo://app?vid=98a6622d-8d17-481b-9efe-a7755df3fbf6"},"vehicle_type_id":"4","last_reported":1747433379,"current_range_meters":14400,"station_id":"ce4bh392rcd13ifvqdm0","pricing_plan_id":"cebpf4jnsgd1na2vs0mg"},{"bike_id":"770e5e16-de24-4200-8062-b84849f44714","system_id":"levelo_inurba_marseille","lat":43.27058,"lon":5.42295,"is_reserved":false,"is_disabled":false,"rental_uris":{"android":"levelo://app?vid=770e5e16-de24-4200-8062-b84849f44714","ios":"levelo://app?vid=770e5e16-de24-4200-8062-b84849f44714"},"vehicle_type_id":"4","last_reported":1747433379,"current_range_meters":14400,"station_id":"ce4bhk92rcd13ifvqgb0","pricing_plan_id":"cebpf4jnsgd1na2vs0mg"},{"bike_id":"852ea9ac-6507-488a-87c5-b27d54b34b2e","system_id":"levelo_inurba_marseille","lat":43.28156,"lon":5.42659,"is_reserved":false,"is_disabled":false,"rental_uris":{"android":"levelo://app?vid=852ea9ac-6507-488a-87c5-b27d54b34b2e","ios":"levelo://app?vid=852ea9ac-6507-488a-87c5-b27d54b34b2e"},"vehicle_type_id":"4","last_reported":1747433379,"current_range_meters":14400,"station_id":"ce4bhnh2rcd13ifvqgug","pricing_plan_id":"cebpf4jnsgd1na2vs0mg"},{"bike_id":"b070215d-ff5f-434b-81f2-ffad7a3caed9","system_id":"levelo_inurba_marseille","lat":43.31117,"lon":5.37769,"is_reserved":false,"is_disabled":false,"rental_uris":{"android":"levelo://app?vid=b070215d-ff5f-434b-81f2-ffad7a3caed9","ios":"levelo://app?vid=b070215d-ff5f-434b-81f2-ffad7a3caed9"},"vehicle_type_id":"4","last_reported":1747433379,"current_range_meters":14800,"station_id":"ce4bgt92rcd13ifvqcg0","pricing_plan_id":"cebpf4jnsgd1na2vs0mg"},{"bike_id":"aeca2e96-8dc6-4af9-a31e-df7f2249e0ec","system_id":"levelo_inurba_marseille","lat":43.27974,"lon":5.3874,"is_reserved":false,"is_disabled":false,"rental_uris":{"android":"levelo://app?vid=aeca2e96-8dc6-4af9-a31e-df7f2249e0ec","ios":"levelo://app?vid=aeca2e96-8dc6-4af9-a31e-df7f2249e0ec"},"vehicle_type_id":"4","last_reported":1747433379,"current_range_meters":14800,"station_id":"ce4bhg12rcd13ifvqf80","pricing_plan_id":"cebpf4jnsgd1na2vs0mg"},{"bike_id":"eebf0417-4098-4672-a6ae-d82fc3dc3062","system_id":"levelo_inurba_marseille","lat":43.29727,"lon":5.37684,"is_reserved":false,"is_disabled":false,"rental_uris":{"android":"levelo://app?vid=eebf0417-4098-4672-a6ae-d82fc3dc3062","ios":"levelo://app?vid=eebf0417-4098-4672-a6ae-d82fc3dc3062"},"vehicle_type_id":"4","last_reported":1747433379,"current_range_meters":16000,"station_id":"ce4bgkh2rcd13ifvqbl0","pricing_plan_id":"cebpf4jnsgd1na2vs0mg"},{"bike_id":"719b9c0f-b4b9-48f2-ba06-24f392ec6574","system_id":"levelo_inurba_marseille","lat":43.29036,"lon":5.39969,"is_reserved":false,"is_disabled":false,"rental_uris":{"android":"levelo://app?vid=719b9c0f-b4b9-48f2-ba06-24f392ec6574","ios":"levelo://app?vid=719b9c0f-b4b9-48f2-ba06-24f392ec6574"},"vehicle_type_id":"4","last_reported":1747433379,"current_range_meters":16000,"station_id":"ce4bh392rcd13ifvqdm0","pricing_plan_id":"cebpf4jnsgd1na2vs0mg"},{"bike_id":"c96873c1-07ae-4fa5-9d39-77223fea8e8c","system_id":"levelo_inurba_marseille","lat":43.24075,"lon":5.37764,"is_reserved":false,"is_disabled":false,"rental_uris":{"android":"levelo://app?vid=c96873c1-07ae-4fa5-9d39-77223fea8e8c","ios":"levelo://app?vid=c96873c1-07ae-4fa5-9d39-77223fea8e8c"},"vehicle_type_id":"4","last_reported":1747433379,"current_range_meters":16000,"station_id":"ce4bhnp2rcd13ifvqgvg","pricing_plan_id":"cebpf4jnsgd1na2vs0mg"},{"bike_id":"aafe78a6-692c-4e55-8bb8-4da8ee7b3518","system_id":"levelo_inurba_marseille","lat":43.28715,"lon":5.39972,"is_reserved":false,"is_disabled":false,"rental_uris":{"android":"levelo://app?vid=aafe78a6-692c-4e55-8bb8-4da8ee7b3518","ios":"levelo://app?vid=aafe78a6-692c-4e55-8bb8-4da8ee7b3518"},"vehicle_type_id":"4","last_reported":1747433379,"current_range_meters":16000,"station_id":"ce4bho92rcd13ifvqh3g","pricing_plan_id":"cebpf4jnsgd1na2vs0mg"},{"bike_id":"b8e6468b-87db-4ff6-8122-ef13bf5b7c8c","system_id":"levelo_inurba_marseille","lat":43.306091,"lon":5.372397,"is_reserved":false,"is_disabled":false,"rental_uris":{"android":"levelo://app?vid=b8e6468b-87db-4ff6-8122-ef13bf5b7c8c","ios":"levelo://app?vid=b8e6468b-87db-4ff6-8122-ef13bf5b7c8c"},"vehicle_type_id":"4","last_reported":1747433379,"current_range_meters":16400,"station_id":"ce4bgqh2rcd13ifvqc4g","pricing_plan_id":"cebpf4jnsgd1na2vs0mg"},{"bike_id":"8dd8c9c1-7860-4e64-89cd-2175b58b9999","system_id":"levelo_inurba_marseille","lat":43.30617,"lon":5.37219,"is_reserved":false,"is_disabled":false,"rental_uris":{"android":"levelo://app?vid=8dd8c9c1-7860-4e64-89cd-2175b58b9999","ios":"levelo://app?vid=8dd8c9c1-7860-4e64-89cd-2175b58b9999"},"vehicle_type_id":"4","last_reported":1747433379,"current_range_meters":16400,"station_id":"ce4bgqh2rcd13ifvqc4g","pricing_plan_id":"cebpf4jnsgd1na2vs0mg"},{"bike_id":"d199364e-35af-4b3a-a007-99d1c3c37fdc","system_id":"levelo_inurba_marseille","lat":43.29868,"lon":5.39729,"is_reserved":false,"is_disabled":false,"rental_uris":{"android":"levelo://app?vid=d199364e-35af-4b3a-a007-99d1c3c37fdc","ios":"levelo://app?vid=d199364e-35af-4b3a-a007-99d1c3c37fdc"},"vehicle_type_id":"4","last_reported":1747433379,"current_range_meters":16400,"station_id":"ce4bh0h2rcd13ifvqd50","pricing_plan_id":"cebpf4jnsgd1na2vs0mg"},{"bike_id":"288f89f4-8eed-4a41-a712-962b892f85ce","system_id":"levelo_inurba_marseille","lat":43.29211,"lon":5.39331,"is_reserved":false,"is_disabled":false,"rental_uris":{"android":"levelo://app?vid=288f89f4-8eed-4a41-a712-962b892f85ce","ios":"levelo://app?vid=288f89f4-8eed-4a41-a712-962b892f85ce"},"vehicle_type_id":"4","last_reported":1747433379,"current_range_meters":16400,"station_id":"ce4bh192rcd13ifvqdd0","pricing_plan_id":"cebpf4jnsgd1na2vs0mg"},{"bike_id":"2e3efa5b-3d73-42ec-a1b3-d28bd20ab283","system_id":"levelo_inurba_marseille","lat":43.29512,"lon":5.39392,"is_reserved":false,"is_disabled":false,"rental_uris":{"android":"levelo://app?vid=2e3efa5b-3d73-42ec-a1b3-d28bd20ab283","ios":"levelo://app?vid=2e3efa5b-3d73-42ec-a1b3-d28bd20ab283"},"vehicle_type_id":"4","last_reported":1747433379,"current_range_meters":16400,"station_id":"ce4bh292rcd13ifvqdf0","pricing_plan_id":"cebpf4jnsgd1na2vs0mg"},{"bike_id":"0f83cc98-af73-46f0-89c1-2dc91177d168","system_id":"levelo_inurba_marseille","lat":43.2953,"lon":5.39394,"is_reserved":false,"is_disabled":false,"rental_uris":{"android":"levelo://app?vid=0f83cc98-af73-46f0-89c1-2dc91177d168","ios":"levelo://app?vid=0f83cc98-af73-46f0-89c1-2dc91177d168"},"vehicle_type_id":"4","last_reported":1747433379,"current_range_meters":16400,"station_id":"ce4bh292rcd13ifvqdf0","pricing_plan_id":"cebpf4jnsgd1na2vs0mg"},{"bike_id":"e7acf511-3f24-493a-b204-29d6dc4fb380","system_id":"levelo_inurba_marseille","lat":43.28925,"lon":5.38385,"is_reserved":false,"is_disabled":false,"rental_uris":{"android":"levelo://app?vid=e7acf511-3f24-493a-b204-29d6dc4fb380","ios":"levelo://app?vid=e7acf511-3f24-493a-b204-29d6dc4fb380"},"vehicle_type_id":"4","last_reported":1747433379,"current_range_meters":16400,"station_id":"ce4bh612rcd13ifvqe6g","pricing_plan_id":"cebpf4jnsgd1na2vs0mg"},{"bike_id":"ff73f50f-d4f6-452f-b8c5-c3e016c11039","system_id":"levelo_inurba_marseille","lat":43.265769,"lon":5.390041,"is_reserved":false,"is_disabled":false,"rental_uris":{"android":"levelo://app?vid=ff73f50f-d4f6-452f-b8c5-c3e016c11039","ios":"levelo://app?vid=ff73f50f-d4f6-452f-b8c5-c3e016c11039"},"vehicle_type_id":"4","last_reported":1747433379,"current_range_meters":16400,"station_id":"ce4bhe12rcd13ifvqf30","pricing_plan_id":"cebpf4jnsgd1na2vs0mg"},{"bike_id":"844e0845-2667-404b-9f3a-f80940d0cad3","system_id":"levelo_inurba_marseille","lat":43.2481,"lon":5.37446,"is_reserved":false,"is_disabled":false,"rental_uris":{"android":"levelo://app?vid=844e0845-2667-404b-9f3a-f80940d0cad3","ios":"levelo://app?vid=844e0845-2667-404b-9f3a-f80940d0cad3"},"vehicle_type_id":"4","last_reported":1747433379,"current_range_meters":16400,"station_id":"ce4bhgh2rcd13ifvqfb0","pricing_plan_id":"cebpf4jnsgd1na2vs0mg"},{"bike_id":"8f3e1b73-13b1-41ed-a38e-5ae08ebea216","system_id":"levelo_inurba_marseille","lat":43.25728,"lon":5.41107,"is_reserved":false,"is_disabled":false,"rental_uris":{"android":"levelo://app?vid=8f3e1b73-13b1-41ed-a38e-5ae08ebea216","ios":"levelo://app?vid=8f3e1b73-13b1-41ed-a38e-5ae08ebea216"},"vehicle_type_id":"4","last_reported":1747433379,"current_range_meters":16400,"station_id":"ce4bhkp2rcd13ifvqgd0","pricing_plan_id":"cebpf4jnsgd1na2vs0mg"},{"bike_id":"1d112126-9107-408f-b476-5dd6e8f7b0c1","system_id":"levelo_inurba_marseille","lat":43.25085,"lon":5.39529,"is_reserved":false,"is_disabled":false,"rental_uris":{"android":"levelo://app?vid=1d112126-9107-408f-b476-5dd6e8f7b0c1","ios":"levelo://app?vid=1d112126-9107-408f-b476-5dd6e8f7b0c1"},"vehicle_type_id":"4","last_reported":1747433379,"current_range_meters":16400,"station_id":"ce4bhm12rcd13ifvqgkg","pricing_plan_id":"cebpf4jnsgd1na2vs0mg"},{"bike_id":"51f297bc-777b-4d37-b798-77fe30c8264a","system_id":"levelo_inurba_marseille","lat":43.28706,"lon":5.3997,"is_reserved":false,"is_disabled":false,"rental_uris":{"android":"levelo://app?vid=51f297bc-777b-4d37-b798-77fe30c8264a","ios":"levelo://app?vid=51f297bc-777b-4d37-b798-77fe30c8264a"},"vehicle_type_id":"4","last_reported":1747433379,"current_range_meters":16400,"station_id":"ce4bho92rcd13ifvqh3g","pricing_plan_id":"cebpf4jnsgd1na2vs0mg"},{"bike_id":"d9b504ee-8007-4760-a4a1-f54f52b040ce","system_id":"levelo_inurba_marseille","lat":43.30294,"lon":5.37297,"is_reserved":false,"is_disabled":false,"rental_uris":{"android":"levelo://app?vid=d9b504ee-8007-4760-a4a1-f54f52b040ce","ios":"levelo://app?vid=d9b504ee-8007-4760-a4a1-f54f52b040ce"},"vehicle_type_id":"4","last_reported":1747433379,"current_range_meters":16800,"station_id":"","pricing_plan_id":"cebpf4jnsgd1na2vs0mg"},{"bike_id":"c582e56c-e784-4f21-84e9-b4602855c00d","system_id":"levelo_inurba_marseille","lat":43.31169,"lon":5.38713,"is_reserved":false,"is_disabled":false,"rental_uris":{"android":"levelo://app?vid=c582e56c-e784-4f21-84e9-b4602855c00d","ios":"levelo://app?vid=c582e56c-e784-4f21-84e9-b4602855c00d"},"vehicle_type_id":"4","last_reported":1747433379,"current_range_meters":16800,"station_id":"ce4bgv12rcd13ifvqcp0","pricing_plan_id":"cebpf4jnsgd1na2vs0mg"},{"bike_id":"d3d00320-3628-4932-9814-aaa2e9027982","system_id":"levelo_inurba_marseille","lat":43.29866,"lon":5.39733,"is_reserved":false,"is_disabled":false,"rental_uris":{"android":"levelo://app?vid=d3d00320-3628-4932-9814-aaa2e9027982","ios":"levelo://app?vid=d3d00320-3628-4932-9814-aaa2e9027982"},"vehicle_type_id":"4","last_reported":1747433379,"current_range_meters":16800,"station_id":"ce4bh0h2rcd13ifvqd50","pricing_plan_id":"cebpf4jnsgd1na2vs0mg"},{"bike_id":"64412dda-b0d1-4ef6-a22c-a0baccfcc14f","system_id":"levelo_inurba_marseille","lat":43.28466,"lon":5.35885,"is_reserved":false,"is_disabled":false,"rental_uris":{"android":"levelo://app?vid=64412dda-b0d1-4ef6-a22c-a0baccfcc14f","ios":"levelo://app?vid=64412dda-b0d1-4ef6-a22c-a0baccfcc14f"},"vehicle_type_id":"4","last_reported":1747433379,"current_range_meters":16800,"station_id":"ce4bhah2rcd13ifvqei0","pricing_plan_id":"cebpf4jnsgd1na2vs0mg"},{"bike_id":"6fe716ec-3e66-40a0-90cd-a86ee2fdef59","system_id":"levelo_inurba_marseille","lat":43.321105,"lon":5.367654,"is_reserved":false,"is_disabled":false,"rental_uris":{"android":"levelo://app?vid=6fe716ec-3e66-40a0-90cd-a86ee2fdef59","ios":"levelo://app?vid=6fe716ec-3e66-40a0-90cd-a86ee2fdef59"},"vehicle_type_id":"4","last_reported":1747433379,"current_range_meters":16800,"station_id":"ce4bhrh2rcd13ifvqhug","pricing_plan_id":"cebpf4jnsgd1na2vs0mg"},{"bike_id":"c10184a0-7467-4592-952f-14b5c01dfbb9","system_id":"levelo_inurba_marseille","lat":43.31468,"lon":5.36878,"is_reserved":false,"is_disabled":false,"rental_uris":{"android":"levelo://app?vid=c10184a0-7467-4592-952f-14b5c01dfbb9","ios":"levelo://app?vid=c10184a0-7467-4592-952f-14b5c01dfbb9"},"vehicle_type_id":"4","last_reported":1747433379,"current_range_meters":17200,"station_id":"","pricing_plan_id":"cebpf4jnsgd1na2vs0mg"},{"bike_id":"a0ac4423-715a-40c9-bc6f-79593492d236","system_id":"levelo_inurba_marseille","lat":43.31328,"lon":5.39694,"is_reserved":false,"is_disabled":false,"rental_uris":{"android":"levelo://app?vid=a0ac4423-715a-40c9-bc6f-79593492d236","ios":"levelo://app?vid=a0ac4423-715a-40c9-bc6f-79593492d236"},"vehicle_type_id":"4","last_reported":1747433379,"current_range_meters":17200,"station_id":"ce4bgvp2rcd13ifvqcu0","pricing_plan_id":"cebpf4jnsgd1na2vs0mg"},{"bike_id":"7c8d35e7-9d1b-4a08-bc78-84a12855942a","system_id":"levelo_inurba_marseille","lat":43.28411,"lon":5.37523,"is_reserved":false,"is_disabled":false,"rental_uris":{"android":"levelo://app?vid=7c8d35e7-9d1b-4a08-bc78-84a12855942a","ios":"levelo://app?vid=7c8d35e7-9d1b-4a08-bc78-84a12855942a"},"vehicle_type_id":"4","last_reported":1747433379,"current_range_meters":17200,"station_id":"ce4bh412rcd13ifvqds0","pricing_plan_id":"cebpf4jnsgd1na2vs0mg"},{"bike_id":"465ca380-6a0b-4a53-aac8-6d66ff8ad361","system_id":"levelo_inurba_marseille","lat":43.27917,"lon":5.39576,"is_reserved":false,"is_disabled":false,"rental_uris":{"android":"levelo://app?vid=465ca380-6a0b-4a53-aac8-6d66ff8ad361","ios":"levelo://app?vid=465ca380-6a0b-4a53-aac8-6d66ff8ad361"},"vehicle_type_id":"4","last_reported":1747433379,"current_range_meters":17200,"station_id":"ce4bhf92rcd13ifvqf40","pricing_plan_id":"cebpf4jnsgd1na2vs0mg"},{"bike_id":"e96b150c-37ca-4a1a-b8fa-f96f7d6ca385","system_id":"levelo_inurba_marseille","lat":43.248063,"lon":5.374605,"is_reserved":false,"is_disabled":false,"rental_uris":{"android":"levelo://app?vid=e96b150c-37ca-4a1a-b8fa-f96f7d6ca385","ios":"levelo://app?vid=e96b150c-37ca-4a1a-b8fa-f96f7d6ca385"},"vehicle_type_id":"4","last_reported":1747433379,"current_range_meters":17200,"station_id":"ce4bhgh2rcd13ifvqfb0","pricing_plan_id":"cebpf4jnsgd1na2vs0mg"},{"bike_id":"4d1cf4a3-08e0-47ac-8a9d-b725ef84f0ea","system_id":"levelo_inurba_marseille","lat":43.24395,"lon":5.37062,"is_reserved":false,"is_disabled":false,"rental_uris":{"android":"levelo://app?vid=4d1cf4a3-08e0-47ac-8a9d-b725ef84f0ea","ios":"levelo://app?vid=4d1cf4a3-08e0-47ac-8a9d-b725ef84f0ea"},"vehicle_type_id":"4","last_reported":1747433379,"current_range_meters":17200,"station_id":"ce4bhhh2rcd13ifvqfk0","pricing_plan_id":"cebpf4jnsgd1na2vs0mg"},{"bike_id":"c721b5a3-2e8c-48be-86db-c2b48bfbe8c0","system_id":"levelo_inurba_marseille","lat":43.232,"lon":5.39982,"is_reserved":false,"is_disabled":false,"rental_uris":{"android":"levelo://app?vid=c721b5a3-2e8c-48be-86db-c2b48bfbe8c0","ios":"levelo://app?vid=c721b5a3-2e8c-48be-86db-c2b48bfbe8c0"},"vehicle_type_id":"4","last_reported":1747433379,"current_range_meters":17200,"station_id":"ce4bhn12rcd13ifvqgqg","pricing_plan_id":"cebpf4jnsgd1na2vs0mg"},{"bike_id":"3f1f80f2-74b8-4b50-8e33-883290c5e268","system_id":"levelo_inurba_marseille","lat":43.23183,"lon":5.39944,"is_reserved":false,"is_disabled":false,"rental_uris":{"android":"levelo://app?vid=3f1f80f2-74b8-4b50-8e33-883290c5e268","ios":"levelo://app?vid=3f1f80f2-74b8-4b50-8e33-883290c5e268"},"vehicle_type_id":"4","last_reported":1747433379,"current_range_meters":17200,"station_id":"ce4bhn12rcd13ifvqgqg","pricing_plan_id":"cebpf4jnsgd1na2vs0mg"},{"bike_id":"f821e2a0-fd4a-41e7-8a26-c977558ea037","system_id":"levelo_inurba_marseille","lat":43.32548,"lon":5.41442,"is_reserved":false,"is_disabled":false,"rental_uris":{"android":"levelo://app?vid=f821e2a0-fd4a-41e7-8a26-c977558ea037","ios":"levelo://app?vid=f821e2a0-fd4a-41e7-8a26-c977558ea037"},"vehicle_type_id":"4","last_reported":1747433379,"current_range_meters":17200,"station_id":"ce4bhq12rcd13ifvqhhg","pricing_plan_id":"cebpf4jnsgd1na2vs0mg"},{"bike_id":"8f600fbf-ec68-4624-9822-6cce2bd50be5","system_id":"levelo_inurba_marseille","lat":43.32536,"lon":5.42838,"is_reserved":false,"is_disabled":false,"rental_uris":{"android":"levelo://app?vid=8f600fbf-ec68-4624-9822-6cce2bd50be5","ios":"levelo://app?vid=8f600fbf-ec68-4624-9822-6cce2bd50be5"},"vehicle_type_id":"4","last_reported":1747433379,"current_range_meters":17600,"station_id":"","pricing_plan_id":"cebpf4jnsgd1na2vs0mg"},{"bike_id":"512db903-9559-40c7-8902-6a98e3c8c53c","system_id":"levelo_inurba_marseille","lat":43.3294,"lon":5.39001,"is_reserved":false,"is_disabled":false,"rental_uris":{"android":"levelo://app?vid=512db903-9559-40c7-8902-6a98e3c8c53c","ios":"levelo://app?vid=512db903-9559-40c7-8902-6a98e3c8c53c"},"vehicle_type_id":"4","last_reported":1747433379,"current_range_meters":17600,"station_id":"","pricing_plan_id":"cebpf4jnsgd1na2vs0mg"},{"bike_id":"194f17c8-93f0-4ff7-9d7b-60238225a3ec","system_id":"levelo_inurba_marseille","lat":43.26167,"lon":5.42067,"is_reserved":false,"is_disabled":false,"rental_uris":{"android":"levelo://app?vid=194f17c8-93f0-4ff7-9d7b-60238225a3ec","ios":"levelo://app?vid=194f17c8-93f0-4ff7-9d7b-60238225a3ec"},"vehicle_type_id":"4","last_reported":1747433379,"current_range_meters":17600,"station_id":"","pricing_plan_id":"cebpf4jnsgd1na2vs0mg"},{"bike_id":"cafeaa63-6bfa-41e6-af33-ffbf29992bf0","system_id":"levelo_inurba_marseille","lat":43.30777,"lon":5.37649,"is_reserved":false,"is_disabled":false,"rental_uris":{"android":"levelo://app?vid=cafeaa63-6bfa-41e6-af33-ffbf29992bf0","ios":"levelo://app?vid=cafeaa63-6bfa-41e6-af33-ffbf29992bf0"},"vehicle_type_id":"4","last_reported":1747433379,"current_range_meters":18000,"station_id":"ce4bgv92rcd13ifvqcq0","pricing_plan_id":"cebpf4jnsgd1na2vs0mg"},{"bike_id":"d9484bc6-cded-4892-b91b-62c4ddcf7e0d","system_id":"levelo_inurba_marseille","lat":43.30885,"lon":5.39636,"is_reserved":false,"is_disabled":false,"rental_uris":{"android":"levelo://app?vid=d9484bc6-cded-4892-b91b-62c4ddcf7e0d","ios":"levelo://app?vid=d9484bc6-cded-4892-b91b-62c4ddcf7e0d"},"vehicle_type_id":"4","last_reported":1747433379,"current_range_meters":18000,"station_id":"ce4bh012rcd13ifvqcv0","pricing_plan_id":"cebpf4jnsgd1na2vs0mg"},{"bike_id":"86c832c5-9a03-4a84-82ff-03a412f37003","system_id":"levelo_inurba_marseille","lat":43.30324,"lon":5.40433,"is_reserved":false,"is_disabled":false,"rental_uris":{"android":"levelo://app?vid=86c832c5-9a03-4a84-82ff-03a412f37003","ios":"levelo://app?vid=86c832c5-9a03-4a84-82ff-03a412f37003"},"vehicle_type_id":"4","last_reported":1747433379,"current_range_meters":18000,"station_id":"ce4bh012rcd13ifvqd10","pricing_plan_id":"cebpf4jnsgd1na2vs0mg"},{"bike_id":"712f1c4d-f153-4002-ad59-f4eda49ba117","system_id":"levelo_inurba_marseille","lat":43.23184,"lon":5.3998,"is_reserved":false,"is_disabled":false,"rental_uris":{"android":"levelo://app?vid=712f1c4d-f153-4002-ad59-f4eda49ba117","ios":"levelo://app?vid=712f1c4d-f153-4002-ad59-f4eda49ba117"},"vehicle_type_id":"4","last_reported":1747433379,"current_range_meters":18000,"station_id":"ce4bhn12rcd13ifvqgqg","pricing_plan_id":"cebpf4jnsgd1na2vs0mg"},{"bike_id":"6959522a-bd59-4233-a378-b798da685450","system_id":"levelo_inurba_marseille","lat":43.241617,"lon":5.363907,"is_reserved":false,"is_disabled":false,"rental_uris":{"android":"levelo://app?vid=6959522a-bd59-4233-a378-b798da685450","ios":"levelo://app?vid=6959522a-bd59-4233-a378-b798da685450"},"vehicle_type_id":"4","last_reported":1747433379,"current_range_meters":18000,"station_id":"cpo36qri1sfpv3e86is0","pricing_plan_id":"cebpf4jnsgd1na2vs0mg"},{"bike_id":"cb9f5890-6449-4bd1-8a7f-cdbaa51021ed","system_id":"levelo_inurba_marseille","lat":43.30462,"lon":5.37896,"is_reserved":false,"is_disabled":false,"rental_uris":{"android":"levelo://app?vid=cb9f5890-6449-4bd1-8a7f-cdbaa51021ed","ios":"levelo://app?vid=cb9f5890-6449-4bd1-8a7f-cdbaa51021ed"},"vehicle_type_id":"4","last_reported":1747433379,"current_range_meters":18800,"station_id":"ce4bgup2rcd13ifvqcn0","pricing_plan_id":"cebpf4jnsgd1na2vs0mg"},{"bike_id":"5be532b7-33df-4806-96e9-0484f0dc30b3","system_id":"levelo_inurba_marseille","lat":43.292614,"lon":5.384318,"is_reserved":false,"is_disabled":false,"rental_uris":{"android":"levelo://app?vid=5be532b7-33df-4806-96e9-0484f0dc30b3","ios":"levelo://app?vid=5be532b7-33df-4806-96e9-0484f0dc30b3"},"vehicle_type_id":"4","last_reported":1747433379,"current_range_meters":18800,"station_id":"ce4bh692rcd13ifvqea0","pricing_plan_id":"cebpf4jnsgd1na2vs0mg"},{"bike_id":"4eafee09-44c7-4798-951b-631df3d89494","system_id":"levelo_inurba_marseille","lat":43.28713,"lon":5.37966,"is_reserved":false,"is_disabled":false,"rental_uris":{"android":"levelo://app?vid=4eafee09-44c7-4798-951b-631df3d89494","ios":"levelo://app?vid=4eafee09-44c7-4798-951b-631df3d89494"},"vehicle_type_id":"4","last_reported":1747433379,"current_range_meters":18800,"station_id":"ce4bh9p2rcd13ifvqec0","pricing_plan_id":"cebpf4jnsgd1na2vs0mg"},{"bike_id":"1661604a-9bca-4039-8b7f-16a7fdafdd90","system_id":"levelo_inurba_marseille","lat":43.25714,"lon":5.41084,"is_reserved":false,"is_disabled":false,"rental_uris":{"android":"levelo://app?vid=1661604a-9bca-4039-8b7f-16a7fdafdd90","ios":"levelo://app?vid=1661604a-9bca-4039-8b7f-16a7fdafdd90"},"vehicle_type_id":"4","last_reported":1747433379,"current_range_meters":18800,"station_id":"ce4bhkp2rcd13ifvqgd0","pricing_plan_id":"cebpf4jnsgd1na2vs0mg"},{"bike_id":"b26a0dd7-cbdc-4ab7-8def-31c4b88b224a","system_id":"levelo_inurba_marseille","lat":43.31223,"lon":5.39265,"is_reserved":false,"is_disabled":false,"rental_uris":{"android":"levelo://app?vid=b26a0dd7-cbdc-4ab7-8def-31c4b88b224a","ios":"levelo://app?vid=b26a0dd7-cbdc-4ab7-8def-31c4b88b224a"},"vehicle_type_id":"4","last_reported":1747433379,"current_range_meters":19200,"station_id":"","pricing_plan_id":"cebpf4jnsgd1na2vs0mg"},{"bike_id":"4f12897c-2286-4ff6-8b08-c0a318ab8550","system_id":"levelo_inurba_marseille","lat":43.31356,"lon":5.38489,"is_reserved":false,"is_disabled":false,"rental_uris":{"android":"levelo://app?vid=4f12897c-2286-4ff6-8b08-c0a318ab8550","ios":"levelo://app?vid=4f12897c-2286-4ff6-8b08-c0a318ab8550"},"vehicle_type_id":"4","last_reported":1747433379,"current_range_meters":19200,"station_id":"ce4bgt92rcd13ifvqcf0","pricing_plan_id":"cebpf4jnsgd1na2vs0mg"},{"bike_id":"4066fdf3-46a2-423f-b67c-f7ea3f7a68df","system_id":"levelo_inurba_marseille","lat":43.2921,"lon":5.39316,"is_reserved":false,"is_disabled":false,"rental_uris":{"android":"levelo://app?vid=4066fdf3-46a2-423f-b67c-f7ea3f7a68df","ios":"levelo://app?vid=4066fdf3-46a2-423f-b67c-f7ea3f7a68df"},"vehicle_type_id":"4","last_reported":1747433379,"current_range_meters":19200,"station_id":"ce4bh192rcd13ifvqdd0","pricing_plan_id":"cebpf4jnsgd1na2vs0mg"},{"bike_id":"89052c1b-e95c-422c-8ad1-9f017da0c226","system_id":"levelo_inurba_marseille","lat":43.28676,"lon":5.36358,"is_reserved":false,"is_disabled":false,"rental_uris":{"android":"levelo://app?vid=89052c1b-e95c-422c-8ad1-9f017da0c226","ios":"levelo://app?vid=89052c1b-e95c-422c-8ad1-9f017da0c226"},"vehicle_type_id":"4","last_reported":1747433379,"current_range_meters":19200,"station_id":"ce4bhah2rcd13ifvqej0","pricing_plan_id":"cebpf4jnsgd1na2vs0mg"},{"bike_id":"7cdd80af-beca-433a-b0e6-a6d1f1c49212","system_id":"levelo_inurba_marseille","lat":43.28262,"lon":5.35075,"is_reserved":false,"is_disabled":false,"rental_uris":{"android":"levelo://app?vid=7cdd80af-beca-433a-b0e6-a6d1f1c49212","ios":"levelo://app?vid=7cdd80af-beca-433a-b0e6-a6d1f1c49212"},"vehicle_type_id":"4","last_reported":1747433379,"current_range_meters":19200,"station_id":"ce4bhbp2rcd13ifvqerg","pricing_plan_id":"cebpf4jnsgd1na2vs0mg"},{"bike_id":"ad569e94-3c58-4cd8-b6c3-629beb328090","system_id":"levelo_inurba_marseille","lat":43.279702,"lon":5.38755,"is_reserved":false,"is_disabled":false,"rental_uris":{"android":"levelo://app?vid=ad569e94-3c58-4cd8-b6c3-629beb328090","ios":"levelo://app?vid=ad569e94-3c58-4cd8-b6c3-629beb328090"},"vehicle_type_id":"4","last_reported":1747433379,"current_range_meters":19200,"station_id":"ce4bhg12rcd13ifvqf80","pricing_plan_id":"cebpf4jnsgd1na2vs0mg"},{"bike_id":"386c7031-2256-424f-8cc5-7a04f4b822a9","system_id":"levelo_inurba_marseille","lat":43.27825,"lon":5.407,"is_reserved":false,"is_disabled":false,"rental_uris":{"android":"levelo://app?vid=386c7031-2256-424f-8cc5-7a04f4b822a9","ios":"levelo://app?vid=386c7031-2256-424f-8cc5-7a04f4b822a9"},"vehicle_type_id":"4","last_reported":1747433379,"current_range_meters":19200,"station_id":"ce4bhnh2rcd13ifvqgtg","pricing_plan_id":"cebpf4jnsgd1na2vs0mg"},{"bike_id":"91f1e932-5075-4ae4-8683-a10234a8ef49","system_id":"levelo_inurba_marseille","lat":43.32338,"lon":5.40632,"is_reserved":false,"is_disabled":false,"rental_uris":{"android":"levelo://app?vid=91f1e932-5075-4ae4-8683-a10234a8ef49","ios":"levelo://app?vid=91f1e932-5075-4ae4-8683-a10234a8ef49"},"vehicle_type_id":"4","last_reported":1747433379,"current_range_meters":19200,"station_id":"ce4bhq92rcd13ifvqhjg","pricing_plan_id":"cebpf4jnsgd1na2vs0mg"},{"bike_id":"1bbf08eb-ec9c-4934-8a2f-d55828676816","system_id":"levelo_inurba_marseille","lat":43.276202,"lon":5.361088,"is_reserved":false,"is_disabled":false,"rental_uris":{"android":"levelo://app?vid=1bbf08eb-ec9c-4934-8a2f-d55828676816","ios":"levelo://app?vid=1bbf08eb-ec9c-4934-8a2f-d55828676816"},"vehicle_type_id":"4","last_reported":1747433379,"current_range_meters":19600,"station_id":"ce4bgj92rcd13ifvqbe0","pricing_plan_id":"cebpf4jnsgd1na2vs0mg"},{"bike_id":"511593e8-e8f4-48a2-81d6-2e49a6fbd102","system_id":"levelo_inurba_marseille","lat":43.30281,"lon":5.37695,"is_reserved":false,"is_disabled":false,"rental_uris":{"android":"levelo://app?vid=511593e8-e8f4-48a2-81d6-2e49a6fbd102","ios":"levelo://app?vid=511593e8-e8f4-48a2-81d6-2e49a6fbd102"},"vehicle_type_id":"4","last_reported":1747433379,"current_range_meters":19600,"station_id":"ce4bguh2rcd13ifvqcj0","pricing_plan_id":"cebpf4jnsgd1na2vs0mg"},{"bike_id":"61c2ee91-abd4-4caa-9512-d60d7c186a8b","system_id":"levelo_inurba_marseille","lat":43.29258,"lon":5.40914,"is_reserved":false,"is_disabled":false,"rental_uris":{"android":"levelo://app?vid=61c2ee91-abd4-4caa-9512-d60d7c186a8b","ios":"levelo://app?vid=61c2ee91-abd4-4caa-9512-d60d7c186a8b"},"vehicle_type_id":"4","last_reported":1747433379,"current_range_meters":19600,"station_id":"ce4bh192rcd13ifvqdc0","pricing_plan_id":"cebpf4jnsgd1na2vs0mg"},{"bike_id":"f23c03c4-aed8-4944-8056-7d8af96ab709","system_id":"levelo_inurba_marseille","lat":43.28712,"lon":5.37929,"is_reserved":false,"is_disabled":false,"rental_uris":{"android":"levelo://app?vid=f23c03c4-aed8-4944-8056-7d8af96ab709","ios":"levelo://app?vid=f23c03c4-aed8-4944-8056-7d8af96ab709"},"vehicle_type_id":"4","last_reported":1747433379,"current_range_meters":19600,"station_id":"ce4bh9p2rcd13ifvqec0","pricing_plan_id":"cebpf4jnsgd1na2vs0mg"},{"bike_id":"8e056ffe-bcc3-4cfa-bd3f-ab0666143657","system_id":"levelo_inurba_marseille","lat":43.28676,"lon":5.36345,"is_reserved":false,"is_disabled":false,"rental_uris":{"android":"levelo://app?vid=8e056ffe-bcc3-4cfa-bd3f-ab0666143657","ios":"levelo://app?vid=8e056ffe-bcc3-4cfa-bd3f-ab0666143657"},"vehicle_type_id":"4","last_reported":1747433379,"current_range_meters":19600,"station_id":"ce4bhah2rcd13ifvqej0","pricing_plan_id":"cebpf4jnsgd1na2vs0mg"},{"bike_id":"3d41c79d-2717-46f0-a742-c47a74757de5","system_id":"levelo_inurba_marseille","lat":43.27912,"lon":5.3959,"is_reserved":false,"is_disabled":false,"rental_uris":{"android":"levelo://app?vid=3d41c79d-2717-46f0-a742-c47a74757de5","ios":"levelo://app?vid=3d41c79d-2717-46f0-a742-c47a74757de5"},"vehicle_type_id":"4","last_reported":1747433379,"current_range_meters":19600,"station_id":"ce4bhf92rcd13ifvqf40","pricing_plan_id":"cebpf4jnsgd1na2vs0mg"},{"bike_id":"cbf5a926-a14e-49e1-ac53-9e81acb40398","system_id":"levelo_inurba_marseille","lat":43.24806,"lon":5.37459,"is_reserved":false,"is_disabled":false,"rental_uris":{"android":"levelo://app?vid=cbf5a926-a14e-49e1-ac53-9e81acb40398","ios":"levelo://app?vid=cbf5a926-a14e-49e1-ac53-9e81acb40398"},"vehicle_type_id":"4","last_reported":1747433379,"current_range_meters":19600,"station_id":"ce4bhgh2rcd13ifvqfb0","pricing_plan_id":"cebpf4jnsgd1na2vs0mg"},{"bike_id":"3ff9252c-bf5a-4b05-9e40-d55346627d8f","system_id":"levelo_inurba_marseille","lat":43.33027,"lon":5.39038,"is_reserved":false,"is_disabled":false,"rental_uris":{"android":"levelo://app?vid=3ff9252c-bf5a-4b05-9e40-d55346627d8f","ios":"levelo://app?vid=3ff9252c-bf5a-4b05-9e40-d55346627d8f"},"vehicle_type_id":"4","last_reported":1747433379,"current_range_meters":19600,"station_id":"ce4bhr92rcd13ifvqhrg","pricing_plan_id":"cebpf4jnsgd1na2vs0mg"},{"bike_id":"b071020f-c99f-46ed-97ba-db34ed9f69b9","system_id":"levelo_inurba_marseille","lat":43.3301,"lon":5.43848,"is_reserved":false,"is_disabled":false,"rental_uris":{"android":"levelo://app?vid=b071020f-c99f-46ed-97ba-db34ed9f69b9","ios":"levelo://app?vid=b071020f-c99f-46ed-97ba-db34ed9f69b9"},"vehicle_type_id":"4","last_reported":1747433379,"current_range_meters":20000,"station_id":"","pricing_plan_id":"cebpf4jnsgd1na2vs0mg"},{"bike_id":"0686446c-29e6-4b35-8de0-d8a954e6484d","system_id":"levelo_inurba_marseille","lat":43.32044,"lon":5.3719,"is_reserved":false,"is_disabled":false,"rental_uris":{"android":"levelo://app?vid=0686446c-29e6-4b35-8de0-d8a954e6484d","ios":"levelo://app?vid=0686446c-29e6-4b35-8de0-d8a954e6484d"},"vehicle_type_id":"4","last_reported":1747433379,"current_range_meters":20000,"station_id":"","pricing_plan_id":"cebpf4jnsgd1na2vs0mg"},{"bike_id":"57eabd6e-779e-48f8-8b94-7a5b5f9c918d","system_id":"levelo_inurba_marseille","lat":43.27619,"lon":5.36109,"is_reserved":false,"is_disabled":false,"rental_uris":{"android":"levelo://app?vid=57eabd6e-779e-48f8-8b94-7a5b5f9c918d","ios":"levelo://app?vid=57eabd6e-779e-48f8-8b94-7a5b5f9c918d"},"vehicle_type_id":"4","last_reported":1747433379,"current_range_meters":20000,"station_id":"ce4bgj92rcd13ifvqbe0","pricing_plan_id":"cebpf4jnsgd1na2vs0mg"},{"bike_id":"5b22c96d-1b61-436e-a53c-3fef0e6c3965","system_id":"levelo_inurba_marseille","lat":43.309196,"lon":5.401417,"is_reserved":false,"is_disabled":false,"rental_uris":{"android":"levelo://app?vid=5b22c96d-1b61-436e-a53c-3fef0e6c3965","ios":"levelo://app?vid=5b22c96d-1b61-436e-a53c-3fef0e6c3965"},"vehicle_type_id":"4","last_reported":1747433379,"current_range_meters":20000,"station_id":"ce4bgvp2rcd13ifvqct0","pricing_plan_id":"cebpf4jnsgd1na2vs0mg"},{"bike_id":"3eacf02e-f6f6-4d58-9549-81b9dd836990","system_id":"levelo_inurba_marseille","lat":43.30888,"lon":5.39652,"is_reserved":false,"is_disabled":false,"rental_uris":{"android":"levelo://app?vid=3eacf02e-f6f6-4d58-9549-81b9dd836990","ios":"levelo://app?vid=3eacf02e-f6f6-4d58-9549-81b9dd836990"},"vehicle_type_id":"4","last_reported":1747433379,"current_range_meters":20000,"station_id":"ce4bh012rcd13ifvqcv0","pricing_plan_id":"cebpf4jnsgd1na2vs0mg"},{"bike_id":"6cc6e4c8-8c85-4b94-86d2-be3d819c5558","system_id":"levelo_inurba_marseille","lat":43.29257,"lon":5.40901,"is_reserved":false,"is_disabled":false,"rental_uris":{"android":"levelo://app?vid=6cc6e4c8-8c85-4b94-86d2-be3d819c5558","ios":"levelo://app?vid=6cc6e4c8-8c85-4b94-86d2-be3d819c5558"},"vehicle_type_id":"4","last_reported":1747433379,"current_range_meters":20000,"station_id":"ce4bh192rcd13ifvqdc0","pricing_plan_id":"cebpf4jnsgd1na2vs0mg"},{"bike_id":"2bc05503-3ae8-4d3d-bf7f-768cd28b5222","system_id":"levelo_inurba_marseille","lat":43.29841,"lon":5.36266,"is_reserved":false,"is_disabled":false,"rental_uris":{"android":"levelo://app?vid=2bc05503-3ae8-4d3d-bf7f-768cd28b5222","ios":"levelo://app?vid=2bc05503-3ae8-4d3d-bf7f-768cd28b5222"},"vehicle_type_id":"4","last_reported":1747433379,"current_range_meters":20400,"station_id":"ce4bgpp2rcd13ifvqc3g","pricing_plan_id":"cebpf4jnsgd1na2vs0mg"},{"bike_id":"a5accf2d-dc47-440a-b4a2-05a29a86b5cb","system_id":"levelo_inurba_marseille","lat":43.29279,"lon":5.4011,"is_reserved":false,"is_disabled":false,"rental_uris":{"android":"levelo://app?vid=a5accf2d-dc47-440a-b4a2-05a29a86b5cb","ios":"levelo://app?vid=a5accf2d-dc47-440a-b4a2-05a29a86b5cb"},"vehicle_type_id":"4","last_reported":1747433379,"current_range_meters":20400,"station_id":"ce4bh312rcd13ifvqdk0","pricing_plan_id":"cebpf4jnsgd1na2vs0mg"},{"bike_id":"1e9197c8-426e-4553-9d33-2496074d4420","system_id":"levelo_inurba_marseille","lat":43.248081,"lon":5.374488,"is_reserved":false,"is_disabled":false,"rental_uris":{"android":"levelo://app?vid=1e9197c8-426e-4553-9d33-2496074d4420","ios":"levelo://app?vid=1e9197c8-426e-4553-9d33-2496074d4420"},"vehicle_type_id":"4","last_reported":1747433379,"current_range_meters":20400,"station_id":"ce4bhgh2rcd13ifvqfb0","pricing_plan_id":"cebpf4jnsgd1na2vs0mg"},{"bike_id":"1dfe927e-0cfc-4a23-b544-da5628e773ef","system_id":"levelo_inurba_marseille","lat":43.28727,"lon":5.36089,"is_reserved":false,"is_disabled":false,"rental_uris":{"android":"levelo://app?vid=1dfe927e-0cfc-4a23-b544-da5628e773ef","ios":"levelo://app?vid=1dfe927e-0cfc-4a23-b544-da5628e773ef"},"vehicle_type_id":"4","last_reported":1747433379,"current_range_meters":20400,"station_id":"cki0cbj6b192h4jlfktg","pricing_plan_id":"cebpf4jnsgd1na2vs0mg"},{"bike_id":"298cac2c-9391-4006-b0e0-b854915dd3cb","system_id":"levelo_inurba_marseille","lat":43.29534,"lon":5.38532,"is_reserved":false,"is_disabled":false,"rental_uris":{"android":"levelo://app?vid=298cac2c-9391-4006-b0e0-b854915dd3cb","ios":"levelo://app?vid=298cac2c-9391-4006-b0e0-b854915dd3cb"},"vehicle_type_id":"4","last_reported":1747433379,"current_range_meters":20800,"station_id":"ce4bgih2rcd13ifvqba0","pricing_plan_id":"cebpf4jnsgd1na2vs0mg"},{"bike_id":"547f7bfd-d2a1-47e6-8e6b-eca7a00e5b0c","system_id":"levelo_inurba_marseille","lat":43.30798,"lon":5.38161,"is_reserved":false,"is_disabled":false,"rental_uris":{"android":"levelo://app?vid=547f7bfd-d2a1-47e6-8e6b-eca7a00e5b0c","ios":"levelo://app?vid=547f7bfd-d2a1-47e6-8e6b-eca7a00e5b0c"},"vehicle_type_id":"4","last_reported":1747433379,"current_range_meters":20800,"station_id":"ce4bgt12rcd13ifvqce0","pricing_plan_id":"cebpf4jnsgd1na2vs0mg"},{"bike_id":"90014d97-06db-4bc1-ab3f-97e958703dbb","system_id":"levelo_inurba_marseille","lat":43.31717,"lon":5.40444,"is_reserved":false,"is_disabled":false,"rental_uris":{"android":"levelo://app?vid=90014d97-06db-4bc1-ab3f-97e958703dbb","ios":"levelo://app?vid=90014d97-06db-4bc1-ab3f-97e958703dbb"},"vehicle_type_id":"4","last_reported":1747433379,"current_range_meters":20800,"station_id":"ce4bh012rcd13ifvqd00","pricing_plan_id":"cebpf4jnsgd1na2vs0mg"},{"bike_id":"e4001a3f-7fa0-4dc0-aa59-f4ef7ef7cef2","system_id":"levelo_inurba_marseille","lat":43.28848,"lon":5.39303,"is_reserved":false,"is_disabled":false,"rental_uris":{"android":"levelo://app?vid=e4001a3f-7fa0-4dc0-aa59-f4ef7ef7cef2","ios":"levelo://app?vid=e4001a3f-7fa0-4dc0-aa59-f4ef7ef7cef2"},"vehicle_type_id":"4","last_reported":1747433379,"current_range_meters":20800,"station_id":"ce4bh2p2rcd13ifvqdi0","pricing_plan_id":"cebpf4jnsgd1na2vs0mg"},{"bike_id":"b3b4589b-fa76-49e2-8858-c4d24a27495b","system_id":"levelo_inurba_marseille","lat":43.292795,"lon":5.40121,"is_reserved":false,"is_disabled":false,"rental_uris":{"android":"levelo://app?vid=b3b4589b-fa76-49e2-8858-c4d24a27495b","ios":"levelo://app?vid=b3b4589b-fa76-49e2-8858-c4d24a27495b"},"vehicle_type_id":"4","last_reported":1747433379,"current_range_meters":20800,"station_id":"ce4bh312rcd13ifvqdk0","pricing_plan_id":"cebpf4jnsgd1na2vs0mg"},{"bike_id":"392869e9-ed4a-4455-841c-24d69bd07e03","system_id":"levelo_inurba_marseille","lat":43.25083,"lon":5.395113,"is_reserved":false,"is_disabled":false,"rental_uris":{"android":"levelo://app?vid=392869e9-ed4a-4455-841c-24d69bd07e03","ios":"levelo://app?vid=392869e9-ed4a-4455-841c-24d69bd07e03"},"vehicle_type_id":"4","last_reported":1747433379,"current_range_meters":20800,"station_id":"ce4bhm12rcd13ifvqgkg","pricing_plan_id":"cebpf4jnsgd1na2vs0mg"},{"bike_id":"e1291dda-99b5-4759-85d1-03c344292341","system_id":"levelo_inurba_marseille","lat":43.31784,"lon":5.39014,"is_reserved":false,"is_disabled":false,"rental_uris":{"android":"levelo://app?vid=e1291dda-99b5-4759-85d1-03c344292341","ios":"levelo://app?vid=e1291dda-99b5-4759-85d1-03c344292341"},"vehicle_type_id":"4","last_reported":1747433379,"current_range_meters":20800,"station_id":"ce4bhqp2rcd13ifvqhng","pricing_plan_id":"cebpf4jnsgd1na2vs0mg"},{"bike_id":"56897df8-bf67-489a-b146-24860c15e342","system_id":"levelo_inurba_marseille","lat":43.32086,"lon":5.44084,"is_reserved":false,"is_disabled":false,"rental_uris":{"android":"levelo://app?vid=56897df8-bf67-489a-b146-24860c15e342","ios":"levelo://app?vid=56897df8-bf67-489a-b146-24860c15e342"},"vehicle_type_id":"4","last_reported":1747433379,"current_range_meters":21600,"station_id":"","pricing_plan_id":"cebpf4jnsgd1na2vs0mg"},{"bike_id":"d5b53a39-538f-491c-94d5-d87a6a03691d","system_id":"levelo_inurba_marseille","lat":43.29506,"lon":5.37501,"is_reserved":false,"is_disabled":false,"rental_uris":{"android":"levelo://app?vid=d5b53a39-538f-491c-94d5-d87a6a03691d","ios":"levelo://app?vid=d5b53a39-538f-491c-94d5-d87a6a03691d"},"vehicle_type_id":"4","last_reported":1747433379,"current_range_meters":21600,"station_id":"ce4bgkp2rcd13ifvqbmg","pricing_plan_id":"cebpf4jnsgd1na2vs0mg"},{"bike_id":"c5849d40-20d4-47ef-95ed-23a799b3a8f6","system_id":"levelo_inurba_marseille","lat":43.298439,"lon":5.362753,"is_reserved":false,"is_disabled":false,"rental_uris":{"android":"levelo://app?vid=c5849d40-20d4-47ef-95ed-23a799b3a8f6","ios":"levelo://app?vid=c5849d40-20d4-47ef-95ed-23a799b3a8f6"},"vehicle_type_id":"4","last_reported":1747433379,"current_range_meters":21600,"station_id":"ce4bgpp2rcd13ifvqc3g","pricing_plan_id":"cebpf4jnsgd1na2vs0mg"},{"bike_id":"edb0daeb-d049-47ac-94c9-0c4278125b2b","system_id":"levelo_inurba_marseille","lat":43.31073,"lon":5.38339,"is_reserved":false,"is_disabled":false,"rental_uris":{"android":"levelo://app?vid=edb0daeb-d049-47ac-94c9-0c4278125b2b","ios":"levelo://app?vid=edb0daeb-d049-47ac-94c9-0c4278125b2b"},"vehicle_type_id":"4","last_reported":1747433379,"current_range_meters":21600,"station_id":"ce4bgv92rcd13ifvqcr0","pricing_plan_id":"cebpf4jnsgd1na2vs0mg"},{"bike_id":"a4156300-0486-419f-8347-9dc0ee8b7106","system_id":"levelo_inurba_marseille","lat":43.30937,"lon":5.40152,"is_reserved":false,"is_disabled":false,"rental_uris":{"android":"levelo://app?vid=a4156300-0486-419f-8347-9dc0ee8b7106","ios":"levelo://app?vid=a4156300-0486-419f-8347-9dc0ee8b7106"},"vehicle_type_id":"4","last_reported":1747433379,"current_range_meters":21600,"station_id":"ce4bgvp2rcd13ifvqct0","pricing_plan_id":"cebpf4jnsgd1na2vs0mg"},{"bike_id":"a26704ed-477c-469b-9827-67a29efdfe06","system_id":"levelo_inurba_marseille","lat":43.29874,"lon":5.39731,"is_reserved":false,"is_disabled":false,"rental_uris":{"android":"levelo://app?vid=a26704ed-477c-469b-9827-67a29efdfe06","ios":"levelo://app?vid=a26704ed-477c-469b-9827-67a29efdfe06"},"vehicle_type_id":"4","last_reported":1747433379,"current_range_meters":21600,"station_id":"ce4bh0h2rcd13ifvqd50","pricing_plan_id":"cebpf4jnsgd1na2vs0mg"},{"bike_id":"f56a165f-81a5-42a0-b8ea-3143f2ba4a7b","system_id":"levelo_inurba_marseille","lat":43.2942,"lon":5.38618,"is_reserved":false,"is_disabled":false,"rental_uris":{"android":"levelo://app?vid=f56a165f-81a5-42a0-b8ea-3143f2ba4a7b","ios":"levelo://app?vid=f56a165f-81a5-42a0-b8ea-3143f2ba4a7b"},"vehicle_type_id":"4","last_reported":1747433379,"current_range_meters":21600,"station_id":"ce4bh2h2rcd13ifvqdh0","pricing_plan_id":"cebpf4jnsgd1na2vs0mg"},{"bike_id":"90d189e1-982a-47b1-802e-c7159ab07b80","system_id":"levelo_inurba_marseille","lat":43.29579,"lon":5.39967,"is_reserved":false,"is_disabled":false,"rental_uris":{"android":"levelo://app?vid=90d189e1-982a-47b1-802e-c7159ab07b80","ios":"levelo://app?vid=90d189e1-982a-47b1-802e-c7159ab07b80"},"vehicle_type_id":"4","last_reported":1747433379,"current_range_meters":21600,"station_id":"ce4bh312rcd13ifvqdj0","pricing_plan_id":"cebpf4jnsgd1na2vs0mg"},{"bike_id":"10322784-d3ee-40cf-a9f9-4c57551629ed","system_id":"levelo_inurba_marseille","lat":43.28938,"lon":5.36406,"is_reserved":false,"is_disabled":false,"rental_uris":{"android":"levelo://app?vid=10322784-d3ee-40cf-a9f9-4c57551629ed","ios":"levelo://app?vid=10322784-d3ee-40cf-a9f9-4c57551629ed"},"vehicle_type_id":"4","last_reported":1747433379,"current_range_meters":21600,"station_id":"ce4bhc92rcd13ifvqetg","pricing_plan_id":"cebpf4jnsgd1na2vs0mg"},{"bike_id":"68c6ce24-2964-4326-8c24-df69ca1a7a5d","system_id":"levelo_inurba_marseille","lat":43.27951,"lon":5.3874,"is_reserved":false,"is_disabled":false,"rental_uris":{"android":"levelo://app?vid=68c6ce24-2964-4326-8c24-df69ca1a7a5d","ios":"levelo://app?vid=68c6ce24-2964-4326-8c24-df69ca1a7a5d"},"vehicle_type_id":"4","last_reported":1747433379,"current_range_meters":21600,"station_id":"ce4bhg12rcd13ifvqf80","pricing_plan_id":"cebpf4jnsgd1na2vs0mg"},{"bike_id":"c5b2dc3a-f626-4d1e-9d9a-f9960d334de7","system_id":"levelo_inurba_marseille","lat":43.32002,"lon":5.38158,"is_reserved":false,"is_disabled":false,"rental_uris":{"android":"levelo://app?vid=c5b2dc3a-f626-4d1e-9d9a-f9960d334de7","ios":"levelo://app?vid=c5b2dc3a-f626-4d1e-9d9a-f9960d334de7"},"vehicle_type_id":"4","last_reported":1747433379,"current_range_meters":21600,"station_id":"ce4bhr12rcd13ifvqhpg","pricing_plan_id":"cebpf4jnsgd1na2vs0mg"},{"bike_id":"42e82d50-539c-416e-b036-ea28fa8549b2","system_id":"levelo_inurba_marseille","lat":43.298792,"lon":5.388981,"is_reserved":false,"is_disabled":false,"rental_uris":{"android":"levelo://app?vid=42e82d50-539c-416e-b036-ea28fa8549b2","ios":"levelo://app?vid=42e82d50-539c-416e-b036-ea28fa8549b2"},"vehicle_type_id":"4","last_reported":1747433379,"current_range_meters":22000,"station_id":"ce4bh392rcd13ifvqdl0","pricing_plan_id":"cebpf4jnsgd1na2vs0mg"},{"bike_id":"fb0348d8-5579-4c31-8112-75233ae7088d","system_id":"levelo_inurba_marseille","lat":43.3258,"lon":5.42983,"is_reserved":false,"is_disabled":false,"rental_uris":{"android":"levelo://app?vid=fb0348d8-5579-4c31-8112-75233ae7088d","ios":"levelo://app?vid=fb0348d8-5579-4c31-8112-75233ae7088d"},"vehicle_type_id":"4","last_reported":1747433379,"current_range_meters":22400,"station_id":"","pricing_plan_id":"cebpf4jnsgd1na2vs0mg"},{"bike_id":"5d48371b-6b96-4c68-9312-b692d66827c9","system_id":"levelo_inurba_marseille","lat":43.30927,"lon":5.40151,"is_reserved":false,"is_disabled":false,"rental_uris":{"android":"levelo://app?vid=5d48371b-6b96-4c68-9312-b692d66827c9","ios":"levelo://app?vid=5d48371b-6b96-4c68-9312-b692d66827c9"},"vehicle_type_id":"4","last_reported":1747433379,"current_range_meters":22400,"station_id":"ce4bgvp2rcd13ifvqct0","pricing_plan_id":"cebpf4jnsgd1na2vs0mg"},{"bike_id":"29b9843e-e485-44ca-9089-baa93cb6ecb6","system_id":"levelo_inurba_marseille","lat":43.30892,"lon":5.39645,"is_reserved":false,"is_disabled":false,"rental_uris":{"android":"levelo://app?vid=29b9843e-e485-44ca-9089-baa93cb6ecb6","ios":"levelo://app?vid=29b9843e-e485-44ca-9089-baa93cb6ecb6"},"vehicle_type_id":"4","last_reported":1747433379,"current_range_meters":22400,"station_id":"ce4bh012rcd13ifvqcv0","pricing_plan_id":"cebpf4jnsgd1na2vs0mg"},{"bike_id":"e3ebc2a1-0395-4b15-b513-7cd91a482a5c","system_id":"levelo_inurba_marseille","lat":43.27837,"lon":5.39215,"is_reserved":false,"is_disabled":false,"rental_uris":{"android":"levelo://app?vid=e3ebc2a1-0395-4b15-b513-7cd91a482a5c","ios":"levelo://app?vid=e3ebc2a1-0395-4b15-b513-7cd91a482a5c"},"vehicle_type_id":"4","last_reported":1747433379,"current_range_meters":22400,"station_id":"ce4bhjp2rcd13ifvqga0","pricing_plan_id":"cebpf4jnsgd1na2vs0mg"},{"bike_id":"b8fe58af-74d0-47ca-b4e5-0bbe807a8c0a","system_id":"levelo_inurba_marseille","lat":43.25118,"lon":5.4032,"is_reserved":false,"is_disabled":false,"rental_uris":{"android":"levelo://app?vid=b8fe58af-74d0-47ca-b4e5-0bbe807a8c0a","ios":"levelo://app?vid=b8fe58af-74d0-47ca-b4e5-0bbe807a8c0a"},"vehicle_type_id":"4","last_reported":1747433379,"current_range_meters":22400,"station_id":"ce4bhlh2rcd13ifvqgig","pricing_plan_id":"cebpf4jnsgd1na2vs0mg"},{"bike_id":"fbd05aad-70c8-4c08-9c13-dccf7c214e7a","system_id":"levelo_inurba_marseille","lat":43.31726,"lon":5.42393,"is_reserved":false,"is_disabled":false,"rental_uris":{"android":"levelo://app?vid=fbd05aad-70c8-4c08-9c13-dccf7c214e7a","ios":"levelo://app?vid=fbd05aad-70c8-4c08-9c13-dccf7c214e7a"},"vehicle_type_id":"4","last_reported":1747433379,"current_range_meters":22400,"station_id":"ce4bhp92rcd13ifvqhbg","pricing_plan_id":"cebpf4jnsgd1na2vs0mg"},{"bike_id":"23939faf-d206-4b93-ade4-199417584041","system_id":"levelo_inurba_marseille","lat":43.290065,"lon":5.356345,"is_reserved":false,"is_disabled":false,"rental_uris":{"android":"levelo://app?vid=23939faf-d206-4b93-ade4-199417584041","ios":"levelo://app?vid=23939faf-d206-4b93-ade4-199417584041"},"vehicle_type_id":"4","last_reported":1747433379,"current_range_meters":22800,"station_id":"","pricing_plan_id":"cebpf4jnsgd1na2vs0mg"},{"bike_id":"8ce98679-07ff-4368-b901-86fca7f335b3","system_id":"levelo_inurba_marseille","lat":43.355403,"lon":5.357453,"is_reserved":false,"is_disabled":false,"rental_uris":{"android":"levelo://app?vid=8ce98679-07ff-4368-b901-86fca7f335b3","ios":"levelo://app?vid=8ce98679-07ff-4368-b901-86fca7f335b3"},"vehicle_type_id":"4","last_reported":1747433379,"current_range_meters":22800,"station_id":"","pricing_plan_id":"cebpf4jnsgd1na2vs0mg"},{"bike_id":"86603db7-b462-4e72-8622-a2dee8bb2920","system_id":"levelo_inurba_marseille","lat":43.337444,"lon":5.374475,"is_reserved":false,"is_disabled":false,"rental_uris":{"android":"levelo://app?vid=86603db7-b462-4e72-8622-a2dee8bb2920","ios":"levelo://app?vid=86603db7-b462-4e72-8622-a2dee8bb2920"},"vehicle_type_id":"4","last_reported":1747433379,"current_range_meters":22800,"station_id":"","pricing_plan_id":"cebpf4jnsgd1na2vs0mg"},{"bike_id":"081ecfd0-cf82-4421-8b12-77a14a17c158","system_id":"levelo_inurba_marseille","lat":43.30698,"lon":5.40095,"is_reserved":false,"is_disabled":false,"rental_uris":{"android":"levelo://app?vid=081ecfd0-cf82-4421-8b12-77a14a17c158","ios":"levelo://app?vid=081ecfd0-cf82-4421-8b12-77a14a17c158"},"vehicle_type_id":"4","last_reported":1747433379,"current_range_meters":22800,"station_id":"ce4bh112rcd13ifvqda0","pricing_plan_id":"cebpf4jnsgd1na2vs0mg"},{"bike_id":"c9dbb2ee-5064-4a6d-819d-1f842cdee3ee","system_id":"levelo_inurba_marseille","lat":43.29881,"lon":5.38901,"is_reserved":false,"is_disabled":false,"rental_uris":{"android":"levelo://app?vid=c9dbb2ee-5064-4a6d-819d-1f842cdee3ee","ios":"levelo://app?vid=c9dbb2ee-5064-4a6d-819d-1f842cdee3ee"},"vehicle_type_id":"4","last_reported":1747433379,"current_range_meters":22800,"station_id":"ce4bh392rcd13ifvqdl0","pricing_plan_id":"cebpf4jnsgd1na2vs0mg"},{"bike_id":"e4ac6e3e-fba5-4367-a755-53f04941a18e","system_id":"levelo_inurba_marseille","lat":43.28709,"lon":5.38664,"is_reserved":false,"is_disabled":false,"rental_uris":{"android":"levelo://app?vid=e4ac6e3e-fba5-4367-a755-53f04941a18e","ios":"levelo://app?vid=e4ac6e3e-fba5-4367-a755-53f04941a18e"},