{"last_updated":1686866755,"ttl":30,"version":"2.2","data":{"bikes":[{"bike_id":"b31814f4-c247-41de-aba1-f777edc6184e","system_id":"levelo_inurba_marseille","lat":43.31341,"lon":5.367098,"is_reserved":false,"is_disabled":false,"rental_uris":{"android":"levelo://app?vid=b31814f4-c247-41de-aba1-f777edc6184e","ios":"levelo://app?vid=b31814f4-c247-41de-aba1-f777edc6184e"},"vehicle_type_id":"4","last_reported":1686866756,"current_range_meters":2000,"station_id":"ce4bgr92rcd13ifvqc6g","pricing_plan_id":"free"},{"bike_id":"a142fcc1-dd44-4e45-a4d3-f750f9811ffe","system_id":"levelo_inurba_marseille","lat":43.31235,"lon":5.36803,"is_reserved":false,"is_disabled":false,"rental_uris":{"android":"levelo://app?vid=a142fcc1-dd44-4e45-a4d3-f750f9811ffe","ios":"levelo://app?vid=a142fcc1-dd44-4e45-a4d3-f750f9811ffe"},"vehicle_type_id":"4","last_reported":1686866756,"current_range_meters":1200,"station_id":"","pricing_plan_id":"free"},{"bike_id":"6700ec73-81ff-4814-a18a-0f95745af539","system_id":"levelo_inurba_marseille","lat":43.309076,"lon":5.368465,"is_reserved":false,"is_disabled":false,"rental_uris":{"android":"levelo://app?vid=6700ec73-81ff-4814-a18a-0f95745af539","ios":"levelo://app?vid=6700ec73-81ff-4814-a18a-0f95745af539"},"vehicle_type_id":"4","last_reported":1686866756,"current_range_meters":0,"station_id":"ce4bgn92rcd13ifvqbvg","pricing_plan_id":"free"},{"bike_id":"ccd1bda9-9a50-489d-867b-d6f3d61de46d","system_id":"levelo_inurba_marseille","lat":43.314811,"lon":5.373103,"is_reserved":false,"is_disabled":false,"rental_uris":{"android":"levelo://app?vid=ccd1bda9-9a50-489d-867b-d6f3d61de46d","ios":"levelo://app?vid=ccd1bda9-9a50-489d-867b-d6f3d61de46d"},"vehicle_type_id":"4","last_reported":1686866756,"current_range_meters":6400,"station_id":"ce4bgt12rcd13ifvqcd0","pricing_plan_id":"free"},{"bike_id":"3091b6f8-37ca-44de-b1de-8b388a7127ab","system_id":"levelo_inurba_marseille","lat":43.314811,"lon":5.373103,"is_reserved":false,"is_disabled":false,"rental_uris":{"android":"levelo://app?vid=3091b6f8-37ca-44de-b1de-8b388a7127ab","ios":"levelo://app?vid=3091b6f8-37ca-44de-b1de-8b388a7127ab"},"vehicle_type_id":"4","last_reported":1686866756,"current_range_meters":20800,"station_id":"ce4bgt12rcd13ifvqcd0","pricing_plan_id":"free"},{"bike_id":"7f4da362-cefe-4cbf-9da9-c68626588393","system_id":"levelo_inurba_marseille","lat":43.308606,"lon":5.372099,"is_reserved":false,"is_disabled":false,"rental_uris":{"android":"levelo://app?vid=7f4da362-cefe-4cbf-9da9-c68626588393","ios":"levelo://app?vid=7f4da362-cefe-4cbf-9da9-c68626588393"},"vehicle_type_id":"4","last_reported":1686866756,"current_range_meters":1600,"station_id":"ce4bguh2rcd13ifvqckg","pricing_plan_id":"free"},{"bike_id":"1c636683-fe61-4c14-a7ef-11a158c4cca8","system_id":"levelo_inurba_marseille","lat":43.308614,"lon":5.372098,"is_reserved":false,"is_disabled":false,"rental_uris":{"android":"levelo://app?vid=1c636683-fe61-4c14-a7ef-11a158c4cca8","ios":"levelo://app?vid=1c636683-fe61-4c14-a7ef-11a158c4cca8"},"vehicle_type_id":"4","last_reported":1686866756,"current_range_meters":0,"station_id":"ce4bguh2rcd13ifvqckg","pricing_plan_id":"free"},{"bike_id":"8d6de8ea-698e-4889-82d4-62c28f40e8f5","system_id":"levelo_inurba_marseille","lat":43.305989,"lon":5.37225,"is_reserved":false,"is_disabled":false,"rental_uris":{"android":"levelo://app?vid=8d6de8ea-698e-4889-82d4-62c28f40e8f5","ios":"levelo://app?vid=8d6de8ea-698e-4889-82d4-62c28f40e8f5"},"vehicle_type_id":"4","last_reported":1686866756,"current_range_meters":11600,"station_id":"ce4bgqh2rcd13ifvqc4g","pricing_plan_id":"free"},{"bike_id":"999df34d-1397-465d-9417-fd26047fd169","system_id":"levelo_inurba_marseille","lat":43.31126,"lon":5.37758,"is_reserved":false,"is_disabled":false,"rental_uris":{"android":"levelo://app?vid=999df34d-1397-465d-9417-fd26047fd169","ios":"levelo://app?vid=999df34d-1397-465d-9417-fd26047fd169"},"vehicle_type_id":"4","last_reported":1686866756,"current_range_meters":6400,"station_id":"ce4bgt92rcd13ifvqcg0","pricing_plan_id":"free"},{"bike_id":"f6203872-deeb-41a3-ab77-724ce005752e","system_id":"levelo_inurba_marseille","lat":43.311125,"lon":5.377624,"is_reserved":false,"is_disabled":false,"rental_uris":{"android":"levelo://app?vid=f6203872-deeb-41a3-ab77-724ce005752e","ios":"levelo://app?vid=f6203872-deeb-41a3-ab77-724ce005752e"},"vehicle_type_id":"4","last_reported":1686866756,"current_range_meters":31200,"station_id":"ce4bgt92rcd13ifvqcg0","pricing_plan_id":"free"},{"bike_id":"eeb5764e-c48c-4e48-b63d-b4252bde3605","system_id":"levelo_inurba_marseille","lat":43.317075,"lon":5.377367,"is_reserved":false,"is_disabled":false,"rental_uris":{"android":"levelo://app?vid=eeb5764e-c48c-4e48-b63d-b4252bde3605","ios":"levelo://app?vid=eeb5764e-c48c-4e48-b63d-b4252bde3605"},"vehicle_type_id":"4","last_reported":1686866756,"current_range_meters":23200,"station_id":"ce4bgth2rcd13ifvqch0","pricing_plan_id":"free"},{"bike_id":"2424216c-0462-4ad0-b127-d0366c91b61c","system_id":"levelo_inurba_marseille","lat":43.317075,"lon":5.377367,"is_reserved":false,"is_disabled":false,"rental_uris":{"android":"levelo://app?vid=2424216c-0462-4ad0-b127-d0366c91b61c","ios":"levelo://app?vid=2424216c-0462-4ad0-b127-d0366c91b61c"},"vehicle_type_id":"4","last_reported":1686866756,"current_range_meters":31200,"station_id":"ce4bgth2rcd13ifvqch0","pricing_plan_id":"free"},{"bike_id":"430e30ae-6ea7-457c-b4b1-1ebda7df3f34","system_id":"levelo_inurba_marseille","lat":43.303046,"lon":5.368981,"is_reserved":false,"is_disabled":false,"rental_uris":{"android":"levelo://app?vid=430e30ae-6ea7-457c-b4b1-1ebda7df3f34","ios":"levelo://app?vid=430e30ae-6ea7-457c-b4b1-1ebda7df3f34"},"vehicle_type_id":"4","last_reported":1686866756,"current_range_meters":14400,"station_id":"ce4bgqh2rcd13ifvqc5g","pricing_plan_id":"free"},{"bike_id":"03fb637d-e7f9-4cba-9c9d-b17b9f667c31","system_id":"levelo_inurba_marseille","lat":43.303046,"lon":5.368981,"is_reserved":false,"is_disabled":false,"rental_uris":{"android":"levelo://app?vid=03fb637d-e7f9-4cba-9c9d-b17b9f667c31","ios":"levelo://app?vid=03fb637d-e7f9-4cba-9c9d-b17b9f667c31"},"vehicle_type_id":"4","last_reported":1686866756,"current_range_meters":20800,"station_id":"ce4bgqh2rcd13ifvqc5g","pricing_plan_id":"free"},{"bike_id":"7170a570-a6d0-47c4-aa28-4d171ddf30d1","system_id":"levelo_inurba_marseille","lat":43.315293,"lon":5.380349,"is_reserved":false,"is_disabled":false,"rental_uris":{"android":"levelo://app?vid=7170a570-a6d0-47c4-aa28-4d171ddf30d1","ios":"levelo://app?vid=7170a570-a6d0-47c4-aa28-4d171ddf30d1"},"vehicle_type_id":"4","last_reported":1686866756,"current_range_meters":16800,"station_id":"ce4bhsp2rcd13ifvqi50","pricing_plan_id":"free"},{"bike_id":"d615bec8-d16a-4c36-8850-371d4102df2f","system_id":"levelo_inurba_marseille","lat":43.315289,"lon":5.380349,"is_reserved":false,"is_disabled":false,"rental_uris":{"android":"levelo://app?vid=d615bec8-d16a-4c36-8850-371d4102df2f","ios":"levelo://app?vid=d615bec8-d16a-4c36-8850-371d4102df2f"},"vehicle_type_id":"4","last_reported":1686866756,"current_range_meters":31200,"station_id":"ce4bhsp2rcd13ifvqi50","pricing_plan_id":"free"},{"bike_id":"5ae2b31b-5738-4c93-a2fb-64e8edbc4b55","system_id":"levelo_inurba_marseille","lat":43.315289,"lon":5.380349,"is_reserved":false,"is_disabled":false,"rental_uris":{"android":"levelo://app?vid=5ae2b31b-5738-4c93-a2fb-64e8edbc4b55","ios":"levelo://app?vid=5ae2b31b-5738-4c93-a2fb-64e8edbc4b55"},"vehicle_type_id":"4","last_reported":1686866756,"current_range_meters":6000,"station_id":"ce4bhsp2rcd13ifvqi50","pricing_plan_id":"free"},{"bike_id":"cd8b6958-c31a-4a9d-8c48-cf838953f3b1","system_id":"levelo_inurba_marseille","lat":43.315289,"lon":5.380349,"is_reserved":false,"is_disabled":false,"rental_uris":{"android":"levelo://app?vid=cd8b6958-c31a-4a9d-8c48-cf838953f3b1","ios":"levelo://app?vid=cd8b6958-c31a-4a9d-8c48-cf838953f3b1"},"vehicle_type_id":"4","last_reported":1686866756,"current_range_meters":30400,"station_id":"ce4bhsp2rcd13ifvqi50","pricing_plan_id":"free"},{"bike_id":"df547573-eb08-4cca-a308-b38dcac13e1a","system_id":"levelo_inurba_marseille","lat":43.315289,"lon":5.380349,"is_reserved":false,"is_disabled":false,"rental_uris":{"android":"levelo://app?vid=df547573-eb08-4cca-a308-b38dcac13e1a","ios":"levelo://app?vid=df547573-eb08-4cca-a308-b38dcac13e1a"},"vehicle_type_id":"4","last_reported":1686866756,"current_range_meters":7600,"station_id":"ce4bhsp2rcd13ifvqi50","pricing_plan_id":"free"},{"bike_id":"ae33307b-fcd5-479b-9ae1-9002ed226c6e","system_id":"levelo_inurba_marseille","lat":43.308012,"lon":5.381511,"is_reserved":false,"is_disabled":false,"rental_uris":{"android":"levelo://app?vid=ae33307b-fcd5-479b-9ae1-9002ed226c6e","ios":"levelo://app?vid=ae33307b-fcd5-479b-9ae1-9002ed226c6e"},"vehicle_type_id":"4","last_reported":1686866756,"current_range_meters":18000,"station_id":"ce4bgt12rcd13ifvqce0","pricing_plan_id":"free"},{"bike_id":"fc4a69da-5dee-4c68-8631-20ee11bc487b","system_id":"levelo_inurba_marseille","lat":43.304606,"lon":5.379026,"is_reserved":false,"is_disabled":false,"rental_uris":{"android":"levelo://app?vid=fc4a69da-5dee-4c68-8631-20ee11bc487b","ios":"levelo://app?vid=fc4a69da-5dee-4c68-8631-20ee11bc487b"},"vehicle_type_id":"4","last_reported":1686866756,"current_range_meters":31200,"station_id":"ce4bgup2rcd13ifvqcn0","pricing_plan_id":"free"},{"bike_id":"32827146-2d6b-4fb1-b00e-6b2f535ca544","system_id":"levelo_inurba_marseille","lat":43.304606,"lon":5.379026,"is_reserved":false,"is_disabled":false,"rental_uris":{"android":"levelo://app?vid=32827146-2d6b-4fb1-b00e-6b2f535ca544","ios":"levelo://app?vid=32827146-2d6b-4fb1-b00e-6b2f535ca544"},"vehicle_type_id":"4","last_reported":1686866756,"current_range_meters":31200,"station_id":"ce4bgup2rcd13ifvqcn0","pricing_plan_id":"free"},{"bike_id":"b408d341-c6a2-42d0-a4fd-765f98a8b57e","system_id":"levelo_inurba_marseille","lat":43.30145,"lon":5.37416,"is_reserved":false,"is_disabled":false,"rental_uris":{"android":"levelo://app?vid=b408d341-c6a2-42d0-a4fd-765f98a8b57e","ios":"levelo://app?vid=b408d341-c6a2-42d0-a4fd-765f98a8b57e"},"vehicle_type_id":"4","last_reported":1686866756,"current_range_meters":30000,"station_id":"ce4bgs92rcd13ifvqcc0","pricing_plan_id":"free"},{"bike_id":"9f66c586-36b8-410b-a384-4314decc6f7e","system_id":"levelo_inurba_marseille","lat":43.31994,"lon":5.38143,"is_reserved":false,"is_disabled":false,"rental_uris":{"android":"levelo://app?vid=9f66c586-36b8-410b-a384-4314decc6f7e","ios":"levelo://app?vid=9f66c586-36b8-410b-a384-4314decc6f7e"},"vehicle_type_id":"4","last_reported":1686866756,"current_range_meters":0,"station_id":"ce4bhr12rcd13ifvqhpg","pricing_plan_id":"free"},{"bike_id":"14a08899-349d-4c49-bd20-7204a0b2cd69","system_id":"levelo_inurba_marseille","lat":43.31992,"lon":5.38146,"is_reserved":false,"is_disabled":false,"rental_uris":{"android":"levelo://app?vid=14a08899-349d-4c49-bd20-7204a0b2cd69","ios":"levelo://app?vid=14a08899-349d-4c49-bd20-7204a0b2cd69"},"vehicle_type_id":"4","last_reported":1686866756,"current_range_meters":7200,"station_id":"ce4bhr12rcd13ifvqhpg","pricing_plan_id":"free"},{"bike_id":"c362f0e8-0431-494c-8f4e-329091583422","system_id":"levelo_inurba_marseille","lat":43.319935,"lon":5.381699,"is_reserved":false,"is_disabled":false,"rental_uris":{"android":"levelo://app?vid=c362f0e8-0431-494c-8f4e-329091583422","ios":"levelo://app?vid=c362f0e8-0431-494c-8f4e-329091583422"},"vehicle_type_id":"4","last_reported":1686866756,"current_range_meters":27600,"station_id":"ce4bhr12rcd13ifvqhpg","pricing_plan_id":"free"},{"bike_id":"7327afa7-2fad-4a01-aeb9-a9d14bfbe769","system_id":"levelo_inurba_marseille","lat":43.319935,"lon":5.381699,"is_reserved":false,"is_disabled":false,"rental_uris":{"android":"levelo://app?vid=7327afa7-2fad-4a01-aeb9-a9d14bfbe769","ios":"levelo://app?vid=7327afa7-2fad-4a01-aeb9-a9d14bfbe769"},"vehicle_type_id":"4","last_reported":1686866756,"current_range_meters":14000,"station_id":"ce4bhr12rcd13ifvqhpg","pricing_plan_id":"free"},{"bike_id":"973279cd-48b3-4da5-b019-6bde256ffa58","system_id":"levelo_inurba_marseille","lat":43.32009,"lon":5.38168,"is_reserved":false,"is_disabled":false,"rental_uris":{"android":"levelo://app?vid=973279cd-48b3-4da5-b019-6bde256ffa58","ios":"levelo://app?vid=973279cd-48b3-4da5-b019-6bde256ffa58"},"vehicle_type_id":"4","last_reported":1686866756,"current_range_meters":8000,"station_id":"ce4bhr12rcd13ifvqhpg","pricing_plan_id":"free"},{"bike_id":"0b87a59c-d009-4fad-9e2e-562672cda5fc","system_id":"levelo_inurba_marseille","lat":43.313571,"lon":5.384829,"is_reserved":false,"is_disabled":false,"rental_uris":{"android":"levelo://app?vid=0b87a59c-d009-4fad-9e2e-562672cda5fc","ios":"levelo://app?vid=0b87a59c-d009-4fad-9e2e-562672cda5fc"},"vehicle_type_id":"4","last_reported":1686866756,"current_range_meters":31200,"station_id":"ce4bgt92rcd13ifvqcf0","pricing_plan_id":"free"},{"bike_id":"1c022265-69bb-49c6-8b9d-2f0b47d102c6","system_id":"levelo_inurba_marseille","lat":43.3053,"lon":5.38418,"is_reserved":false,"is_disabled":false,"rental_uris":{"android":"levelo://app?vid=1c022265-69bb-49c6-8b9d-2f0b47d102c6","ios":"levelo://app?vid=1c022265-69bb-49c6-8b9d-2f0b47d102c6"},"vehicle_type_id":"4","last_reported":1686866756,"current_range_meters":12400,"station_id":"ce4bgg92rcd13ifvqb30","pricing_plan_id":"free"},{"bike_id":"6c139935-50f0-4a19-8f9a-1527e7d2732d","system_id":"levelo_inurba_marseille","lat":43.311722,"lon":5.387247,"is_reserved":false,"is_disabled":false,"rental_uris":{"android":"levelo://app?vid=6c139935-50f0-4a19-8f9a-1527e7d2732d","ios":"levelo://app?vid=6c139935-50f0-4a19-8f9a-1527e7d2732d"},"vehicle_type_id":"4","last_reported":1686866756,"current_range_meters":5200,"station_id":"ce4bgv12rcd13ifvqcp0","pricing_plan_id":"free"},{"bike_id":"7ccf94fb-4dda-4d8b-8fde-ca0864d65a46","system_id":"levelo_inurba_marseille","lat":43.29712,"lon":5.365974,"is_reserved":false,"is_disabled":false,"rental_uris":{"android":"levelo://app?vid=7ccf94fb-4dda-4d8b-8fde-ca0864d65a46","ios":"levelo://app?vid=7ccf94fb-4dda-4d8b-8fde-ca0864d65a46"},"vehicle_type_id":"4","last_reported":1686866756,"current_range_meters":31200,"station_id":"","pricing_plan_id":"free"},{"bike_id":"91de195a-66c4-4c9a-b0c0-a82a42cd8927","system_id":"levelo_inurba_marseille","lat":43.297081,"lon":5.365975,"is_reserved":false,"is_disabled":false,"rental_uris":{"android":"levelo://app?vid=91de195a-66c4-4c9a-b0c0-a82a42cd8927","ios":"levelo://app?vid=91de195a-66c4-4c9a-b0c0-a82a42cd8927"},"vehicle_type_id":"4","last_reported":1686866756,"current_range_meters":26000,"station_id":"","pricing_plan_id":"free"},{"bike_id":"1ea12a67-ede4-4ff8-a101-50b723846867","system_id":"levelo_inurba_marseille","lat":43.297071,"lon":5.366017,"is_reserved":false,"is_disabled":false,"rental_uris":{"android":"levelo://app?vid=1ea12a67-ede4-4ff8-a101-50b723846867","ios":"levelo://app?vid=1ea12a67-ede4-4ff8-a101-50b723846867"},"vehicle_type_id":"4","last_reported":1686866756,"current_range_meters":22400,"station_id":"","pricing_plan_id":"free"},{"bike_id":"47c49b60-f0b8-4146-97c8-091883ca7a04","system_id":"levelo_inurba_marseille","lat":43.29672,"lon":5.3728,"is_reserved":false,"is_disabled":false,"rental_uris":{"android":"levelo://app?vid=47c49b60-f0b8-4146-97c8-091883ca7a04","ios":"levelo://app?vid=47c49b60-f0b8-4146-97c8-091883ca7a04"},"vehicle_type_id":"4","last_reported":1686866756,"current_range_meters":6800,"station_id":"ce4bgk12rcd13ifvqbj0","pricing_plan_id":"free"},{"bike_id":"88d0330c-5bb0-4a19-9b65-d4683b42e015","system_id":"levelo_inurba_marseille","lat":43.29683,"lon":5.36046,"is_reserved":false,"is_disabled":false,"rental_uris":{"android":"levelo://app?vid=88d0330c-5bb0-4a19-9b65-d4683b42e015","ios":"levelo://app?vid=88d0330c-5bb0-4a19-9b65-d4683b42e015"},"vehicle_type_id":"4","last_reported":1686866756,"current_range_meters":12800,"station_id":"ce4bgpp2rcd13ifvqc3g","pricing_plan_id":"free"},{"bike_id":"92c79d6a-5355-4481-a04e-822064accb56","system_id":"levelo_inurba_marseille","lat":43.309589,"lon":5.390258,"is_reserved":false,"is_disabled":false,"rental_uris":{"android":"levelo://app?vid=92c79d6a-5355-4481-a04e-822064accb56","ios":"levelo://app?vid=92c79d6a-5355-4481-a04e-822064accb56"},"vehicle_type_id":"4","last_reported":1686866756,"current_range_meters":6400,"station_id":"ce4bgup2rcd13ifvqco0","pricing_plan_id":"free"},{"bike_id":"113d8f7e-ffd1-4394-aaba-49ba04306712","system_id":"levelo_inurba_marseille","lat":43.317557,"lon":5.390173,"is_reserved":false,"is_disabled":false,"rental_uris":{"android":"levelo://app?vid=113d8f7e-ffd1-4394-aaba-49ba04306712","ios":"levelo://app?vid=113d8f7e-ffd1-4394-aaba-49ba04306712"},"vehicle_type_id":"4","last_reported":1686866756,"current_range_meters":14400,"station_id":"ce4bhqp2rcd13ifvqhng","pricing_plan_id":"free"},{"bike_id":"1911e093-d8d6-46bd-9f70-1bed64e4c4f8","system_id":"levelo_inurba_marseille","lat":43.317557,"lon":5.390173,"is_reserved":false,"is_disabled":false,"rental_uris":{"android":"levelo://app?vid=1911e093-d8d6-46bd-9f70-1bed64e4c4f8","ios":"levelo://app?vid=1911e093-d8d6-46bd-9f70-1bed64e4c4f8"},"vehicle_type_id":"4","last_reported":1686866756,"current_range_meters":21200,"station_id":"ce4bhqp2rcd13ifvqhng","pricing_plan_id":"free"},{"bike_id":"ca0ef5eb-8bb2-4f91-83b6-3c573a28c588","system_id":"levelo_inurba_marseille","lat":43.317557,"lon":5.390173,"is_reserved":false,"is_disabled":false,"rental_uris":{"android":"levelo://app?vid=ca0ef5eb-8bb2-4f91-83b6-3c573a28c588","ios":"levelo://app?vid=ca0ef5eb-8bb2-4f91-83b6-3c573a28c588"},"vehicle_type_id":"4","last_reported":1686866756,"current_range_meters":26400,"station_id":"ce4bhqp2rcd13ifvqhng","pricing_plan_id":"free"},{"bike_id":"83435960-d7b2-46ac-b4a3-96927ee48158","system_id":"levelo_inurba_marseille","lat":43.298037,"lon":5.381066,"is_reserved":false,"is_disabled":false,"rental_uris":{"android":"levelo://app?vid=83435960-d7b2-46ac-b4a3-96927ee48158","ios":"levelo://app?vid=83435960-d7b2-46ac-b4a3-96927ee48158"},"vehicle_type_id":"4","last_reported":1686866756,"current_range_meters":0,"station_id":"ce4bgip2rcd13ifvqbb0","pricing_plan_id":"free"},{"bike_id":"c077e878-a770-4b32-b7b8-1fa895def5dc","system_id":"levelo_inurba_marseille","lat":43.298037,"lon":5.381066,"is_reserved":false,"is_disabled":false,"rental_uris":{"android":"levelo://app?vid=c077e878-a770-4b32-b7b8-1fa895def5dc","ios":"levelo://app?vid=c077e878-a770-4b32-b7b8-1fa895def5dc"},"vehicle_type_id":"4","last_reported":1686866756,"current_range_meters":0,"station_id":"ce4bgip2rcd13ifvqbb0","pricing_plan_id":"free"},{"bike_id":"78215555-c896-40a2-aa66-c1d318a07622","system_id":"levelo_inurba_marseille","lat":43.32367,"lon":5.388836,"is_reserved":false,"is_disabled":false,"rental_uris":{"android":"levelo://app?vid=78215555-c896-40a2-aa66-c1d318a07622","ios":"levelo://app?vid=78215555-c896-40a2-aa66-c1d318a07622"},"vehicle_type_id":"4","last_reported":1686866756,"current_range_meters":13600,"station_id":"ce4bhqp2rcd13ifvqhog","pricing_plan_id":"free"},{"bike_id":"4e609ef0-2e17-4e6c-ba3b-29daedaa2e8a","system_id":"levelo_inurba_marseille","lat":43.32367,"lon":5.388836,"is_reserved":false,"is_disabled":false,"rental_uris":{"android":"levelo://app?vid=4e609ef0-2e17-4e6c-ba3b-29daedaa2e8a","ios":"levelo://app?vid=4e609ef0-2e17-4e6c-ba3b-29daedaa2e8a"},"vehicle_type_id":"4","last_reported":1686866756,"current_range_meters":22800,"station_id":"ce4bhqp2rcd13ifvqhog","pricing_plan_id":"free"},{"bike_id":"2c9ad911-25e0-4222-8751-d809dfadd582","system_id":"levelo_inurba_marseille","lat":43.32367,"lon":5.388836,"is_reserved":false,"is_disabled":false,"rental_uris":{"android":"levelo://app?vid=2c9ad911-25e0-4222-8751-d809dfadd582","ios":"levelo://app?vid=2c9ad911-25e0-4222-8751-d809dfadd582"},"vehicle_type_id":"4","last_reported":1686866756,"current_range_meters":9200,"station_id":"ce4bhqp2rcd13ifvqhog","pricing_plan_id":"free"},{"bike_id":"71deb49d-5864-4461-882a-e14e759319e0","system_id":"levelo_inurba_marseille","lat":43.32367,"lon":5.388836,"is_reserved":false,"is_disabled":false,"rental_uris":{"android":"levelo://app?vid=71deb49d-5864-4461-882a-e14e759319e0","ios":"levelo://app?vid=71deb49d-5864-4461-882a-e14e759319e0"},"vehicle_type_id":"4","last_reported":1686866756,"current_range_meters":7600,"station_id":"ce4bhqp2rcd13ifvqhog","pricing_plan_id":"free"},{"bike_id":"c153f200-368f-49ef-9cf0-3bef515e633e","system_id":"levelo_inurba_marseille","lat":43.32367,"lon":5.388836,"is_reserved":false,"is_disabled":false,"rental_uris":{"android":"levelo://app?vid=c153f200-368f-49ef-9cf0-3bef515e633e","ios":"levelo://app?vid=c153f200-368f-49ef-9cf0-3bef515e633e"},"vehicle_type_id":"4","last_reported":1686866756,"current_range_meters":31200,"station_id":"ce4bhqp2rcd13ifvqhog","pricing_plan_id":"free"},{"bike_id":"20a5b24d-b520-42df-8ac4-5a606a1b7de6","system_id":"levelo_inurba_marseille","lat":43.32367,"lon":5.388836,"is_reserved":false,"is_disabled":false,"rental_uris":{"android":"levelo://app?vid=20a5b24d-b520-42df-8ac4-5a606a1b7de6","ios":"levelo://app?vid=20a5b24d-b520-42df-8ac4-5a606a1b7de6"},"vehicle_type_id":"4","last_reported":1686866756,"current_range_meters":12800,"station_id":"ce4bhqp2rcd13ifvqhog","pricing_plan_id":"free"},{"bike_id":"fb8fc677-edba-4d55-b56e-5f6d130b2c77","system_id":"levelo_inurba_marseille","lat":43.29422,"lon":5.37504,"is_reserved":false,"is_disabled":false,"rental_uris":{"android":"levelo://app?vid=fb8fc677-edba-4d55-b56e-5f6d130b2c77","ios":"levelo://app?vid=fb8fc677-edba-4d55-b56e-5f6d130b2c77"},"vehicle_type_id":"4","last_reported":1686866756,"current_range_meters":18400,"station_id":"","pricing_plan_id":"free"},{"bike_id":"b34ae15f-c416-415b-bdeb-ab522975cdaa","system_id":"levelo_inurba_marseille","lat":43.301117,"lon":5.398795,"is_reserved":false,"is_disabled":false,"rental_uris":{"android":"levelo://app?vid=b34ae15f-c416-415b-bdeb-ab522975cdaa","ios":"levelo://app?vid=b34ae15f-c416-415b-bdeb-ab522975cdaa"},"vehicle_type_id":"4","last_reported":1686866756,"current_range_meters":6400,"station_id":"ce4bh0h2rcd13ifvqd40","pricing_plan_id":"free"},{"bike_id":"d3e5ec50-cdd2-4dda-b3aa-56eb536bbb12","system_id":"levelo_inurba_marseille","lat":43.29266,"lon":5.35985,"is_reserved":false,"is_disabled":false,"rental_uris":{"android":"levelo://app?vid=d3e5ec50-cdd2-4dda-b3aa-56eb536bbb12","ios":"levelo://app?vid=d3e5ec50-cdd2-4dda-b3aa-56eb536bbb12"},"vehicle_type_id":"4","last_reported":1686866756,"current_range_meters":28400,"station_id":"","pricing_plan_id":"free"},{"bike_id":"5e0e176a-017c-4d9c-84d8-049a4d8f00ba","system_id":"levelo_inurba_marseille","lat":43.2936,"lon":5.37835,"is_reserved":false,"is_disabled":false,"rental_uris":{"android":"levelo://app?vid=5e0e176a-017c-4d9c-84d8-049a4d8f00ba","ios":"levelo://app?vid=5e0e176a-017c-4d9c-84d8-049a4d8f00ba"},"vehicle_type_id":"4","last_reported":1686866756,"current_range_meters":2000,"station_id":"ce4bgjh2rcd13ifvqbf0","pricing_plan_id":"free"},{"bike_id":"26ae5a0a-a260-49f5-99d8-540654f12ecc","system_id":"levelo_inurba_marseille","lat":43.2936,"lon":5.37835,"is_reserved":false,"is_disabled":false,"rental_uris":{"android":"levelo://app?vid=26ae5a0a-a260-49f5-99d8-540654f12ecc","ios":"levelo://app?vid=26ae5a0a-a260-49f5-99d8-540654f12ecc"},"vehicle_type_id":"4","last_reported":1686866756,"current_range_meters":5600,"station_id":"ce4bgjh2rcd13ifvqbf0","pricing_plan_id":"free"},{"bike_id":"2cbf5ff5-62af-4a21-89ed-8fbee3c2114e","system_id":"levelo_inurba_marseille","lat":43.302992,"lon":5.392136,"is_reserved":false,"is_disabled":false,"rental_uris":{"android":"levelo://app?vid=2cbf5ff5-62af-4a21-89ed-8fbee3c2114e","ios":"levelo://app?vid=2cbf5ff5-62af-4a21-89ed-8fbee3c2114e"},"vehicle_type_id":"4","last_reported":1686866756,"current_range_meters":7200,"station_id":"ce4bgkh2rcd13ifvqbk0","pricing_plan_id":"free"},{"bike_id":"3c84d9b6-7d3d-4dae-8288-e2849aa05155","system_id":"levelo_inurba_marseille","lat":43.30091,"lon":5.39073,"is_reserved":false,"is_disabled":false,"rental_uris":{"android":"levelo://app?vid=3c84d9b6-7d3d-4dae-8288-e2849aa05155","ios":"levelo://app?vid=3c84d9b6-7d3d-4dae-8288-e2849aa05155"},"vehicle_type_id":"4","last_reported":1686866756,"current_range_meters":9600,"station_id":"ce4bh192rcd13ifvqdb0","pricing_plan_id":"free"},{"bike_id":"f929f871-4784-48ae-ad9f-c63eecbaebd5","system_id":"levelo_inurba_marseille","lat":43.29224,"lon":5.36069,"is_reserved":false,"is_disabled":false,"rental_uris":{"android":"levelo://app?vid=f929f871-4784-48ae-ad9f-c63eecbaebd5","ios":"levelo://app?vid=f929f871-4784-48ae-ad9f-c63eecbaebd5"},"vehicle_type_id":"4","last_reported":1686866756,"current_range_meters":27200,"station_id":"ce4bhbh2rcd13ifvqeqg","pricing_plan_id":"free"},{"bike_id":"45d22024-432d-441e-9e98-3e28068202dd","system_id":"levelo_inurba_marseille","lat":43.31178,"lon":5.39594,"is_reserved":false,"is_disabled":false,"rental_uris":{"android":"levelo://app?vid=45d22024-432d-441e-9e98-3e28068202dd","ios":"levelo://app?vid=45d22024-432d-441e-9e98-3e28068202dd"},"vehicle_type_id":"4","last_reported":1686866756,"current_range_meters":6800,"station_id":"","pricing_plan_id":"free"},{"bike_id":"deb900cb-3aea-43c7-ac67-4c2230363ee2","system_id":"levelo_inurba_marseille","lat":43.29884,"lon":5.38896,"is_reserved":false,"is_disabled":false,"rental_uris":{"android":"levelo://app?vid=deb900cb-3aea-43c7-ac67-4c2230363ee2","ios":"levelo://app?vid=deb900cb-3aea-43c7-ac67-4c2230363ee2"},"vehicle_type_id":"4","last_reported":1686866756,"current_range_meters":5200,"station_id":"ce4bh392rcd13ifvqdl0","pricing_plan_id":"free"},{"bike_id":"a04e70cd-2a1d-4152-b6e6-dee63e9aba55","system_id":"levelo_inurba_marseille","lat":43.291671,"lon":5.371575,"is_reserved":false,"is_disabled":false,"rental_uris":{"android":"levelo://app?vid=a04e70cd-2a1d-4152-b6e6-dee63e9aba55","ios":"levelo://app?vid=a04e70cd-2a1d-4152-b6e6-dee63e9aba55"},"vehicle_type_id":"4","last_reported":1686866756,"current_range_meters":0,"station_id":"ce4bha92rcd13ifvqeh0","pricing_plan_id":"free"},{"bike_id":"4e1ad3fa-c223-4650-ab03-64369f3f6458","system_id":"levelo_inurba_marseille","lat":43.309038,"lon":5.396546,"is_reserved":false,"is_disabled":false,"rental_uris":{"android":"levelo://app?vid=4e1ad3fa-c223-4650-ab03-64369f3f6458","ios":"levelo://app?vid=4e1ad3fa-c223-4650-ab03-64369f3f6458"},"vehicle_type_id":"4","last_reported":1686866756,"current_range_meters":18400,"station_id":"ce4bh012rcd13ifvqcv0","pricing_plan_id":"free"},{"bike_id":"a7b2a4df-0afa-4f2c-bb10-7b3e48d4e96a","system_id":"levelo_inurba_marseille","lat":43.309038,"lon":5.396546,"is_reserved":false,"is_disabled":false,"rental_uris":{"android":"levelo://app?vid=a7b2a4df-0afa-4f2c-bb10-7b3e48d4e96a","ios":"levelo://app?vid=a7b2a4df-0afa-4f2c-bb10-7b3e48d4e96a"},"vehicle_type_id":"4","last_reported":1686866756,"current_range_meters":19200,"station_id":"ce4bh012rcd13ifvqcv0","pricing_plan_id":"free"},{"bike_id":"a8414a31-b306-4141-a194-429e4a575ed7","system_id":"levelo_inurba_marseille","lat":43.309038,"lon":5.396546,"is_reserved":false,"is_disabled":false,"rental_uris":{"android":"levelo://app?vid=a8414a31-b306-4141-a194-429e4a575ed7","ios":"levelo://app?vid=a8414a31-b306-4141-a194-429e4a575ed7"},"vehicle_type_id":"4","last_reported":1686866756,"current_range_meters":18000,"station_id":"ce4bh012rcd13ifvqcv0","pricing_plan_id":"free"},{"bike_id":"3c75d78a-8700-47ee-8b80-e96e0b0c5746","system_id":"levelo_inurba_marseille","lat":43.309038,"lon":5.396546,"is_reserved":false,"is_disabled":false,"rental_uris":{"android":"levelo://app?vid=3c75d78a-8700-47ee-8b80-e96e0b0c5746","ios":"levelo://app?vid=3c75d78a-8700-47ee-8b80-e96e0b0c5746"},"vehicle_type_id":"4","last_reported":1686866756,"current_range_meters":9600,"station_id":"ce4bh012rcd13ifvqcv0","pricing_plan_id":"free"},{"bike_id":"e275adb2-0c22-4ff3-bd7e-64b02de87a7d","system_id":"levelo_inurba_marseille","lat":43.313291,"lon":5.396838,"is_reserved":false,"is_disabled":false,"rental_uris":{"android":"levelo://app?vid=e275adb2-0c22-4ff3-bd7e-64b02de87a7d","ios":"levelo://app?vid=e275adb2-0c22-4ff3-bd7e-64b02de87a7d"},"vehicle_type_id":"4","last_reported":1686866756,"current_range_meters":3600,"station_id":"ce4bgvp2rcd13ifvqcu0","pricing_plan_id":"free"},{"bike_id":"ff44794b-bd71-4da2-8587-e06f051f6a29","system_id":"levelo_inurba_marseille","lat":43.309038,"lon":5.396546,"is_reserved":false,"is_disabled":false,"rental_uris":{"android":"levelo://app?vid=ff44794b-bd71-4da2-8587-e06f051f6a29","ios":"levelo://app?vid=ff44794b-bd71-4da2-8587-e06f051f6a29"},"vehicle_type_id":"4","last_reported":1686866756,"current_range_meters":12800,"station_id":"ce4bh012rcd13ifvqcv0","pricing_plan_id":"free"},{"bike_id":"72097416-7f45-450d-ad4e-28ca496e6d4f","system_id":"levelo_inurba_marseille","lat":43.313291,"lon":5.396838,"is_reserved":false,"is_disabled":false,"rental_uris":{"android":"levelo://app?vid=72097416-7f45-450d-ad4e-28ca496e6d4f","ios":"levelo://app?vid=72097416-7f45-450d-ad4e-28ca496e6d4f"},"vehicle_type_id":"4","last_reported":1686866756,"current_range_meters":2800,"station_id":"ce4bgvp2rcd13ifvqcu0","pricing_plan_id":"free"},{"bike_id":"b11297a7-e645-4dbc-afb2-5a9ebeb21663","system_id":"levelo_inurba_marseille","lat":43.309038,"lon":5.396546,"is_reserved":false,"is_disabled":false,"rental_uris":{"android":"levelo://app?vid=b11297a7-e645-4dbc-afb2-5a9ebeb21663","ios":"levelo://app?vid=b11297a7-e645-4dbc-afb2-5a9ebeb21663"},"vehicle_type_id":"4","last_reported":1686866756,"current_range_meters":8000,"station_id":"ce4bh012rcd13ifvqcv0","pricing_plan_id":"free"},{"bike_id":"b30003d8-62f7-4571-86c1-5a69e947cbb4","system_id":"levelo_inurba_marseille","lat":43.3133,"lon":5.39695,"is_reserved":false,"is_disabled":false,"rental_uris":{"android":"levelo://app?vid=b30003d8-62f7-4571-86c1-5a69e947cbb4","ios":"levelo://app?vid=b30003d8-62f7-4571-86c1-5a69e947cbb4"},"vehicle_type_id":"4","last_reported":1686866756,"current_range_meters":0,"station_id":"ce4bgvp2rcd13ifvqcu0","pricing_plan_id":"free"},{"bike_id":"2a8983f8-0435-4302-a26c-47fadbb58632","system_id":"levelo_inurba_marseille","lat":43.30893,"lon":5.39651,"is_reserved":false,"is_disabled":false,"rental_uris":{"android":"levelo://app?vid=2a8983f8-0435-4302-a26c-47fadbb58632","ios":"levelo://app?vid=2a8983f8-0435-4302-a26c-47fadbb58632"},"vehicle_type_id":"4","last_reported":1686866756,"current_range_meters":17600,"station_id":"ce4bh012rcd13ifvqcv0","pricing_plan_id":"free"},{"bike_id":"5b433072-5fde-47a2-81f1-03acedbdb6f5","system_id":"levelo_inurba_marseille","lat":43.30886,"lon":5.39653,"is_reserved":false,"is_disabled":false,"rental_uris":{"android":"levelo://app?vid=5b433072-5fde-47a2-81f1-03acedbdb6f5","ios":"levelo://app?vid=5b433072-5fde-47a2-81f1-03acedbdb6f5"},"vehicle_type_id":"4","last_reported":1686866756,"current_range_meters":12400,"station_id":"","pricing_plan_id":"free"},{"bike_id":"291f96f1-03c2-42cb-9f81-48165ca6e607","system_id":"levelo_inurba_marseille","lat":43.29529,"lon":5.385581,"is_reserved":false,"is_disabled":false,"rental_uris":{"android":"levelo://app?vid=291f96f1-03c2-42cb-9f81-48165ca6e607","ios":"levelo://app?vid=291f96f1-03c2-42cb-9f81-48165ca6e607"},"vehicle_type_id":"4","last_reported":1686866756,"current_range_meters":0,"station_id":"ce4bgih2rcd13ifvqba0","pricing_plan_id":"free"},{"bike_id":"3e62e4cf-9ace-4641-9c23-3c9f1a074f49","system_id":"levelo_inurba_marseille","lat":43.33043,"lon":5.3891,"is_reserved":false,"is_disabled":false,"rental_uris":{"android":"levelo://app?vid=3e62e4cf-9ace-4641-9c23-3c9f1a074f49","ios":"levelo://app?vid=3e62e4cf-9ace-4641-9c23-3c9f1a074f49"},"vehicle_type_id":"4","last_reported":1686866756,"current_range_meters":23600,"station_id":"ce4bhr92rcd13ifvqhrg","pricing_plan_id":"free"},{"bike_id":"a4d2814a-ff66-466e-b091-93a97eadc809","system_id":"levelo_inurba_marseille","lat":43.33046,"lon":5.38917,"is_reserved":false,"is_disabled":false,"rental_uris":{"android":"levelo://app?vid=a4d2814a-ff66-466e-b091-93a97eadc809","ios":"levelo://app?vid=a4d2814a-ff66-466e-b091-93a97eadc809"},"vehicle_type_id":"4","last_reported":1686866756,"current_range_meters":31200,"station_id":"ce4bhr92rcd13ifvqhrg","pricing_plan_id":"free"},{"bike_id":"4828fe20-4ccb-48a7-91cd-ef88cd86a8a1","system_id":"levelo_inurba_marseille","lat":43.330487,"lon":5.389164,"is_reserved":false,"is_disabled":false,"rental_uris":{"android":"levelo://app?vid=4828fe20-4ccb-48a7-91cd-ef88cd86a8a1","ios":"levelo://app?vid=4828fe20-4ccb-48a7-91cd-ef88cd86a8a1"},"vehicle_type_id":"4","last_reported":1686866756,"current_range_meters":24000,"station_id":"","pricing_plan_id":"free"},{"bike_id":"79184db2-5c2d-4874-b9db-ba0ac855f314","system_id":"levelo_inurba_marseille","lat":43.330451,"lon":5.389229,"is_reserved":false,"is_disabled":false,"rental_uris":{"android":"levelo://app?vid=79184db2-5c2d-4874-b9db-ba0ac855f314","ios":"levelo://app?vid=79184db2-5c2d-4874-b9db-ba0ac855f314"},"vehicle_type_id":"4","last_reported":1686866756,"current_range_meters":13200,"station_id":"ce4bhr92rcd13ifvqhrg","pricing_plan_id":"free"},{"bike_id":"9add8f45-ba19-4365-9c40-1bba0a103763","system_id":"levelo_inurba_marseille","lat":43.330457,"lon":5.389241,"is_reserved":false,"is_disabled":false,"rental_uris":{"android":"levelo://app?vid=9add8f45-ba19-4365-9c40-1bba0a103763","ios":"levelo://app?vid=9add8f45-ba19-4365-9c40-1bba0a103763"},"vehicle_type_id":"4","last_reported":1686866756,"current_range_meters":15200,"station_id":"ce4bhr92rcd13ifvqhrg","pricing_plan_id":"free"},{"bike_id":"13d5a42e-daac-4dee-b9dc-10feb0e254dc","system_id":"levelo_inurba_marseille","lat":43.297814,"lon":5.393513,"is_reserved":false,"is_disabled":false,"rental_uris":{"android":"levelo://app?vid=13d5a42e-daac-4dee-b9dc-10feb0e254dc","ios":"levelo://app?vid=13d5a42e-daac-4dee-b9dc-10feb0e254dc"},"vehicle_type_id":"4","last_reported":1686866756,"current_range_meters":2800,"station_id":"chh1huq6cuj3fo74tm60","pricing_plan_id":"free"},{"bike_id":"b5b53834-5e69-48cc-a021-89a2f3ab7599","system_id":"levelo_inurba_marseille","lat":43.29026,"lon":5.3814,"is_reserved":false,"is_disabled":false,"rental_uris":{"android":"levelo://app?vid=b5b53834-5e69-48cc-a021-89a2f3ab7599","ios":"levelo://app?vid=b5b53834-5e69-48cc-a021-89a2f3ab7599"},"vehicle_type_id":"4","last_reported":1686866756,"current_range_meters":31200,"station_id":"ce4bh4p2rcd13ifvqe1g","pricing_plan_id":"free"},{"bike_id":"c0fb8083-e02d-4dec-b1b9-fa095e6c5b75","system_id":"levelo_inurba_marseille","lat":43.337396,"lon":5.374526,"is_reserved":false,"is_disabled":false,"rental_uris":{"android":"levelo://app?vid=c0fb8083-e02d-4dec-b1b9-fa095e6c5b75","ios":"levelo://app?vid=c0fb8083-e02d-4dec-b1b9-fa095e6c5b75"},"vehicle_type_id":"4","last_reported":1686866756,"current_range_meters":3600,"station_id":"ce4bhp92rcd13ifvqhag","pricing_plan_id":"free"},{"bike_id":"a2b90eef-33ca-458a-aaa5-7beae570bc6d","system_id":"levelo_inurba_marseille","lat":43.309371,"lon":5.401449,"is_reserved":false,"is_disabled":false,"rental_uris":{"android":"levelo://app?vid=a2b90eef-33ca-458a-aaa5-7beae570bc6d","ios":"levelo://app?vid=a2b90eef-33ca-458a-aaa5-7beae570bc6d"},"vehicle_type_id":"4","last_reported":1686866756,"current_range_meters":26800,"station_id":"ce4bgvp2rcd13ifvqct0","pricing_plan_id":"free"},{"bike_id":"f01cb20e-912b-40d2-ad57-b1c3e62cd7ba","system_id":"levelo_inurba_marseille","lat":43.309371,"lon":5.401449,"is_reserved":false,"is_disabled":false,"rental_uris":{"android":"levelo://app?vid=f01cb20e-912b-40d2-ad57-b1c3e62cd7ba","ios":"levelo://app?vid=f01cb20e-912b-40d2-ad57-b1c3e62cd7ba"},"vehicle_type_id":"4","last_reported":1686866756,"current_range_meters":17600,"station_id":"ce4bgvp2rcd13ifvqct0","pricing_plan_id":"free"},{"bike_id":"386e58dc-6375-4dfe-81fe-a9c843389cef","system_id":"levelo_inurba_marseille","lat":43.309371,"lon":5.401449,"is_reserved":false,"is_disabled":false,"rental_uris":{"android":"levelo://app?vid=386e58dc-6375-4dfe-81fe-a9c843389cef","ios":"levelo://app?vid=386e58dc-6375-4dfe-81fe-a9c843389cef"},"vehicle_type_id":"4","last_reported":1686866756,"current_range_meters":22800,"station_id":"ce4bgvp2rcd13ifvqct0","pricing_plan_id":"free"},{"bike_id":"10cdb518-e270-4caa-b225-2f800bd44b58","system_id":"levelo_inurba_marseille","lat":43.33758,"lon":5.37441,"is_reserved":false,"is_disabled":false,"rental_uris":{"android":"levelo://app?vid=10cdb518-e270-4caa-b225-2f800bd44b58","ios":"levelo://app?vid=10cdb518-e270-4caa-b225-2f800bd44b58"},"vehicle_type_id":"4","last_reported":1686866756,"current_range_meters":24000,"station_id":"","pricing_plan_id":"free"},{"bike_id":"052594a2-1ade-4fb2-a4ed-9a03802e3f88","system_id":"levelo_inurba_marseille","lat":43.306412,"lon":5.401035,"is_reserved":false,"is_disabled":false,"rental_uris":{"android":"levelo://app?vid=052594a2-1ade-4fb2-a4ed-9a03802e3f88","ios":"levelo://app?vid=052594a2-1ade-4fb2-a4ed-9a03802e3f88"},"vehicle_type_id":"4","last_reported":1686866756,"current_range_meters":4800,"station_id":"ce4bh112rcd13ifvqda0","pricing_plan_id":"free"},{"bike_id":"e67b74df-a415-4444-a302-f71dae903bbb","system_id":"levelo_inurba_marseille","lat":43.30642,"lon":5.401031,"is_reserved":false,"is_disabled":false,"rental_uris":{"android":"levelo://app?vid=e67b74df-a415-4444-a302-f71dae903bbb","ios":"levelo://app?vid=e67b74df-a415-4444-a302-f71dae903bbb"},"vehicle_type_id":"4","last_reported":1686866756,"current_range_meters":1600,"station_id":"ce4bh112rcd13ifvqda0","pricing_plan_id":"free"},{"bike_id":"3c64e107-ee92-4466-9efc-d01e9c85075e","system_id":"levelo_inurba_marseille","lat":43.30642,"lon":5.401031,"is_reserved":false,"is_disabled":false,"rental_uris":{"android":"levelo://app?vid=3c64e107-ee92-4466-9efc-d01e9c85075e","ios":"levelo://app?vid=3c64e107-ee92-4466-9efc-d01e9c85075e"},"vehicle_type_id":"4","last_reported":1686866756,"current_range_meters":11200,"station_id":"ce4bh112rcd13ifvqda0","pricing_plan_id":"free"},{"bike_id":"98d735ea-724e-4ba7-ad1d-abb129486b61","system_id":"levelo_inurba_marseille","lat":43.291994,"lon":5.392907,"is_reserved":false,"is_disabled":false,"rental_uris":{"android":"levelo://app?vid=98d735ea-724e-4ba7-ad1d-abb129486b61","ios":"levelo://app?vid=98d735ea-724e-4ba7-ad1d-abb129486b61"},"vehicle_type_id":"4","last_reported":1686866756,"current_range_meters":7200,"station_id":"ce4bh192rcd13ifvqdd0","pricing_plan_id":"free"},{"bike_id":"2eca9e35-5a01-4680-989e-197769f7ece9","system_id":"levelo_inurba_marseille","lat":43.286591,"lon":5.363346,"is_reserved":false,"is_disabled":false,"rental_uris":{"android":"levelo://app?vid=2eca9e35-5a01-4680-989e-197769f7ece9","ios":"levelo://app?vid=2eca9e35-5a01-4680-989e-197769f7ece9"},"vehicle_type_id":"4","last_reported":1686866756,"current_range_meters":0,"station_id":"ce4bhah2rcd13ifvqej0","pricing_plan_id":"free"},{"bike_id":"436c221b-bca0-4b12-b9db-48656b3a8d83","system_id":"levelo_inurba_marseille","lat":43.286593,"lon":5.363346,"is_reserved":false,"is_disabled":false,"rental_uris":{"android":"levelo://app?vid=436c221b-bca0-4b12-b9db-48656b3a8d83","ios":"levelo://app?vid=436c221b-bca0-4b12-b9db-48656b3a8d83"},"vehicle_type_id":"4","last_reported":1686866756,"current_range_meters":29600,"station_id":"ce4bhah2rcd13ifvqej0","pricing_plan_id":"free"},{"bike_id":"ac5d1a37-565e-4134-9ef4-0b22bbc173cd","system_id":"levelo_inurba_marseille","lat":43.286591,"lon":5.363346,"is_reserved":false,"is_disabled":false,"rental_uris":{"android":"levelo://app?vid=ac5d1a37-565e-4134-9ef4-0b22bbc173cd","ios":"levelo://app?vid=ac5d1a37-565e-4134-9ef4-0b22bbc173cd"},"vehicle_type_id":"4","last_reported":1686866756,"current_range_meters":18400,"station_id":"ce4bhah2rcd13ifvqej0","pricing_plan_id":"free"},{"bike_id":"ece0fcd9-bc3b-4b06-9f82-f6545f6de1bb","system_id":"levelo_inurba_marseille","lat":43.28702,"lon":5.37375,"is_reserved":false,"is_disabled":false,"rental_uris":{"android":"levelo://app?vid=ece0fcd9-bc3b-4b06-9f82-f6545f6de1bb","ios":"levelo://app?vid=ece0fcd9-bc3b-4b06-9f82-f6545f6de1bb"},"vehicle_type_id":"4","last_reported":1686866756,"current_range_meters":11600,"station_id":"","pricing_plan_id":"free"},{"bike_id":"e176f62c-19b6-4348-aea1-d384b694523a","system_id":"levelo_inurba_marseille","lat":43.298681,"lon":5.397225,"is_reserved":false,"is_disabled":false,"rental_uris":{"android":"levelo://app?vid=e176f62c-19b6-4348-aea1-d384b694523a","ios":"levelo://app?vid=e176f62c-19b6-4348-aea1-d384b694523a"},"vehicle_type_id":"4","last_reported":1686866756,"current_range_meters":12800,"station_id":"ce4bh0h2rcd13ifvqd50","pricing_plan_id":"free"},{"bike_id":"05b5e554-ea24-4a8b-9576-3ba502a7fa03","system_id":"levelo_inurba_marseille","lat":43.287013,"lon":5.373851,"is_reserved":false,"is_disabled":false,"rental_uris":{"android":"levelo://app?vid=05b5e554-ea24-4a8b-9576-3ba502a7fa03","ios":"levelo://app?vid=05b5e554-ea24-4a8b-9576-3ba502a7fa03"},"vehicle_type_id":"4","last_reported":1686866756,"current_range_meters":0,"station_id":"","pricing_plan_id":"free"},{"bike_id":"f0854f7a-d39b-43a5-b9ec-26e38620cd67","system_id":"levelo_inurba_marseille","lat":43.28701,"lon":5.37392,"is_reserved":false,"is_disabled":false,"rental_uris":{"android":"levelo://app?vid=f0854f7a-d39b-43a5-b9ec-26e38620cd67","ios":"levelo://app?vid=f0854f7a-d39b-43a5-b9ec-26e38620cd67"},"vehicle_type_id":"4","last_reported":1686866756,"current_range_meters":1200,"station_id":"","pricing_plan_id":"free"},{"bike_id":"bd3585aa-7bb7-43a5-b831-61e7016bd82c","system_id":"levelo_inurba_marseille","lat":43.295196,"lon":5.39397,"is_reserved":false,"is_disabled":false,"rental_uris":{"android":"levelo://app?vid=bd3585aa-7bb7-43a5-b831-61e7016bd82c","ios":"levelo://app?vid=bd3585aa-7bb7-43a5-b831-61e7016bd82c"},"vehicle_type_id":"4","last_reported":1686866756,"current_range_meters":25200,"station_id":"ce4bh292rcd13ifvqdf0","pricing_plan_id":"free"},{"bike_id":"1d1721e8-ee0b-4e13-8e92-195492d62887","system_id":"levelo_inurba_marseille","lat":43.287184,"lon":5.37937,"is_reserved":false,"is_disabled":false,"rental_uris":{"android":"levelo://app?vid=1d1721e8-ee0b-4e13-8e92-195492d62887","ios":"levelo://app?vid=1d1721e8-ee0b-4e13-8e92-195492d62887"},"vehicle_type_id":"4","last_reported":1686866756,"current_range_meters":11200,"station_id":"ce4bh9p2rcd13ifvqec0","pricing_plan_id":"free"},{"bike_id":"c3c61161-90c2-4f2e-a1c6-c779c3a135c6","system_id":"levelo_inurba_marseille","lat":43.290336,"lon":5.386425,"is_reserved":false,"is_disabled":false,"rental_uris":{"android":"levelo://app?vid=c3c61161-90c2-4f2e-a1c6-c779c3a135c6","ios":"levelo://app?vid=c3c61161-90c2-4f2e-a1c6-c779c3a135c6"},"vehicle_type_id":"4","last_reported":1686866756,"current_range_meters":7200,"station_id":"ce4bh4p2rcd13ifvqe0g","pricing_plan_id":"free"},{"bike_id":"64e4c683-7dbd-40a8-b305-b6e2abbb6aa6","system_id":"levelo_inurba_marseille","lat":43.302759,"lon":5.400793,"is_reserved":false,"is_disabled":false,"rental_uris":{"android":"levelo://app?vid=64e4c683-7dbd-40a8-b305-b6e2abbb6aa6","ios":"levelo://app?vid=64e4c683-7dbd-40a8-b305-b6e2abbb6aa6"},"vehicle_type_id":"4","last_reported":1686866756,"current_range_meters":8800,"station_id":"ce4bgvh2rcd13ifvqcs0","pricing_plan_id":"free"},{"bike_id":"79be0e60-dec6-4af1-b3e4-0e72d05b29df","system_id":"levelo_inurba_marseille","lat":43.286039,"lon":5.370679,"is_reserved":false,"is_disabled":false,"rental_uris":{"android":"levelo://app?vid=79be0e60-dec6-4af1-b3e4-0e72d05b29df","ios":"levelo://app?vid=79be0e60-dec6-4af1-b3e4-0e72d05b29df"},"vehicle_type_id":"4","last_reported":1686866756,"current_range_meters":15600,"station_id":"ce4bht12rcd13ifvqi60","pricing_plan_id":"free"},{"bike_id":"aff15050-c5d9-49b5-a0e1-3349df41683a","system_id":"levelo_inurba_marseille","lat":43.30169,"lon":5.40076,"is_reserved":false,"is_disabled":false,"rental_uris":{"android":"levelo://app?vid=aff15050-c5d9-49b5-a0e1-3349df41683a","ios":"levelo://app?vid=aff15050-c5d9-49b5-a0e1-3349df41683a"},"vehicle_type_id":"4","last_reported":1686866756,"current_range_meters":22400,"station_id":"","pricing_plan_id":"free"},{"bike_id":"d3be362a-e379-434a-8ab0-7fae3903de3c","system_id":"levelo_inurba_marseille","lat":43.287184,"lon":5.37937,"is_reserved":false,"is_disabled":false,"rental_uris":{"android":"levelo://app?vid=d3be362a-e379-434a-8ab0-7fae3903de3c","ios":"levelo://app?vid=d3be362a-e379-434a-8ab0-7fae3903de3c"},"vehicle_type_id":"4","last_reported":1686866756,"current_range_meters":0,"station_id":"ce4bh9p2rcd13ifvqec0","pricing_plan_id":"free"},{"bike_id":"415ad0f4-240f-45b1-9df1-2ffaa6211e66","system_id":"levelo_inurba_marseille","lat":43.287184,"lon":5.37937,"is_reserved":false,"is_disabled":false,"rental_uris":{"android":"levelo://app?vid=415ad0f4-240f-45b1-9df1-2ffaa6211e66","ios":"levelo://app?vid=415ad0f4-240f-45b1-9df1-2ffaa6211e66"},"vehicle_type_id":"4","last_reported":1686866756,"current_range_meters":0,"station_id":"ce4bh9p2rcd13ifvqec0","pricing_plan_id":"free"},{"bike_id":"98ce8bb1-baeb-492c-b322-d26bf95536fa","system_id":"levelo_inurba_marseille","lat":43.31644,"lon":5.40431,"is_reserved":false,"is_disabled":false,"rental_uris":{"android":"levelo://app?vid=98ce8bb1-baeb-492c-b322-d26bf95536fa","ios":"levelo://app?vid=98ce8bb1-baeb-492c-b322-d26bf95536fa"},"vehicle_type_id":"4","last_reported":1686866756,"current_range_meters":22400,"station_id":"ce4bh012rcd13ifvqd00","pricing_plan_id":"free"},{"bike_id":"c8a87011-d1e9-468b-a29a-a070555c1de6","system_id":"levelo_inurba_marseille","lat":43.31644,"lon":5.40438,"is_reserved":false,"is_disabled":false,"rental_uris":{"android":"levelo://app?vid=c8a87011-d1e9-468b-a29a-a070555c1de6","ios":"levelo://app?vid=c8a87011-d1e9-468b-a29a-a070555c1de6"},"vehicle_type_id":"4","last_reported":1686866756,"current_range_meters":400,"station_id":"ce4bh012rcd13ifvqd00","pricing_plan_id":"free"},{"bike_id":"7eab10a5-0d33-448d-889d-258dfeac63b3","system_id":"levelo_inurba_marseille","lat":43.31671,"lon":5.40579,"is_reserved":false,"is_disabled":false,"rental_uris":{"android":"levelo://app?vid=7eab10a5-0d33-448d-889d-258dfeac63b3","ios":"levelo://app?vid=7eab10a5-0d33-448d-889d-258dfeac63b3"},"vehicle_type_id":"4","last_reported":1686866756,"current_range_meters":0,"station_id":"","pricing_plan_id":"free"},{"bike_id":"a873eedf-271a-4a9c-aee7-24ebf383d22b","system_id":"levelo_inurba_marseille","lat":43.284534,"lon":5.358662,"is_reserved":false,"is_disabled":false,"rental_uris":{"android":"levelo://app?vid=a873eedf-271a-4a9c-aee7-24ebf383d22b","ios":"levelo://app?vid=a873eedf-271a-4a9c-aee7-24ebf383d22b"},"vehicle_type_id":"4","last_reported":1686866756,"current_range_meters":31200,"station_id":"ce4bhah2rcd13ifvqei0","pricing_plan_id":"free"},{"bike_id":"e902f926-22fb-4a55-8d81-7da308d4abf8","system_id":"levelo_inurba_marseille","lat":43.284534,"lon":5.358662,"is_reserved":false,"is_disabled":false,"rental_uris":{"android":"levelo://app?vid=e902f926-22fb-4a55-8d81-7da308d4abf8","ios":"levelo://app?vid=e902f926-22fb-4a55-8d81-7da308d4abf8"},"vehicle_type_id":"4","last_reported":1686866756,"current_range_meters":30800,"station_id":"ce4bhah2rcd13ifvqei0","pricing_plan_id":"free"},{"bike_id":"914e440f-43d3-44d7-95d0-a9f35f787c25","system_id":"levelo_inurba_marseille","lat":43.284534,"lon":5.358662,"is_reserved":false,"is_disabled":false,"rental_uris":{"android":"levelo://app?vid=914e440f-43d3-44d7-95d0-a9f35f787c25","ios":"levelo://app?vid=914e440f-43d3-44d7-95d0-a9f35f787c25"},"vehicle_type_id":"4","last_reported":1686866756,"current_range_meters":13600,"station_id":"ce4bhah2rcd13ifvqei0","pricing_plan_id":"free"},{"bike_id":"8bb20828-42f5-4156-a29f-8ce673cd6ea5","system_id":"levelo_inurba_marseille","lat":43.284534,"lon":5.358662,"is_reserved":false,"is_disabled":false,"rental_uris":{"android":"levelo://app?vid=8bb20828-42f5-4156-a29f-8ce673cd6ea5","ios":"levelo://app?vid=8bb20828-42f5-4156-a29f-8ce673cd6ea5"},"vehicle_type_id":"4","last_reported":1686866756,"current_range_meters":29200,"station_id":"ce4bhah2rcd13ifvqei0","pricing_plan_id":"free"},{"bike_id":"a7997a59-4e67-4ed9-a580-c29c79c5080c","system_id":"levelo_inurba_marseille","lat":43.284534,"lon":5.358662,"is_reserved":false,"is_disabled":false,"rental_uris":{"android":"levelo://app?vid=a7997a59-4e67-4ed9-a580-c29c79c5080c","ios":"levelo://app?vid=a7997a59-4e67-4ed9-a580-c29c79c5080c"},"vehicle_type_id":"4","last_reported":1686866756,"current_range_meters":28000,"station_id":"ce4bhah2rcd13ifvqei0","pricing_plan_id":"free"},{"bike_id":"d98fa9b1-bb56-47fc-99d9-1f827f8b4a0d","system_id":"levelo_inurba_marseille","lat":43.294314,"lon":5.397498,"is_reserved":false,"is_disabled":false,"rental_uris":{"android":"levelo://app?vid=d98fa9b1-bb56-47fc-99d9-1f827f8b4a0d","ios":"levelo://app?vid=d98fa9b1-bb56-47fc-99d9-1f827f8b4a0d"},"vehicle_type_id":"4","last_reported":1686866756,"current_range_meters":20400,"station_id":"ce4bh3h2rcd13ifvqdo0","pricing_plan_id":"free"},{"bike_id":"cebb2543-ef33-4b32-901a-aab9f12ea0fe","system_id":"levelo_inurba_marseille","lat":43.284534,"lon":5.358662,"is_reserved":false,"is_disabled":false,"rental_uris":{"android":"levelo://app?vid=cebb2543-ef33-4b32-901a-aab9f12ea0fe","ios":"levelo://app?vid=cebb2543-ef33-4b32-901a-aab9f12ea0fe"},"vehicle_type_id":"4","last_reported":1686866756,"current_range_meters":31200,"station_id":"ce4bhah2rcd13ifvqei0","pricing_plan_id":"free"},{"bike_id":"b0fbedc7-081f-4dc9-afa4-59242757298c","system_id":"levelo_inurba_marseille","lat":43.284575,"lon":5.358847,"is_reserved":false,"is_disabled":false,"rental_uris":{"android":"levelo://app?vid=b0fbedc7-081f-4dc9-afa4-59242757298c","ios":"levelo://app?vid=b0fbedc7-081f-4dc9-afa4-59242757298c"},"vehicle_type_id":"4","last_reported":1686866756,"current_range_meters":9200,"station_id":"ce4bhah2rcd13ifvqei0","pricing_plan_id":"free"},{"bike_id":"21201f90-c16e-4e3b-8600-e96b91765947","system_id":"levelo_inurba_marseille","lat":43.284534,"lon":5.358662,"is_reserved":false,"is_disabled":false,"rental_uris":{"android":"levelo://app?vid=21201f90-c16e-4e3b-8600-e96b91765947","ios":"levelo://app?vid=21201f90-c16e-4e3b-8600-e96b91765947"},"vehicle_type_id":"4","last_reported":1686866756,"current_range_meters":8800,"station_id":"ce4bhah2rcd13ifvqei0","pricing_plan_id":"free"},{"bike_id":"35538741-e53a-48a2-b7cc-bb798c1d34f0","system_id":"levelo_inurba_marseille","lat":43.295713,"lon":5.399639,"is_reserved":false,"is_disabled":false,"rental_uris":{"android":"levelo://app?vid=35538741-e53a-48a2-b7cc-bb798c1d34f0","ios":"levelo://app?vid=35538741-e53a-48a2-b7cc-bb798c1d34f0"},"vehicle_type_id":"4","last_reported":1686866756,"current_range_meters":17600,"station_id":"ce4bh312rcd13ifvqdj0","pricing_plan_id":"free"},{"bike_id":"87cc5b16-46e4-4a8f-841d-3c4865b79d57","system_id":"levelo_inurba_marseille","lat":43.295713,"lon":5.399639,"is_reserved":false,"is_disabled":false,"rental_uris":{"android":"levelo://app?vid=87cc5b16-46e4-4a8f-841d-3c4865b79d57","ios":"levelo://app?vid=87cc5b16-46e4-4a8f-841d-3c4865b79d57"},"vehicle_type_id":"4","last_reported":1686866756,"current_range_meters":4000,"station_id":"ce4bh312rcd13ifvqdj0","pricing_plan_id":"free"},{"bike_id":"0824b79d-8a98-46b7-83cf-c0ed32c107b0","system_id":"levelo_inurba_marseille","lat":43.295713,"lon":5.399639,"is_reserved":false,"is_disabled":false,"rental_uris":{"android":"levelo://app?vid=0824b79d-8a98-46b7-83cf-c0ed32c107b0","ios":"levelo://app?vid=0824b79d-8a98-46b7-83cf-c0ed32c107b0"},"vehicle_type_id":"4","last_reported":1686866756,"current_range_meters":21200,"station_id":"ce4bh312rcd13ifvqdj0","pricing_plan_id":"free"},{"bike_id":"75b957c0-e5c1-4dcc-931a-2ebbfec4ee3f","system_id":"levelo_inurba_marseille","lat":43.295713,"lon":5.399639,"is_reserved":false,"is_disabled":false,"rental_uris":{"android":"levelo://app?vid=75b957c0-e5c1-4dcc-931a-2ebbfec4ee3f","ios":"levelo://app?vid=75b957c0-e5c1-4dcc-931a-2ebbfec4ee3f"},"vehicle_type_id":"4","last_reported":1686866756,"current_range_meters":16400,"station_id":"ce4bh312rcd13ifvqdj0","pricing_plan_id":"free"},{"bike_id":"106362af-f187-4102-a57f-e17dc92ffeda","system_id":"levelo_inurba_marseille","lat":43.295713,"lon":5.399639,"is_reserved":false,"is_disabled":false,"rental_uris":{"android":"levelo://app?vid=106362af-f187-4102-a57f-e17dc92ffeda","ios":"levelo://app?vid=106362af-f187-4102-a57f-e17dc92ffeda"},"vehicle_type_id":"4","last_reported":1686866756,"current_range_meters":18400,"station_id":"ce4bh312rcd13ifvqdj0","pricing_plan_id":"free"},{"bike_id":"4715e304-e5f2-48fe-8f56-5ac6b6e2a2a4","system_id":"levelo_inurba_marseille","lat":43.295713,"lon":5.399639,"is_reserved":false,"is_disabled":false,"rental_uris":{"android":"levelo://app?vid=4715e304-e5f2-48fe-8f56-5ac6b6e2a2a4","ios":"levelo://app?vid=4715e304-e5f2-48fe-8f56-5ac6b6e2a2a4"},"vehicle_type_id":"4","last_reported":1686866756,"current_range_meters":0,"station_id":"ce4bh312rcd13ifvqdj0","pricing_plan_id":"free"},{"bike_id":"6b8f9062-3c1b-48d1-98c8-be134fdaf7a1","system_id":"levelo_inurba_marseille","lat":43.28675,"lon":5.38664,"is_reserved":false,"is_disabled":false,"rental_uris":{"android":"levelo://app?vid=6b8f9062-3c1b-48d1-98c8-be134fdaf7a1","ios":"levelo://app?vid=6b8f9062-3c1b-48d1-98c8-be134fdaf7a1"},"vehicle_type_id":"4","last_reported":1686866756,"current_range_meters":8800,"station_id":"ce4bh492rcd13ifvqdug","pricing_plan_id":"free"},{"bike_id":"7b4fea20-34f1-498e-8afa-b4334aa24882","system_id":"levelo_inurba_marseille","lat":43.28676,"lon":5.38669,"is_reserved":false,"is_disabled":false,"rental_uris":{"android":"levelo://app?vid=7b4fea20-34f1-498e-8afa-b4334aa24882","ios":"levelo://app?vid=7b4fea20-34f1-498e-8afa-b4334aa24882"},"vehicle_type_id":"4","last_reported":1686866756,"current_range_meters":25200,"station_id":"ce4bh492rcd13ifvqdug","pricing_plan_id":"free"},{"bike_id":"495359c5-6118-4aff-aa1b-53ecfdc31252","system_id":"levelo_inurba_marseille","lat":43.286595,"lon":5.386795,"is_reserved":false,"is_disabled":false,"rental_uris":{"android":"levelo://app?vid=495359c5-6118-4aff-aa1b-53ecfdc31252","ios":"levelo://app?vid=495359c5-6118-4aff-aa1b-53ecfdc31252"},"vehicle_type_id":"4","last_reported":1686866756,"current_range_meters":28800,"station_id":"ce4bh492rcd13ifvqdug","pricing_plan_id":"free"},{"bike_id":"16e5fedd-6e86-436a-a0a2-72c7cd60a6ea","system_id":"levelo_inurba_marseille","lat":43.32329,"lon":5.40618,"is_reserved":false,"is_disabled":false,"rental_uris":{"android":"levelo://app?vid=16e5fedd-6e86-436a-a0a2-72c7cd60a6ea","ios":"levelo://app?vid=16e5fedd-6e86-436a-a0a2-72c7cd60a6ea"},"vehicle_type_id":"4","last_reported":1686866756,"current_range_meters":31200,"station_id":"ce4bhq92rcd13ifvqhjg","pricing_plan_id":"free"},{"bike_id":"39f6ae1d-0bf0-4d03-9bfa-2ea3bbbb992c","system_id":"levelo_inurba_marseille","lat":43.323464,"lon":5.406297,"is_reserved":false,"is_disabled":false,"rental_uris":{"android":"levelo://app?vid=39f6ae1d-0bf0-4d03-9bfa-2ea3bbbb992c","ios":"levelo://app?vid=39f6ae1d-0bf0-4d03-9bfa-2ea3bbbb992c"},"vehicle_type_id":"4","last_reported":1686866756,"current_range_meters":30000,"station_id":"ce4bhq92rcd13ifvqhjg","pricing_plan_id":"free"},{"bike_id":"26c128b2-24ff-4735-8883-1c86ed16010f","system_id":"levelo_inurba_marseille","lat":43.33731,"lon":5.39188,"is_reserved":false,"is_disabled":false,"rental_uris":{"android":"levelo://app?vid=26c128b2-24ff-4735-8883-1c86ed16010f","ios":"levelo://app?vid=26c128b2-24ff-4735-8883-1c86ed16010f"},"vehicle_type_id":"4","last_reported":1686866756,"current_range_meters":4000,"station_id":"","pricing_plan_id":"free"},{"bike_id":"6a7adaaf-4b57-443b-9e54-2cf5bc569cdc","system_id":"levelo_inurba_marseille","lat":43.284793,"lon":5.384113,"is_reserved":false,"is_disabled":false,"rental_uris":{"android":"levelo://app?vid=6a7adaaf-4b57-443b-9e54-2cf5bc569cdc","ios":"levelo://app?vid=6a7adaaf-4b57-443b-9e54-2cf5bc569cdc"},"vehicle_type_id":"4","last_reported":1686866756,"current_range_meters":0,"station_id":"ce4bh512rcd13ifvqe3g","pricing_plan_id":"free"},{"bike_id":"a0f26fca-78f7-410a-8e5d-a74d96eb4be1","system_id":"levelo_inurba_marseille","lat":43.284787,"lon":5.384116,"is_reserved":false,"is_disabled":false,"rental_uris":{"android":"levelo://app?vid=a0f26fca-78f7-410a-8e5d-a74d96eb4be1","ios":"levelo://app?vid=a0f26fca-78f7-410a-8e5d-a74d96eb4be1"},"vehicle_type_id":"4","last_reported":1686866756,"current_range_meters":17600,"station_id":"ce4bh512rcd13ifvqe3g","pricing_plan_id":"free"},{"bike_id":"00b4d942-d645-4a17-a320-9c02b5ecca68","system_id":"levelo_inurba_marseille","lat":43.288497,"lon":5.393089,"is_reserved":false,"is_disabled":false,"rental_uris":{"android":"levelo://app?vid=00b4d942-d645-4a17-a320-9c02b5ecca68","ios":"levelo://app?vid=00b4d942-d645-4a17-a320-9c02b5ecca68"},"vehicle_type_id":"4","last_reported":1686866756,"current_range_meters":20000,"station_id":"ce4bh2p2rcd13ifvqdi0","pricing_plan_id":"free"},{"bike_id":"0b28d5f4-ebf4-4a18-9a94-2205f6c8c28c","system_id":"levelo_inurba_marseille","lat":43.288497,"lon":5.393089,"is_reserved":false,"is_disabled":false,"rental_uris":{"android":"levelo://app?vid=0b28d5f4-ebf4-4a18-9a94-2205f6c8c28c","ios":"levelo://app?vid=0b28d5f4-ebf4-4a18-9a94-2205f6c8c28c"},"vehicle_type_id":"4","last_reported":1686866756,"current_range_meters":27200,"station_id":"ce4bh2p2rcd13ifvqdi0","pricing_plan_id":"free"},{"bike_id":"3ce48866-e4ef-4775-ae02-38f87dacbc46","system_id":"levelo_inurba_marseille","lat":43.283494,"lon":5.380945,"is_reserved":false,"is_disabled":false,"rental_uris":{"android":"levelo://app?vid=3ce48866-e4ef-4775-ae02-38f87dacbc46","ios":"levelo://app?vid=3ce48866-e4ef-4775-ae02-38f87dacbc46"},"vehicle_type_id":"4","last_reported":1686866756,"current_range_meters":8800,"station_id":"ce4bh412rcd13ifvqdr0","pricing_plan_id":"free"},{"bike_id":"9b9db7c9-6c68-44c0-b3b4-922d570abf41","system_id":"levelo_inurba_marseille","lat":43.283494,"lon":5.380945,"is_reserved":false,"is_disabled":false,"rental_uris":{"android":"levelo://app?vid=9b9db7c9-6c68-44c0-b3b4-922d570abf41","ios":"levelo://app?vid=9b9db7c9-6c68-44c0-b3b4-922d570abf41"},"vehicle_type_id":"4","last_reported":1686866756,"current_range_meters":7600,"station_id":"ce4bh412rcd13ifvqdr0","pricing_plan_id":"free"},{"bike_id":"8d259ba8-5fe4-4144-b59d-b4d7c110ac6a","system_id":"levelo_inurba_marseille","lat":43.283498,"lon":5.380948,"is_reserved":false,"is_disabled":false,"rental_uris":{"android":"levelo://app?vid=8d259ba8-5fe4-4144-b59d-b4d7c110ac6a","ios":"levelo://app?vid=8d259ba8-5fe4-4144-b59d-b4d7c110ac6a"},"vehicle_type_id":"4","last_reported":1686866756,"current_range_meters":21600,"station_id":"ce4bh412rcd13ifvqdr0","pricing_plan_id":"free"},{"bike_id":"badfb8e9-7680-48e3-b36a-628476a7f62a","system_id":"levelo_inurba_marseille","lat":43.283494,"lon":5.380945,"is_reserved":false,"is_disabled":false,"rental_uris":{"android":"levelo://app?vid=badfb8e9-7680-48e3-b36a-628476a7f62a","ios":"levelo://app?vid=badfb8e9-7680-48e3-b36a-628476a7f62a"},"vehicle_type_id":"4","last_reported":1686866756,"current_range_meters":18000,"station_id":"ce4bh412rcd13ifvqdr0","pricing_plan_id":"free"},{"bike_id":"5bc543d5-dbbc-4856-9191-4beb587dc8ad","system_id":"levelo_inurba_marseille","lat":43.28039,"lon":5.369297,"is_reserved":false,"is_disabled":false,"rental_uris":{"android":"levelo://app?vid=5bc543d5-dbbc-4856-9191-4beb587dc8ad","ios":"levelo://app?vid=5bc543d5-dbbc-4856-9191-4beb587dc8ad"},"vehicle_type_id":"4","last_reported":1686866756,"current_range_meters":26800,"station_id":"ce4bha12rcd13ifvqef0","pricing_plan_id":"free"},{"bike_id":"f1bd3b93-8bcd-4c5a-a16a-f8bb97c55297","system_id":"levelo_inurba_marseille","lat":43.289363,"lon":5.396322,"is_reserved":false,"is_disabled":false,"rental_uris":{"android":"levelo://app?vid=f1bd3b93-8bcd-4c5a-a16a-f8bb97c55297","ios":"levelo://app?vid=f1bd3b93-8bcd-4c5a-a16a-f8bb97c55297"},"vehicle_type_id":"4","last_reported":1686866756,"current_range_meters":8800,"station_id":"ce4bh3h2rcd13ifvqdn0","pricing_plan_id":"free"},{"bike_id":"a20397d1-e067-4d41-82d4-c87dde52f0b0","system_id":"levelo_inurba_marseille","lat":43.289363,"lon":5.396322,"is_reserved":false,"is_disabled":false,"rental_uris":{"android":"levelo://app?vid=a20397d1-e067-4d41-82d4-c87dde52f0b0","ios":"levelo://app?vid=a20397d1-e067-4d41-82d4-c87dde52f0b0"},"vehicle_type_id":"4","last_reported":1686866756,"current_range_meters":21200,"station_id":"ce4bh3h2rcd13ifvqdn0","pricing_plan_id":"free"},{"bike_id":"86ca4ee0-cfe5-4ddd-b26e-c517e3c13575","system_id":"levelo_inurba_marseille","lat":43.289363,"lon":5.396322,"is_reserved":false,"is_disabled":false,"rental_uris":{"android":"levelo://app?vid=86ca4ee0-cfe5-4ddd-b26e-c517e3c13575","ios":"levelo://app?vid=86ca4ee0-cfe5-4ddd-b26e-c517e3c13575"},"vehicle_type_id":"4","last_reported":1686866756,"current_range_meters":30000,"station_id":"ce4bh3h2rcd13ifvqdn0","pricing_plan_id":"free"},{"bike_id":"11060602-af07-4dd7-ac99-f35cad73f0d0","system_id":"levelo_inurba_marseille","lat":43.283502,"lon":5.386471,"is_reserved":false,"is_disabled":false,"rental_uris":{"android":"levelo://app?vid=11060602-af07-4dd7-ac99-f35cad73f0d0","ios":"levelo://app?vid=11060602-af07-4dd7-ac99-f35cad73f0d0"},"vehicle_type_id":"4","last_reported":1686866756,"current_range_meters":10400,"station_id":"ce4bh492rcd13ifvqdvg","pricing_plan_id":"free"},{"bike_id":"51071d86-90c0-4991-a3d8-40edb3780ac0","system_id":"levelo_inurba_marseille","lat":43.28369,"lon":5.38637,"is_reserved":false,"is_disabled":false,"rental_uris":{"android":"levelo://app?vid=51071d86-90c0-4991-a3d8-40edb3780ac0","ios":"levelo://app?vid=51071d86-90c0-4991-a3d8-40edb3780ac0"},"vehicle_type_id":"4","last_reported":1686866756,"current_range_meters":15600,"station_id":"ce4bh492rcd13ifvqdvg","pricing_plan_id":"free"},{"bike_id":"e2e148c9-6712-4d4a-a008-14f6823e6146","system_id":"levelo_inurba_marseille","lat":43.28039,"lon":5.369297,"is_reserved":false,"is_disabled":false,"rental_uris":{"android":"levelo://app?vid=e2e148c9-6712-4d4a-a008-14f6823e6146","ios":"levelo://app?vid=e2e148c9-6712-4d4a-a008-14f6823e6146"},"vehicle_type_id":"4","last_reported":1686866756,"current_range_meters":24800,"station_id":"ce4bha12rcd13ifvqef0","pricing_plan_id":"free"},{"bike_id":"32ee5626-8ded-447d-8e93-bd71e2fbd0e5","system_id":"levelo_inurba_marseille","lat":43.280382,"lon":5.369291,"is_reserved":false,"is_disabled":false,"rental_uris":{"android":"levelo://app?vid=32ee5626-8ded-447d-8e93-bd71e2fbd0e5","ios":"levelo://app?vid=32ee5626-8ded-447d-8e93-bd71e2fbd0e5"},"vehicle_type_id":"4","last_reported":1686866756,"current_range_meters":8000,"station_id":"ce4bha12rcd13ifvqef0","pricing_plan_id":"free"},{"bike_id":"395b613d-d504-4daa-b3ce-cad1ccbd2b7b","system_id":"levelo_inurba_marseille","lat":43.280382,"lon":5.369291,"is_reserved":false,"is_disabled":false,"rental_uris":{"android":"levelo://app?vid=395b613d-d504-4daa-b3ce-cad1ccbd2b7b","ios":"levelo://app?vid=395b613d-d504-4daa-b3ce-cad1ccbd2b7b"},"vehicle_type_id":"4","last_reported":1686866756,"current_range_meters":25600,"station_id":"ce4bha12rcd13ifvqef0","pricing_plan_id":"free"},{"bike_id":"199899a7-290c-4486-8ee7-5fd83d73d1cf","system_id":"levelo_inurba_marseille","lat":43.28039,"lon":5.369297,"is_reserved":false,"is_disabled":false,"rental_uris":{"android":"levelo://app?vid=199899a7-290c-4486-8ee7-5fd83d73d1cf","ios":"levelo://app?vid=199899a7-290c-4486-8ee7-5fd83d73d1cf"},"vehicle_type_id":"4","last_reported":1686866756,"current_range_meters":13200,"station_id":"ce4bha12rcd13ifvqef0","pricing_plan_id":"free"},{"bike_id":"11c22c71-b94f-4695-9610-c215a8b75615","system_id":"levelo_inurba_marseille","lat":43.283502,"lon":5.386471,"is_reserved":false,"is_disabled":false,"rental_uris":{"android":"levelo://app?vid=11c22c71-b94f-4695-9610-c215a8b75615","ios":"levelo://app?vid=11c22c71-b94f-4695-9610-c215a8b75615"},"vehicle_type_id":"4","last_reported":1686866756,"current_range_meters":27600,"station_id":"ce4bh492rcd13ifvqdvg","pricing_plan_id":"free"},{"bike_id":"a3197483-b56a-434d-98c8-65b048036098","system_id":"levelo_inurba_marseille","lat":43.29041,"lon":5.399634,"is_reserved":false,"is_disabled":false,"rental_uris":{"android":"levelo://app?vid=a3197483-b56a-434d-98c8-65b048036098","ios":"levelo://app?vid=a3197483-b56a-434d-98c8-65b048036098"},"vehicle_type_id":"4","last_reported":1686866756,"current_range_meters":9600,"station_id":"ce4bh392rcd13ifvqdm0","pricing_plan_id":"free"},{"bike_id":"588bec76-897a-433a-a688-f34d011b71ac","system_id":"levelo_inurba_marseille","lat":43.29041,"lon":5.399634,"is_reserved":false,"is_disabled":false,"rental_uris":{"android":"levelo://app?vid=588bec76-897a-433a-a688-f34d011b71ac","ios":"levelo://app?vid=588bec76-897a-433a-a688-f34d011b71ac"},"vehicle_type_id":"4","last_reported":1686866756,"current_range_meters":3200,"station_id":"ce4bh392rcd13ifvqdm0","pricing_plan_id":"free"},{"bike_id":"be824bc5-10ad-4ae3-ac35-405df02cae14","system_id":"levelo_inurba_marseille","lat":43.29041,"lon":5.399634,"is_reserved":false,"is_disabled":false,"rental_uris":{"android":"levelo://app?vid=be824bc5-10ad-4ae3-ac35-405df02cae14","ios":"levelo://app?vid=be824bc5-10ad-4ae3-ac35-405df02cae14"},"vehicle_type_id":"4","last_reported":1686866756,"current_range_meters":28400,"station_id":"ce4bh392rcd13ifvqdm0","pricing_plan_id":"free"},{"bike_id":"4c237c16-1d12-4041-892a-571d6fb6aed5","system_id":"levelo_inurba_marseille","lat":43.281044,"lon":5.378308,"is_reserved":false,"is_disabled":false,"rental_uris":{"android":"levelo://app?vid=4c237c16-1d12-4041-892a-571d6fb6aed5","ios":"levelo://app?vid=4c237c16-1d12-4041-892a-571d6fb6aed5"},"vehicle_type_id":"4","last_reported":1686866756,"current_range_meters":31200,"station_id":"ce4bha12rcd13ifvqee0","pricing_plan_id":"free"},{"bike_id":"74a8bca5-5841-4263-91fe-dcc7d8903341","system_id":"levelo_inurba_marseille","lat":43.281044,"lon":5.378308,"is_reserved":false,"is_disabled":false,"rental_uris":{"android":"levelo://app?vid=74a8bca5-5841-4263-91fe-dcc7d8903341","ios":"levelo://app?vid=74a8bca5-5841-4263-91fe-dcc7d8903341"},"vehicle_type_id":"4","last_reported":1686866756,"current_range_meters":31200,"station_id":"ce4bha12rcd13ifvqee0","pricing_plan_id":"free"},{"bike_id":"742fb553-e745-4249-8de8-dcc00781687c","system_id":"levelo_inurba_marseille","lat":43.281044,"lon":5.378308,"is_reserved":false,"is_disabled":false,"rental_uris":{"android":"levelo://app?vid=742fb553-e745-4249-8de8-dcc00781687c","ios":"levelo://app?vid=742fb553-e745-4249-8de8-dcc00781687c"},"vehicle_type_id":"4","last_reported":1686866756,"current_range_meters":30400,"station_id":"ce4bha12rcd13ifvqee0","pricing_plan_id":"free"},{"bike_id":"d22173a7-32ec-48e1-9c0d-ad1730377144","system_id":"levelo_inurba_marseille","lat":43.281044,"lon":5.378308,"is_reserved":false,"is_disabled":false,"rental_uris":{"android":"levelo://app?vid=d22173a7-32ec-48e1-9c0d-ad1730377144","ios":"levelo://app?vid=d22173a7-32ec-48e1-9c0d-ad1730377144"},"vehicle_type_id":"4","last_reported":1686866756,"current_range_meters":20000,"station_id":"ce4bha12rcd13ifvqee0","pricing_plan_id":"free"},{"bike_id":"aa81995d-6081-4a66-a6ec-75ba2ee3f6b8","system_id":"levelo_inurba_marseille","lat":43.281044,"lon":5.378308,"is_reserved":false,"is_disabled":false,"rental_uris":{"android":"levelo://app?vid=aa81995d-6081-4a66-a6ec-75ba2ee3f6b8","ios":"levelo://app?vid=aa81995d-6081-4a66-a6ec-75ba2ee3f6b8"},"vehicle_type_id":"4","last_reported":1686866756,"current_range_meters":31200,"station_id":"ce4bha12rcd13ifvqee0","pricing_plan_id":"free"},{"bike_id":"fabf1260-b9fb-463f-9a96-680a63eb2b33","system_id":"levelo_inurba_marseille","lat":43.281044,"lon":5.378308,"is_reserved":false,"is_disabled":false,"rental_uris":{"android":"levelo://app?vid=fabf1260-b9fb-463f-9a96-680a63eb2b33","ios":"levelo://app?vid=fabf1260-b9fb-463f-9a96-680a63eb2b33"},"vehicle_type_id":"4","last_reported":1686866756,"current_range_meters":6400,"station_id":"ce4bha12rcd13ifvqee0","pricing_plan_id":"free"},{"bike_id":"8e32439b-b0c3-4e47-8b5a-6b2113afdcae","system_id":"levelo_inurba_marseille","lat":43.284462,"lon":5.392121,"is_reserved":false,"is_disabled":false,"rental_uris":{"android":"levelo://app?vid=8e32439b-b0c3-4e47-8b5a-6b2113afdcae","ios":"levelo://app?vid=8e32439b-b0c3-4e47-8b5a-6b2113afdcae"},"vehicle_type_id":"4","last_reported":1686866756,"current_range_meters":400,"station_id":"ce4bhoh2rcd13ifvqh5g","pricing_plan_id":"free"},{"bike_id":"b20ca1dc-7b4a-4a7b-814d-e42100e57ffd","system_id":"levelo_inurba_marseille","lat":43.284462,"lon":5.392121,"is_reserved":false,"is_disabled":false,"rental_uris":{"android":"levelo://app?vid=b20ca1dc-7b4a-4a7b-814d-e42100e57ffd","ios":"levelo://app?vid=b20ca1dc-7b4a-4a7b-814d-e42100e57ffd"},"vehicle_type_id":"4","last_reported":1686866756,"current_range_meters":22000,"station_id":"ce4bhoh2rcd13ifvqh5g","pricing_plan_id":"free"},{"bike_id":"0cec1efc-5fdb-4389-8362-3076f5c23d4e","system_id":"levelo_inurba_marseille","lat":43.284462,"lon":5.392121,"is_reserved":false,"is_disabled":false,"rental_uris":{"android":"levelo://app?vid=0cec1efc-5fdb-4389-8362-3076f5c23d4e","ios":"levelo://app?vid=0cec1efc-5fdb-4389-8362-3076f5c23d4e"},"vehicle_type_id":"4","last_reported":1686866756,"current_range_meters":26800,"station_id":"ce4bhoh2rcd13ifvqh5g","pricing_plan_id":"free"},{"bike_id":"81eef93a-a0be-46df-be13-a6121db1ea10","system_id":"levelo_inurba_marseille","lat":43.284462,"lon":5.392121,"is_reserved":false,"is_disabled":false,"rental_uris":{"android":"levelo://app?vid=81eef93a-a0be-46df-be13-a6121db1ea10","ios":"levelo://app?vid=81eef93a-a0be-46df-be13-a6121db1ea10"},"vehicle_type_id":"4","last_reported":1686866756,"current_range_meters":22400,"station_id":"ce4bhoh2rcd13ifvqh5g","pricing_plan_id":"free"},{"bike_id":"61ae1735-18a4-4fa8-baa8-e7e4c3dc872d","system_id":"levelo_inurba_marseille","lat":43.284462,"lon":5.392121,"is_reserved":false,"is_disabled":false,"rental_uris":{"android":"levelo://app?vid=61ae1735-18a4-4fa8-baa8-e7e4c3dc872d","ios":"levelo://app?vid=61ae1735-18a4-4fa8-baa8-e7e4c3dc872d"},"vehicle_type_id":"4","last_reported":1686866756,"current_range_meters":29200,"station_id":"ce4bhoh2rcd13ifvqh5g","pricing_plan_id":"free"},{"bike_id":"1c5f3ed6-5503-457f-b0da-3e97de99f3f6","system_id":"levelo_inurba_marseille","lat":43.284462,"lon":5.392121,"is_reserved":false,"is_disabled":false,"rental_uris":{"android":"levelo://app?vid=1c5f3ed6-5503-457f-b0da-3e97de99f3f6","ios":"levelo://app?vid=1c5f3ed6-5503-457f-b0da-3e97de99f3f6"},"vehicle_type_id":"4","last_reported":1686866756,"current_range_meters":4000,"station_id":"ce4bhoh2rcd13ifvqh5g","pricing_plan_id":"free"},{"bike_id":"1d3ba9f1-e296-4afc-9937-a7cfa6e9b93d","system_id":"levelo_inurba_marseille","lat":43.285742,"lon":5.395004,"is_reserved":false,"is_disabled":false,"rental_uris":{"android":"levelo://app?vid=1d3ba9f1-e296-4afc-9937-a7cfa6e9b93d","ios":"levelo://app?vid=1d3ba9f1-e296-4afc-9937-a7cfa6e9b93d"},"vehicle_type_id":"4","last_reported":1686866756,"current_range_meters":26400,"station_id":"ce4bh292rcd13ifvqdg0","pricing_plan_id":"free"},{"bike_id":"54e83a07-881b-48aa-9994-dead08b5a6a9","system_id":"levelo_inurba_marseille","lat":43.285742,"lon":5.395004,"is_reserved":false,"is_disabled":false,"rental_uris":{"android":"levelo://app?vid=54e83a07-881b-48aa-9994-dead08b5a6a9","ios":"levelo://app?vid=54e83a07-881b-48aa-9994-dead08b5a6a9"},"vehicle_type_id":"4","last_reported":1686866756,"current_range_meters":27200,"station_id":"ce4bh292rcd13ifvqdg0","pricing_plan_id":"free"},{"bike_id":"54b0f0c4-72cf-4375-bd01-e2f23cd949af","system_id":"levelo_inurba_marseille","lat":43.326605,"lon":5.409903,"is_reserved":false,"is_disabled":false,"rental_uris":{"android":"levelo://app?vid=54b0f0c4-72cf-4375-bd01-e2f23cd949af","ios":"levelo://app?vid=54b0f0c4-72cf-4375-bd01-e2f23cd949af"},"vehicle_type_id":"4","last_reported":1686866756,"current_range_meters":23600,"station_id":"ce4bhpp2rcd13ifvqhgg","pricing_plan_id":"free"},{"bike_id":"ac2207d1-4b79-49f6-8e35-b551f3a913e5","system_id":"levelo_inurba_marseille","lat":43.304188,"lon":5.412904,"is_reserved":false,"is_disabled":false,"rental_uris":{"android":"levelo://app?vid=ac2207d1-4b79-49f6-8e35-b551f3a913e5","ios":"levelo://app?vid=ac2207d1-4b79-49f6-8e35-b551f3a913e5"},"vehicle_type_id":"4","last_reported":1686866756,"current_range_meters":9600,"station_id":"ce4bhop2rcd13ifvqh8g","pricing_plan_id":"free"},{"bike_id":"02f679b4-1c56-49dc-bec0-0d1ee2f42648","system_id":"levelo_inurba_marseille","lat":43.27903,"lon":5.38007,"is_reserved":false,"is_disabled":false,"rental_uris":{"android":"levelo://app?vid=02f679b4-1c56-49dc-bec0-0d1ee2f42648","ios":"levelo://app?vid=02f679b4-1c56-49dc-bec0-0d1ee2f42648"},"vehicle_type_id":"4","last_reported":1686866756,"current_range_meters":6000,"station_id":"","pricing_plan_id":"free"},{"bike_id":"946de8b7-01be-4aad-9f0e-39fae7941628","system_id":"levelo_inurba_marseille","lat":43.287154,"lon":5.399979,"is_reserved":false,"is_disabled":false,"rental_uris":{"android":"levelo://app?vid=946de8b7-01be-4aad-9f0e-39fae7941628","ios":"levelo://app?vid=946de8b7-01be-4aad-9f0e-39fae7941628"},"vehicle_type_id":"4","last_reported":1686866756,"current_range_meters":4800,"station_id":"ce4bho92rcd13ifvqh3g","pricing_plan_id":"free"},{"bike_id":"a7f8d9e6-969c-46cf-bc31-86dc41b713e7","system_id":"levelo_inurba_marseille","lat":43.28704,"lon":5.39977,"is_reserved":false,"is_disabled":false,"rental_uris":{"android":"levelo://app?vid=a7f8d9e6-969c-46cf-bc31-86dc41b713e7","ios":"levelo://app?vid=a7f8d9e6-969c-46cf-bc31-86dc41b713e7"},"vehicle_type_id":"4","last_reported":1686866756,"current_range_meters":6400,"station_id":"ce4bho92rcd13ifvqh3g","pricing_plan_id":"free"},{"bike_id":"04bdda83-11c6-4765-8dfd-f0185a804f64","system_id":"levelo_inurba_marseille","lat":43.27897,"lon":5.38011,"is_reserved":false,"is_disabled":false,"rental_uris":{"android":"levelo://app?vid=04bdda83-11c6-4765-8dfd-f0185a804f64","ios":"levelo://app?vid=04bdda83-11c6-4765-8dfd-f0185a804f64"},"vehicle_type_id":"4","last_reported":1686866756,"current_range_meters":25200,"station_id":"","pricing_plan_id":"free"},{"bike_id":"9b0d2ec2-8d40-4569-ac45-b4ffb87cfc4e","system_id":"levelo_inurba_marseille","lat":43.287154,"lon":5.399979,"is_reserved":false,"is_disabled":false,"rental_uris":{"android":"levelo://app?vid=9b0d2ec2-8d40-4569-ac45-b4ffb87cfc4e","ios":"levelo://app?vid=9b0d2ec2-8d40-4569-ac45-b4ffb87cfc4e"},"vehicle_type_id":"4","last_reported":1686866756,"current_range_meters":24000,"station_id":"ce4bho92rcd13ifvqh3g","pricing_plan_id":"free"},{"bike_id":"6d8d703a-3e66-4c17-b231-f00df55bd81b","system_id":"levelo_inurba_marseille","lat":43.287154,"lon":5.399979,"is_reserved":false,"is_disabled":false,"rental_uris":{"android":"levelo://app?vid=6d8d703a-3e66-4c17-b231-f00df55bd81b","ios":"levelo://app?vid=6d8d703a-3e66-4c17-b231-f00df55bd81b"},"vehicle_type_id":"4","last_reported":1686866756,"current_range_meters":17200,"station_id":"ce4bho92rcd13ifvqh3g","pricing_plan_id":"free"},{"bike_id":"ca5ae337-77d1-42f6-9bb7-25723fbee9fb","system_id":"levelo_inurba_marseille","lat":43.27895,"lon":5.38013,"is_reserved":false,"is_disabled":false,"rental_uris":{"android":"levelo://app?vid=ca5ae337-77d1-42f6-9bb7-25723fbee9fb","ios":"levelo://app?vid=ca5ae337-77d1-42f6-9bb7-25723fbee9fb"},"vehicle_type_id":"4","last_reported":1686866756,"current_range_meters":0,"station_id":"","pricing_plan_id":"free"},{"bike_id":"ef584c1f-1074-4570-8caa-59960306af3e","system_id":"levelo_inurba_marseille","lat":43.287154,"lon":5.399979,"is_reserved":false,"is_disabled":false,"rental_uris":{"android":"levelo://app?vid=ef584c1f-1074-4570-8caa-59960306af3e","ios":"levelo://app?vid=ef584c1f-1074-4570-8caa-59960306af3e"},"vehicle_type_id":"4","last_reported":1686866756,"current_range_meters":5600,"station_id":"ce4bho92rcd13ifvqh3g","pricing_plan_id":"free"},{"bike_id":"2d42e148-94e0-4731-8dbf-c54170b2e55b","system_id":"levelo_inurba_marseille","lat":43.287154,"lon":5.399979,"is_reserved":false,"is_disabled":false,"rental_uris":{"android":"levelo://app?vid=2d42e148-94e0-4731-8dbf-c54170b2e55b","ios":"levelo://app?vid=2d42e148-94e0-4731-8dbf-c54170b2e55b"},"vehicle_type_id":"4","last_reported":1686866756,"current_range_meters":9200,"station_id":"ce4bho92rcd13ifvqh3g","pricing_plan_id":"free"},{"bike_id":"c6d92e70-9343-4d93-b0cf-44e319992519","system_id":"levelo_inurba_marseille","lat":43.287154,"lon":5.399979,"is_reserved":false,"is_disabled":false,"rental_uris":{"android":"levelo://app?vid=c6d92e70-9343-4d93-b0cf-44e319992519","ios":"levelo://app?vid=c6d92e70-9343-4d93-b0cf-44e319992519"},"vehicle_type_id":"4","last_reported":1686866756,"current_range_meters":28800,"station_id":"ce4bho92rcd13ifvqh3g","pricing_plan_id":"free"},{"bike_id":"3a0319dd-4ea7-42d7-bbcf-e0191d027470","system_id":"levelo_inurba_marseille","lat":43.28697,"lon":5.39981,"is_reserved":false,"is_disabled":false,"rental_uris":{"android":"levelo://app?vid=3a0319dd-4ea7-42d7-bbcf-e0191d027470","ios":"levelo://app?vid=3a0319dd-4ea7-42d7-bbcf-e0191d027470"},"vehicle_type_id":"4","last_reported":1686866756,"current_range_meters":800,"station_id":"ce4bho92rcd13ifvqh3g","pricing_plan_id":"free"},{"bike_id":"8bd5e3ea-fb56-49a8-944e-8403d74d93af","system_id":"levelo_inurba_marseille","lat":43.287154,"lon":5.399979,"is_reserved":false,"is_disabled":false,"rental_uris":{"android":"levelo://app?vid=8bd5e3ea-fb56-49a8-944e-8403d74d93af","ios":"levelo://app?vid=8bd5e3ea-fb56-49a8-944e-8403d74d93af"},"vehicle_type_id":"4","last_reported":1686866756,"current_range_meters":21200,"station_id":"ce4bho92rcd13ifvqh3g","pricing_plan_id":"free"},{"bike_id":"0f766ae7-07fa-4af8-86bf-2167cbe22d0d","system_id":"levelo_inurba_marseille","lat":43.28701,"lon":5.3999,"is_reserved":false,"is_disabled":false,"rental_uris":{"android":"levelo://app?vid=0f766ae7-07fa-4af8-86bf-2167cbe22d0d","ios":"levelo://app?vid=0f766ae7-07fa-4af8-86bf-2167cbe22d0d"},"vehicle_type_id":"4","last_reported":1686866756,"current_range_meters":24000,"station_id":"ce4bho92rcd13ifvqh3g","pricing_plan_id":"free"},{"bike_id":"ace63ac9-c7e6-483a-803d-84ae705f9534","system_id":"levelo_inurba_marseille","lat":43.287154,"lon":5.399979,"is_reserved":false,"is_disabled":false,"rental_uris":{"android":"levelo://app?vid=ace63ac9-c7e6-483a-803d-84ae705f9534","ios":"levelo://app?vid=ace63ac9-c7e6-483a-803d-84ae705f9534"},"vehicle_type_id":"4","last_reported":1686866756,"current_range_meters":400,"station_id":"ce4bho92rcd13ifvqh3g","pricing_plan_id":"free"},{"bike_id":"6726f068-5eda-4898-8825-063024c01492","system_id":"levelo_inurba_marseille","lat":43.287154,"lon":5.399979,"is_reserved":false,"is_disabled":false,"rental_uris":{"android":"levelo://app?vid=6726f068-5eda-4898-8825-063024c01492","ios":"levelo://app?vid=6726f068-5eda-4898-8825-063024c01492"},"vehicle_type_id":"4","last_reported":1686866756,"current_range_meters":25600,"station_id":"ce4bho92rcd13ifvqh3g","pricing_plan_id":"free"},{"bike_id":"3799373c-04ca-47e5-afdc-08be4b943f67","system_id":"levelo_inurba_marseille","lat":43.320045,"lon":5.415046,"is_reserved":false,"is_disabled":false,"rental_uris":{"android":"levelo://app?vid=3799373c-04ca-47e5-afdc-08be4b943f67","ios":"levelo://app?vid=3799373c-04ca-47e5-afdc-08be4b943f67"},"vehicle_type_id":"4","last_reported":1686866756,"current_range_meters":23600,"station_id":"ce4bhq92rcd13ifvqhkg","pricing_plan_id":"free"},{"bike_id":"a39ec750-1e0c-4e6e-860b-1932ca108867","system_id":"levelo_inurba_marseille","lat":43.320045,"lon":5.415046,"is_reserved":false,"is_disabled":false,"rental_uris":{"android":"levelo://app?vid=a39ec750-1e0c-4e6e-860b-1932ca108867","ios":"levelo://app?vid=a39ec750-1e0c-4e6e-860b-1932ca108867"},"vehicle_type_id":"4","last_reported":1686866756,"current_range_meters":31600,"station_id":"ce4bhq92rcd13ifvqhkg","pricing_plan_id":"free"},{"bike_id":"b82a4b5e-9079-4ee1-a37c-675e175e1295","system_id":"levelo_inurba_marseille","lat":43.32032,"lon":5.41573,"is_reserved":false,"is_disabled":false,"rental_uris":{"android":"levelo://app?vid=b82a4b5e-9079-4ee1-a37c-675e175e1295","ios":"levelo://app?vid=b82a4b5e-9079-4ee1-a37c-675e175e1295"},"vehicle_type_id":"4","last_reported":1686866756,"current_range_meters":27600,"station_id":"ce4bhq92rcd13ifvqhkg","pricing_plan_id":"free"},{"bike_id":"2f6c160d-0ccd-4cdb-b64f-d8d517e270ea","system_id":"levelo_inurba_marseille","lat":43.292571,"lon":5.409107,"is_reserved":false,"is_disabled":false,"rental_uris":{"android":"levelo://app?vid=2f6c160d-0ccd-4cdb-b64f-d8d517e270ea","ios":"levelo://app?vid=2f6c160d-0ccd-4cdb-b64f-d8d517e270ea"},"vehicle_type_id":"4","last_reported":1686866756,"current_range_meters":4400,"station_id":"ce4bh192rcd13ifvqdc0","pricing_plan_id":"free"},{"bike_id":"dad94c9f-351e-4387-9420-bcbe1151a2ef","system_id":"levelo_inurba_marseille","lat":43.292571,"lon":5.409107,"is_reserved":false,"is_disabled":false,"rental_uris":{"android":"levelo://app?vid=dad94c9f-351e-4387-9420-bcbe1151a2ef","ios":"levelo://app?vid=dad94c9f-351e-4387-9420-bcbe1151a2ef"},"vehicle_type_id":"4","last_reported":1686866756,"current_range_meters":18000,"station_id":"ce4bh192rcd13ifvqdc0","pricing_plan_id":"free"},{"bike_id":"7446fad7-62fe-436d-848c-80026a7bd0db","system_id":"levelo_inurba_marseille","lat":43.292571,"lon":5.409107,"is_reserved":false,"is_disabled":false,"rental_uris":{"android":"levelo://app?vid=7446fad7-62fe-436d-848c-80026a7bd0db","ios":"levelo://app?vid=7446fad7-62fe-436d-848c-80026a7bd0db"},"vehicle_type_id":"4","last_reported":1686866756,"current_range_meters":20400,"station_id":"ce4bh192rcd13ifvqdc0","pricing_plan_id":"free"},{"bike_id":"27ae0813-1b6c-476e-b26e-7f8f4fc5b3d2","system_id":"levelo_inurba_marseille","lat":43.292571,"lon":5.409107,"is_reserved":false,"is_disabled":false,"rental_uris":{"android":"levelo://app?vid=27ae0813-1b6c-476e-b26e-7f8f4fc5b3d2","ios":"levelo://app?vid=27ae0813-1b6c-476e-b26e-7f8f4fc5b3d2"},"vehicle_type_id":"4","last_reported":1686866756,"current_range_meters":18800,"station_id":"ce4bh192rcd13ifvqdc0","pricing_plan_id":"free"},{"bike_id":"808a7b2e-b853-410d-a028-60d905433bc1","system_id":"levelo_inurba_marseille","lat":43.325233,"lon":5.414318,"is_reserved":false,"is_disabled":false,"rental_uris":{"android":"levelo://app?vid=808a7b2e-b853-410d-a028-60d905433bc1","ios":"levelo://app?vid=808a7b2e-b853-410d-a028-60d905433bc1"},"vehicle_type_id":"4","last_reported":1686866756,"current_range_meters":31200,"station_id":"ce4bhq12rcd13ifvqhhg","pricing_plan_id":"free"},{"bike_id":"5022f31c-3431-48c0-899d-4f3fa33c4729","system_id":"levelo_inurba_marseille","lat":43.325233,"lon":5.414318,"is_reserved":false,"is_disabled":false,"rental_uris":{"android":"levelo://app?vid=5022f31c-3431-48c0-899d-4f3fa33c4729","ios":"levelo://app?vid=5022f31c-3431-48c0-899d-4f3fa33c4729"},"vehicle_type_id":"4","last_reported":1686866756,"current_range_meters":28000,"station_id":"ce4bhq12rcd13ifvqhhg","pricing_plan_id":"free"},{"bike_id":"9bba3495-767a-414e-81af-ac0ab6b33320","system_id":"levelo_inurba_marseille","lat":43.3255,"lon":5.41445,"is_reserved":false,"is_disabled":false,"rental_uris":{"android":"levelo://app?vid=9bba3495-767a-414e-81af-ac0ab6b33320","ios":"levelo://app?vid=9bba3495-767a-414e-81af-ac0ab6b33320"},"vehicle_type_id":"4","last_reported":1686866756,"current_range_meters":28400,"station_id":"","pricing_plan_id":"free"},{"bike_id":"194f005f-d243-475b-b231-e2ca17435696","system_id":"levelo_inurba_marseille","lat":43.280784,"lon":5.396622,"is_reserved":false,"is_disabled":false,"rental_uris":{"android":"levelo://app?vid=194f005f-d243-475b-b231-e2ca17435696","ios":"levelo://app?vid=194f005f-d243-475b-b231-e2ca17435696"},"vehicle_type_id":"4","last_reported":1686866756,"current_range_meters":27200,"station_id":"ce4bho12rcd13ifvqh2g","pricing_plan_id":"free"},{"bike_id":"bfbc8490-2ba5-46b4-bab9-8dfb63557449","system_id":"levelo_inurba_marseille","lat":43.303837,"lon":5.418724,"is_reserved":false,"is_disabled":false,"rental_uris":{"android":"levelo://app?vid=bfbc8490-2ba5-46b4-bab9-8dfb63557449","ios":"levelo://app?vid=bfbc8490-2ba5-46b4-bab9-8dfb63557449"},"vehicle_type_id":"4","last_reported":1686866756,"current_range_meters":8400,"station_id":"ce4bhop2rcd13ifvqh7g","pricing_plan_id":"free"},{"bike_id":"15d0e642-25d5-4d2d-bd10-f64561b57398","system_id":"levelo_inurba_marseille","lat":43.278399,"lon":5.392139,"is_reserved":false,"is_disabled":false,"rental_uris":{"android":"levelo://app?vid=15d0e642-25d5-4d2d-bd10-f64561b57398","ios":"levelo://app?vid=15d0e642-25d5-4d2d-bd10-f64561b57398"},"vehicle_type_id":"4","last_reported":1686866756,"current_range_meters":29600,"station_id":"ce4bhjp2rcd13ifvqga0","pricing_plan_id":"free"},{"bike_id":"622354ac-a6d9-47ef-a647-bee38dc54ec8","system_id":"levelo_inurba_marseille","lat":43.27838,"lon":5.39212,"is_reserved":false,"is_disabled":false,"rental_uris":{"android":"levelo://app?vid=622354ac-a6d9-47ef-a647-bee38dc54ec8","ios":"levelo://app?vid=622354ac-a6d9-47ef-a647-bee38dc54ec8"},"vehicle_type_id":"4","last_reported":1686866756,"current_range_meters":12800,"station_id":"ce4bhjp2rcd13ifvqga0","pricing_plan_id":"free"},{"bike_id":"0754c359-ce59-46d6-aedf-1aa15d2160dd","system_id":"levelo_inurba_marseille","lat":43.33612,"lon":5.410321,"is_reserved":false,"is_disabled":false,"rental_uris":{"android":"levelo://app?vid=0754c359-ce59-46d6-aedf-1aa15d2160dd","ios":"levelo://app?vid=0754c359-ce59-46d6-aedf-1aa15d2160dd"},"vehicle_type_id":"4","last_reported":1686866756,"current_range_meters":31600,"station_id":"ce4bhqh2rcd13ifvqhmg","pricing_plan_id":"free"},{"bike_id":"84e9a08e-0a70-41f1-94ae-cab0753831ad","system_id":"levelo_inurba_marseille","lat":43.273613,"lon":5.362705,"is_reserved":false,"is_disabled":false,"rental_uris":{"android":"levelo://app?vid=84e9a08e-0a70-41f1-94ae-cab0753831ad","ios":"levelo://app?vid=84e9a08e-0a70-41f1-94ae-cab0753831ad"},"vehicle_type_id":"4","last_reported":1686866756,"current_range_meters":30000,"station_id":"ce4bhbh2rcd13ifvqeo0","pricing_plan_id":"free"},{"bike_id":"ceb9de61-94af-4b74-af59-8f4158cbf94d","system_id":"levelo_inurba_marseille","lat":43.336134,"lon":5.410341,"is_reserved":false,"is_disabled":false,"rental_uris":{"android":"levelo://app?vid=ceb9de61-94af-4b74-af59-8f4158cbf94d","ios":"levelo://app?vid=ceb9de61-94af-4b74-af59-8f4158cbf94d"},"vehicle_type_id":"4","last_reported":1686866756,"current_range_meters":24400,"station_id":"ce4bhqh2rcd13ifvqhmg","pricing_plan_id":"free"},{"bike_id":"949c3b93-9525-4f53-ac82-9c7f5c90c1ae","system_id":"levelo_inurba_marseille","lat":43.33612,"lon":5.410321,"is_reserved":false,"is_disabled":false,"rental_uris":{"android":"levelo://app?vid=949c3b93-9525-4f53-ac82-9c7f5c90c1ae","ios":"levelo://app?vid=949c3b93-9525-4f53-ac82-9c7f5c90c1ae"},"vehicle_type_id":"4","last_reported":1686866756,"current_range_meters":27200,"station_id":"ce4bhqh2rcd13ifvqhmg","pricing_plan_id":"free"},{"bike_id":"dd00075e-1c02-4db7-a345-ddb4f8c4712a","system_id":"levelo_inurba_marseille","lat":43.33612,"lon":5.410321,"is_reserved":false,"is_disabled":false,"rental_uris":{"android":"levelo://app?vid=dd00075e-1c02-4db7-a345-ddb4f8c4712a","ios":"levelo://app?vid=dd00075e-1c02-4db7-a345-ddb4f8c4712a"},"vehicle_type_id":"4","last_reported":1686866756,"current_range_meters":22800,"station_id":"ce4bhqh2rcd13ifvqhmg","pricing_plan_id":"free"},{"bike_id":"f343dcf5-7438-4df3-949e-d35f604d0ee0","system_id":"levelo_inurba_marseille","lat":43.336134,"lon":5.410341,"is_reserved":false,"is_disabled":false,"rental_uris":{"android":"levelo://app?vid=f343dcf5-7438-4df3-949e-d35f604d0ee0","ios":"levelo://app?vid=f343dcf5-7438-4df3-949e-d35f604d0ee0"},"vehicle_type_id":"4","last_reported":1686866756,"current_range_meters":22400,"station_id":"ce4bhqh2rcd13ifvqhmg","pricing_plan_id":"free"},{"bike_id":"fb9e15b2-2c6d-433d-ba4a-3d4f97010ade","system_id":"levelo_inurba_marseille","lat":43.33612,"lon":5.410321,"is_reserved":false,"is_disabled":false,"rental_uris":{"android":"levelo://app?vid=fb9e15b2-2c6d-433d-ba4a-3d4f97010ade","ios":"levelo://app?vid=fb9e15b2-2c6d-433d-ba4a-3d4f97010ade"},"vehicle_type_id":"4","last_reported":1686866756,"current_range_meters":30000,"station_id":"ce4bhqh2rcd13ifvqhmg","pricing_plan_id":"free"},{"bike_id":"711a099d-e08b-4fff-8d86-0344dc44f1fe","system_id":"levelo_inurba_marseille","lat":43.33612,"lon":5.410321,"is_reserved":false,"is_disabled":false,"rental_uris":{"android":"levelo://app?vid=711a099d-e08b-4fff-8d86-0344dc44f1fe","ios":"levelo://app?vid=711a099d-e08b-4fff-8d86-0344dc44f1fe"},"vehicle_type_id":"4","last_reported":1686866756,"current_range_meters":31200,"station_id":"ce4bhqh2rcd13ifvqhmg","pricing_plan_id":"free"},{"bike_id":"3fdb20cc-fc5b-4039-b55b-89d461f4a89c","system_id":"levelo_inurba_marseille","lat":43.336134,"lon":5.410341,"is_reserved":false,"is_disabled":false,"rental_uris":{"android":"levelo://app?vid=3fdb20cc-fc5b-4039-b55b-89d461f4a89c","ios":"levelo://app?vid=3fdb20cc-fc5b-4039-b55b-89d461f4a89c"},"vehicle_type_id":"4","last_reported":1686866756,"current_range_meters":6000,"station_id":"ce4bhqh2rcd13ifvqhmg","pricing_plan_id":"free"},{"bike_id":"6f859fac-365b-42e3-802d-f6dd032e193b","system_id":"levelo_inurba_marseille","lat":43.336134,"lon":5.410341,"is_reserved":false,"is_disabled":false,"rental_uris":{"android":"levelo://app?vid=6f859fac-365b-42e3-802d-f6dd032e193b","ios":"levelo://app?vid=6f859fac-365b-42e3-802d-f6dd032e193b"},"vehicle_type_id":"4","last_reported":1686866756,"current_range_meters":28000,"station_id":"ce4bhqh2rcd13ifvqhmg","pricing_plan_id":"free"},{"bike_id":"e9eb313b-3930-4675-b197-cbd043c32cb0","system_id":"levelo_inurba_marseille","lat":43.33612,"lon":5.410321,"is_reserved":false,"is_disabled":false,"rental_uris":{"android":"levelo://app?vid=e9eb313b-3930-4675-b197-cbd043c32cb0","ios":"levelo://app?vid=e9eb313b-3930-4675-b197-cbd043c32cb0"},"vehicle_type_id":"4","last_reported":1686866756,"current_range_meters":30000,"station_id":"ce4bhqh2rcd13ifvqhmg","pricing_plan_id":"free"},{"bike_id":"17fbe248-c737-476f-8ba4-13cb950a8de5","system_id":"levelo_inurba_marseille","lat":43.336134,"lon":5.410341,"is_reserved":false,"is_disabled":false,"rental_uris":{"android":"levelo://app?vid=17fbe248-c737-476f-8ba4-13cb950a8de5","ios":"levelo://app?vid=17fbe248-c737-476f-8ba4-13cb950a8de5"},"vehicle_type_id":"4","last_reported":1686866756,"current_range_meters":20000,"station_id":"ce4bhqh2rcd13ifvqhmg","pricing_plan_id":"free"},{"bike_id":"3123fecf-8555-4431-974b-abaab72abf2c","system_id":"levelo_inurba_marseille","lat":43.336134,"lon":5.410341,"is_reserved":false,"is_disabled":false,"rental_uris":{"android":"levelo://app?vid=3123fecf-8555-4431-974b-abaab72abf2c","ios":"levelo://app?vid=3123fecf-8555-4431-974b-abaab72abf2c"},"vehicle_type_id":"4","last_reported":1686866756,"current_range_meters":31200,"station_id":"ce4bhqh2rcd13ifvqhmg","pricing_plan_id":"free"},{"bike_id":"211b2494-7602-462d-b714-038714f61202","system_id":"levelo_inurba_marseille","lat":43.33612,"lon":5.410321,"is_reserved":false,"is_disabled":false,"rental_uris":{"android":"levelo://app?vid=211b2494-7602-462d-b714-038714f61202","ios":"levelo://app?vid=211b2494-7602-462d-b714-038714f61202"},"vehicle_type_id":"4","last_reported":1686866756,"current_range_meters":25200,"station_id":"ce4bhqh2rcd13ifvqhmg","pricing_plan_id":"free"},{"bike_id":"9d9ef0f9-4045-439c-9cf9-feb6d2e28ef1","system_id":"levelo_inurba_marseille","lat":43.33612,"lon":5.410321,"is_reserved":false,"is_disabled":false,"rental_uris":{"android":"levelo://app?vid=9d9ef0f9-4045-439c-9cf9-feb6d2e28ef1","ios":"levelo://app?vid=9d9ef0f9-4045-439c-9cf9-feb6d2e28ef1"},"vehicle_type_id":"4","last_reported":1686866756,"current_range_meters":31200,"station_id":"ce4bhqh2rcd13ifvqhmg","pricing_plan_id":"free"},{"bike_id":"f5c0eadf-42c9-4cce-8b50-b4d194aac325","system_id":"levelo_inurba_marseille","lat":43.31723,"lon":5.42394,"is_reserved":false,"is_disabled":false,"rental_uris":{"android":"levelo://app?vid=f5c0eadf-42c9-4cce-8b50-b4d194aac325","ios":"levelo://app?vid=f5c0eadf-42c9-4cce-8b50-b4d194aac325"},"vehicle_type_id":"4","last_reported":1686866756,"current_range_meters":0,"station_id":"ce4bhp92rcd13ifvqhbg","pricing_plan_id":"free"},{"bike_id":"0b8b319d-24cb-4667-8f37-b3977fefed41","system_id":"levelo_inurba_marseille","lat":43.31726,"lon":5.42398,"is_reserved":false,"is_disabled":false,"rental_uris":{"android":"levelo://app?vid=0b8b319d-24cb-4667-8f37-b3977fefed41","ios":"levelo://app?vid=0b8b319d-24cb-4667-8f37-b3977fefed41"},"vehicle_type_id":"4","last_reported":1686866756,"current_range_meters":6400,"station_id":"ce4bhp92rcd13ifvqhbg","pricing_plan_id":"free"},{"bike_id":"e02287b1-056f-4bc4-9646-47090fe04fbf","system_id":"levelo_inurba_marseille","lat":43.317121,"lon":5.423936,"is_reserved":false,"is_disabled":false,"rental_uris":{"android":"levelo://app?vid=e02287b1-056f-4bc4-9646-47090fe04fbf","ios":"levelo://app?vid=e02287b1-056f-4bc4-9646-47090fe04fbf"},"vehicle_type_id":"4","last_reported":1686866756,"current_range_meters":31200,"station_id":"ce4bhp92rcd13ifvqhbg","pricing_plan_id":"free"},{"bike_id":"f82c4e0b-ce86-4de4-962b-f266d6ba506e","system_id":"levelo_inurba_marseille","lat":43.273125,"lon":5.390731,"is_reserved":false,"is_disabled":false,"rental_uris":{"android":"levelo://app?vid=f82c4e0b-ce86-4de4-962b-f266d6ba506e","ios":"levelo://app?vid=f82c4e0b-ce86-4de4-962b-f266d6ba506e"},"vehicle_type_id":"4","last_reported":1686866756,"current_range_meters":15600,"station_id":"ce4bhgp2rcd13ifvqfe0","pricing_plan_id":"free"},{"bike_id":"326b453c-f42e-4f99-97cc-3c8ecf046add","system_id":"levelo_inurba_marseille","lat":43.27426,"lon":5.39411,"is_reserved":false,"is_disabled":false,"rental_uris":{"android":"levelo://app?vid=326b453c-f42e-4f99-97cc-3c8ecf046add","ios":"levelo://app?vid=326b453c-f42e-4f99-97cc-3c8ecf046add"},"vehicle_type_id":"4","last_reported":1686866756,"current_range_meters":31200,"station_id":"ce4bhdp2rcd13ifvqf20","pricing_plan_id":"free"},{"bike_id":"a06a0bf3-0891-4293-90c4-a1326b3ecffd","system_id":"levelo_inurba_marseille","lat":43.304096,"lon":5.425385,"is_reserved":false,"is_disabled":false,"rental_uris":{"android":"levelo://app?vid=a06a0bf3-0891-4293-90c4-a1326b3ecffd","ios":"levelo://app?vid=a06a0bf3-0891-4293-90c4-a1326b3ecffd"},"vehicle_type_id":"4","last_reported":1686866756,"current_range_meters":7200,"station_id":"ce4bhoh2rcd13ifvqh6g","pricing_plan_id":"free"},{"bike_id":"b6ae69e0-7c94-485c-91e3-c97468913591","system_id":"levelo_inurba_marseille","lat":43.295523,"lon":5.422926,"is_reserved":false,"is_disabled":false,"rental_uris":{"android":"levelo://app?vid=b6ae69e0-7c94-485c-91e3-c97468913591","ios":"levelo://app?vid=b6ae69e0-7c94-485c-91e3-c97468913591"},"vehicle_type_id":"4","last_reported":1686866756,"current_range_meters":400,"station_id":"ce4bhph2rcd13ifvqhdg","pricing_plan_id":"free"},{"bike_id":"7c27f4c9-5cd0-4782-be29-64492ed85c93","system_id":"levelo_inurba_marseille","lat":43.295523,"lon":5.422926,"is_reserved":false,"is_disabled":false,"rental_uris":{"android":"levelo://app?vid=7c27f4c9-5cd0-4782-be29-64492ed85c93","ios":"levelo://app?vid=7c27f4c9-5cd0-4782-be29-64492ed85c93"},"vehicle_type_id":"4","last_reported":1686866756,"current_range_meters":14000,"station_id":"ce4bhph2rcd13ifvqhdg","pricing_plan_id":"free"},{"bike_id":"35f15a89-3066-4f34-bdbf-2fa896fbfe6e","system_id":"levelo_inurba_marseille","lat":43.278128,"lon":5.407195,"is_reserved":false,"is_disabled":false,"rental_uris":{"android":"levelo://app?vid=35f15a89-3066-4f34-bdbf-2fa896fbfe6e","ios":"levelo://app?vid=35f15a89-3066-4f34-bdbf-2fa896fbfe6e"},"vehicle_type_id":"4","last_reported":1686866756,"current_range_meters":27600,"station_id":"ce4bhnh2rcd13ifvqgtg","pricing_plan_id":"free"},{"bike_id":"f930b5e0-3240-49e6-b806-f0de907a80c2","system_id":"levelo_inurba_marseille","lat":43.278128,"lon":5.407195,"is_reserved":false,"is_disabled":false,"rental_uris":{"android":"levelo://app?vid=f930b5e0-3240-49e6-b806-f0de907a80c2","ios":"levelo://app?vid=f930b5e0-3240-49e6-b806-f0de907a80c2"},"vehicle_type_id":"4","last_reported":1686866756,"current_range_meters":31200,"station_id":"ce4bhnh2rcd13ifvqgtg","pricing_plan_id":"free"},{"bike_id":"cfba2fbe-9ed5-423f-b411-8d6c38451715","system_id":"levelo_inurba_marseille","lat":43.26683,"lon":5.38268,"is_reserved":false,"is_disabled":false,"rental_uris":{"android":"levelo://app?vid=cfba2fbe-9ed5-423f-b411-8d6c38451715","ios":"levelo://app?vid=cfba2fbe-9ed5-423f-b411-8d6c38451715"},"vehicle_type_id":"4","last_reported":1686866756,"current_range_meters":31200,"station_id":"ce4bhg92rcd13ifvqf90","pricing_plan_id":"free"},{"bike_id":"6275aaca-a354-407f-be44-df40f2969d44","system_id":"levelo_inurba_marseille","lat":43.26681,"lon":5.382694,"is_reserved":false,"is_disabled":false,"rental_uris":{"android":"levelo://app?vid=6275aaca-a354-407f-be44-df40f2969d44","ios":"levelo://app?vid=6275aaca-a354-407f-be44-df40f2969d44"},"vehicle_type_id":"4","last_reported":1686866756,"current_range_meters":31200,"station_id":"ce4bhg92rcd13ifvqf90","pricing_plan_id":"free"},{"bike_id":"52b6437a-5f8c-40a5-a4ed-d7d118dc8793","system_id":"levelo_inurba_marseille","lat":43.27996,"lon":5.416624,"is_reserved":false,"is_disabled":false,"rental_uris":{"android":"levelo://app?vid=52b6437a-5f8c-40a5-a4ed-d7d118dc8793","ios":"levelo://app?vid=52b6437a-5f8c-40a5-a4ed-d7d118dc8793"},"vehicle_type_id":"4","last_reported":1686866756,"current_range_meters":18800,"station_id":"ce4bho12rcd13ifvqh1g","pricing_plan_id":"free"},{"bike_id":"cbaf7c75-be10-4a2d-b192-fa4ebf8e2763","system_id":"levelo_inurba_marseille","lat":43.27996,"lon":5.416624,"is_reserved":false,"is_disabled":false,"rental_uris":{"android":"levelo://app?vid=cbaf7c75-be10-4a2d-b192-fa4ebf8e2763","ios":"levelo://app?vid=cbaf7c75-be10-4a2d-b192-fa4ebf8e2763"},"vehicle_type_id":"4","last_reported":1686866756,"current_range_meters":0,"station_id":"ce4bho12rcd13ifvqh1g","pricing_plan_id":"free"},{"bike_id":"d829be1b-62aa-40a6-96d5-b22e3727648a","system_id":"levelo_inurba_marseille","lat":43.27996,"lon":5.416624,"is_reserved":false,"is_disabled":false,"rental_uris":{"android":"levelo://app?vid=d829be1b-62aa-40a6-96d5-b22e3727648a","ios":"levelo://app?vid=d829be1b-62aa-40a6-96d5-b22e3727648a"},"vehicle_type_id":"4","last_reported":1686866756,"current_range_meters":800,"station_id":"ce4bho12rcd13ifvqh1g","pricing_plan_id":"free"},{"bike_id":"3f8beed2-37b2-4063-9440-2d50a385399e","system_id":"levelo_inurba_marseille","lat":43.27996,"lon":5.416624,"is_reserved":false,"is_disabled":false,"rental_uris":{"android":"levelo://app?vid=3f8beed2-37b2-4063-9440-2d50a385399e","ios":"levelo://app?vid=3f8beed2-37b2-4063-9440-2d50a385399e"},"vehicle_type_id":"4","last_reported":1686866756,"current_range_meters":1200,"station_id":"ce4bho12rcd13ifvqh1g","pricing_plan_id":"free"},{"bike_id":"749898e0-7e19-4b81-b542-6dc75e4e531e","system_id":"levelo_inurba_marseille","lat":43.28001,"lon":5.41667,"is_reserved":false,"is_disabled":false,"rental_uris":{"android":"levelo://app?vid=749898e0-7e19-4b81-b542-6dc75e4e531e","ios":"levelo://app?vid=749898e0-7e19-4b81-b542-6dc75e4e531e"},"vehicle_type_id":"4","last_reported":1686866756,"current_range_meters":2800,"station_id":"ce4bho12rcd13ifvqh1g","pricing_plan_id":"free"},{"bike_id":"1a99213b-7835-43f9-9650-2e4f75d6fbd1","system_id":"levelo_inurba_marseille","lat":43.27996,"lon":5.416624,"is_reserved":false,"is_disabled":false,"rental_uris":{"android":"levelo://app?vid=1a99213b-7835-43f9-9650-2e4f75d6fbd1","ios":"levelo://app?vid=1a99213b-7835-43f9-9650-2e4f75d6fbd1"},"vehicle_type_id":"4","last_reported":1686866756,"current_range_meters":12800,"station_id":"ce4bho12rcd13ifvqh1g","pricing_plan_id":"free"},{"bike_id":"5c4ea747-d1dd-42ab-a0ba-21f306372130","system_id":"levelo_inurba_marseille","lat":43.27996,"lon":5.416624,"is_reserved":false,"is_disabled":false,"rental_uris":{"android":"levelo://app?vid=5c4ea747-d1dd-42ab-a0ba-21f306372130","ios":"levelo://app?vid=5c4ea747-d1dd-42ab-a0ba-21f306372130"},"vehicle_type_id":"4","last_reported":1686866756,"current_range_meters":20000,"station_id":"ce4bho12rcd13ifvqh1g","pricing_plan_id":"free"},