{"last_updated":1745057381,"ttl":60,"version":"2.2","data":{"bikes":[{"bike_id":"1bb251f1-67bf-4493-9b32-697064c13962","system_id":"levelo_inurba_marseille","lat":43.290156,"lon":5.378272,"is_reserved":false,"is_disabled":false,"rental_uris":{"android":"levelo://app?vid=1bb251f1-67bf-4493-9b32-697064c13962","ios":"levelo://app?vid=1bb251f1-67bf-4493-9b32-697064c13962"},"vehicle_type_id":"4","last_reported":1745057381,"current_range_meters":2000,"station_id":"ce4bh9p2rcd13ifvqed0","pricing_plan_id":"cebpf4jnsgd1na2vs0mg"},{"bike_id":"d1f3b8c8-3812-4331-9df1-1ff86aad96e5","system_id":"levelo_inurba_marseille","lat":43.28422,"lon":5.34973,"is_reserved":false,"is_disabled":false,"rental_uris":{"android":"levelo://app?vid=d1f3b8c8-3812-4331-9df1-1ff86aad96e5","ios":"levelo://app?vid=d1f3b8c8-3812-4331-9df1-1ff86aad96e5"},"vehicle_type_id":"4","last_reported":1745057381,"current_range_meters":2800,"station_id":"ce4bhbh2rcd13ifvqepg","pricing_plan_id":"cebpf4jnsgd1na2vs0mg"},{"bike_id":"512d0cea-8727-4d5a-a10e-16b3eff688b7","system_id":"levelo_inurba_marseille","lat":43.29365,"lon":5.37863,"is_reserved":false,"is_disabled":false,"rental_uris":{"android":"levelo://app?vid=512d0cea-8727-4d5a-a10e-16b3eff688b7","ios":"levelo://app?vid=512d0cea-8727-4d5a-a10e-16b3eff688b7"},"vehicle_type_id":"4","last_reported":1745057381,"current_range_meters":2800,"station_id":"ce4bgjh2rcd13ifvqbf0","pricing_plan_id":"cebpf4jnsgd1na2vs0mg"},{"bike_id":"ceccb53e-f407-4874-bbec-f56a430aea7c","system_id":"levelo_inurba_marseille","lat":43.24802,"lon":5.3745,"is_reserved":false,"is_disabled":true,"rental_uris":{"android":"levelo://app?vid=ceccb53e-f407-4874-bbec-f56a430aea7c","ios":"levelo://app?vid=ceccb53e-f407-4874-bbec-f56a430aea7c"},"vehicle_type_id":"4","last_reported":1745057381,"current_range_meters":2800,"station_id":"ce4bhgh2rcd13ifvqfb0","pricing_plan_id":"cebpf4jnsgd1na2vs0mg"},{"bike_id":"cd82bfe1-a0ed-4cd0-b6ff-6d2046533e87","system_id":"levelo_inurba_marseille","lat":43.29625,"lon":5.40596,"is_reserved":false,"is_disabled":false,"rental_uris":{"android":"levelo://app?vid=cd82bfe1-a0ed-4cd0-b6ff-6d2046533e87","ios":"levelo://app?vid=cd82bfe1-a0ed-4cd0-b6ff-6d2046533e87"},"vehicle_type_id":"4","last_reported":1745057381,"current_range_meters":3600,"station_id":"ce4bh0h2rcd13ifvqd60","pricing_plan_id":"cebpf4jnsgd1na2vs0mg"},{"bike_id":"90aa4f1b-9f80-4926-8a6b-bb0dab6df0e1","system_id":"levelo_inurba_marseille","lat":43.269511,"lon":5.386324,"is_reserved":false,"is_disabled":false,"rental_uris":{"android":"levelo://app?vid=90aa4f1b-9f80-4926-8a6b-bb0dab6df0e1","ios":"levelo://app?vid=90aa4f1b-9f80-4926-8a6b-bb0dab6df0e1"},"vehicle_type_id":"4","last_reported":1745057381,"current_range_meters":3600,"station_id":"ce4bhh92rcd13ifvqfh0","pricing_plan_id":"cebpf4jnsgd1na2vs0mg"},{"bike_id":"f6cb761b-3cb1-4b07-9c69-3b74d8687666","system_id":"levelo_inurba_marseille","lat":43.30639,"lon":5.40097,"is_reserved":false,"is_disabled":false,"rental_uris":{"android":"levelo://app?vid=f6cb761b-3cb1-4b07-9c69-3b74d8687666","ios":"levelo://app?vid=f6cb761b-3cb1-4b07-9c69-3b74d8687666"},"vehicle_type_id":"4","last_reported":1745057381,"current_range_meters":4400,"station_id":"ce4bh112rcd13ifvqda0","pricing_plan_id":"cebpf4jnsgd1na2vs0mg"},{"bike_id":"a744e6fc-71f4-4361-9531-5d5d5dea5d82","system_id":"levelo_inurba_marseille","lat":43.30502,"lon":5.37881,"is_reserved":false,"is_disabled":true,"rental_uris":{"android":"levelo://app?vid=a744e6fc-71f4-4361-9531-5d5d5dea5d82","ios":"levelo://app?vid=a744e6fc-71f4-4361-9531-5d5d5dea5d82"},"vehicle_type_id":"4","last_reported":1745057381,"current_range_meters":4800,"station_id":"ce4bgup2rcd13ifvqcn0","pricing_plan_id":"cebpf4jnsgd1na2vs0mg"},{"bike_id":"dfa39efb-8bda-4508-a672-d40e782878d1","system_id":"levelo_inurba_marseille","lat":43.24059,"lon":5.37762,"is_reserved":false,"is_disabled":false,"rental_uris":{"android":"levelo://app?vid=dfa39efb-8bda-4508-a672-d40e782878d1","ios":"levelo://app?vid=dfa39efb-8bda-4508-a672-d40e782878d1"},"vehicle_type_id":"4","last_reported":1745057381,"current_range_meters":5600,"station_id":"ce4bhnp2rcd13ifvqgvg","pricing_plan_id":"cebpf4jnsgd1na2vs0mg"},{"bike_id":"c415b972-8ead-4e78-8d80-7a091746c0aa","system_id":"levelo_inurba_marseille","lat":43.24391,"lon":5.37072,"is_reserved":false,"is_disabled":false,"rental_uris":{"android":"levelo://app?vid=c415b972-8ead-4e78-8d80-7a091746c0aa","ios":"levelo://app?vid=c415b972-8ead-4e78-8d80-7a091746c0aa"},"vehicle_type_id":"4","last_reported":1745057381,"current_range_meters":5600,"station_id":"ce4bhhh2rcd13ifvqfk0","pricing_plan_id":"cebpf4jnsgd1na2vs0mg"},{"bike_id":"abd70e71-c44f-4ef5-962a-28e629079420","system_id":"levelo_inurba_marseille","lat":43.26683,"lon":5.38277,"is_reserved":false,"is_disabled":false,"rental_uris":{"android":"levelo://app?vid=abd70e71-c44f-4ef5-962a-28e629079420","ios":"levelo://app?vid=abd70e71-c44f-4ef5-962a-28e629079420"},"vehicle_type_id":"4","last_reported":1745057381,"current_range_meters":5600,"station_id":"ce4bhg92rcd13ifvqf90","pricing_plan_id":"cebpf4jnsgd1na2vs0mg"},{"bike_id":"fe603162-9e89-4df8-9ff6-b2da950e8cb3","system_id":"levelo_inurba_marseille","lat":43.25004,"lon":5.38932,"is_reserved":false,"is_disabled":false,"rental_uris":{"android":"levelo://app?vid=fe603162-9e89-4df8-9ff6-b2da950e8cb3","ios":"levelo://app?vid=fe603162-9e89-4df8-9ff6-b2da950e8cb3"},"vehicle_type_id":"4","last_reported":1745057381,"current_range_meters":5600,"station_id":"ce4bhgp2rcd13ifvqfd0","pricing_plan_id":"cebpf4jnsgd1na2vs0mg"},{"bike_id":"5f28e390-76ad-416d-b1aa-4a7c2d23f4b0","system_id":"levelo_inurba_marseille","lat":43.239594,"lon":5.366272,"is_reserved":false,"is_disabled":false,"rental_uris":{"android":"levelo://app?vid=5f28e390-76ad-416d-b1aa-4a7c2d23f4b0","ios":"levelo://app?vid=5f28e390-76ad-416d-b1aa-4a7c2d23f4b0"},"vehicle_type_id":"4","last_reported":1745057381,"current_range_meters":6000,"station_id":"ce4bhah2rcd13ifvqej0","pricing_plan_id":"cebpf4jnsgd1na2vs0mg"},{"bike_id":"6987c513-b50c-45b1-80e3-356055d982d5","system_id":"levelo_inurba_marseille","lat":43.29941,"lon":5.37755,"is_reserved":false,"is_disabled":true,"rental_uris":{"android":"levelo://app?vid=6987c513-b50c-45b1-80e3-356055d982d5","ios":"levelo://app?vid=6987c513-b50c-45b1-80e3-356055d982d5"},"vehicle_type_id":"4","last_reported":1745057381,"current_range_meters":6400,"station_id":"","pricing_plan_id":"cebpf4jnsgd1na2vs0mg"},{"bike_id":"f80edf55-75b7-48f1-8770-a2827fd79913","system_id":"levelo_inurba_marseille","lat":43.28073,"lon":5.39648,"is_reserved":false,"is_disabled":false,"rental_uris":{"android":"levelo://app?vid=f80edf55-75b7-48f1-8770-a2827fd79913","ios":"levelo://app?vid=f80edf55-75b7-48f1-8770-a2827fd79913"},"vehicle_type_id":"4","last_reported":1745057381,"current_range_meters":6400,"station_id":"ce4bho12rcd13ifvqh2g","pricing_plan_id":"cebpf4jnsgd1na2vs0mg"},{"bike_id":"da3db9c9-2c3f-4308-ad4c-8d376df3948a","system_id":"levelo_inurba_marseille","lat":43.337444,"lon":5.374475,"is_reserved":false,"is_disabled":false,"rental_uris":{"android":"levelo://app?vid=da3db9c9-2c3f-4308-ad4c-8d376df3948a","ios":"levelo://app?vid=da3db9c9-2c3f-4308-ad4c-8d376df3948a"},"vehicle_type_id":"4","last_reported":1745057381,"current_range_meters":6400,"station_id":"","pricing_plan_id":"cebpf4jnsgd1na2vs0mg"},{"bike_id":"d0693017-3219-4f2c-9252-be27486404d3","system_id":"levelo_inurba_marseille","lat":43.24667,"lon":5.38162,"is_reserved":false,"is_disabled":false,"rental_uris":{"android":"levelo://app?vid=d0693017-3219-4f2c-9252-be27486404d3","ios":"levelo://app?vid=d0693017-3219-4f2c-9252-be27486404d3"},"vehicle_type_id":"4","last_reported":1745057381,"current_range_meters":6800,"station_id":"ce4bhih2rcd13ifvqfr0","pricing_plan_id":"cebpf4jnsgd1na2vs0mg"},{"bike_id":"24e3995b-4fc6-47f1-b5f5-eb554c9492c3","system_id":"levelo_inurba_marseille","lat":43.26209,"lon":5.37441,"is_reserved":false,"is_disabled":false,"rental_uris":{"android":"levelo://app?vid=24e3995b-4fc6-47f1-b5f5-eb554c9492c3","ios":"levelo://app?vid=24e3995b-4fc6-47f1-b5f5-eb554c9492c3"},"vehicle_type_id":"4","last_reported":1745057381,"current_range_meters":6800,"station_id":"ce4bhgp2rcd13ifvqfc0","pricing_plan_id":"cebpf4jnsgd1na2vs0mg"},{"bike_id":"a968bc14-c848-422a-b8e8-61f50cb7032f","system_id":"levelo_inurba_marseille","lat":43.30797,"lon":5.43514,"is_reserved":false,"is_disabled":false,"rental_uris":{"android":"levelo://app?vid=a968bc14-c848-422a-b8e8-61f50cb7032f","ios":"levelo://app?vid=a968bc14-c848-422a-b8e8-61f50cb7032f"},"vehicle_type_id":"4","last_reported":1745057381,"current_range_meters":6800,"station_id":"ce4bhph2rcd13ifvqheg","pricing_plan_id":"cebpf4jnsgd1na2vs0mg"},{"bike_id":"678d1aa7-dc7f-4ee1-a950-5a4f554ad695","system_id":"levelo_inurba_marseille","lat":43.29782,"lon":5.39366,"is_reserved":false,"is_disabled":true,"rental_uris":{"android":"levelo://app?vid=678d1aa7-dc7f-4ee1-a950-5a4f554ad695","ios":"levelo://app?vid=678d1aa7-dc7f-4ee1-a950-5a4f554ad695"},"vehicle_type_id":"4","last_reported":1745057381,"current_range_meters":6800,"station_id":"chh1huq6cuj3fo74tm60","pricing_plan_id":"cebpf4jnsgd1na2vs0mg"},{"bike_id":"d4d9b665-d4f4-49cf-9dcd-00e920a45b50","system_id":"levelo_inurba_marseille","lat":43.2584,"lon":5.39406,"is_reserved":false,"is_disabled":false,"rental_uris":{"android":"levelo://app?vid=d4d9b665-d4f4-49cf-9dcd-00e920a45b50","ios":"levelo://app?vid=d4d9b665-d4f4-49cf-9dcd-00e920a45b50"},"vehicle_type_id":"4","last_reported":1745057381,"current_range_meters":6800,"station_id":"ce4bhip2rcd13ifvqft0","pricing_plan_id":"cebpf4jnsgd1na2vs0mg"},{"bike_id":"f2d09a49-02ca-41b9-870e-fdff640473d6","system_id":"levelo_inurba_marseille","lat":43.24165,"lon":5.36404,"is_reserved":false,"is_disabled":false,"rental_uris":{"android":"levelo://app?vid=f2d09a49-02ca-41b9-870e-fdff640473d6","ios":"levelo://app?vid=f2d09a49-02ca-41b9-870e-fdff640473d6"},"vehicle_type_id":"4","last_reported":1745057381,"current_range_meters":7200,"station_id":"cpo36qri1sfpv3e86is0","pricing_plan_id":"cebpf4jnsgd1na2vs0mg"},{"bike_id":"1210dc72-37b8-49f7-b249-6faa54daba28","system_id":"levelo_inurba_marseille","lat":43.3235,"lon":5.36747,"is_reserved":false,"is_disabled":false,"rental_uris":{"android":"levelo://app?vid=1210dc72-37b8-49f7-b249-6faa54daba28","ios":"levelo://app?vid=1210dc72-37b8-49f7-b249-6faa54daba28"},"vehicle_type_id":"4","last_reported":1745057381,"current_range_meters":7200,"station_id":"ce4bhsh2rcd13ifvqi2g","pricing_plan_id":"cebpf4jnsgd1na2vs0mg"},{"bike_id":"49ea5665-6b23-4f2b-b464-accc61389b6d","system_id":"levelo_inurba_marseille","lat":43.3051,"lon":5.36568,"is_reserved":false,"is_disabled":false,"rental_uris":{"android":"levelo://app?vid=49ea5665-6b23-4f2b-b464-accc61389b6d","ios":"levelo://app?vid=49ea5665-6b23-4f2b-b464-accc61389b6d"},"vehicle_type_id":"4","last_reported":1745057381,"current_range_meters":7200,"station_id":"ce4bgs12rcd13ifvqcag","pricing_plan_id":"cebpf4jnsgd1na2vs0mg"},{"bike_id":"60191f64-97b4-4952-8216-9f626d4420e6","system_id":"levelo_inurba_marseille","lat":43.280739,"lon":5.396628,"is_reserved":false,"is_disabled":false,"rental_uris":{"android":"levelo://app?vid=60191f64-97b4-4952-8216-9f626d4420e6","ios":"levelo://app?vid=60191f64-97b4-4952-8216-9f626d4420e6"},"vehicle_type_id":"4","last_reported":1745057381,"current_range_meters":7200,"station_id":"ce4bho12rcd13ifvqh2g","pricing_plan_id":"cebpf4jnsgd1na2vs0mg"},{"bike_id":"38d71541-39fa-44bc-b9fa-dad7cbdc7434","system_id":"levelo_inurba_marseille","lat":43.287469,"lon":5.386596,"is_reserved":false,"is_disabled":false,"rental_uris":{"android":"levelo://app?vid=38d71541-39fa-44bc-b9fa-dad7cbdc7434","ios":"levelo://app?vid=38d71541-39fa-44bc-b9fa-dad7cbdc7434"},"vehicle_type_id":"4","last_reported":1745057381,"current_range_meters":7200,"station_id":"","pricing_plan_id":"cebpf4jnsgd1na2vs0mg"},{"bike_id":"94387fd5-ac7b-4cb5-ba6a-b784371b1b9e","system_id":"levelo_inurba_marseille","lat":43.29615,"lon":5.3772,"is_reserved":false,"is_disabled":false,"rental_uris":{"android":"levelo://app?vid=94387fd5-ac7b-4cb5-ba6a-b784371b1b9e","ios":"levelo://app?vid=94387fd5-ac7b-4cb5-ba6a-b784371b1b9e"},"vehicle_type_id":"4","last_reported":1745057381,"current_range_meters":7200,"station_id":"ce4bgi92rcd13ifvqb90","pricing_plan_id":"cebpf4jnsgd1na2vs0mg"},{"bike_id":"ee45d3b2-e8a1-4166-92e0-42002aca85ac","system_id":"levelo_inurba_marseille","lat":43.31326,"lon":5.39696,"is_reserved":false,"is_disabled":false,"rental_uris":{"android":"levelo://app?vid=ee45d3b2-e8a1-4166-92e0-42002aca85ac","ios":"levelo://app?vid=ee45d3b2-e8a1-4166-92e0-42002aca85ac"},"vehicle_type_id":"4","last_reported":1745057381,"current_range_meters":8000,"station_id":"ce4bgvp2rcd13ifvqcu0","pricing_plan_id":"cebpf4jnsgd1na2vs0mg"},{"bike_id":"f3c909d5-0e5a-4ed2-a247-9b38edd85fb5","system_id":"levelo_inurba_marseille","lat":43.29004,"lon":5.35616,"is_reserved":false,"is_disabled":false,"rental_uris":{"android":"levelo://app?vid=f3c909d5-0e5a-4ed2-a247-9b38edd85fb5","ios":"levelo://app?vid=f3c909d5-0e5a-4ed2-a247-9b38edd85fb5"},"vehicle_type_id":"4","last_reported":1745057381,"current_range_meters":7200,"station_id":"ce4bhb92rcd13ifvqen0","pricing_plan_id":"cebpf4jnsgd1na2vs0mg"},{"bike_id":"667102ad-4340-47b0-a842-1f1df0706087","system_id":"levelo_inurba_marseille","lat":43.28719,"lon":5.37954,"is_reserved":false,"is_disabled":false,"rental_uris":{"android":"levelo://app?vid=667102ad-4340-47b0-a842-1f1df0706087","ios":"levelo://app?vid=667102ad-4340-47b0-a842-1f1df0706087"},"vehicle_type_id":"4","last_reported":1745057381,"current_range_meters":8000,"station_id":"ce4bh9p2rcd13ifvqec0","pricing_plan_id":"cebpf4jnsgd1na2vs0mg"},{"bike_id":"4df29c92-2004-47f7-8d83-330f3632e790","system_id":"levelo_inurba_marseille","lat":43.24664,"lon":5.38152,"is_reserved":false,"is_disabled":false,"rental_uris":{"android":"levelo://app?vid=4df29c92-2004-47f7-8d83-330f3632e790","ios":"levelo://app?vid=4df29c92-2004-47f7-8d83-330f3632e790"},"vehicle_type_id":"4","last_reported":1745057381,"current_range_meters":8000,"station_id":"ce4bhih2rcd13ifvqfr0","pricing_plan_id":"cebpf4jnsgd1na2vs0mg"},{"bike_id":"4afbb993-3a66-4342-8cb4-322d4b63dffe","system_id":"levelo_inurba_marseille","lat":43.29601,"lon":5.37718,"is_reserved":false,"is_disabled":false,"rental_uris":{"android":"levelo://app?vid=4afbb993-3a66-4342-8cb4-322d4b63dffe","ios":"levelo://app?vid=4afbb993-3a66-4342-8cb4-322d4b63dffe"},"vehicle_type_id":"4","last_reported":1745057381,"current_range_meters":8000,"station_id":"ce4bgi92rcd13ifvqb90","pricing_plan_id":"cebpf4jnsgd1na2vs0mg"},{"bike_id":"782da538-2223-4ccd-8232-244cda12462d","system_id":"levelo_inurba_marseille","lat":43.23177,"lon":5.4,"is_reserved":false,"is_disabled":false,"rental_uris":{"android":"levelo://app?vid=782da538-2223-4ccd-8232-244cda12462d","ios":"levelo://app?vid=782da538-2223-4ccd-8232-244cda12462d"},"vehicle_type_id":"4","last_reported":1745057381,"current_range_meters":8000,"station_id":"ce4bhn12rcd13ifvqgqg","pricing_plan_id":"cebpf4jnsgd1na2vs0mg"},{"bike_id":"36028acb-1986-4460-84fe-b2aca491647c","system_id":"levelo_inurba_marseille","lat":43.26785,"lon":5.39398,"is_reserved":false,"is_disabled":false,"rental_uris":{"android":"levelo://app?vid=36028acb-1986-4460-84fe-b2aca491647c","ios":"levelo://app?vid=36028acb-1986-4460-84fe-b2aca491647c"},"vehicle_type_id":"4","last_reported":1745057381,"current_range_meters":8400,"station_id":"ce4bhh12rcd13ifvqfg0","pricing_plan_id":"cebpf4jnsgd1na2vs0mg"},{"bike_id":"3238ad72-d50b-4fc7-864f-7e93a486e527","system_id":"levelo_inurba_marseille","lat":43.2292,"lon":5.35392,"is_reserved":false,"is_disabled":false,"rental_uris":{"android":"levelo://app?vid=3238ad72-d50b-4fc7-864f-7e93a486e527","ios":"levelo://app?vid=3238ad72-d50b-4fc7-864f-7e93a486e527"},"vehicle_type_id":"4","last_reported":1745057381,"current_range_meters":8400,"station_id":"cpo3532slgdg3j2ikp40","pricing_plan_id":"cebpf4jnsgd1na2vs0mg"},{"bike_id":"4affa1cf-896e-4b35-92a9-9624470d1083","system_id":"levelo_inurba_marseille","lat":43.29277,"lon":5.40129,"is_reserved":false,"is_disabled":true,"rental_uris":{"android":"levelo://app?vid=4affa1cf-896e-4b35-92a9-9624470d1083","ios":"levelo://app?vid=4affa1cf-896e-4b35-92a9-9624470d1083"},"vehicle_type_id":"4","last_reported":1745057381,"current_range_meters":8400,"station_id":"ce4bh312rcd13ifvqdk0","pricing_plan_id":"cebpf4jnsgd1na2vs0mg"},{"bike_id":"934a8fc0-98f8-4aaf-a145-d485dee937c7","system_id":"levelo_inurba_marseille","lat":43.323646,"lon":5.367585,"is_reserved":false,"is_disabled":false,"rental_uris":{"android":"levelo://app?vid=934a8fc0-98f8-4aaf-a145-d485dee937c7","ios":"levelo://app?vid=934a8fc0-98f8-4aaf-a145-d485dee937c7"},"vehicle_type_id":"4","last_reported":1745057381,"current_range_meters":8400,"station_id":"ce4bhsh2rcd13ifvqi2g","pricing_plan_id":"cebpf4jnsgd1na2vs0mg"},{"bike_id":"3abcd8a1-bc4b-4780-96f7-c41259227a65","system_id":"levelo_inurba_marseille","lat":43.337444,"lon":5.374475,"is_reserved":false,"is_disabled":false,"rental_uris":{"android":"levelo://app?vid=3abcd8a1-bc4b-4780-96f7-c41259227a65","ios":"levelo://app?vid=3abcd8a1-bc4b-4780-96f7-c41259227a65"},"vehicle_type_id":"4","last_reported":1745057381,"current_range_meters":8800,"station_id":"","pricing_plan_id":"cebpf4jnsgd1na2vs0mg"},{"bike_id":"c42c97dc-851b-476d-ba23-67d0582febc0","system_id":"levelo_inurba_marseille","lat":43.30321,"lon":5.4049,"is_reserved":false,"is_disabled":true,"rental_uris":{"android":"levelo://app?vid=c42c97dc-851b-476d-ba23-67d0582febc0","ios":"levelo://app?vid=c42c97dc-851b-476d-ba23-67d0582febc0"},"vehicle_type_id":"4","last_reported":1745057381,"current_range_meters":8800,"station_id":"ce4bh012rcd13ifvqd10","pricing_plan_id":"cebpf4jnsgd1na2vs0mg"},{"bike_id":"4a86d0f8-ff65-4446-9521-1002867a3da0","system_id":"levelo_inurba_marseille","lat":43.245522,"lon":5.395267,"is_reserved":false,"is_disabled":true,"rental_uris":{"android":"levelo://app?vid=4a86d0f8-ff65-4446-9521-1002867a3da0","ios":"levelo://app?vid=4a86d0f8-ff65-4446-9521-1002867a3da0"},"vehicle_type_id":"4","last_reported":1745057381,"current_range_meters":8800,"station_id":"ce4bhlp2rcd13ifvqgjg","pricing_plan_id":"cebpf4jnsgd1na2vs0mg"},{"bike_id":"c698f0fe-d464-42fb-bdba-94280d3468ed","system_id":"levelo_inurba_marseille","lat":43.29583,"lon":5.36742,"is_reserved":false,"is_disabled":false,"rental_uris":{"android":"levelo://app?vid=c698f0fe-d464-42fb-bdba-94280d3468ed","ios":"levelo://app?vid=c698f0fe-d464-42fb-bdba-94280d3468ed"},"vehicle_type_id":"4","last_reported":1745057381,"current_range_meters":8800,"station_id":"ce4bgph2rcd13ifvqc2g","pricing_plan_id":"cebpf4jnsgd1na2vs0mg"},{"bike_id":"b8a785f7-fe23-4c1f-8a9b-62bbbd08b152","system_id":"levelo_inurba_marseille","lat":43.30933,"lon":5.4017,"is_reserved":false,"is_disabled":false,"rental_uris":{"android":"levelo://app?vid=b8a785f7-fe23-4c1f-8a9b-62bbbd08b152","ios":"levelo://app?vid=b8a785f7-fe23-4c1f-8a9b-62bbbd08b152"},"vehicle_type_id":"4","last_reported":1745057381,"current_range_meters":9200,"station_id":"ce4bgvp2rcd13ifvqct0","pricing_plan_id":"cebpf4jnsgd1na2vs0mg"},{"bike_id":"12b394c6-fd59-4eb1-9ee1-01ad07d9f662","system_id":"levelo_inurba_marseille","lat":43.30374,"lon":5.42494,"is_reserved":false,"is_disabled":false,"rental_uris":{"android":"levelo://app?vid=12b394c6-fd59-4eb1-9ee1-01ad07d9f662","ios":"levelo://app?vid=12b394c6-fd59-4eb1-9ee1-01ad07d9f662"},"vehicle_type_id":"4","last_reported":1745057381,"current_range_meters":9200,"station_id":"ce4bhoh2rcd13ifvqh6g","pricing_plan_id":"cebpf4jnsgd1na2vs0mg"},{"bike_id":"a0ddb0a5-f7f0-4281-aa27-9e82747cc573","system_id":"levelo_inurba_marseille","lat":43.33754,"lon":5.37491,"is_reserved":false,"is_disabled":false,"rental_uris":{"android":"levelo://app?vid=a0ddb0a5-f7f0-4281-aa27-9e82747cc573","ios":"levelo://app?vid=a0ddb0a5-f7f0-4281-aa27-9e82747cc573"},"vehicle_type_id":"4","last_reported":1745057381,"current_range_meters":9200,"station_id":"","pricing_plan_id":"cebpf4jnsgd1na2vs0mg"},{"bike_id":"da54d534-cdfc-4dbf-9f0d-6cfc2a37323d","system_id":"levelo_inurba_marseille","lat":43.2333,"lon":5.36147,"is_reserved":false,"is_disabled":false,"rental_uris":{"android":"levelo://app?vid=da54d534-cdfc-4dbf-9f0d-6cfc2a37323d","ios":"levelo://app?vid=da54d534-cdfc-4dbf-9f0d-6cfc2a37323d"},"vehicle_type_id":"4","last_reported":1745057381,"current_range_meters":9200,"station_id":"","pricing_plan_id":"cebpf4jnsgd1na2vs0mg"},{"bike_id":"d688fe6e-ff34-41b9-9635-1a1d6493c092","system_id":"levelo_inurba_marseille","lat":43.30149,"lon":5.38074,"is_reserved":false,"is_disabled":false,"rental_uris":{"android":"levelo://app?vid=d688fe6e-ff34-41b9-9635-1a1d6493c092","ios":"levelo://app?vid=d688fe6e-ff34-41b9-9635-1a1d6493c092"},"vehicle_type_id":"4","last_reported":1745057381,"current_range_meters":9600,"station_id":"ce4bgjp2rcd13ifvqbh0","pricing_plan_id":"cebpf4jnsgd1na2vs0mg"},{"bike_id":"ac110555-ec26-4f4d-a8ad-407e9b9aebe3","system_id":"levelo_inurba_marseille","lat":43.29016,"lon":5.35613,"is_reserved":false,"is_disabled":false,"rental_uris":{"android":"levelo://app?vid=ac110555-ec26-4f4d-a8ad-407e9b9aebe3","ios":"levelo://app?vid=ac110555-ec26-4f4d-a8ad-407e9b9aebe3"},"vehicle_type_id":"4","last_reported":1745057381,"current_range_meters":9600,"station_id":"ce4bhb92rcd13ifvqen0","pricing_plan_id":"cebpf4jnsgd1na2vs0mg"},{"bike_id":"e8bf6d51-a7a8-414f-bc90-e7496445c12b","system_id":"levelo_inurba_marseille","lat":43.26026,"lon":5.37554,"is_reserved":false,"is_disabled":false,"rental_uris":{"android":"levelo://app?vid=e8bf6d51-a7a8-414f-bc90-e7496445c12b","ios":"levelo://app?vid=e8bf6d51-a7a8-414f-bc90-e7496445c12b"},"vehicle_type_id":"4","last_reported":1745057381,"current_range_meters":9200,"station_id":"ce4bhgh2rcd13ifvqfa0","pricing_plan_id":"cebpf4jnsgd1na2vs0mg"},{"bike_id":"68342d9f-f0b6-47e7-b690-b27078e67a77","system_id":"levelo_inurba_marseille","lat":43.2417,"lon":5.36394,"is_reserved":false,"is_disabled":false,"rental_uris":{"android":"levelo://app?vid=68342d9f-f0b6-47e7-b690-b27078e67a77","ios":"levelo://app?vid=68342d9f-f0b6-47e7-b690-b27078e67a77"},"vehicle_type_id":"4","last_reported":1745057381,"current_range_meters":10000,"station_id":"cpo36qri1sfpv3e86is0","pricing_plan_id":"cebpf4jnsgd1na2vs0mg"},{"bike_id":"b0278fa3-bc38-4fae-88c8-334895c93f13","system_id":"levelo_inurba_marseille","lat":43.29276,"lon":5.36857,"is_reserved":false,"is_disabled":false,"rental_uris":{"android":"levelo://app?vid=b0278fa3-bc38-4fae-88c8-334895c93f13","ios":"levelo://app?vid=b0278fa3-bc38-4fae-88c8-334895c93f13"},"vehicle_type_id":"4","last_reported":1745057381,"current_range_meters":10000,"station_id":"ce4bhbp2rcd13ifvqesg","pricing_plan_id":"cebpf4jnsgd1na2vs0mg"},{"bike_id":"47c696d1-7cbf-43d7-8f70-c92630149d32","system_id":"levelo_inurba_marseille","lat":43.30119,"lon":5.39855,"is_reserved":false,"is_disabled":false,"rental_uris":{"android":"levelo://app?vid=47c696d1-7cbf-43d7-8f70-c92630149d32","ios":"levelo://app?vid=47c696d1-7cbf-43d7-8f70-c92630149d32"},"vehicle_type_id":"4","last_reported":1745057381,"current_range_meters":10000,"station_id":"ce4bh0h2rcd13ifvqd40","pricing_plan_id":"cebpf4jnsgd1na2vs0mg"},{"bike_id":"ef871c8e-2013-4622-a683-0ab17a74d870","system_id":"levelo_inurba_marseille","lat":43.22914,"lon":5.35353,"is_reserved":false,"is_disabled":false,"rental_uris":{"android":"levelo://app?vid=ef871c8e-2013-4622-a683-0ab17a74d870","ios":"levelo://app?vid=ef871c8e-2013-4622-a683-0ab17a74d870"},"vehicle_type_id":"4","last_reported":1745057381,"current_range_meters":10000,"station_id":"","pricing_plan_id":"cebpf4jnsgd1na2vs0mg"},{"bike_id":"5e9a26c6-0cf1-474f-bbd5-951cc357f555","system_id":"levelo_inurba_marseille","lat":43.29797,"lon":5.4041,"is_reserved":false,"is_disabled":false,"rental_uris":{"android":"levelo://app?vid=5e9a26c6-0cf1-474f-bbd5-951cc357f555","ios":"levelo://app?vid=5e9a26c6-0cf1-474f-bbd5-951cc357f555"},"vehicle_type_id":"4","last_reported":1745057381,"current_range_meters":10000,"station_id":"ce4bh112rcd13ifvqd90","pricing_plan_id":"cebpf4jnsgd1na2vs0mg"},{"bike_id":"d3de1c91-4e17-4c1c-8d5b-e7e025892cae","system_id":"levelo_inurba_marseille","lat":43.30252,"lon":5.40084,"is_reserved":false,"is_disabled":false,"rental_uris":{"android":"levelo://app?vid=d3de1c91-4e17-4c1c-8d5b-e7e025892cae","ios":"levelo://app?vid=d3de1c91-4e17-4c1c-8d5b-e7e025892cae"},"vehicle_type_id":"4","last_reported":1745057381,"current_range_meters":9600,"station_id":"ce4bgvh2rcd13ifvqcs0","pricing_plan_id":"cebpf4jnsgd1na2vs0mg"},{"bike_id":"6cd98a68-dfc0-4aef-a25d-03e1f7826476","system_id":"levelo_inurba_marseille","lat":43.23675,"lon":5.37763,"is_reserved":false,"is_disabled":false,"rental_uris":{"android":"levelo://app?vid=6cd98a68-dfc0-4aef-a25d-03e1f7826476","ios":"levelo://app?vid=6cd98a68-dfc0-4aef-a25d-03e1f7826476"},"vehicle_type_id":"4","last_reported":1745057381,"current_range_meters":10800,"station_id":"","pricing_plan_id":"cebpf4jnsgd1na2vs0mg"},{"bike_id":"c0807efb-f8fd-46fd-a74f-eebc434e0254","system_id":"levelo_inurba_marseille","lat":43.296234,"lon":5.377156,"is_reserved":false,"is_disabled":false,"rental_uris":{"android":"levelo://app?vid=c0807efb-f8fd-46fd-a74f-eebc434e0254","ios":"levelo://app?vid=c0807efb-f8fd-46fd-a74f-eebc434e0254"},"vehicle_type_id":"4","last_reported":1745057381,"current_range_meters":12800,"station_id":"ce4bgi92rcd13ifvqb90","pricing_plan_id":"cebpf4jnsgd1na2vs0mg"},{"bike_id":"1eaca8f5-0017-418a-9bfc-52185bf67513","system_id":"levelo_inurba_marseille","lat":43.33726,"lon":5.39198,"is_reserved":false,"is_disabled":false,"rental_uris":{"android":"levelo://app?vid=1eaca8f5-0017-418a-9bfc-52185bf67513","ios":"levelo://app?vid=1eaca8f5-0017-418a-9bfc-52185bf67513"},"vehicle_type_id":"4","last_reported":1745057381,"current_range_meters":10800,"station_id":"ce4bhr92rcd13ifvqhsg","pricing_plan_id":"cebpf4jnsgd1na2vs0mg"},{"bike_id":"de08492d-ffa5-4976-a30b-573408cffcfb","system_id":"levelo_inurba_marseille","lat":43.26217,"lon":5.3743,"is_reserved":false,"is_disabled":false,"rental_uris":{"android":"levelo://app?vid=de08492d-ffa5-4976-a30b-573408cffcfb","ios":"levelo://app?vid=de08492d-ffa5-4976-a30b-573408cffcfb"},"vehicle_type_id":"4","last_reported":1745057381,"current_range_meters":10800,"station_id":"ce4bhgp2rcd13ifvqfc0","pricing_plan_id":"cebpf4jnsgd1na2vs0mg"},{"bike_id":"7eb8853e-3665-40f5-8308-1299f0674652","system_id":"levelo_inurba_marseille","lat":43.3038,"lon":5.42497,"is_reserved":false,"is_disabled":false,"rental_uris":{"android":"levelo://app?vid=7eb8853e-3665-40f5-8308-1299f0674652","ios":"levelo://app?vid=7eb8853e-3665-40f5-8308-1299f0674652"},"vehicle_type_id":"4","last_reported":1745057381,"current_range_meters":10800,"station_id":"ce4bhoh2rcd13ifvqh6g","pricing_plan_id":"cebpf4jnsgd1na2vs0mg"},{"bike_id":"186380b9-3dab-457b-b648-71d123fa0368","system_id":"levelo_inurba_marseille","lat":43.25105,"lon":5.40326,"is_reserved":false,"is_disabled":true,"rental_uris":{"android":"levelo://app?vid=186380b9-3dab-457b-b648-71d123fa0368","ios":"levelo://app?vid=186380b9-3dab-457b-b648-71d123fa0368"},"vehicle_type_id":"4","last_reported":1745057381,"current_range_meters":10800,"station_id":"ce4bhlh2rcd13ifvqgig","pricing_plan_id":"cebpf4jnsgd1na2vs0mg"},{"bike_id":"110c4abb-ffb8-4fd0-ba35-0e68e73379e5","system_id":"levelo_inurba_marseille","lat":43.22904,"lon":5.3541,"is_reserved":false,"is_disabled":false,"rental_uris":{"android":"levelo://app?vid=110c4abb-ffb8-4fd0-ba35-0e68e73379e5","ios":"levelo://app?vid=110c4abb-ffb8-4fd0-ba35-0e68e73379e5"},"vehicle_type_id":"4","last_reported":1745057381,"current_range_meters":10800,"station_id":"cpo3532slgdg3j2ikp40","pricing_plan_id":"cebpf4jnsgd1na2vs0mg"},{"bike_id":"5716c002-332a-487f-aef6-4c3759cf1425","system_id":"levelo_inurba_marseille","lat":43.22787,"lon":5.35049,"is_reserved":false,"is_disabled":false,"rental_uris":{"android":"levelo://app?vid=5716c002-332a-487f-aef6-4c3759cf1425","ios":"levelo://app?vid=5716c002-332a-487f-aef6-4c3759cf1425"},"vehicle_type_id":"4","last_reported":1745057381,"current_range_meters":11200,"station_id":"","pricing_plan_id":"cebpf4jnsgd1na2vs0mg"},{"bike_id":"bd252512-7aef-49a5-b319-c1c41d41e1eb","system_id":"levelo_inurba_marseille","lat":43.27491,"lon":5.42461,"is_reserved":false,"is_disabled":false,"rental_uris":{"android":"levelo://app?vid=bd252512-7aef-49a5-b319-c1c41d41e1eb","ios":"levelo://app?vid=bd252512-7aef-49a5-b319-c1c41d41e1eb"},"vehicle_type_id":"4","last_reported":1745057381,"current_range_meters":11200,"station_id":"ce4bhn92rcd13ifvqgrg","pricing_plan_id":"cebpf4jnsgd1na2vs0mg"},{"bike_id":"a70ede09-fd23-44d2-99d0-fc70e8413977","system_id":"levelo_inurba_marseille","lat":43.26564,"lon":5.39012,"is_reserved":false,"is_disabled":false,"rental_uris":{"android":"levelo://app?vid=a70ede09-fd23-44d2-99d0-fc70e8413977","ios":"levelo://app?vid=a70ede09-fd23-44d2-99d0-fc70e8413977"},"vehicle_type_id":"4","last_reported":1745057381,"current_range_meters":14400,"station_id":"ce4bhe12rcd13ifvqf30","pricing_plan_id":"cebpf4jnsgd1na2vs0mg"},{"bike_id":"f85891f7-4710-451a-a8fe-0d512186e64a","system_id":"levelo_inurba_marseille","lat":43.28432,"lon":5.39195,"is_reserved":false,"is_disabled":false,"rental_uris":{"android":"levelo://app?vid=f85891f7-4710-451a-a8fe-0d512186e64a","ios":"levelo://app?vid=f85891f7-4710-451a-a8fe-0d512186e64a"},"vehicle_type_id":"4","last_reported":1745057381,"current_range_meters":11600,"station_id":"ce4bhoh2rcd13ifvqh5g","pricing_plan_id":"cebpf4jnsgd1na2vs0mg"},{"bike_id":"40b8da9a-962a-4cfd-9c79-c6121ec122f0","system_id":"levelo_inurba_marseille","lat":43.28668,"lon":5.38657,"is_reserved":false,"is_disabled":true,"rental_uris":{"android":"levelo://app?vid=40b8da9a-962a-4cfd-9c79-c6121ec122f0","ios":"levelo://app?vid=40b8da9a-962a-4cfd-9c79-c6121ec122f0"},"vehicle_type_id":"4","last_reported":1745057381,"current_range_meters":11600,"station_id":"ce4bh492rcd13ifvqdug","pricing_plan_id":"cebpf4jnsgd1na2vs0mg"},{"bike_id":"15272bd3-686d-4f89-b7cb-d76e72753cce","system_id":"levelo_inurba_marseille","lat":43.21745,"lon":5.346,"is_reserved":false,"is_disabled":true,"rental_uris":{"android":"levelo://app?vid=15272bd3-686d-4f89-b7cb-d76e72753cce","ios":"levelo://app?vid=15272bd3-686d-4f89-b7cb-d76e72753cce"},"vehicle_type_id":"4","last_reported":1745057381,"current_range_meters":11600,"station_id":"","pricing_plan_id":"cebpf4jnsgd1na2vs0mg"},{"bike_id":"32adbfef-9330-405b-8916-6d8ff3cd3a7e","system_id":"levelo_inurba_marseille","lat":43.21194,"lon":5.35075,"is_reserved":false,"is_disabled":false,"rental_uris":{"android":"levelo://app?vid=32adbfef-9330-405b-8916-6d8ff3cd3a7e","ios":"levelo://app?vid=32adbfef-9330-405b-8916-6d8ff3cd3a7e"},"vehicle_type_id":"4","last_reported":1745057381,"current_range_meters":11600,"station_id":"st_cvj6sg6p6f1abm77japg","pricing_plan_id":"cebpf4jnsgd1na2vs0mg"},{"bike_id":"48125d32-6e8e-41b3-874c-14873b3cc7af","system_id":"levelo_inurba_marseille","lat":43.28152,"lon":5.42583,"is_reserved":false,"is_disabled":false,"rental_uris":{"android":"levelo://app?vid=48125d32-6e8e-41b3-874c-14873b3cc7af","ios":"levelo://app?vid=48125d32-6e8e-41b3-874c-14873b3cc7af"},"vehicle_type_id":"4","last_reported":1745057381,"current_range_meters":12000,"station_id":"","pricing_plan_id":"cebpf4jnsgd1na2vs0mg"},{"bike_id":"70dfde1d-2685-45f3-826f-f4c7de4ad886","system_id":"levelo_inurba_marseille","lat":43.30548,"lon":5.36553,"is_reserved":false,"is_disabled":false,"rental_uris":{"android":"levelo://app?vid=70dfde1d-2685-45f3-826f-f4c7de4ad886","ios":"levelo://app?vid=70dfde1d-2685-45f3-826f-f4c7de4ad886"},"vehicle_type_id":"4","last_reported":1745057381,"current_range_meters":11600,"station_id":"ce4bgs12rcd13ifvqcag","pricing_plan_id":"cebpf4jnsgd1na2vs0mg"},{"bike_id":"9a4de9c3-0e59-40ed-8c90-f66efc4b4aaf","system_id":"levelo_inurba_marseille","lat":43.24683,"lon":5.38146,"is_reserved":false,"is_disabled":false,"rental_uris":{"android":"levelo://app?vid=9a4de9c3-0e59-40ed-8c90-f66efc4b4aaf","ios":"levelo://app?vid=9a4de9c3-0e59-40ed-8c90-f66efc4b4aaf"},"vehicle_type_id":"4","last_reported":1745057381,"current_range_meters":12000,"station_id":"ce4bhih2rcd13ifvqfr0","pricing_plan_id":"cebpf4jnsgd1na2vs0mg"},{"bike_id":"baebd87a-d533-41df-8d1c-1a8e62d3b4e8","system_id":"levelo_inurba_marseille","lat":43.29809,"lon":5.36494,"is_reserved":false,"is_disabled":false,"rental_uris":{"android":"levelo://app?vid=baebd87a-d533-41df-8d1c-1a8e62d3b4e8","ios":"levelo://app?vid=baebd87a-d533-41df-8d1c-1a8e62d3b4e8"},"vehicle_type_id":"4","last_reported":1745057381,"current_range_meters":12000,"station_id":"","pricing_plan_id":"cebpf4jnsgd1na2vs0mg"},{"bike_id":"b7974e0c-2fc7-4c70-b248-039a4c339752","system_id":"levelo_inurba_marseille","lat":43.24164,"lon":5.39754,"is_reserved":false,"is_disabled":false,"rental_uris":{"android":"levelo://app?vid=b7974e0c-2fc7-4c70-b248-039a4c339752","ios":"levelo://app?vid=b7974e0c-2fc7-4c70-b248-039a4c339752"},"vehicle_type_id":"4","last_reported":1745057381,"current_range_meters":12000,"station_id":"ce4bhn12rcd13ifvqgpg","pricing_plan_id":"cebpf4jnsgd1na2vs0mg"},{"bike_id":"9f3f0d84-8198-44ad-9cd7-fd02fe50c247","system_id":"levelo_inurba_marseille","lat":43.26939,"lon":5.38642,"is_reserved":false,"is_disabled":false,"rental_uris":{"android":"levelo://app?vid=9f3f0d84-8198-44ad-9cd7-fd02fe50c247","ios":"levelo://app?vid=9f3f0d84-8198-44ad-9cd7-fd02fe50c247"},"vehicle_type_id":"4","last_reported":1745057381,"current_range_meters":12000,"station_id":"ce4bhh92rcd13ifvqfh0","pricing_plan_id":"cebpf4jnsgd1na2vs0mg"},{"bike_id":"0123463b-9cf8-4795-8d65-796701dcef42","system_id":"levelo_inurba_marseille","lat":43.24651,"lon":5.388934,"is_reserved":false,"is_disabled":false,"rental_uris":{"android":"levelo://app?vid=0123463b-9cf8-4795-8d65-796701dcef42","ios":"levelo://app?vid=0123463b-9cf8-4795-8d65-796701dcef42"},"vehicle_type_id":"4","last_reported":1745057381,"current_range_meters":12000,"station_id":"ce4bhg12rcd13ifvqf60","pricing_plan_id":"cebpf4jnsgd1na2vs0mg"},{"bike_id":"271c8c79-7ca6-4367-80fb-8a0efc84181c","system_id":"levelo_inurba_marseille","lat":43.23188,"lon":5.35565,"is_reserved":false,"is_disabled":false,"rental_uris":{"android":"levelo://app?vid=271c8c79-7ca6-4367-80fb-8a0efc84181c","ios":"levelo://app?vid=271c8c79-7ca6-4367-80fb-8a0efc84181c"},"vehicle_type_id":"4","last_reported":1745057381,"current_range_meters":11600,"station_id":"ce4bhu92rcd13ifvqi70","pricing_plan_id":"cebpf4jnsgd1na2vs0mg"},{"bike_id":"97e50bb0-9a70-481b-b370-e509345e710a","system_id":"levelo_inurba_marseille","lat":43.28043,"lon":5.36923,"is_reserved":false,"is_disabled":true,"rental_uris":{"android":"levelo://app?vid=97e50bb0-9a70-481b-b370-e509345e710a","ios":"levelo://app?vid=97e50bb0-9a70-481b-b370-e509345e710a"},"vehicle_type_id":"4","last_reported":1745057381,"current_range_meters":12400,"station_id":"ce4bha12rcd13ifvqef0","pricing_plan_id":"cebpf4jnsgd1na2vs0mg"},{"bike_id":"cf41f844-1b9e-445c-b3d7-62c0a3f36ee1","system_id":"levelo_inurba_marseille","lat":43.268873,"lon":5.369558,"is_reserved":false,"is_disabled":false,"rental_uris":{"android":"levelo://app?vid=cf41f844-1b9e-445c-b3d7-62c0a3f36ee1","ios":"levelo://app?vid=cf41f844-1b9e-445c-b3d7-62c0a3f36ee1"},"vehicle_type_id":"4","last_reported":1745057381,"current_range_meters":12400,"station_id":"ce4bgph2rcd13ifvqc2g","pricing_plan_id":"cebpf4jnsgd1na2vs0mg"},{"bike_id":"00c2f4d7-da07-489d-8b56-536cf2a498a3","system_id":"levelo_inurba_marseille","lat":43.24659,"lon":5.38167,"is_reserved":false,"is_disabled":false,"rental_uris":{"android":"levelo://app?vid=00c2f4d7-da07-489d-8b56-536cf2a498a3","ios":"levelo://app?vid=00c2f4d7-da07-489d-8b56-536cf2a498a3"},"vehicle_type_id":"4","last_reported":1745057381,"current_range_meters":12400,"station_id":"ce4bhih2rcd13ifvqfr0","pricing_plan_id":"cebpf4jnsgd1na2vs0mg"},{"bike_id":"1e980333-bf1a-4dbb-a0eb-17019ebb1698","system_id":"levelo_inurba_marseille","lat":43.289307,"lon":5.366377,"is_reserved":false,"is_disabled":false,"rental_uris":{"android":"levelo://app?vid=1e980333-bf1a-4dbb-a0eb-17019ebb1698","ios":"levelo://app?vid=1e980333-bf1a-4dbb-a0eb-17019ebb1698"},"vehicle_type_id":"4","last_reported":1745057381,"current_range_meters":12000,"station_id":"ce4bgj92rcd13ifvqbd0","pricing_plan_id":"cebpf4jnsgd1na2vs0mg"},{"bike_id":"b851581b-34ac-4f08-89dd-34cb527a8b28","system_id":"levelo_inurba_marseille","lat":43.23182,"lon":5.4,"is_reserved":false,"is_disabled":false,"rental_uris":{"android":"levelo://app?vid=b851581b-34ac-4f08-89dd-34cb527a8b28","ios":"levelo://app?vid=b851581b-34ac-4f08-89dd-34cb527a8b28"},"vehicle_type_id":"4","last_reported":1745057381,"current_range_meters":12400,"station_id":"ce4bhn12rcd13ifvqgqg","pricing_plan_id":"cebpf4jnsgd1na2vs0mg"},{"bike_id":"7f44b622-fe66-4447-98b6-d7912a7c91a6","system_id":"levelo_inurba_marseille","lat":43.252338,"lon":5.394617,"is_reserved":false,"is_disabled":false,"rental_uris":{"android":"levelo://app?vid=7f44b622-fe66-4447-98b6-d7912a7c91a6","ios":"levelo://app?vid=7f44b622-fe66-4447-98b6-d7912a7c91a6"},"vehicle_type_id":"4","last_reported":1745057381,"current_range_meters":12400,"station_id":"ce4bhm12rcd13ifvqgkg","pricing_plan_id":"cebpf4jnsgd1na2vs0mg"},{"bike_id":"39336537-d813-4149-86bb-36548c5af91c","system_id":"levelo_inurba_marseille","lat":43.2978,"lon":5.39341,"is_reserved":false,"is_disabled":false,"rental_uris":{"android":"levelo://app?vid=39336537-d813-4149-86bb-36548c5af91c","ios":"levelo://app?vid=39336537-d813-4149-86bb-36548c5af91c"},"vehicle_type_id":"4","last_reported":1745057381,"current_range_meters":12000,"station_id":"chh1huq6cuj3fo74tm60","pricing_plan_id":"cebpf4jnsgd1na2vs0mg"},{"bike_id":"2e01b58f-c7ff-4cdf-8b9e-68de9b92b9bd","system_id":"levelo_inurba_marseille","lat":43.22929,"lon":5.35371,"is_reserved":false,"is_disabled":false,"rental_uris":{"android":"levelo://app?vid=2e01b58f-c7ff-4cdf-8b9e-68de9b92b9bd","ios":"levelo://app?vid=2e01b58f-c7ff-4cdf-8b9e-68de9b92b9bd"},"vehicle_type_id":"4","last_reported":1745057381,"current_range_meters":12800,"station_id":"cpo3532slgdg3j2ikp40","pricing_plan_id":"cebpf4jnsgd1na2vs0mg"},{"bike_id":"f09d602c-39b9-4216-bde0-22f70bb792ab","system_id":"levelo_inurba_marseille","lat":43.29549,"lon":5.432194,"is_reserved":false,"is_disabled":false,"rental_uris":{"android":"levelo://app?vid=f09d602c-39b9-4216-bde0-22f70bb792ab","ios":"levelo://app?vid=f09d602c-39b9-4216-bde0-22f70bb792ab"},"vehicle_type_id":"4","last_reported":1745057381,"current_range_meters":12800,"station_id":"ce4bhpp2rcd13ifvqhfg","pricing_plan_id":"cebpf4jnsgd1na2vs0mg"},{"bike_id":"b6c3499a-415c-4534-9db3-37550ecba7e2","system_id":"levelo_inurba_marseille","lat":43.24181,"lon":5.36381,"is_reserved":false,"is_disabled":false,"rental_uris":{"android":"levelo://app?vid=b6c3499a-415c-4534-9db3-37550ecba7e2","ios":"levelo://app?vid=b6c3499a-415c-4534-9db3-37550ecba7e2"},"vehicle_type_id":"4","last_reported":1745057381,"current_range_meters":12800,"station_id":"cpo36qri1sfpv3e86is0","pricing_plan_id":"cebpf4jnsgd1na2vs0mg"},{"bike_id":"baac8bb7-ce29-4bbe-9939-8696988644dc","system_id":"levelo_inurba_marseille","lat":43.29932,"lon":5.36558,"is_reserved":false,"is_disabled":false,"rental_uris":{"android":"levelo://app?vid=baac8bb7-ce29-4bbe-9939-8696988644dc","ios":"levelo://app?vid=baac8bb7-ce29-4bbe-9939-8696988644dc"},"vehicle_type_id":"4","last_reported":1745057381,"current_range_meters":12800,"station_id":"ce4bgm92rcd13ifvqbr0","pricing_plan_id":"cebpf4jnsgd1na2vs0mg"},{"bike_id":"adfa74fd-6bed-4e89-aecd-c4124b72487a","system_id":"levelo_inurba_marseille","lat":43.3301,"lon":5.39029,"is_reserved":false,"is_disabled":false,"rental_uris":{"android":"levelo://app?vid=adfa74fd-6bed-4e89-aecd-c4124b72487a","ios":"levelo://app?vid=adfa74fd-6bed-4e89-aecd-c4124b72487a"},"vehicle_type_id":"4","last_reported":1745057381,"current_range_meters":12400,"station_id":"ce4bhr92rcd13ifvqhrg","pricing_plan_id":"cebpf4jnsgd1na2vs0mg"},{"bike_id":"56352ad9-530b-4aee-879d-b560c4f43bf5","system_id":"levelo_inurba_marseille","lat":43.25489,"lon":5.37649,"is_reserved":false,"is_disabled":false,"rental_uris":{"android":"levelo://app?vid=56352ad9-530b-4aee-879d-b560c4f43bf5","ios":"levelo://app?vid=56352ad9-530b-4aee-879d-b560c4f43bf5"},"vehicle_type_id":"4","last_reported":1745057381,"current_range_meters":12800,"station_id":"ce4bhh12rcd13ifvqff0","pricing_plan_id":"cebpf4jnsgd1na2vs0mg"},{"bike_id":"ce27d1c0-1a26-4b20-919b-84e9558e9dd0","system_id":"levelo_inurba_marseille","lat":43.28153,"lon":5.42641,"is_reserved":false,"is_disabled":false,"rental_uris":{"android":"levelo://app?vid=ce27d1c0-1a26-4b20-919b-84e9558e9dd0","ios":"levelo://app?vid=ce27d1c0-1a26-4b20-919b-84e9558e9dd0"},"vehicle_type_id":"4","last_reported":1745057381,"current_range_meters":13600,"station_id":"ce4bhnh2rcd13ifvqgug","pricing_plan_id":"cebpf4jnsgd1na2vs0mg"},{"bike_id":"a827af81-901c-418e-9cc3-237c30e51e4b","system_id":"levelo_inurba_marseille","lat":43.23959,"lon":5.36639,"is_reserved":false,"is_disabled":false,"rental_uris":{"android":"levelo://app?vid=a827af81-901c-418e-9cc3-237c30e51e4b","ios":"levelo://app?vid=a827af81-901c-418e-9cc3-237c30e51e4b"},"vehicle_type_id":"4","last_reported":1745057381,"current_range_meters":14000,"station_id":"ce4bhi12rcd13ifvqfp0","pricing_plan_id":"cebpf4jnsgd1na2vs0mg"},{"bike_id":"943ef34b-e1b9-4562-acbd-3c929f814794","system_id":"levelo_inurba_marseille","lat":43.296234,"lon":5.377156,"is_reserved":false,"is_disabled":false,"rental_uris":{"android":"levelo://app?vid=943ef34b-e1b9-4562-acbd-3c929f814794","ios":"levelo://app?vid=943ef34b-e1b9-4562-acbd-3c929f814794"},"vehicle_type_id":"4","last_reported":1745057381,"current_range_meters":14000,"station_id":"ce4bgi92rcd13ifvqb90","pricing_plan_id":"cebpf4jnsgd1na2vs0mg"},{"bike_id":"ffc23a55-3c3f-4179-bc94-84e1d4ad80d6","system_id":"levelo_inurba_marseille","lat":43.229315,"lon":5.353778,"is_reserved":false,"is_disabled":false,"rental_uris":{"android":"levelo://app?vid=ffc23a55-3c3f-4179-bc94-84e1d4ad80d6","ios":"levelo://app?vid=ffc23a55-3c3f-4179-bc94-84e1d4ad80d6"},"vehicle_type_id":"4","last_reported":1745057381,"current_range_meters":14000,"station_id":"cpo3532slgdg3j2ikp40","pricing_plan_id":"cebpf4jnsgd1na2vs0mg"},{"bike_id":"ccddef61-fb31-4158-b7c5-73c66153ea07","system_id":"levelo_inurba_marseille","lat":43.30546,"lon":5.36551,"is_reserved":false,"is_disabled":false,"rental_uris":{"android":"levelo://app?vid=ccddef61-fb31-4158-b7c5-73c66153ea07","ios":"levelo://app?vid=ccddef61-fb31-4158-b7c5-73c66153ea07"},"vehicle_type_id":"4","last_reported":1745057381,"current_range_meters":14000,"station_id":"ce4bgs12rcd13ifvqcag","pricing_plan_id":"cebpf4jnsgd1na2vs0mg"},{"bike_id":"6ce30d4d-eae8-43fc-b53a-8d11ad58739b","system_id":"levelo_inurba_marseille","lat":43.26056,"lon":5.39386,"is_reserved":false,"is_disabled":false,"rental_uris":{"android":"levelo://app?vid=6ce30d4d-eae8-43fc-b53a-8d11ad58739b","ios":"levelo://app?vid=6ce30d4d-eae8-43fc-b53a-8d11ad58739b"},"vehicle_type_id":"4","last_reported":1745057381,"current_range_meters":14400,"station_id":"ce4bhh92rcd13ifvqfj0","pricing_plan_id":"cebpf4jnsgd1na2vs0mg"},{"bike_id":"e77fb144-9114-4d4e-8c0c-7607ec3e910b","system_id":"levelo_inurba_marseille","lat":43.2679,"lon":5.39415,"is_reserved":false,"is_disabled":false,"rental_uris":{"android":"levelo://app?vid=e77fb144-9114-4d4e-8c0c-7607ec3e910b","ios":"levelo://app?vid=e77fb144-9114-4d4e-8c0c-7607ec3e910b"},"vehicle_type_id":"4","last_reported":1745057381,"current_range_meters":14400,"station_id":"ce4bhh12rcd13ifvqfg0","pricing_plan_id":"cebpf4jnsgd1na2vs0mg"},{"bike_id":"4e6892ef-dbe3-43e4-bc69-b2da5d802c90","system_id":"levelo_inurba_marseille","lat":43.27381,"lon":5.36251,"is_reserved":false,"is_disabled":true,"rental_uris":{"android":"levelo://app?vid=4e6892ef-dbe3-43e4-bc69-b2da5d802c90","ios":"levelo://app?vid=4e6892ef-dbe3-43e4-bc69-b2da5d802c90"},"vehicle_type_id":"4","last_reported":1745057381,"current_range_meters":14800,"station_id":"ce4bhbh2rcd13ifvqeo0","pricing_plan_id":"cebpf4jnsgd1na2vs0mg"},{"bike_id":"24213b37-b766-4d9c-a174-f6bf34920497","system_id":"levelo_inurba_marseille","lat":43.28469,"lon":5.384178,"is_reserved":false,"is_disabled":false,"rental_uris":{"android":"levelo://app?vid=24213b37-b766-4d9c-a174-f6bf34920497","ios":"levelo://app?vid=24213b37-b766-4d9c-a174-f6bf34920497"},"vehicle_type_id":"4","last_reported":1745057381,"current_range_meters":14800,"station_id":"ce4bh512rcd13ifvqe3g","pricing_plan_id":"cebpf4jnsgd1na2vs0mg"},{"bike_id":"e9d81045-e1ac-44d6-bc13-fa0862c81052","system_id":"levelo_inurba_marseille","lat":43.295719,"lon":5.375061,"is_reserved":false,"is_disabled":true,"rental_uris":{"android":"levelo://app?vid=e9d81045-e1ac-44d6-bc13-fa0862c81052","ios":"levelo://app?vid=e9d81045-e1ac-44d6-bc13-fa0862c81052"},"vehicle_type_id":"4","last_reported":1745057381,"current_range_meters":14800,"station_id":"","pricing_plan_id":"cebpf4jnsgd1na2vs0mg"},{"bike_id":"6affe129-897f-4d56-81b1-155cca0b618c","system_id":"levelo_inurba_marseille","lat":43.24182,"lon":5.39706,"is_reserved":false,"is_disabled":false,"rental_uris":{"android":"levelo://app?vid=6affe129-897f-4d56-81b1-155cca0b618c","ios":"levelo://app?vid=6affe129-897f-4d56-81b1-155cca0b618c"},"vehicle_type_id":"4","last_reported":1745057381,"current_range_meters":15200,"station_id":"ce4bhn12rcd13ifvqgpg","pricing_plan_id":"cebpf4jnsgd1na2vs0mg"},{"bike_id":"9f45b2bf-53d1-4e39-9a64-fb391bdbd395","system_id":"levelo_inurba_marseille","lat":43.33737,"lon":5.39173,"is_reserved":false,"is_disabled":false,"rental_uris":{"android":"levelo://app?vid=9f45b2bf-53d1-4e39-9a64-fb391bdbd395","ios":"levelo://app?vid=9f45b2bf-53d1-4e39-9a64-fb391bdbd395"},"vehicle_type_id":"4","last_reported":1745057381,"current_range_meters":15200,"station_id":"ce4bhr92rcd13ifvqhsg","pricing_plan_id":"cebpf4jnsgd1na2vs0mg"},{"bike_id":"d05b7cc4-f88b-4d02-ae6c-c344f22c0e5c","system_id":"levelo_inurba_marseille","lat":43.2979,"lon":5.36505,"is_reserved":false,"is_disabled":false,"rental_uris":{"android":"levelo://app?vid=d05b7cc4-f88b-4d02-ae6c-c344f22c0e5c","ios":"levelo://app?vid=d05b7cc4-f88b-4d02-ae6c-c344f22c0e5c"},"vehicle_type_id":"4","last_reported":1745057381,"current_range_meters":16000,"station_id":"","pricing_plan_id":"cebpf4jnsgd1na2vs0mg"},{"bike_id":"8b386a13-d7ce-4797-850b-d66b405de4c3","system_id":"levelo_inurba_marseille","lat":43.29324,"lon":5.37043,"is_reserved":false,"is_disabled":false,"rental_uris":{"android":"levelo://app?vid=8b386a13-d7ce-4797-850b-d66b405de4c3","ios":"levelo://app?vid=8b386a13-d7ce-4797-850b-d66b405de4c3"},"vehicle_type_id":"4","last_reported":1745057381,"current_range_meters":16000,"station_id":"","pricing_plan_id":"cebpf4jnsgd1na2vs0mg"},{"bike_id":"14e8cf7a-fe80-4fbd-996d-7643d7d1bfd2","system_id":"levelo_inurba_marseille","lat":43.275635,"lon":5.3842,"is_reserved":false,"is_disabled":false,"rental_uris":{"android":"levelo://app?vid=14e8cf7a-fe80-4fbd-996d-7643d7d1bfd2","ios":"levelo://app?vid=14e8cf7a-fe80-4fbd-996d-7643d7d1bfd2"},"vehicle_type_id":"4","last_reported":1745057381,"current_range_meters":16000,"station_id":"ce4bhh92rcd13ifvqfi0","pricing_plan_id":"cebpf4jnsgd1na2vs0mg"},{"bike_id":"1fad1949-da2d-4b93-9386-de1f3dc78d1f","system_id":"levelo_inurba_marseille","lat":43.30627,"lon":5.39331,"is_reserved":false,"is_disabled":true,"rental_uris":{"android":"levelo://app?vid=1fad1949-da2d-4b93-9386-de1f3dc78d1f","ios":"levelo://app?vid=1fad1949-da2d-4b93-9386-de1f3dc78d1f"},"vehicle_type_id":"4","last_reported":1745057381,"current_range_meters":16000,"station_id":"ce4bh0p2rcd13ifvqd80","pricing_plan_id":"cebpf4jnsgd1na2vs0mg"},{"bike_id":"e30f5a9f-782b-499c-88f2-87387c8e3410","system_id":"levelo_inurba_marseille","lat":43.26191,"lon":5.37443,"is_reserved":false,"is_disabled":false,"rental_uris":{"android":"levelo://app?vid=e30f5a9f-782b-499c-88f2-87387c8e3410","ios":"levelo://app?vid=e30f5a9f-782b-499c-88f2-87387c8e3410"},"vehicle_type_id":"4","last_reported":1745057381,"current_range_meters":16000,"station_id":"ce4bhgp2rcd13ifvqfc0","pricing_plan_id":"cebpf4jnsgd1na2vs0mg"},{"bike_id":"1c46e1ef-ecc2-40e9-bb84-3560d46edbc0","system_id":"levelo_inurba_marseille","lat":43.22925,"lon":5.35379,"is_reserved":false,"is_disabled":false,"rental_uris":{"android":"levelo://app?vid=1c46e1ef-ecc2-40e9-bb84-3560d46edbc0","ios":"levelo://app?vid=1c46e1ef-ecc2-40e9-bb84-3560d46edbc0"},"vehicle_type_id":"4","last_reported":1745057381,"current_range_meters":16000,"station_id":"cpo3532slgdg3j2ikp40","pricing_plan_id":"cebpf4jnsgd1na2vs0mg"},{"bike_id":"13b31f8f-095e-4302-ac35-4cfd47f60cb0","system_id":"levelo_inurba_marseille","lat":43.29865,"lon":5.38907,"is_reserved":false,"is_disabled":true,"rental_uris":{"android":"levelo://app?vid=13b31f8f-095e-4302-ac35-4cfd47f60cb0","ios":"levelo://app?vid=13b31f8f-095e-4302-ac35-4cfd47f60cb0"},"vehicle_type_id":"4","last_reported":1745057381,"current_range_meters":16000,"station_id":"ce4bh392rcd13ifvqdl0","pricing_plan_id":"cebpf4jnsgd1na2vs0mg"},{"bike_id":"c00bd5aa-603b-48d4-b8ed-490d21cb9549","system_id":"levelo_inurba_marseille","lat":43.31066,"lon":5.38348,"is_reserved":false,"is_disabled":false,"rental_uris":{"android":"levelo://app?vid=c00bd5aa-603b-48d4-b8ed-490d21cb9549","ios":"levelo://app?vid=c00bd5aa-603b-48d4-b8ed-490d21cb9549"},"vehicle_type_id":"4","last_reported":1745057381,"current_range_meters":16400,"station_id":"ce4bgv92rcd13ifvqcr0","pricing_plan_id":"cebpf4jnsgd1na2vs0mg"},{"bike_id":"ad0f61cb-4281-44df-a888-b51940b2dec6","system_id":"levelo_inurba_marseille","lat":43.28456,"lon":5.35888,"is_reserved":false,"is_disabled":false,"rental_uris":{"android":"levelo://app?vid=ad0f61cb-4281-44df-a888-b51940b2dec6","ios":"levelo://app?vid=ad0f61cb-4281-44df-a888-b51940b2dec6"},"vehicle_type_id":"4","last_reported":1745057381,"current_range_meters":16000,"station_id":"ce4bhah2rcd13ifvqei0","pricing_plan_id":"cebpf4jnsgd1na2vs0mg"},{"bike_id":"15572984-94dd-404c-b34b-0eba775da91a","system_id":"levelo_inurba_marseille","lat":43.24999,"lon":5.38939,"is_reserved":false,"is_disabled":false,"rental_uris":{"android":"levelo://app?vid=15572984-94dd-404c-b34b-0eba775da91a","ios":"levelo://app?vid=15572984-94dd-404c-b34b-0eba775da91a"},"vehicle_type_id":"4","last_reported":1745057381,"current_range_meters":16400,"station_id":"ce4bhgp2rcd13ifvqfd0","pricing_plan_id":"cebpf4jnsgd1na2vs0mg"},{"bike_id":"80890cc4-208e-47c1-8925-f22a101722a9","system_id":"levelo_inurba_marseille","lat":43.295778,"lon":5.367386,"is_reserved":false,"is_disabled":false,"rental_uris":{"android":"levelo://app?vid=80890cc4-208e-47c1-8925-f22a101722a9","ios":"levelo://app?vid=80890cc4-208e-47c1-8925-f22a101722a9"},"vehicle_type_id":"4","last_reported":1745057381,"current_range_meters":16000,"station_id":"ce4bgph2rcd13ifvqc2g","pricing_plan_id":"cebpf4jnsgd1na2vs0mg"},{"bike_id":"44c2515b-ff63-4bac-a0f9-f4fef656ac10","system_id":"levelo_inurba_marseille","lat":43.284149,"lon":5.349972,"is_reserved":false,"is_disabled":false,"rental_uris":{"android":"levelo://app?vid=44c2515b-ff63-4bac-a0f9-f4fef656ac10","ios":"levelo://app?vid=44c2515b-ff63-4bac-a0f9-f4fef656ac10"},"vehicle_type_id":"4","last_reported":1745057381,"current_range_meters":16400,"station_id":"","pricing_plan_id":"cebpf4jnsgd1na2vs0mg"},{"bike_id":"b075c115-a3f9-4f40-83ed-cbc1e8e5f84e","system_id":"levelo_inurba_marseille","lat":43.3054,"lon":5.36709,"is_reserved":false,"is_disabled":true,"rental_uris":{"android":"levelo://app?vid=b075c115-a3f9-4f40-83ed-cbc1e8e5f84e","ios":"levelo://app?vid=b075c115-a3f9-4f40-83ed-cbc1e8e5f84e"},"vehicle_type_id":"4","last_reported":1745057381,"current_range_meters":16400,"station_id":"ce4bgrp2rcd13ifvqc9g","pricing_plan_id":"cebpf4jnsgd1na2vs0mg"},{"bike_id":"00879c1d-a962-4133-ba5d-8de0f524e6f5","system_id":"levelo_inurba_marseille","lat":43.27497,"lon":5.4246,"is_reserved":false,"is_disabled":false,"rental_uris":{"android":"levelo://app?vid=00879c1d-a962-4133-ba5d-8de0f524e6f5","ios":"levelo://app?vid=00879c1d-a962-4133-ba5d-8de0f524e6f5"},"vehicle_type_id":"4","last_reported":1745057381,"current_range_meters":16400,"station_id":"ce4bhn92rcd13ifvqgrg","pricing_plan_id":"cebpf4jnsgd1na2vs0mg"},{"bike_id":"0fabe441-18a7-4ca5-b3d6-02a723f7cf99","system_id":"levelo_inurba_marseille","lat":43.22922,"lon":5.3539,"is_reserved":false,"is_disabled":false,"rental_uris":{"android":"levelo://app?vid=0fabe441-18a7-4ca5-b3d6-02a723f7cf99","ios":"levelo://app?vid=0fabe441-18a7-4ca5-b3d6-02a723f7cf99"},"vehicle_type_id":"4","last_reported":1745057381,"current_range_meters":16400,"station_id":"cpo3532slgdg3j2ikp40","pricing_plan_id":"cebpf4jnsgd1na2vs0mg"},{"bike_id":"b77962ae-d8d5-47c4-be32-dad5f13623f7","system_id":"levelo_inurba_marseille","lat":43.28459,"lon":5.35879,"is_reserved":false,"is_disabled":false,"rental_uris":{"android":"levelo://app?vid=b77962ae-d8d5-47c4-be32-dad5f13623f7","ios":"levelo://app?vid=b77962ae-d8d5-47c4-be32-dad5f13623f7"},"vehicle_type_id":"4","last_reported":1745057381,"current_range_meters":16800,"station_id":"ce4bhah2rcd13ifvqei0","pricing_plan_id":"cebpf4jnsgd1na2vs0mg"},{"bike_id":"bb4170fb-2aee-44c9-a8e2-041417bf6973","system_id":"levelo_inurba_marseille","lat":43.240722,"lon":5.37759,"is_reserved":false,"is_disabled":false,"rental_uris":{"android":"levelo://app?vid=bb4170fb-2aee-44c9-a8e2-041417bf6973","ios":"levelo://app?vid=bb4170fb-2aee-44c9-a8e2-041417bf6973"},"vehicle_type_id":"4","last_reported":1745057381,"current_range_meters":16800,"station_id":"ce4bhnp2rcd13ifvqgvg","pricing_plan_id":"cebpf4jnsgd1na2vs0mg"},{"bike_id":"055674ed-fe9f-443d-89bf-8c15112807cf","system_id":"levelo_inurba_marseille","lat":43.29292,"lon":5.3745,"is_reserved":false,"is_disabled":false,"rental_uris":{"android":"levelo://app?vid=055674ed-fe9f-443d-89bf-8c15112807cf","ios":"levelo://app?vid=055674ed-fe9f-443d-89bf-8c15112807cf"},"vehicle_type_id":"4","last_reported":1745057381,"current_range_meters":16800,"station_id":"ce4bgi12rcd13ifvqb70","pricing_plan_id":"cebpf4jnsgd1na2vs0mg"},{"bike_id":"ef64a4ae-4be0-477f-9461-2cf957c44728","system_id":"levelo_inurba_marseille","lat":43.28141,"lon":5.42646,"is_reserved":false,"is_disabled":false,"rental_uris":{"android":"levelo://app?vid=ef64a4ae-4be0-477f-9461-2cf957c44728","ios":"levelo://app?vid=ef64a4ae-4be0-477f-9461-2cf957c44728"},"vehicle_type_id":"4","last_reported":1745057381,"current_range_meters":16800,"station_id":"ce4bhnh2rcd13ifvqgug","pricing_plan_id":"cebpf4jnsgd1na2vs0mg"},{"bike_id":"5e3e0297-b63f-450a-906c-ff22ae562f1e","system_id":"levelo_inurba_marseille","lat":43.28471,"lon":5.38423,"is_reserved":false,"is_disabled":false,"rental_uris":{"android":"levelo://app?vid=5e3e0297-b63f-450a-906c-ff22ae562f1e","ios":"levelo://app?vid=5e3e0297-b63f-450a-906c-ff22ae562f1e"},"vehicle_type_id":"4","last_reported":1745057381,"current_range_meters":16800,"station_id":"ce4bh512rcd13ifvqe3g","pricing_plan_id":"cebpf4jnsgd1na2vs0mg"},{"bike_id":"d160fafc-57c6-42ad-9f49-5dcc1c10a362","system_id":"levelo_inurba_marseille","lat":43.29297,"lon":5.3744,"is_reserved":false,"is_disabled":false,"rental_uris":{"android":"levelo://app?vid=d160fafc-57c6-42ad-9f49-5dcc1c10a362","ios":"levelo://app?vid=d160fafc-57c6-42ad-9f49-5dcc1c10a362"},"vehicle_type_id":"4","last_reported":1745057381,"current_range_meters":16800,"station_id":"ce4bgi12rcd13ifvqb70","pricing_plan_id":"cebpf4jnsgd1na2vs0mg"},{"bike_id":"5f5a2218-9aea-45ba-b6b0-5cc309feb693","system_id":"levelo_inurba_marseille","lat":43.284578,"lon":5.35883,"is_reserved":false,"is_disabled":false,"rental_uris":{"android":"levelo://app?vid=5f5a2218-9aea-45ba-b6b0-5cc309feb693","ios":"levelo://app?vid=5f5a2218-9aea-45ba-b6b0-5cc309feb693"},"vehicle_type_id":"4","last_reported":1745057381,"current_range_meters":17200,"station_id":"","pricing_plan_id":"cebpf4jnsgd1na2vs0mg"},{"bike_id":"de4a1fab-b4ed-4a5e-8907-5790b8555841","system_id":"levelo_inurba_marseille","lat":43.31483,"lon":5.37312,"is_reserved":false,"is_disabled":false,"rental_uris":{"android":"levelo://app?vid=de4a1fab-b4ed-4a5e-8907-5790b8555841","ios":"levelo://app?vid=de4a1fab-b4ed-4a5e-8907-5790b8555841"},"vehicle_type_id":"4","last_reported":1745057381,"current_range_meters":17200,"station_id":"ce4bgt12rcd13ifvqcd0","pricing_plan_id":"cebpf4jnsgd1na2vs0mg"},{"bike_id":"7243dfe2-9c86-4d8e-9814-d6146fe0006e","system_id":"levelo_inurba_marseille","lat":43.28857,"lon":5.3584,"is_reserved":false,"is_disabled":false,"rental_uris":{"android":"levelo://app?vid=7243dfe2-9c86-4d8e-9814-d6146fe0006e","ios":"levelo://app?vid=7243dfe2-9c86-4d8e-9814-d6146fe0006e"},"vehicle_type_id":"4","last_reported":1745057381,"current_range_meters":17200,"station_id":"ce4bhb12rcd13ifvqem0","pricing_plan_id":"cebpf4jnsgd1na2vs0mg"},{"bike_id":"a5d5a898-74b6-4240-8b9f-5a2fbd6883bf","system_id":"levelo_inurba_marseille","lat":43.30453,"lon":5.37906,"is_reserved":false,"is_disabled":false,"rental_uris":{"android":"levelo://app?vid=a5d5a898-74b6-4240-8b9f-5a2fbd6883bf","ios":"levelo://app?vid=a5d5a898-74b6-4240-8b9f-5a2fbd6883bf"},"vehicle_type_id":"4","last_reported":1745057381,"current_range_meters":17200,"station_id":"ce4bgup2rcd13ifvqcn0","pricing_plan_id":"cebpf4jnsgd1na2vs0mg"},{"bike_id":"67a0abc2-45b2-4e20-b320-51fa3b21831e","system_id":"levelo_inurba_marseille","lat":43.29262,"lon":5.37617,"is_reserved":false,"is_disabled":false,"rental_uris":{"android":"levelo://app?vid=67a0abc2-45b2-4e20-b320-51fa3b21831e","ios":"levelo://app?vid=67a0abc2-45b2-4e20-b320-51fa3b21831e"},"vehicle_type_id":"4","last_reported":1745057381,"current_range_meters":17600,"station_id":"ce4bgi12rcd13ifvqb80","pricing_plan_id":"cebpf4jnsgd1na2vs0mg"},{"bike_id":"85fbf004-ab33-49ae-991d-8c0ab9442c35","system_id":"levelo_inurba_marseille","lat":43.2835,"lon":5.38106,"is_reserved":false,"is_disabled":false,"rental_uris":{"android":"levelo://app?vid=85fbf004-ab33-49ae-991d-8c0ab9442c35","ios":"levelo://app?vid=85fbf004-ab33-49ae-991d-8c0ab9442c35"},"vehicle_type_id":"4","last_reported":1745057381,"current_range_meters":17600,"station_id":"ce4bh412rcd13ifvqdr0","pricing_plan_id":"cebpf4jnsgd1na2vs0mg"},{"bike_id":"1862e19c-bd64-4aff-b9f1-0272dbf85fa5","system_id":"levelo_inurba_marseille","lat":43.22928,"lon":5.35375,"is_reserved":false,"is_disabled":false,"rental_uris":{"android":"levelo://app?vid=1862e19c-bd64-4aff-b9f1-0272dbf85fa5","ios":"levelo://app?vid=1862e19c-bd64-4aff-b9f1-0272dbf85fa5"},"vehicle_type_id":"4","last_reported":1745057381,"current_range_meters":18000,"station_id":"cpo3532slgdg3j2ikp40","pricing_plan_id":"cebpf4jnsgd1na2vs0mg"},{"bike_id":"875b0084-abc7-4d64-babd-2313592a3041","system_id":"levelo_inurba_marseille","lat":43.30557,"lon":5.3652,"is_reserved":false,"is_disabled":false,"rental_uris":{"android":"levelo://app?vid=875b0084-abc7-4d64-babd-2313592a3041","ios":"levelo://app?vid=875b0084-abc7-4d64-babd-2313592a3041"},"vehicle_type_id":"4","last_reported":1745057381,"current_range_meters":18000,"station_id":"ce4bgs12rcd13ifvqcag","pricing_plan_id":"cebpf4jnsgd1na2vs0mg"},{"bike_id":"d59240e5-dcba-4f3f-a309-62eb37a38543","system_id":"levelo_inurba_marseille","lat":43.30474,"lon":5.37913,"is_reserved":false,"is_disabled":false,"rental_uris":{"android":"levelo://app?vid=d59240e5-dcba-4f3f-a309-62eb37a38543","ios":"levelo://app?vid=d59240e5-dcba-4f3f-a309-62eb37a38543"},"vehicle_type_id":"4","last_reported":1745057381,"current_range_meters":18000,"station_id":"ce4bgup2rcd13ifvqcn0","pricing_plan_id":"cebpf4jnsgd1na2vs0mg"},{"bike_id":"d4c6d0c3-0202-41a5-a694-44290daeb0e7","system_id":"levelo_inurba_marseille","lat":43.29526,"lon":5.37506,"is_reserved":false,"is_disabled":false,"rental_uris":{"android":"levelo://app?vid=d4c6d0c3-0202-41a5-a694-44290daeb0e7","ios":"levelo://app?vid=d4c6d0c3-0202-41a5-a694-44290daeb0e7"},"vehicle_type_id":"4","last_reported":1745057381,"current_range_meters":18000,"station_id":"ce4bgkp2rcd13ifvqbmg","pricing_plan_id":"cebpf4jnsgd1na2vs0mg"},{"bike_id":"bb89e80b-d4ed-4ba1-9ea8-de0a8b8d90df","system_id":"levelo_inurba_marseille","lat":43.31359,"lon":5.39699,"is_reserved":false,"is_disabled":false,"rental_uris":{"android":"levelo://app?vid=bb89e80b-d4ed-4ba1-9ea8-de0a8b8d90df","ios":"levelo://app?vid=bb89e80b-d4ed-4ba1-9ea8-de0a8b8d90df"},"vehicle_type_id":"4","last_reported":1745057381,"current_range_meters":18000,"station_id":"ce4bgvp2rcd13ifvqcu0","pricing_plan_id":"cebpf4jnsgd1na2vs0mg"},{"bike_id":"65e1488e-5480-4b90-bd26-ada33787465d","system_id":"levelo_inurba_marseille","lat":43.29262,"lon":5.37591,"is_reserved":false,"is_disabled":false,"rental_uris":{"android":"levelo://app?vid=65e1488e-5480-4b90-bd26-ada33787465d","ios":"levelo://app?vid=65e1488e-5480-4b90-bd26-ada33787465d"},"vehicle_type_id":"4","last_reported":1745057381,"current_range_meters":18000,"station_id":"ce4bgi12rcd13ifvqb80","pricing_plan_id":"cebpf4jnsgd1na2vs0mg"},{"bike_id":"b71bb904-421e-4c4e-b38c-fa08e6c93681","system_id":"levelo_inurba_marseille","lat":43.30919,"lon":5.40144,"is_reserved":false,"is_disabled":false,"rental_uris":{"android":"levelo://app?vid=b71bb904-421e-4c4e-b38c-fa08e6c93681","ios":"levelo://app?vid=b71bb904-421e-4c4e-b38c-fa08e6c93681"},"vehicle_type_id":"4","last_reported":1745057381,"current_range_meters":18800,"station_id":"ce4bgvp2rcd13ifvqct0","pricing_plan_id":"cebpf4jnsgd1na2vs0mg"},{"bike_id":"bc13e988-5248-4aa1-83de-ba0e22e6793d","system_id":"levelo_inurba_marseille","lat":43.27519,"lon":5.42427,"is_reserved":false,"is_disabled":false,"rental_uris":{"android":"levelo://app?vid=bc13e988-5248-4aa1-83de-ba0e22e6793d","ios":"levelo://app?vid=bc13e988-5248-4aa1-83de-ba0e22e6793d"},"vehicle_type_id":"4","last_reported":1745057381,"current_range_meters":18800,"station_id":"ce4bhn92rcd13ifvqgrg","pricing_plan_id":"cebpf4jnsgd1na2vs0mg"},{"bike_id":"c453a64f-f1fa-490d-94e3-b81fe40bafd0","system_id":"levelo_inurba_marseille","lat":43.29971,"lon":5.37179,"is_reserved":false,"is_disabled":false,"rental_uris":{"android":"levelo://app?vid=c453a64f-f1fa-490d-94e3-b81fe40bafd0","ios":"levelo://app?vid=c453a64f-f1fa-490d-94e3-b81fe40bafd0"},"vehicle_type_id":"4","last_reported":1745057381,"current_range_meters":18800,"station_id":"ce4bgr92rcd13ifvqc7g","pricing_plan_id":"cebpf4jnsgd1na2vs0mg"},{"bike_id":"d35d0f85-f00c-4a65-b550-2fb004a0ef99","system_id":"levelo_inurba_marseille","lat":43.23967,"lon":5.36632,"is_reserved":false,"is_disabled":false,"rental_uris":{"android":"levelo://app?vid=d35d0f85-f00c-4a65-b550-2fb004a0ef99","ios":"levelo://app?vid=d35d0f85-f00c-4a65-b550-2fb004a0ef99"},"vehicle_type_id":"4","last_reported":1745057381,"current_range_meters":18800,"station_id":"ce4bhi12rcd13ifvqfp0","pricing_plan_id":"cebpf4jnsgd1na2vs0mg"},{"bike_id":"6df9e046-a78b-4e6c-ac6d-63fccb8d3d8f","system_id":"levelo_inurba_marseille","lat":43.31487,"lon":5.37297,"is_reserved":false,"is_disabled":false,"rental_uris":{"android":"levelo://app?vid=6df9e046-a78b-4e6c-ac6d-63fccb8d3d8f","ios":"levelo://app?vid=6df9e046-a78b-4e6c-ac6d-63fccb8d3d8f"},"vehicle_type_id":"4","last_reported":1745057381,"current_range_meters":18800,"station_id":"ce4bgt12rcd13ifvqcd0","pricing_plan_id":"cebpf4jnsgd1na2vs0mg"},{"bike_id":"6019390b-7088-4c04-b80b-2acf1cb29041","system_id":"levelo_inurba_marseille","lat":43.2939,"lon":5.41235,"is_reserved":false,"is_disabled":false,"rental_uris":{"android":"levelo://app?vid=6019390b-7088-4c04-b80b-2acf1cb29041","ios":"levelo://app?vid=6019390b-7088-4c04-b80b-2acf1cb29041"},"vehicle_type_id":"4","last_reported":1745057381,"current_range_meters":19200,"station_id":"","pricing_plan_id":"cebpf4jnsgd1na2vs0mg"},{"bike_id":"fb7c1f87-9539-4417-a7de-0a5fa2828636","system_id":"levelo_inurba_marseille","lat":43.29641,"lon":5.40584,"is_reserved":false,"is_disabled":false,"rental_uris":{"android":"levelo://app?vid=fb7c1f87-9539-4417-a7de-0a5fa2828636","ios":"levelo://app?vid=fb7c1f87-9539-4417-a7de-0a5fa2828636"},"vehicle_type_id":"4","last_reported":1745057381,"current_range_meters":18800,"station_id":"ce4bh0h2rcd13ifvqd60","pricing_plan_id":"cebpf4jnsgd1na2vs0mg"},{"bike_id":"b8445599-e057-4159-bf7c-189081a210a4","system_id":"levelo_inurba_marseille","lat":43.29011,"lon":5.35619,"is_reserved":false,"is_disabled":false,"rental_uris":{"android":"levelo://app?vid=b8445599-e057-4159-bf7c-189081a210a4","ios":"levelo://app?vid=b8445599-e057-4159-bf7c-189081a210a4"},"vehicle_type_id":"4","last_reported":1745057381,"current_range_meters":19200,"station_id":"ce4bhb92rcd13ifvqen0","pricing_plan_id":"cebpf4jnsgd1na2vs0mg"},{"bike_id":"0ed64c53-3fe0-4b4c-9f5f-bb86a13a3b6c","system_id":"levelo_inurba_marseille","lat":43.29006,"lon":5.35612,"is_reserved":false,"is_disabled":false,"rental_uris":{"android":"levelo://app?vid=0ed64c53-3fe0-4b4c-9f5f-bb86a13a3b6c","ios":"levelo://app?vid=0ed64c53-3fe0-4b4c-9f5f-bb86a13a3b6c"},"vehicle_type_id":"4","last_reported":1745057381,"current_range_meters":19200,"station_id":"ce4bhb92rcd13ifvqen0","pricing_plan_id":"cebpf4jnsgd1na2vs0mg"},{"bike_id":"fe0d906c-18a4-47fa-96e1-6c88b9eb5396","system_id":"levelo_inurba_marseille","lat":43.2417,"lon":5.39736,"is_reserved":false,"is_disabled":false,"rental_uris":{"android":"levelo://app?vid=fe0d906c-18a4-47fa-96e1-6c88b9eb5396","ios":"levelo://app?vid=fe0d906c-18a4-47fa-96e1-6c88b9eb5396"},"vehicle_type_id":"4","last_reported":1745057381,"current_range_meters":19200,"station_id":"ce4bhn12rcd13ifvqgpg","pricing_plan_id":"cebpf4jnsgd1na2vs0mg"},{"bike_id":"6d111923-1faf-467f-bd85-9c3c5b29ead6","system_id":"levelo_inurba_marseille","lat":43.31122,"lon":5.37768,"is_reserved":false,"is_disabled":false,"rental_uris":{"android":"levelo://app?vid=6d111923-1faf-467f-bd85-9c3c5b29ead6","ios":"levelo://app?vid=6d111923-1faf-467f-bd85-9c3c5b29ead6"},"vehicle_type_id":"4","last_reported":1745057381,"current_range_meters":19200,"station_id":"ce4bgt92rcd13ifvqcg0","pricing_plan_id":"cebpf4jnsgd1na2vs0mg"},{"bike_id":"e9bccc84-0036-4a7b-bf64-e4b0e43e9059","system_id":"levelo_inurba_marseille","lat":43.26952,"lon":5.38637,"is_reserved":false,"is_disabled":false,"rental_uris":{"android":"levelo://app?vid=e9bccc84-0036-4a7b-bf64-e4b0e43e9059","ios":"levelo://app?vid=e9bccc84-0036-4a7b-bf64-e4b0e43e9059"},"vehicle_type_id":"4","last_reported":1745057381,"current_range_meters":19600,"station_id":"ce4bhh92rcd13ifvqfh0","pricing_plan_id":"cebpf4jnsgd1na2vs0mg"},{"bike_id":"f96cb10a-8f6b-4e67-9a27-9fd170933c3f","system_id":"levelo_inurba_marseille","lat":43.27813,"lon":5.40712,"is_reserved":false,"is_disabled":false,"rental_uris":{"android":"levelo://app?vid=f96cb10a-8f6b-4e67-9a27-9fd170933c3f","ios":"levelo://app?vid=f96cb10a-8f6b-4e67-9a27-9fd170933c3f"},"vehicle_type_id":"4","last_reported":1745057381,"current_range_meters":19600,"station_id":"ce4bhnh2rcd13ifvqgtg","pricing_plan_id":"cebpf4jnsgd1na2vs0mg"},{"bike_id":"cccf4278-0b97-430d-8f0f-af7920d18c80","system_id":"levelo_inurba_marseille","lat":43.296173,"lon":5.377082,"is_reserved":false,"is_disabled":false,"rental_uris":{"android":"levelo://app?vid=cccf4278-0b97-430d-8f0f-af7920d18c80","ios":"levelo://app?vid=cccf4278-0b97-430d-8f0f-af7920d18c80"},"vehicle_type_id":"4","last_reported":1745057381,"current_range_meters":19600,"station_id":"ce4bgi92rcd13ifvqb90","pricing_plan_id":"cebpf4jnsgd1na2vs0mg"},{"bike_id":"f8442109-c8ef-48a4-b568-31abb28ea87c","system_id":"levelo_inurba_marseille","lat":43.23188,"lon":5.39989,"is_reserved":false,"is_disabled":false,"rental_uris":{"android":"levelo://app?vid=f8442109-c8ef-48a4-b568-31abb28ea87c","ios":"levelo://app?vid=f8442109-c8ef-48a4-b568-31abb28ea87c"},"vehicle_type_id":"4","last_reported":1745057381,"current_range_meters":19600,"station_id":"ce4bhn12rcd13ifvqgqg","pricing_plan_id":"cebpf4jnsgd1na2vs0mg"},{"bike_id":"6445ef1c-40a4-4e1d-825c-4ed63c6f4bea","system_id":"levelo_inurba_marseille","lat":43.30466,"lon":5.37915,"is_reserved":false,"is_disabled":false,"rental_uris":{"android":"levelo://app?vid=6445ef1c-40a4-4e1d-825c-4ed63c6f4bea","ios":"levelo://app?vid=6445ef1c-40a4-4e1d-825c-4ed63c6f4bea"},"vehicle_type_id":"4","last_reported":1745057381,"current_range_meters":20000,"station_id":"ce4bgup2rcd13ifvqcn0","pricing_plan_id":"cebpf4jnsgd1na2vs0mg"},{"bike_id":"e7329eb3-ece5-4d43-aa99-e091dae0b118","system_id":"levelo_inurba_marseille","lat":43.296234,"lon":5.377139,"is_reserved":false,"is_disabled":false,"rental_uris":{"android":"levelo://app?vid=e7329eb3-ece5-4d43-aa99-e091dae0b118","ios":"levelo://app?vid=e7329eb3-ece5-4d43-aa99-e091dae0b118"},"vehicle_type_id":"4","last_reported":1745057381,"current_range_meters":20000,"station_id":"ce4bgi92rcd13ifvqb90","pricing_plan_id":"cebpf4jnsgd1na2vs0mg"},{"bike_id":"d5bf3e51-83b4-419b-b784-58ab0f4a9ad2","system_id":"levelo_inurba_marseille","lat":43.22924,"lon":5.35394,"is_reserved":false,"is_disabled":false,"rental_uris":{"android":"levelo://app?vid=d5bf3e51-83b4-419b-b784-58ab0f4a9ad2","ios":"levelo://app?vid=d5bf3e51-83b4-419b-b784-58ab0f4a9ad2"},"vehicle_type_id":"4","last_reported":1745057381,"current_range_meters":20000,"station_id":"cpo3532slgdg3j2ikp40","pricing_plan_id":"cebpf4jnsgd1na2vs0mg"},{"bike_id":"f7027e6a-48d2-4cae-b50c-97b01f670552","system_id":"levelo_inurba_marseille","lat":43.23965,"lon":5.36637,"is_reserved":false,"is_disabled":false,"rental_uris":{"android":"levelo://app?vid=f7027e6a-48d2-4cae-b50c-97b01f670552","ios":"levelo://app?vid=f7027e6a-48d2-4cae-b50c-97b01f670552"},"vehicle_type_id":"4","last_reported":1745057381,"current_range_meters":20000,"station_id":"ce4bhi12rcd13ifvqfp0","pricing_plan_id":"cebpf4jnsgd1na2vs0mg"},{"bike_id":"7d28bf23-bfe0-45d0-a2d7-4f2ce3bcb384","system_id":"levelo_inurba_marseille","lat":43.28273,"lon":5.35057,"is_reserved":false,"is_disabled":false,"rental_uris":{"android":"levelo://app?vid=7d28bf23-bfe0-45d0-a2d7-4f2ce3bcb384","ios":"levelo://app?vid=7d28bf23-bfe0-45d0-a2d7-4f2ce3bcb384"},"vehicle_type_id":"4","last_reported":1745057381,"current_range_meters":20000,"station_id":"ce4bhbp2rcd13ifvqerg","pricing_plan_id":"cebpf4jnsgd1na2vs0mg"},{"bike_id":"9a194189-2018-47fd-862a-d4b4f4b6c38d","system_id":"levelo_inurba_marseille","lat":43.31274,"lon":5.40165,"is_reserved":false,"is_disabled":false,"rental_uris":{"android":"levelo://app?vid=9a194189-2018-47fd-862a-d4b4f4b6c38d","ios":"levelo://app?vid=9a194189-2018-47fd-862a-d4b4f4b6c38d"},"vehicle_type_id":"4","last_reported":1745057381,"current_range_meters":19600,"station_id":"ce4bh092rcd13ifvqd30","pricing_plan_id":"cebpf4jnsgd1na2vs0mg"},{"bike_id":"d53e964c-f934-484c-a259-3e8f23cdd819","system_id":"levelo_inurba_marseille","lat":43.33723,"lon":5.39174,"is_reserved":false,"is_disabled":false,"rental_uris":{"android":"levelo://app?vid=d53e964c-f934-484c-a259-3e8f23cdd819","ios":"levelo://app?vid=d53e964c-f934-484c-a259-3e8f23cdd819"},"vehicle_type_id":"4","last_reported":1745057381,"current_range_meters":20400,"station_id":"ce4bhr92rcd13ifvqhsg","pricing_plan_id":"cebpf4jnsgd1na2vs0mg"},{"bike_id":"9ab40f21-3028-4abd-bfd1-d5184d5bcea3","system_id":"levelo_inurba_marseille","lat":43.27319,"lon":5.39101,"is_reserved":false,"is_disabled":false,"rental_uris":{"android":"levelo://app?vid=9ab40f21-3028-4abd-bfd1-d5184d5bcea3","ios":"levelo://app?vid=9ab40f21-3028-4abd-bfd1-d5184d5bcea3"},"vehicle_type_id":"4","last_reported":1745057381,"current_range_meters":20400,"station_id":"ce4bhgp2rcd13ifvqfe0","pricing_plan_id":"cebpf4jnsgd1na2vs0mg"},{"bike_id":"b8808bd5-b66c-42b1-8122-616501d1d082","system_id":"levelo_inurba_marseille","lat":43.21751,"lon":5.34613,"is_reserved":false,"is_disabled":false,"rental_uris":{"android":"levelo://app?vid=b8808bd5-b66c-42b1-8122-616501d1d082","ios":"levelo://app?vid=b8808bd5-b66c-42b1-8122-616501d1d082"},"vehicle_type_id":"4","last_reported":1745057381,"current_range_meters":20400,"station_id":"st_cvj6r9ubvosntc0bgbag","pricing_plan_id":"cebpf4jnsgd1na2vs0mg"},{"bike_id":"12f9b2b6-5c2a-4582-924e-5c3e4aed7165","system_id":"levelo_inurba_marseille","lat":43.28373,"lon":5.38641,"is_reserved":false,"is_disabled":false,"rental_uris":{"android":"levelo://app?vid=12f9b2b6-5c2a-4582-924e-5c3e4aed7165","ios":"levelo://app?vid=12f9b2b6-5c2a-4582-924e-5c3e4aed7165"},"vehicle_type_id":"4","last_reported":1745057381,"current_range_meters":20800,"station_id":"ce4bh492rcd13ifvqdvg","pricing_plan_id":"cebpf4jnsgd1na2vs0mg"},{"bike_id":"11c0a97e-558e-4a3c-bad3-c12d4ffd819e","system_id":"levelo_inurba_marseille","lat":43.27982,"lon":5.38744,"is_reserved":false,"is_disabled":false,"rental_uris":{"android":"levelo://app?vid=11c0a97e-558e-4a3c-bad3-c12d4ffd819e","ios":"levelo://app?vid=11c0a97e-558e-4a3c-bad3-c12d4ffd819e"},"vehicle_type_id":"4","last_reported":1745057381,"current_range_meters":20400,"station_id":"ce4bhg12rcd13ifvqf80","pricing_plan_id":"cebpf4jnsgd1na2vs0mg"},{"bike_id":"d56342d1-42a9-4a0d-8d32-7746fb6ef985","system_id":"levelo_inurba_marseille","lat":43.337444,"lon":5.374475,"is_reserved":false,"is_disabled":false,"rental_uris":{"android":"levelo://app?vid=d56342d1-42a9-4a0d-8d32-7746fb6ef985","ios":"levelo://app?vid=d56342d1-42a9-4a0d-8d32-7746fb6ef985"},"vehicle_type_id":"4","last_reported":1745057381,"current_range_meters":21600,"station_id":"","pricing_plan_id":"cebpf4jnsgd1na2vs0mg"},{"bike_id":"3599ad35-9734-46a7-b704-eec8ea9c7ea1","system_id":"levelo_inurba_marseille","lat":43.315402,"lon":5.380212,"is_reserved":false,"is_disabled":false,"rental_uris":{"android":"levelo://app?vid=3599ad35-9734-46a7-b704-eec8ea9c7ea1","ios":"levelo://app?vid=3599ad35-9734-46a7-b704-eec8ea9c7ea1"},"vehicle_type_id":"4","last_reported":1745057381,"current_range_meters":20800,"station_id":"ce4bhsp2rcd13ifvqi50","pricing_plan_id":"cebpf4jnsgd1na2vs0mg"},{"bike_id":"ec1cd04b-07d5-4062-846a-c49ba6abf213","system_id":"levelo_inurba_marseille","lat":43.31171,"lon":5.38722,"is_reserved":false,"is_disabled":false,"rental_uris":{"android":"levelo://app?vid=ec1cd04b-07d5-4062-846a-c49ba6abf213","ios":"levelo://app?vid=ec1cd04b-07d5-4062-846a-c49ba6abf213"},"vehicle_type_id":"4","last_reported":1745057381,"current_range_meters":21600,"station_id":"ce4bgv12rcd13ifvqcp0","pricing_plan_id":"cebpf4jnsgd1na2vs0mg"},{"bike_id":"f187a741-29ec-4cdb-8bf9-0c04448b7a86","system_id":"levelo_inurba_marseille","lat":43.24177,"lon":5.39742,"is_reserved":false,"is_disabled":false,"rental_uris":{"android":"levelo://app?vid=f187a741-29ec-4cdb-8bf9-0c04448b7a86","ios":"levelo://app?vid=f187a741-29ec-4cdb-8bf9-0c04448b7a86"},"vehicle_type_id":"4","last_reported":1745057381,"current_range_meters":21600,"station_id":"ce4bhn12rcd13ifvqgpg","pricing_plan_id":"cebpf4jnsgd1na2vs0mg"},{"bike_id":"6d10d7a7-6c32-4e1e-8e59-bb1ff89e5fa7","system_id":"levelo_inurba_marseille","lat":43.32351,"lon":5.36732,"is_reserved":false,"is_disabled":false,"rental_uris":{"android":"levelo://app?vid=6d10d7a7-6c32-4e1e-8e59-bb1ff89e5fa7","ios":"levelo://app?vid=6d10d7a7-6c32-4e1e-8e59-bb1ff89e5fa7"},"vehicle_type_id":"4","last_reported":1745057381,"current_range_meters":21600,"station_id":"ce4bhsh2rcd13ifvqi2g","pricing_plan_id":"cebpf4jnsgd1na2vs0mg"},{"bike_id":"210d3669-e710-4cfb-bac4-2059f4fa7eea","system_id":"levelo_inurba_marseille","lat":43.31324,"lon":5.39707,"is_reserved":false,"is_disabled":false,"rental_uris":{"android":"levelo://app?vid=210d3669-e710-4cfb-bac4-2059f4fa7eea","ios":"levelo://app?vid=210d3669-e710-4cfb-bac4-2059f4fa7eea"},"vehicle_type_id":"4","last_reported":1745057381,"current_range_meters":21600,"station_id":"ce4bh2h2rcd13ifvqdh0","pricing_plan_id":"cebpf4jnsgd1na2vs0mg"},{"bike_id":"1a9728eb-6166-439a-b4b7-62916381157c","system_id":"levelo_inurba_marseille","lat":43.25501,"lon":5.37649,"is_reserved":false,"is_disabled":false,"rental_uris":{"android":"levelo://app?vid=1a9728eb-6166-439a-b4b7-62916381157c","ios":"levelo://app?vid=1a9728eb-6166-439a-b4b7-62916381157c"},"vehicle_type_id":"4","last_reported":1745057381,"current_range_meters":22000,"station_id":"ce4bhh12rcd13ifvqff0","pricing_plan_id":"cebpf4jnsgd1na2vs0mg"},{"bike_id":"e46233d8-86b5-4b6c-a79f-094405695e54","system_id":"levelo_inurba_marseille","lat":43.24791,"lon":5.37461,"is_reserved":false,"is_disabled":false,"rental_uris":{"android":"levelo://app?vid=e46233d8-86b5-4b6c-a79f-094405695e54","ios":"levelo://app?vid=e46233d8-86b5-4b6c-a79f-094405695e54"},"vehicle_type_id":"4","last_reported":1745057381,"current_range_meters":22000,"station_id":"ce4bhgh2rcd13ifvqfb0","pricing_plan_id":"cebpf4jnsgd1na2vs0mg"},{"bike_id":"4f008b4d-24b3-4277-8dcb-ba4509e4bc02","system_id":"levelo_inurba_marseille","lat":43.23181,"lon":5.35571,"is_reserved":false,"is_disabled":false,"rental_uris":{"android":"levelo://app?vid=4f008b4d-24b3-4277-8dcb-ba4509e4bc02","ios":"levelo://app?vid=4f008b4d-24b3-4277-8dcb-ba4509e4bc02"},"vehicle_type_id":"4","last_reported":1745057381,"current_range_meters":22000,"station_id":"ce4bhu92rcd13ifvqi70","pricing_plan_id":"cebpf4jnsgd1na2vs0mg"},{"bike_id":"9cd66f20-0974-44a3-a00c-3af08e74ebf2","system_id":"levelo_inurba_marseille","lat":43.26019,"lon":5.41747,"is_reserved":false,"is_disabled":false,"rental_uris":{"android":"levelo://app?vid=9cd66f20-0974-44a3-a00c-3af08e74ebf2","ios":"levelo://app?vid=9cd66f20-0974-44a3-a00c-3af08e74ebf2"},"vehicle_type_id":"4","last_reported":1745057381,"current_range_meters":22000,"station_id":"","pricing_plan_id":"cebpf4jnsgd1na2vs0mg"},{"bike_id":"5b394266-9662-44fd-acf6-846c9b62b159","system_id":"levelo_inurba_marseille","lat":43.29264,"lon":5.37171,"is_reserved":false,"is_disabled":false,"rental_uris":{"android":"levelo://app?vid=5b394266-9662-44fd-acf6-846c9b62b159","ios":"levelo://app?vid=5b394266-9662-44fd-acf6-846c9b62b159"},"vehicle_type_id":"4","last_reported":1745057381,"current_range_meters":22400,"station_id":"ce4bgh92rcd13ifvqb40","pricing_plan_id":"cebpf4jnsgd1na2vs0mg"},{"bike_id":"c6df5751-10e1-4ea4-9b48-5c1ba6f0e49b","system_id":"levelo_inurba_marseille","lat":43.27814,"lon":5.40706,"is_reserved":false,"is_disabled":false,"rental_uris":{"android":"levelo://app?vid=c6df5751-10e1-4ea4-9b48-5c1ba6f0e49b","ios":"levelo://app?vid=c6df5751-10e1-4ea4-9b48-5c1ba6f0e49b"},"vehicle_type_id":"4","last_reported":1745057381,"current_range_meters":22000,"station_id":"ce4bhnh2rcd13ifvqgtg","pricing_plan_id":"cebpf4jnsgd1na2vs0mg"},{"bike_id":"fc9e4a0b-cef4-449a-b7db-636c773d6309","system_id":"levelo_inurba_marseille","lat":43.27396,"lon":5.39782,"is_reserved":false,"is_disabled":false,"rental_uris":{"android":"levelo://app?vid=fc9e4a0b-cef4-449a-b7db-636c773d6309","ios":"levelo://app?vid=fc9e4a0b-cef4-449a-b7db-636c773d6309"},"vehicle_type_id":"4","last_reported":1745057381,"current_range_meters":22400,"station_id":"","pricing_plan_id":"cebpf4jnsgd1na2vs0mg"},{"bike_id":"a74220ce-f5e2-4f81-abca-6eb677950b38","system_id":"levelo_inurba_marseille","lat":43.254878,"lon":5.376448,"is_reserved":false,"is_disabled":false,"rental_uris":{"android":"levelo://app?vid=a74220ce-f5e2-4f81-abca-6eb677950b38","ios":"levelo://app?vid=a74220ce-f5e2-4f81-abca-6eb677950b38"},"vehicle_type_id":"4","last_reported":1745057381,"current_range_meters":22400,"station_id":"ce4bhh12rcd13ifvqff0","pricing_plan_id":"cebpf4jnsgd1na2vs0mg"},{"bike_id":"df371317-8aaf-4ff6-976a-81a4a204b090","system_id":"levelo_inurba_marseille","lat":43.23189,"lon":5.39991,"is_reserved":false,"is_disabled":false,"rental_uris":{"android":"levelo://app?vid=df371317-8aaf-4ff6-976a-81a4a204b090","ios":"levelo://app?vid=df371317-8aaf-4ff6-976a-81a4a204b090"},"vehicle_type_id":"4","last_reported":1745057381,"current_range_meters":22400,"station_id":"ce4bhn12rcd13ifvqgqg","pricing_plan_id":"cebpf4jnsgd1na2vs0mg"},{"bike_id":"6b5ecc2e-2cc9-4c16-b915-27a88a7f5d56","system_id":"levelo_inurba_marseille","lat":43.298401,"lon":5.362665,"is_reserved":false,"is_disabled":false,"rental_uris":{"android":"levelo://app?vid=6b5ecc2e-2cc9-4c16-b915-27a88a7f5d56","ios":"levelo://app?vid=6b5ecc2e-2cc9-4c16-b915-27a88a7f5d56"},"vehicle_type_id":"4","last_reported":1745057381,"current_range_meters":22400,"station_id":"ce4bhb12rcd13ifvqel0","pricing_plan_id":"cebpf4jnsgd1na2vs0mg"},{"bike_id":"5e51e655-1028-482d-9605-a98ceaa82dc4","system_id":"levelo_inurba_marseille","lat":43.256683,"lon":5.38264,"is_reserved":false,"is_disabled":false,"rental_uris":{"android":"levelo://app?vid=5e51e655-1028-482d-9605-a98ceaa82dc4","ios":"levelo://app?vid=5e51e655-1028-482d-9605-a98ceaa82dc4"},"vehicle_type_id":"4","last_reported":1745057381,"current_range_meters":22400,"station_id":"ce4bhjp2rcd13ifvqg90","pricing_plan_id":"cebpf4jnsgd1na2vs0mg"},{"bike_id":"43d16f90-36ad-4f55-8765-f7d472e03959","system_id":"levelo_inurba_marseille","lat":43.323731,"lon":5.367739,"is_reserved":false,"is_disabled":false,"rental_uris":{"android":"levelo://app?vid=43d16f90-36ad-4f55-8765-f7d472e03959","ios":"levelo://app?vid=43d16f90-36ad-4f55-8765-f7d472e03959"},"vehicle_type_id":"4","last_reported":1745057381,"current_range_meters":22400,"station_id":"ce4bhsh2rcd13ifvqi2g","pricing_plan_id":"cebpf4jnsgd1na2vs0mg"},{"bike_id":"1cc1ddea-8ad0-4ab3-b7db-b02e86970f2e","system_id":"levelo_inurba_marseille","lat":43.27618,"lon":5.36104,"is_reserved":false,"is_disabled":false,"rental_uris":{"android":"levelo://app?vid=1cc1ddea-8ad0-4ab3-b7db-b02e86970f2e","ios":"levelo://app?vid=1cc1ddea-8ad0-4ab3-b7db-b02e86970f2e"},"vehicle_type_id":"4","last_reported":1745057381,"current_range_meters":22000,"station_id":"ce4bgj92rcd13ifvqbe0","pricing_plan_id":"cebpf4jnsgd1na2vs0mg"},{"bike_id":"92fb9241-dea4-4aa0-8c09-53518c79aaa5","system_id":"levelo_inurba_marseille","lat":43.301425,"lon":5.380419,"is_reserved":false,"is_disabled":false,"rental_uris":{"android":"levelo://app?vid=92fb9241-dea4-4aa0-8c09-53518c79aaa5","ios":"levelo://app?vid=92fb9241-dea4-4aa0-8c09-53518c79aaa5"},"vehicle_type_id":"4","last_reported":1745057381,"current_range_meters":22800,"station_id":"ce4bgjp2rcd13ifvqbh0","pricing_plan_id":"cebpf4jnsgd1na2vs0mg"},{"bike_id":"fdd2561d-6fe8-477b-a369-67c863d13125","system_id":"levelo_inurba_marseille","lat":43.29645,"lon":5.40581,"is_reserved":false,"is_disabled":true,"rental_uris":{"android":"levelo://app?vid=fdd2561d-6fe8-477b-a369-67c863d13125","ios":"levelo://app?vid=fdd2561d-6fe8-477b-a369-67c863d13125"},"vehicle_type_id":"4","last_reported":1745057381,"current_range_meters":22800,"station_id":"ce4bh0h2rcd13ifvqd60","pricing_plan_id":"cebpf4jnsgd1na2vs0mg"},{"bike_id":"6b53a41d-fefd-43dc-8c52-83c05c0ca2ca","system_id":"levelo_inurba_marseille","lat":43.30252,"lon":5.40081,"is_reserved":false,"is_disabled":false,"rental_uris":{"android":"levelo://app?vid=6b53a41d-fefd-43dc-8c52-83c05c0ca2ca","ios":"levelo://app?vid=6b53a41d-fefd-43dc-8c52-83c05c0ca2ca"},"vehicle_type_id":"4","last_reported":1745057381,"current_range_meters":22800,"station_id":"ce4bgvh2rcd13ifvqcs0","pricing_plan_id":"cebpf4jnsgd1na2vs0mg"},{"bike_id":"6b756a6a-3e2a-4904-8a4d-c16a5babc7ae","system_id":"levelo_inurba_marseille","lat":43.32356,"lon":5.36753,"is_reserved":false,"is_disabled":false,"rental_uris":{"android":"levelo://app?vid=6b756a6a-3e2a-4904-8a4d-c16a5babc7ae","ios":"levelo://app?vid=6b756a6a-3e2a-4904-8a4d-c16a5babc7ae"},"vehicle_type_id":"4","last_reported":1745057381,"current_range_meters":22800,"station_id":"ce4bhsh2rcd13ifvqi2g","pricing_plan_id":"cebpf4jnsgd1na2vs0mg"},{"bike_id":"51bc3827-b153-4b7e-bc38-aa2d18b38c07","system_id":"levelo_inurba_marseille","lat":43.23961,"lon":5.36641,"is_reserved":false,"is_disabled":false,"rental_uris":{"android":"levelo://app?vid=51bc3827-b153-4b7e-bc38-aa2d18b38c07","ios":"levelo://app?vid=51bc3827-b153-4b7e-bc38-aa2d18b38c07"},"vehicle_type_id":"4","last_reported":1745057381,"current_range_meters":22800,"station_id":"ce4bhi12rcd13ifvqfp0","pricing_plan_id":"cebpf4jnsgd1na2vs0mg"},{"bike_id":"c0e0ba24-a93e-4d8f-ae3a-85a5a9197456","system_id":"levelo_inurba_marseille","lat":43.23956,"lon":5.36615,"is_reserved":false,"is_disabled":false,"rental_uris":{"android":"levelo://app?vid=c0e0ba24-a93e-4d8f-ae3a-85a5a9197456","ios":"levelo://app?vid=c0e0ba24-a93e-4d8f-ae3a-85a5a9197456"},"vehicle_type_id":"4","last_reported":1745057381,"current_range_meters":22800,"station_id":"ce4bhi12rcd13ifvqfp0","pricing_plan_id":"cebpf4jnsgd1na2vs0mg"},{"bike_id":"0310127d-46ea-4b4d-b92a-e949c7550d12","system_id":"levelo_inurba_marseille","lat":43.276971,"lon":5.388929,"is_reserved":false,"is_disabled":false,"rental_uris":{"android":"levelo://app?vid=0310127d-46ea-4b4d-b92a-e949c7550d12","ios":"levelo://app?vid=0310127d-46ea-4b4d-b92a-e949c7550d12"},"vehicle_type_id":"4","last_reported":1745057381,"current_range_meters":23200,"station_id":"ce4bhi12rcd13ifvqfo0","pricing_plan_id":"cebpf4jnsgd1na2vs0mg"},{"bike_id":"3e3c8c50-0433-4468-9b5f-71ae2ad7c709","system_id":"levelo_inurba_marseille","lat":43.32354,"lon":5.36762,"is_reserved":false,"is_disabled":false,"rental_uris":{"android":"levelo://app?vid=3e3c8c50-0433-4468-9b5f-71ae2ad7c709","ios":"levelo://app?vid=3e3c8c50-0433-4468-9b5f-71ae2ad7c709"},"vehicle_type_id":"4","last_reported":1745057381,"current_range_meters":23200,"station_id":"ce4bhsh2rcd13ifvqi2g","pricing_plan_id":"cebpf4jnsgd1na2vs0mg"},{"bike_id":"5eeda209-9204-465d-b92a-1fcbd95c6c76","system_id":"levelo_inurba_marseille","lat":43.299153,"lon":5.397181,"is_reserved":false,"is_disabled":false,"rental_uris":{"android":"levelo://app?vid=5eeda209-9204-465d-b92a-1fcbd95c6c76","ios":"levelo://app?vid=5eeda209-9204-465d-b92a-1fcbd95c6c76"},"vehicle_type_id":"4","last_reported":1745057381,"current_range_meters":23200,"station_id":"ce4bh0h2rcd13ifvqd50","pricing_plan_id":"cebpf4jnsgd1na2vs0mg"},{"bike_id":"d2b5b805-c58d-4c6c-906c-c08e2025fad7","system_id":"levelo_inurba_marseille","lat":43.29266,"lon":5.38443,"is_reserved":false,"is_disabled":false,"rental_uris":{"android":"levelo://app?vid=d2b5b805-c58d-4c6c-906c-c08e2025fad7","ios":"levelo://app?vid=d2b5b805-c58d-4c6c-906c-c08e2025fad7"},"vehicle_type_id":"4","last_reported":1745057381,"current_range_meters":23200,"station_id":"ce4bh692rcd13ifvqea0","pricing_plan_id":"cebpf4jnsgd1na2vs0mg"},{"bike_id":"fe390dba-0037-43c2-955d-f345f2fb10d5","system_id":"levelo_inurba_marseille","lat":43.304161,"lon":5.38807,"is_reserved":false,"is_disabled":false,"rental_uris":{"android":"levelo://app?vid=fe390dba-0037-43c2-955d-f345f2fb10d5","ios":"levelo://app?vid=fe390dba-0037-43c2-955d-f345f2fb10d5"},"vehicle_type_id":"4","last_reported":1745057381,"current_range_meters":23200,"station_id":"ce4bgk12rcd13ifvqbi0","pricing_plan_id":"cebpf4jnsgd1na2vs0mg"},{"bike_id":"968881eb-ab60-4ba7-8e6c-d058f19b0e53","system_id":"levelo_inurba_marseille","lat":43.29306,"lon":5.37178,"is_reserved":false,"is_disabled":false,"rental_uris":{"android":"levelo://app?vid=968881eb-ab60-4ba7-8e6c-d058f19b0e53","ios":"levelo://app?vid=968881eb-ab60-4ba7-8e6c-d058f19b0e53"},"vehicle_type_id":"4","last_reported":1745057381,"current_range_meters":23200,"station_id":"ce4bgh92rcd13ifvqb40","pricing_plan_id":"cebpf4jnsgd1na2vs0mg"},{"bike_id":"c8e1be64-08a9-482b-9907-53af9dbc1ade","system_id":"levelo_inurba_marseille","lat":43.2957,"lon":5.37516,"is_reserved":false,"is_disabled":false,"rental_uris":{"android":"levelo://app?vid=c8e1be64-08a9-482b-9907-53af9dbc1ade","ios":"levelo://app?vid=c8e1be64-08a9-482b-9907-53af9dbc1ade"},"vehicle_type_id":"4","last_reported":1745057381,"current_range_meters":24000,"station_id":"ce4bgh92rcd13ifvqb50","pricing_plan_id":"cebpf4jnsgd1na2vs0mg"},{"bike_id":"31135c95-7586-4287-904a-b175916669a9","system_id":"levelo_inurba_marseille","lat":43.29008,"lon":5.35607,"is_reserved":false,"is_disabled":false,"rental_uris":{"android":"levelo://app?vid=31135c95-7586-4287-904a-b175916669a9","ios":"levelo://app?vid=31135c95-7586-4287-904a-b175916669a9"},"vehicle_type_id":"4","last_reported":1745057381,"current_range_meters":24000,"station_id":"ce4bhb92rcd13ifvqen0","pricing_plan_id":"cebpf4jnsgd1na2vs0mg"},{"bike_id":"facc8aa7-ceef-420d-98c4-0d7f9d1f826b","system_id":"levelo_inurba_marseille","lat":43.31484,"lon":5.37284,"is_reserved":false,"is_disabled":false,"rental_uris":{"android":"levelo://app?vid=facc8aa7-ceef-420d-98c4-0d7f9d1f826b","ios":"levelo://app?vid=facc8aa7-ceef-420d-98c4-0d7f9d1f826b"},"vehicle_type_id":"4","last_reported":1745057381,"current_range_meters":24000,"station_id":"ce4bgt12rcd13ifvqcd0","pricing_plan_id":"cebpf4jnsgd1na2vs0mg"},{"bike_id":"2577fe73-67d8-47e7-ab2a-e252f6317e41","system_id":"levelo_inurba_marseille","lat":43.28978,"lon":5.36613,"is_reserved":false,"is_disabled":true,"rental_uris":{"android":"levelo://app?vid=2577fe73-67d8-47e7-ab2a-e252f6317e41","ios":"levelo://app?vid=2577fe73-67d8-47e7-ab2a-e252f6317e41"},"vehicle_type_id":"4","last_reported":1745057381,"current_range_meters":24000,"station_id":"","pricing_plan_id":"cebpf4jnsgd1na2vs0mg"},{"bike_id":"6f523da1-5f60-475c-93df-7a5b709bcac9","system_id":"levelo_inurba_marseille","lat":43.23196,"lon":5.35547,"is_reserved":false,"is_disabled":false,"rental_uris":{"android":"levelo://app?vid=6f523da1-5f60-475c-93df-7a5b709bcac9","ios":"levelo://app?vid=6f523da1-5f60-475c-93df-7a5b709bcac9"},"vehicle_type_id":"4","last_reported":1745057381,"current_range_meters":23200,"station_id":"ce4bhu92rcd13ifvqi70","pricing_plan_id":"cebpf4jnsgd1na2vs0mg"},{"bike_id":"b58e4c07-537d-41e3-a610-78310ec6eb37","system_id":"levelo_inurba_marseille","lat":43.27998,"lon":5.40006,"is_reserved":false,"is_disabled":false,"rental_uris":{"android":"levelo://app?vid=b58e4c07-537d-41e3-a610-78310ec6eb37","ios":"levelo://app?vid=b58e4c07-537d-41e3-a610-78310ec6eb37"},"vehicle_type_id":"4","last_reported":1745057381,"current_range_meters":23200,"station_id":"ce4bho92rcd13ifvqh4g","pricing_plan_id":"cebpf4jnsgd1na2vs0mg"},{"bike_id":"22517ac2-f3bf-4608-aea2-f1d3fb033123","system_id":"levelo_inurba_marseille","lat":43.28606,"lon":5.37069,"is_reserved":false,"is_disabled":false,"rental_uris":{"android":"levelo://app?vid=22517ac2-f3bf-4608-aea2-f1d3fb033123","ios":"levelo://app?vid=22517ac2-f3bf-4608-aea2-f1d3fb033123"},"vehicle_type_id":"4","last_reported":1745057381,"current_range_meters":24000,"station_id":"ce4bht12rcd13ifvqi60","pricing_plan_id":"cebpf4jnsgd1na2vs0mg"},{"bike_id":"3297e594-d196-4dab-96c2-d48963f0518f","system_id":"levelo_inurba_marseille","lat":43.299739,"lon":5.371797,"is_reserved":false,"is_disabled":false,"rental_uris":{"android":"levelo://app?vid=3297e594-d196-4dab-96c2-d48963f0518f","ios":"levelo://app?vid=3297e594-d196-4dab-96c2-d48963f0518f"},"vehicle_type_id":"4","last_reported":1745057381,"current_range_meters":23200,"station_id":"ce4bgrh2rcd13ifvqc8g","pricing_plan_id":"cebpf4jnsgd1na2vs0mg"},{"bike_id":"355bb8a6-c1a5-4665-813f-85a78c530f80","system_id":"levelo_inurba_marseille","lat":43.24388,"lon":5.37061,"is_reserved":false,"is_disabled":false,"rental_uris":{"android":"levelo://app?vid=355bb8a6-c1a5-4665-813f-85a78c530f80","ios":"levelo://app?vid=355bb8a6-c1a5-4665-813f-85a78c530f80"},"vehicle_type_id":"4","last_reported":1745057381,"current_range_meters":23200,"station_id":"ce4bhhh2rcd13ifvqfk0","pricing_plan_id":"cebpf4jnsgd1na2vs0mg"},{"bike_id":"06426a6f-3608-4057-b2dd-7b9d45717656","system_id":"levelo_inurba_marseille","lat":43.2956,"lon":5.37516,"is_reserved":false,"is_disabled":false,"rental_uris":{"android":"levelo://app?vid=06426a6f-3608-4057-b2dd-7b9d45717656","ios":"levelo://app?vid=06426a6f-3608-4057-b2dd-7b9d45717656"},"vehicle_type_id":"4","last_reported":1745057381,"current_range_meters":24400,"station_id":"ce4bgh92rcd13ifvqb50","pricing_plan_id":"cebpf4jnsgd1na2vs0mg"},{"bike_id":"71f15964-435a-4ded-b030-08638d40bee1","system_id":"levelo_inurba_marseille","lat":43.28417,"lon":5.34978,"is_reserved":false,"is_disabled":false,"rental_uris":{"android":"levelo://app?vid=71f15964-435a-4ded-b030-08638d40bee1","ios":"levelo://app?vid=71f15964-435a-4ded-b030-08638d40bee1"},"vehicle_type_id":"4","last_reported":1745057381,"current_range_meters":24400,"station_id":"ce4bhbh2rcd13ifvqepg","pricing_plan_id":"cebpf4jnsgd1na2vs0mg"},{"bike_id":"ea031817-c320-4538-a8cb-24943f962b80","system_id":"levelo_inurba_marseille","lat":43.28422,"lon":5.34972,"is_reserved":false,"is_disabled":false,"rental_uris":{"android":"levelo://app?vid=ea031817-c320-4538-a8cb-24943f962b80","ios":"levelo://app?vid=ea031817-c320-4538-a8cb-24943f962b80"},"vehicle_type_id":"4","last_reported":1745057381,"current_range_meters":24400,"station_id":"ce4bhbh2rcd13ifvqepg","pricing_plan_id":"cebpf4jnsgd1na2vs0mg"},{"bike_id":"859f6026-4cbd-4b9d-8e6e-c5f3d4096101","system_id":"levelo_inurba_marseille","lat":43.24069,"lon":5.37761,"is_reserved":false,"is_disabled":false,"rental_uris":{"android":"levelo://app?vid=859f6026-4cbd-4b9d-8e6e-c5f3d4096101","ios":"levelo://app?vid=859f6026-4cbd-4b9d-8e6e-c5f3d4096101"},"vehicle_type_id":"4","last_reported":1745057381,"current_range_meters":24000,"station_id":"ce4bhnp2rcd13ifvqgvg","pricing_plan_id":"cebpf4jnsgd1na2vs0mg"},{"bike_id":"ee3e4ac7-b79f-4132-b39e-dfed12393c0a","system_id":"levelo_inurba_marseille","lat":43.23201,"lon":5.35544,"is_reserved":false,"is_disabled":false,"rental_uris":{"android":"levelo://app?vid=ee3e4ac7-b79f-4132-b39e-dfed12393c0a","ios":"levelo://app?vid=ee3e4ac7-b79f-4132-b39e-dfed12393c0a"},"vehicle_type_id":"4","last_reported":1745057381,"current_range_meters":24400,"station_id":"ce4bhu92rcd13ifvqi70","pricing_plan_id":"cebpf4jnsgd1na2vs0mg"},{"bike_id":"eea84837-8823-4f33-ad47-d9eba14adecf","system_id":"levelo_inurba_marseille","lat":43.3137,"lon":5.38507,"is_reserved":false,"is_disabled":false,"rental_uris":{"android":"levelo://app?vid=eea84837-8823-4f33-ad47-d9eba14adecf","ios":"levelo://app?vid=eea84837-8823-4f33-ad47-d9eba14adecf"},"vehicle_type_id":"4","last_reported":1745057381,"current_range_meters":24400,"station_id":"ce4bgt92rcd13ifvqcf0","pricing_plan_id":"cebpf4jnsgd1na2vs0mg"},{"bike_id":"91cdda9e-3561-4cb1-b3db-34639c6b7515","system_id":"levelo_inurba_marseille","lat":43.30552,"lon":5.36532,"is_reserved":false,"is_disabled":false,"rental_uris":{"android":"levelo://app?vid=91cdda9e-3561-4cb1-b3db-34639c6b7515","ios":"levelo://app?vid=91cdda9e-3561-4cb1-b3db-34639c6b7515"},"vehicle_type_id":"4","last_reported":1745057381,"current_range_meters":24000,"station_id":"ce4bgs12rcd13ifvqcag","pricing_plan_id":"cebpf4jnsgd1na2vs0mg"},{"bike_id":"6c6705d2-b3f8-45a7-9d0e-259cc8c838c8","system_id":"levelo_inurba_marseille","lat":43.29548,"lon":5.4229,"is_reserved":false,"is_disabled":false,"rental_uris":{"android":"levelo://app?vid=6c6705d2-b3f8-45a7-9d0e-259cc8c838c8","ios":"levelo://app?vid=6c6705d2-b3f8-45a7-9d0e-259cc8c838c8"},"vehicle_type_id":"4","last_reported":1745057381,"current_range_meters":24400,"station_id":"ce4bhph2rcd13ifvqhdg","pricing_plan_id":"cebpf4jnsgd1na2vs0mg"},{"bike_id":"cd7fc3b3-62d8-411c-add9-25dae018bc04","system_id":"levelo_inurba_marseille","lat":43.231841,"lon":5.39991,"is_reserved":false,"is_disabled":false,"rental_uris":{"android":"levelo://app?vid=cd7fc3b3-62d8-411c-add9-25dae018bc04","ios":"levelo://app?vid=cd7fc3b3-62d8-411c-add9-25dae018bc04"},"vehicle_type_id":"4","last_reported":1745057381,"current_range_meters":24400,"station_id":"ce4bhn12rcd13ifvqgqg","pricing_plan_id":"cebpf4jnsgd1na2vs0mg"},{"bike_id":"7497511b-b763-457c-b3c1-f74ae910e8c7","system_id":"levelo_inurba_marseille","lat":43.26195,"lon":5.37926,"is_reserved":false,"is_disabled":false,"rental_uris":{"android":"levelo://app?vid=7497511b-b763-457c-b3c1-f74ae910e8c7","ios":"levelo://app?vid=7497511b-b763-457c-b3c1-f74ae910e8c7"},"vehicle_type_id":"4","last_reported":1745057381,"current_range_meters":24800,"station_id":"ce4bhjp2rcd13ifvqg90","pricing_plan_id":"cebpf4jnsgd1na2vs0mg"},{"bike_id":"90ce21df-5f7c-4551-a99a-0900c11e065d","system_id":"levelo_inurba_marseille","lat":43.28371,"lon":5.41852,"is_reserved":false,"is_disabled":false,"rental_uris":{"android":"levelo://app?vid=90ce21df-5f7c-4551-a99a-0900c11e065d","ios":"levelo://app?vid=90ce21df-5f7c-4551-a99a-0900c11e065d"},"vehicle_type_id":"4","last_reported":1745057381,"current_range_meters":24800,"station_id":"","pricing_plan_id":"cebpf4jnsgd1na2vs0mg"},{"bike_id":"a13ac34c-5100-4b4b-9894-17b507a80f9b","system_id":"levelo_inurba_marseille","lat":43.32337,"lon":5.40623,"is_reserved":false,"is_disabled":false,"rental_uris":{"android":"levelo://app?vid=a13ac34c-5100-4b4b-9894-17b507a80f9b","ios":"levelo://app?vid=a13ac34c-5100-4b4b-9894-17b507a80f9b"},"vehicle_type_id":"4","last_reported":1745057381,"current_range_meters":24800,"station_id":"ce4bhq92rcd13ifvqhjg","pricing_plan_id":"cebpf4jnsgd1na2vs0mg"},{"bike_id":"453e12d2-ec20-4bc1-bbd2-ff5565cdc612","system_id":"levelo_inurba_marseille","lat":43.302856,"lon":5.400794,"is_reserved":false,"is_disabled":false,"rental_uris":{"android":"levelo://app?vid=453e12d2-ec20-4bc1-bbd2-ff5565cdc612","ios":"levelo://app?vid=453e12d2-ec20-4bc1-bbd2-ff5565cdc612"},"vehicle_type_id":"4","last_reported":1745057381,"current_range_meters":24800,"station_id":"ce4bgvh2rcd13ifvqcs0","pricing_plan_id":"cebpf4jnsgd1na2vs0mg"},{"bike_id":"925353e1-c594-4275-8691-4ae9e0847746","system_id":"levelo_inurba_marseille","lat":43.21757,"lon":5.34589,"is_reserved":false,"is_disabled":false,"rental_uris":{"android":"levelo://app?vid=925353e1-c594-4275-8691-4ae9e0847746","ios":"levelo://app?vid=925353e1-c594-4275-8691-4ae9e0847746"},"vehicle_type_id":"4","last_reported":1745057381,"current_range_meters":24800,"station_id":"st_cvj6r9ubvosntc0bgbag","pricing_plan_id":"cebpf4jnsgd1na2vs0mg"},{"bike_id":"b6a8f107-0914-437b-bf32-fbb25ae77c2b","system_id":"levelo_inurba_marseille","lat":43.29277,"lon":5.36843,"is_reserved":false,"is_disabled":false,"rental_uris":{"android":"levelo://app?vid=b6a8f107-0914-437b-bf32-fbb25ae77c2b","ios":"levelo://app?vid=b6a8f107-0914-437b-bf32-fbb25ae77c2b"},"vehicle_type_id":"4","last_reported":1745057381,"current_range_meters":24800,"station_id":"ce4bhbp2rcd13ifvqesg","pricing_plan_id":"cebpf4jnsgd1na2vs0mg"},{"bike_id":"091166bd-d9e4-4d0f-a79c-f0692569b10d","system_id":"levelo_inurba_marseille","lat":43.248067,"lon":5.374659,"is_reserved":false,"is_disabled":false,"rental_uris":{"android":"levelo://app?vid=091166bd-d9e4-4d0f-a79c-f0692569b10d","ios":"levelo://app?vid=091166bd-d9e4-4d0f-a79c-f0692569b10d"},"vehicle_type_id":"4","last_reported":1745057381,"current_range_meters":24800,"station_id":"ce4bhgh2rcd13ifvqfb0","pricing_plan_id":"cebpf4jnsgd1na2vs0mg"},{"bike_id":"986062de-98ce-4fba-b904-352476db8d32","system_id":"levelo_inurba_marseille","lat":43.29519,"lon":5.39026,"is_reserved":false,"is_disabled":true,"rental_uris":{"android":"levelo://app?vid=986062de-98ce-4fba-b904-352476db8d32","ios":"levelo://app?vid=986062de-98ce-4fba-b904-352476db8d32"},"vehicle_type_id":"4","last_reported":1745057381,"current_range_meters":24800,"station_id":"","pricing_plan_id":"cebpf4jnsgd1na2vs0mg"},{"bike_id":"566caf51-ad6b-4296-b1ee-eaa3ce8c22bf","system_id":"levelo_inurba_marseille","lat":43.29194,"lon":5.35801,"is_reserved":false,"is_disabled":false,"rental_uris":{"android":"levelo://app?vid=566caf51-ad6b-4296-b1ee-eaa3ce8c22bf","ios":"levelo://app?vid=566caf51-ad6b-4296-b1ee-eaa3ce8c22bf"},"vehicle_type_id":"4","last_reported":1745057381,"current_range_meters":24400,"station_id":"ce4bhb12rcd13ifvqel0","pricing_plan_id":"cebpf4jnsgd1na2vs0mg"},{"bike_id":"05774917-7520-448c-b424-f054edcb4ebf","system_id":"levelo_inurba_marseille","lat":43.320582,"lon":5.415788,"is_reserved":false,"is_disabled":false,"rental_uris":{"android":"levelo://app?vid=05774917-7520-448c-b424-f054edcb4ebf","ios":"levelo://app?vid=05774917-7520-448c-b424-f054edcb4ebf"},"vehicle_type_id":"4","last_reported":1745057381,"current_range_meters":24800,"station_id":"ce4bhq92rcd13ifvqhkg","pricing_plan_id":"cebpf4jnsgd1na2vs0mg"},{"bike_id":"89ab36f0-9bd8-47df-ac90-e10c68799d96","system_id":"levelo_inurba_marseille","lat":43.29195,"lon":5.35804,"is_reserved":false,"is_disabled":false,"rental_uris":{"android":"levelo://app?vid=89ab36f0-9bd8-47df-ac90-e10c68799d96","ios":"levelo://app?vid=89ab36f0-9bd8-47df-ac90-e10c68799d96"},