{"last_updated":1777545879,"ttl":60,"version":"2.2","data":{"bikes":[{"bike_id":"b4a497ea-222e-419c-a826-4feb72e6ade8","system_id":"levelo_inurba_marseille","lat":43.2871,"lon":5.46671,"is_reserved":false,"is_disabled":false,"rental_uris":{"android":"levelo://app?vid=b4a497ea-222e-419c-a826-4feb72e6ade8","ios":"levelo://app?vid=b4a497ea-222e-419c-a826-4feb72e6ade8"},"vehicle_type_id":"4","last_reported":1777545880,"current_range_meters":2800,"station_id":"st_d6tc3vkotcvc738tfjhg","pricing_plan_id":"cebpf4jnsgd1na2vs0mg"},{"bike_id":"d4d191c1-1e42-44ce-acaa-f4fdd3a7ce8e","system_id":"levelo_inurba_marseille","lat":43.28552,"lon":5.3851,"is_reserved":false,"is_disabled":false,"rental_uris":{"android":"levelo://app?vid=d4d191c1-1e42-44ce-acaa-f4fdd3a7ce8e","ios":"levelo://app?vid=d4d191c1-1e42-44ce-acaa-f4fdd3a7ce8e"},"vehicle_type_id":"4","last_reported":1777545880,"current_range_meters":2800,"station_id":"","pricing_plan_id":"cebpf4jnsgd1na2vs0mg"},{"bike_id":"f56b54c6-c54b-4ac4-9b32-70b4212df996","system_id":"levelo_inurba_marseille","lat":43.23212,"lon":5.35558,"is_reserved":false,"is_disabled":false,"rental_uris":{"android":"levelo://app?vid=f56b54c6-c54b-4ac4-9b32-70b4212df996","ios":"levelo://app?vid=f56b54c6-c54b-4ac4-9b32-70b4212df996"},"vehicle_type_id":"4","last_reported":1777545880,"current_range_meters":2800,"station_id":"ce4bhu92rcd13ifvqi70","pricing_plan_id":"cebpf4jnsgd1na2vs0mg"},{"bike_id":"94f11d13-a2b0-4f18-a58b-01e14d3c2001","system_id":"levelo_inurba_marseille","lat":43.24076,"lon":5.37733,"is_reserved":false,"is_disabled":true,"rental_uris":{"android":"levelo://app?vid=94f11d13-a2b0-4f18-a58b-01e14d3c2001","ios":"levelo://app?vid=94f11d13-a2b0-4f18-a58b-01e14d3c2001"},"vehicle_type_id":"4","last_reported":1777545880,"current_range_meters":2800,"station_id":"ce4bhnp2rcd13ifvqgvg","pricing_plan_id":"cebpf4jnsgd1na2vs0mg"},{"bike_id":"f6dce53f-7018-47f9-bfd2-251ba4be96ae","system_id":"levelo_inurba_marseille","lat":43.26352,"lon":5.41062,"is_reserved":false,"is_disabled":true,"rental_uris":{"android":"levelo://app?vid=f6dce53f-7018-47f9-bfd2-251ba4be96ae","ios":"levelo://app?vid=f6dce53f-7018-47f9-bfd2-251ba4be96ae"},"vehicle_type_id":"4","last_reported":1777545880,"current_range_meters":2800,"station_id":"st_d4e5ca6na9uc73bfl5fg","pricing_plan_id":"cebpf4jnsgd1na2vs0mg"},{"bike_id":"da558f6b-639e-4af7-8626-da08bd9b1336","system_id":"levelo_inurba_marseille","lat":43.27563,"lon":5.38413,"is_reserved":false,"is_disabled":false,"rental_uris":{"android":"levelo://app?vid=da558f6b-639e-4af7-8626-da08bd9b1336","ios":"levelo://app?vid=da558f6b-639e-4af7-8626-da08bd9b1336"},"vehicle_type_id":"4","last_reported":1777545880,"current_range_meters":2800,"station_id":"ce4bhh92rcd13ifvqfi0","pricing_plan_id":"cebpf4jnsgd1na2vs0mg"},{"bike_id":"cdecdba8-0440-4e27-8f88-2f26c7919ff8","system_id":"levelo_inurba_marseille","lat":43.28547,"lon":5.3722,"is_reserved":false,"is_disabled":false,"rental_uris":{"android":"levelo://app?vid=cdecdba8-0440-4e27-8f88-2f26c7919ff8","ios":"levelo://app?vid=cdecdba8-0440-4e27-8f88-2f26c7919ff8"},"vehicle_type_id":"4","last_reported":1777545880,"current_range_meters":2800,"station_id":"","pricing_plan_id":"cebpf4jnsgd1na2vs0mg"},{"bike_id":"e841d6e3-fc80-4953-affe-f2a728a44380","system_id":"levelo_inurba_marseille","lat":43.27745,"lon":5.35615,"is_reserved":false,"is_disabled":false,"rental_uris":{"android":"levelo://app?vid=e841d6e3-fc80-4953-affe-f2a728a44380","ios":"levelo://app?vid=e841d6e3-fc80-4953-affe-f2a728a44380"},"vehicle_type_id":"4","last_reported":1777545880,"current_range_meters":2800,"station_id":"","pricing_plan_id":"cebpf4jnsgd1na2vs0mg"},{"bike_id":"490d543e-6b30-4b0c-b6b3-5dfd9086fe8a","system_id":"levelo_inurba_marseille","lat":43.28547,"lon":5.38346,"is_reserved":false,"is_disabled":true,"rental_uris":{"android":"levelo://app?vid=490d543e-6b30-4b0c-b6b3-5dfd9086fe8a","ios":"levelo://app?vid=490d543e-6b30-4b0c-b6b3-5dfd9086fe8a"},"vehicle_type_id":"4","last_reported":1777545880,"current_range_meters":2800,"station_id":"ce4bh512rcd13ifvqe3g","pricing_plan_id":"cebpf4jnsgd1na2vs0mg"},{"bike_id":"4d13d92d-e097-4bba-b26c-c542cc5f5a63","system_id":"levelo_inurba_marseille","lat":43.26565,"lon":5.39007,"is_reserved":false,"is_disabled":false,"rental_uris":{"android":"levelo://app?vid=4d13d92d-e097-4bba-b26c-c542cc5f5a63","ios":"levelo://app?vid=4d13d92d-e097-4bba-b26c-c542cc5f5a63"},"vehicle_type_id":"4","last_reported":1777545880,"current_range_meters":2800,"station_id":"ce4bhe12rcd13ifvqf30","pricing_plan_id":"cebpf4jnsgd1na2vs0mg"},{"bike_id":"89fbd0e2-efc3-438e-a5f5-decc194165cf","system_id":"levelo_inurba_marseille","lat":43.337444,"lon":5.374475,"is_reserved":false,"is_disabled":false,"rental_uris":{"android":"levelo://app?vid=89fbd0e2-efc3-438e-a5f5-decc194165cf","ios":"levelo://app?vid=89fbd0e2-efc3-438e-a5f5-decc194165cf"},"vehicle_type_id":"4","last_reported":1777545880,"current_range_meters":3200,"station_id":"ce4bhah2rcd13ifvqej0","pricing_plan_id":"cebpf4jnsgd1na2vs0mg"},{"bike_id":"e1d26622-7491-4fdf-a6f0-77cbc7cac2ef","system_id":"levelo_inurba_marseille","lat":43.24165,"lon":5.36403,"is_reserved":false,"is_disabled":true,"rental_uris":{"android":"levelo://app?vid=e1d26622-7491-4fdf-a6f0-77cbc7cac2ef","ios":"levelo://app?vid=e1d26622-7491-4fdf-a6f0-77cbc7cac2ef"},"vehicle_type_id":"4","last_reported":1777545880,"current_range_meters":3200,"station_id":"cpo36qri1sfpv3e86is0","pricing_plan_id":"cebpf4jnsgd1na2vs0mg"},{"bike_id":"53d6fcee-a36c-438d-8323-8bfe4399c65c","system_id":"levelo_inurba_marseille","lat":43.2732,"lon":5.39075,"is_reserved":false,"is_disabled":false,"rental_uris":{"android":"levelo://app?vid=53d6fcee-a36c-438d-8323-8bfe4399c65c","ios":"levelo://app?vid=53d6fcee-a36c-438d-8323-8bfe4399c65c"},"vehicle_type_id":"4","last_reported":1777545880,"current_range_meters":3200,"station_id":"ce4bhgp2rcd13ifvqfe0","pricing_plan_id":"cebpf4jnsgd1na2vs0mg"},{"bike_id":"31042abc-fdb4-45c6-af1d-f214e842ea8b","system_id":"levelo_inurba_marseille","lat":43.3095,"lon":5.42172,"is_reserved":false,"is_disabled":false,"rental_uris":{"android":"levelo://app?vid=31042abc-fdb4-45c6-af1d-f214e842ea8b","ios":"levelo://app?vid=31042abc-fdb4-45c6-af1d-f214e842ea8b"},"vehicle_type_id":"4","last_reported":1777545880,"current_range_meters":3200,"station_id":"","pricing_plan_id":"cebpf4jnsgd1na2vs0mg"},{"bike_id":"6d24db7d-dcd5-4230-a584-114f0b1d2d4a","system_id":"levelo_inurba_marseille","lat":43.27999,"lon":5.41674,"is_reserved":false,"is_disabled":false,"rental_uris":{"android":"levelo://app?vid=6d24db7d-dcd5-4230-a584-114f0b1d2d4a","ios":"levelo://app?vid=6d24db7d-dcd5-4230-a584-114f0b1d2d4a"},"vehicle_type_id":"4","last_reported":1777545880,"current_range_meters":3200,"station_id":"ce4bho12rcd13ifvqh1g","pricing_plan_id":"cebpf4jnsgd1na2vs0mg"},{"bike_id":"775c7593-b564-472a-8ae0-d60f16f8d110","system_id":"levelo_inurba_marseille","lat":43.24813,"lon":5.37462,"is_reserved":false,"is_disabled":false,"rental_uris":{"android":"levelo://app?vid=775c7593-b564-472a-8ae0-d60f16f8d110","ios":"levelo://app?vid=775c7593-b564-472a-8ae0-d60f16f8d110"},"vehicle_type_id":"4","last_reported":1777545880,"current_range_meters":3200,"station_id":"ce4bhgh2rcd13ifvqfb0","pricing_plan_id":"cebpf4jnsgd1na2vs0mg"},{"bike_id":"fb98ea03-65c4-46e3-aeef-4eff9cbc873c","system_id":"levelo_inurba_marseille","lat":43.295832,"lon":5.367451,"is_reserved":false,"is_disabled":false,"rental_uris":{"android":"levelo://app?vid=fb98ea03-65c4-46e3-aeef-4eff9cbc873c","ios":"levelo://app?vid=fb98ea03-65c4-46e3-aeef-4eff9cbc873c"},"vehicle_type_id":"4","last_reported":1777545880,"current_range_meters":3200,"station_id":"ce4bgph2rcd13ifvqc2g","pricing_plan_id":"cebpf4jnsgd1na2vs0mg"},{"bike_id":"88e36451-675e-42fe-a3a2-ccce254c1aab","system_id":"levelo_inurba_marseille","lat":43.26788,"lon":5.39404,"is_reserved":false,"is_disabled":false,"rental_uris":{"android":"levelo://app?vid=88e36451-675e-42fe-a3a2-ccce254c1aab","ios":"levelo://app?vid=88e36451-675e-42fe-a3a2-ccce254c1aab"},"vehicle_type_id":"4","last_reported":1777545880,"current_range_meters":3200,"station_id":"ce4bhh12rcd13ifvqfg0","pricing_plan_id":"cebpf4jnsgd1na2vs0mg"},{"bike_id":"b3f86445-3977-44af-af6a-00dd1b7b0868","system_id":"levelo_inurba_marseille","lat":43.3016,"lon":5.38075,"is_reserved":false,"is_disabled":false,"rental_uris":{"android":"levelo://app?vid=b3f86445-3977-44af-af6a-00dd1b7b0868","ios":"levelo://app?vid=b3f86445-3977-44af-af6a-00dd1b7b0868"},"vehicle_type_id":"4","last_reported":1777545880,"current_range_meters":3200,"station_id":"ce4bgjp2rcd13ifvqbh0","pricing_plan_id":"cebpf4jnsgd1na2vs0mg"},{"bike_id":"b3dd87fc-47f3-44b7-b1f2-1f3f2c80d205","system_id":"levelo_inurba_marseille","lat":43.27802,"lon":5.40719,"is_reserved":false,"is_disabled":false,"rental_uris":{"android":"levelo://app?vid=b3dd87fc-47f3-44b7-b1f2-1f3f2c80d205","ios":"levelo://app?vid=b3dd87fc-47f3-44b7-b1f2-1f3f2c80d205"},"vehicle_type_id":"4","last_reported":1777545880,"current_range_meters":3600,"station_id":"ce4bhnh2rcd13ifvqgtg","pricing_plan_id":"cebpf4jnsgd1na2vs0mg"},{"bike_id":"95ca8cc5-afd5-46a2-b335-22ee4def044e","system_id":"levelo_inurba_marseille","lat":43.24624,"lon":5.4316,"is_reserved":false,"is_disabled":false,"rental_uris":{"android":"levelo://app?vid=95ca8cc5-afd5-46a2-b335-22ee4def044e","ios":"levelo://app?vid=95ca8cc5-afd5-46a2-b335-22ee4def044e"},"vehicle_type_id":"4","last_reported":1777545880,"current_range_meters":3600,"station_id":"st_d2m6c4gdas8pm72e190g","pricing_plan_id":"cebpf4jnsgd1na2vs0mg"},{"bike_id":"b664614e-0298-48de-96bc-27654df9d7fb","system_id":"levelo_inurba_marseille","lat":43.25688,"lon":5.4,"is_reserved":false,"is_disabled":false,"rental_uris":{"android":"levelo://app?vid=b664614e-0298-48de-96bc-27654df9d7fb","ios":"levelo://app?vid=b664614e-0298-48de-96bc-27654df9d7fb"},"vehicle_type_id":"4","last_reported":1777545880,"current_range_meters":3600,"station_id":"","pricing_plan_id":"cebpf4jnsgd1na2vs0mg"},{"bike_id":"d23dfd1c-78fd-49df-804e-b0215ba8e8d2","system_id":"levelo_inurba_marseille","lat":43.29004,"lon":5.35611,"is_reserved":false,"is_disabled":false,"rental_uris":{"android":"levelo://app?vid=d23dfd1c-78fd-49df-804e-b0215ba8e8d2","ios":"levelo://app?vid=d23dfd1c-78fd-49df-804e-b0215ba8e8d2"},"vehicle_type_id":"4","last_reported":1777545880,"current_range_meters":3600,"station_id":"ce4bhb92rcd13ifvqen0","pricing_plan_id":"cebpf4jnsgd1na2vs0mg"},{"bike_id":"a9b1eaef-09fa-4abc-936a-dfcebceec77f","system_id":"levelo_inurba_marseille","lat":43.25941,"lon":5.40915,"is_reserved":false,"is_disabled":false,"rental_uris":{"android":"levelo://app?vid=a9b1eaef-09fa-4abc-936a-dfcebceec77f","ios":"levelo://app?vid=a9b1eaef-09fa-4abc-936a-dfcebceec77f"},"vehicle_type_id":"4","last_reported":1777545880,"current_range_meters":3600,"station_id":"ce4bhm92rcd13ifvqglg","pricing_plan_id":"cebpf4jnsgd1na2vs0mg"},{"bike_id":"afb1f759-90b2-46df-9a2f-fcc0f98755be","system_id":"levelo_inurba_marseille","lat":43.28931,"lon":5.36636,"is_reserved":false,"is_disabled":false,"rental_uris":{"android":"levelo://app?vid=afb1f759-90b2-46df-9a2f-fcc0f98755be","ios":"levelo://app?vid=afb1f759-90b2-46df-9a2f-fcc0f98755be"},"vehicle_type_id":"4","last_reported":1777545880,"current_range_meters":3600,"station_id":"ce4bhap2rcd13ifvqek0","pricing_plan_id":"cebpf4jnsgd1na2vs0mg"},{"bike_id":"bba0d7c0-c1b5-406f-a181-674a8536cbdb","system_id":"levelo_inurba_marseille","lat":43.25502,"lon":5.37652,"is_reserved":false,"is_disabled":false,"rental_uris":{"android":"levelo://app?vid=bba0d7c0-c1b5-406f-a181-674a8536cbdb","ios":"levelo://app?vid=bba0d7c0-c1b5-406f-a181-674a8536cbdb"},"vehicle_type_id":"4","last_reported":1777545880,"current_range_meters":3600,"station_id":"ce4bhh12rcd13ifvqff0","pricing_plan_id":"cebpf4jnsgd1na2vs0mg"},{"bike_id":"3d80f3c6-f394-4b9a-9d5a-186cb23f83aa","system_id":"levelo_inurba_marseille","lat":43.241723,"lon":5.397333,"is_reserved":false,"is_disabled":false,"rental_uris":{"android":"levelo://app?vid=3d80f3c6-f394-4b9a-9d5a-186cb23f83aa","ios":"levelo://app?vid=3d80f3c6-f394-4b9a-9d5a-186cb23f83aa"},"vehicle_type_id":"4","last_reported":1777545880,"current_range_meters":3600,"station_id":"ce4bhn12rcd13ifvqgpg","pricing_plan_id":"cebpf4jnsgd1na2vs0mg"},{"bike_id":"dbbbb8e8-9f95-4239-9c85-122fa253e288","system_id":"levelo_inurba_marseille","lat":43.27176,"lon":5.40996,"is_reserved":false,"is_disabled":false,"rental_uris":{"android":"levelo://app?vid=dbbbb8e8-9f95-4239-9c85-122fa253e288","ios":"levelo://app?vid=dbbbb8e8-9f95-4239-9c85-122fa253e288"},"vehicle_type_id":"4","last_reported":1777545880,"current_range_meters":4000,"station_id":"ce4bhl12rcd13ifvqgf0","pricing_plan_id":"cebpf4jnsgd1na2vs0mg"},{"bike_id":"2c514eca-0c7c-4c54-8544-da1a555049b6","system_id":"levelo_inurba_marseille","lat":43.2652,"lon":5.36947,"is_reserved":false,"is_disabled":false,"rental_uris":{"android":"levelo://app?vid=2c514eca-0c7c-4c54-8544-da1a555049b6","ios":"levelo://app?vid=2c514eca-0c7c-4c54-8544-da1a555049b6"},"vehicle_type_id":"4","last_reported":1777545880,"current_range_meters":4000,"station_id":"","pricing_plan_id":"cebpf4jnsgd1na2vs0mg"},{"bike_id":"34f79ee3-0315-4628-b92d-415ca46576e9","system_id":"levelo_inurba_marseille","lat":43.24675,"lon":5.38143,"is_reserved":false,"is_disabled":false,"rental_uris":{"android":"levelo://app?vid=34f79ee3-0315-4628-b92d-415ca46576e9","ios":"levelo://app?vid=34f79ee3-0315-4628-b92d-415ca46576e9"},"vehicle_type_id":"4","last_reported":1777545880,"current_range_meters":4000,"station_id":"ce4bhih2rcd13ifvqfr0","pricing_plan_id":"cebpf4jnsgd1na2vs0mg"},{"bike_id":"cd735691-a8cf-469c-b880-28ec2dcf0dc2","system_id":"levelo_inurba_marseille","lat":43.33543,"lon":5.37466,"is_reserved":false,"is_disabled":false,"rental_uris":{"android":"levelo://app?vid=cd735691-a8cf-469c-b880-28ec2dcf0dc2","ios":"levelo://app?vid=cd735691-a8cf-469c-b880-28ec2dcf0dc2"},"vehicle_type_id":"4","last_reported":1777545880,"current_range_meters":4000,"station_id":"st_d46tts09ee8s73dlu43g","pricing_plan_id":"cebpf4jnsgd1na2vs0mg"},{"bike_id":"07919e2d-9a9f-4079-9fd2-ae993e85b930","system_id":"levelo_inurba_marseille","lat":43.21176,"lon":5.35067,"is_reserved":false,"is_disabled":false,"rental_uris":{"android":"levelo://app?vid=07919e2d-9a9f-4079-9fd2-ae993e85b930","ios":"levelo://app?vid=07919e2d-9a9f-4079-9fd2-ae993e85b930"},"vehicle_type_id":"4","last_reported":1777545880,"current_range_meters":4000,"station_id":"st_cvj6sg6p6f1abm77japg","pricing_plan_id":"cebpf4jnsgd1na2vs0mg"},{"bike_id":"54e67cc0-42a4-4dcd-ba78-585ce68a4794","system_id":"levelo_inurba_marseille","lat":43.32497,"lon":5.38294,"is_reserved":false,"is_disabled":false,"rental_uris":{"android":"levelo://app?vid=54e67cc0-42a4-4dcd-ba78-585ce68a4794","ios":"levelo://app?vid=54e67cc0-42a4-4dcd-ba78-585ce68a4794"},"vehicle_type_id":"4","last_reported":1777545880,"current_range_meters":4000,"station_id":"st_d4asgbiv49dc73anf9m0","pricing_plan_id":"cebpf4jnsgd1na2vs0mg"},{"bike_id":"41b693ea-0d13-4532-92fa-7e1024a4df8a","system_id":"levelo_inurba_marseille","lat":43.302105,"lon":5.394656,"is_reserved":false,"is_disabled":false,"rental_uris":{"android":"levelo://app?vid=41b693ea-0d13-4532-92fa-7e1024a4df8a","ios":"levelo://app?vid=41b693ea-0d13-4532-92fa-7e1024a4df8a"},"vehicle_type_id":"4","last_reported":1777545880,"current_range_meters":4000,"station_id":"ce4bh0p2rcd13ifvqd70","pricing_plan_id":"cebpf4jnsgd1na2vs0mg"},{"bike_id":"b5592bc3-7c5d-4ba9-b1ae-b173928aef8c","system_id":"levelo_inurba_marseille","lat":43.2848,"lon":5.48382,"is_reserved":false,"is_disabled":false,"rental_uris":{"android":"levelo://app?vid=b5592bc3-7c5d-4ba9-b1ae-b173928aef8c","ios":"levelo://app?vid=b5592bc3-7c5d-4ba9-b1ae-b173928aef8c"},"vehicle_type_id":"4","last_reported":1777545880,"current_range_meters":4400,"station_id":"","pricing_plan_id":"cebpf4jnsgd1na2vs0mg"},{"bike_id":"45dc0832-3c9b-4b46-b6bd-e27e8ae97448","system_id":"levelo_inurba_marseille","lat":43.29295,"lon":5.37462,"is_reserved":false,"is_disabled":false,"rental_uris":{"android":"levelo://app?vid=45dc0832-3c9b-4b46-b6bd-e27e8ae97448","ios":"levelo://app?vid=45dc0832-3c9b-4b46-b6bd-e27e8ae97448"},"vehicle_type_id":"4","last_reported":1777545880,"current_range_meters":4400,"station_id":"ce4bgi12rcd13ifvqb70","pricing_plan_id":"cebpf4jnsgd1na2vs0mg"},{"bike_id":"0438d68d-b4c6-4b23-a7e1-82657231ebe9","system_id":"levelo_inurba_marseille","lat":43.28468,"lon":5.4839,"is_reserved":false,"is_disabled":false,"rental_uris":{"android":"levelo://app?vid=0438d68d-b4c6-4b23-a7e1-82657231ebe9","ios":"levelo://app?vid=0438d68d-b4c6-4b23-a7e1-82657231ebe9"},"vehicle_type_id":"4","last_reported":1777545880,"current_range_meters":4400,"station_id":"","pricing_plan_id":"cebpf4jnsgd1na2vs0mg"},{"bike_id":"82a8043e-804e-4dc9-b426-b4d299449f67","system_id":"levelo_inurba_marseille","lat":43.31046,"lon":5.3715,"is_reserved":false,"is_disabled":false,"rental_uris":{"android":"levelo://app?vid=82a8043e-804e-4dc9-b426-b4d299449f67","ios":"levelo://app?vid=82a8043e-804e-4dc9-b426-b4d299449f67"},"vehicle_type_id":"4","last_reported":1777545880,"current_range_meters":4400,"station_id":"st_d4kl2rp97mjs73e7tdfg","pricing_plan_id":"cebpf4jnsgd1na2vs0mg"},{"bike_id":"d1b0cfb9-74d2-4ee1-ab25-6099cdfdd0f2","system_id":"levelo_inurba_marseille","lat":43.28373,"lon":5.40126,"is_reserved":false,"is_disabled":false,"rental_uris":{"android":"levelo://app?vid=d1b0cfb9-74d2-4ee1-ab25-6099cdfdd0f2","ios":"levelo://app?vid=d1b0cfb9-74d2-4ee1-ab25-6099cdfdd0f2"},"vehicle_type_id":"4","last_reported":1777545880,"current_range_meters":4400,"station_id":"","pricing_plan_id":"cebpf4jnsgd1na2vs0mg"},{"bike_id":"503f6608-5fda-4305-911e-f6f452088f0a","system_id":"levelo_inurba_marseille","lat":43.24071,"lon":5.37749,"is_reserved":false,"is_disabled":false,"rental_uris":{"android":"levelo://app?vid=503f6608-5fda-4305-911e-f6f452088f0a","ios":"levelo://app?vid=503f6608-5fda-4305-911e-f6f452088f0a"},"vehicle_type_id":"4","last_reported":1777545880,"current_range_meters":4400,"station_id":"ce4bhnp2rcd13ifvqgvg","pricing_plan_id":"cebpf4jnsgd1na2vs0mg"},{"bike_id":"9205a08b-5191-472e-826f-09ef9391fcd8","system_id":"levelo_inurba_marseille","lat":43.29523,"lon":5.38554,"is_reserved":false,"is_disabled":true,"rental_uris":{"android":"levelo://app?vid=9205a08b-5191-472e-826f-09ef9391fcd8","ios":"levelo://app?vid=9205a08b-5191-472e-826f-09ef9391fcd8"},"vehicle_type_id":"4","last_reported":1777545880,"current_range_meters":4400,"station_id":"ce4bgih2rcd13ifvqba0","pricing_plan_id":"cebpf4jnsgd1na2vs0mg"},{"bike_id":"a496669f-42ea-4ec8-b909-b71bb128370f","system_id":"levelo_inurba_marseille","lat":43.33537,"lon":5.37433,"is_reserved":false,"is_disabled":false,"rental_uris":{"android":"levelo://app?vid=a496669f-42ea-4ec8-b909-b71bb128370f","ios":"levelo://app?vid=a496669f-42ea-4ec8-b909-b71bb128370f"},"vehicle_type_id":"4","last_reported":1777545880,"current_range_meters":4400,"station_id":"st_d46tts09ee8s73dlu43g","pricing_plan_id":"cebpf4jnsgd1na2vs0mg"},{"bike_id":"c05046a9-78c1-4acb-bd27-372477e0d04f","system_id":"levelo_inurba_marseille","lat":43.337444,"lon":5.374475,"is_reserved":false,"is_disabled":false,"rental_uris":{"android":"levelo://app?vid=c05046a9-78c1-4acb-bd27-372477e0d04f","ios":"levelo://app?vid=c05046a9-78c1-4acb-bd27-372477e0d04f"},"vehicle_type_id":"4","last_reported":1777545880,"current_range_meters":4400,"station_id":"","pricing_plan_id":"cebpf4jnsgd1na2vs0mg"},{"bike_id":"8a753374-911c-4b28-a897-83d22f8de91b","system_id":"levelo_inurba_marseille","lat":43.25004,"lon":5.38924,"is_reserved":false,"is_disabled":false,"rental_uris":{"android":"levelo://app?vid=8a753374-911c-4b28-a897-83d22f8de91b","ios":"levelo://app?vid=8a753374-911c-4b28-a897-83d22f8de91b"},"vehicle_type_id":"4","last_reported":1777545880,"current_range_meters":4400,"station_id":"ce4bhgp2rcd13ifvqfd0","pricing_plan_id":"cebpf4jnsgd1na2vs0mg"},{"bike_id":"a80f5aa0-2ea8-40d1-82ba-26c4ba1ab9e9","system_id":"levelo_inurba_marseille","lat":43.29529,"lon":5.37498,"is_reserved":false,"is_disabled":false,"rental_uris":{"android":"levelo://app?vid=a80f5aa0-2ea8-40d1-82ba-26c4ba1ab9e9","ios":"levelo://app?vid=a80f5aa0-2ea8-40d1-82ba-26c4ba1ab9e9"},"vehicle_type_id":"4","last_reported":1777545880,"current_range_meters":4400,"station_id":"ce4bgkp2rcd13ifvqbmg","pricing_plan_id":"cebpf4jnsgd1na2vs0mg"},{"bike_id":"b91f4f99-7987-40ea-afbb-1e1af65ec675","system_id":"levelo_inurba_marseille","lat":43.29459,"lon":5.4089,"is_reserved":false,"is_disabled":false,"rental_uris":{"android":"levelo://app?vid=b91f4f99-7987-40ea-afbb-1e1af65ec675","ios":"levelo://app?vid=b91f4f99-7987-40ea-afbb-1e1af65ec675"},"vehicle_type_id":"4","last_reported":1777545880,"current_range_meters":4400,"station_id":"","pricing_plan_id":"cebpf4jnsgd1na2vs0mg"},{"bike_id":"25929654-4723-4207-a840-f8732b5f1900","system_id":"levelo_inurba_marseille","lat":43.30297,"lon":5.39227,"is_reserved":false,"is_disabled":false,"rental_uris":{"android":"levelo://app?vid=25929654-4723-4207-a840-f8732b5f1900","ios":"levelo://app?vid=25929654-4723-4207-a840-f8732b5f1900"},"vehicle_type_id":"4","last_reported":1777545880,"current_range_meters":4400,"station_id":"ce4bgkh2rcd13ifvqbk0","pricing_plan_id":"cebpf4jnsgd1na2vs0mg"},{"bike_id":"871f1eaf-b361-46d7-88bd-102fbea3add5","system_id":"levelo_inurba_marseille","lat":43.295687,"lon":5.375162,"is_reserved":false,"is_disabled":true,"rental_uris":{"android":"levelo://app?vid=871f1eaf-b361-46d7-88bd-102fbea3add5","ios":"levelo://app?vid=871f1eaf-b361-46d7-88bd-102fbea3add5"},"vehicle_type_id":"4","last_reported":1777545880,"current_range_meters":4400,"station_id":"ce4bgh92rcd13ifvqb50","pricing_plan_id":"cebpf4jnsgd1na2vs0mg"},{"bike_id":"1a6e8ad7-4755-4e48-8f0e-e27400e45979","system_id":"levelo_inurba_marseille","lat":43.28703,"lon":5.3739,"is_reserved":false,"is_disabled":false,"rental_uris":{"android":"levelo://app?vid=1a6e8ad7-4755-4e48-8f0e-e27400e45979","ios":"levelo://app?vid=1a6e8ad7-4755-4e48-8f0e-e27400e45979"},"vehicle_type_id":"4","last_reported":1777545880,"current_range_meters":4400,"station_id":"ce4bh3p2rcd13ifvqdq0","pricing_plan_id":"cebpf4jnsgd1na2vs0mg"},{"bike_id":"c96c7e4e-2ad8-4965-aa09-c069520101ad","system_id":"levelo_inurba_marseille","lat":43.23136,"lon":5.437,"is_reserved":false,"is_disabled":false,"rental_uris":{"android":"levelo://app?vid=c96c7e4e-2ad8-4965-aa09-c069520101ad","ios":"levelo://app?vid=c96c7e4e-2ad8-4965-aa09-c069520101ad"},"vehicle_type_id":"4","last_reported":1777545880,"current_range_meters":4400,"station_id":"ce4bhmp2rcd13ifvqgog","pricing_plan_id":"cebpf4jnsgd1na2vs0mg"},{"bike_id":"d8de0a64-e3bb-4f89-8f07-313cae5af722","system_id":"levelo_inurba_marseille","lat":43.22551,"lon":5.41639,"is_reserved":false,"is_disabled":false,"rental_uris":{"android":"levelo://app?vid=d8de0a64-e3bb-4f89-8f07-313cae5af722","ios":"levelo://app?vid=d8de0a64-e3bb-4f89-8f07-313cae5af722"},"vehicle_type_id":"4","last_reported":1777545880,"current_range_meters":4800,"station_id":"st_d2o4gvlbi1j2169b742g","pricing_plan_id":"cebpf4jnsgd1na2vs0mg"},{"bike_id":"dde9cb7a-d2cd-49d4-9390-db18f4c0f172","system_id":"levelo_inurba_marseille","lat":43.337444,"lon":5.374475,"is_reserved":false,"is_disabled":false,"rental_uris":{"android":"levelo://app?vid=dde9cb7a-d2cd-49d4-9390-db18f4c0f172","ios":"levelo://app?vid=dde9cb7a-d2cd-49d4-9390-db18f4c0f172"},"vehicle_type_id":"4","last_reported":1777545880,"current_range_meters":4800,"station_id":"ce4bgj12rcd13ifvqbc0","pricing_plan_id":"cebpf4jnsgd1na2vs0mg"},{"bike_id":"510ce3f2-6e00-4287-86f5-855a46a42bd8","system_id":"levelo_inurba_marseille","lat":43.27813,"lon":5.4072,"is_reserved":false,"is_disabled":false,"rental_uris":{"android":"levelo://app?vid=510ce3f2-6e00-4287-86f5-855a46a42bd8","ios":"levelo://app?vid=510ce3f2-6e00-4287-86f5-855a46a42bd8"},"vehicle_type_id":"4","last_reported":1777545880,"current_range_meters":4800,"station_id":"ce4bhnh2rcd13ifvqgtg","pricing_plan_id":"cebpf4jnsgd1na2vs0mg"},{"bike_id":"acc57406-75de-43a2-a6ec-d941193f0be0","system_id":"levelo_inurba_marseille","lat":43.3235,"lon":5.36729,"is_reserved":false,"is_disabled":false,"rental_uris":{"android":"levelo://app?vid=acc57406-75de-43a2-a6ec-d941193f0be0","ios":"levelo://app?vid=acc57406-75de-43a2-a6ec-d941193f0be0"},"vehicle_type_id":"4","last_reported":1777545880,"current_range_meters":4800,"station_id":"ce4bhsh2rcd13ifvqi2g","pricing_plan_id":"cebpf4jnsgd1na2vs0mg"},{"bike_id":"b0fc715f-4a35-4272-9e2a-b10f7b105dc9","system_id":"levelo_inurba_marseille","lat":43.29343,"lon":5.44554,"is_reserved":false,"is_disabled":false,"rental_uris":{"android":"levelo://app?vid=b0fc715f-4a35-4272-9e2a-b10f7b105dc9","ios":"levelo://app?vid=b0fc715f-4a35-4272-9e2a-b10f7b105dc9"},"vehicle_type_id":"4","last_reported":1777545880,"current_range_meters":4800,"station_id":"","pricing_plan_id":"cebpf4jnsgd1na2vs0mg"},{"bike_id":"c49761ac-9f33-4552-bf2f-10763f93fa50","system_id":"levelo_inurba_marseille","lat":43.31888,"lon":5.36812,"is_reserved":false,"is_disabled":false,"rental_uris":{"android":"levelo://app?vid=c49761ac-9f33-4552-bf2f-10763f93fa50","ios":"levelo://app?vid=c49761ac-9f33-4552-bf2f-10763f93fa50"},"vehicle_type_id":"4","last_reported":1777545880,"current_range_meters":4800,"station_id":"st_d6o2h0d0559c73evc1b0","pricing_plan_id":"cebpf4jnsgd1na2vs0mg"},{"bike_id":"8829f460-aa5f-4233-9846-cd6731fc4acd","system_id":"levelo_inurba_marseille","lat":43.26983,"lon":5.40434,"is_reserved":false,"is_disabled":false,"rental_uris":{"android":"levelo://app?vid=8829f460-aa5f-4233-9846-cd6731fc4acd","ios":"levelo://app?vid=8829f460-aa5f-4233-9846-cd6731fc4acd"},"vehicle_type_id":"4","last_reported":1777545880,"current_range_meters":5600,"station_id":"","pricing_plan_id":"cebpf4jnsgd1na2vs0mg"},{"bike_id":"8ae8f2b2-19b2-417a-957e-c1d134c31ba8","system_id":"levelo_inurba_marseille","lat":43.29905,"lon":5.38146,"is_reserved":false,"is_disabled":false,"rental_uris":{"android":"levelo://app?vid=8ae8f2b2-19b2-417a-957e-c1d134c31ba8","ios":"levelo://app?vid=8ae8f2b2-19b2-417a-957e-c1d134c31ba8"},"vehicle_type_id":"4","last_reported":1777545880,"current_range_meters":5600,"station_id":"ce4bgj12rcd13ifvqbc0","pricing_plan_id":"cebpf4jnsgd1na2vs0mg"},{"bike_id":"48357342-923a-40af-805e-c9f6abe5dd99","system_id":"levelo_inurba_marseille","lat":43.29539,"lon":5.37481,"is_reserved":false,"is_disabled":false,"rental_uris":{"android":"levelo://app?vid=48357342-923a-40af-805e-c9f6abe5dd99","ios":"levelo://app?vid=48357342-923a-40af-805e-c9f6abe5dd99"},"vehicle_type_id":"4","last_reported":1777545880,"current_range_meters":5600,"station_id":"ce4bgkp2rcd13ifvqbmg","pricing_plan_id":"cebpf4jnsgd1na2vs0mg"},{"bike_id":"9d364f38-9209-43ca-93e4-cdc645941243","system_id":"levelo_inurba_marseille","lat":43.23152,"lon":5.43701,"is_reserved":false,"is_disabled":false,"rental_uris":{"android":"levelo://app?vid=9d364f38-9209-43ca-93e4-cdc645941243","ios":"levelo://app?vid=9d364f38-9209-43ca-93e4-cdc645941243"},"vehicle_type_id":"4","last_reported":1777545880,"current_range_meters":5600,"station_id":"ce4bhmp2rcd13ifvqgog","pricing_plan_id":"cebpf4jnsgd1na2vs0mg"},{"bike_id":"e8c45a74-740f-4fc5-b008-5dd3be21b931","system_id":"levelo_inurba_marseille","lat":43.31156,"lon":5.38016,"is_reserved":false,"is_disabled":false,"rental_uris":{"android":"levelo://app?vid=e8c45a74-740f-4fc5-b008-5dd3be21b931","ios":"levelo://app?vid=e8c45a74-740f-4fc5-b008-5dd3be21b931"},"vehicle_type_id":"4","last_reported":1777545880,"current_range_meters":5600,"station_id":"","pricing_plan_id":"cebpf4jnsgd1na2vs0mg"},{"bike_id":"4973a181-d17c-430e-bbdc-8fc4d0df0c6f","system_id":"levelo_inurba_marseille","lat":43.23151,"lon":5.43705,"is_reserved":false,"is_disabled":false,"rental_uris":{"android":"levelo://app?vid=4973a181-d17c-430e-bbdc-8fc4d0df0c6f","ios":"levelo://app?vid=4973a181-d17c-430e-bbdc-8fc4d0df0c6f"},"vehicle_type_id":"4","last_reported":1777545880,"current_range_meters":5600,"station_id":"ce4bhmp2rcd13ifvqgog","pricing_plan_id":"cebpf4jnsgd1na2vs0mg"},{"bike_id":"7f5d1c22-f034-4114-866a-5ab27f4fa9fd","system_id":"levelo_inurba_marseille","lat":43.30313,"lon":5.38602,"is_reserved":false,"is_disabled":false,"rental_uris":{"android":"levelo://app?vid=7f5d1c22-f034-4114-866a-5ab27f4fa9fd","ios":"levelo://app?vid=7f5d1c22-f034-4114-866a-5ab27f4fa9fd"},"vehicle_type_id":"4","last_reported":1777545880,"current_range_meters":5600,"station_id":"","pricing_plan_id":"cebpf4jnsgd1na2vs0mg"},{"bike_id":"945b3f65-3522-4839-bb4a-92155b98bfd3","system_id":"levelo_inurba_marseille","lat":43.28417,"lon":5.34983,"is_reserved":false,"is_disabled":false,"rental_uris":{"android":"levelo://app?vid=945b3f65-3522-4839-bb4a-92155b98bfd3","ios":"levelo://app?vid=945b3f65-3522-4839-bb4a-92155b98bfd3"},"vehicle_type_id":"4","last_reported":1777545880,"current_range_meters":5600,"station_id":"ce4bhbh2rcd13ifvqepg","pricing_plan_id":"cebpf4jnsgd1na2vs0mg"},{"bike_id":"c1dd86f4-23f8-40a7-b1c1-c41e01f712e9","system_id":"levelo_inurba_marseille","lat":43.30555,"lon":5.36521,"is_reserved":false,"is_disabled":false,"rental_uris":{"android":"levelo://app?vid=c1dd86f4-23f8-40a7-b1c1-c41e01f712e9","ios":"levelo://app?vid=c1dd86f4-23f8-40a7-b1c1-c41e01f712e9"},"vehicle_type_id":"4","last_reported":1777545880,"current_range_meters":5600,"station_id":"ce4bgs12rcd13ifvqcag","pricing_plan_id":"cebpf4jnsgd1na2vs0mg"},{"bike_id":"4d3b0fb9-4fcc-46d7-8f90-81b232f0c7b3","system_id":"levelo_inurba_marseille","lat":43.30125,"lon":5.43111,"is_reserved":false,"is_disabled":false,"rental_uris":{"android":"levelo://app?vid=4d3b0fb9-4fcc-46d7-8f90-81b232f0c7b3","ios":"levelo://app?vid=4d3b0fb9-4fcc-46d7-8f90-81b232f0c7b3"},"vehicle_type_id":"4","last_reported":1777545880,"current_range_meters":5600,"station_id":"st_d3js3co5814s73ftftug","pricing_plan_id":"cebpf4jnsgd1na2vs0mg"},{"bike_id":"7a4f9c5b-0770-4973-b065-ff441b4f0ec4","system_id":"levelo_inurba_marseille","lat":43.28876,"lon":5.42525,"is_reserved":false,"is_disabled":false,"rental_uris":{"android":"levelo://app?vid=7a4f9c5b-0770-4973-b065-ff441b4f0ec4","ios":"levelo://app?vid=7a4f9c5b-0770-4973-b065-ff441b4f0ec4"},"vehicle_type_id":"4","last_reported":1777545880,"current_range_meters":6000,"station_id":"st_d3b462108ojc7389ooeg","pricing_plan_id":"cebpf4jnsgd1na2vs0mg"},{"bike_id":"262fc285-b6eb-4eda-9ac1-639b6caaacc5","system_id":"levelo_inurba_marseille","lat":43.32361,"lon":5.3671,"is_reserved":false,"is_disabled":false,"rental_uris":{"android":"levelo://app?vid=262fc285-b6eb-4eda-9ac1-639b6caaacc5","ios":"levelo://app?vid=262fc285-b6eb-4eda-9ac1-639b6caaacc5"},"vehicle_type_id":"4","last_reported":1777545880,"current_range_meters":6000,"station_id":"","pricing_plan_id":"cebpf4jnsgd1na2vs0mg"},{"bike_id":"206f2a89-29fc-4d63-a065-35937f4c246f","system_id":"levelo_inurba_marseille","lat":43.28935,"lon":5.36637,"is_reserved":false,"is_disabled":false,"rental_uris":{"android":"levelo://app?vid=206f2a89-29fc-4d63-a065-35937f4c246f","ios":"levelo://app?vid=206f2a89-29fc-4d63-a065-35937f4c246f"},"vehicle_type_id":"4","last_reported":1777545880,"current_range_meters":6000,"station_id":"ce4bhap2rcd13ifvqek0","pricing_plan_id":"cebpf4jnsgd1na2vs0mg"},{"bike_id":"c6567a1f-9195-4865-9421-b4695ac1649b","system_id":"levelo_inurba_marseille","lat":43.31337,"lon":5.3669,"is_reserved":false,"is_disabled":false,"rental_uris":{"android":"levelo://app?vid=c6567a1f-9195-4865-9421-b4695ac1649b","ios":"levelo://app?vid=c6567a1f-9195-4865-9421-b4695ac1649b"},"vehicle_type_id":"4","last_reported":1777545880,"current_range_meters":6000,"station_id":"ce4bgr92rcd13ifvqc6g","pricing_plan_id":"cebpf4jnsgd1na2vs0mg"},{"bike_id":"9d2be7a6-2388-486f-9ca2-0bd4930f54e4","system_id":"levelo_inurba_marseille","lat":43.29793,"lon":5.38077,"is_reserved":false,"is_disabled":false,"rental_uris":{"android":"levelo://app?vid=9d2be7a6-2388-486f-9ca2-0bd4930f54e4","ios":"levelo://app?vid=9d2be7a6-2388-486f-9ca2-0bd4930f54e4"},"vehicle_type_id":"4","last_reported":1777545880,"current_range_meters":6000,"station_id":"ce4bgip2rcd13ifvqbb0","pricing_plan_id":"cebpf4jnsgd1na2vs0mg"},{"bike_id":"26335112-9b2a-4a27-9ec1-b93b9cc755ad","system_id":"levelo_inurba_marseille","lat":43.30844,"lon":5.41866,"is_reserved":false,"is_disabled":false,"rental_uris":{"android":"levelo://app?vid=26335112-9b2a-4a27-9ec1-b93b9cc755ad","ios":"levelo://app?vid=26335112-9b2a-4a27-9ec1-b93b9cc755ad"},"vehicle_type_id":"4","last_reported":1777545880,"current_range_meters":6000,"station_id":"","pricing_plan_id":"cebpf4jnsgd1na2vs0mg"},{"bike_id":"914c8a97-16af-402e-ae13-1fc2fa431a6f","system_id":"levelo_inurba_marseille","lat":43.26793,"lon":5.39406,"is_reserved":false,"is_disabled":false,"rental_uris":{"android":"levelo://app?vid=914c8a97-16af-402e-ae13-1fc2fa431a6f","ios":"levelo://app?vid=914c8a97-16af-402e-ae13-1fc2fa431a6f"},"vehicle_type_id":"4","last_reported":1777545880,"current_range_meters":6000,"station_id":"ce4bhh12rcd13ifvqfg0","pricing_plan_id":"cebpf4jnsgd1na2vs0mg"},{"bike_id":"795a5c2f-9acc-43c4-b06d-ac57f833e4da","system_id":"levelo_inurba_marseille","lat":43.279417,"lon":5.410571,"is_reserved":false,"is_disabled":false,"rental_uris":{"android":"levelo://app?vid=795a5c2f-9acc-43c4-b06d-ac57f833e4da","ios":"levelo://app?vid=795a5c2f-9acc-43c4-b06d-ac57f833e4da"},"vehicle_type_id":"4","last_reported":1777545880,"current_range_meters":6000,"station_id":"ce4bhnp2rcd13ifvqh0g","pricing_plan_id":"cebpf4jnsgd1na2vs0mg"},{"bike_id":"898944a9-7654-45a2-a2ab-c958d55ca218","system_id":"levelo_inurba_marseille","lat":43.31718,"lon":5.37739,"is_reserved":false,"is_disabled":false,"rental_uris":{"android":"levelo://app?vid=898944a9-7654-45a2-a2ab-c958d55ca218","ios":"levelo://app?vid=898944a9-7654-45a2-a2ab-c958d55ca218"},"vehicle_type_id":"4","last_reported":1777545880,"current_range_meters":6000,"station_id":"ce4bgth2rcd13ifvqch0","pricing_plan_id":"cebpf4jnsgd1na2vs0mg"},{"bike_id":"4c4fd5bf-edd1-4e64-bbba-8e4e3d30b47b","system_id":"levelo_inurba_marseille","lat":43.28884,"lon":5.4306,"is_reserved":false,"is_disabled":false,"rental_uris":{"android":"levelo://app?vid=4c4fd5bf-edd1-4e64-bbba-8e4e3d30b47b","ios":"levelo://app?vid=4c4fd5bf-edd1-4e64-bbba-8e4e3d30b47b"},"vehicle_type_id":"4","last_reported":1777545880,"current_range_meters":6000,"station_id":"","pricing_plan_id":"cebpf4jnsgd1na2vs0mg"},{"bike_id":"3be4a7db-61a4-4555-aa09-c404800b0f79","system_id":"levelo_inurba_marseille","lat":43.33156,"lon":5.37703,"is_reserved":false,"is_disabled":false,"rental_uris":{"android":"levelo://app?vid=3be4a7db-61a4-4555-aa09-c404800b0f79","ios":"levelo://app?vid=3be4a7db-61a4-4555-aa09-c404800b0f79"},"vehicle_type_id":"4","last_reported":1777545880,"current_range_meters":6000,"station_id":"st_d46cu089ee8s73dldbu0","pricing_plan_id":"cebpf4jnsgd1na2vs0mg"},{"bike_id":"60d77da4-6419-429b-9e7a-b2cf161a2f69","system_id":"levelo_inurba_marseille","lat":43.32642,"lon":5.39497,"is_reserved":false,"is_disabled":false,"rental_uris":{"android":"levelo://app?vid=60d77da4-6419-429b-9e7a-b2cf161a2f69","ios":"levelo://app?vid=60d77da4-6419-429b-9e7a-b2cf161a2f69"},"vehicle_type_id":"4","last_reported":1777545880,"current_range_meters":6000,"station_id":"","pricing_plan_id":"cebpf4jnsgd1na2vs0mg"},{"bike_id":"03bf5633-d1aa-42b1-8213-75944514c37a","system_id":"levelo_inurba_marseille","lat":43.25501,"lon":5.37646,"is_reserved":false,"is_disabled":false,"rental_uris":{"android":"levelo://app?vid=03bf5633-d1aa-42b1-8213-75944514c37a","ios":"levelo://app?vid=03bf5633-d1aa-42b1-8213-75944514c37a"},"vehicle_type_id":"4","last_reported":1777545880,"current_range_meters":6000,"station_id":"ce4bhh12rcd13ifvqff0","pricing_plan_id":"cebpf4jnsgd1na2vs0mg"},{"bike_id":"d5388f7a-4e0a-4376-b76b-701e4b281dc2","system_id":"levelo_inurba_marseille","lat":43.27056,"lon":5.4026,"is_reserved":false,"is_disabled":true,"rental_uris":{"android":"levelo://app?vid=d5388f7a-4e0a-4376-b76b-701e4b281dc2","ios":"levelo://app?vid=d5388f7a-4e0a-4376-b76b-701e4b281dc2"},"vehicle_type_id":"4","last_reported":1777545880,"current_range_meters":6000,"station_id":"ce4bhk92rcd13ifvqgc0","pricing_plan_id":"cebpf4jnsgd1na2vs0mg"},{"bike_id":"d97ed6ed-9254-4b2c-9752-a3aaf3378900","system_id":"levelo_inurba_marseille","lat":43.3355,"lon":5.37472,"is_reserved":false,"is_disabled":false,"rental_uris":{"android":"levelo://app?vid=d97ed6ed-9254-4b2c-9752-a3aaf3378900","ios":"levelo://app?vid=d97ed6ed-9254-4b2c-9752-a3aaf3378900"},"vehicle_type_id":"4","last_reported":1777545880,"current_range_meters":6400,"station_id":"st_d46tts09ee8s73dlu43g","pricing_plan_id":"cebpf4jnsgd1na2vs0mg"},{"bike_id":"1a3d543c-80b7-43e6-964f-291211f89e59","system_id":"levelo_inurba_marseille","lat":43.27389,"lon":5.39377,"is_reserved":false,"is_disabled":false,"rental_uris":{"android":"levelo://app?vid=1a3d543c-80b7-43e6-964f-291211f89e59","ios":"levelo://app?vid=1a3d543c-80b7-43e6-964f-291211f89e59"},"vehicle_type_id":"4","last_reported":1777545880,"current_range_meters":6400,"station_id":"ce4bhdp2rcd13ifvqf20","pricing_plan_id":"cebpf4jnsgd1na2vs0mg"},{"bike_id":"1779c4c0-f603-47b9-af0e-89fb3b794de1","system_id":"levelo_inurba_marseille","lat":43.23182,"lon":5.39984,"is_reserved":false,"is_disabled":false,"rental_uris":{"android":"levelo://app?vid=1779c4c0-f603-47b9-af0e-89fb3b794de1","ios":"levelo://app?vid=1779c4c0-f603-47b9-af0e-89fb3b794de1"},"vehicle_type_id":"4","last_reported":1777545880,"current_range_meters":6400,"station_id":"ce4bhn12rcd13ifvqgqg","pricing_plan_id":"cebpf4jnsgd1na2vs0mg"},{"bike_id":"12920c05-0118-474d-b491-7c8f2d6ceb9a","system_id":"levelo_inurba_marseille","lat":43.30164,"lon":5.38082,"is_reserved":false,"is_disabled":false,"rental_uris":{"android":"levelo://app?vid=12920c05-0118-474d-b491-7c8f2d6ceb9a","ios":"levelo://app?vid=12920c05-0118-474d-b491-7c8f2d6ceb9a"},"vehicle_type_id":"4","last_reported":1777545880,"current_range_meters":6400,"station_id":"ce4bgjp2rcd13ifvqbh0","pricing_plan_id":"cebpf4jnsgd1na2vs0mg"},{"bike_id":"0f1f1041-2b59-400b-93bf-7f668473ef67","system_id":"levelo_inurba_marseille","lat":43.23894,"lon":5.37449,"is_reserved":false,"is_disabled":false,"rental_uris":{"android":"levelo://app?vid=0f1f1041-2b59-400b-93bf-7f668473ef67","ios":"levelo://app?vid=0f1f1041-2b59-400b-93bf-7f668473ef67"},"vehicle_type_id":"4","last_reported":1777545880,"current_range_meters":6400,"station_id":"st_d6sm7csbq4hs73f8fpjg","pricing_plan_id":"cebpf4jnsgd1na2vs0mg"},{"bike_id":"0995a256-21d9-4abb-8595-adc4f38c8c67","system_id":"levelo_inurba_marseille","lat":43.25002,"lon":5.38928,"is_reserved":false,"is_disabled":false,"rental_uris":{"android":"levelo://app?vid=0995a256-21d9-4abb-8595-adc4f38c8c67","ios":"levelo://app?vid=0995a256-21d9-4abb-8595-adc4f38c8c67"},"vehicle_type_id":"4","last_reported":1777545880,"current_range_meters":6400,"station_id":"ce4bhgp2rcd13ifvqfd0","pricing_plan_id":"cebpf4jnsgd1na2vs0mg"},{"bike_id":"2aa6be72-ba19-47d3-8ff9-ac215e2ed9cd","system_id":"levelo_inurba_marseille","lat":43.284167,"lon":5.375078,"is_reserved":false,"is_disabled":false,"rental_uris":{"android":"levelo://app?vid=2aa6be72-ba19-47d3-8ff9-ac215e2ed9cd","ios":"levelo://app?vid=2aa6be72-ba19-47d3-8ff9-ac215e2ed9cd"},"vehicle_type_id":"4","last_reported":1777545880,"current_range_meters":6400,"station_id":"ce4bh412rcd13ifvqds0","pricing_plan_id":"cebpf4jnsgd1na2vs0mg"},{"bike_id":"c836b09f-a666-4145-8191-473bc44c6a36","system_id":"levelo_inurba_marseille","lat":43.255772,"lon":5.382272,"is_reserved":false,"is_disabled":true,"rental_uris":{"android":"levelo://app?vid=c836b09f-a666-4145-8191-473bc44c6a36","ios":"levelo://app?vid=c836b09f-a666-4145-8191-473bc44c6a36"},"vehicle_type_id":"4","last_reported":1777545880,"current_range_meters":6400,"station_id":"ce4bhih2rcd13ifvqfs0","pricing_plan_id":"cebpf4jnsgd1na2vs0mg"},{"bike_id":"9b171422-a10e-441a-8d08-0b74298acb49","system_id":"levelo_inurba_marseille","lat":43.28423,"lon":5.34992,"is_reserved":false,"is_disabled":false,"rental_uris":{"android":"levelo://app?vid=9b171422-a10e-441a-8d08-0b74298acb49","ios":"levelo://app?vid=9b171422-a10e-441a-8d08-0b74298acb49"},"vehicle_type_id":"4","last_reported":1777545880,"current_range_meters":6400,"station_id":"ce4bhbh2rcd13ifvqepg","pricing_plan_id":"cebpf4jnsgd1na2vs0mg"},{"bike_id":"46523cb2-6b8e-455f-9277-3808cf80d4d2","system_id":"levelo_inurba_marseille","lat":43.337444,"lon":5.374475,"is_reserved":false,"is_disabled":true,"rental_uris":{"android":"levelo://app?vid=46523cb2-6b8e-455f-9277-3808cf80d4d2","ios":"levelo://app?vid=46523cb2-6b8e-455f-9277-3808cf80d4d2"},"vehicle_type_id":"4","last_reported":1777545880,"current_range_meters":6800,"station_id":"","pricing_plan_id":"cebpf4jnsgd1na2vs0mg"},{"bike_id":"b99d6fe4-b8e7-4ae2-a227-dc144b9f45f9","system_id":"levelo_inurba_marseille","lat":43.29187,"lon":5.38601,"is_reserved":false,"is_disabled":false,"rental_uris":{"android":"levelo://app?vid=b99d6fe4-b8e7-4ae2-a227-dc144b9f45f9","ios":"levelo://app?vid=b99d6fe4-b8e7-4ae2-a227-dc144b9f45f9"},"vehicle_type_id":"4","last_reported":1777545880,"current_range_meters":6800,"station_id":"","pricing_plan_id":"cebpf4jnsgd1na2vs0mg"},{"bike_id":"8ecd22d6-ea16-4947-a7cb-5d0643282d24","system_id":"levelo_inurba_marseille","lat":43.28111,"lon":5.37837,"is_reserved":false,"is_disabled":true,"rental_uris":{"android":"levelo://app?vid=8ecd22d6-ea16-4947-a7cb-5d0643282d24","ios":"levelo://app?vid=8ecd22d6-ea16-4947-a7cb-5d0643282d24"},"vehicle_type_id":"4","last_reported":1777545880,"current_range_meters":6800,"station_id":"ce4bha12rcd13ifvqee0","pricing_plan_id":"cebpf4jnsgd1na2vs0mg"},{"bike_id":"14ffd392-a207-41da-942f-3d5d62a42696","system_id":"levelo_inurba_marseille","lat":43.31891,"lon":5.36937,"is_reserved":false,"is_disabled":false,"rental_uris":{"android":"levelo://app?vid=14ffd392-a207-41da-942f-3d5d62a42696","ios":"levelo://app?vid=14ffd392-a207-41da-942f-3d5d62a42696"},"vehicle_type_id":"4","last_reported":1777545880,"current_range_meters":6800,"station_id":"st_d6o2h0d0559c73evc1b0","pricing_plan_id":"cebpf4jnsgd1na2vs0mg"},{"bike_id":"00ff0799-7689-45c9-8cd0-76bddacfdb63","system_id":"levelo_inurba_marseille","lat":43.2816,"lon":5.42651,"is_reserved":false,"is_disabled":false,"rental_uris":{"android":"levelo://app?vid=00ff0799-7689-45c9-8cd0-76bddacfdb63","ios":"levelo://app?vid=00ff0799-7689-45c9-8cd0-76bddacfdb63"},"vehicle_type_id":"4","last_reported":1777545880,"current_range_meters":6800,"station_id":"ce4bhnh2rcd13ifvqgug","pricing_plan_id":"cebpf4jnsgd1na2vs0mg"},{"bike_id":"9c22d754-51e0-4d58-808c-c01767e5c2d9","system_id":"levelo_inurba_marseille","lat":43.31901,"lon":5.3681,"is_reserved":false,"is_disabled":false,"rental_uris":{"android":"levelo://app?vid=9c22d754-51e0-4d58-808c-c01767e5c2d9","ios":"levelo://app?vid=9c22d754-51e0-4d58-808c-c01767e5c2d9"},"vehicle_type_id":"4","last_reported":1777545880,"current_range_meters":6800,"station_id":"st_d6o2h0d0559c73evc1b0","pricing_plan_id":"cebpf4jnsgd1na2vs0mg"},{"bike_id":"d32ade7a-bcbc-4e25-89ce-809fc97ba7a2","system_id":"levelo_inurba_marseille","lat":43.26215,"lon":5.37425,"is_reserved":false,"is_disabled":false,"rental_uris":{"android":"levelo://app?vid=d32ade7a-bcbc-4e25-89ce-809fc97ba7a2","ios":"levelo://app?vid=d32ade7a-bcbc-4e25-89ce-809fc97ba7a2"},"vehicle_type_id":"4","last_reported":1777545880,"current_range_meters":6800,"station_id":"ce4bhgp2rcd13ifvqfc0","pricing_plan_id":"cebpf4jnsgd1na2vs0mg"},{"bike_id":"922264b1-c73c-4fd0-af54-9ef74e08be9a","system_id":"levelo_inurba_marseille","lat":43.27322,"lon":5.39079,"is_reserved":false,"is_disabled":false,"rental_uris":{"android":"levelo://app?vid=922264b1-c73c-4fd0-af54-9ef74e08be9a","ios":"levelo://app?vid=922264b1-c73c-4fd0-af54-9ef74e08be9a"},"vehicle_type_id":"4","last_reported":1777545880,"current_range_meters":6800,"station_id":"ce4bhgp2rcd13ifvqfe0","pricing_plan_id":"cebpf4jnsgd1na2vs0mg"},{"bike_id":"80fb7e56-e04f-4e29-bbac-af0e4969fc7a","system_id":"levelo_inurba_marseille","lat":43.30954,"lon":5.39038,"is_reserved":false,"is_disabled":false,"rental_uris":{"android":"levelo://app?vid=80fb7e56-e04f-4e29-bbac-af0e4969fc7a","ios":"levelo://app?vid=80fb7e56-e04f-4e29-bbac-af0e4969fc7a"},"vehicle_type_id":"4","last_reported":1777545880,"current_range_meters":6800,"station_id":"ce4bgup2rcd13ifvqco0","pricing_plan_id":"cebpf4jnsgd1na2vs0mg"},{"bike_id":"b04960b4-7dbe-4eee-b120-c6f4fb4bea27","system_id":"levelo_inurba_marseille","lat":43.231669,"lon":5.436457,"is_reserved":false,"is_disabled":false,"rental_uris":{"android":"levelo://app?vid=b04960b4-7dbe-4eee-b120-c6f4fb4bea27","ios":"levelo://app?vid=b04960b4-7dbe-4eee-b120-c6f4fb4bea27"},"vehicle_type_id":"4","last_reported":1777545880,"current_range_meters":6800,"station_id":"ce4bhmp2rcd13ifvqgog","pricing_plan_id":"cebpf4jnsgd1na2vs0mg"},{"bike_id":"dd649e74-ed5e-4ce6-b6fc-191746436a7b","system_id":"levelo_inurba_marseille","lat":43.25084,"lon":5.42494,"is_reserved":false,"is_disabled":false,"rental_uris":{"android":"levelo://app?vid=dd649e74-ed5e-4ce6-b6fc-191746436a7b","ios":"levelo://app?vid=dd649e74-ed5e-4ce6-b6fc-191746436a7b"},"vehicle_type_id":"4","last_reported":1777545880,"current_range_meters":6800,"station_id":"","pricing_plan_id":"cebpf4jnsgd1na2vs0mg"},{"bike_id":"accde688-bd58-46f8-80fd-d133494e9999","system_id":"levelo_inurba_marseille","lat":43.2958,"lon":5.36743,"is_reserved":false,"is_disabled":false,"rental_uris":{"android":"levelo://app?vid=accde688-bd58-46f8-80fd-d133494e9999","ios":"levelo://app?vid=accde688-bd58-46f8-80fd-d133494e9999"},"vehicle_type_id":"4","last_reported":1777545880,"current_range_meters":6800,"station_id":"ce4bgph2rcd13ifvqc2g","pricing_plan_id":"cebpf4jnsgd1na2vs0mg"},{"bike_id":"e73bbf99-00d2-4d67-a60d-8479e54b3f59","system_id":"levelo_inurba_marseille","lat":43.30528,"lon":5.3656,"is_reserved":false,"is_disabled":false,"rental_uris":{"android":"levelo://app?vid=e73bbf99-00d2-4d67-a60d-8479e54b3f59","ios":"levelo://app?vid=e73bbf99-00d2-4d67-a60d-8479e54b3f59"},"vehicle_type_id":"4","last_reported":1777545880,"current_range_meters":7200,"station_id":"ce4bgs12rcd13ifvqcag","pricing_plan_id":"cebpf4jnsgd1na2vs0mg"},{"bike_id":"aa1066a2-52ee-4b5e-9ea8-f5bfb38bf0a4","system_id":"levelo_inurba_marseille","lat":43.32348,"lon":5.36735,"is_reserved":false,"is_disabled":false,"rental_uris":{"android":"levelo://app?vid=aa1066a2-52ee-4b5e-9ea8-f5bfb38bf0a4","ios":"levelo://app?vid=aa1066a2-52ee-4b5e-9ea8-f5bfb38bf0a4"},"vehicle_type_id":"4","last_reported":1777545880,"current_range_meters":7200,"station_id":"ce4bhsh2rcd13ifvqi2g","pricing_plan_id":"cebpf4jnsgd1na2vs0mg"},{"bike_id":"9ac79960-6ea7-499d-96a2-8173e74749ce","system_id":"levelo_inurba_marseille","lat":43.32486,"lon":5.36544,"is_reserved":false,"is_disabled":false,"rental_uris":{"android":"levelo://app?vid=9ac79960-6ea7-499d-96a2-8173e74749ce","ios":"levelo://app?vid=9ac79960-6ea7-499d-96a2-8173e74749ce"},"vehicle_type_id":"4","last_reported":1777545880,"current_range_meters":7200,"station_id":"ce4bhs12rcd13ifvqhvg","pricing_plan_id":"cebpf4jnsgd1na2vs0mg"},{"bike_id":"ad14f08d-d596-4e66-ba87-759c4d8c2c33","system_id":"levelo_inurba_marseille","lat":43.26517,"lon":5.41904,"is_reserved":false,"is_disabled":false,"rental_uris":{"android":"levelo://app?vid=ad14f08d-d596-4e66-ba87-759c4d8c2c33","ios":"levelo://app?vid=ad14f08d-d596-4e66-ba87-759c4d8c2c33"},"vehicle_type_id":"4","last_reported":1777545880,"current_range_meters":7200,"station_id":"","pricing_plan_id":"cebpf4jnsgd1na2vs0mg"},{"bike_id":"c10e9ddb-36f4-40a9-a01e-246729b8793e","system_id":"levelo_inurba_marseille","lat":43.23391,"lon":5.41245,"is_reserved":false,"is_disabled":false,"rental_uris":{"android":"levelo://app?vid=c10e9ddb-36f4-40a9-a01e-246729b8793e","ios":"levelo://app?vid=c10e9ddb-36f4-40a9-a01e-246729b8793e"},"vehicle_type_id":"4","last_reported":1777545880,"current_range_meters":7200,"station_id":"st_d75pvndhf9lc73cqq3eg","pricing_plan_id":"cebpf4jnsgd1na2vs0mg"},{"bike_id":"73ddb866-5c7b-49bc-a174-3923f7263bab","system_id":"levelo_inurba_marseille","lat":43.29624,"lon":5.35993,"is_reserved":false,"is_disabled":false,"rental_uris":{"android":"levelo://app?vid=73ddb866-5c7b-49bc-a174-3923f7263bab","ios":"levelo://app?vid=73ddb866-5c7b-49bc-a174-3923f7263bab"},"vehicle_type_id":"4","last_reported":1777545880,"current_range_meters":7200,"station_id":"","pricing_plan_id":"cebpf4jnsgd1na2vs0mg"},{"bike_id":"c290d590-8a83-417f-8a9a-3c57f8e0feb9","system_id":"levelo_inurba_marseille","lat":43.28701,"lon":5.37376,"is_reserved":false,"is_disabled":false,"rental_uris":{"android":"levelo://app?vid=c290d590-8a83-417f-8a9a-3c57f8e0feb9","ios":"levelo://app?vid=c290d590-8a83-417f-8a9a-3c57f8e0feb9"},"vehicle_type_id":"4","last_reported":1777545880,"current_range_meters":7200,"station_id":"ce4bh3p2rcd13ifvqdq0","pricing_plan_id":"cebpf4jnsgd1na2vs0mg"},{"bike_id":"8dd331a7-fb5f-49f0-98bd-5e07152fbb85","system_id":"levelo_inurba_marseille","lat":43.25936,"lon":5.40891,"is_reserved":false,"is_disabled":false,"rental_uris":{"android":"levelo://app?vid=8dd331a7-fb5f-49f0-98bd-5e07152fbb85","ios":"levelo://app?vid=8dd331a7-fb5f-49f0-98bd-5e07152fbb85"},"vehicle_type_id":"4","last_reported":1777545880,"current_range_meters":7200,"station_id":"ce4bhm92rcd13ifvqglg","pricing_plan_id":"cebpf4jnsgd1na2vs0mg"},{"bike_id":"160e418f-f550-431c-8292-fbceee2d8472","system_id":"levelo_inurba_marseille","lat":43.30142,"lon":5.43105,"is_reserved":false,"is_disabled":false,"rental_uris":{"android":"levelo://app?vid=160e418f-f550-431c-8292-fbceee2d8472","ios":"levelo://app?vid=160e418f-f550-431c-8292-fbceee2d8472"},"vehicle_type_id":"4","last_reported":1777545880,"current_range_meters":7200,"station_id":"st_d3js3co5814s73ftftug","pricing_plan_id":"cebpf4jnsgd1na2vs0mg"},{"bike_id":"4da23bbf-8aab-4991-bb00-1a569a4581cc","system_id":"levelo_inurba_marseille","lat":43.27066,"lon":5.42252,"is_reserved":false,"is_disabled":false,"rental_uris":{"android":"levelo://app?vid=4da23bbf-8aab-4991-bb00-1a569a4581cc","ios":"levelo://app?vid=4da23bbf-8aab-4991-bb00-1a569a4581cc"},"vehicle_type_id":"4","last_reported":1777545880,"current_range_meters":7200,"station_id":"ce4bhk92rcd13ifvqgb0","pricing_plan_id":"cebpf4jnsgd1na2vs0mg"},{"bike_id":"786a468e-df89-4701-b233-98e82dabab4a","system_id":"levelo_inurba_marseille","lat":43.23145,"lon":5.4371,"is_reserved":false,"is_disabled":false,"rental_uris":{"android":"levelo://app?vid=786a468e-df89-4701-b233-98e82dabab4a","ios":"levelo://app?vid=786a468e-df89-4701-b233-98e82dabab4a"},"vehicle_type_id":"4","last_reported":1777545880,"current_range_meters":7200,"station_id":"ce4bhmp2rcd13ifvqgog","pricing_plan_id":"cebpf4jnsgd1na2vs0mg"},{"bike_id":"f8051ac1-d495-44e4-9d5d-83f59af47834","system_id":"levelo_inurba_marseille","lat":43.31124,"lon":5.3775,"is_reserved":false,"is_disabled":false,"rental_uris":{"android":"levelo://app?vid=f8051ac1-d495-44e4-9d5d-83f59af47834","ios":"levelo://app?vid=f8051ac1-d495-44e4-9d5d-83f59af47834"},"vehicle_type_id":"4","last_reported":1777545880,"current_range_meters":7200,"station_id":"ce4bgt92rcd13ifvqcg0","pricing_plan_id":"cebpf4jnsgd1na2vs0mg"},{"bike_id":"f0b54265-1a28-4c3b-8b4d-d1ed828da140","system_id":"levelo_inurba_marseille","lat":43.31488,"lon":5.37311,"is_reserved":false,"is_disabled":false,"rental_uris":{"android":"levelo://app?vid=f0b54265-1a28-4c3b-8b4d-d1ed828da140","ios":"levelo://app?vid=f0b54265-1a28-4c3b-8b4d-d1ed828da140"},"vehicle_type_id":"4","last_reported":1777545880,"current_range_meters":7200,"station_id":"ce4bgt12rcd13ifvqcd0","pricing_plan_id":"cebpf4jnsgd1na2vs0mg"},{"bike_id":"f55c05d2-25a9-449d-9ca4-3b92ad23055f","system_id":"levelo_inurba_marseille","lat":43.2315,"lon":5.43706,"is_reserved":false,"is_disabled":false,"rental_uris":{"android":"levelo://app?vid=f55c05d2-25a9-449d-9ca4-3b92ad23055f","ios":"levelo://app?vid=f55c05d2-25a9-449d-9ca4-3b92ad23055f"},"vehicle_type_id":"4","last_reported":1777545880,"current_range_meters":7200,"station_id":"ce4bhmp2rcd13ifvqgog","pricing_plan_id":"cebpf4jnsgd1na2vs0mg"},{"bike_id":"bfd49756-dc4f-43bd-a719-aa0131c31315","system_id":"levelo_inurba_marseille","lat":43.30474,"lon":5.36486,"is_reserved":false,"is_disabled":false,"rental_uris":{"android":"levelo://app?vid=bfd49756-dc4f-43bd-a719-aa0131c31315","ios":"levelo://app?vid=bfd49756-dc4f-43bd-a719-aa0131c31315"},"vehicle_type_id":"4","last_reported":1777545880,"current_range_meters":7200,"station_id":"","pricing_plan_id":"cebpf4jnsgd1na2vs0mg"},{"bike_id":"76b76a5a-e9c0-44f3-94af-8de1a567c89d","system_id":"levelo_inurba_marseille","lat":43.22535,"lon":5.34839,"is_reserved":false,"is_disabled":false,"rental_uris":{"android":"levelo://app?vid=76b76a5a-e9c0-44f3-94af-8de1a567c89d","ios":"levelo://app?vid=76b76a5a-e9c0-44f3-94af-8de1a567c89d"},"vehicle_type_id":"4","last_reported":1777545880,"current_range_meters":7200,"station_id":"st_cvj5dfep6f1abm77gieg","pricing_plan_id":"cebpf4jnsgd1na2vs0mg"},{"bike_id":"8ea8dbbc-8e7b-47cd-b704-2a983d43c34a","system_id":"levelo_inurba_marseille","lat":43.314906,"lon":5.373045,"is_reserved":false,"is_disabled":false,"rental_uris":{"android":"levelo://app?vid=8ea8dbbc-8e7b-47cd-b704-2a983d43c34a","ios":"levelo://app?vid=8ea8dbbc-8e7b-47cd-b704-2a983d43c34a"},"vehicle_type_id":"4","last_reported":1777545880,"current_range_meters":8000,"station_id":"ce4bgt12rcd13ifvqcd0","pricing_plan_id":"cebpf4jnsgd1na2vs0mg"},{"bike_id":"9c85ea94-e0db-4d3e-baca-fa152ee440d3","system_id":"levelo_inurba_marseille","lat":43.25582,"lon":5.38231,"is_reserved":false,"is_disabled":false,"rental_uris":{"android":"levelo://app?vid=9c85ea94-e0db-4d3e-baca-fa152ee440d3","ios":"levelo://app?vid=9c85ea94-e0db-4d3e-baca-fa152ee440d3"},"vehicle_type_id":"4","last_reported":1777545880,"current_range_meters":8000,"station_id":"ce4bhih2rcd13ifvqfs0","pricing_plan_id":"cebpf4jnsgd1na2vs0mg"},{"bike_id":"3995b84f-572e-40b4-bef0-aa0d3ccae836","system_id":"levelo_inurba_marseille","lat":43.29592,"lon":5.36764,"is_reserved":false,"is_disabled":true,"rental_uris":{"android":"levelo://app?vid=3995b84f-572e-40b4-bef0-aa0d3ccae836","ios":"levelo://app?vid=3995b84f-572e-40b4-bef0-aa0d3ccae836"},"vehicle_type_id":"4","last_reported":1777545880,"current_range_meters":8000,"station_id":"ce4bgph2rcd13ifvqc2g","pricing_plan_id":"cebpf4jnsgd1na2vs0mg"},{"bike_id":"5cc847c3-c7ab-4803-a64a-cfb2e18548c3","system_id":"levelo_inurba_marseille","lat":43.29642,"lon":5.37004,"is_reserved":false,"is_disabled":false,"rental_uris":{"android":"levelo://app?vid=5cc847c3-c7ab-4803-a64a-cfb2e18548c3","ios":"levelo://app?vid=5cc847c3-c7ab-4803-a64a-cfb2e18548c3"},"vehicle_type_id":"4","last_reported":1777545880,"current_range_meters":8000,"station_id":"","pricing_plan_id":"cebpf4jnsgd1na2vs0mg"},{"bike_id":"cadcdc4c-2148-4dec-a8c2-bb77e59fbd52","system_id":"levelo_inurba_marseille","lat":43.28109,"lon":5.37834,"is_reserved":false,"is_disabled":false,"rental_uris":{"android":"levelo://app?vid=cadcdc4c-2148-4dec-a8c2-bb77e59fbd52","ios":"levelo://app?vid=cadcdc4c-2148-4dec-a8c2-bb77e59fbd52"},"vehicle_type_id":"4","last_reported":1777545880,"current_range_meters":8000,"station_id":"ce4bha12rcd13ifvqee0","pricing_plan_id":"cebpf4jnsgd1na2vs0mg"},{"bike_id":"21d1f734-a18c-4f60-9e31-937253d0af36","system_id":"levelo_inurba_marseille","lat":43.26552,"lon":5.37281,"is_reserved":false,"is_disabled":false,"rental_uris":{"android":"levelo://app?vid=21d1f734-a18c-4f60-9e31-937253d0af36","ios":"levelo://app?vid=21d1f734-a18c-4f60-9e31-937253d0af36"},"vehicle_type_id":"4","last_reported":1777545880,"current_range_meters":8000,"station_id":"ce4bhg12rcd13ifvqf70","pricing_plan_id":"cebpf4jnsgd1na2vs0mg"},{"bike_id":"5ff83e24-614c-4682-b768-9f3bd4a17095","system_id":"levelo_inurba_marseille","lat":43.26213,"lon":5.38771,"is_reserved":false,"is_disabled":false,"rental_uris":{"android":"levelo://app?vid=5ff83e24-614c-4682-b768-9f3bd4a17095","ios":"levelo://app?vid=5ff83e24-614c-4682-b768-9f3bd4a17095"},"vehicle_type_id":"4","last_reported":1777545880,"current_range_meters":8000,"station_id":"","pricing_plan_id":"cebpf4jnsgd1na2vs0mg"},{"bike_id":"c7456257-172f-470f-9192-9b6a24a800ce","system_id":"levelo_inurba_marseille","lat":43.29617,"lon":5.37718,"is_reserved":false,"is_disabled":false,"rental_uris":{"android":"levelo://app?vid=c7456257-172f-470f-9192-9b6a24a800ce","ios":"levelo://app?vid=c7456257-172f-470f-9192-9b6a24a800ce"},"vehicle_type_id":"4","last_reported":1777545880,"current_range_meters":8000,"station_id":"ce4bgi92rcd13ifvqb90","pricing_plan_id":"cebpf4jnsgd1na2vs0mg"},{"bike_id":"91678251-0dc2-4a32-950d-1cd81af8140a","system_id":"levelo_inurba_marseille","lat":43.30201,"lon":5.36612,"is_reserved":false,"is_disabled":false,"rental_uris":{"android":"levelo://app?vid=91678251-0dc2-4a32-950d-1cd81af8140a","ios":"levelo://app?vid=91678251-0dc2-4a32-950d-1cd81af8140a"},"vehicle_type_id":"4","last_reported":1777545880,"current_range_meters":8000,"station_id":"ce4bgrh2rcd13ifvqc8g","pricing_plan_id":"cebpf4jnsgd1na2vs0mg"},{"bike_id":"970e3ce7-6c16-42b9-808a-b6e6166dc42e","system_id":"levelo_inurba_marseille","lat":43.29013,"lon":5.35606,"is_reserved":false,"is_disabled":false,"rental_uris":{"android":"levelo://app?vid=970e3ce7-6c16-42b9-808a-b6e6166dc42e","ios":"levelo://app?vid=970e3ce7-6c16-42b9-808a-b6e6166dc42e"},"vehicle_type_id":"4","last_reported":1777545880,"current_range_meters":8000,"station_id":"ce4bhb92rcd13ifvqen0","pricing_plan_id":"cebpf4jnsgd1na2vs0mg"},{"bike_id":"b95935e1-f9eb-43c7-ad9c-aa899fe013d4","system_id":"levelo_inurba_marseille","lat":43.25014,"lon":5.38932,"is_reserved":false,"is_disabled":false,"rental_uris":{"android":"levelo://app?vid=b95935e1-f9eb-43c7-ad9c-aa899fe013d4","ios":"levelo://app?vid=b95935e1-f9eb-43c7-ad9c-aa899fe013d4"},"vehicle_type_id":"4","last_reported":1777545880,"current_range_meters":8000,"station_id":"ce4bhgp2rcd13ifvqfd0","pricing_plan_id":"cebpf4jnsgd1na2vs0mg"},{"bike_id":"a2a694ab-bd57-45a8-a651-048e4cefae01","system_id":"levelo_inurba_marseille","lat":43.28712,"lon":5.4667,"is_reserved":false,"is_disabled":false,"rental_uris":{"android":"levelo://app?vid=a2a694ab-bd57-45a8-a651-048e4cefae01","ios":"levelo://app?vid=a2a694ab-bd57-45a8-a651-048e4cefae01"},"vehicle_type_id":"4","last_reported":1777545880,"current_range_meters":8000,"station_id":"st_d6tc3vkotcvc738tfjhg","pricing_plan_id":"cebpf4jnsgd1na2vs0mg"},{"bike_id":"a433c67c-f10c-497e-bf30-7dd8878bb60b","system_id":"levelo_inurba_marseille","lat":43.29066,"lon":5.37157,"is_reserved":false,"is_disabled":false,"rental_uris":{"android":"levelo://app?vid=a433c67c-f10c-497e-bf30-7dd8878bb60b","ios":"levelo://app?vid=a433c67c-f10c-497e-bf30-7dd8878bb60b"},"vehicle_type_id":"4","last_reported":1777545880,"current_range_meters":8000,"station_id":"ce4bh5p2rcd13ifvqe4g","pricing_plan_id":"cebpf4jnsgd1na2vs0mg"},{"bike_id":"96c1677c-ba34-44c4-b8f0-676f4f85c27f","system_id":"levelo_inurba_marseille","lat":43.29452,"lon":5.38806,"is_reserved":false,"is_disabled":false,"rental_uris":{"android":"levelo://app?vid=96c1677c-ba34-44c4-b8f0-676f4f85c27f","ios":"levelo://app?vid=96c1677c-ba34-44c4-b8f0-676f4f85c27f"},"vehicle_type_id":"4","last_reported":1777545880,"current_range_meters":8000,"station_id":"","pricing_plan_id":"cebpf4jnsgd1na2vs0mg"},{"bike_id":"dfa879e1-a648-4914-9fb1-704bf37e5f28","system_id":"levelo_inurba_marseille","lat":43.26366,"lon":5.41077,"is_reserved":false,"is_disabled":false,"rental_uris":{"android":"levelo://app?vid=dfa879e1-a648-4914-9fb1-704bf37e5f28","ios":"levelo://app?vid=dfa879e1-a648-4914-9fb1-704bf37e5f28"},"vehicle_type_id":"4","last_reported":1777545880,"current_range_meters":8000,"station_id":"st_d4e5ca6na9uc73bfl5fg","pricing_plan_id":"cebpf4jnsgd1na2vs0mg"},{"bike_id":"d5cda9f5-de5e-48fd-b8fa-56c4fdce3a61","system_id":"levelo_inurba_marseille","lat":43.30455,"lon":5.36517,"is_reserved":false,"is_disabled":false,"rental_uris":{"android":"levelo://app?vid=d5cda9f5-de5e-48fd-b8fa-56c4fdce3a61","ios":"levelo://app?vid=d5cda9f5-de5e-48fd-b8fa-56c4fdce3a61"},"vehicle_type_id":"4","last_reported":1777545880,"current_range_meters":8000,"station_id":"","pricing_plan_id":"cebpf4jnsgd1na2vs0mg"},{"bike_id":"2db651d7-7b81-464a-bb48-581bf1e0c30d","system_id":"levelo_inurba_marseille","lat":43.24059,"lon":5.37791,"is_reserved":false,"is_disabled":false,"rental_uris":{"android":"levelo://app?vid=2db651d7-7b81-464a-bb48-581bf1e0c30d","ios":"levelo://app?vid=2db651d7-7b81-464a-bb48-581bf1e0c30d"},"vehicle_type_id":"4","last_reported":1777545880,"current_range_meters":8400,"station_id":"ce4bhnp2rcd13ifvqgvg","pricing_plan_id":"cebpf4jnsgd1na2vs0mg"},{"bike_id":"21528401-9eb2-45f2-876b-7cc1262785a9","system_id":"levelo_inurba_marseille","lat":43.29254,"lon":5.37608,"is_reserved":false,"is_disabled":false,"rental_uris":{"android":"levelo://app?vid=21528401-9eb2-45f2-876b-7cc1262785a9","ios":"levelo://app?vid=21528401-9eb2-45f2-876b-7cc1262785a9"},"vehicle_type_id":"4","last_reported":1777545880,"current_range_meters":8400,"station_id":"ce4bgi12rcd13ifvqb80","pricing_plan_id":"cebpf4jnsgd1na2vs0mg"},{"bike_id":"95f47514-1d7f-4013-95fe-a0916f7cc45a","system_id":"levelo_inurba_marseille","lat":43.33547,"lon":5.37466,"is_reserved":false,"is_disabled":false,"rental_uris":{"android":"levelo://app?vid=95f47514-1d7f-4013-95fe-a0916f7cc45a","ios":"levelo://app?vid=95f47514-1d7f-4013-95fe-a0916f7cc45a"},"vehicle_type_id":"4","last_reported":1777545880,"current_range_meters":8400,"station_id":"st_d46tts09ee8s73dlu43g","pricing_plan_id":"cebpf4jnsgd1na2vs0mg"},{"bike_id":"2a30ef86-d957-4e3e-8110-748934b69781","system_id":"levelo_inurba_marseille","lat":43.30787,"lon":5.38135,"is_reserved":false,"is_disabled":false,"rental_uris":{"android":"levelo://app?vid=2a30ef86-d957-4e3e-8110-748934b69781","ios":"levelo://app?vid=2a30ef86-d957-4e3e-8110-748934b69781"},"vehicle_type_id":"4","last_reported":1777545880,"current_range_meters":8400,"station_id":"ce4bgt12rcd13ifvqce0","pricing_plan_id":"cebpf4jnsgd1na2vs0mg"},{"bike_id":"37728412-9808-4848-87a6-e43dab59174b","system_id":"levelo_inurba_marseille","lat":43.27181,"lon":5.40997,"is_reserved":false,"is_disabled":false,"rental_uris":{"android":"levelo://app?vid=37728412-9808-4848-87a6-e43dab59174b","ios":"levelo://app?vid=37728412-9808-4848-87a6-e43dab59174b"},"vehicle_type_id":"4","last_reported":1777545880,"current_range_meters":8400,"station_id":"ce4bhl12rcd13ifvqgf0","pricing_plan_id":"cebpf4jnsgd1na2vs0mg"},{"bike_id":"c76a4b5d-7caf-4e63-804a-3df554f9e335","system_id":"levelo_inurba_marseille","lat":43.30143,"lon":5.39877,"is_reserved":false,"is_disabled":true,"rental_uris":{"android":"levelo://app?vid=c76a4b5d-7caf-4e63-804a-3df554f9e335","ios":"levelo://app?vid=c76a4b5d-7caf-4e63-804a-3df554f9e335"},"vehicle_type_id":"4","last_reported":1777545880,"current_range_meters":8400,"station_id":"ce4bh0h2rcd13ifvqd40","pricing_plan_id":"cebpf4jnsgd1na2vs0mg"},{"bike_id":"b343647a-8af9-49ae-98e6-438f68dffe33","system_id":"levelo_inurba_marseille","lat":43.29226,"lon":5.36067,"is_reserved":false,"is_disabled":false,"rental_uris":{"android":"levelo://app?vid=b343647a-8af9-49ae-98e6-438f68dffe33","ios":"levelo://app?vid=b343647a-8af9-49ae-98e6-438f68dffe33"},"vehicle_type_id":"4","last_reported":1777545880,"current_range_meters":8400,"station_id":"ce4bhbh2rcd13ifvqeqg","pricing_plan_id":"cebpf4jnsgd1na2vs0mg"},{"bike_id":"3a4ab97e-f59c-440e-a1c5-fc235ca93bc2","system_id":"levelo_inurba_marseille","lat":43.24657,"lon":5.38155,"is_reserved":false,"is_disabled":false,"rental_uris":{"android":"levelo://app?vid=3a4ab97e-f59c-440e-a1c5-fc235ca93bc2","ios":"levelo://app?vid=3a4ab97e-f59c-440e-a1c5-fc235ca93bc2"},"vehicle_type_id":"4","last_reported":1777545880,"current_range_meters":8400,"station_id":"ce4bhih2rcd13ifvqfr0","pricing_plan_id":"cebpf4jnsgd1na2vs0mg"},{"bike_id":"85e36856-0790-4f56-a9ce-e62a932b0182","system_id":"levelo_inurba_marseille","lat":43.297974,"lon":5.380859,"is_reserved":false,"is_disabled":false,"rental_uris":{"android":"levelo://app?vid=85e36856-0790-4f56-a9ce-e62a932b0182","ios":"levelo://app?vid=85e36856-0790-4f56-a9ce-e62a932b0182"},"vehicle_type_id":"4","last_reported":1777545880,"current_range_meters":8400,"station_id":"ce4bgip2rcd13ifvqbb0","pricing_plan_id":"cebpf4jnsgd1na2vs0mg"},{"bike_id":"d580219f-6289-459e-b6c8-186e2ecce599","system_id":"levelo_inurba_marseille","lat":43.23149,"lon":5.43707,"is_reserved":false,"is_disabled":false,"rental_uris":{"android":"levelo://app?vid=d580219f-6289-459e-b6c8-186e2ecce599","ios":"levelo://app?vid=d580219f-6289-459e-b6c8-186e2ecce599"},"vehicle_type_id":"4","last_reported":1777545880,"current_range_meters":8400,"station_id":"ce4bhmp2rcd13ifvqgog","pricing_plan_id":"cebpf4jnsgd1na2vs0mg"},{"bike_id":"bd381285-9688-4b86-bb58-500e4f0f2544","system_id":"levelo_inurba_marseille","lat":43.23328,"lon":5.39938,"is_reserved":false,"is_disabled":false,"rental_uris":{"android":"levelo://app?vid=bd381285-9688-4b86-bb58-500e4f0f2544","ios":"levelo://app?vid=bd381285-9688-4b86-bb58-500e4f0f2544"},"vehicle_type_id":"4","last_reported":1777545880,"current_range_meters":8400,"station_id":"","pricing_plan_id":"cebpf4jnsgd1na2vs0mg"},{"bike_id":"d2d2e7f5-75cd-42b3-8b6f-6203421c9e06","system_id":"levelo_inurba_marseille","lat":43.292,"lon":5.35974,"is_reserved":false,"is_disabled":true,"rental_uris":{"android":"levelo://app?vid=d2d2e7f5-75cd-42b3-8b6f-6203421c9e06","ios":"levelo://app?vid=d2d2e7f5-75cd-42b3-8b6f-6203421c9e06"},"vehicle_type_id":"4","last_reported":1777545880,"current_range_meters":8400,"station_id":"ce4bhbh2rcd13ifvqeqg","pricing_plan_id":"cebpf4jnsgd1na2vs0mg"},{"bike_id":"290b5a2b-62c9-4a20-957f-8f1c3289cd94","system_id":"levelo_inurba_marseille","lat":43.30188,"lon":5.37439,"is_reserved":false,"is_disabled":false,"rental_uris":{"android":"levelo://app?vid=290b5a2b-62c9-4a20-957f-8f1c3289cd94","ios":"levelo://app?vid=290b5a2b-62c9-4a20-957f-8f1c3289cd94"},"vehicle_type_id":"4","last_reported":1777545880,"current_range_meters":8400,"station_id":"ce4bgs92rcd13ifvqcc0","pricing_plan_id":"cebpf4jnsgd1na2vs0mg"},{"bike_id":"9735e9f8-89f7-4ab4-95a3-2c8c398e9b30","system_id":"levelo_inurba_marseille","lat":43.29008,"lon":5.3561,"is_reserved":false,"is_disabled":false,"rental_uris":{"android":"levelo://app?vid=9735e9f8-89f7-4ab4-95a3-2c8c398e9b30","ios":"levelo://app?vid=9735e9f8-89f7-4ab4-95a3-2c8c398e9b30"},"vehicle_type_id":"4","last_reported":1777545880,"current_range_meters":8400,"station_id":"ce4bhb92rcd13ifvqen0","pricing_plan_id":"cebpf4jnsgd1na2vs0mg"},{"bike_id":"2877dfd1-6b08-4f8b-ad00-5f67c5b1947f","system_id":"levelo_inurba_marseille","lat":43.2901,"lon":5.35619,"is_reserved":false,"is_disabled":false,"rental_uris":{"android":"levelo://app?vid=2877dfd1-6b08-4f8b-ad00-5f67c5b1947f","ios":"levelo://app?vid=2877dfd1-6b08-4f8b-ad00-5f67c5b1947f"},"vehicle_type_id":"4","last_reported":1777545880,"current_range_meters":8400,"station_id":"ce4bhb92rcd13ifvqen0","pricing_plan_id":"cebpf4jnsgd1na2vs0mg"},{"bike_id":"b3a0c7ef-eaef-4e8c-be67-257dd8855170","system_id":"levelo_inurba_marseille","lat":43.29521,"lon":5.37523,"is_reserved":false,"is_disabled":false,"rental_uris":{"android":"levelo://app?vid=b3a0c7ef-eaef-4e8c-be67-257dd8855170","ios":"levelo://app?vid=b3a0c7ef-eaef-4e8c-be67-257dd8855170"},"vehicle_type_id":"4","last_reported":1777545880,"current_range_meters":8400,"station_id":"ce4bgkp2rcd13ifvqbmg","pricing_plan_id":"cebpf4jnsgd1na2vs0mg"},{"bike_id":"7d58de23-44be-4dd4-a60b-ef501bc2cc74","system_id":"levelo_inurba_marseille","lat":43.29615,"lon":5.37066,"is_reserved":false,"is_disabled":false,"rental_uris":{"android":"levelo://app?vid=7d58de23-44be-4dd4-a60b-ef501bc2cc74","ios":"levelo://app?vid=7d58de23-44be-4dd4-a60b-ef501bc2cc74"},"vehicle_type_id":"4","last_reported":1777545880,"current_range_meters":8800,"station_id":"","pricing_plan_id":"cebpf4jnsgd1na2vs0mg"},{"bike_id":"335fc8dc-ad2f-4253-b0e2-b10d3d2d0173","system_id":"levelo_inurba_marseille","lat":43.284888,"lon":5.385584,"is_reserved":false,"is_disabled":true,"rental_uris":{"android":"levelo://app?vid=335fc8dc-ad2f-4253-b0e2-b10d3d2d0173","ios":"levelo://app?vid=335fc8dc-ad2f-4253-b0e2-b10d3d2d0173"},"vehicle_type_id":"4","last_reported":1777545880,"current_range_meters":8800,"station_id":"ce4bh8p2rcd13ifvqeb0","pricing_plan_id":"cebpf4jnsgd1na2vs0mg"},{"bike_id":"398f3248-7362-4af9-a2ab-073d3def34c4","system_id":"levelo_inurba_marseille","lat":43.3079,"lon":5.37649,"is_reserved":false,"is_disabled":false,"rental_uris":{"android":"levelo://app?vid=398f3248-7362-4af9-a2ab-073d3def34c4","ios":"levelo://app?vid=398f3248-7362-4af9-a2ab-073d3def34c4"},"vehicle_type_id":"4","last_reported":1777545880,"current_range_meters":8800,"station_id":"ce4bgv92rcd13ifvqcq0","pricing_plan_id":"cebpf4jnsgd1na2vs0mg"},{"bike_id":"aaaabb62-34ef-4936-b75b-ba25bc10fe01","system_id":"levelo_inurba_marseille","lat":43.29591,"lon":5.36715,"is_reserved":false,"is_disabled":false,"rental_uris":{"android":"levelo://app?vid=aaaabb62-34ef-4936-b75b-ba25bc10fe01","ios":"levelo://app?vid=aaaabb62-34ef-4936-b75b-ba25bc10fe01"},"vehicle_type_id":"4","last_reported":1777545880,"current_range_meters":8800,"station_id":"ce4bgph2rcd13ifvqc2g","pricing_plan_id":"cebpf4jnsgd1na2vs0mg"},{"bike_id":"9ef5d4f0-2378-4a29-8d32-5c31da151f8e","system_id":"levelo_inurba_marseille","lat":43.28619,"lon":5.35115,"is_reserved":false,"is_disabled":false,"rental_uris":{"android":"levelo://app?vid=9ef5d4f0-2378-4a29-8d32-5c31da151f8e","ios":"levelo://app?vid=9ef5d4f0-2378-4a29-8d32-5c31da151f8e"},"vehicle_type_id":"4","last_reported":1777545880,"current_range_meters":8800,"station_id":"ce4bhch2rcd13ifvqeug","pricing_plan_id":"cebpf4jnsgd1na2vs0mg"},{"bike_id":"0195b3a7-f19f-4649-864a-4c54bdc7ef80","system_id":"levelo_inurba_marseille","lat":43.337444,"lon":5.374475,"is_reserved":false,"is_disabled":false,"rental_uris":{"android":"levelo://app?vid=0195b3a7-f19f-4649-864a-4c54bdc7ef80","ios":"levelo://app?vid=0195b3a7-f19f-4649-864a-4c54bdc7ef80"},"vehicle_type_id":"4","last_reported":1777545880,"current_range_meters":8800,"station_id":"","pricing_plan_id":"cebpf4jnsgd1na2vs0mg"},{"bike_id":"1bf38e0a-b6ae-4bb6-bc81-abf44b049ece","system_id":"levelo_inurba_marseille","lat":43.29933,"lon":5.38558,"is_reserved":false,"is_disabled":true,"rental_uris":{"android":"levelo://app?vid=1bf38e0a-b6ae-4bb6-bc81-abf44b049ece","ios":"levelo://app?vid=1bf38e0a-b6ae-4bb6-bc81-abf44b049ece"},"vehicle_type_id":"4","last_reported":1777545880,"current_range_meters":8800,"station_id":"","pricing_plan_id":"cebpf4jnsgd1na2vs0mg"},{"bike_id":"a9fdc35f-bdd3-4025-896f-985c490ec39f","system_id":"levelo_inurba_marseille","lat":43.30168,"lon":5.37415,"is_reserved":false,"is_disabled":false,"rental_uris":{"android":"levelo://app?vid=a9fdc35f-bdd3-4025-896f-985c490ec39f","ios":"levelo://app?vid=a9fdc35f-bdd3-4025-896f-985c490ec39f"},"vehicle_type_id":"4","last_reported":1777545880,"current_range_meters":8800,"station_id":"ce4bgs92rcd13ifvqcc0","pricing_plan_id":"cebpf4jnsgd1na2vs0mg"},{"bike_id":"275f0e36-65c4-489f-bd62-ec5e03923f09","system_id":"levelo_inurba_marseille","lat":43.2256,"lon":5.41631,"is_reserved":false,"is_disabled":false,"rental_uris":{"android":"levelo://app?vid=275f0e36-65c4-489f-bd62-ec5e03923f09","ios":"levelo://app?vid=275f0e36-65c4-489f-bd62-ec5e03923f09"},"vehicle_type_id":"4","last_reported":1777545880,"current_range_meters":8800,"station_id":"st_d2o4gvlbi1j2169b742g","pricing_plan_id":"cebpf4jnsgd1na2vs0mg"},{"bike_id":"15ccd033-9a9c-47d6-a972-ff6689c29eee","system_id":"levelo_inurba_marseille","lat":43.3234,"lon":5.36682,"is_reserved":false,"is_disabled":false,"rental_uris":{"android":"levelo://app?vid=15ccd033-9a9c-47d6-a972-ff6689c29eee","ios":"levelo://app?vid=15ccd033-9a9c-47d6-a972-ff6689c29eee"},"vehicle_type_id":"4","last_reported":1777545880,"current_range_meters":8800,"station_id":"","pricing_plan_id":"cebpf4jnsgd1na2vs0mg"},{"bike_id":"19622448-5dde-4555-a7ea-e439d237a781","system_id":"levelo_inurba_marseille","lat":43.26535,"lon":5.37301,"is_reserved":false,"is_disabled":false,"rental_uris":{"android":"levelo://app?vid=19622448-5dde-4555-a7ea-e439d237a781","ios":"levelo://app?vid=19622448-5dde-4555-a7ea-e439d237a781"},"vehicle_type_id":"4","last_reported":1777545880,"current_range_meters":8800,"station_id":"ce4bhg12rcd13ifvqf70","pricing_plan_id":"cebpf4jnsgd1na2vs0mg"},{"bike_id":"65dcd980-6fe9-4c7d-822c-075ad32b715a","system_id":"levelo_inurba_marseille","lat":43.23794,"lon":5.36614,"is_reserved":false,"is_disabled":false,"rental_uris":{"android":"levelo://app?vid=65dcd980-6fe9-4c7d-822c-075ad32b715a","ios":"levelo://app?vid=65dcd980-6fe9-4c7d-822c-075ad32b715a"},"vehicle_type_id":"4","last_reported":1777545880,"current_range_meters":8800,"station_id":"st_d3nk18o9ro0c73en2l3g","pricing_plan_id":"cebpf4jnsgd1na2vs0mg"},{"bike_id":"5aa91473-46a9-4460-8305-ba7ccda38b0a","system_id":"levelo_inurba_marseille","lat":43.3121,"lon":5.36796,"is_reserved":false,"is_disabled":false,"rental_uris":{"android":"levelo://app?vid=5aa91473-46a9-4460-8305-ba7ccda38b0a","ios":"levelo://app?vid=5aa91473-46a9-4460-8305-ba7ccda38b0a"},"vehicle_type_id":"4","last_reported":1777545880,"current_range_meters":8800,"station_id":"","pricing_plan_id":"cebpf4jnsgd1na2vs0mg"},{"bike_id":"36cd46da-da24-47b3-83c3-7c306213cceb","system_id":"levelo_inurba_marseille","lat":43.29836,"lon":5.36297,"is_reserved":false,"is_disabled":false,"rental_uris":{"android":"levelo://app?vid=36cd46da-da24-47b3-83c3-7c306213cceb","ios":"levelo://app?vid=36cd46da-da24-47b3-83c3-7c306213cceb"},"vehicle_type_id":"4","last_reported":1777545880,"current_range_meters":8800,"station_id":"ce4bgpp2rcd13ifvqc3g","pricing_plan_id":"cebpf4jnsgd1na2vs0mg"},{"bike_id":"50cc6683-a4a6-490d-87fd-8c2be5eaa529","system_id":"levelo_inurba_marseille","lat":43.27079,"lon":5.42276,"is_reserved":false,"is_disabled":false,"rental_uris":{"android":"levelo://app?vid=50cc6683-a4a6-490d-87fd-8c2be5eaa529","ios":"levelo://app?vid=50cc6683-a4a6-490d-87fd-8c2be5eaa529"},"vehicle_type_id":"4","last_reported":1777545880,"current_range_meters":8800,"station_id":"ce4bhk92rcd13ifvqgb0","pricing_plan_id":"cebpf4jnsgd1na2vs0mg"},{"bike_id":"370c4dae-afb2-4580-9737-dd746a1c6bce","system_id":"levelo_inurba_marseille","lat":43.27684,"lon":5.38869,"is_reserved":false,"is_disabled":false,"rental_uris":{"android":"levelo://app?vid=370c4dae-afb2-4580-9737-dd746a1c6bce","ios":"levelo://app?vid=370c4dae-afb2-4580-9737-dd746a1c6bce"},"vehicle_type_id":"4","last_reported":1777545880,"current_range_meters":8800,"station_id":"ce4bhi12rcd13ifvqfo0","pricing_plan_id":"cebpf4jnsgd1na2vs0mg"},{"bike_id":"d312e546-55d9-435e-9b1f-38081f0ac04b","system_id":"levelo_inurba_marseille","lat":43.30326,"lon":5.40434,"is_reserved":false,"is_disabled":false,"rental_uris":{"android":"levelo://app?vid=d312e546-55d9-435e-9b1f-38081f0ac04b","ios":"levelo://app?vid=d312e546-55d9-435e-9b1f-38081f0ac04b"},"vehicle_type_id":"4","last_reported":1777545880,"current_range_meters":8800,"station_id":"ce4bh012rcd13ifvqd10","pricing_plan_id":"cebpf4jnsgd1na2vs0mg"},{"bike_id":"219cba7e-211a-484c-bcbf-de3c6c5fd9ad","system_id":"levelo_inurba_marseille","lat":43.29632,"lon":5.3768,"is_reserved":false,"is_disabled":false,"rental_uris":{"android":"levelo://app?vid=219cba7e-211a-484c-bcbf-de3c6c5fd9ad","ios":"levelo://app?vid=219cba7e-211a-484c-bcbf-de3c6c5fd9ad"},"vehicle_type_id":"4","last_reported":1777545880,"current_range_meters":8800,"station_id":"ce4bgi92rcd13ifvqb90","pricing_plan_id":"cebpf4jnsgd1na2vs0mg"},{"bike_id":"045be241-c57f-48b1-8154-68d5e4bdb9ff","system_id":"levelo_inurba_marseille","lat":43.28402,"lon":5.34986,"is_reserved":false,"is_disabled":false,"rental_uris":{"android":"levelo://app?vid=045be241-c57f-48b1-8154-68d5e4bdb9ff","ios":"levelo://app?vid=045be241-c57f-48b1-8154-68d5e4bdb9ff"},"vehicle_type_id":"4","last_reported":1777545880,"current_range_meters":8800,"station_id":"ce4bhbh2rcd13ifvqepg","pricing_plan_id":"cebpf4jnsgd1na2vs0mg"},{"bike_id":"b0d595b9-7c67-4713-9ca5-bce73f5b56b5","system_id":"levelo_inurba_marseille","lat":43.31324,"lon":5.36695,"is_reserved":false,"is_disabled":false,"rental_uris":{"android":"levelo://app?vid=b0d595b9-7c67-4713-9ca5-bce73f5b56b5","ios":"levelo://app?vid=b0d595b9-7c67-4713-9ca5-bce73f5b56b5"},"vehicle_type_id":"4","last_reported":1777545880,"current_range_meters":9200,"station_id":"ce4bgr92rcd13ifvqc6g","pricing_plan_id":"cebpf4jnsgd1na2vs0mg"},{"bike_id":"45af47f6-e069-4cb4-81e9-622e1316b31e","system_id":"levelo_inurba_marseille","lat":43.29844,"lon":5.36253,"is_reserved":false,"is_disabled":false,"rental_uris":{"android":"levelo://app?vid=45af47f6-e069-4cb4-81e9-622e1316b31e","ios":"levelo://app?vid=45af47f6-e069-4cb4-81e9-622e1316b31e"},"vehicle_type_id":"4","last_reported":1777545880,"current_range_meters":9200,"station_id":"ce4bgpp2rcd13ifvqc3g","pricing_plan_id":"cebpf4jnsgd1na2vs0mg"},{"bike_id":"7e597ee9-163a-4945-8211-c8673fc7ccdd","system_id":"levelo_inurba_marseille","lat":43.30526,"lon":5.36696,"is_reserved":false,"is_disabled":false,"rental_uris":{"android":"levelo://app?vid=7e597ee9-163a-4945-8211-c8673fc7ccdd","ios":"levelo://app?vid=7e597ee9-163a-4945-8211-c8673fc7ccdd"},"vehicle_type_id":"4","last_reported":1777545880,"current_range_meters":9200,"station_id":"ce4bgrp2rcd13ifvqc9g","pricing_plan_id":"cebpf4jnsgd1na2vs0mg"},{"bike_id":"0c0a02b7-6d3a-42ee-92a9-4cdba4f67f7a","system_id":"levelo_inurba_marseille","lat":43.2318,"lon":5.39978,"is_reserved":false,"is_disabled":false,"rental_uris":{"android":"levelo://app?vid=0c0a02b7-6d3a-42ee-92a9-4cdba4f67f7a","ios":"levelo://app?vid=0c0a02b7-6d3a-42ee-92a9-4cdba4f67f7a"},"vehicle_type_id":"4","last_reported":1777545880,"current_range_meters":9200,"station_id":"ce4bhn12rcd13ifvqgqg","pricing_plan_id":"cebpf4jnsgd1na2vs0mg"},{"bike_id":"a5e387fa-49b5-4a17-a925-09d5f690af8f","system_id":"levelo_inurba_marseille","lat":43.32116,"lon":5.36847,"is_reserved":false,"is_disabled":false,"rental_uris":{"android":"levelo://app?vid=a5e387fa-49b5-4a17-a925-09d5f690af8f","ios":"levelo://app?vid=a5e387fa-49b5-4a17-a925-09d5f690af8f"},"vehicle_type_id":"4","last_reported":1777545880,"current_range_meters":9200,"station_id":"","pricing_plan_id":"cebpf4jnsgd1na2vs0mg"},{"bike_id":"46611baa-2233-47d3-a307-4123f065b079","system_id":"levelo_inurba_marseille","lat":43.28477,"lon":5.48397,"is_reserved":false,"is_disabled":false,"rental_uris":{"android":"levelo://app?vid=46611baa-2233-47d3-a307-4123f065b079","ios":"levelo://app?vid=46611baa-2233-47d3-a307-4123f065b079"},"vehicle_type_id":"4","last_reported":1777545880,"current_range_meters":9200,"station_id":"","pricing_plan_id":"cebpf4jnsgd1na2vs0mg"},{"bike_id":"e018f895-5771-4f44-b64f-db1b733c0c56","system_id":"levelo_inurba_marseille","lat":43.23749,"lon":5.43066,"is_reserved":false,"is_disabled":false,"rental_uris":{"android":"levelo://app?vid=e018f895-5771-4f44-b64f-db1b733c0c56","ios":"levelo://app?vid=e018f895-5771-4f44-b64f-db1b733c0c56"},"vehicle_type_id":"4","last_reported":1777545880,"current_range_meters":9200,"station_id":"","pricing_plan_id":"cebpf4jnsgd1na2vs0mg"},{"bike_id":"d193cfeb-a038-436f-91b9-4221c91e3d89","system_id":"levelo_inurba_marseille","lat":43.27501,"lon":5.41571,"is_reserved":false,"is_disabled":true,"rental_uris":{"android":"levelo://app?vid=d193cfeb-a038-436f-91b9-4221c91e3d89","ios":"levelo://app?vid=d193cfeb-a038-436f-91b9-4221c91e3d89"},"vehicle_type_id":"4","last_reported":1777545880,"current_range_meters":9200,"station_id":"st_d6im8g6chgec73a5pndg","pricing_plan_id":"cebpf4jnsgd1na2vs0mg"},{"bike_id":"cfbf3059-fd7e-4626-bbb7-f76607be3dd8","system_id":"levelo_inurba_marseille","lat":43.30534,"lon":5.36671,"is_reserved":false,"is_disabled":true,"rental_uris":{"android":"levelo://app?vid=cfbf3059-fd7e-4626-bbb7-f76607be3dd8","ios":"levelo://app?vid=cfbf3059-fd7e-4626-bbb7-f76607be3dd8"},"vehicle_type_id":"4","last_reported":1777545880,"current_range_meters":9200,"station_id":"","pricing_plan_id":"cebpf4jnsgd1na2vs0mg"},{"bike_id":"b2b5924c-ae57-4d04-8872-ff1b2babdda2","system_id":"levelo_inurba_marseille","lat":43.29791,"lon":5.38067,"is_reserved":false,"is_disabled":false,"rental_uris":{"android":"levelo://app?vid=b2b5924c-ae57-4d04-8872-ff1b2babdda2","ios":"levelo://app?vid=b2b5924c-ae57-4d04-8872-ff1b2babdda2"},"vehicle_type_id":"4","last_reported":1777545880,"current_range_meters":9200,"station_id":"ce4bgip2rcd13ifvqbb0","pricing_plan_id":"cebpf4jnsgd1na2vs0mg"},{"bike_id":"b90c1d01-6a44-4d47-adc9-f51f5ae2109b","system_id":"levelo_inurba_marseille","lat":43.22562,"lon":5.41627,"is_reserved":false,"is_disabled":false,"rental_uris":{"android":"levelo://app?vid=b90c1d01-6a44-4d47-adc9-f51f5ae2109b","ios":"levelo://app?vid=b90c1d01-6a44-4d47-adc9-f51f5ae2109b"},"vehicle_type_id":"4","last_reported":1777545880,"current_range_meters":9200,"station_id":"st_d2o4gvlbi1j2169b742g","pricing_plan_id":"cebpf4jnsgd1na2vs0mg"},{"bike_id":"a8483a05-e652-437c-864d-0a9d370b8bff","system_id":"levelo_inurba_marseille","lat":43.24797,"lon":5.37468,"is_reserved":false,"is_disabled":false,"rental_uris":{"android":"levelo://app?vid=a8483a05-e652-437c-864d-0a9d370b8bff","ios":"levelo://app?vid=a8483a05-e652-437c-864d-0a9d370b8bff"},"vehicle_type_id":"4","last_reported":1777545880,"current_range_meters":9200,"station_id":"ce4bhgh2rcd13ifvqfb0","pricing_plan_id":"cebpf4jnsgd1na2vs0mg"},{"bike_id":"777b5b2a-7d7d-4308-8581-4b69e8a2d556","system_id":"levelo_inurba_marseille","lat":43.32335,"lon":5.36717,"is_reserved":false,"is_disabled":false,"rental_uris":{"android":"levelo://app?vid=777b5b2a-7d7d-4308-8581-4b69e8a2d556","ios":"levelo://app?vid=777b5b2a-7d7d-4308-8581-4b69e8a2d556"},"vehicle_type_id":"4","last_reported":1777545880,"current_range_meters":9600,"station_id":"ce4bhsh2rcd13ifvqi2g","pricing_plan_id":"cebpf4jnsgd1na2vs0mg"},{"bike_id":"f19ae3d1-3077-4dcb-8644-bea8025fa581","system_id":"levelo_inurba_marseille","lat":43.292724,"lon":5.384313,"is_reserved":false,"is_disabled":false,"rental_uris":{"android":"levelo://app?vid=f19ae3d1-3077-4dcb-8644-bea8025fa581","ios":"levelo://app?vid=f19ae3d1-3077-4dcb-8644-bea8025fa581"},"vehicle_type_id":"4","last_reported":1777545880,"current_range_meters":9600,"station_id":"ce4bh692rcd13ifvqea0","pricing_plan_id":"cebpf4jnsgd1na2vs0mg"},{"bike_id":"3ae19c8d-7993-4bce-8a56-bc8493cb10a6","system_id":"levelo_inurba_marseille","lat":43.22559,"lon":5.41625,"is_reserved":false,"is_disabled":false,"rental_uris":{"android":"levelo://app?vid=3ae19c8d-7993-4bce-8a56-bc8493cb10a6","ios":"levelo://app?vid=3ae19c8d-7993-4bce-8a56-bc8493cb10a6"},"vehicle_type_id":"4","last_reported":1777545880,"current_range_meters":9600,"station_id":"st_d2o4gvlbi1j2169b742g","pricing_plan_id":"cebpf4jnsgd1na2vs0mg"},{"bike_id":"1b15d782-a9ff-40be-9a2c-6c43fef43989","system_id":"levelo_inurba_marseille","lat":43.26547,"lon":5.37301,"is_reserved":false,"is_disabled":false,"rental_uris":{"android":"levelo://app?vid=1b15d782-a9ff-40be-9a2c-6c43fef43989","ios":"levelo://app?vid=1b15d782-a9ff-40be-9a2c-6c43fef43989"},"vehicle_type_id":"4","last_reported":1777545880,"current_range_meters":9600,"station_id":"ce4bhg12rcd13ifvqf70","pricing_plan_id":"cebpf4jnsgd1na2vs0mg"},{"bike_id":"6c33eaec-7524-4765-a3b4-3421cf14e6ae","system_id":"levelo_inurba_marseille","lat":43.28473,"lon":5.48378,"is_reserved":false,"is_disabled":false,"rental_uris":{"android":"levelo://app?vid=6c33eaec-7524-4765-a3b4-3421cf14e6ae","ios":"levelo://app?vid=6c33eaec-7524-4765-a3b4-3421cf14e6ae"},"vehicle_type_id":"4","last_reported":1777545880,"current_range_meters":9600,"station_id":"","pricing_plan_id":"cebpf4jnsgd1na2vs0mg"},{"bike_id":"378e0972-a96f-45be-a280-af7eeaef1ae1","system_id":"levelo_inurba_marseille","lat":43.30315,"lon":5.369,"is_reserved":false,"is_disabled":true,"rental_uris":{"android":"levelo://app?vid=378e0972-a96f-45be-a280-af7eeaef1ae1","ios":"levelo://app?vid=378e0972-a96f-45be-a280-af7eeaef1ae1"},"vehicle_type_id":"4","last_reported":1777545880,"current_range_meters":9600,"station_id":"ce4bgqh2rcd13ifvqc5g","pricing_plan_id":"cebpf4jnsgd1na2vs0mg"},{"bike_id":"4f17915c-c3cf-4b49-8182-ea8a59f07c39","system_id":"levelo_inurba_marseille","lat":43.31114,"lon":5.37803,"is_reserved":false,"is_disabled":false,"rental_uris":{"android":"levelo://app?vid=4f17915c-c3cf-4b49-8182-ea8a59f07c39","ios":"levelo://app?vid=4f17915c-c3cf-4b49-8182-ea8a59f07c39"},"vehicle_type_id":"4","last_reported":1777545880,"current_range_meters":9600,"station_id":"ce4bgt92rcd13ifvqcg0","pricing_plan_id":"cebpf4jnsgd1na2vs0mg"},{"bike_id":"7e56fd18-8a64-44d6-ad39-b32b4e92793e","system_id":"levelo_inurba_marseille","lat":43.26223,"lon":5.40455,"is_reserved":false,"is_disabled":false,"rental_uris":{"android":"levelo://app?vid=7e56fd18-8a64-44d6-ad39-b32b4e92793e","ios":"levelo://app?vid=7e56fd18-8a64-44d6-ad39-b32b4e92793e"},"vehicle_type_id":"4","last_reported":1777545880,"current_range_meters":9600,"station_id":"ce4bhmh2rcd13ifvqgmg","pricing_plan_id":"cebpf4jnsgd1na2vs0mg"},{"bike_id":"457ba26b-af6a-4603-92de-adadbfae2a2a","system_id":"levelo_inurba_marseille","lat":43.27678,"lon":5.38888,"is_reserved":false,"is_disabled":false,"rental_uris":{"android":"levelo://app?vid=457ba26b-af6a-4603-92de-adadbfae2a2a","ios":"levelo://app?vid=457ba26b-af6a-4603-92de-adadbfae2a2a"},"vehicle_type_id":"4","last_reported":1777545880,"current_range_meters":9600,"station_id":"ce4bhi12rcd13ifvqfo0","pricing_plan_id":"cebpf4jnsgd1na2vs0mg"},{"bike_id":"9af80983-7303-4488-a030-6e14bff4a386","system_id":"levelo_inurba_marseille","lat":43.27538,"lon":5.38415,"is_reserved":false,"is_disabled":false,"rental_uris":{"android":"levelo://app?vid=9af80983-7303-4488-a030-6e14bff4a386","ios":"levelo://app?vid=9af80983-7303-4488-a030-6e14bff4a386"},"vehicle_type_id":"4","last_reported":1777545880,"current_range_meters":9600,"station_id":"ce4bhh92rcd13ifvqfi0","pricing_plan_id":"cebpf4jnsgd1na2vs0mg"},{"bike_id":"12db932e-a058-4af8-b0da-d76c0831a431","system_id":"levelo_inurba_marseille","lat":43.31222,"lon":5.36847,"is_reserved":false,"is_disabled":false,"rental_uris":{"android":"levelo://app?vid=12db932e-a058-4af8-b0da-d76c0831a431","ios":"levelo://app?vid=12db932e-a058-4af8-b0da-d76c0831a431"},"vehicle_type_id":"4","last_reported":1777545880,"current_range_meters":9600,"station_id":"ce4bgl92rcd13ifvqbq0","pricing_plan_id":"cebpf4jnsgd1na2vs0mg"},{"bike_id":"b523adde-c1af-44da-98e3-23f5e04a208c","system_id":"levelo_inurba_marseille","lat":43.32112,"lon":5.3677,"is_reserved":false,"is_disabled":false,"rental_uris":{"android":"levelo://app?vid=b523adde-c1af-44da-98e3-23f5e04a208c","ios":"levelo://app?vid=b523adde-c1af-44da-98e3-23f5e04a208c"},"vehicle_type_id":"4","last_reported":1777545880,"current_range_meters":9600,"station_id":"ce4bhrh2rcd13ifvqhug","pricing_plan_id":"cebpf4jnsgd1na2vs0mg"},{"bike_id":"ea9c482e-244a-4015-abc4-b7202c06b975","system_id":"levelo_inurba_marseille","lat":43.25942,"lon":5.40904,"is_reserved":false,"is_disabled":false,"rental_uris":{"android":"levelo://app?vid=ea9c482e-244a-4015-abc4-b7202c06b975","ios":"levelo://app?vid=ea9c482e-244a-4015-abc4-b7202c06b975"},"vehicle_type_id":"4","last_reported":1777545880,"current_range_meters":9600,"station_id":"ce4bhm92rcd13ifvqglg","pricing_plan_id":"cebpf4jnsgd1na2vs0mg"},{"bike_id":"cf756aed-771f-48de-b6e4-695766cf71a3","system_id":"levelo_inurba_marseille","lat":43.30953,"lon":5.39696,"is_reserved":false,"is_disabled":false,"rental_uris":{"android":"levelo://app?vid=cf756aed-771f-48de-b6e4-695766cf71a3","ios":"levelo://app?vid=cf756aed-771f-48de-b6e4-695766cf71a3"},"vehicle_type_id":"4","last_reported":1777545880,"current_range_meters":9600,"station_id":"","pricing_plan_id":"cebpf4jnsgd1na2vs0mg"},{"bike_id":"b0e30b34-7f08-49d9-a3bc-beeb1598a4bc","system_id":"levelo_inurba_marseille","lat":43.21184,"lon":5.35061,"is_reserved":false,"is_disabled":false,"rental_uris":{"android":"levelo://app?vid=b0e30b34-7f08-49d9-a3bc-beeb1598a4bc","ios":"levelo://app?vid=b0e30b34-7f08-49d9-a3bc-beeb1598a4bc"},"vehicle_type_id":"4","last_reported":1777545880,"current_range_meters":10000,"station_id":"st_cvj6sg6p6f1abm77japg","pricing_plan_id":"cebpf4jnsgd1na2vs0mg"},{"bike_id":"079ef376-5650-4415-a385-8b4873abbcb8","system_id":"levelo_inurba_marseille","lat":43.29283,"lon":5.37465,"is_reserved":false,"is_disabled":false,"rental_uris":{"android":"levelo://app?vid=079ef376-5650-4415-a385-8b4873abbcb8","ios":"levelo://app?vid=079ef376-5650-4415-a385-8b4873abbcb8"},"vehicle_type_id":"4","last_reported":1777545880,"current_range_meters":10000,"station_id":"ce4bgi12rcd13ifvqb70","pricing_plan_id":"cebpf4jnsgd1na2vs0mg"},{"bike_id":"0d99974c-024d-4018-9aed-ab42fd8bd758","system_id":"levelo_inurba_marseille","lat":43.29708,"lon":5.3768,"is_reserved":false,"is_disabled":false,"rental_uris":{"android":"levelo://app?vid=0d99974c-024d-4018-9aed-ab42fd8bd758","ios":"levelo://app?vid=0d99974c-024d-4018-9aed-ab42fd8bd758"},"vehicle_type_id":"4","last_reported":1777545880,"current_range_meters":10000,"station_id":"ce4bgkh2rcd13ifvqbl0","pricing_plan_id":"cebpf4jnsgd1na2vs0mg"},{"bike_id":"662d3ade-7838-42e9-9b62-a1e5749bd144","system_id":"levelo_inurba_marseille","lat":43.2871,"lon":5.46637,"is_reserved":false,"is_disabled":false,"rental_uris":{"android":"levelo://app?vid=662d3ade-7838-42e9-9b62-a1e5749bd144","ios":"levelo://app?vid=662d3ade-7838-42e9-9b62-a1e5749bd144"},"vehicle_type_id":"4","last_reported":1777545880,"current_range_meters":10000,"station_id":"st_d6tc3vkotcvc738tfjhg","pricing_plan_id":"cebpf4jnsgd1na2vs0mg"},{"bike_id":"3e37a766-0224-460c-ab40-46eb5e15117f","system_id":"levelo_inurba_marseille","lat":43.25577,"lon":5.38221,"is_reserved":false,"is_disabled":false,"rental_uris":{"android":"levelo://app?vid=3e37a766-0224-460c-ab40-46eb5e15117f","ios":"levelo://app?vid=3e37a766-0224-460c-ab40-46eb5e15117f"},"vehicle_type_id":"4","last_reported":1777545880,"current_range_meters":10000,"station_id":"ce4bhih2rcd13ifvqfs0","pricing_plan_id":"cebpf4jnsgd1na2vs0mg"},{"bike_id":"062cc1cc-7bb6-4fdb-9d09-020ff5d0c1f9","system_id":"levelo_inurba_marseille","lat":43.23153,"lon":5.43697,"is_reserved":false,"is_disabled":false,"rental_uris":{"android":"levelo://app?vid=062cc1cc-7bb6-4fdb-9d09-020ff5d0c1f9","ios":"levelo://app?vid=062cc1cc-7bb6-4fdb-9d09-020ff5d0c1f9"},"vehicle_type_id":"4","last_reported":1777545880,"current_range_meters":10000,"station_id":"ce4bhmp2rcd13ifvqgog","pricing_plan_id":"cebpf4jnsgd1na2vs0mg"},{"bike_id":"bbaabfca-5d35-44b9-8209-7b9502a68833","system_id":"levelo_inurba_marseille","lat":43.331619,"lon":5.376855,"is_reserved":false,"is_disabled":false,"rental_uris":{"android":"levelo://app?vid=bbaabfca-5d35-44b9-8209-7b9502a68833","ios":"levelo://app?vid=bbaabfca-5d35-44b9-8209-7b9502a68833"},"vehicle_type_id":"4","last_reported":1777545880,"current_range_meters":10000,"station_id":"st_d46cu089ee8s73dldbu0","pricing_plan_id":"cebpf4jnsgd1na2vs0mg"},{"bike_id":"3bab5da5-8f04-429e-a8cc-b94afa4e8e70","system_id":"levelo_inurba_marseille","lat":43.22568,"lon":5.41599,"is_reserved":false,"is_disabled":false,"rental_uris":{"android":"levelo://app?vid=3bab5da5-8f04-429e-a8cc-b94afa4e8e70","ios":"levelo://app?vid=3bab5da5-8f04-429e-a8cc-b94afa4e8e70"},"vehicle_type_id":"4","last_reported":1777545880,"current_range_meters":10000,"station_id":"st_d2o4gvlbi1j2169b742g","pricing_plan_id":"cebpf4jnsgd1na2vs0mg"},{"bike_id":"5151a6b1-3f91-4012-9535-fa4f2392fc8b","system_id":"levelo_inurba_marseille","lat":43.26542,"lon":5.37285,"is_reserved":false,"is_disabled":false,"rental_uris":{"android":"levelo://app?vid=5151a6b1-3f91-4012-9535-fa4f2392fc8b","ios":"levelo://app?vid=5151a6b1-3f91-4012-9535-fa4f2392fc8b"},"vehicle_type_id":"4","last_reported":1777545880,"current_range_meters":10000,"station_id":"ce4bhg12rcd13ifvqf70","pricing_plan_id":"cebpf4jnsgd1na2vs0mg"},{"bike_id":"aabaae0e-5385-45a2-b597-bd8e235a89e3","system_id":"levelo_inurba_marseille","lat":43.3095,"lon":5.39041,"is_reserved":false,"is_disabled":false,"rental_uris":{"android":"levelo://app?vid=aabaae0e-5385-45a2-b597-bd8e235a89e3","ios":"levelo://app?vid=aabaae0e-5385-45a2-b597-bd8e235a89e3"},"vehicle_type_id":"4","last_reported":1777545880,"current_range_meters":10000,"station_id":"ce4bgup2rcd13ifvqco0","pricing_plan_id":"cebpf4jnsgd1na2vs0mg"},{"bike_id":"c12385b6-d673-4982-bd4f-f7be2413ea34","system_id":"levelo_inurba_marseille","lat":43.29064,"lon":5.35673,"is_reserved":false,"is_disabled":false,"rental_uris":{"android":"levelo://app?vid=c12385b6-d673-4982-bd4f-f7be2413ea34","ios":"levelo://app?vid=c12385b6-d673-4982-bd4f-f7be2413ea34"},"vehicle_type_id":"4","last_reported":1777545880,"current_range_meters":10000,"station_id":"","pricing_plan_id":"cebpf4jnsgd1na2vs0mg"},{"bike_id":"b7f7ca50-c151-4ef5-85ec-e84437f25614","system_id":"levelo_inurba_marseille","lat":43.23154,"lon":5.43708,"is_reserved":false,"is_disabled":false,"rental_uris":{"android":"levelo://app?vid=b7f7ca50-c151-4ef5-85ec-e84437f25614","ios":"levelo://app?vid=b7f7ca50-c151-4ef5-85ec-e84437f25614"},"vehicle_type_id":"4","last_reported":1777545880,"current_range_meters":10000,"station_id":"ce4bhmp2rcd13ifvqgog","pricing_plan_id":"cebpf4jnsgd1na2vs0mg"},{"bike_id":"a844376f-c1df-4fda-85d7-08848a70bf3c","system_id":"levelo_inurba_marseille","lat":43.3354,"lon":5.37451,"is_reserved":false,"is_disabled":false,"rental_uris":{"android":"levelo://app?vid=a844376f-c1df-4fda-85d7-08848a70bf3c","ios":"levelo://app?vid=a844376f-c1df-4fda-85d7-08848a70bf3c"},"vehicle_type_id":"4","last_reported":1777545880,"current_range_meters":10000,"station_id":"st_d46tts09ee8s73dlu43g","pricing_plan_id":"cebpf4jnsgd1na2vs0mg"},{"bike_id":"9810c688-dd4d-4380-adc9-9557450d055b","system_id":"levelo_inurba_marseille","lat":43.28479,"lon":5.484,"is_reserved":false,"is_disabled":false,"rental_uris":{"android":"levelo://app?vid=9810c688-dd4d-4380-adc9-9557450d055b","ios":"levelo://app?vid=9810c688-dd4d-4380-adc9-9557450d055b"},"vehicle_type_id":"4","last_reported":1777545880,"current_range_meters":10000,"station_id":"st_d3svhcjqgbts73a3dn0g","pricing_plan_id":"cebpf4jnsgd1na2vs0mg"},{"bike_id":"2110763d-db10-4ae4-8567-4b2f93f801a6","system_id":"levelo_inurba_marseille","lat":43.2841,"lon":5.3749,"is_reserved":false,"is_disabled":false,"rental_uris":{"android":"levelo://app?vid=2110763d-db10-4ae4-8567-4b2f93f801a6","ios":"levelo://app?vid=2110763d-db10-4ae4-8567-4b2f93f801a6"},"vehicle_type_id":"4","last_reported":1777545880,"current_range_meters":10000,"station_id":"ce4bh412rcd13ifvqds0","pricing_plan_id":"cebpf4jnsgd1na2vs0mg"},{"bike_id":"6a7ee32b-bc38-4b18-992e-34357f532560","system_id":"levelo_inurba_marseille","lat":43.30328,"lon":5.39956,"is_reserved":false,"is_disabled":false,"rental_uris":{"android":"levelo://app?vid=6a7ee32b-bc38-4b18-992e-34357f532560","ios":"levelo://app?vid=6a7ee32b-bc38-4b18-992e-34357f532560"},"vehicle_type_id":"4","last_reported":1777545880,"current_range_meters":10000,"station_id":"","pricing_plan_id":"cebpf4jnsgd1na2vs0mg"},{"bike_id":"c80dc72d-c997-42d4-9d4d-1446246b6345","system_id":"levelo_inurba_marseille","lat":43.30135,"lon":5.38763,"is_reserved":false,"is_disabled":false,"rental_uris":{"android":"levelo://app?vid=c80dc72d-c997-42d4-9d4d-1446246b6345","ios":"levelo://app?vid=c80dc72d-c997-42d4-9d4d-1446246b6345"},"vehicle_type_id":"4","last_reported":1777545880,"current_range_meters":10000,"station_id":"ce4bghh2rcd13ifvqb60","pricing_plan_id":"cebpf4jnsgd1na2vs0mg"},{"bike_id":"bb4e11a7-5d94-4379-8922-28bb4dd80ab0","system_id":"levelo_inurba_marseille","lat":43.30135,"lon":5.39842,"is_reserved":false,"is_disabled":false,"rental_uris":{"android":"levelo://app?vid=bb4e11a7-5d94-4379-8922-28bb4dd80ab0","ios":"levelo://app?vid=bb4e11a7-5d94-4379-8922-28bb4dd80ab0"},"vehicle_type_id":"4","last_reported":1777545880,"current_range_meters":10800,"station_id":"ce4bh0h2rcd13ifvqd40","pricing_plan_id":"cebpf4jnsgd1na2vs0mg"},{"bike_id":"bf610d3b-5370-4f1e-8385-1ce25faaff84","system_id":"levelo_inurba_marseille","lat":43.30136,"lon":5.37425,"is_reserved":false,"is_disabled":false,"rental_uris":{"android":"levelo://app?vid=bf610d3b-5370-4f1e-8385-1ce25faaff84","ios":"levelo://app?vid=bf610d3b-5370-4f1e-8385-1ce25faaff84"},"vehicle_type_id":"4","last_reported":1777545880,"current_range_meters":10800,"station_id":"ce4bgs92rcd13ifvqcc0","pricing_plan_id":"cebpf4jnsgd1na2vs0mg"},{"bike_id":"6c58da3a-247d-4850-b834-e947e60692f1","system_id":"levelo_inurba_marseille","lat":43.25502,"lon":5.37647,"is_reserved":false,"is_disabled":false,"rental_uris":{"android":"levelo://app?vid=6c58da3a-247d-4850-b834-e947e60692f1","ios":"levelo://app?vid=6c58da3a-247d-4850-b834-e947e60692f1"},"vehicle_type_id":"4","last_reported":1777545880,"current_range_meters":10800,"station_id":"ce4bhh12rcd13ifvqff0","pricing_plan_id":"cebpf4jnsgd1na2vs0mg"},{"bike_id":"b41353e0-ddd2-4461-be04-0f5e9b40ab92","system_id":"levelo_inurba_marseille","lat":43.28483,"lon":5.4839,"is_reserved":false,"is_disabled":false,"rental_uris":{"android":"levelo://app?vid=b41353e0-ddd2-4461-be04-0f5e9b40ab92","ios":"levelo://app?vid=b41353e0-ddd2-4461-be04-0f5e9b40ab92"},"vehicle_type_id":"4","last_reported":1777545880,"current_range_meters":10800,"station_id":"st_d3svhcjqgbts73a3dn0g","pricing_plan_id":"cebpf4jnsgd1na2vs0mg"},{"bike_id":"2447f289-f31f-42ac-960c-0df77fa0f0e7","system_id":"levelo_inurba_marseille","lat":43.2744,"lon":5.41155,"is_reserved":false,"is_disabled":false,"rental_uris":{"android":"levelo://app?vid=2447f289-f31f-42ac-960c-0df77fa0f0e7","ios":"levelo://app?vid=2447f289-f31f-42ac-960c-0df77fa0f0e7"},"vehicle_type_id":"4","last_reported":1777545880,"current_range_meters":10800,"station_id":"","pricing_plan_id":"cebpf4jnsgd1na2vs0mg"},{"bike_id":"396e5093-3e9d-4b50-8bf6-9cb22084d93b","system_id":"levelo_inurba_marseille","lat":43.29441,"lon":5.38235,"is_reserved":false,"is_disabled":false,"rental_uris":{"android":"levelo://app?vid=396e5093-3e9d-4b50-8bf6-9cb22084d93b","ios":"levelo://app?vid=396e5093-3e9d-4b50-8bf6-9cb22084d93b"},"vehicle_type_id":"4","last_reported":1777545880,"current_range_meters":10800,"station_id":"","pricing_plan_id":"cebpf4jnsgd1na2vs0mg"},{"bike_id":"d8168cb8-f25d-47b1-b516-d24b48507737","system_id":"levelo_inurba_marseille","lat":43.2904,"lon":5.39952,"is_reserved":false,"is_disabled":false,"rental_uris":{"android":"levelo://app?vid=d8168cb8-f25d-47b1-b516-d24b48507737","ios":"levelo://app?vid=d8168cb8-f25d-47b1-b516-d24b48507737"},"vehicle_type_id":"4","last_reported":1777545880,"current_range_meters":10800,"station_id":"ce4bh392rcd13ifvqdm0","pricing_plan_id":"cebpf4jnsgd1na2vs0mg"},{"bike_id":"3396e626-d460-4186-98dd-00a762c5013f","system_id":"levelo_inurba_marseille","lat":43.23973,"lon":5.36602,"is_reserved":false,"is_disabled":false,"rental_uris":{"android":"levelo://app?vid=3396e626-d460-4186-98dd-00a762c5013f","ios":"levelo://app?vid=3396e626-d460-4186-98dd-00a762c5013f"},"vehicle_type_id":"4","last_reported":1777545880,"current_range_meters":10800,"station_id":"ce4bhi12rcd13ifvqfp0","pricing_plan_id":"cebpf4jnsgd1na2vs0mg"},{"bike_id":"91654a78-5047-43a1-9dca-1d2584eb353b","system_id":"levelo_inurba_marseille","lat":43.30371,"lon":5.42486,"is_reserved":false,"is_disabled":false,"rental_uris":{"android":"levelo://app?vid=91654a78-5047-43a1-9dca-1d2584eb353b","ios":"levelo://app?vid=91654a78-5047-43a1-9dca-1d2584eb353b"},"vehicle_type_id":"4","last_reported":1777545880,"current_range_meters":10800,"station_id":"ce4bhoh2rcd13ifvqh6g","pricing_plan_id":"cebpf4jnsgd1na2vs0mg"},{"bike_id":"76b8d554-1d00-4146-a11a-2d4ef53f64b9","system_id":"levelo_inurba_marseille","lat":43.23154,"lon":5.4371,"is_reserved":false,"is_disabled":false,"rental_uris":{"android":"levelo://app?vid=76b8d554-1d00-4146-a11a-2d4ef53f64b9","ios":"levelo://app?vid=76b8d554-1d00-4146-a11a-2d4ef53f64b9"},