{"last_updated":1730977630,"ttl":60,"version":"2.2","data":{"bikes":[{"bike_id":"2ee093aa-3524-4428-9877-a537acab9a90","system_id":"levelo_inurba_marseille","lat":43.24546,"lon":5.39522,"is_reserved":false,"is_disabled":false,"rental_uris":{"android":"levelo://app?vid=2ee093aa-3524-4428-9877-a537acab9a90","ios":"levelo://app?vid=2ee093aa-3524-4428-9877-a537acab9a90"},"vehicle_type_id":"4","last_reported":1730977631,"current_range_meters":20000,"station_id":"ce4bhlp2rcd13ifvqgjg","pricing_plan_id":"cebpf4jnsgd1na2vs0mg"},{"bike_id":"2904fc73-52e2-411a-842a-c425afa55e1a","system_id":"levelo_inurba_marseille","lat":43.29796,"lon":5.38084,"is_reserved":false,"is_disabled":false,"rental_uris":{"android":"levelo://app?vid=2904fc73-52e2-411a-842a-c425afa55e1a","ios":"levelo://app?vid=2904fc73-52e2-411a-842a-c425afa55e1a"},"vehicle_type_id":"4","last_reported":1730977631,"current_range_meters":16400,"station_id":"ce4bgip2rcd13ifvqbb0","pricing_plan_id":"cebpf4jnsgd1na2vs0mg"},{"bike_id":"56c9d16b-3f66-42ca-801c-c2409dc00d5f","system_id":"levelo_inurba_marseille","lat":43.26936,"lon":5.38905,"is_reserved":false,"is_disabled":false,"rental_uris":{"android":"levelo://app?vid=56c9d16b-3f66-42ca-801c-c2409dc00d5f","ios":"levelo://app?vid=56c9d16b-3f66-42ca-801c-c2409dc00d5f"},"vehicle_type_id":"4","last_reported":1730977631,"current_range_meters":27200,"station_id":"ce4bhhh2rcd13ifvqfl0","pricing_plan_id":"cebpf4jnsgd1na2vs0mg"},{"bike_id":"2e85ce53-91d4-4328-89fc-14263a580578","system_id":"levelo_inurba_marseille","lat":43.29362,"lon":5.37848,"is_reserved":false,"is_disabled":false,"rental_uris":{"android":"levelo://app?vid=2e85ce53-91d4-4328-89fc-14263a580578","ios":"levelo://app?vid=2e85ce53-91d4-4328-89fc-14263a580578"},"vehicle_type_id":"4","last_reported":1730977631,"current_range_meters":9600,"station_id":"ce4bgjh2rcd13ifvqbf0","pricing_plan_id":"cebpf4jnsgd1na2vs0mg"},{"bike_id":"36da81ad-0e02-4ae5-aa74-842712164d86","system_id":"levelo_inurba_marseille","lat":43.23154,"lon":5.43702,"is_reserved":false,"is_disabled":false,"rental_uris":{"android":"levelo://app?vid=36da81ad-0e02-4ae5-aa74-842712164d86","ios":"levelo://app?vid=36da81ad-0e02-4ae5-aa74-842712164d86"},"vehicle_type_id":"4","last_reported":1730977631,"current_range_meters":25200,"station_id":"ce4bhmp2rcd13ifvqgog","pricing_plan_id":"cebpf4jnsgd1na2vs0mg"},{"bike_id":"e8bcca23-42a0-4423-8a65-a75ab12e9cb1","system_id":"levelo_inurba_marseille","lat":43.29588,"lon":5.36742,"is_reserved":false,"is_disabled":false,"rental_uris":{"android":"levelo://app?vid=e8bcca23-42a0-4423-8a65-a75ab12e9cb1","ios":"levelo://app?vid=e8bcca23-42a0-4423-8a65-a75ab12e9cb1"},"vehicle_type_id":"4","last_reported":1730977631,"current_range_meters":35600,"station_id":"ce4bgph2rcd13ifvqc2g","pricing_plan_id":"cebpf4jnsgd1na2vs0mg"},{"bike_id":"a57490d6-1b5f-4a0d-b4b7-f79ba049a52c","system_id":"levelo_inurba_marseille","lat":43.33625,"lon":5.40943,"is_reserved":false,"is_disabled":false,"rental_uris":{"android":"levelo://app?vid=a57490d6-1b5f-4a0d-b4b7-f79ba049a52c","ios":"levelo://app?vid=a57490d6-1b5f-4a0d-b4b7-f79ba049a52c"},"vehicle_type_id":"4","last_reported":1730977631,"current_range_meters":7200,"station_id":"","pricing_plan_id":"cebpf4jnsgd1na2vs0mg"},{"bike_id":"34c80b6c-ef49-4b30-8994-fbfe23d7165a","system_id":"levelo_inurba_marseille","lat":43.29522,"lon":5.39032,"is_reserved":false,"is_disabled":false,"rental_uris":{"android":"levelo://app?vid=34c80b6c-ef49-4b30-8994-fbfe23d7165a","ios":"levelo://app?vid=34c80b6c-ef49-4b30-8994-fbfe23d7165a"},"vehicle_type_id":"4","last_reported":1730977631,"current_range_meters":24000,"station_id":"ce4bh3p2rcd13ifvqdp0","pricing_plan_id":"cebpf4jnsgd1na2vs0mg"},{"bike_id":"52c6c0a9-2cd5-43a6-b522-a933d2b99414","system_id":"levelo_inurba_marseille","lat":43.30142,"lon":5.37412,"is_reserved":false,"is_disabled":false,"rental_uris":{"android":"levelo://app?vid=52c6c0a9-2cd5-43a6-b522-a933d2b99414","ios":"levelo://app?vid=52c6c0a9-2cd5-43a6-b522-a933d2b99414"},"vehicle_type_id":"4","last_reported":1730977631,"current_range_meters":18800,"station_id":"ce4bgs92rcd13ifvqcc0","pricing_plan_id":"cebpf4jnsgd1na2vs0mg"},{"bike_id":"797b978a-f324-47e3-84c4-76070de1eba9","system_id":"levelo_inurba_marseille","lat":43.26677,"lon":5.38267,"is_reserved":false,"is_disabled":false,"rental_uris":{"android":"levelo://app?vid=797b978a-f324-47e3-84c4-76070de1eba9","ios":"levelo://app?vid=797b978a-f324-47e3-84c4-76070de1eba9"},"vehicle_type_id":"4","last_reported":1730977631,"current_range_meters":40000,"station_id":"ce4bhg92rcd13ifvqf90","pricing_plan_id":"cebpf4jnsgd1na2vs0mg"},{"bike_id":"912c9dd5-c4a1-4f8a-b725-d02abb4338be","system_id":"levelo_inurba_marseille","lat":43.27894,"lon":5.38007,"is_reserved":false,"is_disabled":false,"rental_uris":{"android":"levelo://app?vid=912c9dd5-c4a1-4f8a-b725-d02abb4338be","ios":"levelo://app?vid=912c9dd5-c4a1-4f8a-b725-d02abb4338be"},"vehicle_type_id":"4","last_reported":1730977631,"current_range_meters":9600,"station_id":"ce4bhf92rcd13ifvqf50","pricing_plan_id":"cebpf4jnsgd1na2vs0mg"},{"bike_id":"53aabc8c-3cec-4af6-a50b-34860aa792d3","system_id":"levelo_inurba_marseille","lat":43.31322,"lon":5.39698,"is_reserved":false,"is_disabled":false,"rental_uris":{"android":"levelo://app?vid=53aabc8c-3cec-4af6-a50b-34860aa792d3","ios":"levelo://app?vid=53aabc8c-3cec-4af6-a50b-34860aa792d3"},"vehicle_type_id":"4","last_reported":1730977631,"current_range_meters":29600,"station_id":"ce4bgvp2rcd13ifvqcu0","pricing_plan_id":"cebpf4jnsgd1na2vs0mg"},{"bike_id":"30758d5d-54e2-4e4f-8129-b6d871655d0b","system_id":"levelo_inurba_marseille","lat":43.30534,"lon":5.365325,"is_reserved":false,"is_disabled":false,"rental_uris":{"android":"levelo://app?vid=30758d5d-54e2-4e4f-8129-b6d871655d0b","ios":"levelo://app?vid=30758d5d-54e2-4e4f-8129-b6d871655d0b"},"vehicle_type_id":"4","last_reported":1730977631,"current_range_meters":14400,"station_id":"ce4bgs12rcd13ifvqcag","pricing_plan_id":"cebpf4jnsgd1na2vs0mg"},{"bike_id":"b2116663-67b9-426e-a75d-ed0e97e6dcbc","system_id":"levelo_inurba_marseille","lat":43.29626,"lon":5.37173,"is_reserved":false,"is_disabled":false,"rental_uris":{"android":"levelo://app?vid=b2116663-67b9-426e-a75d-ed0e97e6dcbc","ios":"levelo://app?vid=b2116663-67b9-426e-a75d-ed0e97e6dcbc"},"vehicle_type_id":"4","last_reported":1730977631,"current_range_meters":40000,"station_id":"ce4bgnh2rcd13ifvqc0g","pricing_plan_id":"cebpf4jnsgd1na2vs0mg"},{"bike_id":"f9acb5cb-136c-47ec-89cd-c14384acbcdf","system_id":"levelo_inurba_marseille","lat":43.31682,"lon":5.40463,"is_reserved":false,"is_disabled":false,"rental_uris":{"android":"levelo://app?vid=f9acb5cb-136c-47ec-89cd-c14384acbcdf","ios":"levelo://app?vid=f9acb5cb-136c-47ec-89cd-c14384acbcdf"},"vehicle_type_id":"4","last_reported":1730977631,"current_range_meters":35200,"station_id":"ce4bh012rcd13ifvqd00","pricing_plan_id":"cebpf4jnsgd1na2vs0mg"},{"bike_id":"1510aaa8-e4b4-4ded-be09-698b6b03d511","system_id":"levelo_inurba_marseille","lat":43.2315,"lon":5.43714,"is_reserved":false,"is_disabled":false,"rental_uris":{"android":"levelo://app?vid=1510aaa8-e4b4-4ded-be09-698b6b03d511","ios":"levelo://app?vid=1510aaa8-e4b4-4ded-be09-698b6b03d511"},"vehicle_type_id":"4","last_reported":1730977631,"current_range_meters":9200,"station_id":"ce4bhmp2rcd13ifvqgog","pricing_plan_id":"cebpf4jnsgd1na2vs0mg"},{"bike_id":"30e2e302-bc85-415d-88bf-b8ac787f3ca1","system_id":"levelo_inurba_marseille","lat":43.26793,"lon":5.39419,"is_reserved":false,"is_disabled":false,"rental_uris":{"android":"levelo://app?vid=30e2e302-bc85-415d-88bf-b8ac787f3ca1","ios":"levelo://app?vid=30e2e302-bc85-415d-88bf-b8ac787f3ca1"},"vehicle_type_id":"4","last_reported":1730977631,"current_range_meters":28000,"station_id":"ce4bhh12rcd13ifvqfg0","pricing_plan_id":"cebpf4jnsgd1na2vs0mg"},{"bike_id":"434fe81b-9da2-49ed-aaee-dc29ee107415","system_id":"levelo_inurba_marseille","lat":43.23973,"lon":5.36634,"is_reserved":false,"is_disabled":false,"rental_uris":{"android":"levelo://app?vid=434fe81b-9da2-49ed-aaee-dc29ee107415","ios":"levelo://app?vid=434fe81b-9da2-49ed-aaee-dc29ee107415"},"vehicle_type_id":"4","last_reported":1730977631,"current_range_meters":28000,"station_id":"ce4bhi12rcd13ifvqfp0","pricing_plan_id":"cebpf4jnsgd1na2vs0mg"},{"bike_id":"533b9cd6-7cdf-45e9-a447-26cea98ba283","system_id":"levelo_inurba_marseille","lat":43.34141,"lon":5.40906,"is_reserved":false,"is_disabled":false,"rental_uris":{"android":"levelo://app?vid=533b9cd6-7cdf-45e9-a447-26cea98ba283","ios":"levelo://app?vid=533b9cd6-7cdf-45e9-a447-26cea98ba283"},"vehicle_type_id":"4","last_reported":1730977631,"current_range_meters":28400,"station_id":"ce4bhqh2rcd13ifvqhlg","pricing_plan_id":"cebpf4jnsgd1na2vs0mg"},{"bike_id":"5022586d-8bd5-4aa1-8a15-d41923bb3f71","system_id":"levelo_inurba_marseille","lat":43.2815,"lon":5.42656,"is_reserved":false,"is_disabled":false,"rental_uris":{"android":"levelo://app?vid=5022586d-8bd5-4aa1-8a15-d41923bb3f71","ios":"levelo://app?vid=5022586d-8bd5-4aa1-8a15-d41923bb3f71"},"vehicle_type_id":"4","last_reported":1730977631,"current_range_meters":23200,"station_id":"ce4bhnh2rcd13ifvqgug","pricing_plan_id":"cebpf4jnsgd1na2vs0mg"},{"bike_id":"f67c835e-5a9a-4c44-b468-e4964d05d3d8","system_id":"levelo_inurba_marseille","lat":43.26568,"lon":5.39008,"is_reserved":false,"is_disabled":false,"rental_uris":{"android":"levelo://app?vid=f67c835e-5a9a-4c44-b468-e4964d05d3d8","ios":"levelo://app?vid=f67c835e-5a9a-4c44-b468-e4964d05d3d8"},"vehicle_type_id":"4","last_reported":1730977631,"current_range_meters":6800,"station_id":"ce4bhe12rcd13ifvqf30","pricing_plan_id":"cebpf4jnsgd1na2vs0mg"},{"bike_id":"10b6ab37-7f1a-4400-8355-cbbfd4c2b24b","system_id":"levelo_inurba_marseille","lat":43.3132,"lon":5.39702,"is_reserved":false,"is_disabled":false,"rental_uris":{"android":"levelo://app?vid=10b6ab37-7f1a-4400-8355-cbbfd4c2b24b","ios":"levelo://app?vid=10b6ab37-7f1a-4400-8355-cbbfd4c2b24b"},"vehicle_type_id":"4","last_reported":1730977631,"current_range_meters":18000,"station_id":"ce4bgvp2rcd13ifvqcu0","pricing_plan_id":"cebpf4jnsgd1na2vs0mg"},{"bike_id":"a13f35d7-f4ed-4dbe-a408-136689149f8e","system_id":"levelo_inurba_marseille","lat":43.22924,"lon":5.35405,"is_reserved":false,"is_disabled":false,"rental_uris":{"android":"levelo://app?vid=a13f35d7-f4ed-4dbe-a408-136689149f8e","ios":"levelo://app?vid=a13f35d7-f4ed-4dbe-a408-136689149f8e"},"vehicle_type_id":"4","last_reported":1730977631,"current_range_meters":36800,"station_id":"cpo3532slgdg3j2ikp40","pricing_plan_id":"cebpf4jnsgd1na2vs0mg"},{"bike_id":"81a73e1e-df8e-4923-a10d-61f139a542d3","system_id":"levelo_inurba_marseille","lat":43.28038,"lon":5.36952,"is_reserved":false,"is_disabled":false,"rental_uris":{"android":"levelo://app?vid=81a73e1e-df8e-4923-a10d-61f139a542d3","ios":"levelo://app?vid=81a73e1e-df8e-4923-a10d-61f139a542d3"},"vehicle_type_id":"4","last_reported":1730977631,"current_range_meters":12800,"station_id":"ce4bha12rcd13ifvqef0","pricing_plan_id":"cebpf4jnsgd1na2vs0mg"},{"bike_id":"35c658cd-6772-420c-87ce-ba3ed9431cb0","system_id":"levelo_inurba_marseille","lat":43.30537,"lon":5.36533,"is_reserved":false,"is_disabled":false,"rental_uris":{"android":"levelo://app?vid=35c658cd-6772-420c-87ce-ba3ed9431cb0","ios":"levelo://app?vid=35c658cd-6772-420c-87ce-ba3ed9431cb0"},"vehicle_type_id":"4","last_reported":1730977631,"current_range_meters":29600,"station_id":"ce4bgs12rcd13ifvqcag","pricing_plan_id":"cebpf4jnsgd1na2vs0mg"},{"bike_id":"9e6ca848-fc41-4c6a-a1c2-176f43cff272","system_id":"levelo_inurba_marseille","lat":43.288086,"lon":5.382526,"is_reserved":false,"is_disabled":false,"rental_uris":{"android":"levelo://app?vid=9e6ca848-fc41-4c6a-a1c2-176f43cff272","ios":"levelo://app?vid=9e6ca848-fc41-4c6a-a1c2-176f43cff272"},"vehicle_type_id":"4","last_reported":1730977631,"current_range_meters":22400,"station_id":"ce4bh512rcd13ifvqe3g","pricing_plan_id":"cebpf4jnsgd1na2vs0mg"},{"bike_id":"9b64e3e7-a848-4832-bf90-829941ac8e74","system_id":"levelo_inurba_marseille","lat":43.298005,"lon":5.38099,"is_reserved":false,"is_disabled":false,"rental_uris":{"android":"levelo://app?vid=9b64e3e7-a848-4832-bf90-829941ac8e74","ios":"levelo://app?vid=9b64e3e7-a848-4832-bf90-829941ac8e74"},"vehicle_type_id":"4","last_reported":1730977631,"current_range_meters":8400,"station_id":"ce4bgip2rcd13ifvqbb0","pricing_plan_id":"cebpf4jnsgd1na2vs0mg"},{"bike_id":"8c894b72-68ed-4925-b417-f67a0bb96441","system_id":"levelo_inurba_marseille","lat":43.33609,"lon":5.41024,"is_reserved":false,"is_disabled":false,"rental_uris":{"android":"levelo://app?vid=8c894b72-68ed-4925-b417-f67a0bb96441","ios":"levelo://app?vid=8c894b72-68ed-4925-b417-f67a0bb96441"},"vehicle_type_id":"4","last_reported":1730977631,"current_range_meters":20000,"station_id":"ce4bhqh2rcd13ifvqhmg","pricing_plan_id":"cebpf4jnsgd1na2vs0mg"},{"bike_id":"7019b025-03be-45d4-ad87-b5ab6250e2c6","system_id":"levelo_inurba_marseille","lat":43.31224,"lon":5.36859,"is_reserved":false,"is_disabled":false,"rental_uris":{"android":"levelo://app?vid=7019b025-03be-45d4-ad87-b5ab6250e2c6","ios":"levelo://app?vid=7019b025-03be-45d4-ad87-b5ab6250e2c6"},"vehicle_type_id":"4","last_reported":1730977631,"current_range_meters":28400,"station_id":"ce4bgl92rcd13ifvqbq0","pricing_plan_id":"cebpf4jnsgd1na2vs0mg"},{"bike_id":"8a401a8a-30f9-4643-ad63-74116d1b600f","system_id":"levelo_inurba_marseille","lat":43.32482,"lon":5.36567,"is_reserved":false,"is_disabled":false,"rental_uris":{"android":"levelo://app?vid=8a401a8a-30f9-4643-ad63-74116d1b600f","ios":"levelo://app?vid=8a401a8a-30f9-4643-ad63-74116d1b600f"},"vehicle_type_id":"4","last_reported":1730977631,"current_range_meters":36800,"station_id":"ce4bhs12rcd13ifvqhvg","pricing_plan_id":"cebpf4jnsgd1na2vs0mg"},{"bike_id":"b6423d94-a954-4bb4-b8f1-e34714aaef1b","system_id":"levelo_inurba_marseille","lat":43.288563,"lon":5.358586,"is_reserved":false,"is_disabled":false,"rental_uris":{"android":"levelo://app?vid=b6423d94-a954-4bb4-b8f1-e34714aaef1b","ios":"levelo://app?vid=b6423d94-a954-4bb4-b8f1-e34714aaef1b"},"vehicle_type_id":"4","last_reported":1730977631,"current_range_meters":26800,"station_id":"ce4bhgh2rcd13ifvqfa0","pricing_plan_id":"cebpf4jnsgd1na2vs0mg"},{"bike_id":"60bb8ba5-396a-42c6-a39d-ec6237392067","system_id":"levelo_inurba_marseille","lat":43.22932,"lon":5.3538,"is_reserved":false,"is_disabled":false,"rental_uris":{"android":"levelo://app?vid=60bb8ba5-396a-42c6-a39d-ec6237392067","ios":"levelo://app?vid=60bb8ba5-396a-42c6-a39d-ec6237392067"},"vehicle_type_id":"4","last_reported":1730977631,"current_range_meters":36400,"station_id":"cpo3532slgdg3j2ikp40","pricing_plan_id":"cebpf4jnsgd1na2vs0mg"},{"bike_id":"b53b4e52-8fec-41fa-9875-1f17de3309b6","system_id":"levelo_inurba_marseille","lat":43.30608,"lon":5.37224,"is_reserved":false,"is_disabled":false,"rental_uris":{"android":"levelo://app?vid=b53b4e52-8fec-41fa-9875-1f17de3309b6","ios":"levelo://app?vid=b53b4e52-8fec-41fa-9875-1f17de3309b6"},"vehicle_type_id":"4","last_reported":1730977631,"current_range_meters":24800,"station_id":"ce4bgqh2rcd13ifvqc4g","pricing_plan_id":"cebpf4jnsgd1na2vs0mg"},{"bike_id":"c40b294e-5bc0-411a-af24-e0675d161212","system_id":"levelo_inurba_marseille","lat":43.31488,"lon":5.37298,"is_reserved":false,"is_disabled":false,"rental_uris":{"android":"levelo://app?vid=c40b294e-5bc0-411a-af24-e0675d161212","ios":"levelo://app?vid=c40b294e-5bc0-411a-af24-e0675d161212"},"vehicle_type_id":"4","last_reported":1730977631,"current_range_meters":25600,"station_id":"ce4bgt12rcd13ifvqcd0","pricing_plan_id":"cebpf4jnsgd1na2vs0mg"},{"bike_id":"794c21bb-2dc9-433c-bf5d-8d6b934201ad","system_id":"levelo_inurba_marseille","lat":43.2408,"lon":5.37754,"is_reserved":false,"is_disabled":false,"rental_uris":{"android":"levelo://app?vid=794c21bb-2dc9-433c-bf5d-8d6b934201ad","ios":"levelo://app?vid=794c21bb-2dc9-433c-bf5d-8d6b934201ad"},"vehicle_type_id":"4","last_reported":1730977631,"current_range_meters":25600,"station_id":"ce4bhnp2rcd13ifvqgvg","pricing_plan_id":"cebpf4jnsgd1na2vs0mg"},{"bike_id":"44561281-b3cf-462d-af9a-8106b45d6d01","system_id":"levelo_inurba_marseille","lat":43.29726,"lon":5.37685,"is_reserved":false,"is_disabled":false,"rental_uris":{"android":"levelo://app?vid=44561281-b3cf-462d-af9a-8106b45d6d01","ios":"levelo://app?vid=44561281-b3cf-462d-af9a-8106b45d6d01"},"vehicle_type_id":"4","last_reported":1730977631,"current_range_meters":40000,"station_id":"ce4bgkh2rcd13ifvqbl0","pricing_plan_id":"cebpf4jnsgd1na2vs0mg"},{"bike_id":"958d9970-45c2-4c78-bf21-7a472f91687b","system_id":"levelo_inurba_marseille","lat":43.26556,"lon":5.39017,"is_reserved":false,"is_disabled":false,"rental_uris":{"android":"levelo://app?vid=958d9970-45c2-4c78-bf21-7a472f91687b","ios":"levelo://app?vid=958d9970-45c2-4c78-bf21-7a472f91687b"},"vehicle_type_id":"4","last_reported":1730977631,"current_range_meters":37600,"station_id":"ce4bhe12rcd13ifvqf30","pricing_plan_id":"cebpf4jnsgd1na2vs0mg"},{"bike_id":"e5d050d9-487e-42ac-a5c5-9fd2df779a62","system_id":"levelo_inurba_marseille","lat":43.29895,"lon":5.43669,"is_reserved":false,"is_disabled":false,"rental_uris":{"android":"levelo://app?vid=e5d050d9-487e-42ac-a5c5-9fd2df779a62","ios":"levelo://app?vid=e5d050d9-487e-42ac-a5c5-9fd2df779a62"},"vehicle_type_id":"4","last_reported":1730977631,"current_range_meters":33600,"station_id":"ce4bhpp2rcd13ifvqhfg","pricing_plan_id":"cebpf4jnsgd1na2vs0mg"},{"bike_id":"8537fdfd-8ce9-4eb3-9f9c-79cbff071619","system_id":"levelo_inurba_marseille","lat":43.29213,"lon":5.38007,"is_reserved":false,"is_disabled":false,"rental_uris":{"android":"levelo://app?vid=8537fdfd-8ce9-4eb3-9f9c-79cbff071619","ios":"levelo://app?vid=8537fdfd-8ce9-4eb3-9f9c-79cbff071619"},"vehicle_type_id":"4","last_reported":1730977631,"current_range_meters":19600,"station_id":"ce4bgup2rcd13ifvqco0","pricing_plan_id":"cebpf4jnsgd1na2vs0mg"},{"bike_id":"2980a31f-a1dd-48be-9110-67be48ef088b","system_id":"levelo_inurba_marseille","lat":43.29515,"lon":5.37511,"is_reserved":false,"is_disabled":false,"rental_uris":{"android":"levelo://app?vid=2980a31f-a1dd-48be-9110-67be48ef088b","ios":"levelo://app?vid=2980a31f-a1dd-48be-9110-67be48ef088b"},"vehicle_type_id":"4","last_reported":1730977631,"current_range_meters":14000,"station_id":"ce4bgkp2rcd13ifvqbmg","pricing_plan_id":"cebpf4jnsgd1na2vs0mg"},{"bike_id":"b4acb205-fefb-4ff0-a0f5-e0b7a0a1fe0d","system_id":"levelo_inurba_marseille","lat":43.27996,"lon":5.41665,"is_reserved":false,"is_disabled":false,"rental_uris":{"android":"levelo://app?vid=b4acb205-fefb-4ff0-a0f5-e0b7a0a1fe0d","ios":"levelo://app?vid=b4acb205-fefb-4ff0-a0f5-e0b7a0a1fe0d"},"vehicle_type_id":"4","last_reported":1730977631,"current_range_meters":30400,"station_id":"ce4bho12rcd13ifvqh1g","pricing_plan_id":"cebpf4jnsgd1na2vs0mg"},{"bike_id":"ccda7fc9-1fd3-4c2e-9926-323959f5fad4","system_id":"levelo_inurba_marseille","lat":43.26193,"lon":5.37451,"is_reserved":false,"is_disabled":false,"rental_uris":{"android":"levelo://app?vid=ccda7fc9-1fd3-4c2e-9926-323959f5fad4","ios":"levelo://app?vid=ccda7fc9-1fd3-4c2e-9926-323959f5fad4"},"vehicle_type_id":"4","last_reported":1730977631,"current_range_meters":32800,"station_id":"ce4bhgp2rcd13ifvqfc0","pricing_plan_id":"cebpf4jnsgd1na2vs0mg"},{"bike_id":"148a05b0-5e9b-4a2d-af89-c42d1ba92550","system_id":"levelo_inurba_marseille","lat":43.28038,"lon":5.36941,"is_reserved":false,"is_disabled":false,"rental_uris":{"android":"levelo://app?vid=148a05b0-5e9b-4a2d-af89-c42d1ba92550","ios":"levelo://app?vid=148a05b0-5e9b-4a2d-af89-c42d1ba92550"},"vehicle_type_id":"4","last_reported":1730977631,"current_range_meters":27600,"station_id":"ce4bha12rcd13ifvqef0","pricing_plan_id":"cebpf4jnsgd1na2vs0mg"},{"bike_id":"722763a4-ed0e-43be-94cf-ce427ed2a52d","system_id":"levelo_inurba_marseille","lat":43.299876,"lon":5.384616,"is_reserved":false,"is_disabled":false,"rental_uris":{"android":"levelo://app?vid=722763a4-ed0e-43be-94cf-ce427ed2a52d","ios":"levelo://app?vid=722763a4-ed0e-43be-94cf-ce427ed2a52d"},"vehicle_type_id":"4","last_reported":1730977631,"current_range_meters":37600,"station_id":"ce4bgop2rcd13ifvqc1g","pricing_plan_id":"cebpf4jnsgd1na2vs0mg"},{"bike_id":"70d67e8b-cf90-41d7-a359-ddc74e8f5edf","system_id":"levelo_inurba_marseille","lat":43.2593,"lon":5.40913,"is_reserved":false,"is_disabled":false,"rental_uris":{"android":"levelo://app?vid=70d67e8b-cf90-41d7-a359-ddc74e8f5edf","ios":"levelo://app?vid=70d67e8b-cf90-41d7-a359-ddc74e8f5edf"},"vehicle_type_id":"4","last_reported":1730977631,"current_range_meters":16400,"station_id":"ce4bhm92rcd13ifvqglg","pricing_plan_id":"cebpf4jnsgd1na2vs0mg"},{"bike_id":"76af8b3d-9a84-4e55-b4f5-30a2c29789a2","system_id":"levelo_inurba_marseille","lat":43.24085,"lon":5.37742,"is_reserved":false,"is_disabled":false,"rental_uris":{"android":"levelo://app?vid=76af8b3d-9a84-4e55-b4f5-30a2c29789a2","ios":"levelo://app?vid=76af8b3d-9a84-4e55-b4f5-30a2c29789a2"},"vehicle_type_id":"4","last_reported":1730977631,"current_range_meters":28000,"station_id":"ce4bhnp2rcd13ifvqgvg","pricing_plan_id":"cebpf4jnsgd1na2vs0mg"},{"bike_id":"d6012cce-4213-4913-a5ff-a23b071f00be","system_id":"levelo_inurba_marseille","lat":43.29627,"lon":5.37149,"is_reserved":false,"is_disabled":false,"rental_uris":{"android":"levelo://app?vid=d6012cce-4213-4913-a5ff-a23b071f00be","ios":"levelo://app?vid=d6012cce-4213-4913-a5ff-a23b071f00be"},"vehicle_type_id":"4","last_reported":1730977631,"current_range_meters":10800,"station_id":"ce4bgnh2rcd13ifvqc0g","pricing_plan_id":"cebpf4jnsgd1na2vs0mg"},{"bike_id":"efe92105-4d2a-4aaa-bfb1-ef29a0ae18f6","system_id":"levelo_inurba_marseille","lat":43.29513,"lon":5.37505,"is_reserved":false,"is_disabled":false,"rental_uris":{"android":"levelo://app?vid=efe92105-4d2a-4aaa-bfb1-ef29a0ae18f6","ios":"levelo://app?vid=efe92105-4d2a-4aaa-bfb1-ef29a0ae18f6"},"vehicle_type_id":"4","last_reported":1730977631,"current_range_meters":38800,"station_id":"ce4bgkp2rcd13ifvqbmg","pricing_plan_id":"cebpf4jnsgd1na2vs0mg"},{"bike_id":"bbde159d-771c-477e-9cb9-0b5767d2e088","system_id":"levelo_inurba_marseille","lat":43.31487,"lon":5.37309,"is_reserved":false,"is_disabled":false,"rental_uris":{"android":"levelo://app?vid=bbde159d-771c-477e-9cb9-0b5767d2e088","ios":"levelo://app?vid=bbde159d-771c-477e-9cb9-0b5767d2e088"},"vehicle_type_id":"4","last_reported":1730977631,"current_range_meters":12000,"station_id":"ce4bgt12rcd13ifvqcd0","pricing_plan_id":"cebpf4jnsgd1na2vs0mg"},{"bike_id":"be381f3f-5dc1-4e1c-823e-89aac21b78e7","system_id":"levelo_inurba_marseille","lat":43.3009,"lon":5.39077,"is_reserved":false,"is_disabled":false,"rental_uris":{"android":"levelo://app?vid=be381f3f-5dc1-4e1c-823e-89aac21b78e7","ios":"levelo://app?vid=be381f3f-5dc1-4e1c-823e-89aac21b78e7"},"vehicle_type_id":"4","last_reported":1730977631,"current_range_meters":28800,"station_id":"ce4bh192rcd13ifvqdb0","pricing_plan_id":"cebpf4jnsgd1na2vs0mg"},{"bike_id":"fa0b7a65-cee1-4d2a-a04c-01c31bf50672","system_id":"levelo_inurba_marseille","lat":43.24162,"lon":5.36395,"is_reserved":false,"is_disabled":false,"rental_uris":{"android":"levelo://app?vid=fa0b7a65-cee1-4d2a-a04c-01c31bf50672","ios":"levelo://app?vid=fa0b7a65-cee1-4d2a-a04c-01c31bf50672"},"vehicle_type_id":"4","last_reported":1730977631,"current_range_meters":24000,"station_id":"cpo36qri1sfpv3e86is0","pricing_plan_id":"cebpf4jnsgd1na2vs0mg"},{"bike_id":"d95b51c1-386f-4483-9f08-b643df67f690","system_id":"levelo_inurba_marseille","lat":43.29281,"lon":5.40115,"is_reserved":false,"is_disabled":false,"rental_uris":{"android":"levelo://app?vid=d95b51c1-386f-4483-9f08-b643df67f690","ios":"levelo://app?vid=d95b51c1-386f-4483-9f08-b643df67f690"},"vehicle_type_id":"4","last_reported":1730977631,"current_range_meters":37600,"station_id":"ce4bh312rcd13ifvqdk0","pricing_plan_id":"cebpf4jnsgd1na2vs0mg"},{"bike_id":"654f49c0-480a-4ee9-b8a1-00c9bf48d7ba","system_id":"levelo_inurba_marseille","lat":43.3015,"lon":5.38082,"is_reserved":false,"is_disabled":false,"rental_uris":{"android":"levelo://app?vid=654f49c0-480a-4ee9-b8a1-00c9bf48d7ba","ios":"levelo://app?vid=654f49c0-480a-4ee9-b8a1-00c9bf48d7ba"},"vehicle_type_id":"4","last_reported":1730977631,"current_range_meters":36000,"station_id":"ce4bgjp2rcd13ifvqbh0","pricing_plan_id":"cebpf4jnsgd1na2vs0mg"},{"bike_id":"5205fbf7-8d59-4be8-bf69-1e6422de7447","system_id":"levelo_inurba_marseille","lat":43.30905,"lon":5.36853,"is_reserved":false,"is_disabled":false,"rental_uris":{"android":"levelo://app?vid=5205fbf7-8d59-4be8-bf69-1e6422de7447","ios":"levelo://app?vid=5205fbf7-8d59-4be8-bf69-1e6422de7447"},"vehicle_type_id":"4","last_reported":1730977631,"current_range_meters":8000,"station_id":"ce4bgn92rcd13ifvqbvg","pricing_plan_id":"cebpf4jnsgd1na2vs0mg"},{"bike_id":"cb0ff2cc-ff1a-49a6-b8fb-f55be74a223d","system_id":"levelo_inurba_marseille","lat":43.30553,"lon":5.36524,"is_reserved":false,"is_disabled":false,"rental_uris":{"android":"levelo://app?vid=cb0ff2cc-ff1a-49a6-b8fb-f55be74a223d","ios":"levelo://app?vid=cb0ff2cc-ff1a-49a6-b8fb-f55be74a223d"},"vehicle_type_id":"4","last_reported":1730977631,"current_range_meters":31200,"station_id":"ce4bgs12rcd13ifvqcag","pricing_plan_id":"cebpf4jnsgd1na2vs0mg"},{"bike_id":"f83008c0-ec17-4f08-a321-f02a9ba44293","system_id":"levelo_inurba_marseille","lat":43.3414,"lon":5.40907,"is_reserved":false,"is_disabled":false,"rental_uris":{"android":"levelo://app?vid=f83008c0-ec17-4f08-a321-f02a9ba44293","ios":"levelo://app?vid=f83008c0-ec17-4f08-a321-f02a9ba44293"},"vehicle_type_id":"4","last_reported":1730977631,"current_range_meters":24000,"station_id":"ce4bhqh2rcd13ifvqhlg","pricing_plan_id":"cebpf4jnsgd1na2vs0mg"},{"bike_id":"4f4d40a6-2618-4162-9943-9d193f6b4eee","system_id":"levelo_inurba_marseille","lat":43.29375,"lon":5.3785,"is_reserved":false,"is_disabled":false,"rental_uris":{"android":"levelo://app?vid=4f4d40a6-2618-4162-9943-9d193f6b4eee","ios":"levelo://app?vid=4f4d40a6-2618-4162-9943-9d193f6b4eee"},"vehicle_type_id":"4","last_reported":1730977631,"current_range_meters":40000,"station_id":"ce4bgjh2rcd13ifvqbf0","pricing_plan_id":"cebpf4jnsgd1na2vs0mg"},{"bike_id":"ea3d6eef-507a-4895-b66d-41354eebe112","system_id":"levelo_inurba_marseille","lat":43.27214,"lon":5.39181,"is_reserved":false,"is_disabled":false,"rental_uris":{"android":"levelo://app?vid=ea3d6eef-507a-4895-b66d-41354eebe112","ios":"levelo://app?vid=ea3d6eef-507a-4895-b66d-41354eebe112"},"vehicle_type_id":"4","last_reported":1730977631,"current_range_meters":14400,"station_id":"ce4bhhp2rcd13ifvqfm0","pricing_plan_id":"cebpf4jnsgd1na2vs0mg"},{"bike_id":"73ddab19-f3bf-49d8-9a14-da51e0ed8f6c","system_id":"levelo_inurba_marseille","lat":43.23144,"lon":5.4372,"is_reserved":false,"is_disabled":false,"rental_uris":{"android":"levelo://app?vid=73ddab19-f3bf-49d8-9a14-da51e0ed8f6c","ios":"levelo://app?vid=73ddab19-f3bf-49d8-9a14-da51e0ed8f6c"},"vehicle_type_id":"4","last_reported":1730977631,"current_range_meters":40000,"station_id":"ce4bhmp2rcd13ifvqgog","pricing_plan_id":"cebpf4jnsgd1na2vs0mg"},{"bike_id":"d1eef8ed-8492-4f33-b593-cbb9c4965d77","system_id":"levelo_inurba_marseille","lat":43.275,"lon":5.4245,"is_reserved":false,"is_disabled":false,"rental_uris":{"android":"levelo://app?vid=d1eef8ed-8492-4f33-b593-cbb9c4965d77","ios":"levelo://app?vid=d1eef8ed-8492-4f33-b593-cbb9c4965d77"},"vehicle_type_id":"4","last_reported":1730977631,"current_range_meters":31200,"station_id":"ce4bhn92rcd13ifvqgrg","pricing_plan_id":"cebpf4jnsgd1na2vs0mg"},{"bike_id":"f4c9a353-b8df-4e25-a8dc-b8756d83db91","system_id":"levelo_inurba_marseille","lat":43.25498,"lon":5.37652,"is_reserved":false,"is_disabled":false,"rental_uris":{"android":"levelo://app?vid=f4c9a353-b8df-4e25-a8dc-b8756d83db91","ios":"levelo://app?vid=f4c9a353-b8df-4e25-a8dc-b8756d83db91"},"vehicle_type_id":"4","last_reported":1730977631,"current_range_meters":33200,"station_id":"ce4bhh12rcd13ifvqff0","pricing_plan_id":"cebpf4jnsgd1na2vs0mg"},{"bike_id":"20cea814-d5e9-443f-af38-ab0bfc89b77e","system_id":"levelo_inurba_marseille","lat":43.28271,"lon":5.35057,"is_reserved":false,"is_disabled":false,"rental_uris":{"android":"levelo://app?vid=20cea814-d5e9-443f-af38-ab0bfc89b77e","ios":"levelo://app?vid=20cea814-d5e9-443f-af38-ab0bfc89b77e"},"vehicle_type_id":"4","last_reported":1730977631,"current_range_meters":14800,"station_id":"ce4bhbp2rcd13ifvqerg","pricing_plan_id":"cebpf4jnsgd1na2vs0mg"},{"bike_id":"9d696f74-b98f-4b00-9f07-06ed4abe3915","system_id":"levelo_inurba_marseille","lat":43.24081,"lon":5.37748,"is_reserved":false,"is_disabled":false,"rental_uris":{"android":"levelo://app?vid=9d696f74-b98f-4b00-9f07-06ed4abe3915","ios":"levelo://app?vid=9d696f74-b98f-4b00-9f07-06ed4abe3915"},"vehicle_type_id":"4","last_reported":1730977631,"current_range_meters":32400,"station_id":"ce4bhnp2rcd13ifvqgvg","pricing_plan_id":"cebpf4jnsgd1na2vs0mg"},{"bike_id":"2e20f2a1-b564-48ea-877a-8fba77b4c953","system_id":"levelo_inurba_marseille","lat":43.22922,"lon":5.3538,"is_reserved":false,"is_disabled":false,"rental_uris":{"android":"levelo://app?vid=2e20f2a1-b564-48ea-877a-8fba77b4c953","ios":"levelo://app?vid=2e20f2a1-b564-48ea-877a-8fba77b4c953"},"vehicle_type_id":"4","last_reported":1730977631,"current_range_meters":38000,"station_id":"cpo3532slgdg3j2ikp40","pricing_plan_id":"cebpf4jnsgd1na2vs0mg"},{"bike_id":"9342832e-6047-4f36-9373-29dcda21db05","system_id":"levelo_inurba_marseille","lat":43.24168,"lon":5.36395,"is_reserved":false,"is_disabled":false,"rental_uris":{"android":"levelo://app?vid=9342832e-6047-4f36-9373-29dcda21db05","ios":"levelo://app?vid=9342832e-6047-4f36-9373-29dcda21db05"},"vehicle_type_id":"4","last_reported":1730977631,"current_range_meters":8400,"station_id":"cpo36qri1sfpv3e86is0","pricing_plan_id":"cebpf4jnsgd1na2vs0mg"},{"bike_id":"2c943a5b-2683-45f2-a740-258d4646045b","system_id":"levelo_inurba_marseille","lat":43.29733,"lon":5.37686,"is_reserved":false,"is_disabled":false,"rental_uris":{"android":"levelo://app?vid=2c943a5b-2683-45f2-a740-258d4646045b","ios":"levelo://app?vid=2c943a5b-2683-45f2-a740-258d4646045b"},"vehicle_type_id":"4","last_reported":1730977631,"current_range_meters":30400,"station_id":"ce4bgkh2rcd13ifvqbl0","pricing_plan_id":"cebpf4jnsgd1na2vs0mg"},{"bike_id":"4df686f7-8cdc-4be1-bac7-404bbaea22b8","system_id":"levelo_inurba_marseille","lat":43.23968,"lon":5.36631,"is_reserved":false,"is_disabled":false,"rental_uris":{"android":"levelo://app?vid=4df686f7-8cdc-4be1-bac7-404bbaea22b8","ios":"levelo://app?vid=4df686f7-8cdc-4be1-bac7-404bbaea22b8"},"vehicle_type_id":"4","last_reported":1730977631,"current_range_meters":22800,"station_id":"ce4bhi12rcd13ifvqfp0","pricing_plan_id":"cebpf4jnsgd1na2vs0mg"},{"bike_id":"4bab1dea-4fd2-4a9b-a80a-2ef71cd727ad","system_id":"levelo_inurba_marseille","lat":43.24082,"lon":5.37741,"is_reserved":false,"is_disabled":false,"rental_uris":{"android":"levelo://app?vid=4bab1dea-4fd2-4a9b-a80a-2ef71cd727ad","ios":"levelo://app?vid=4bab1dea-4fd2-4a9b-a80a-2ef71cd727ad"},"vehicle_type_id":"4","last_reported":1730977631,"current_range_meters":2800,"station_id":"ce4bhnp2rcd13ifvqgvg","pricing_plan_id":"cebpf4jnsgd1na2vs0mg"},{"bike_id":"e2f62a7a-4a87-4252-a97d-2b736d23e924","system_id":"levelo_inurba_marseille","lat":43.29923,"lon":5.37468,"is_reserved":false,"is_disabled":false,"rental_uris":{"android":"levelo://app?vid=e2f62a7a-4a87-4252-a97d-2b736d23e924","ios":"levelo://app?vid=e2f62a7a-4a87-4252-a97d-2b736d23e924"},"vehicle_type_id":"4","last_reported":1730977631,"current_range_meters":28400,"station_id":"ce4bgjh2rcd13ifvqbg0","pricing_plan_id":"cebpf4jnsgd1na2vs0mg"},{"bike_id":"e3ee10fb-8b83-41c1-b250-bb9136e88156","system_id":"levelo_inurba_marseille","lat":43.24082,"lon":5.37728,"is_reserved":false,"is_disabled":false,"rental_uris":{"android":"levelo://app?vid=e3ee10fb-8b83-41c1-b250-bb9136e88156","ios":"levelo://app?vid=e3ee10fb-8b83-41c1-b250-bb9136e88156"},"vehicle_type_id":"4","last_reported":1730977631,"current_range_meters":21600,"station_id":"ce4bhnp2rcd13ifvqgvg","pricing_plan_id":"cebpf4jnsgd1na2vs0mg"},{"bike_id":"be2379f1-2fee-4126-8b97-3ac71858d97d","system_id":"levelo_inurba_marseille","lat":43.27811,"lon":5.407081,"is_reserved":false,"is_disabled":false,"rental_uris":{"android":"levelo://app?vid=be2379f1-2fee-4126-8b97-3ac71858d97d","ios":"levelo://app?vid=be2379f1-2fee-4126-8b97-3ac71858d97d"},"vehicle_type_id":"4","last_reported":1730977631,"current_range_meters":38800,"station_id":"ce4bhnh2rcd13ifvqgtg","pricing_plan_id":"cebpf4jnsgd1na2vs0mg"},{"bike_id":"84c10ecf-fd70-42a4-91a9-a3bf7b0dfb61","system_id":"levelo_inurba_marseille","lat":43.29788,"lon":5.38101,"is_reserved":false,"is_disabled":false,"rental_uris":{"android":"levelo://app?vid=84c10ecf-fd70-42a4-91a9-a3bf7b0dfb61","ios":"levelo://app?vid=84c10ecf-fd70-42a4-91a9-a3bf7b0dfb61"},"vehicle_type_id":"4","last_reported":1730977631,"current_range_meters":14000,"station_id":"ce4bgip2rcd13ifvqbb0","pricing_plan_id":"cebpf4jnsgd1na2vs0mg"},{"bike_id":"02201f09-e796-4d79-b16d-1a6e9fceccff","system_id":"levelo_inurba_marseille","lat":43.29253,"lon":5.40893,"is_reserved":false,"is_disabled":false,"rental_uris":{"android":"levelo://app?vid=02201f09-e796-4d79-b16d-1a6e9fceccff","ios":"levelo://app?vid=02201f09-e796-4d79-b16d-1a6e9fceccff"},"vehicle_type_id":"4","last_reported":1730977631,"current_range_meters":21600,"station_id":"ce4bh192rcd13ifvqdc0","pricing_plan_id":"cebpf4jnsgd1na2vs0mg"},{"bike_id":"b0a90dc9-62f4-4afc-a7f7-e2037fc95ad6","system_id":"levelo_inurba_marseille","lat":43.2749,"lon":5.42452,"is_reserved":false,"is_disabled":false,"rental_uris":{"android":"levelo://app?vid=b0a90dc9-62f4-4afc-a7f7-e2037fc95ad6","ios":"levelo://app?vid=b0a90dc9-62f4-4afc-a7f7-e2037fc95ad6"},"vehicle_type_id":"4","last_reported":1730977631,"current_range_meters":31200,"station_id":"ce4bhn92rcd13ifvqgrg","pricing_plan_id":"cebpf4jnsgd1na2vs0mg"},{"bike_id":"4197ec81-659e-4130-8a78-6c25b374d96c","system_id":"levelo_inurba_marseille","lat":43.29871,"lon":5.3974,"is_reserved":false,"is_disabled":false,"rental_uris":{"android":"levelo://app?vid=4197ec81-659e-4130-8a78-6c25b374d96c","ios":"levelo://app?vid=4197ec81-659e-4130-8a78-6c25b374d96c"},"vehicle_type_id":"4","last_reported":1730977631,"current_range_meters":31200,"station_id":"ce4bh0h2rcd13ifvqd50","pricing_plan_id":"cebpf4jnsgd1na2vs0mg"},{"bike_id":"75f58f9a-9fc5-4b9b-a014-3ffcb278b597","system_id":"levelo_inurba_marseille","lat":43.30879,"lon":5.39637,"is_reserved":false,"is_disabled":false,"rental_uris":{"android":"levelo://app?vid=75f58f9a-9fc5-4b9b-a014-3ffcb278b597","ios":"levelo://app?vid=75f58f9a-9fc5-4b9b-a014-3ffcb278b597"},"vehicle_type_id":"4","last_reported":1730977631,"current_range_meters":38800,"station_id":"ce4bh012rcd13ifvqcv0","pricing_plan_id":"cebpf4jnsgd1na2vs0mg"},{"bike_id":"34db35d6-c534-453f-8026-9ad1841046bc","system_id":"levelo_inurba_marseille","lat":43.24163,"lon":5.36397,"is_reserved":false,"is_disabled":false,"rental_uris":{"android":"levelo://app?vid=34db35d6-c534-453f-8026-9ad1841046bc","ios":"levelo://app?vid=34db35d6-c534-453f-8026-9ad1841046bc"},"vehicle_type_id":"4","last_reported":1730977631,"current_range_meters":14400,"station_id":"cpo36qri1sfpv3e86is0","pricing_plan_id":"cebpf4jnsgd1na2vs0mg"},{"bike_id":"1ebcb894-33c0-4978-a2f6-3f53cef6cbb5","system_id":"levelo_inurba_marseille","lat":43.29735,"lon":5.37682,"is_reserved":false,"is_disabled":false,"rental_uris":{"android":"levelo://app?vid=1ebcb894-33c0-4978-a2f6-3f53cef6cbb5","ios":"levelo://app?vid=1ebcb894-33c0-4978-a2f6-3f53cef6cbb5"},"vehicle_type_id":"4","last_reported":1730977631,"current_range_meters":38800,"station_id":"ce4bgkh2rcd13ifvqbl0","pricing_plan_id":"cebpf4jnsgd1na2vs0mg"},{"bike_id":"79582731-c85c-44df-9358-c2952f2edf19","system_id":"levelo_inurba_marseille","lat":43.26685,"lon":5.38269,"is_reserved":false,"is_disabled":false,"rental_uris":{"android":"levelo://app?vid=79582731-c85c-44df-9358-c2952f2edf19","ios":"levelo://app?vid=79582731-c85c-44df-9358-c2952f2edf19"},"vehicle_type_id":"4","last_reported":1730977631,"current_range_meters":23200,"station_id":"ce4bhg92rcd13ifvqf90","pricing_plan_id":"cebpf4jnsgd1na2vs0mg"},{"bike_id":"59661789-020d-44ed-b22a-6b002ee464f6","system_id":"levelo_inurba_marseille","lat":43.30595,"lon":5.39351,"is_reserved":false,"is_disabled":false,"rental_uris":{"android":"levelo://app?vid=59661789-020d-44ed-b22a-6b002ee464f6","ios":"levelo://app?vid=59661789-020d-44ed-b22a-6b002ee464f6"},"vehicle_type_id":"4","last_reported":1730977631,"current_range_meters":38000,"station_id":"ce4bh0p2rcd13ifvqd80","pricing_plan_id":"cebpf4jnsgd1na2vs0mg"},{"bike_id":"e41e5be4-c508-4d61-b847-98292c01416f","system_id":"levelo_inurba_marseille","lat":43.24086,"lon":5.37754,"is_reserved":false,"is_disabled":false,"rental_uris":{"android":"levelo://app?vid=e41e5be4-c508-4d61-b847-98292c01416f","ios":"levelo://app?vid=e41e5be4-c508-4d61-b847-98292c01416f"},"vehicle_type_id":"4","last_reported":1730977631,"current_range_meters":33600,"station_id":"ce4bhnp2rcd13ifvqgvg","pricing_plan_id":"cebpf4jnsgd1na2vs0mg"},{"bike_id":"777b89e5-b76d-4d78-82b0-4c5ddd31ac76","system_id":"levelo_inurba_marseille","lat":43.28695,"lon":5.39973,"is_reserved":false,"is_disabled":false,"rental_uris":{"android":"levelo://app?vid=777b89e5-b76d-4d78-82b0-4c5ddd31ac76","ios":"levelo://app?vid=777b89e5-b76d-4d78-82b0-4c5ddd31ac76"},"vehicle_type_id":"4","last_reported":1730977631,"current_range_meters":22800,"station_id":"ce4bho92rcd13ifvqh3g","pricing_plan_id":"cebpf4jnsgd1na2vs0mg"},{"bike_id":"f1461fba-e0b0-44e4-977f-acc0ddb99640","system_id":"levelo_inurba_marseille","lat":43.27812,"lon":5.40716,"is_reserved":false,"is_disabled":false,"rental_uris":{"android":"levelo://app?vid=f1461fba-e0b0-44e4-977f-acc0ddb99640","ios":"levelo://app?vid=f1461fba-e0b0-44e4-977f-acc0ddb99640"},"vehicle_type_id":"4","last_reported":1730977631,"current_range_meters":36000,"station_id":"ce4bhnh2rcd13ifvqgtg","pricing_plan_id":"cebpf4jnsgd1na2vs0mg"},{"bike_id":"56724e01-9843-478f-9957-90072d770c6c","system_id":"levelo_inurba_marseille","lat":43.23198,"lon":5.35547,"is_reserved":false,"is_disabled":false,"rental_uris":{"android":"levelo://app?vid=56724e01-9843-478f-9957-90072d770c6c","ios":"levelo://app?vid=56724e01-9843-478f-9957-90072d770c6c"},"vehicle_type_id":"4","last_reported":1730977631,"current_range_meters":10800,"station_id":"ce4bhu92rcd13ifvqi70","pricing_plan_id":"cebpf4jnsgd1na2vs0mg"},{"bike_id":"a984623c-4379-4f58-8b87-4a7f6b0fc333","system_id":"levelo_inurba_marseille","lat":43.29366,"lon":5.37843,"is_reserved":false,"is_disabled":false,"rental_uris":{"android":"levelo://app?vid=a984623c-4379-4f58-8b87-4a7f6b0fc333","ios":"levelo://app?vid=a984623c-4379-4f58-8b87-4a7f6b0fc333"},"vehicle_type_id":"4","last_reported":1730977631,"current_range_meters":10800,"station_id":"ce4bgjh2rcd13ifvqbf0","pricing_plan_id":"cebpf4jnsgd1na2vs0mg"},{"bike_id":"2133dfbe-49e8-4189-a0e7-2637129ed1cc","system_id":"levelo_inurba_marseille","lat":43.30153,"lon":5.38084,"is_reserved":false,"is_disabled":false,"rental_uris":{"android":"levelo://app?vid=2133dfbe-49e8-4189-a0e7-2637129ed1cc","ios":"levelo://app?vid=2133dfbe-49e8-4189-a0e7-2637129ed1cc"},"vehicle_type_id":"4","last_reported":1730977631,"current_range_meters":13600,"station_id":"ce4bgjp2rcd13ifvqbh0","pricing_plan_id":"cebpf4jnsgd1na2vs0mg"},{"bike_id":"cde33d01-4fdf-4588-9993-50576e545d63","system_id":"levelo_inurba_marseille","lat":43.29899,"lon":5.43668,"is_reserved":false,"is_disabled":false,"rental_uris":{"android":"levelo://app?vid=cde33d01-4fdf-4588-9993-50576e545d63","ios":"levelo://app?vid=cde33d01-4fdf-4588-9993-50576e545d63"},"vehicle_type_id":"4","last_reported":1730977631,"current_range_meters":34000,"station_id":"ce4bhpp2rcd13ifvqhfg","pricing_plan_id":"cebpf4jnsgd1na2vs0mg"},{"bike_id":"84d60574-e97d-416a-bb69-40e9fb469182","system_id":"levelo_inurba_marseille","lat":43.22927,"lon":5.35381,"is_reserved":false,"is_disabled":false,"rental_uris":{"android":"levelo://app?vid=84d60574-e97d-416a-bb69-40e9fb469182","ios":"levelo://app?vid=84d60574-e97d-416a-bb69-40e9fb469182"},"vehicle_type_id":"4","last_reported":1730977631,"current_range_meters":39200,"station_id":"cpo3532slgdg3j2ikp40","pricing_plan_id":"cebpf4jnsgd1na2vs0mg"},{"bike_id":"76d3aa03-bda5-4c48-ac3f-ae5cd34f6412","system_id":"levelo_inurba_marseille","lat":43.25866,"lon":5.39897,"is_reserved":false,"is_disabled":false,"rental_uris":{"android":"levelo://app?vid=76d3aa03-bda5-4c48-ac3f-ae5cd34f6412","ios":"levelo://app?vid=76d3aa03-bda5-4c48-ac3f-ae5cd34f6412"},"vehicle_type_id":"4","last_reported":1730977631,"current_range_meters":36800,"station_id":"ce4bhl92rcd13ifvqghg","pricing_plan_id":"cebpf4jnsgd1na2vs0mg"},{"bike_id":"34634ce2-f8c9-4afd-9d91-a815c55201fd","system_id":"levelo_inurba_marseille","lat":43.28416,"lon":5.40921,"is_reserved":false,"is_disabled":false,"rental_uris":{"android":"levelo://app?vid=34634ce2-f8c9-4afd-9d91-a815c55201fd","ios":"levelo://app?vid=34634ce2-f8c9-4afd-9d91-a815c55201fd"},"vehicle_type_id":"4","last_reported":1730977631,"current_range_meters":26000,"station_id":"","pricing_plan_id":"cebpf4jnsgd1na2vs0mg"},{"bike_id":"5eed7c4f-166a-423f-b11f-87a3edace396","system_id":"levelo_inurba_marseille","lat":43.25937,"lon":5.409,"is_reserved":false,"is_disabled":false,"rental_uris":{"android":"levelo://app?vid=5eed7c4f-166a-423f-b11f-87a3edace396","ios":"levelo://app?vid=5eed7c4f-166a-423f-b11f-87a3edace396"},"vehicle_type_id":"4","last_reported":1730977631,"current_range_meters":6400,"station_id":"ce4bhm92rcd13ifvqglg","pricing_plan_id":"cebpf4jnsgd1na2vs0mg"},{"bike_id":"a7dff672-307b-4d83-b66c-dd18be68b2cf","system_id":"levelo_inurba_marseille","lat":43.26786,"lon":5.39415,"is_reserved":false,"is_disabled":false,"rental_uris":{"android":"levelo://app?vid=a7dff672-307b-4d83-b66c-dd18be68b2cf","ios":"levelo://app?vid=a7dff672-307b-4d83-b66c-dd18be68b2cf"},"vehicle_type_id":"4","last_reported":1730977631,"current_range_meters":29600,"station_id":"ce4bhh12rcd13ifvqfg0","pricing_plan_id":"cebpf4jnsgd1na2vs0mg"},{"bike_id":"4b10cec4-8762-4534-8619-24071a570ab9","system_id":"levelo_inurba_marseille","lat":43.29097,"lon":5.38131,"is_reserved":false,"is_disabled":false,"rental_uris":{"android":"levelo://app?vid=4b10cec4-8762-4534-8619-24071a570ab9","ios":"levelo://app?vid=4b10cec4-8762-4534-8619-24071a570ab9"},"vehicle_type_id":"4","last_reported":1730977631,"current_range_meters":10800,"station_id":"ce4bh512rcd13ifvqe2g","pricing_plan_id":"cebpf4jnsgd1na2vs0mg"},{"bike_id":"22407d56-9066-4258-a714-f13fe7eb454a","system_id":"levelo_inurba_marseille","lat":43.29191,"lon":5.39328,"is_reserved":false,"is_disabled":false,"rental_uris":{"android":"levelo://app?vid=22407d56-9066-4258-a714-f13fe7eb454a","ios":"levelo://app?vid=22407d56-9066-4258-a714-f13fe7eb454a"},"vehicle_type_id":"4","last_reported":1730977631,"current_range_meters":38000,"station_id":"ce4bh192rcd13ifvqdd0","pricing_plan_id":"cebpf4jnsgd1na2vs0mg"},{"bike_id":"5174ae6b-73b7-4eb9-b82e-9c61c1f78ce8","system_id":"levelo_inurba_marseille","lat":43.31228,"lon":5.40607,"is_reserved":false,"is_disabled":false,"rental_uris":{"android":"levelo://app?vid=5174ae6b-73b7-4eb9-b82e-9c61c1f78ce8","ios":"levelo://app?vid=5174ae6b-73b7-4eb9-b82e-9c61c1f78ce8"},"vehicle_type_id":"4","last_reported":1730977631,"current_range_meters":17200,"station_id":"","pricing_plan_id":"cebpf4jnsgd1na2vs0mg"},{"bike_id":"6b42a713-24aa-457b-ae50-adbb0538cfbc","system_id":"levelo_inurba_marseille","lat":43.24674,"lon":5.38167,"is_reserved":false,"is_disabled":false,"rental_uris":{"android":"levelo://app?vid=6b42a713-24aa-457b-ae50-adbb0538cfbc","ios":"levelo://app?vid=6b42a713-24aa-457b-ae50-adbb0538cfbc"},"vehicle_type_id":"4","last_reported":1730977631,"current_range_meters":28000,"station_id":"ce4bhih2rcd13ifvqfr0","pricing_plan_id":"cebpf4jnsgd1na2vs0mg"},{"bike_id":"63e2c238-4362-42f9-b3e2-f038c4a1d015","system_id":"levelo_inurba_marseille","lat":43.32482,"lon":5.36557,"is_reserved":false,"is_disabled":false,"rental_uris":{"android":"levelo://app?vid=63e2c238-4362-42f9-b3e2-f038c4a1d015","ios":"levelo://app?vid=63e2c238-4362-42f9-b3e2-f038c4a1d015"},"vehicle_type_id":"4","last_reported":1730977631,"current_range_meters":32400,"station_id":"ce4bhs12rcd13ifvqhvg","pricing_plan_id":"cebpf4jnsgd1na2vs0mg"},{"bike_id":"d85d608a-305e-4359-a902-0f8122cf9538","system_id":"levelo_inurba_marseille","lat":43.2721,"lon":5.39182,"is_reserved":false,"is_disabled":false,"rental_uris":{"android":"levelo://app?vid=d85d608a-305e-4359-a902-0f8122cf9538","ios":"levelo://app?vid=d85d608a-305e-4359-a902-0f8122cf9538"},"vehicle_type_id":"4","last_reported":1730977631,"current_range_meters":25200,"station_id":"ce4bhhp2rcd13ifvqfm0","pricing_plan_id":"cebpf4jnsgd1na2vs0mg"},{"bike_id":"560b8690-a84c-4e4a-80ef-4792530d5f11","system_id":"levelo_inurba_marseille","lat":43.30285,"lon":5.377,"is_reserved":false,"is_disabled":false,"rental_uris":{"android":"levelo://app?vid=560b8690-a84c-4e4a-80ef-4792530d5f11","ios":"levelo://app?vid=560b8690-a84c-4e4a-80ef-4792530d5f11"},"vehicle_type_id":"4","last_reported":1730977631,"current_range_meters":39200,"station_id":"ce4bguh2rcd13ifvqcj0","pricing_plan_id":"cebpf4jnsgd1na2vs0mg"},{"bike_id":"c3e27800-3ee3-4406-99ec-fa9ce1dee0ca","system_id":"levelo_inurba_marseille","lat":43.30532,"lon":5.36532,"is_reserved":false,"is_disabled":false,"rental_uris":{"android":"levelo://app?vid=c3e27800-3ee3-4406-99ec-fa9ce1dee0ca","ios":"levelo://app?vid=c3e27800-3ee3-4406-99ec-fa9ce1dee0ca"},"vehicle_type_id":"4","last_reported":1730977631,"current_range_meters":40000,"station_id":"ce4bgs12rcd13ifvqcag","pricing_plan_id":"cebpf4jnsgd1na2vs0mg"},{"bike_id":"e3f9c656-6a4a-4fab-af65-170ed69a600b","system_id":"levelo_inurba_marseille","lat":43.25002,"lon":5.38923,"is_reserved":false,"is_disabled":false,"rental_uris":{"android":"levelo://app?vid=e3f9c656-6a4a-4fab-af65-170ed69a600b","ios":"levelo://app?vid=e3f9c656-6a4a-4fab-af65-170ed69a600b"},"vehicle_type_id":"4","last_reported":1730977631,"current_range_meters":12000,"station_id":"ce4bhgp2rcd13ifvqfd0","pricing_plan_id":"cebpf4jnsgd1na2vs0mg"},{"bike_id":"e4514b24-38be-4b78-b84b-e2df015203eb","system_id":"levelo_inurba_marseille","lat":43.301,"lon":5.39081,"is_reserved":false,"is_disabled":false,"rental_uris":{"android":"levelo://app?vid=e4514b24-38be-4b78-b84b-e2df015203eb","ios":"levelo://app?vid=e4514b24-38be-4b78-b84b-e2df015203eb"},"vehicle_type_id":"4","last_reported":1730977631,"current_range_meters":38800,"station_id":"ce4bh192rcd13ifvqdb0","pricing_plan_id":"cebpf4jnsgd1na2vs0mg"},{"bike_id":"76733292-6685-4127-a6aa-dc0a61b373d8","system_id":"levelo_inurba_marseille","lat":43.23155,"lon":5.43711,"is_reserved":false,"is_disabled":false,"rental_uris":{"android":"levelo://app?vid=76733292-6685-4127-a6aa-dc0a61b373d8","ios":"levelo://app?vid=76733292-6685-4127-a6aa-dc0a61b373d8"},"vehicle_type_id":"4","last_reported":1730977631,"current_range_meters":37600,"station_id":"ce4bhmp2rcd13ifvqgog","pricing_plan_id":"cebpf4jnsgd1na2vs0mg"},{"bike_id":"57e51c95-6dcf-4348-9d31-c84710a78078","system_id":"levelo_inurba_marseille","lat":43.29877,"lon":5.38906,"is_reserved":false,"is_disabled":false,"rental_uris":{"android":"levelo://app?vid=57e51c95-6dcf-4348-9d31-c84710a78078","ios":"levelo://app?vid=57e51c95-6dcf-4348-9d31-c84710a78078"},"vehicle_type_id":"4","last_reported":1730977631,"current_range_meters":37600,"station_id":"ce4bh392rcd13ifvqdl0","pricing_plan_id":"cebpf4jnsgd1na2vs0mg"},{"bike_id":"4425573e-d73c-4468-ae36-c95cd2911915","system_id":"levelo_inurba_marseille","lat":43.30152,"lon":5.38078,"is_reserved":false,"is_disabled":false,"rental_uris":{"android":"levelo://app?vid=4425573e-d73c-4468-ae36-c95cd2911915","ios":"levelo://app?vid=4425573e-d73c-4468-ae36-c95cd2911915"},"vehicle_type_id":"4","last_reported":1730977631,"current_range_meters":31200,"station_id":"ce4bgjp2rcd13ifvqbh0","pricing_plan_id":"cebpf4jnsgd1na2vs0mg"},{"bike_id":"d2b5ae04-bf97-434f-ac93-455ec669af96","system_id":"levelo_inurba_marseille","lat":43.2606,"lon":5.394,"is_reserved":false,"is_disabled":false,"rental_uris":{"android":"levelo://app?vid=d2b5ae04-bf97-434f-ac93-455ec669af96","ios":"levelo://app?vid=d2b5ae04-bf97-434f-ac93-455ec669af96"},"vehicle_type_id":"4","last_reported":1730977631,"current_range_meters":40000,"station_id":"ce4bhh92rcd13ifvqfj0","pricing_plan_id":"cebpf4jnsgd1na2vs0mg"},{"bike_id":"6772904a-4738-4976-814a-5dff963f98da","system_id":"levelo_inurba_marseille","lat":43.2694,"lon":5.40247,"is_reserved":false,"is_disabled":false,"rental_uris":{"android":"levelo://app?vid=6772904a-4738-4976-814a-5dff963f98da","ios":"levelo://app?vid=6772904a-4738-4976-814a-5dff963f98da"},"vehicle_type_id":"4","last_reported":1730977631,"current_range_meters":37600,"station_id":"cjm6bp8fraef2m0cb0m0","pricing_plan_id":"cebpf4jnsgd1na2vs0mg"},{"bike_id":"7d695c17-f9b8-4889-98ee-010a585ab5ca","system_id":"levelo_inurba_marseille","lat":43.27211,"lon":5.3917,"is_reserved":false,"is_disabled":false,"rental_uris":{"android":"levelo://app?vid=7d695c17-f9b8-4889-98ee-010a585ab5ca","ios":"levelo://app?vid=7d695c17-f9b8-4889-98ee-010a585ab5ca"},"vehicle_type_id":"4","last_reported":1730977631,"current_range_meters":25200,"station_id":"ce4bhhp2rcd13ifvqfm0","pricing_plan_id":"cebpf4jnsgd1na2vs0mg"},{"bike_id":"3d01e70a-a8cc-47f4-b4c4-c564b1ef0672","system_id":"levelo_inurba_marseille","lat":43.30311,"lon":5.39215,"is_reserved":false,"is_disabled":false,"rental_uris":{"android":"levelo://app?vid=3d01e70a-a8cc-47f4-b4c4-c564b1ef0672","ios":"levelo://app?vid=3d01e70a-a8cc-47f4-b4c4-c564b1ef0672"},"vehicle_type_id":"4","last_reported":1730977631,"current_range_meters":25600,"station_id":"ce4bgkh2rcd13ifvqbk0","pricing_plan_id":"cebpf4jnsgd1na2vs0mg"},{"bike_id":"167213ef-1f2e-4c37-90a6-0a3b5e442073","system_id":"levelo_inurba_marseille","lat":43.30151,"lon":5.38088,"is_reserved":false,"is_disabled":false,"rental_uris":{"android":"levelo://app?vid=167213ef-1f2e-4c37-90a6-0a3b5e442073","ios":"levelo://app?vid=167213ef-1f2e-4c37-90a6-0a3b5e442073"},"vehicle_type_id":"4","last_reported":1730977631,"current_range_meters":35200,"station_id":"ce4bgjp2rcd13ifvqbh0","pricing_plan_id":"cebpf4jnsgd1na2vs0mg"},{"bike_id":"9298a827-044f-420d-b706-5813e4371d61","system_id":"levelo_inurba_marseille","lat":43.31496,"lon":5.37304,"is_reserved":false,"is_disabled":false,"rental_uris":{"android":"levelo://app?vid=9298a827-044f-420d-b706-5813e4371d61","ios":"levelo://app?vid=9298a827-044f-420d-b706-5813e4371d61"},"vehicle_type_id":"4","last_reported":1730977631,"current_range_meters":28800,"station_id":"ce4bgt12rcd13ifvqcd0","pricing_plan_id":"cebpf4jnsgd1na2vs0mg"},{"bike_id":"56c14c33-2f49-48ae-9a36-8d0346ec2c04","system_id":"levelo_inurba_marseille","lat":43.2315,"lon":5.43716,"is_reserved":false,"is_disabled":false,"rental_uris":{"android":"levelo://app?vid=56c14c33-2f49-48ae-9a36-8d0346ec2c04","ios":"levelo://app?vid=56c14c33-2f49-48ae-9a36-8d0346ec2c04"},"vehicle_type_id":"4","last_reported":1730977631,"current_range_meters":18000,"station_id":"ce4bhmp2rcd13ifvqgog","pricing_plan_id":"cebpf4jnsgd1na2vs0mg"},{"bike_id":"f9b51361-1f59-4e32-8790-218894731a9c","system_id":"levelo_inurba_marseille","lat":43.23966,"lon":5.36629,"is_reserved":false,"is_disabled":false,"rental_uris":{"android":"levelo://app?vid=f9b51361-1f59-4e32-8790-218894731a9c","ios":"levelo://app?vid=f9b51361-1f59-4e32-8790-218894731a9c"},"vehicle_type_id":"4","last_reported":1730977631,"current_range_meters":29600,"station_id":"ce4bhi12rcd13ifvqfp0","pricing_plan_id":"cebpf4jnsgd1na2vs0mg"},{"bike_id":"1f263492-3689-452b-803c-697422796c4c","system_id":"levelo_inurba_marseille","lat":43.26035,"lon":5.37544,"is_reserved":false,"is_disabled":false,"rental_uris":{"android":"levelo://app?vid=1f263492-3689-452b-803c-697422796c4c","ios":"levelo://app?vid=1f263492-3689-452b-803c-697422796c4c"},"vehicle_type_id":"4","last_reported":1730977631,"current_range_meters":29600,"station_id":"ce4bhgh2rcd13ifvqfa0","pricing_plan_id":"cebpf4jnsgd1na2vs0mg"},{"bike_id":"2295466f-6d34-487a-b48f-cf671520587f","system_id":"levelo_inurba_marseille","lat":43.29305,"lon":5.37168,"is_reserved":false,"is_disabled":false,"rental_uris":{"android":"levelo://app?vid=2295466f-6d34-487a-b48f-cf671520587f","ios":"levelo://app?vid=2295466f-6d34-487a-b48f-cf671520587f"},"vehicle_type_id":"4","last_reported":1730977631,"current_range_meters":30000,"station_id":"ce4bgh92rcd13ifvqb40","pricing_plan_id":"cebpf4jnsgd1na2vs0mg"},{"bike_id":"c0b2f46d-da55-4266-9cea-33571636a597","system_id":"levelo_inurba_marseille","lat":43.30529,"lon":5.38422,"is_reserved":false,"is_disabled":false,"rental_uris":{"android":"levelo://app?vid=c0b2f46d-da55-4266-9cea-33571636a597","ios":"levelo://app?vid=c0b2f46d-da55-4266-9cea-33571636a597"},"vehicle_type_id":"4","last_reported":1730977631,"current_range_meters":27200,"station_id":"ce4bgg92rcd13ifvqb30","pricing_plan_id":"cebpf4jnsgd1na2vs0mg"},{"bike_id":"ac0aee57-0424-474a-8cc2-c60a7187b999","system_id":"levelo_inurba_marseille","lat":43.271733,"lon":5.409966,"is_reserved":false,"is_disabled":false,"rental_uris":{"android":"levelo://app?vid=ac0aee57-0424-474a-8cc2-c60a7187b999","ios":"levelo://app?vid=ac0aee57-0424-474a-8cc2-c60a7187b999"},"vehicle_type_id":"4","last_reported":1730977631,"current_range_meters":9600,"station_id":"ce4bhl12rcd13ifvqgf0","pricing_plan_id":"cebpf4jnsgd1na2vs0mg"},{"bike_id":"6db28662-ce69-418c-bf18-91733453ace9","system_id":"levelo_inurba_marseille","lat":43.23968,"lon":5.36629,"is_reserved":false,"is_disabled":false,"rental_uris":{"android":"levelo://app?vid=6db28662-ce69-418c-bf18-91733453ace9","ios":"levelo://app?vid=6db28662-ce69-418c-bf18-91733453ace9"},"vehicle_type_id":"4","last_reported":1730977631,"current_range_meters":3600,"station_id":"ce4bhi12rcd13ifvqfp0","pricing_plan_id":"cebpf4jnsgd1na2vs0mg"},{"bike_id":"f1ad7c23-e05c-484a-acc5-cd06e9e0272c","system_id":"levelo_inurba_marseille","lat":43.26213,"lon":5.37439,"is_reserved":false,"is_disabled":false,"rental_uris":{"android":"levelo://app?vid=f1ad7c23-e05c-484a-acc5-cd06e9e0272c","ios":"levelo://app?vid=f1ad7c23-e05c-484a-acc5-cd06e9e0272c"},"vehicle_type_id":"4","last_reported":1730977631,"current_range_meters":34000,"station_id":"ce4bhgp2rcd13ifvqfc0","pricing_plan_id":"cebpf4jnsgd1na2vs0mg"},{"bike_id":"73579928-e2e7-4f6c-b2ab-d967c3bfe602","system_id":"levelo_inurba_marseille","lat":43.30526,"lon":5.36533,"is_reserved":false,"is_disabled":false,"rental_uris":{"android":"levelo://app?vid=73579928-e2e7-4f6c-b2ab-d967c3bfe602","ios":"levelo://app?vid=73579928-e2e7-4f6c-b2ab-d967c3bfe602"},"vehicle_type_id":"4","last_reported":1730977631,"current_range_meters":8000,"station_id":"ce4bgs12rcd13ifvqcag","pricing_plan_id":"cebpf4jnsgd1na2vs0mg"},{"bike_id":"f6e4629f-dd8f-4811-9e9a-366a5fc0e039","system_id":"levelo_inurba_marseille","lat":43.29512,"lon":5.37515,"is_reserved":false,"is_disabled":false,"rental_uris":{"android":"levelo://app?vid=f6e4629f-dd8f-4811-9e9a-366a5fc0e039","ios":"levelo://app?vid=f6e4629f-dd8f-4811-9e9a-366a5fc0e039"},"vehicle_type_id":"4","last_reported":1730977631,"current_range_meters":38800,"station_id":"ce4bgkp2rcd13ifvqbmg","pricing_plan_id":"cebpf4jnsgd1na2vs0mg"},{"bike_id":"21b37299-84e4-4b5b-8bf6-49ee4ecf921e","system_id":"levelo_inurba_marseille","lat":43.23969,"lon":5.3664,"is_reserved":false,"is_disabled":false,"rental_uris":{"android":"levelo://app?vid=21b37299-84e4-4b5b-8bf6-49ee4ecf921e","ios":"levelo://app?vid=21b37299-84e4-4b5b-8bf6-49ee4ecf921e"},"vehicle_type_id":"4","last_reported":1730977631,"current_range_meters":39200,"station_id":"ce4bhi12rcd13ifvqfp0","pricing_plan_id":"cebpf4jnsgd1na2vs0mg"},{"bike_id":"4b67932a-96ea-49e1-9ff9-d70abe287a8e","system_id":"levelo_inurba_marseille","lat":43.29914,"lon":5.37467,"is_reserved":false,"is_disabled":false,"rental_uris":{"android":"levelo://app?vid=4b67932a-96ea-49e1-9ff9-d70abe287a8e","ios":"levelo://app?vid=4b67932a-96ea-49e1-9ff9-d70abe287a8e"},"vehicle_type_id":"4","last_reported":1730977631,"current_range_meters":28000,"station_id":"ce4bgjh2rcd13ifvqbg0","pricing_plan_id":"cebpf4jnsgd1na2vs0mg"},{"bike_id":"4e5d727a-7c34-44b8-af94-45a54b88c1cc","system_id":"levelo_inurba_marseille","lat":43.33719,"lon":5.39178,"is_reserved":false,"is_disabled":false,"rental_uris":{"android":"levelo://app?vid=4e5d727a-7c34-44b8-af94-45a54b88c1cc","ios":"levelo://app?vid=4e5d727a-7c34-44b8-af94-45a54b88c1cc"},"vehicle_type_id":"4","last_reported":1730977631,"current_range_meters":38800,"station_id":"ce4bhr92rcd13ifvqhsg","pricing_plan_id":"cebpf4jnsgd1na2vs0mg"},{"bike_id":"f6892a37-db2e-47fa-bc03-2a38713ccc1b","system_id":"levelo_inurba_marseille","lat":43.26208,"lon":5.37444,"is_reserved":false,"is_disabled":false,"rental_uris":{"android":"levelo://app?vid=f6892a37-db2e-47fa-bc03-2a38713ccc1b","ios":"levelo://app?vid=f6892a37-db2e-47fa-bc03-2a38713ccc1b"},"vehicle_type_id":"4","last_reported":1730977631,"current_range_meters":37600,"station_id":"ce4bhgp2rcd13ifvqfc0","pricing_plan_id":"cebpf4jnsgd1na2vs0mg"},{"bike_id":"9dbc2a84-3e67-47b1-bfa4-370aec843996","system_id":"levelo_inurba_marseille","lat":43.27557,"lon":5.3839,"is_reserved":false,"is_disabled":false,"rental_uris":{"android":"levelo://app?vid=9dbc2a84-3e67-47b1-bfa4-370aec843996","ios":"levelo://app?vid=9dbc2a84-3e67-47b1-bfa4-370aec843996"},"vehicle_type_id":"4","last_reported":1730977631,"current_range_meters":21600,"station_id":"ce4bhh92rcd13ifvqfi0","pricing_plan_id":"cebpf4jnsgd1na2vs0mg"},{"bike_id":"b0cb48de-fd08-4604-bdd9-6a5acfaae08e","system_id":"levelo_inurba_marseille","lat":43.3079,"lon":5.37645,"is_reserved":false,"is_disabled":false,"rental_uris":{"android":"levelo://app?vid=b0cb48de-fd08-4604-bdd9-6a5acfaae08e","ios":"levelo://app?vid=b0cb48de-fd08-4604-bdd9-6a5acfaae08e"},"vehicle_type_id":"4","last_reported":1730977631,"current_range_meters":16800,"station_id":"ce4bgv92rcd13ifvqcq0","pricing_plan_id":"cebpf4jnsgd1na2vs0mg"},{"bike_id":"a44e161e-cf6c-4425-9177-b3286fd0f404","system_id":"levelo_inurba_marseille","lat":43.29791,"lon":5.38081,"is_reserved":false,"is_disabled":false,"rental_uris":{"android":"levelo://app?vid=a44e161e-cf6c-4425-9177-b3286fd0f404","ios":"levelo://app?vid=a44e161e-cf6c-4425-9177-b3286fd0f404"},"vehicle_type_id":"4","last_reported":1730977631,"current_range_meters":37600,"station_id":"ce4bgip2rcd13ifvqbb0","pricing_plan_id":"cebpf4jnsgd1na2vs0mg"},{"bike_id":"1a734c82-dcc8-4d3d-a318-7fd63d2ec81e","system_id":"levelo_inurba_marseille","lat":43.32288,"lon":5.3827,"is_reserved":false,"is_disabled":false,"rental_uris":{"android":"levelo://app?vid=1a734c82-dcc8-4d3d-a318-7fd63d2ec81e","ios":"levelo://app?vid=1a734c82-dcc8-4d3d-a318-7fd63d2ec81e"},"vehicle_type_id":"4","last_reported":1730977631,"current_range_meters":38000,"station_id":"ce4bhr12rcd13ifvqhqg","pricing_plan_id":"cebpf4jnsgd1na2vs0mg"},{"bike_id":"033ac3ce-1cbb-4f25-892d-f05610b58f62","system_id":"levelo_inurba_marseille","lat":43.32341,"lon":5.40618,"is_reserved":false,"is_disabled":false,"rental_uris":{"android":"levelo://app?vid=033ac3ce-1cbb-4f25-892d-f05610b58f62","ios":"levelo://app?vid=033ac3ce-1cbb-4f25-892d-f05610b58f62"},"vehicle_type_id":"4","last_reported":1730977631,"current_range_meters":39200,"station_id":"ce4bhq92rcd13ifvqhjg","pricing_plan_id":"cebpf4jnsgd1na2vs0mg"},{"bike_id":"0474bd5c-c1e3-4ca1-b3a1-d140689e0d18","system_id":"levelo_inurba_marseille","lat":43.30912,"lon":5.36844,"is_reserved":false,"is_disabled":false,"rental_uris":{"android":"levelo://app?vid=0474bd5c-c1e3-4ca1-b3a1-d140689e0d18","ios":"levelo://app?vid=0474bd5c-c1e3-4ca1-b3a1-d140689e0d18"},"vehicle_type_id":"4","last_reported":1730977631,"current_range_meters":27600,"station_id":"ce4bgn92rcd13ifvqbvg","pricing_plan_id":"cebpf4jnsgd1na2vs0mg"},{"bike_id":"057defa0-3a03-4b01-a94a-07ce778b1a4f","system_id":"levelo_inurba_marseille","lat":43.30463,"lon":5.37905,"is_reserved":false,"is_disabled":false,"rental_uris":{"android":"levelo://app?vid=057defa0-3a03-4b01-a94a-07ce778b1a4f","ios":"levelo://app?vid=057defa0-3a03-4b01-a94a-07ce778b1a4f"},"vehicle_type_id":"4","last_reported":1730977631,"current_range_meters":19200,"station_id":"ce4bgup2rcd13ifvqcn0","pricing_plan_id":"cebpf4jnsgd1na2vs0mg"},{"bike_id":"1bbef353-e3df-4577-b96a-6e0a1c30f852","system_id":"levelo_inurba_marseille","lat":43.30526,"lon":5.36701,"is_reserved":false,"is_disabled":false,"rental_uris":{"android":"levelo://app?vid=1bbef353-e3df-4577-b96a-6e0a1c30f852","ios":"levelo://app?vid=1bbef353-e3df-4577-b96a-6e0a1c30f852"},"vehicle_type_id":"4","last_reported":1730977631,"current_range_meters":12800,"station_id":"ce4bgrp2rcd13ifvqc9g","pricing_plan_id":"cebpf4jnsgd1na2vs0mg"},{"bike_id":"1087f887-e632-4220-b28b-5649f8a81025","system_id":"levelo_inurba_marseille","lat":43.24077,"lon":5.37756,"is_reserved":false,"is_disabled":false,"rental_uris":{"android":"levelo://app?vid=1087f887-e632-4220-b28b-5649f8a81025","ios":"levelo://app?vid=1087f887-e632-4220-b28b-5649f8a81025"},"vehicle_type_id":"4","last_reported":1730977631,"current_range_meters":39200,"station_id":"ce4bhnp2rcd13ifvqgvg","pricing_plan_id":"cebpf4jnsgd1na2vs0mg"},{"bike_id":"3d33988a-4223-42be-b5ae-1fc25f914135","system_id":"levelo_inurba_marseille","lat":43.32569,"lon":5.37593,"is_reserved":false,"is_disabled":false,"rental_uris":{"android":"levelo://app?vid=3d33988a-4223-42be-b5ae-1fc25f914135","ios":"levelo://app?vid=3d33988a-4223-42be-b5ae-1fc25f914135"},"vehicle_type_id":"4","last_reported":1730977631,"current_range_meters":27200,"station_id":"","pricing_plan_id":"cebpf4jnsgd1na2vs0mg"},{"bike_id":"b4da8b7e-fffd-40f2-bc9b-f5d79362ab9b","system_id":"levelo_inurba_marseille","lat":43.31989,"lon":5.38149,"is_reserved":false,"is_disabled":false,"rental_uris":{"android":"levelo://app?vid=b4da8b7e-fffd-40f2-bc9b-f5d79362ab9b","ios":"levelo://app?vid=b4da8b7e-fffd-40f2-bc9b-f5d79362ab9b"},"vehicle_type_id":"4","last_reported":1730977631,"current_range_meters":33200,"station_id":"ce4bhr12rcd13ifvqhpg","pricing_plan_id":"cebpf4jnsgd1na2vs0mg"},{"bike_id":"8fbbd568-6c64-4bc3-8482-f038bc5ee3b2","system_id":"levelo_inurba_marseille","lat":43.27947,"lon":5.41047,"is_reserved":false,"is_disabled":false,"rental_uris":{"android":"levelo://app?vid=8fbbd568-6c64-4bc3-8482-f038bc5ee3b2","ios":"levelo://app?vid=8fbbd568-6c64-4bc3-8482-f038bc5ee3b2"},"vehicle_type_id":"4","last_reported":1730977631,"current_range_meters":2000,"station_id":"ce4bhnp2rcd13ifvqh0g","pricing_plan_id":"cebpf4jnsgd1na2vs0mg"},{"bike_id":"e831571d-8c71-447f-8264-0d693a5bfc98","system_id":"levelo_inurba_marseille","lat":43.30155,"lon":5.38086,"is_reserved":false,"is_disabled":false,"rental_uris":{"android":"levelo://app?vid=e831571d-8c71-447f-8264-0d693a5bfc98","ios":"levelo://app?vid=e831571d-8c71-447f-8264-0d693a5bfc98"},"vehicle_type_id":"4","last_reported":1730977631,"current_range_meters":36000,"station_id":"ce4bgjp2rcd13ifvqbh0","pricing_plan_id":"cebpf4jnsgd1na2vs0mg"},{"bike_id":"b3efa261-435a-4d71-be02-67992b1c969c","system_id":"levelo_inurba_marseille","lat":43.30157,"lon":5.38076,"is_reserved":false,"is_disabled":false,"rental_uris":{"android":"levelo://app?vid=b3efa261-435a-4d71-be02-67992b1c969c","ios":"levelo://app?vid=b3efa261-435a-4d71-be02-67992b1c969c"},"vehicle_type_id":"4","last_reported":1730977631,"current_range_meters":12400,"station_id":"ce4bgjp2rcd13ifvqbh0","pricing_plan_id":"cebpf4jnsgd1na2vs0mg"},{"bike_id":"96bbe4b9-c3df-4eb3-8e8f-0dd163426af7","system_id":"levelo_inurba_marseille","lat":43.27494,"lon":5.4245,"is_reserved":false,"is_disabled":false,"rental_uris":{"android":"levelo://app?vid=96bbe4b9-c3df-4eb3-8e8f-0dd163426af7","ios":"levelo://app?vid=96bbe4b9-c3df-4eb3-8e8f-0dd163426af7"},"vehicle_type_id":"4","last_reported":1730977631,"current_range_meters":30800,"station_id":"ce4bhn92rcd13ifvqgrg","pricing_plan_id":"cebpf4jnsgd1na2vs0mg"},{"bike_id":"52af7a3b-ddda-465a-a3b9-5cc6f08e1552","system_id":"levelo_inurba_marseille","lat":43.2417,"lon":5.36393,"is_reserved":false,"is_disabled":false,"rental_uris":{"android":"levelo://app?vid=52af7a3b-ddda-465a-a3b9-5cc6f08e1552","ios":"levelo://app?vid=52af7a3b-ddda-465a-a3b9-5cc6f08e1552"},"vehicle_type_id":"4","last_reported":1730977631,"current_range_meters":15200,"station_id":"cpo36qri1sfpv3e86is0","pricing_plan_id":"cebpf4jnsgd1na2vs0mg"},{"bike_id":"8a76bcd1-0f5e-4170-8a69-1f04e611da97","system_id":"levelo_inurba_marseille","lat":43.32488,"lon":5.36575,"is_reserved":false,"is_disabled":false,"rental_uris":{"android":"levelo://app?vid=8a76bcd1-0f5e-4170-8a69-1f04e611da97","ios":"levelo://app?vid=8a76bcd1-0f5e-4170-8a69-1f04e611da97"},"vehicle_type_id":"4","last_reported":1730977631,"current_range_meters":11600,"station_id":"ce4bhs12rcd13ifvqhvg","pricing_plan_id":"cebpf4jnsgd1na2vs0mg"},{"bike_id":"93552b89-0cf0-4b36-8377-89d18d7f612e","system_id":"levelo_inurba_marseille","lat":43.3302,"lon":5.39034,"is_reserved":false,"is_disabled":false,"rental_uris":{"android":"levelo://app?vid=93552b89-0cf0-4b36-8377-89d18d7f612e","ios":"levelo://app?vid=93552b89-0cf0-4b36-8377-89d18d7f612e"},"vehicle_type_id":"4","last_reported":1730977631,"current_range_meters":36400,"station_id":"ce4bhr92rcd13ifvqhrg","pricing_plan_id":"cebpf4jnsgd1na2vs0mg"},{"bike_id":"186d9995-4644-4dc9-ab30-10648929078f","system_id":"levelo_inurba_marseille","lat":43.30527,"lon":5.38431,"is_reserved":false,"is_disabled":false,"rental_uris":{"android":"levelo://app?vid=186d9995-4644-4dc9-ab30-10648929078f","ios":"levelo://app?vid=186d9995-4644-4dc9-ab30-10648929078f"},"vehicle_type_id":"4","last_reported":1730977631,"current_range_meters":36400,"station_id":"ce4bgg92rcd13ifvqb30","pricing_plan_id":"cebpf4jnsgd1na2vs0mg"},{"bike_id":"9bdc17b9-a84e-437b-a63b-d20105b448c0","system_id":"levelo_inurba_marseille","lat":43.30288,"lon":5.37705,"is_reserved":false,"is_disabled":false,"rental_uris":{"android":"levelo://app?vid=9bdc17b9-a84e-437b-a63b-d20105b448c0","ios":"levelo://app?vid=9bdc17b9-a84e-437b-a63b-d20105b448c0"},"vehicle_type_id":"4","last_reported":1730977631,"current_range_meters":16800,"station_id":"ce4bguh2rcd13ifvqcj0","pricing_plan_id":"cebpf4jnsgd1na2vs0mg"},{"bike_id":"21235724-57a2-4e3a-91d1-45b5cc3b510c","system_id":"levelo_inurba_marseille","lat":43.31686,"lon":5.40475,"is_reserved":false,"is_disabled":false,"rental_uris":{"android":"levelo://app?vid=21235724-57a2-4e3a-91d1-45b5cc3b510c","ios":"levelo://app?vid=21235724-57a2-4e3a-91d1-45b5cc3b510c"},"vehicle_type_id":"4","last_reported":1730977631,"current_range_meters":6400,"station_id":"ce4bh012rcd13ifvqd00","pricing_plan_id":"cebpf4jnsgd1na2vs0mg"},{"bike_id":"3f4fc512-c09e-425c-8600-f50abb41362b","system_id":"levelo_inurba_marseille","lat":43.27494,"lon":5.42452,"is_reserved":false,"is_disabled":false,"rental_uris":{"android":"levelo://app?vid=3f4fc512-c09e-425c-8600-f50abb41362b","ios":"levelo://app?vid=3f4fc512-c09e-425c-8600-f50abb41362b"},"vehicle_type_id":"4","last_reported":1730977631,"current_range_meters":32000,"station_id":"ce4bhn92rcd13ifvqgrg","pricing_plan_id":"cebpf4jnsgd1na2vs0mg"},{"bike_id":"f85e6aa9-ec94-4e4a-bb02-390915d19a08","system_id":"levelo_inurba_marseille","lat":43.2501,"lon":5.38928,"is_reserved":false,"is_disabled":false,"rental_uris":{"android":"levelo://app?vid=f85e6aa9-ec94-4e4a-bb02-390915d19a08","ios":"levelo://app?vid=f85e6aa9-ec94-4e4a-bb02-390915d19a08"},"vehicle_type_id":"4","last_reported":1730977631,"current_range_meters":27200,"station_id":"ce4bhgp2rcd13ifvqfd0","pricing_plan_id":"cebpf4jnsgd1na2vs0mg"},{"bike_id":"7fc1ba3d-c517-4a2d-bf56-a37ac8039de0","system_id":"levelo_inurba_marseille","lat":43.30132,"lon":5.38803,"is_reserved":false,"is_disabled":false,"rental_uris":{"android":"levelo://app?vid=7fc1ba3d-c517-4a2d-bf56-a37ac8039de0","ios":"levelo://app?vid=7fc1ba3d-c517-4a2d-bf56-a37ac8039de0"},"vehicle_type_id":"4","last_reported":1730977631,"current_range_meters":10000,"station_id":"ce4bghh2rcd13ifvqb60","pricing_plan_id":"cebpf4jnsgd1na2vs0mg"},{"bike_id":"bed4004a-21ef-45fd-9bd7-62af360c69bf","system_id":"levelo_inurba_marseille","lat":43.24079,"lon":5.37738,"is_reserved":false,"is_disabled":false,"rental_uris":{"android":"levelo://app?vid=bed4004a-21ef-45fd-9bd7-62af360c69bf","ios":"levelo://app?vid=bed4004a-21ef-45fd-9bd7-62af360c69bf"},"vehicle_type_id":"4","last_reported":1730977631,"current_range_meters":29600,"station_id":"ce4bhnp2rcd13ifvqgvg","pricing_plan_id":"cebpf4jnsgd1na2vs0mg"},{"bike_id":"1471260f-3ca4-4822-b303-9e17b1b61439","system_id":"levelo_inurba_marseille","lat":43.24661,"lon":5.38162,"is_reserved":false,"is_disabled":false,"rental_uris":{"android":"levelo://app?vid=1471260f-3ca4-4822-b303-9e17b1b61439","ios":"levelo://app?vid=1471260f-3ca4-4822-b303-9e17b1b61439"},"vehicle_type_id":"4","last_reported":1730977631,"current_range_meters":28000,"station_id":"ce4bhih2rcd13ifvqfr0","pricing_plan_id":"cebpf4jnsgd1na2vs0mg"},{"bike_id":"cdd64da5-123d-44db-8157-5473e1626676","system_id":"levelo_inurba_marseille","lat":43.29586,"lon":5.36743,"is_reserved":false,"is_disabled":false,"rental_uris":{"android":"levelo://app?vid=cdd64da5-123d-44db-8157-5473e1626676","ios":"levelo://app?vid=cdd64da5-123d-44db-8157-5473e1626676"},"vehicle_type_id":"4","last_reported":1730977631,"current_range_meters":35600,"station_id":"ce4bgph2rcd13ifvqc2g","pricing_plan_id":"cebpf4jnsgd1na2vs0mg"},{"bike_id":"b7af5fe1-1ffc-4983-a28e-5e881777edc3","system_id":"levelo_inurba_marseille","lat":43.25929,"lon":5.40909,"is_reserved":false,"is_disabled":false,"rental_uris":{"android":"levelo://app?vid=b7af5fe1-1ffc-4983-a28e-5e881777edc3","ios":"levelo://app?vid=b7af5fe1-1ffc-4983-a28e-5e881777edc3"},"vehicle_type_id":"4","last_reported":1730977631,"current_range_meters":16800,"station_id":"ce4bhm92rcd13ifvqglg","pricing_plan_id":"cebpf4jnsgd1na2vs0mg"},{"bike_id":"bbbbee18-5613-4107-9c90-ec21ad16e3b5","system_id":"levelo_inurba_marseille","lat":43.2762,"lon":5.36104,"is_reserved":false,"is_disabled":false,"rental_uris":{"android":"levelo://app?vid=bbbbee18-5613-4107-9c90-ec21ad16e3b5","ios":"levelo://app?vid=bbbbee18-5613-4107-9c90-ec21ad16e3b5"},"vehicle_type_id":"4","last_reported":1730977631,"current_range_meters":38800,"station_id":"ce4bgj92rcd13ifvqbe0","pricing_plan_id":"cebpf4jnsgd1na2vs0mg"},{"bike_id":"31370be7-bd9c-4a97-a16e-8d6a5ceded68","system_id":"levelo_inurba_marseille","lat":43.3135,"lon":5.36703,"is_reserved":false,"is_disabled":false,"rental_uris":{"android":"levelo://app?vid=31370be7-bd9c-4a97-a16e-8d6a5ceded68","ios":"levelo://app?vid=31370be7-bd9c-4a97-a16e-8d6a5ceded68"},"vehicle_type_id":"4","last_reported":1730977631,"current_range_meters":30400,"station_id":"ce4bgr92rcd13ifvqc6g","pricing_plan_id":"cebpf4jnsgd1na2vs0mg"},{"bike_id":"26ee007d-c521-4271-a726-fe0c9aeca07e","system_id":"levelo_inurba_marseille","lat":43.33109,"lon":5.38214,"is_reserved":false,"is_disabled":false,"rental_uris":{"android":"levelo://app?vid=26ee007d-c521-4271-a726-fe0c9aeca07e","ios":"levelo://app?vid=26ee007d-c521-4271-a726-fe0c9aeca07e"},"vehicle_type_id":"4","last_reported":1730977631,"current_range_meters":8800,"station_id":"","pricing_plan_id":"cebpf4jnsgd1na2vs0mg"},{"bike_id":"fd017144-7f58-4195-ae2f-e49c1a8bb899","system_id":"levelo_inurba_marseille","lat":43.30155,"lon":5.38082,"is_reserved":false,"is_disabled":false,"rental_uris":{"android":"levelo://app?vid=fd017144-7f58-4195-ae2f-e49c1a8bb899","ios":"levelo://app?vid=fd017144-7f58-4195-ae2f-e49c1a8bb899"},"vehicle_type_id":"4","last_reported":1730977631,"current_range_meters":38400,"station_id":"ce4bgjp2rcd13ifvqbh0","pricing_plan_id":"cebpf4jnsgd1na2vs0mg"},{"bike_id":"204274af-cd8a-4fdc-9355-8da6a2c5b5a8","system_id":"levelo_inurba_marseille","lat":43.3091,"lon":5.36848,"is_reserved":false,"is_disabled":false,"rental_uris":{"android":"levelo://app?vid=204274af-cd8a-4fdc-9355-8da6a2c5b5a8","ios":"levelo://app?vid=204274af-cd8a-4fdc-9355-8da6a2c5b5a8"},"vehicle_type_id":"4","last_reported":1730977631,"current_range_meters":36400,"station_id":"ce4bgn92rcd13ifvqbvg","pricing_plan_id":"cebpf4jnsgd1na2vs0mg"},{"bike_id":"c478f7b2-7de7-4d8c-8821-b4458e3cf597","system_id":"levelo_inurba_marseille","lat":43.30107,"lon":5.39839,"is_reserved":false,"is_disabled":false,"rental_uris":{"android":"levelo://app?vid=c478f7b2-7de7-4d8c-8821-b4458e3cf597","ios":"levelo://app?vid=c478f7b2-7de7-4d8c-8821-b4458e3cf597"},"vehicle_type_id":"4","last_reported":1730977631,"current_range_meters":30400,"station_id":"ce4bh0h2rcd13ifvqd40","pricing_plan_id":"cebpf4jnsgd1na2vs0mg"},{"bike_id":"d7cc0c2b-c491-40e2-92cd-a558fe9f1775","system_id":"levelo_inurba_marseille","lat":43.29601,"lon":5.38106,"is_reserved":false,"is_disabled":false,"rental_uris":{"android":"levelo://app?vid=d7cc0c2b-c491-40e2-92cd-a558fe9f1775","ios":"levelo://app?vid=d7cc0c2b-c491-40e2-92cd-a558fe9f1775"},"vehicle_type_id":"4","last_reported":1730977631,"current_range_meters":12800,"station_id":"ce4bgl12rcd13ifvqbo0","pricing_plan_id":"cebpf4jnsgd1na2vs0mg"},{"bike_id":"11a8f5d3-adeb-4770-97f1-d4c26d4fa85f","system_id":"levelo_inurba_marseille","lat":43.309478,"lon":5.39042,"is_reserved":false,"is_disabled":false,"rental_uris":{"android":"levelo://app?vid=11a8f5d3-adeb-4770-97f1-d4c26d4fa85f","ios":"levelo://app?vid=11a8f5d3-adeb-4770-97f1-d4c26d4fa85f"},"vehicle_type_id":"4","last_reported":1730977631,"current_range_meters":15200,"station_id":"ce4bgup2rcd13ifvqco0","pricing_plan_id":"cebpf4jnsgd1na2vs0mg"},{"bike_id":"f078b7bb-d872-4e7e-8ce2-23f60b593547","system_id":"levelo_inurba_marseille","lat":43.26191,"lon":5.37446,"is_reserved":false,"is_disabled":false,"rental_uris":{"android":"levelo://app?vid=f078b7bb-d872-4e7e-8ce2-23f60b593547","ios":"levelo://app?vid=f078b7bb-d872-4e7e-8ce2-23f60b593547"},"vehicle_type_id":"4","last_reported":1730977631,"current_range_meters":36400,"station_id":"ce4bhgp2rcd13ifvqfc0","pricing_plan_id":"cebpf4jnsgd1na2vs0mg"},{"bike_id":"63679012-d0a0-44a9-a805-20815a46a99d","system_id":"levelo_inurba_marseille","lat":43.30792,"lon":5.4003,"is_reserved":false,"is_disabled":false,"rental_uris":{"android":"levelo://app?vid=63679012-d0a0-44a9-a805-20815a46a99d","ios":"levelo://app?vid=63679012-d0a0-44a9-a805-20815a46a99d"},"vehicle_type_id":"4","last_reported":1730977631,"current_range_meters":8400,"station_id":"","pricing_plan_id":"cebpf4jnsgd1na2vs0mg"},{"bike_id":"6cc359d5-7298-4810-a818-d4e6e28ea14a","system_id":"levelo_inurba_marseille","lat":43.30953,"lon":5.39052,"is_reserved":false,"is_disabled":false,"rental_uris":{"android":"levelo://app?vid=6cc359d5-7298-4810-a818-d4e6e28ea14a","ios":"levelo://app?vid=6cc359d5-7298-4810-a818-d4e6e28ea14a"},"vehicle_type_id":"4","last_reported":1730977631,"current_range_meters":32000,"station_id":"ce4bgup2rcd13ifvqco0","pricing_plan_id":"cebpf4jnsgd1na2vs0mg"},{"bike_id":"777b3eaa-30f9-4a1e-a4ff-060381cb7f7c","system_id":"levelo_inurba_marseille","lat":43.29048,"lon":5.39955,"is_reserved":false,"is_disabled":false,"rental_uris":{"android":"levelo://app?vid=777b3eaa-30f9-4a1e-a4ff-060381cb7f7c","ios":"levelo://app?vid=777b3eaa-30f9-4a1e-a4ff-060381cb7f7c"},"vehicle_type_id":"4","last_reported":1730977631,"current_range_meters":28400,"station_id":"ce4bh392rcd13ifvqdm0","pricing_plan_id":"cebpf4jnsgd1na2vs0mg"},{"bike_id":"250456d8-8281-463a-b832-040560d88517","system_id":"levelo_inurba_marseille","lat":43.31481,"lon":5.37293,"is_reserved":false,"is_disabled":false,"rental_uris":{"android":"levelo://app?vid=250456d8-8281-463a-b832-040560d88517","ios":"levelo://app?vid=250456d8-8281-463a-b832-040560d88517"},"vehicle_type_id":"4","last_reported":1730977631,"current_range_meters":9600,"station_id":"ce4bgt12rcd13ifvqcd0","pricing_plan_id":"cebpf4jnsgd1na2vs0mg"},{"bike_id":"fa8565cc-51bf-4580-8973-2cac6b96ddd2","system_id":"levelo_inurba_marseille","lat":43.2558,"lon":5.38233,"is_reserved":false,"is_disabled":false,"rental_uris":{"android":"levelo://app?vid=fa8565cc-51bf-4580-8973-2cac6b96ddd2","ios":"levelo://app?vid=fa8565cc-51bf-4580-8973-2cac6b96ddd2"},"vehicle_type_id":"4","last_reported":1730977631,"current_range_meters":12000,"station_id":"ce4bhih2rcd13ifvqfs0","pricing_plan_id":"cebpf4jnsgd1na2vs0mg"},{"bike_id":"e85f3b62-23da-4b30-abf5-71efbbbbb7de","system_id":"levelo_inurba_marseille","lat":43.30544,"lon":5.36703,"is_reserved":false,"is_disabled":false,"rental_uris":{"android":"levelo://app?vid=e85f3b62-23da-4b30-abf5-71efbbbbb7de","ios":"levelo://app?vid=e85f3b62-23da-4b30-abf5-71efbbbbb7de"},"vehicle_type_id":"4","last_reported":1730977631,"current_range_meters":32400,"station_id":"ce4bgrp2rcd13ifvqc9g","pricing_plan_id":"cebpf4jnsgd1na2vs0mg"},{"bike_id":"f19e21fc-3fb8-4be5-8aae-3b3f9019566c","system_id":"levelo_inurba_marseille","lat":43.30545,"lon":5.36525,"is_reserved":false,"is_disabled":false,"rental_uris":{"android":"levelo://app?vid=f19e21fc-3fb8-4be5-8aae-3b3f9019566c","ios":"levelo://app?vid=f19e21fc-3fb8-4be5-8aae-3b3f9019566c"},"vehicle_type_id":"4","last_reported":1730977631,"current_range_meters":35600,"station_id":"ce4bgs12rcd13ifvqcag","pricing_plan_id":"cebpf4jnsgd1na2vs0mg"},{"bike_id":"0562544a-b79d-473e-a168-4b06e39e4c5b","system_id":"levelo_inurba_marseille","lat":43.32486,"lon":5.36574,"is_reserved":false,"is_disabled":false,"rental_uris":{"android":"levelo://app?vid=0562544a-b79d-473e-a168-4b06e39e4c5b","ios":"levelo://app?vid=0562544a-b79d-473e-a168-4b06e39e4c5b"},"vehicle_type_id":"4","last_reported":1730977631,"current_range_meters":32000,"station_id":"ce4bhs12rcd13ifvqhvg","pricing_plan_id":"cebpf4jnsgd1na2vs0mg"},{"bike_id":"461b66ec-d7e0-4836-bd88-82e70919b486","system_id":"levelo_inurba_marseille","lat":43.26061,"lon":5.39393,"is_reserved":false,"is_disabled":false,"rental_uris":{"android":"levelo://app?vid=461b66ec-d7e0-4836-bd88-82e70919b486","ios":"levelo://app?vid=461b66ec-d7e0-4836-bd88-82e70919b486"},"vehicle_type_id":"4","last_reported":1730977631,"current_range_meters":3600,"station_id":"ce4bhh92rcd13ifvqfj0","pricing_plan_id":"cebpf4jnsgd1na2vs0mg"},{"bike_id":"692c5516-804f-4484-905e-e2361d8db851","system_id":"levelo_inurba_marseille","lat":43.24078,"lon":5.37753,"is_reserved":false,"is_disabled":false,"rental_uris":{"android":"levelo://app?vid=692c5516-804f-4484-905e-e2361d8db851","ios":"levelo://app?vid=692c5516-804f-4484-905e-e2361d8db851"},"vehicle_type_id":"4","last_reported":1730977631,"current_range_meters":38400,"station_id":"ce4bhnp2rcd13ifvqgvg","pricing_plan_id":"cebpf4jnsgd1na2vs0mg"},{"bike_id":"944a28a0-ffb8-4660-a285-de6a3c52f9d5","system_id":"levelo_inurba_marseille","lat":43.2593,"lon":5.40896,"is_reserved":false,"is_disabled":false,"rental_uris":{"android":"levelo://app?vid=944a28a0-ffb8-4660-a285-de6a3c52f9d5","ios":"levelo://app?vid=944a28a0-ffb8-4660-a285-de6a3c52f9d5"},"vehicle_type_id":"4","last_reported":1730977631,"current_range_meters":8400,"station_id":"ce4bhm92rcd13ifvqglg","pricing_plan_id":"cebpf4jnsgd1na2vs0mg"},{"bike_id":"a5df532e-10e3-446a-adac-0a1d77087d3d","system_id":"levelo_inurba_marseille","lat":43.23148,"lon":5.43704,"is_reserved":false,"is_disabled":false,"rental_uris":{"android":"levelo://app?vid=a5df532e-10e3-446a-adac-0a1d77087d3d","ios":"levelo://app?vid=a5df532e-10e3-446a-adac-0a1d77087d3d"},"vehicle_type_id":"4","last_reported":1730977631,"current_range_meters":16800,"station_id":"ce4bhmp2rcd13ifvqgog","pricing_plan_id":"cebpf4jnsgd1na2vs0mg"},{"bike_id":"12f83d46-5599-4659-bee2-8d96df1e73dc","system_id":"levelo_inurba_marseille","lat":43.3092,"lon":5.36849,"is_reserved":false,"is_disabled":false,"rental_uris":{"android":"levelo://app?vid=12f83d46-5599-4659-bee2-8d96df1e73dc","ios":"levelo://app?vid=12f83d46-5599-4659-bee2-8d96df1e73dc"},"vehicle_type_id":"4","last_reported":1730977631,"current_range_meters":33200,"station_id":"ce4bgn92rcd13ifvqbvg","pricing_plan_id":"cebpf4jnsgd1na2vs0mg"},{"bike_id":"9c3169c5-7306-4ddc-9f15-d6bb8c9cdea4","system_id":"levelo_inurba_marseille","lat":43.27496,"lon":5.42452,"is_reserved":false,"is_disabled":false,"rental_uris":{"android":"levelo://app?vid=9c3169c5-7306-4ddc-9f15-d6bb8c9cdea4","ios":"levelo://app?vid=9c3169c5-7306-4ddc-9f15-d6bb8c9cdea4"},"vehicle_type_id":"4","last_reported":1730977631,"current_range_meters":28800,"station_id":"ce4bhn92rcd13ifvqgrg","pricing_plan_id":"cebpf4jnsgd1na2vs0mg"},{"bike_id":"745864c2-39c8-45dd-8b55-da9cbe50a5d3","system_id":"levelo_inurba_marseille","lat":43.29521,"lon":5.37517,"is_reserved":false,"is_disabled":false,"rental_uris":{"android":"levelo://app?vid=745864c2-39c8-45dd-8b55-da9cbe50a5d3","ios":"levelo://app?vid=745864c2-39c8-45dd-8b55-da9cbe50a5d3"},"vehicle_type_id":"4","last_reported":1730977631,"current_range_meters":28000,"station_id":"ce4bgkp2rcd13ifvqbmg","pricing_plan_id":"cebpf4jnsgd1na2vs0mg"},{"bike_id":"4450272b-34bc-4703-ac02-8e79cf5992c2","system_id":"levelo_inurba_marseille","lat":43.30138,"lon":5.37421,"is_reserved":false,"is_disabled":false,"rental_uris":{"android":"levelo://app?vid=4450272b-34bc-4703-ac02-8e79cf5992c2","ios":"levelo://app?vid=4450272b-34bc-4703-ac02-8e79cf5992c2"},"vehicle_type_id":"4","last_reported":1730977631,"current_range_meters":40000,"station_id":"ce4bgs92rcd13ifvqcc0","pricing_plan_id":"cebpf4jnsgd1na2vs0mg"},{"bike_id":"f0af1873-117f-4176-988b-7bbf7d14df74","system_id":"levelo_inurba_marseille","lat":43.22929,"lon":5.35379,"is_reserved":false,"is_disabled":false,"rental_uris":{"android":"levelo://app?vid=f0af1873-117f-4176-988b-7bbf7d14df74","ios":"levelo://app?vid=f0af1873-117f-4176-988b-7bbf7d14df74"},"vehicle_type_id":"4","last_reported":1730977631,"current_range_meters":38400,"station_id":"cpo3532slgdg3j2ikp40","pricing_plan_id":"cebpf4jnsgd1na2vs0mg"},{"bike_id":"d21bbe6d-d864-4100-abd8-39933a2f1023","system_id":"levelo_inurba_marseille","lat":43.27494,"lon":5.42458,"is_reserved":false,"is_disabled":false,"rental_uris":{"android":"levelo://app?vid=d21bbe6d-d864-4100-abd8-39933a2f1023","ios":"levelo://app?vid=d21bbe6d-d864-4100-abd8-39933a2f1023"},"vehicle_type_id":"4","last_reported":1730977631,"current_range_meters":29600,"station_id":"ce4bhn92rcd13ifvqgrg","pricing_plan_id":"cebpf4jnsgd1na2vs0mg"},{"bike_id":"96a06732-dbee-48d4-97e4-d716d07f66b1","system_id":"levelo_inurba_marseille","lat":43.25579,"lon":5.38228,"is_reserved":false,"is_disabled":false,"rental_uris":{"android":"levelo://app?vid=96a06732-dbee-48d4-97e4-d716d07f66b1","ios":"levelo://app?vid=96a06732-dbee-48d4-97e4-d716d07f66b1"},"vehicle_type_id":"4","last_reported":1730977631,"current_range_meters":14400,"station_id":"ce4bhih2rcd13ifvqfs0","pricing_plan_id":"cebpf4jnsgd1na2vs0mg"},{"bike_id":"867a3738-180c-4523-9254-6682a46e6264","system_id":"levelo_inurba_marseille","lat":43.28273,"lon":5.35071,"is_reserved":false,"is_disabled":false,"rental_uris":{"android":"levelo://app?vid=867a3738-180c-4523-9254-6682a46e6264","ios":"levelo://app?vid=867a3738-180c-4523-9254-6682a46e6264"},"vehicle_type_id":"4","last_reported":1730977631,"current_range_meters":9600,"station_id":"ce4bhbp2rcd13ifvqerg","pricing_plan_id":"cebpf4jnsgd1na2vs0mg"},{"bike_id":"eefc89dd-333c-4a70-99a3-43178ccdaa1f","system_id":"levelo_inurba_marseille","lat":43.32541,"lon":5.41434,"is_reserved":false,"is_disabled":false,"rental_uris":{"android":"levelo://app?vid=eefc89dd-333c-4a70-99a3-43178ccdaa1f","ios":"levelo://app?vid=eefc89dd-333c-4a70-99a3-43178ccdaa1f"},"vehicle_type_id":"4","last_reported":1730977631,"current_range_meters":2800,"station_id":"ce4bhq12rcd13ifvqhhg","pricing_plan_id":"cebpf4jnsgd1na2vs0mg"},{"bike_id":"bb8131a2-e1e4-476f-b563-4ff5f2174e42","system_id":"levelo_inurba_marseille","lat":43.30879,"lon":5.37187,"is_reserved":false,"is_disabled":false,"rental_uris":{"android":"levelo://app?vid=bb8131a2-e1e4-476f-b563-4ff5f2174e42","ios":"levelo://app?vid=bb8131a2-e1e4-476f-b563-4ff5f2174e42"},"vehicle_type_id":"4","last_reported":1730977631,"current_range_meters":18000,"station_id":"ce4bguh2rcd13ifvqckg","pricing_plan_id":"cebpf4jnsgd1na2vs0mg"},{"bike_id":"2a1c1d39-a3ee-45b7-8182-d06c16353596","system_id":"levelo_inurba_marseille","lat":43.30316,"lon":5.36901,"is_reserved":false,"is_disabled":false,"rental_uris":{"android":"levelo://app?vid=2a1c1d39-a3ee-45b7-8182-d06c16353596","ios":"levelo://app?vid=2a1c1d39-a3ee-45b7-8182-d06c16353596"},"vehicle_type_id":"4","last_reported":1730977631,"current_range_meters":24000,"station_id":"ce4bgqh2rcd13ifvqc5g","pricing_plan_id":"cebpf4jnsgd1na2vs0mg"},{"bike_id":"5d0b7ccc-4625-426c-87d1-0abecec7ce22","system_id":"levelo_inurba_marseille","lat":43.271729,"lon":5.408917,"is_reserved":false,"is_disabled":false,"rental_uris":{"android":"levelo://app?vid=5d0b7ccc-4625-426c-87d1-0abecec7ce22","ios":"levelo://app?vid=5d0b7ccc-4625-426c-87d1-0abecec7ce22"},"vehicle_type_id":"4","last_reported":1730977631,"current_range_meters":38000,"station_id":"ce4bho12rcd13ifvqh2g","pricing_plan_id":"cebpf4jnsgd1na2vs0mg"},{"bike_id":"1ed4b874-bdae-43c6-98a8-b3cf65705ae8","system_id":"levelo_inurba_marseille","lat":43.23151,"lon":5.43724,"is_reserved":false,"is_disabled":false,"rental_uris":{"android":"levelo://app?vid=1ed4b874-bdae-43c6-98a8-b3cf65705ae8","ios":"levelo://app?vid=1ed4b874-bdae-43c6-98a8-b3cf65705ae8"},"vehicle_type_id":"4","last_reported":1730977631,"current_range_meters":17200,"station_id":"ce4bhmp2rcd13ifvqgog","pricing_plan_id":"cebpf4jnsgd1na2vs0mg"},{"bike_id":"1e8c593a-b672-4590-bf65-0a9440b71618","system_id":"levelo_inurba_marseille","lat":43.29713,"lon":5.37698,"is_reserved":false,"is_disabled":false,"rental_uris":{"android":"levelo://app?vid=1e8c593a-b672-4590-bf65-0a9440b71618","ios":"levelo://app?vid=1e8c593a-b672-4590-bf65-0a9440b71618"},"vehicle_type_id":"4","last_reported":1730977631,"current_range_meters":18800,"station_id":"ce4bgkh2rcd13ifvqbl0","pricing_plan_id":"cebpf4jnsgd1na2vs0mg"},{"bike_id":"4c829936-88e3-46be-a0f5-9f2bfe0c60d6","system_id":"levelo_inurba_marseille","lat":43.30313,"lon":5.36889,"is_reserved":false,"is_disabled":false,"rental_uris":{"android":"levelo://app?vid=4c829936-88e3-46be-a0f5-9f2bfe0c60d6","ios":"levelo://app?vid=4c829936-88e3-46be-a0f5-9f2bfe0c60d6"},"vehicle_type_id":"4","last_reported":1730977631,"current_range_meters":36000,"station_id":"ce4bgqh2rcd13ifvqc5g","pricing_plan_id":"cebpf4jnsgd1na2vs0mg"},{"bike_id":"8222932e-906c-4b8e-9c09-cb4e5b264784","system_id":"levelo_inurba_marseille","lat":43.290182,"lon":5.386588,"is_reserved":false,"is_disabled":false,"rental_uris":{"android":"levelo://app?vid=8222932e-906c-4b8e-9c09-cb4e5b264784","ios":"levelo://app?vid=8222932e-906c-4b8e-9c09-cb4e5b264784"},"vehicle_type_id":"4","last_reported":1730977631,"current_range_meters":28000,"station_id":"ce4bh4p2rcd13ifvqe0g","pricing_plan_id":"cebpf4jnsgd1na2vs0mg"},{"bike_id":"54a8a8ed-3d6a-419f-bc5c-d9876d2adfd4","system_id":"levelo_inurba_marseille","lat":43.29567,"lon":5.37536,"is_reserved":false,"is_disabled":false,"rental_uris":{"android":"levelo://app?vid=54a8a8ed-3d6a-419f-bc5c-d9876d2adfd4","ios":"levelo://app?vid=54a8a8ed-3d6a-419f-bc5c-d9876d2adfd4"},"vehicle_type_id":"4","last_reported":1730977631,"current_range_meters":35200,"station_id":"ce4bgh92rcd13ifvqb50","pricing_plan_id":"cebpf4jnsgd1na2vs0mg"},{"bike_id":"263685c3-225f-4033-b252-e91414e0d28c","system_id":"levelo_inurba_marseille","lat":43.3134,"lon":5.36706,"is_reserved":false,"is_disabled":false,"rental_uris":{"android":"levelo://app?vid=263685c3-225f-4033-b252-e91414e0d28c","ios":"levelo://app?vid=263685c3-225f-4033-b252-e91414e0d28c"},"vehicle_type_id":"4","last_reported":1730977631,"current_range_meters":26800,"station_id":"ce4bgr92rcd13ifvqc6g","pricing_plan_id":"cebpf4jnsgd1na2vs0mg"},{"bike_id":"f3618dde-db99-40c6-9fce-dee9a0bce454","system_id":"levelo_inurba_marseille","lat":43.30919,"lon":5.36847,"is_reserved":false,"is_disabled":false,"rental_uris":{"android":"levelo://app?vid=f3618dde-db99-40c6-9fce-dee9a0bce454","ios":"levelo://app?vid=f3618dde-db99-40c6-9fce-dee9a0bce454"},"vehicle_type_id":"4","last_reported":1730977631,"current_range_meters":40000,"station_id":"ce4bgn92rcd13ifvqbvg","pricing_plan_id":"cebpf4jnsgd1na2vs0mg"},{"bike_id":"d3e54780-ddfb-432e-bfd3-55d19e8c43c8","system_id":"levelo_inurba_marseille","lat":43.31756,"lon":5.39021,"is_reserved":false,"is_disabled":false,"rental_uris":{"android":"levelo://app?vid=d3e54780-ddfb-432e-bfd3-55d19e8c43c8","ios":"levelo://app?vid=d3e54780-ddfb-432e-bfd3-55d19e8c43c8"},"vehicle_type_id":"4","last_reported":1730977631,"current_range_meters":32000,"station_id":"ce4bhqp2rcd13ifvqhng","pricing_plan_id":"cebpf4jnsgd1na2vs0mg"},{"bike_id":"ea07b9f2-66f7-4ddb-9f66-7fc3b6b785d5","system_id":"levelo_inurba_marseille","lat":43.30799,"lon":5.43522,"is_reserved":false,"is_disabled":false,"rental_uris":{"android":"levelo://app?vid=ea07b9f2-66f7-4ddb-9f66-7fc3b6b785d5","ios":"levelo://app?vid=ea07b9f2-66f7-4ddb-9f66-7fc3b6b785d5"},"vehicle_type_id":"4","last_reported":1730977631,"current_range_meters":38800,"station_id":"ce4bhph2rcd13ifvqheg","pricing_plan_id":"cebpf4jnsgd1na2vs0mg"},{"bike_id":"386b049a-cefe-4bcc-98f0-285da91e027d","system_id":"levelo_inurba_marseille","lat":43.29365,"lon":5.37841,"is_reserved":false,"is_disabled":false,"rental_uris":{"android":"levelo://app?vid=386b049a-cefe-4bcc-98f0-285da91e027d","ios":"levelo://app?vid=386b049a-cefe-4bcc-98f0-285da91e027d"},"vehicle_type_id":"4","last_reported":1730977631,"current_range_meters":40000,"station_id":"ce4bgjh2rcd13ifvqbf0","pricing_plan_id":"cebpf4jnsgd1na2vs0mg"},{"bike_id":"91c12d34-8db0-4920-b828-bc91b4612ed0","system_id":"levelo_inurba_marseille","lat":43.23149,"lon":5.43708,"is_reserved":false,"is_disabled":false,"rental_uris":{"android":"levelo://app?vid=91c12d34-8db0-4920-b828-bc91b4612ed0","ios":"levelo://app?vid=91c12d34-8db0-4920-b828-bc91b4612ed0"},"vehicle_type_id":"4","last_reported":1730977631,"current_range_meters":30400,"station_id":"ce4bhmp2rcd13ifvqgog","pricing_plan_id":"cebpf4jnsgd1na2vs0mg"},{"bike_id":"8781bd6a-bd0c-4fad-ba40-5608c5b353d8","system_id":"levelo_inurba_marseille","lat":43.33607,"lon":5.41035,"is_reserved":false,"is_disabled":false,"rental_uris":{"android":"levelo://app?vid=8781bd6a-bd0c-4fad-ba40-5608c5b353d8","ios":"levelo://app?vid=8781bd6a-bd0c-4fad-ba40-5608c5b353d8"},"vehicle_type_id":"4","last_reported":1730977631,"current_range_meters":20400,"station_id":"ce4bhqh2rcd13ifvqhmg","pricing_plan_id":"cebpf4jnsgd1na2vs0mg"},{"bike_id":"131d52f8-1dd8-4e17-9f84-1611363c8ecb","system_id":"levelo_inurba_marseille","lat":43.29887,"lon":5.38893,"is_reserved":false,"is_disabled":false,"rental_uris":{"android":"levelo://app?vid=131d52f8-1dd8-4e17-9f84-1611363c8ecb","ios":"levelo://app?vid=131d52f8-1dd8-4e17-9f84-1611363c8ecb"},"vehicle_type_id":"4","last_reported":1730977631,"current_range_meters":35200,"station_id":"ce4bh392rcd13ifvqdl0","pricing_plan_id":"cebpf4jnsgd1na2vs0mg"},{"bike_id":"92bfdb81-1ac2-4e23-9e47-9d5b1f837dde","system_id":"levelo_inurba_marseille","lat":43.30534,"lon":5.36532,"is_reserved":false,"is_disabled":false,"rental_uris":{"android":"levelo://app?vid=92bfdb81-1ac2-4e23-9e47-9d5b1f837dde","ios":"levelo://app?vid=92bfdb81-1ac2-4e23-9e47-9d5b1f837dde"},"vehicle_type_id":"4","last_reported":1730977631,"current_range_meters":18000,"station_id":"ce4bgs12rcd13ifvqcag","pricing_plan_id":"cebpf4jnsgd1na2vs0mg"},{"bike_id":"9fc49755-493e-4943-ba82-79480e8185c0","system_id":"levelo_inurba_marseille","lat":43.25502,"lon":5.37649,"is_reserved":false,"is_disabled":false,"rental_uris":{"android":"levelo://app?vid=9fc49755-493e-4943-ba82-79480e8185c0","ios":"levelo://app?vid=9fc49755-493e-4943-ba82-79480e8185c0"},"vehicle_type_id":"4","last_reported":1730977631,"current_range_meters":19600,"station_id":"ce4bhh12rcd13ifvqff0","pricing_plan_id":"cebpf4jnsgd1na2vs0mg"},{"bike_id":"d0260fae-8d36-4ee8-ab0d-69dfb54a1c82","system_id":"levelo_inurba_marseille","lat":43.29798,"lon":5.38092,"is_reserved":false,"is_disabled":false,"rental_uris":{"android":"levelo://app?vid=d0260fae-8d36-4ee8-ab0d-69dfb54a1c82","ios":"levelo://app?vid=d0260fae-8d36-4ee8-ab0d-69dfb54a1c82"},"vehicle_type_id":"4","last_reported":1730977631,"current_range_meters":33200,"station_id":"ce4bgip2rcd13ifvqbb0","pricing_plan_id":"cebpf4jnsgd1na2vs0mg"},{"bike_id":"d7419ddb-5370-47dc-9299-9ed32a20da4e","system_id":"levelo_inurba_marseille","lat":43.26679,"lon":5.38267,"is_reserved":false,"is_disabled":false,"rental_uris":{"android":"levelo://app?vid=d7419ddb-5370-47dc-9299-9ed32a20da4e","ios":"levelo://app?vid=d7419ddb-5370-47dc-9299-9ed32a20da4e"},"vehicle_type_id":"4","last_reported":1730977631,"current_range_meters":14800,"station_id":"ce4bhg92rcd13ifvqf90","pricing_plan_id":"cebpf4jnsgd1na2vs0mg"},{"bike_id":"cd23d2af-6909-4409-b4d1-b7c36d31bbf0","system_id":"levelo_inurba_marseille","lat":43.34143,"lon":5.40911,"is_reserved":false,"is_disabled":false,"rental_uris":{"android":"levelo://app?vid=cd23d2af-6909-4409-b4d1-b7c36d31bbf0","ios":"levelo://app?vid=cd23d2af-6909-4409-b4d1-b7c36d31bbf0"},"vehicle_type_id":"4","last_reported":1730977631,"current_range_meters":36800,"station_id":"ce4bhqh2rcd13ifvqhlg","pricing_plan_id":"cebpf4jnsgd1na2vs0mg"},{"bike_id":"0b745ddc-0bcc-491b-8bda-cc63fc31cdc1","system_id":"levelo_inurba_marseille","lat":43.27209,"lon":5.39177,"is_reserved":false,"is_disabled":false,"rental_uris":{"android":"levelo://app?vid=0b745ddc-0bcc-491b-8bda-cc63fc31cdc1","ios":"levelo://app?vid=0b745ddc-0bcc-491b-8bda-cc63fc31cdc1"},"vehicle_type_id":"4","last_reported":1730977631,"current_range_meters":40000,"station_id":"ce4bhhp2rcd13ifvqfm0","pricing_plan_id":"cebpf4jnsgd1na2vs0mg"},{"bike_id":"c5aff4f4-4452-4f7b-9855-a52a5e05b4ad","system_id":"levelo_inurba_marseille","lat":43.27991,"lon":5.4166,"is_reserved":false,"is_disabled":false,"rental_uris":{"android":"levelo://app?vid=c5aff4f4-4452-4f7b-9855-a52a5e05b4ad","ios":"levelo://app?vid=c5aff4f4-4452-4f7b-9855-a52a5e05b4ad"},"vehicle_type_id":"4","last_reported":1730977631,"current_range_meters":33200,"station_id":"ce4bho12rcd13ifvqh1g","pricing_plan_id":"cebpf4jnsgd1na2vs0mg"},{"bike_id":"2b04845f-8c2a-4e5c-948b-a8b896a00a0a","system_id":"levelo_inurba_marseille","lat":43.32539,"lon":5.41437,"is_reserved":false,"is_disabled":false,"rental_uris":{"android":"levelo://app?vid=2b04845f-8c2a-4e5c-948b-a8b896a00a0a","ios":"levelo://app?vid=2b04845f-8c2a-4e5c-948b-a8b896a00a0a"},"vehicle_type_id":"4","last_reported":1730977631,"current_range_meters":12000,"station_id":"ce4bhq12rcd13ifvqhhg","pricing_plan_id":"cebpf4jnsgd1na2vs0mg"},{"bike_id":"f96b6f97-37e8-4cad-acb8-954a78a5d31a","system_id":"levelo_inurba_marseille","lat":43.287598,"lon":5.37929,"is_reserved":false,"is_disabled":false,"rental_uris":{"android":"levelo://app?vid=f96b6f97-37e8-4cad-acb8-954a78a5d31a","ios":"levelo://app?vid=f96b6f97-37e8-4cad-acb8-954a78a5d31a"},"vehicle_type_id":"4","last_reported":1730977631,"current_range_meters":39200,"station_id":"ce4bh9p2rcd13ifvqec0","pricing_plan_id":"cebpf4jnsgd1na2vs0mg"},{"bike_id":"3ae6c5b4-d28a-4257-ab2c-a82f1d337382","system_id":"levelo_inurba_marseille","lat":43.29798,"lon":5.40411,"is_reserved":false,"is_disabled":false,"rental_uris":{"android":"levelo://app?vid=3ae6c5b4-d28a-4257-ab2c-a82f1d337382","ios":"levelo://app?vid=3ae6c5b4-d28a-4257-ab2c-a82f1d337382"},"vehicle_type_id":"4","last_reported":1730977631,"current_range_meters":39200,"station_id":"ce4bh112rcd13ifvqd90","pricing_plan_id":"cebpf4jnsgd1na2vs0mg"},{"bike_id":"0e0aa953-ce04-478d-bf26-e5f223f30f5e","system_id":"levelo_inurba_marseille","lat":43.30538,"lon":5.36527,"is_reserved":false,"is_disabled":false,"rental_uris":{"android":"levelo://app?vid=0e0aa953-ce04-478d-bf26-e5f223f30f5e","ios":"levelo://app?vid=0e0aa953-ce04-478d-bf26-e5f223f30f5e"},"vehicle_type_id":"4","last_reported":1730977631,"current_range_meters":33600,"station_id":"ce4bgs12rcd13ifvqcag","pricing_plan_id":"cebpf4jnsgd1na2vs0mg"},{"bike_id":"98d3de5f-e96b-460b-81bc-84e8a55261ab","system_id":"levelo_inurba_marseille","lat":43.31347,"lon":5.36703,"is_reserved":false,"is_disabled":false,"rental_uris":{"android":"levelo://app?vid=98d3de5f-e96b-460b-81bc-84e8a55261ab","ios":"levelo://app?vid=98d3de5f-e96b-460b-81bc-84e8a55261ab"},"vehicle_type_id":"4","last_reported":1730977631,"current_range_meters":35200,"station_id":"ce4bgr92rcd13ifvqc6g","pricing_plan_id":"cebpf4jnsgd1na2vs0mg"},{"bike_id":"098f93fe-e1ac-4397-aac4-dfdc8fbe61c6","system_id":"levelo_inurba_marseille","lat":43.25938,"lon":5.40895,"is_reserved":false,"is_disabled":false,"rental_uris":{"android":"levelo://app?vid=098f93fe-e1ac-4397-aac4-dfdc8fbe61c6","ios":"levelo://app?vid=098f93fe-e1ac-4397-aac4-dfdc8fbe61c6"},"vehicle_type_id":"4","last_reported":1730977631,"current_range_meters":33200,"station_id":"ce4bhm92rcd13ifvqglg","pricing_plan_id":"cebpf4jnsgd1na2vs0mg"},{"bike_id":"7340dc7b-1164-4293-8938-58d52cecc69f","system_id":"levelo_inurba_marseille","lat":43.31341,"lon":5.36723,"is_reserved":false,"is_disabled":false,"rental_uris":{"android":"levelo://app?vid=7340dc7b-1164-4293-8938-58d52cecc69f","ios":"levelo://app?vid=7340dc7b-1164-4293-8938-58d52cecc69f"},"vehicle_type_id":"4","last_reported":1730977631,"current_range_meters":37600,"station_id":"ce4bgr92rcd13ifvqc6g","pricing_plan_id":"cebpf4jnsgd1na2vs0mg"},{"bike_id":"c7fd001f-af3d-49cd-abf3-781f405e9df1","system_id":"levelo_inurba_marseille","lat":43.30272,"lon":5.37714,"is_reserved":false,"is_disabled":false,"rental_uris":{"android":"levelo://app?vid=c7fd001f-af3d-49cd-abf3-781f405e9df1","ios":"levelo://app?vid=c7fd001f-af3d-49cd-abf3-781f405e9df1"},"vehicle_type_id":"4","last_reported":1730977631,"current_range_meters":8000,"station_id":"ce4bguh2rcd13ifvqcj0","pricing_plan_id":"cebpf4jnsgd1na2vs0mg"},{"bike_id":"650990dd-9bfa-401c-b1b5-a05886f92967","system_id":"levelo_inurba_marseille","lat":43.24663,"lon":5.38169,"is_reserved":false,"is_disabled":false,"rental_uris":{"android":"levelo://app?vid=650990dd-9bfa-401c-b1b5-a05886f92967","ios":"levelo://app?vid=650990dd-9bfa-401c-b1b5-a05886f92967"},"vehicle_type_id":"4","last_reported":1730977631,"current_range_meters":32000,"station_id":"ce4bhih2rcd13ifvqfr0","pricing_plan_id":"cebpf4jnsgd1na2vs0mg"},{"bike_id":"1e07e796-b670-473b-9695-f1b08a5fb28b","system_id":"levelo_inurba_marseille","lat":43.33611,"lon":5.41019,"is_reserved":false,"is_disabled":false,"rental_uris":{"android":"levelo://app?vid=1e07e796-b670-473b-9695-f1b08a5fb28b","ios":"levelo://app?vid=1e07e796-b670-473b-9695-f1b08a5fb28b"},"vehicle_type_id":"4","last_reported":1730977631,"current_range_meters":23200,"station_id":"ce4bhqh2rcd13ifvqhmg","pricing_plan_id":"cebpf4jnsgd1na2vs0mg"},{"bike_id":"d3701091-3ca8-4df2-a0fe-5264fb281f03","system_id":"levelo_inurba_marseille","lat":43.30907,"lon":5.36849,"is_reserved":false,"is_disabled":false,"rental_uris":{"android":"levelo://app?vid=d3701091-3ca8-4df2-a0fe-5264fb281f03","ios":"levelo://app?vid=d3701091-3ca8-4df2-a0fe-5264fb281f03"},"vehicle_type_id":"4","last_reported":1730977631,"current_range_meters":14000,"station_id":"ce4bgn92rcd13ifvqbvg","pricing_plan_id":"cebpf4jnsgd1na2vs0mg"},{"bike_id":"9efaed7b-b03d-4344-a1a3-789acfa88807","system_id":"levelo_inurba_marseille","lat":43.26932,"lon":5.38925,"is_reserved":false,"is_disabled":false,"rental_uris":{"android":"levelo://app?vid=9efaed7b-b03d-4344-a1a3-789acfa88807","ios":"levelo://app?vid=9efaed7b-b03d-4344-a1a3-789acfa88807"},"vehicle_type_id":"4","last_reported":1730977631,"current_range_meters":6800,"station_id":"ce4bhhh2rcd13ifvqfl0","pricing_plan_id":"cebpf4jnsgd1na2vs0mg"},{"bike_id":"491370d4-bab3-4193-ad52-cbe6a5d83b39","system_id":"levelo_inurba_marseille","lat":43.30137,"lon":5.37411,"is_reserved":false,"is_disabled":false,"rental_uris":{"android":"levelo://app?vid=491370d4-bab3-4193-ad52-cbe6a5d83b39","ios":"levelo://app?vid=491370d4-bab3-4193-ad52-cbe6a5d83b39"},"vehicle_type_id":"4","last_reported":1730977631,"current_range_meters":25200,"station_id":"ce4bgs92rcd13ifvqcc0","pricing_plan_id":"cebpf4jnsgd1na2vs0mg"},