{"last_updated":1713013622,"ttl":30,"version":"2.2","data":{"bikes":[{"bike_id":"f4a23b72-d0a5-4206-8473-dd23e9ecec28","system_id":"levelo_inurba_marseille","lat":43.313391,"lon":5.36706,"is_reserved":false,"is_disabled":false,"rental_uris":{"android":"levelo://app?vid=f4a23b72-d0a5-4206-8473-dd23e9ecec28","ios":"levelo://app?vid=f4a23b72-d0a5-4206-8473-dd23e9ecec28"},"vehicle_type_id":"4","last_reported":1713013622,"current_range_meters":24800,"station_id":"ce4bgr92rcd13ifvqc6g","pricing_plan_id":"cebpf4jnsgd1na2vs0mg"},{"bike_id":"24a8d03c-317c-4239-8d1a-8d37230ce89b","system_id":"levelo_inurba_marseille","lat":43.314811,"lon":5.373103,"is_reserved":false,"is_disabled":false,"rental_uris":{"android":"levelo://app?vid=24a8d03c-317c-4239-8d1a-8d37230ce89b","ios":"levelo://app?vid=24a8d03c-317c-4239-8d1a-8d37230ce89b"},"vehicle_type_id":"4","last_reported":1713013622,"current_range_meters":19600,"station_id":"ce4bgt12rcd13ifvqcd0","pricing_plan_id":"cebpf4jnsgd1na2vs0mg"},{"bike_id":"2f81f357-c2f9-4b09-bf68-20d57559ee9a","system_id":"levelo_inurba_marseille","lat":43.292644,"lon":5.384257,"is_reserved":false,"is_disabled":false,"rental_uris":{"android":"levelo://app?vid=2f81f357-c2f9-4b09-bf68-20d57559ee9a","ios":"levelo://app?vid=2f81f357-c2f9-4b09-bf68-20d57559ee9a"},"vehicle_type_id":"4","last_reported":1713013622,"current_range_meters":16400,"station_id":"ce4bh692rcd13ifvqea0","pricing_plan_id":"cebpf4jnsgd1na2vs0mg"},{"bike_id":"835f99de-6d9d-4bd3-94bd-aa74699bc477","system_id":"levelo_inurba_marseille","lat":43.30547,"lon":5.3653,"is_reserved":false,"is_disabled":false,"rental_uris":{"android":"levelo://app?vid=835f99de-6d9d-4bd3-94bd-aa74699bc477","ios":"levelo://app?vid=835f99de-6d9d-4bd3-94bd-aa74699bc477"},"vehicle_type_id":"4","last_reported":1713013622,"current_range_meters":20400,"station_id":"ce4bgs12rcd13ifvqcag","pricing_plan_id":"cebpf4jnsgd1na2vs0mg"},{"bike_id":"48ab0c62-185f-4044-a2cc-44c3b64f3daa","system_id":"levelo_inurba_marseille","lat":43.30537,"lon":5.367345,"is_reserved":false,"is_disabled":false,"rental_uris":{"android":"levelo://app?vid=48ab0c62-185f-4044-a2cc-44c3b64f3daa","ios":"levelo://app?vid=48ab0c62-185f-4044-a2cc-44c3b64f3daa"},"vehicle_type_id":"4","last_reported":1713013622,"current_range_meters":5600,"station_id":"ce4bgrp2rcd13ifvqc9g","pricing_plan_id":"cebpf4jnsgd1na2vs0mg"},{"bike_id":"97568e91-137d-44b6-9c90-211fa885153b","system_id":"levelo_inurba_marseille","lat":43.305706,"lon":5.365654,"is_reserved":false,"is_disabled":false,"rental_uris":{"android":"levelo://app?vid=97568e91-137d-44b6-9c90-211fa885153b","ios":"levelo://app?vid=97568e91-137d-44b6-9c90-211fa885153b"},"vehicle_type_id":"4","last_reported":1713013622,"current_range_meters":0,"station_id":"ce4bgs12rcd13ifvqcag","pricing_plan_id":"cebpf4jnsgd1na2vs0mg"},{"bike_id":"9554329f-b1dc-4ee8-b099-150eea941c3e","system_id":"levelo_inurba_marseille","lat":43.305706,"lon":5.365654,"is_reserved":false,"is_disabled":false,"rental_uris":{"android":"levelo://app?vid=9554329f-b1dc-4ee8-b099-150eea941c3e","ios":"levelo://app?vid=9554329f-b1dc-4ee8-b099-150eea941c3e"},"vehicle_type_id":"4","last_reported":1713013622,"current_range_meters":13600,"station_id":"ce4bgs12rcd13ifvqcag","pricing_plan_id":"cebpf4jnsgd1na2vs0mg"},{"bike_id":"f8d73997-a81d-4928-ab6e-6c55750ea957","system_id":"levelo_inurba_marseille","lat":43.305368,"lon":5.367343,"is_reserved":false,"is_disabled":false,"rental_uris":{"android":"levelo://app?vid=f8d73997-a81d-4928-ab6e-6c55750ea957","ios":"levelo://app?vid=f8d73997-a81d-4928-ab6e-6c55750ea957"},"vehicle_type_id":"4","last_reported":1713013622,"current_range_meters":16000,"station_id":"ce4bgrp2rcd13ifvqc9g","pricing_plan_id":"cebpf4jnsgd1na2vs0mg"},{"bike_id":"4ba79761-e9d8-4e47-9cb4-d5f774878a7f","system_id":"levelo_inurba_marseille","lat":43.30529,"lon":5.36529,"is_reserved":false,"is_disabled":false,"rental_uris":{"android":"levelo://app?vid=4ba79761-e9d8-4e47-9cb4-d5f774878a7f","ios":"levelo://app?vid=4ba79761-e9d8-4e47-9cb4-d5f774878a7f"},"vehicle_type_id":"4","last_reported":1713013622,"current_range_meters":22400,"station_id":"ce4bgs12rcd13ifvqcag","pricing_plan_id":"cebpf4jnsgd1na2vs0mg"},{"bike_id":"14f48537-bbc5-4c36-aee9-aa83e4715643","system_id":"levelo_inurba_marseille","lat":43.305989,"lon":5.37225,"is_reserved":false,"is_disabled":false,"rental_uris":{"android":"levelo://app?vid=14f48537-bbc5-4c36-aee9-aa83e4715643","ios":"levelo://app?vid=14f48537-bbc5-4c36-aee9-aa83e4715643"},"vehicle_type_id":"4","last_reported":1713013622,"current_range_meters":12400,"station_id":"ce4bgqh2rcd13ifvqc4g","pricing_plan_id":"cebpf4jnsgd1na2vs0mg"},{"bike_id":"9b226aac-5d37-4f83-a0dd-a1438d6c5aaa","system_id":"levelo_inurba_marseille","lat":43.322872,"lon":5.382756,"is_reserved":false,"is_disabled":false,"rental_uris":{"android":"levelo://app?vid=9b226aac-5d37-4f83-a0dd-a1438d6c5aaa","ios":"levelo://app?vid=9b226aac-5d37-4f83-a0dd-a1438d6c5aaa"},"vehicle_type_id":"4","last_reported":1713013622,"current_range_meters":30400,"station_id":"ce4bhr12rcd13ifvqhqg","pricing_plan_id":"cebpf4jnsgd1na2vs0mg"},{"bike_id":"c973c696-6cf3-4ef6-9922-20142626237f","system_id":"levelo_inurba_marseille","lat":43.30282,"lon":5.37259,"is_reserved":false,"is_disabled":false,"rental_uris":{"android":"levelo://app?vid=c973c696-6cf3-4ef6-9922-20142626237f","ios":"levelo://app?vid=c973c696-6cf3-4ef6-9922-20142626237f"},"vehicle_type_id":"4","last_reported":1713013622,"current_range_meters":15200,"station_id":"","pricing_plan_id":"cebpf4jnsgd1na2vs0mg"},{"bike_id":"194d5422-82c8-4464-851f-39ce031814d4","system_id":"levelo_inurba_marseille","lat":43.301939,"lon":5.366286,"is_reserved":false,"is_disabled":false,"rental_uris":{"android":"levelo://app?vid=194d5422-82c8-4464-851f-39ce031814d4","ios":"levelo://app?vid=194d5422-82c8-4464-851f-39ce031814d4"},"vehicle_type_id":"4","last_reported":1713013622,"current_range_meters":2800,"station_id":"ce4bgrh2rcd13ifvqc8g","pricing_plan_id":"cebpf4jnsgd1na2vs0mg"},{"bike_id":"a92d3461-6e7f-43b2-9f98-ca18bf2e3a98","system_id":"levelo_inurba_marseille","lat":43.301939,"lon":5.366286,"is_reserved":false,"is_disabled":false,"rental_uris":{"android":"levelo://app?vid=a92d3461-6e7f-43b2-9f98-ca18bf2e3a98","ios":"levelo://app?vid=a92d3461-6e7f-43b2-9f98-ca18bf2e3a98"},"vehicle_type_id":"4","last_reported":1713013622,"current_range_meters":22400,"station_id":"ce4bgrh2rcd13ifvqc8g","pricing_plan_id":"cebpf4jnsgd1na2vs0mg"},{"bike_id":"94458b45-bd4a-4098-a0cc-a5bce209878e","system_id":"levelo_inurba_marseille","lat":43.301939,"lon":5.366286,"is_reserved":false,"is_disabled":false,"rental_uris":{"android":"levelo://app?vid=94458b45-bd4a-4098-a0cc-a5bce209878e","ios":"levelo://app?vid=94458b45-bd4a-4098-a0cc-a5bce209878e"},"vehicle_type_id":"4","last_reported":1713013622,"current_range_meters":5600,"station_id":"ce4bgrh2rcd13ifvqc8g","pricing_plan_id":"cebpf4jnsgd1na2vs0mg"},{"bike_id":"a0a07164-c0c2-41aa-b710-99113a5fa34b","system_id":"levelo_inurba_marseille","lat":43.324771,"lon":5.36557,"is_reserved":false,"is_disabled":false,"rental_uris":{"android":"levelo://app?vid=a0a07164-c0c2-41aa-b710-99113a5fa34b","ios":"levelo://app?vid=a0a07164-c0c2-41aa-b710-99113a5fa34b"},"vehicle_type_id":"4","last_reported":1713013622,"current_range_meters":12400,"station_id":"ce4bhs12rcd13ifvqhvg","pricing_plan_id":"cebpf4jnsgd1na2vs0mg"},{"bike_id":"aaef1d7d-f60a-4385-a432-8ff93bd10500","system_id":"levelo_inurba_marseille","lat":43.324771,"lon":5.36557,"is_reserved":false,"is_disabled":false,"rental_uris":{"android":"levelo://app?vid=aaef1d7d-f60a-4385-a432-8ff93bd10500","ios":"levelo://app?vid=aaef1d7d-f60a-4385-a432-8ff93bd10500"},"vehicle_type_id":"4","last_reported":1713013622,"current_range_meters":14400,"station_id":"ce4bhs12rcd13ifvqhvg","pricing_plan_id":"cebpf4jnsgd1na2vs0mg"},{"bike_id":"202a9b96-5a4b-4cb8-b6ff-747a9ee90db5","system_id":"levelo_inurba_marseille","lat":43.324771,"lon":5.36557,"is_reserved":false,"is_disabled":false,"rental_uris":{"android":"levelo://app?vid=202a9b96-5a4b-4cb8-b6ff-747a9ee90db5","ios":"levelo://app?vid=202a9b96-5a4b-4cb8-b6ff-747a9ee90db5"},"vehicle_type_id":"4","last_reported":1713013622,"current_range_meters":27200,"station_id":"ce4bhs12rcd13ifvqhvg","pricing_plan_id":"cebpf4jnsgd1na2vs0mg"},{"bike_id":"6bd30c09-c007-4c03-a14e-53bb25dc6171","system_id":"levelo_inurba_marseille","lat":43.324771,"lon":5.36557,"is_reserved":false,"is_disabled":false,"rental_uris":{"android":"levelo://app?vid=6bd30c09-c007-4c03-a14e-53bb25dc6171","ios":"levelo://app?vid=6bd30c09-c007-4c03-a14e-53bb25dc6171"},"vehicle_type_id":"4","last_reported":1713013622,"current_range_meters":25600,"station_id":"ce4bhs12rcd13ifvqhvg","pricing_plan_id":"cebpf4jnsgd1na2vs0mg"},{"bike_id":"bc6cc588-e5bf-4915-9975-685403001528","system_id":"levelo_inurba_marseille","lat":43.324771,"lon":5.36557,"is_reserved":false,"is_disabled":false,"rental_uris":{"android":"levelo://app?vid=bc6cc588-e5bf-4915-9975-685403001528","ios":"levelo://app?vid=bc6cc588-e5bf-4915-9975-685403001528"},"vehicle_type_id":"4","last_reported":1713013622,"current_range_meters":18000,"station_id":"ce4bhs12rcd13ifvqhvg","pricing_plan_id":"cebpf4jnsgd1na2vs0mg"},{"bike_id":"51c4ee23-3194-4f22-8038-261d45c1ecdc","system_id":"levelo_inurba_marseille","lat":43.324771,"lon":5.36557,"is_reserved":false,"is_disabled":false,"rental_uris":{"android":"levelo://app?vid=51c4ee23-3194-4f22-8038-261d45c1ecdc","ios":"levelo://app?vid=51c4ee23-3194-4f22-8038-261d45c1ecdc"},"vehicle_type_id":"4","last_reported":1713013622,"current_range_meters":12000,"station_id":"ce4bhs12rcd13ifvqhvg","pricing_plan_id":"cebpf4jnsgd1na2vs0mg"},{"bike_id":"5adbd9c0-fa3e-4440-bc61-72edf089dc79","system_id":"levelo_inurba_marseille","lat":43.310804,"lon":5.38359,"is_reserved":false,"is_disabled":false,"rental_uris":{"android":"levelo://app?vid=5adbd9c0-fa3e-4440-bc61-72edf089dc79","ios":"levelo://app?vid=5adbd9c0-fa3e-4440-bc61-72edf089dc79"},"vehicle_type_id":"4","last_reported":1713013622,"current_range_meters":1200,"station_id":"ce4bgv92rcd13ifvqcr0","pricing_plan_id":"cebpf4jnsgd1na2vs0mg"},{"bike_id":"5a50d9b5-a36d-4430-b3e1-1304f72eb42a","system_id":"levelo_inurba_marseille","lat":43.319935,"lon":5.381699,"is_reserved":false,"is_disabled":false,"rental_uris":{"android":"levelo://app?vid=5a50d9b5-a36d-4430-b3e1-1304f72eb42a","ios":"levelo://app?vid=5a50d9b5-a36d-4430-b3e1-1304f72eb42a"},"vehicle_type_id":"4","last_reported":1713013622,"current_range_meters":15600,"station_id":"ce4bhr12rcd13ifvqhpg","pricing_plan_id":"cebpf4jnsgd1na2vs0mg"},{"bike_id":"afb0dae9-a686-4fac-a85b-26c9beff4e05","system_id":"levelo_inurba_marseille","lat":43.31371,"lon":5.38497,"is_reserved":false,"is_disabled":false,"rental_uris":{"android":"levelo://app?vid=afb0dae9-a686-4fac-a85b-26c9beff4e05","ios":"levelo://app?vid=afb0dae9-a686-4fac-a85b-26c9beff4e05"},"vehicle_type_id":"4","last_reported":1713013622,"current_range_meters":0,"station_id":"ce4bgt92rcd13ifvqcf0","pricing_plan_id":"cebpf4jnsgd1na2vs0mg"},{"bike_id":"0350d2bf-3f6e-4977-8e6e-7eacde64197d","system_id":"levelo_inurba_marseille","lat":43.313571,"lon":5.384829,"is_reserved":false,"is_disabled":false,"rental_uris":{"android":"levelo://app?vid=0350d2bf-3f6e-4977-8e6e-7eacde64197d","ios":"levelo://app?vid=0350d2bf-3f6e-4977-8e6e-7eacde64197d"},"vehicle_type_id":"4","last_reported":1713013622,"current_range_meters":29600,"station_id":"ce4bgt92rcd13ifvqcf0","pricing_plan_id":"cebpf4jnsgd1na2vs0mg"},{"bike_id":"583c8200-cfa6-4257-856a-a9dbe1ee9977","system_id":"levelo_inurba_marseille","lat":43.326599,"lon":5.363611,"is_reserved":false,"is_disabled":false,"rental_uris":{"android":"levelo://app?vid=583c8200-cfa6-4257-856a-a9dbe1ee9977","ios":"levelo://app?vid=583c8200-cfa6-4257-856a-a9dbe1ee9977"},"vehicle_type_id":"4","last_reported":1713013622,"current_range_meters":4400,"station_id":"","pricing_plan_id":"cebpf4jnsgd1na2vs0mg"},{"bike_id":"f28c554d-ebfa-46ad-b452-27a507c14d03","system_id":"levelo_inurba_marseille","lat":43.29845,"lon":5.362647,"is_reserved":false,"is_disabled":false,"rental_uris":{"android":"levelo://app?vid=f28c554d-ebfa-46ad-b452-27a507c14d03","ios":"levelo://app?vid=f28c554d-ebfa-46ad-b452-27a507c14d03"},"vehicle_type_id":"4","last_reported":1713013622,"current_range_meters":0,"station_id":"ce4bgpp2rcd13ifvqc3g","pricing_plan_id":"cebpf4jnsgd1na2vs0mg"},{"bike_id":"af7f7a36-da61-42a1-8969-f05b1cb4e6ab","system_id":"levelo_inurba_marseille","lat":43.299243,"lon":5.374807,"is_reserved":false,"is_disabled":false,"rental_uris":{"android":"levelo://app?vid=af7f7a36-da61-42a1-8969-f05b1cb4e6ab","ios":"levelo://app?vid=af7f7a36-da61-42a1-8969-f05b1cb4e6ab"},"vehicle_type_id":"4","last_reported":1713013622,"current_range_meters":24400,"station_id":"ce4bgjh2rcd13ifvqbg0","pricing_plan_id":"cebpf4jnsgd1na2vs0mg"},{"bike_id":"95a856f1-bb9e-4b3b-9814-44b26154eb3a","system_id":"levelo_inurba_marseille","lat":43.311722,"lon":5.387247,"is_reserved":false,"is_disabled":false,"rental_uris":{"android":"levelo://app?vid=95a856f1-bb9e-4b3b-9814-44b26154eb3a","ios":"levelo://app?vid=95a856f1-bb9e-4b3b-9814-44b26154eb3a"},"vehicle_type_id":"4","last_reported":1713013622,"current_range_meters":26000,"station_id":"ce4bgv12rcd13ifvqcp0","pricing_plan_id":"cebpf4jnsgd1na2vs0mg"},{"bike_id":"a2d7dd6f-e1a5-403b-bf70-de86062c15f9","system_id":"levelo_inurba_marseille","lat":43.299243,"lon":5.37481,"is_reserved":false,"is_disabled":false,"rental_uris":{"android":"levelo://app?vid=a2d7dd6f-e1a5-403b-bf70-de86062c15f9","ios":"levelo://app?vid=a2d7dd6f-e1a5-403b-bf70-de86062c15f9"},"vehicle_type_id":"4","last_reported":1713013622,"current_range_meters":4800,"station_id":"ce4bgjh2rcd13ifvqbg0","pricing_plan_id":"cebpf4jnsgd1na2vs0mg"},{"bike_id":"3a611cfb-698e-4cc5-9b53-d55b93de4f52","system_id":"levelo_inurba_marseille","lat":43.297794,"lon":5.370888,"is_reserved":false,"is_disabled":false,"rental_uris":{"android":"levelo://app?vid=3a611cfb-698e-4cc5-9b53-d55b93de4f52","ios":"levelo://app?vid=3a611cfb-698e-4cc5-9b53-d55b93de4f52"},"vehicle_type_id":"4","last_reported":1713013622,"current_range_meters":4800,"station_id":"ce4bgop2rcd13ifvqc1g","pricing_plan_id":"cebpf4jnsgd1na2vs0mg"},{"bike_id":"ecafc631-c800-4043-a7a7-424d33161d58","system_id":"levelo_inurba_marseille","lat":43.298416,"lon":5.374034,"is_reserved":false,"is_disabled":false,"rental_uris":{"android":"levelo://app?vid=ecafc631-c800-4043-a7a7-424d33161d58","ios":"levelo://app?vid=ecafc631-c800-4043-a7a7-424d33161d58"},"vehicle_type_id":"4","last_reported":1713013622,"current_range_meters":0,"station_id":"ce4bguh2rcd13ifvqcj0","pricing_plan_id":"cebpf4jnsgd1na2vs0mg"},{"bike_id":"11e61c51-7fd3-487f-a23f-04a226885e90","system_id":"levelo_inurba_marseille","lat":43.297774,"lon":5.370875,"is_reserved":false,"is_disabled":false,"rental_uris":{"android":"levelo://app?vid=11e61c51-7fd3-487f-a23f-04a226885e90","ios":"levelo://app?vid=11e61c51-7fd3-487f-a23f-04a226885e90"},"vehicle_type_id":"4","last_reported":1713013622,"current_range_meters":9600,"station_id":"ce4bgop2rcd13ifvqc1g","pricing_plan_id":"cebpf4jnsgd1na2vs0mg"},{"bike_id":"391630ee-26bf-40e9-b5ed-f34775d813b8","system_id":"levelo_inurba_marseille","lat":43.297163,"lon":5.365866,"is_reserved":false,"is_disabled":false,"rental_uris":{"android":"levelo://app?vid=391630ee-26bf-40e9-b5ed-f34775d813b8","ios":"levelo://app?vid=391630ee-26bf-40e9-b5ed-f34775d813b8"},"vehicle_type_id":"4","last_reported":1713013622,"current_range_meters":17200,"station_id":"ce4bgn12rcd13ifvqbt0","pricing_plan_id":"cebpf4jnsgd1na2vs0mg"},{"bike_id":"ccd84c9b-7290-422e-8dcb-c62a622b4a3d","system_id":"levelo_inurba_marseille","lat":43.296131,"lon":5.370773,"is_reserved":false,"is_disabled":false,"rental_uris":{"android":"levelo://app?vid=ccd84c9b-7290-422e-8dcb-c62a622b4a3d","ios":"levelo://app?vid=ccd84c9b-7290-422e-8dcb-c62a622b4a3d"},"vehicle_type_id":"4","last_reported":1713013622,"current_range_meters":25200,"station_id":"ce4bgnh2rcd13ifvqc0g","pricing_plan_id":"cebpf4jnsgd1na2vs0mg"},{"bike_id":"978b354d-3a88-4880-9339-947523804a53","system_id":"levelo_inurba_marseille","lat":43.29573,"lon":5.367355,"is_reserved":false,"is_disabled":false,"rental_uris":{"android":"levelo://app?vid=978b354d-3a88-4880-9339-947523804a53","ios":"levelo://app?vid=978b354d-3a88-4880-9339-947523804a53"},"vehicle_type_id":"4","last_reported":1713013622,"current_range_meters":800,"station_id":"ce4bgph2rcd13ifvqc2g","pricing_plan_id":"cebpf4jnsgd1na2vs0mg"},{"bike_id":"8ef9783c-62a0-4f8b-9854-71988f5db28d","system_id":"levelo_inurba_marseille","lat":43.296935,"lon":5.376544,"is_reserved":false,"is_disabled":false,"rental_uris":{"android":"levelo://app?vid=8ef9783c-62a0-4f8b-9854-71988f5db28d","ios":"levelo://app?vid=8ef9783c-62a0-4f8b-9854-71988f5db28d"},"vehicle_type_id":"4","last_reported":1713013622,"current_range_meters":17200,"station_id":"ce4bgkh2rcd13ifvqbl0","pricing_plan_id":"cebpf4jnsgd1na2vs0mg"},{"bike_id":"35d25706-cea0-4fbc-b27c-a3d8fc7ff15b","system_id":"levelo_inurba_marseille","lat":43.296921,"lon":5.376579,"is_reserved":false,"is_disabled":false,"rental_uris":{"android":"levelo://app?vid=35d25706-cea0-4fbc-b27c-a3d8fc7ff15b","ios":"levelo://app?vid=35d25706-cea0-4fbc-b27c-a3d8fc7ff15b"},"vehicle_type_id":"4","last_reported":1713013622,"current_range_meters":0,"station_id":"ce4bgkh2rcd13ifvqbl0","pricing_plan_id":"cebpf4jnsgd1na2vs0mg"},{"bike_id":"d06ee1ce-e0f1-498c-9ec3-dba4dbef30ce","system_id":"levelo_inurba_marseille","lat":43.285848,"lon":5.350787,"is_reserved":false,"is_disabled":false,"rental_uris":{"android":"levelo://app?vid=d06ee1ce-e0f1-498c-9ec3-dba4dbef30ce","ios":"levelo://app?vid=d06ee1ce-e0f1-498c-9ec3-dba4dbef30ce"},"vehicle_type_id":"4","last_reported":1713013622,"current_range_meters":22800,"station_id":"ce4bhch2rcd13ifvqeug","pricing_plan_id":"cebpf4jnsgd1na2vs0mg"},{"bike_id":"ae8b90a2-b776-4688-bb9d-482a2e880a02","system_id":"levelo_inurba_marseille","lat":43.317557,"lon":5.390173,"is_reserved":false,"is_disabled":false,"rental_uris":{"android":"levelo://app?vid=ae8b90a2-b776-4688-bb9d-482a2e880a02","ios":"levelo://app?vid=ae8b90a2-b776-4688-bb9d-482a2e880a02"},"vehicle_type_id":"4","last_reported":1713013622,"current_range_meters":17200,"station_id":"ce4bhqp2rcd13ifvqhng","pricing_plan_id":"cebpf4jnsgd1na2vs0mg"},{"bike_id":"56d0a99b-51a4-4bc0-89cd-5ce61d91f824","system_id":"levelo_inurba_marseille","lat":43.297493,"lon":5.379204,"is_reserved":false,"is_disabled":false,"rental_uris":{"android":"levelo://app?vid=56d0a99b-51a4-4bc0-89cd-5ce61d91f824","ios":"levelo://app?vid=56d0a99b-51a4-4bc0-89cd-5ce61d91f824"},"vehicle_type_id":"4","last_reported":1713013622,"current_range_meters":24000,"station_id":"","pricing_plan_id":"cebpf4jnsgd1na2vs0mg"},{"bike_id":"afb1d3be-21fe-474c-8e15-dda5f83de28b","system_id":"levelo_inurba_marseille","lat":43.29793,"lon":5.38076,"is_reserved":false,"is_disabled":false,"rental_uris":{"android":"levelo://app?vid=afb1d3be-21fe-474c-8e15-dda5f83de28b","ios":"levelo://app?vid=afb1d3be-21fe-474c-8e15-dda5f83de28b"},"vehicle_type_id":"4","last_reported":1713013622,"current_range_meters":26000,"station_id":"ce4bhbp2rcd13ifvqerg","pricing_plan_id":"cebpf4jnsgd1na2vs0mg"},{"bike_id":"46da4494-978c-412f-9b3e-03c9d3114ab0","system_id":"levelo_inurba_marseille","lat":43.296277,"lon":5.377108,"is_reserved":false,"is_disabled":false,"rental_uris":{"android":"levelo://app?vid=46da4494-978c-412f-9b3e-03c9d3114ab0","ios":"levelo://app?vid=46da4494-978c-412f-9b3e-03c9d3114ab0"},"vehicle_type_id":"4","last_reported":1713013622,"current_range_meters":17600,"station_id":"ce4bgi92rcd13ifvqb90","pricing_plan_id":"cebpf4jnsgd1na2vs0mg"},{"bike_id":"fe9b8125-ec65-43d5-b5f9-469a869e411f","system_id":"levelo_inurba_marseille","lat":43.298037,"lon":5.381066,"is_reserved":false,"is_disabled":false,"rental_uris":{"android":"levelo://app?vid=fe9b8125-ec65-43d5-b5f9-469a869e411f","ios":"levelo://app?vid=fe9b8125-ec65-43d5-b5f9-469a869e411f"},"vehicle_type_id":"4","last_reported":1713013622,"current_range_meters":13600,"station_id":"ce4bgip2rcd13ifvqbb0","pricing_plan_id":"cebpf4jnsgd1na2vs0mg"},{"bike_id":"11adfb78-c155-4fe8-ad69-7f762eefce5b","system_id":"levelo_inurba_marseille","lat":43.296277,"lon":5.377108,"is_reserved":false,"is_disabled":false,"rental_uris":{"android":"levelo://app?vid=11adfb78-c155-4fe8-ad69-7f762eefce5b","ios":"levelo://app?vid=11adfb78-c155-4fe8-ad69-7f762eefce5b"},"vehicle_type_id":"4","last_reported":1713013622,"current_range_meters":26000,"station_id":"ce4bgi92rcd13ifvqb90","pricing_plan_id":"cebpf4jnsgd1na2vs0mg"},{"bike_id":"ee08c079-c8b9-4e53-b49c-b2ae379e7c96","system_id":"levelo_inurba_marseille","lat":43.292749,"lon":5.368402,"is_reserved":false,"is_disabled":false,"rental_uris":{"android":"levelo://app?vid=ee08c079-c8b9-4e53-b49c-b2ae379e7c96","ios":"levelo://app?vid=ee08c079-c8b9-4e53-b49c-b2ae379e7c96"},"vehicle_type_id":"4","last_reported":1713013622,"current_range_meters":0,"station_id":"ce4bhbp2rcd13ifvqesg","pricing_plan_id":"cebpf4jnsgd1na2vs0mg"},{"bike_id":"ed052a46-1ee9-4fe4-aa7d-df231543ef3b","system_id":"levelo_inurba_marseille","lat":43.292807,"lon":5.36834,"is_reserved":false,"is_disabled":false,"rental_uris":{"android":"levelo://app?vid=ed052a46-1ee9-4fe4-aa7d-df231543ef3b","ios":"levelo://app?vid=ed052a46-1ee9-4fe4-aa7d-df231543ef3b"},"vehicle_type_id":"4","last_reported":1713013622,"current_range_meters":0,"station_id":"ce4bhbp2rcd13ifvqesg","pricing_plan_id":"cebpf4jnsgd1na2vs0mg"},{"bike_id":"2286fd0c-164e-4108-bbf3-caf7112beddf","system_id":"levelo_inurba_marseille","lat":43.292693,"lon":5.368423,"is_reserved":false,"is_disabled":false,"rental_uris":{"android":"levelo://app?vid=2286fd0c-164e-4108-bbf3-caf7112beddf","ios":"levelo://app?vid=2286fd0c-164e-4108-bbf3-caf7112beddf"},"vehicle_type_id":"4","last_reported":1713013622,"current_range_meters":30000,"station_id":"ce4bhbp2rcd13ifvqesg","pricing_plan_id":"cebpf4jnsgd1na2vs0mg"},{"bike_id":"2b25fea9-fa7a-48bd-b456-6a984d66e31d","system_id":"levelo_inurba_marseille","lat":43.293009,"lon":5.374584,"is_reserved":false,"is_disabled":false,"rental_uris":{"android":"levelo://app?vid=2b25fea9-fa7a-48bd-b456-6a984d66e31d","ios":"levelo://app?vid=2b25fea9-fa7a-48bd-b456-6a984d66e31d"},"vehicle_type_id":"4","last_reported":1713013622,"current_range_meters":800,"station_id":"ce4bgi12rcd13ifvqb70","pricing_plan_id":"cebpf4jnsgd1na2vs0mg"},{"bike_id":"5a525832-cda8-463e-b92e-ee15be97e260","system_id":"levelo_inurba_marseille","lat":43.2936,"lon":5.37835,"is_reserved":false,"is_disabled":false,"rental_uris":{"android":"levelo://app?vid=5a525832-cda8-463e-b92e-ee15be97e260","ios":"levelo://app?vid=5a525832-cda8-463e-b92e-ee15be97e260"},"vehicle_type_id":"4","last_reported":1713013622,"current_range_meters":0,"station_id":"ce4bgjh2rcd13ifvqbf0","pricing_plan_id":"cebpf4jnsgd1na2vs0mg"},{"bike_id":"f2cd0bbe-2c17-495d-9e91-d2fbbe1ed832","system_id":"levelo_inurba_marseille","lat":43.29373,"lon":5.3784,"is_reserved":false,"is_disabled":false,"rental_uris":{"android":"levelo://app?vid=f2cd0bbe-2c17-495d-9e91-d2fbbe1ed832","ios":"levelo://app?vid=f2cd0bbe-2c17-495d-9e91-d2fbbe1ed832"},"vehicle_type_id":"4","last_reported":1713013622,"current_range_meters":15200,"station_id":"ce4bhbp2rcd13ifvqerg","pricing_plan_id":"cebpf4jnsgd1na2vs0mg"},{"bike_id":"e43e504a-5e44-4217-a6a1-d7ffbb34623d","system_id":"levelo_inurba_marseille","lat":43.2936,"lon":5.37835,"is_reserved":false,"is_disabled":false,"rental_uris":{"android":"levelo://app?vid=e43e504a-5e44-4217-a6a1-d7ffbb34623d","ios":"levelo://app?vid=e43e504a-5e44-4217-a6a1-d7ffbb34623d"},"vehicle_type_id":"4","last_reported":1713013622,"current_range_meters":0,"station_id":"ce4bgjh2rcd13ifvqbf0","pricing_plan_id":"cebpf4jnsgd1na2vs0mg"},{"bike_id":"a0b209ab-a61e-4716-8a97-231e45db7fc3","system_id":"levelo_inurba_marseille","lat":43.2917,"lon":5.37146,"is_reserved":false,"is_disabled":false,"rental_uris":{"android":"levelo://app?vid=a0b209ab-a61e-4716-8a97-231e45db7fc3","ios":"levelo://app?vid=a0b209ab-a61e-4716-8a97-231e45db7fc3"},"vehicle_type_id":"4","last_reported":1713013622,"current_range_meters":26000,"station_id":"ce4bhbp2rcd13ifvqerg","pricing_plan_id":"cebpf4jnsgd1na2vs0mg"},{"bike_id":"5d344315-aba4-4ba6-a8d8-8d942735b382","system_id":"levelo_inurba_marseille","lat":43.29529,"lon":5.385581,"is_reserved":false,"is_disabled":false,"rental_uris":{"android":"levelo://app?vid=5d344315-aba4-4ba6-a8d8-8d942735b382","ios":"levelo://app?vid=5d344315-aba4-4ba6-a8d8-8d942735b382"},"vehicle_type_id":"4","last_reported":1713013622,"current_range_meters":24000,"station_id":"ce4bgih2rcd13ifvqba0","pricing_plan_id":"cebpf4jnsgd1na2vs0mg"},{"bike_id":"921b9364-8bc6-414e-845f-0cb65c4a1316","system_id":"levelo_inurba_marseille","lat":43.29187,"lon":5.35726,"is_reserved":false,"is_disabled":false,"rental_uris":{"android":"levelo://app?vid=921b9364-8bc6-414e-845f-0cb65c4a1316","ios":"levelo://app?vid=921b9364-8bc6-414e-845f-0cb65c4a1316"},"vehicle_type_id":"4","last_reported":1713013622,"current_range_meters":26400,"station_id":"","pricing_plan_id":"cebpf4jnsgd1na2vs0mg"},{"bike_id":"8ede538d-c43e-47c4-aaac-569a21b944b6","system_id":"levelo_inurba_marseille","lat":43.284214,"lon":5.349706,"is_reserved":false,"is_disabled":false,"rental_uris":{"android":"levelo://app?vid=8ede538d-c43e-47c4-aaac-569a21b944b6","ios":"levelo://app?vid=8ede538d-c43e-47c4-aaac-569a21b944b6"},"vehicle_type_id":"4","last_reported":1713013622,"current_range_meters":1200,"station_id":"ce4bhbh2rcd13ifvqepg","pricing_plan_id":"cebpf4jnsgd1na2vs0mg"},{"bike_id":"35c52b59-e46d-4e12-8a3e-4c1c88cd12c3","system_id":"levelo_inurba_marseille","lat":43.326605,"lon":5.409903,"is_reserved":false,"is_disabled":false,"rental_uris":{"android":"levelo://app?vid=35c52b59-e46d-4e12-8a3e-4c1c88cd12c3","ios":"levelo://app?vid=35c52b59-e46d-4e12-8a3e-4c1c88cd12c3"},"vehicle_type_id":"4","last_reported":1713013622,"current_range_meters":18400,"station_id":"ce4bhpp2rcd13ifvqhgg","pricing_plan_id":"cebpf4jnsgd1na2vs0mg"},{"bike_id":"d87a97e7-2475-430d-ae14-c6195e23f678","system_id":"levelo_inurba_marseille","lat":43.28973,"lon":5.367083,"is_reserved":false,"is_disabled":false,"rental_uris":{"android":"levelo://app?vid=d87a97e7-2475-430d-ae14-c6195e23f678","ios":"levelo://app?vid=d87a97e7-2475-430d-ae14-c6195e23f678"},"vehicle_type_id":"4","last_reported":1713013622,"current_range_meters":0,"station_id":"ce4bhap2rcd13ifvqek0","pricing_plan_id":"cebpf4jnsgd1na2vs0mg"},{"bike_id":"690483ad-f7e1-4286-b230-0dc4fffea723","system_id":"levelo_inurba_marseille","lat":43.290624,"lon":5.359245,"is_reserved":false,"is_disabled":false,"rental_uris":{"android":"levelo://app?vid=690483ad-f7e1-4286-b230-0dc4fffea723","ios":"levelo://app?vid=690483ad-f7e1-4286-b230-0dc4fffea723"},"vehicle_type_id":"4","last_reported":1713013622,"current_range_meters":14800,"station_id":"ce4bha92rcd13ifvqeg0","pricing_plan_id":"cebpf4jnsgd1na2vs0mg"},{"bike_id":"374034bb-c16d-44d9-96a4-7574964794ee","system_id":"levelo_inurba_marseille","lat":43.290126,"lon":5.359248,"is_reserved":false,"is_disabled":false,"rental_uris":{"android":"levelo://app?vid=374034bb-c16d-44d9-96a4-7574964794ee","ios":"levelo://app?vid=374034bb-c16d-44d9-96a4-7574964794ee"},"vehicle_type_id":"4","last_reported":1713013622,"current_range_meters":24000,"station_id":"ce4bha92rcd13ifvqeg0","pricing_plan_id":"cebpf4jnsgd1na2vs0mg"},{"bike_id":"9c8bfb5e-27b9-4b81-8e88-379efafd1f7d","system_id":"levelo_inurba_marseille","lat":43.290104,"lon":5.356111,"is_reserved":false,"is_disabled":false,"rental_uris":{"android":"levelo://app?vid=9c8bfb5e-27b9-4b81-8e88-379efafd1f7d","ios":"levelo://app?vid=9c8bfb5e-27b9-4b81-8e88-379efafd1f7d"},"vehicle_type_id":"4","last_reported":1713013622,"current_range_meters":23600,"station_id":"ce4bhb92rcd13ifvqen0","pricing_plan_id":"cebpf4jnsgd1na2vs0mg"},{"bike_id":"1dd7b7d3-b85b-4423-b2af-2458d496afc4","system_id":"levelo_inurba_marseille","lat":43.290104,"lon":5.356111,"is_reserved":false,"is_disabled":false,"rental_uris":{"android":"levelo://app?vid=1dd7b7d3-b85b-4423-b2af-2458d496afc4","ios":"levelo://app?vid=1dd7b7d3-b85b-4423-b2af-2458d496afc4"},"vehicle_type_id":"4","last_reported":1713013622,"current_range_meters":0,"station_id":"ce4bhb92rcd13ifvqen0","pricing_plan_id":"cebpf4jnsgd1na2vs0mg"},{"bike_id":"7fc3d8fd-eaf1-4828-bf30-7383bc7b41f4","system_id":"levelo_inurba_marseille","lat":43.29008,"lon":5.35612,"is_reserved":false,"is_disabled":false,"rental_uris":{"android":"levelo://app?vid=7fc3d8fd-eaf1-4828-bf30-7383bc7b41f4","ios":"levelo://app?vid=7fc3d8fd-eaf1-4828-bf30-7383bc7b41f4"},"vehicle_type_id":"4","last_reported":1713013622,"current_range_meters":0,"station_id":"ce4bhb92rcd13ifvqen0","pricing_plan_id":"cebpf4jnsgd1na2vs0mg"},{"bike_id":"cf299e30-bb7b-48eb-b5bf-806bcdbb29d8","system_id":"levelo_inurba_marseille","lat":43.289743,"lon":5.378304,"is_reserved":false,"is_disabled":false,"rental_uris":{"android":"levelo://app?vid=cf299e30-bb7b-48eb-b5bf-806bcdbb29d8","ios":"levelo://app?vid=cf299e30-bb7b-48eb-b5bf-806bcdbb29d8"},"vehicle_type_id":"4","last_reported":1713013622,"current_range_meters":12800,"station_id":"ce4bh9p2rcd13ifvqed0","pricing_plan_id":"cebpf4jnsgd1na2vs0mg"},{"bike_id":"72bb4b0e-314d-443c-a265-ff1f3029909b","system_id":"levelo_inurba_marseille","lat":43.2978,"lon":5.39338,"is_reserved":false,"is_disabled":false,"rental_uris":{"android":"levelo://app?vid=72bb4b0e-314d-443c-a265-ff1f3029909b","ios":"levelo://app?vid=72bb4b0e-314d-443c-a265-ff1f3029909b"},"vehicle_type_id":"4","last_reported":1713013622,"current_range_meters":16800,"station_id":"chh1huq6cuj3fo74tm60","pricing_plan_id":"cebpf4jnsgd1na2vs0mg"},{"bike_id":"5a376929-34bd-4e68-b270-b4e1add692da","system_id":"levelo_inurba_marseille","lat":43.289741,"lon":5.378306,"is_reserved":false,"is_disabled":false,"rental_uris":{"android":"levelo://app?vid=5a376929-34bd-4e68-b270-b4e1add692da","ios":"levelo://app?vid=5a376929-34bd-4e68-b270-b4e1add692da"},"vehicle_type_id":"4","last_reported":1713013622,"current_range_meters":26800,"station_id":"ce4bh9p2rcd13ifvqed0","pricing_plan_id":"cebpf4jnsgd1na2vs0mg"},{"bike_id":"ba237928-dbd5-4acd-b307-ca56b67f1c30","system_id":"levelo_inurba_marseille","lat":43.290094,"lon":5.381264,"is_reserved":false,"is_disabled":false,"rental_uris":{"android":"levelo://app?vid=ba237928-dbd5-4acd-b307-ca56b67f1c30","ios":"levelo://app?vid=ba237928-dbd5-4acd-b307-ca56b67f1c30"},"vehicle_type_id":"4","last_reported":1713013622,"current_range_meters":0,"station_id":"ce4bh4p2rcd13ifvqe1g","pricing_plan_id":"cebpf4jnsgd1na2vs0mg"},{"bike_id":"c0e01348-04cc-4de6-9866-f5fbb4cd866d","system_id":"levelo_inurba_marseille","lat":43.28856,"lon":5.358371,"is_reserved":false,"is_disabled":false,"rental_uris":{"android":"levelo://app?vid=c0e01348-04cc-4de6-9866-f5fbb4cd866d","ios":"levelo://app?vid=c0e01348-04cc-4de6-9866-f5fbb4cd866d"},"vehicle_type_id":"4","last_reported":1713013622,"current_range_meters":5600,"station_id":"ce4bhb12rcd13ifvqem0","pricing_plan_id":"cebpf4jnsgd1na2vs0mg"},{"bike_id":"66571416-9ccb-4e94-9917-427ffe125b79","system_id":"levelo_inurba_marseille","lat":43.309371,"lon":5.401449,"is_reserved":false,"is_disabled":false,"rental_uris":{"android":"levelo://app?vid=66571416-9ccb-4e94-9917-427ffe125b79","ios":"levelo://app?vid=66571416-9ccb-4e94-9917-427ffe125b79"},"vehicle_type_id":"4","last_reported":1713013622,"current_range_meters":29200,"station_id":"ce4bgvp2rcd13ifvqct0","pricing_plan_id":"cebpf4jnsgd1na2vs0mg"},{"bike_id":"d3ea26f4-7d4d-45b7-8172-0133ecd9329b","system_id":"levelo_inurba_marseille","lat":43.337521,"lon":5.374566,"is_reserved":false,"is_disabled":false,"rental_uris":{"android":"levelo://app?vid=d3ea26f4-7d4d-45b7-8172-0133ecd9329b","ios":"levelo://app?vid=d3ea26f4-7d4d-45b7-8172-0133ecd9329b"},"vehicle_type_id":"4","last_reported":1713013622,"current_range_meters":25600,"station_id":"","pricing_plan_id":"cebpf4jnsgd1na2vs0mg"},{"bike_id":"774f6500-6424-427c-8133-e4987961144c","system_id":"levelo_inurba_marseille","lat":43.33754,"lon":5.374806,"is_reserved":false,"is_disabled":false,"rental_uris":{"android":"levelo://app?vid=774f6500-6424-427c-8133-e4987961144c","ios":"levelo://app?vid=774f6500-6424-427c-8133-e4987961144c"},"vehicle_type_id":"4","last_reported":1713013622,"current_range_meters":0,"station_id":"","pricing_plan_id":"cebpf4jnsgd1na2vs0mg"},{"bike_id":"e651dc10-5769-4d81-b3e1-13871948959a","system_id":"levelo_inurba_marseille","lat":43.309371,"lon":5.401449,"is_reserved":false,"is_disabled":false,"rental_uris":{"android":"levelo://app?vid=e651dc10-5769-4d81-b3e1-13871948959a","ios":"levelo://app?vid=e651dc10-5769-4d81-b3e1-13871948959a"},"vehicle_type_id":"4","last_reported":1713013622,"current_range_meters":15200,"station_id":"ce4bgvp2rcd13ifvqct0","pricing_plan_id":"cebpf4jnsgd1na2vs0mg"},{"bike_id":"fc1014d3-8ff1-4757-815d-eb32e6f22c08","system_id":"levelo_inurba_marseille","lat":43.28727,"lon":5.36078,"is_reserved":false,"is_disabled":false,"rental_uris":{"android":"levelo://app?vid=fc1014d3-8ff1-4757-815d-eb32e6f22c08","ios":"levelo://app?vid=fc1014d3-8ff1-4757-815d-eb32e6f22c08"},"vehicle_type_id":"4","last_reported":1713013622,"current_range_meters":2000,"station_id":"cki0cbj6b192h4jlfktg","pricing_plan_id":"cebpf4jnsgd1na2vs0mg"},{"bike_id":"6394b8e0-03a3-4986-9df6-b2bf940fe290","system_id":"levelo_inurba_marseille","lat":43.289743,"lon":5.378304,"is_reserved":false,"is_disabled":false,"rental_uris":{"android":"levelo://app?vid=6394b8e0-03a3-4986-9df6-b2bf940fe290","ios":"levelo://app?vid=6394b8e0-03a3-4986-9df6-b2bf940fe290"},"vehicle_type_id":"4","last_reported":1713013622,"current_range_meters":15200,"station_id":"ce4bh9p2rcd13ifvqed0","pricing_plan_id":"cebpf4jnsgd1na2vs0mg"},{"bike_id":"52b073c2-6725-46a4-a517-c25735d9132d","system_id":"levelo_inurba_marseille","lat":43.287185,"lon":5.379373,"is_reserved":false,"is_disabled":false,"rental_uris":{"android":"levelo://app?vid=52b073c2-6725-46a4-a517-c25735d9132d","ios":"levelo://app?vid=52b073c2-6725-46a4-a517-c25735d9132d"},"vehicle_type_id":"4","last_reported":1713013622,"current_range_meters":0,"station_id":"ce4bh9p2rcd13ifvqec0","pricing_plan_id":"cebpf4jnsgd1na2vs0mg"},{"bike_id":"1988494d-f0a6-42df-8e14-79abe45f4357","system_id":"levelo_inurba_marseille","lat":43.316821,"lon":5.404737,"is_reserved":false,"is_disabled":false,"rental_uris":{"android":"levelo://app?vid=1988494d-f0a6-42df-8e14-79abe45f4357","ios":"levelo://app?vid=1988494d-f0a6-42df-8e14-79abe45f4357"},"vehicle_type_id":"4","last_reported":1713013622,"current_range_meters":30800,"station_id":"ce4bh012rcd13ifvqd00","pricing_plan_id":"cebpf4jnsgd1na2vs0mg"},{"bike_id":"5dcb7a1b-a290-41c0-8dca-11ae5bc726ec","system_id":"levelo_inurba_marseille","lat":43.28463,"lon":5.35889,"is_reserved":false,"is_disabled":false,"rental_uris":{"android":"levelo://app?vid=5dcb7a1b-a290-41c0-8dca-11ae5bc726ec","ios":"levelo://app?vid=5dcb7a1b-a290-41c0-8dca-11ae5bc726ec"},"vehicle_type_id":"4","last_reported":1713013622,"current_range_meters":3600,"station_id":"ce4bhah2rcd13ifvqei0","pricing_plan_id":"cebpf4jnsgd1na2vs0mg"},{"bike_id":"a45850ca-ec04-4f65-9faf-f994aa4f0505","system_id":"levelo_inurba_marseille","lat":43.28465,"lon":5.35875,"is_reserved":false,"is_disabled":false,"rental_uris":{"android":"levelo://app?vid=a45850ca-ec04-4f65-9faf-f994aa4f0505","ios":"levelo://app?vid=a45850ca-ec04-4f65-9faf-f994aa4f0505"},"vehicle_type_id":"4","last_reported":1713013622,"current_range_meters":15600,"station_id":"ce4bhah2rcd13ifvqei0","pricing_plan_id":"cebpf4jnsgd1na2vs0mg"},{"bike_id":"135fd96a-1f9c-48a5-8cdd-e4f339a52c7f","system_id":"levelo_inurba_marseille","lat":43.28463,"lon":5.35887,"is_reserved":false,"is_disabled":false,"rental_uris":{"android":"levelo://app?vid=135fd96a-1f9c-48a5-8cdd-e4f339a52c7f","ios":"levelo://app?vid=135fd96a-1f9c-48a5-8cdd-e4f339a52c7f"},"vehicle_type_id":"4","last_reported":1713013622,"current_range_meters":2000,"station_id":"ce4bhah2rcd13ifvqei0","pricing_plan_id":"cebpf4jnsgd1na2vs0mg"},{"bike_id":"a26643b8-a0df-4f6a-82cb-5d1a1178107b","system_id":"levelo_inurba_marseille","lat":43.2862,"lon":5.35109,"is_reserved":false,"is_disabled":false,"rental_uris":{"android":"levelo://app?vid=a26643b8-a0df-4f6a-82cb-5d1a1178107b","ios":"levelo://app?vid=a26643b8-a0df-4f6a-82cb-5d1a1178107b"},"vehicle_type_id":"4","last_reported":1713013622,"current_range_meters":25200,"station_id":"ce4bhbh2rcd13ifvqepg","pricing_plan_id":"cebpf4jnsgd1na2vs0mg"},{"bike_id":"c6bbe3bc-9742-4d0b-b845-84992a09e035","system_id":"levelo_inurba_marseille","lat":43.286179,"lon":5.351079,"is_reserved":false,"is_disabled":false,"rental_uris":{"android":"levelo://app?vid=c6bbe3bc-9742-4d0b-b845-84992a09e035","ios":"levelo://app?vid=c6bbe3bc-9742-4d0b-b845-84992a09e035"},"vehicle_type_id":"4","last_reported":1713013622,"current_range_meters":6800,"station_id":"ce4bhbh2rcd13ifvqepg","pricing_plan_id":"cebpf4jnsgd1na2vs0mg"},{"bike_id":"6dbece3e-b40e-4b43-b055-0686e46f9a50","system_id":"levelo_inurba_marseille","lat":43.285848,"lon":5.350787,"is_reserved":false,"is_disabled":false,"rental_uris":{"android":"levelo://app?vid=6dbece3e-b40e-4b43-b055-0686e46f9a50","ios":"levelo://app?vid=6dbece3e-b40e-4b43-b055-0686e46f9a50"},"vehicle_type_id":"4","last_reported":1713013622,"current_range_meters":22000,"station_id":"ce4bhch2rcd13ifvqeug","pricing_plan_id":"cebpf4jnsgd1na2vs0mg"},{"bike_id":"c01e7379-b578-4c91-ad59-12ec4242850c","system_id":"levelo_inurba_marseille","lat":43.2607,"lon":5.393983,"is_reserved":false,"is_disabled":false,"rental_uris":{"android":"levelo://app?vid=c01e7379-b578-4c91-ad59-12ec4242850c","ios":"levelo://app?vid=c01e7379-b578-4c91-ad59-12ec4242850c"},"vehicle_type_id":"4","last_reported":1713013622,"current_range_meters":17600,"station_id":"ce4bhh92rcd13ifvqfj0","pricing_plan_id":"cebpf4jnsgd1na2vs0mg"},{"bike_id":"48768494-ea7e-4fd0-a730-d33b81b8d18f","system_id":"levelo_inurba_marseille","lat":43.33717,"lon":5.391857,"is_reserved":false,"is_disabled":false,"rental_uris":{"android":"levelo://app?vid=48768494-ea7e-4fd0-a730-d33b81b8d18f","ios":"levelo://app?vid=48768494-ea7e-4fd0-a730-d33b81b8d18f"},"vehicle_type_id":"4","last_reported":1713013622,"current_range_meters":30000,"station_id":"ce4bhr92rcd13ifvqhsg","pricing_plan_id":"cebpf4jnsgd1na2vs0mg"},{"bike_id":"5ff9c081-5ce3-4b73-a561-fc37bee356b3","system_id":"levelo_inurba_marseille","lat":43.33722,"lon":5.39177,"is_reserved":false,"is_disabled":false,"rental_uris":{"android":"levelo://app?vid=5ff9c081-5ce3-4b73-a561-fc37bee356b3","ios":"levelo://app?vid=5ff9c081-5ce3-4b73-a561-fc37bee356b3"},"vehicle_type_id":"4","last_reported":1713013622,"current_range_meters":21200,"station_id":"ce4bhr92rcd13ifvqhsg","pricing_plan_id":"cebpf4jnsgd1na2vs0mg"},{"bike_id":"494b8c86-fd7c-4152-951e-41536c8e8b41","system_id":"levelo_inurba_marseille","lat":43.337168,"lon":5.391825,"is_reserved":false,"is_disabled":false,"rental_uris":{"android":"levelo://app?vid=494b8c86-fd7c-4152-951e-41536c8e8b41","ios":"levelo://app?vid=494b8c86-fd7c-4152-951e-41536c8e8b41"},"vehicle_type_id":"4","last_reported":1713013622,"current_range_meters":31200,"station_id":"ce4bhr92rcd13ifvqhsg","pricing_plan_id":"cebpf4jnsgd1na2vs0mg"},{"bike_id":"a8e53126-03e8-43a8-923c-1bcc829eee70","system_id":"levelo_inurba_marseille","lat":43.323464,"lon":5.406297,"is_reserved":false,"is_disabled":false,"rental_uris":{"android":"levelo://app?vid=a8e53126-03e8-43a8-923c-1bcc829eee70","ios":"levelo://app?vid=a8e53126-03e8-43a8-923c-1bcc829eee70"},"vehicle_type_id":"4","last_reported":1713013622,"current_range_meters":20000,"station_id":"ce4bhq92rcd13ifvqhjg","pricing_plan_id":"cebpf4jnsgd1na2vs0mg"},{"bike_id":"c8e5d4e6-8c32-493a-b590-ab337f951482","system_id":"levelo_inurba_marseille","lat":43.337168,"lon":5.391825,"is_reserved":false,"is_disabled":false,"rental_uris":{"android":"levelo://app?vid=c8e5d4e6-8c32-493a-b590-ab337f951482","ios":"levelo://app?vid=c8e5d4e6-8c32-493a-b590-ab337f951482"},"vehicle_type_id":"4","last_reported":1713013622,"current_range_meters":14400,"station_id":"ce4bhr92rcd13ifvqhsg","pricing_plan_id":"cebpf4jnsgd1na2vs0mg"},{"bike_id":"3c0ad302-b2d8-4d76-8ed7-1c2a6b63e25f","system_id":"levelo_inurba_marseille","lat":43.284793,"lon":5.384113,"is_reserved":false,"is_disabled":false,"rental_uris":{"android":"levelo://app?vid=3c0ad302-b2d8-4d76-8ed7-1c2a6b63e25f","ios":"levelo://app?vid=3c0ad302-b2d8-4d76-8ed7-1c2a6b63e25f"},"vehicle_type_id":"4","last_reported":1713013622,"current_range_meters":15200,"station_id":"ce4bh512rcd13ifvqe3g","pricing_plan_id":"cebpf4jnsgd1na2vs0mg"},{"bike_id":"e1974164-f540-4613-88d7-6238da0eee39","system_id":"levelo_inurba_marseille","lat":43.297946,"lon":5.404063,"is_reserved":false,"is_disabled":false,"rental_uris":{"android":"levelo://app?vid=e1974164-f540-4613-88d7-6238da0eee39","ios":"levelo://app?vid=e1974164-f540-4613-88d7-6238da0eee39"},"vehicle_type_id":"4","last_reported":1713013622,"current_range_meters":5600,"station_id":"ce4bh112rcd13ifvqd90","pricing_plan_id":"cebpf4jnsgd1na2vs0mg"},{"bike_id":"aed376af-0291-4a03-aafb-697338343574","system_id":"levelo_inurba_marseille","lat":43.284546,"lon":5.349914,"is_reserved":false,"is_disabled":false,"rental_uris":{"android":"levelo://app?vid=aed376af-0291-4a03-aafb-697338343574","ios":"levelo://app?vid=aed376af-0291-4a03-aafb-697338343574"},"vehicle_type_id":"4","last_reported":1713013622,"current_range_meters":23200,"station_id":"ce4bhbh2rcd13ifvqepg","pricing_plan_id":"cebpf4jnsgd1na2vs0mg"},{"bike_id":"4231e44f-6e64-47d9-802b-1946e9c53ecf","system_id":"levelo_inurba_marseille","lat":43.32532,"lon":5.40558,"is_reserved":false,"is_disabled":false,"rental_uris":{"android":"levelo://app?vid=4231e44f-6e64-47d9-802b-1946e9c53ecf","ios":"levelo://app?vid=4231e44f-6e64-47d9-802b-1946e9c53ecf"},"vehicle_type_id":"4","last_reported":1713013622,"current_range_meters":5200,"station_id":"","pricing_plan_id":"cebpf4jnsgd1na2vs0mg"},{"bike_id":"d9ca1156-ced6-4c3a-8439-a241fabfb770","system_id":"levelo_inurba_marseille","lat":43.32533,"lon":5.40562,"is_reserved":false,"is_disabled":false,"rental_uris":{"android":"levelo://app?vid=d9ca1156-ced6-4c3a-8439-a241fabfb770","ios":"levelo://app?vid=d9ca1156-ced6-4c3a-8439-a241fabfb770"},"vehicle_type_id":"4","last_reported":1713013622,"current_range_meters":9200,"station_id":"","pricing_plan_id":"cebpf4jnsgd1na2vs0mg"},{"bike_id":"16354239-de35-43ca-875c-92bb4a5ace82","system_id":"levelo_inurba_marseille","lat":43.32534,"lon":5.40567,"is_reserved":false,"is_disabled":false,"rental_uris":{"android":"levelo://app?vid=16354239-de35-43ca-875c-92bb4a5ace82","ios":"levelo://app?vid=16354239-de35-43ca-875c-92bb4a5ace82"},"vehicle_type_id":"4","last_reported":1713013622,"current_range_meters":24400,"station_id":"","pricing_plan_id":"cebpf4jnsgd1na2vs0mg"},{"bike_id":"7b01e74e-0183-4f57-a68d-3da972284d84","system_id":"levelo_inurba_marseille","lat":43.29795,"lon":5.404086,"is_reserved":false,"is_disabled":false,"rental_uris":{"android":"levelo://app?vid=7b01e74e-0183-4f57-a68d-3da972284d84","ios":"levelo://app?vid=7b01e74e-0183-4f57-a68d-3da972284d84"},"vehicle_type_id":"4","last_reported":1713013622,"current_range_meters":0,"station_id":"ce4bh112rcd13ifvqd90","pricing_plan_id":"cebpf4jnsgd1na2vs0mg"},{"bike_id":"472dcc7b-43d9-4626-b4d9-a1b1b2a77731","system_id":"levelo_inurba_marseille","lat":43.282744,"lon":5.350533,"is_reserved":false,"is_disabled":false,"rental_uris":{"android":"levelo://app?vid=472dcc7b-43d9-4626-b4d9-a1b1b2a77731","ios":"levelo://app?vid=472dcc7b-43d9-4626-b4d9-a1b1b2a77731"},"vehicle_type_id":"4","last_reported":1713013622,"current_range_meters":4800,"station_id":"ce4bhbp2rcd13ifvqerg","pricing_plan_id":"cebpf4jnsgd1na2vs0mg"},{"bike_id":"2415b101-93b8-4bf0-ade8-7e2231f32ed6","system_id":"levelo_inurba_marseille","lat":43.284232,"lon":5.350004,"is_reserved":false,"is_disabled":false,"rental_uris":{"android":"levelo://app?vid=2415b101-93b8-4bf0-ade8-7e2231f32ed6","ios":"levelo://app?vid=2415b101-93b8-4bf0-ade8-7e2231f32ed6"},"vehicle_type_id":"4","last_reported":1713013622,"current_range_meters":28000,"station_id":"ce4bhbh2rcd13ifvqepg","pricing_plan_id":"cebpf4jnsgd1na2vs0mg"},{"bike_id":"c517de6e-c999-4091-8db3-d8af608e5310","system_id":"levelo_inurba_marseille","lat":43.284268,"lon":5.349851,"is_reserved":false,"is_disabled":false,"rental_uris":{"android":"levelo://app?vid=c517de6e-c999-4091-8db3-d8af608e5310","ios":"levelo://app?vid=c517de6e-c999-4091-8db3-d8af608e5310"},"vehicle_type_id":"4","last_reported":1713013622,"current_range_meters":19200,"station_id":"ce4bhbh2rcd13ifvqepg","pricing_plan_id":"cebpf4jnsgd1na2vs0mg"},{"bike_id":"57d9ad98-6b20-4398-b520-d798ed257602","system_id":"levelo_inurba_marseille","lat":43.284263,"lon":5.349866,"is_reserved":false,"is_disabled":false,"rental_uris":{"android":"levelo://app?vid=57d9ad98-6b20-4398-b520-d798ed257602","ios":"levelo://app?vid=57d9ad98-6b20-4398-b520-d798ed257602"},"vehicle_type_id":"4","last_reported":1713013622,"current_range_meters":16800,"station_id":"ce4bhbh2rcd13ifvqepg","pricing_plan_id":"cebpf4jnsgd1na2vs0mg"},{"bike_id":"0cebd58f-9e81-4c57-803f-4d10bffeae45","system_id":"levelo_inurba_marseille","lat":43.28424,"lon":5.34993,"is_reserved":false,"is_disabled":false,"rental_uris":{"android":"levelo://app?vid=0cebd58f-9e81-4c57-803f-4d10bffeae45","ios":"levelo://app?vid=0cebd58f-9e81-4c57-803f-4d10bffeae45"},"vehicle_type_id":"4","last_reported":1713013622,"current_range_meters":8000,"station_id":"ce4bhbh2rcd13ifvqepg","pricing_plan_id":"cebpf4jnsgd1na2vs0mg"},{"bike_id":"2f92eedb-68db-40cd-8835-9d4b4d330c19","system_id":"levelo_inurba_marseille","lat":43.28424,"lon":5.34988,"is_reserved":false,"is_disabled":false,"rental_uris":{"android":"levelo://app?vid=2f92eedb-68db-40cd-8835-9d4b4d330c19","ios":"levelo://app?vid=2f92eedb-68db-40cd-8835-9d4b4d330c19"},"vehicle_type_id":"4","last_reported":1713013622,"current_range_meters":30000,"station_id":"ce4bhbh2rcd13ifvqepg","pricing_plan_id":"cebpf4jnsgd1na2vs0mg"},{"bike_id":"845baa49-a80d-462b-bc0f-ef057bd30f27","system_id":"levelo_inurba_marseille","lat":43.28423,"lon":5.34991,"is_reserved":false,"is_disabled":false,"rental_uris":{"android":"levelo://app?vid=845baa49-a80d-462b-bc0f-ef057bd30f27","ios":"levelo://app?vid=845baa49-a80d-462b-bc0f-ef057bd30f27"},"vehicle_type_id":"4","last_reported":1713013622,"current_range_meters":12400,"station_id":"ce4bhbh2rcd13ifvqepg","pricing_plan_id":"cebpf4jnsgd1na2vs0mg"},{"bike_id":"5f07de1d-8f5a-40b0-81e8-1c86252648eb","system_id":"levelo_inurba_marseille","lat":43.284228,"lon":5.349908,"is_reserved":false,"is_disabled":false,"rental_uris":{"android":"levelo://app?vid=5f07de1d-8f5a-40b0-81e8-1c86252648eb","ios":"levelo://app?vid=5f07de1d-8f5a-40b0-81e8-1c86252648eb"},"vehicle_type_id":"4","last_reported":1713013622,"current_range_meters":8400,"station_id":"ce4bhbh2rcd13ifvqepg","pricing_plan_id":"cebpf4jnsgd1na2vs0mg"},{"bike_id":"363675a8-fa55-40a8-8b63-1dfe3fe076c2","system_id":"levelo_inurba_marseille","lat":43.284231,"lon":5.349857,"is_reserved":false,"is_disabled":false,"rental_uris":{"android":"levelo://app?vid=363675a8-fa55-40a8-8b63-1dfe3fe076c2","ios":"levelo://app?vid=363675a8-fa55-40a8-8b63-1dfe3fe076c2"},"vehicle_type_id":"4","last_reported":1713013622,"current_range_meters":31200,"station_id":"ce4bhbh2rcd13ifvqepg","pricing_plan_id":"cebpf4jnsgd1na2vs0mg"},{"bike_id":"6651ff3d-99df-4396-bcbd-eb0afd675650","system_id":"levelo_inurba_marseille","lat":43.28421,"lon":5.34992,"is_reserved":false,"is_disabled":false,"rental_uris":{"android":"levelo://app?vid=6651ff3d-99df-4396-bcbd-eb0afd675650","ios":"levelo://app?vid=6651ff3d-99df-4396-bcbd-eb0afd675650"},"vehicle_type_id":"4","last_reported":1713013622,"current_range_meters":17200,"station_id":"ce4bhbh2rcd13ifvqepg","pricing_plan_id":"cebpf4jnsgd1na2vs0mg"},{"bike_id":"65baf02d-53af-4ac7-8374-7bc566159296","system_id":"levelo_inurba_marseille","lat":43.284218,"lon":5.34988,"is_reserved":false,"is_disabled":false,"rental_uris":{"android":"levelo://app?vid=65baf02d-53af-4ac7-8374-7bc566159296","ios":"levelo://app?vid=65baf02d-53af-4ac7-8374-7bc566159296"},"vehicle_type_id":"4","last_reported":1713013622,"current_range_meters":16800,"station_id":"ce4bhbh2rcd13ifvqepg","pricing_plan_id":"cebpf4jnsgd1na2vs0mg"},{"bike_id":"fb409edd-c672-44c1-9d68-9bf9877e18d3","system_id":"levelo_inurba_marseille","lat":43.28417,"lon":5.35001,"is_reserved":false,"is_disabled":false,"rental_uris":{"android":"levelo://app?vid=fb409edd-c672-44c1-9d68-9bf9877e18d3","ios":"levelo://app?vid=fb409edd-c672-44c1-9d68-9bf9877e18d3"},"vehicle_type_id":"4","last_reported":1713013622,"current_range_meters":17200,"station_id":"ce4bhbh2rcd13ifvqepg","pricing_plan_id":"cebpf4jnsgd1na2vs0mg"},{"bike_id":"32e21b67-5148-438e-853e-c04d1362b5eb","system_id":"levelo_inurba_marseille","lat":43.28419,"lon":5.34991,"is_reserved":false,"is_disabled":false,"rental_uris":{"android":"levelo://app?vid=32e21b67-5148-438e-853e-c04d1362b5eb","ios":"levelo://app?vid=32e21b67-5148-438e-853e-c04d1362b5eb"},"vehicle_type_id":"4","last_reported":1713013622,"current_range_meters":24800,"station_id":"ce4bhbh2rcd13ifvqepg","pricing_plan_id":"cebpf4jnsgd1na2vs0mg"},{"bike_id":"27217ddc-7632-43fe-87bd-67ed096c531e","system_id":"levelo_inurba_marseille","lat":43.28423,"lon":5.34978,"is_reserved":false,"is_disabled":false,"rental_uris":{"android":"levelo://app?vid=27217ddc-7632-43fe-87bd-67ed096c531e","ios":"levelo://app?vid=27217ddc-7632-43fe-87bd-67ed096c531e"},"vehicle_type_id":"4","last_reported":1713013622,"current_range_meters":14000,"station_id":"ce4bhbh2rcd13ifvqepg","pricing_plan_id":"cebpf4jnsgd1na2vs0mg"},{"bike_id":"dfdf9d22-1f57-4582-b837-09691561f769","system_id":"levelo_inurba_marseille","lat":43.28419,"lon":5.3499,"is_reserved":false,"is_disabled":false,"rental_uris":{"android":"levelo://app?vid=dfdf9d22-1f57-4582-b837-09691561f769","ios":"levelo://app?vid=dfdf9d22-1f57-4582-b837-09691561f769"},"vehicle_type_id":"4","last_reported":1713013622,"current_range_meters":15200,"station_id":"ce4bhbh2rcd13ifvqepg","pricing_plan_id":"cebpf4jnsgd1na2vs0mg"},{"bike_id":"1e70b70d-ae92-49bf-84f1-5f192d8697a5","system_id":"levelo_inurba_marseille","lat":43.28421,"lon":5.34983,"is_reserved":false,"is_disabled":false,"rental_uris":{"android":"levelo://app?vid=1e70b70d-ae92-49bf-84f1-5f192d8697a5","ios":"levelo://app?vid=1e70b70d-ae92-49bf-84f1-5f192d8697a5"},"vehicle_type_id":"4","last_reported":1713013622,"current_range_meters":30800,"station_id":"ce4bhbh2rcd13ifvqepg","pricing_plan_id":"cebpf4jnsgd1na2vs0mg"},{"bike_id":"5c916bd3-da40-438e-b383-340599460273","system_id":"levelo_inurba_marseille","lat":43.28421,"lon":5.34983,"is_reserved":false,"is_disabled":false,"rental_uris":{"android":"levelo://app?vid=5c916bd3-da40-438e-b383-340599460273","ios":"levelo://app?vid=5c916bd3-da40-438e-b383-340599460273"},"vehicle_type_id":"4","last_reported":1713013622,"current_range_meters":10800,"station_id":"ce4bhbh2rcd13ifvqepg","pricing_plan_id":"cebpf4jnsgd1na2vs0mg"},{"bike_id":"62430a3d-7bc3-467f-a344-057e6c75a491","system_id":"levelo_inurba_marseille","lat":43.2842,"lon":5.34986,"is_reserved":false,"is_disabled":false,"rental_uris":{"android":"levelo://app?vid=62430a3d-7bc3-467f-a344-057e6c75a491","ios":"levelo://app?vid=62430a3d-7bc3-467f-a344-057e6c75a491"},"vehicle_type_id":"4","last_reported":1713013622,"current_range_meters":16000,"station_id":"ce4bhbh2rcd13ifvqepg","pricing_plan_id":"cebpf4jnsgd1na2vs0mg"},{"bike_id":"b24fe386-4b69-482f-aa44-84e07c62a6f9","system_id":"levelo_inurba_marseille","lat":43.284208,"lon":5.349833,"is_reserved":false,"is_disabled":false,"rental_uris":{"android":"levelo://app?vid=b24fe386-4b69-482f-aa44-84e07c62a6f9","ios":"levelo://app?vid=b24fe386-4b69-482f-aa44-84e07c62a6f9"},"vehicle_type_id":"4","last_reported":1713013622,"current_range_meters":2000,"station_id":"ce4bhbh2rcd13ifvqepg","pricing_plan_id":"cebpf4jnsgd1na2vs0mg"},{"bike_id":"ade63cc2-cdfa-495b-9046-93ad543310ac","system_id":"levelo_inurba_marseille","lat":43.28424,"lon":5.34973,"is_reserved":false,"is_disabled":false,"rental_uris":{"android":"levelo://app?vid=ade63cc2-cdfa-495b-9046-93ad543310ac","ios":"levelo://app?vid=ade63cc2-cdfa-495b-9046-93ad543310ac"},"vehicle_type_id":"4","last_reported":1713013622,"current_range_meters":2800,"station_id":"ce4bhbh2rcd13ifvqepg","pricing_plan_id":"cebpf4jnsgd1na2vs0mg"},{"bike_id":"7810121d-252e-49aa-93a4-6833607550af","system_id":"levelo_inurba_marseille","lat":43.28419,"lon":5.34988,"is_reserved":false,"is_disabled":false,"rental_uris":{"android":"levelo://app?vid=7810121d-252e-49aa-93a4-6833607550af","ios":"levelo://app?vid=7810121d-252e-49aa-93a4-6833607550af"},"vehicle_type_id":"4","last_reported":1713013622,"current_range_meters":16000,"station_id":"ce4bhbh2rcd13ifvqepg","pricing_plan_id":"cebpf4jnsgd1na2vs0mg"},{"bike_id":"332e0b64-c9d2-4f72-8833-2fbe8166cc1e","system_id":"levelo_inurba_marseille","lat":43.284213,"lon":5.349807,"is_reserved":false,"is_disabled":false,"rental_uris":{"android":"levelo://app?vid=332e0b64-c9d2-4f72-8833-2fbe8166cc1e","ios":"levelo://app?vid=332e0b64-c9d2-4f72-8833-2fbe8166cc1e"},"vehicle_type_id":"4","last_reported":1713013622,"current_range_meters":19600,"station_id":"ce4bhbh2rcd13ifvqepg","pricing_plan_id":"cebpf4jnsgd1na2vs0mg"},{"bike_id":"957330e6-ac62-4262-a412-659e56631f5c","system_id":"levelo_inurba_marseille","lat":43.28418,"lon":5.34989,"is_reserved":false,"is_disabled":false,"rental_uris":{"android":"levelo://app?vid=957330e6-ac62-4262-a412-659e56631f5c","ios":"levelo://app?vid=957330e6-ac62-4262-a412-659e56631f5c"},"vehicle_type_id":"4","last_reported":1713013622,"current_range_meters":15200,"station_id":"ce4bhbh2rcd13ifvqepg","pricing_plan_id":"cebpf4jnsgd1na2vs0mg"},{"bike_id":"87ed7588-7f3d-48be-8e5c-3f44829f4ce5","system_id":"levelo_inurba_marseille","lat":43.28422,"lon":5.349753,"is_reserved":false,"is_disabled":false,"rental_uris":{"android":"levelo://app?vid=87ed7588-7f3d-48be-8e5c-3f44829f4ce5","ios":"levelo://app?vid=87ed7588-7f3d-48be-8e5c-3f44829f4ce5"},"vehicle_type_id":"4","last_reported":1713013622,"current_range_meters":9200,"station_id":"ce4bhbh2rcd13ifvqepg","pricing_plan_id":"cebpf4jnsgd1na2vs0mg"},{"bike_id":"90bf6c53-4592-4b5d-94c8-09d58e828fd9","system_id":"levelo_inurba_marseille","lat":43.2842,"lon":5.34981,"is_reserved":false,"is_disabled":false,"rental_uris":{"android":"levelo://app?vid=90bf6c53-4592-4b5d-94c8-09d58e828fd9","ios":"levelo://app?vid=90bf6c53-4592-4b5d-94c8-09d58e828fd9"},"vehicle_type_id":"4","last_reported":1713013622,"current_range_meters":1600,"station_id":"ce4bhbh2rcd13ifvqepg","pricing_plan_id":"cebpf4jnsgd1na2vs0mg"},{"bike_id":"787c950b-309e-45a9-a4c6-cad25297aa33","system_id":"levelo_inurba_marseille","lat":43.28424,"lon":5.34968,"is_reserved":false,"is_disabled":false,"rental_uris":{"android":"levelo://app?vid=787c950b-309e-45a9-a4c6-cad25297aa33","ios":"levelo://app?vid=787c950b-309e-45a9-a4c6-cad25297aa33"},"vehicle_type_id":"4","last_reported":1713013622,"current_range_meters":10800,"station_id":"ce4bhbh2rcd13ifvqepg","pricing_plan_id":"cebpf4jnsgd1na2vs0mg"},{"bike_id":"2563a3bd-5ea9-49f7-b316-2b4c24c44979","system_id":"levelo_inurba_marseille","lat":43.28416,"lon":5.34993,"is_reserved":false,"is_disabled":false,"rental_uris":{"android":"levelo://app?vid=2563a3bd-5ea9-49f7-b316-2b4c24c44979","ios":"levelo://app?vid=2563a3bd-5ea9-49f7-b316-2b4c24c44979"},"vehicle_type_id":"4","last_reported":1713013622,"current_range_meters":21200,"station_id":"ce4bhbh2rcd13ifvqepg","pricing_plan_id":"cebpf4jnsgd1na2vs0mg"},{"bike_id":"37d8726e-2352-40ea-b096-1023f35b82cd","system_id":"levelo_inurba_marseille","lat":43.28421,"lon":5.34977,"is_reserved":false,"is_disabled":false,"rental_uris":{"android":"levelo://app?vid=37d8726e-2352-40ea-b096-1023f35b82cd","ios":"levelo://app?vid=37d8726e-2352-40ea-b096-1023f35b82cd"},"vehicle_type_id":"4","last_reported":1713013622,"current_range_meters":5200,"station_id":"ce4bhbh2rcd13ifvqepg","pricing_plan_id":"cebpf4jnsgd1na2vs0mg"},{"bike_id":"e3e47d49-27ae-4442-8206-726760315db4","system_id":"levelo_inurba_marseille","lat":43.28417,"lon":5.34988,"is_reserved":false,"is_disabled":false,"rental_uris":{"android":"levelo://app?vid=e3e47d49-27ae-4442-8206-726760315db4","ios":"levelo://app?vid=e3e47d49-27ae-4442-8206-726760315db4"},"vehicle_type_id":"4","last_reported":1713013622,"current_range_meters":26000,"station_id":"ce4bhbh2rcd13ifvqepg","pricing_plan_id":"cebpf4jnsgd1na2vs0mg"},{"bike_id":"680fe025-328a-4da2-925a-dd577f054444","system_id":"levelo_inurba_marseille","lat":43.28417,"lon":5.34988,"is_reserved":false,"is_disabled":false,"rental_uris":{"android":"levelo://app?vid=680fe025-328a-4da2-925a-dd577f054444","ios":"levelo://app?vid=680fe025-328a-4da2-925a-dd577f054444"},"vehicle_type_id":"4","last_reported":1713013622,"current_range_meters":14000,"station_id":"ce4bhbh2rcd13ifvqepg","pricing_plan_id":"cebpf4jnsgd1na2vs0mg"},{"bike_id":"ce41afb6-762c-4f84-b8d9-406ca2a56645","system_id":"levelo_inurba_marseille","lat":43.28419,"lon":5.34981,"is_reserved":false,"is_disabled":false,"rental_uris":{"android":"levelo://app?vid=ce41afb6-762c-4f84-b8d9-406ca2a56645","ios":"levelo://app?vid=ce41afb6-762c-4f84-b8d9-406ca2a56645"},"vehicle_type_id":"4","last_reported":1713013622,"current_range_meters":10400,"station_id":"ce4bhbh2rcd13ifvqepg","pricing_plan_id":"cebpf4jnsgd1na2vs0mg"},{"bike_id":"43c3d711-629e-4d78-a616-1e5eb42b8837","system_id":"levelo_inurba_marseille","lat":43.28418,"lon":5.34982,"is_reserved":false,"is_disabled":false,"rental_uris":{"android":"levelo://app?vid=43c3d711-629e-4d78-a616-1e5eb42b8837","ios":"levelo://app?vid=43c3d711-629e-4d78-a616-1e5eb42b8837"},"vehicle_type_id":"4","last_reported":1713013622,"current_range_meters":13200,"station_id":"ce4bhbh2rcd13ifvqepg","pricing_plan_id":"cebpf4jnsgd1na2vs0mg"},{"bike_id":"f77ccc6d-c6e3-472e-bd63-f217bd206b9f","system_id":"levelo_inurba_marseille","lat":43.284172,"lon":5.349842,"is_reserved":false,"is_disabled":false,"rental_uris":{"android":"levelo://app?vid=f77ccc6d-c6e3-472e-bd63-f217bd206b9f","ios":"levelo://app?vid=f77ccc6d-c6e3-472e-bd63-f217bd206b9f"},"vehicle_type_id":"4","last_reported":1713013622,"current_range_meters":17200,"station_id":"ce4bhbh2rcd13ifvqepg","pricing_plan_id":"cebpf4jnsgd1na2vs0mg"},{"bike_id":"247d6e05-8e6e-409c-a05c-c83789ea0f44","system_id":"levelo_inurba_marseille","lat":43.284136,"lon":5.34995,"is_reserved":false,"is_disabled":false,"rental_uris":{"android":"levelo://app?vid=247d6e05-8e6e-409c-a05c-c83789ea0f44","ios":"levelo://app?vid=247d6e05-8e6e-409c-a05c-c83789ea0f44"},"vehicle_type_id":"4","last_reported":1713013622,"current_range_meters":26800,"station_id":"ce4bhbh2rcd13ifvqepg","pricing_plan_id":"cebpf4jnsgd1na2vs0mg"},{"bike_id":"071b34eb-a730-4cd0-8460-20eadabcb03f","system_id":"levelo_inurba_marseille","lat":43.284214,"lon":5.349706,"is_reserved":false,"is_disabled":false,"rental_uris":{"android":"levelo://app?vid=071b34eb-a730-4cd0-8460-20eadabcb03f","ios":"levelo://app?vid=071b34eb-a730-4cd0-8460-20eadabcb03f"},"vehicle_type_id":"4","last_reported":1713013622,"current_range_meters":24000,"station_id":"ce4bhbh2rcd13ifvqepg","pricing_plan_id":"cebpf4jnsgd1na2vs0mg"},{"bike_id":"00142e4e-3f94-4ee9-b184-e0bc6a34bf09","system_id":"levelo_inurba_marseille","lat":43.2842,"lon":5.34974,"is_reserved":false,"is_disabled":false,"rental_uris":{"android":"levelo://app?vid=00142e4e-3f94-4ee9-b184-e0bc6a34bf09","ios":"levelo://app?vid=00142e4e-3f94-4ee9-b184-e0bc6a34bf09"},"vehicle_type_id":"4","last_reported":1713013622,"current_range_meters":17600,"station_id":"ce4bhbh2rcd13ifvqepg","pricing_plan_id":"cebpf4jnsgd1na2vs0mg"},{"bike_id":"ec91251b-ba9b-4894-ba67-55c308b5e47e","system_id":"levelo_inurba_marseille","lat":43.28417,"lon":5.34981,"is_reserved":false,"is_disabled":false,"rental_uris":{"android":"levelo://app?vid=ec91251b-ba9b-4894-ba67-55c308b5e47e","ios":"levelo://app?vid=ec91251b-ba9b-4894-ba67-55c308b5e47e"},"vehicle_type_id":"4","last_reported":1713013622,"current_range_meters":17200,"station_id":"ce4bhbh2rcd13ifvqepg","pricing_plan_id":"cebpf4jnsgd1na2vs0mg"},{"bike_id":"7a0831c1-936c-448e-b352-cbec79b579c8","system_id":"levelo_inurba_marseille","lat":43.28416,"lon":5.34984,"is_reserved":false,"is_disabled":false,"rental_uris":{"android":"levelo://app?vid=7a0831c1-936c-448e-b352-cbec79b579c8","ios":"levelo://app?vid=7a0831c1-936c-448e-b352-cbec79b579c8"},"vehicle_type_id":"4","last_reported":1713013622,"current_range_meters":22800,"station_id":"ce4bhbh2rcd13ifvqepg","pricing_plan_id":"cebpf4jnsgd1na2vs0mg"},{"bike_id":"df3c0d40-11fc-41b7-ac9c-c8c7ba8cc8f4","system_id":"levelo_inurba_marseille","lat":43.28418,"lon":5.34977,"is_reserved":false,"is_disabled":false,"rental_uris":{"android":"levelo://app?vid=df3c0d40-11fc-41b7-ac9c-c8c7ba8cc8f4","ios":"levelo://app?vid=df3c0d40-11fc-41b7-ac9c-c8c7ba8cc8f4"},"vehicle_type_id":"4","last_reported":1713013622,"current_range_meters":21200,"station_id":"ce4bhbh2rcd13ifvqepg","pricing_plan_id":"cebpf4jnsgd1na2vs0mg"},{"bike_id":"557f9ea8-f044-43d2-86ba-e2ce75e4b424","system_id":"levelo_inurba_marseille","lat":43.28411,"lon":5.34999,"is_reserved":false,"is_disabled":false,"rental_uris":{"android":"levelo://app?vid=557f9ea8-f044-43d2-86ba-e2ce75e4b424","ios":"levelo://app?vid=557f9ea8-f044-43d2-86ba-e2ce75e4b424"},"vehicle_type_id":"4","last_reported":1713013622,"current_range_meters":11200,"station_id":"ce4bhbh2rcd13ifvqepg","pricing_plan_id":"cebpf4jnsgd1na2vs0mg"},{"bike_id":"e7848cee-d148-437b-a59e-3671d7e3d450","system_id":"levelo_inurba_marseille","lat":43.28411,"lon":5.34998,"is_reserved":false,"is_disabled":false,"rental_uris":{"android":"levelo://app?vid=e7848cee-d148-437b-a59e-3671d7e3d450","ios":"levelo://app?vid=e7848cee-d148-437b-a59e-3671d7e3d450"},"vehicle_type_id":"4","last_reported":1713013622,"current_range_meters":9200,"station_id":"ce4bhbh2rcd13ifvqepg","pricing_plan_id":"cebpf4jnsgd1na2vs0mg"},{"bike_id":"928ccc75-b1b6-43aa-a9a0-46222b3ee647","system_id":"levelo_inurba_marseille","lat":43.284152,"lon":5.349847,"is_reserved":false,"is_disabled":false,"rental_uris":{"android":"levelo://app?vid=928ccc75-b1b6-43aa-a9a0-46222b3ee647","ios":"levelo://app?vid=928ccc75-b1b6-43aa-a9a0-46222b3ee647"},"vehicle_type_id":"4","last_reported":1713013622,"current_range_meters":24400,"station_id":"ce4bhbh2rcd13ifvqepg","pricing_plan_id":"cebpf4jnsgd1na2vs0mg"},{"bike_id":"01563724-1217-40de-82a5-8535c9ff8f5d","system_id":"levelo_inurba_marseille","lat":43.28415,"lon":5.349847,"is_reserved":false,"is_disabled":false,"rental_uris":{"android":"levelo://app?vid=01563724-1217-40de-82a5-8535c9ff8f5d","ios":"levelo://app?vid=01563724-1217-40de-82a5-8535c9ff8f5d"},"vehicle_type_id":"4","last_reported":1713013622,"current_range_meters":15200,"station_id":"ce4bhbh2rcd13ifvqepg","pricing_plan_id":"cebpf4jnsgd1na2vs0mg"},{"bike_id":"3e238bfa-0bb6-4969-9526-3fcd6c35d000","system_id":"levelo_inurba_marseille","lat":43.28415,"lon":5.34983,"is_reserved":false,"is_disabled":false,"rental_uris":{"android":"levelo://app?vid=3e238bfa-0bb6-4969-9526-3fcd6c35d000","ios":"levelo://app?vid=3e238bfa-0bb6-4969-9526-3fcd6c35d000"},"vehicle_type_id":"4","last_reported":1713013622,"current_range_meters":23600,"station_id":"ce4bhbh2rcd13ifvqepg","pricing_plan_id":"cebpf4jnsgd1na2vs0mg"},{"bike_id":"01e34518-9d6a-47f3-a843-b9db735352bb","system_id":"levelo_inurba_marseille","lat":43.284083,"lon":5.350026,"is_reserved":false,"is_disabled":false,"rental_uris":{"android":"levelo://app?vid=01e34518-9d6a-47f3-a843-b9db735352bb","ios":"levelo://app?vid=01e34518-9d6a-47f3-a843-b9db735352bb"},"vehicle_type_id":"4","last_reported":1713013622,"current_range_meters":6000,"station_id":"ce4bhbh2rcd13ifvqepg","pricing_plan_id":"cebpf4jnsgd1na2vs0mg"},{"bike_id":"ec63401c-21e5-45f1-ba39-9a2db6911806","system_id":"levelo_inurba_marseille","lat":43.2841,"lon":5.34997,"is_reserved":false,"is_disabled":false,"rental_uris":{"android":"levelo://app?vid=ec63401c-21e5-45f1-ba39-9a2db6911806","ios":"levelo://app?vid=ec63401c-21e5-45f1-ba39-9a2db6911806"},"vehicle_type_id":"4","last_reported":1713013622,"current_range_meters":24800,"station_id":"ce4bhbh2rcd13ifvqepg","pricing_plan_id":"cebpf4jnsgd1na2vs0mg"},{"bike_id":"01db5f17-698d-4d85-9ac9-a2863bfb80c7","system_id":"levelo_inurba_marseille","lat":43.28415,"lon":5.34981,"is_reserved":false,"is_disabled":false,"rental_uris":{"android":"levelo://app?vid=01db5f17-698d-4d85-9ac9-a2863bfb80c7","ios":"levelo://app?vid=01db5f17-698d-4d85-9ac9-a2863bfb80c7"},"vehicle_type_id":"4","last_reported":1713013622,"current_range_meters":16400,"station_id":"ce4bhbh2rcd13ifvqepg","pricing_plan_id":"cebpf4jnsgd1na2vs0mg"},{"bike_id":"4b4f5eae-2e63-4daa-90e0-975505fa00d3","system_id":"levelo_inurba_marseille","lat":43.28414,"lon":5.34983,"is_reserved":false,"is_disabled":false,"rental_uris":{"android":"levelo://app?vid=4b4f5eae-2e63-4daa-90e0-975505fa00d3","ios":"levelo://app?vid=4b4f5eae-2e63-4daa-90e0-975505fa00d3"},"vehicle_type_id":"4","last_reported":1713013622,"current_range_meters":9600,"station_id":"ce4bhbh2rcd13ifvqepg","pricing_plan_id":"cebpf4jnsgd1na2vs0mg"},{"bike_id":"4120ce58-0084-4b83-9756-9f243e7016a7","system_id":"levelo_inurba_marseille","lat":43.284147,"lon":5.349807,"is_reserved":false,"is_disabled":false,"rental_uris":{"android":"levelo://app?vid=4120ce58-0084-4b83-9756-9f243e7016a7","ios":"levelo://app?vid=4120ce58-0084-4b83-9756-9f243e7016a7"},"vehicle_type_id":"4","last_reported":1713013622,"current_range_meters":22800,"station_id":"ce4bhbh2rcd13ifvqepg","pricing_plan_id":"cebpf4jnsgd1na2vs0mg"},{"bike_id":"ada28ec5-ba14-496b-b3cd-d695e70ab47e","system_id":"levelo_inurba_marseille","lat":43.28412,"lon":5.34987,"is_reserved":false,"is_disabled":false,"rental_uris":{"android":"levelo://app?vid=ada28ec5-ba14-496b-b3cd-d695e70ab47e","ios":"levelo://app?vid=ada28ec5-ba14-496b-b3cd-d695e70ab47e"},"vehicle_type_id":"4","last_reported":1713013622,"current_range_meters":14400,"station_id":"ce4bhbh2rcd13ifvqepg","pricing_plan_id":"cebpf4jnsgd1na2vs0mg"},{"bike_id":"03ea9cc7-8b80-40e9-b0d6-7eddd52973a9","system_id":"levelo_inurba_marseille","lat":43.284217,"lon":5.349697,"is_reserved":false,"is_disabled":false,"rental_uris":{"android":"levelo://app?vid=03ea9cc7-8b80-40e9-b0d6-7eddd52973a9","ios":"levelo://app?vid=03ea9cc7-8b80-40e9-b0d6-7eddd52973a9"},"vehicle_type_id":"4","last_reported":1713013622,"current_range_meters":26800,"station_id":"ce4bhbh2rcd13ifvqepg","pricing_plan_id":"cebpf4jnsgd1na2vs0mg"},{"bike_id":"1e12ef77-7aa1-4154-abdf-af1b339ff839","system_id":"levelo_inurba_marseille","lat":43.28414,"lon":5.34979,"is_reserved":false,"is_disabled":false,"rental_uris":{"android":"levelo://app?vid=1e12ef77-7aa1-4154-abdf-af1b339ff839","ios":"levelo://app?vid=1e12ef77-7aa1-4154-abdf-af1b339ff839"},"vehicle_type_id":"4","last_reported":1713013622,"current_range_meters":20400,"station_id":"ce4bhbh2rcd13ifvqepg","pricing_plan_id":"cebpf4jnsgd1na2vs0mg"},{"bike_id":"682cf22c-e03f-42c3-9145-f5963a750f38","system_id":"levelo_inurba_marseille","lat":43.28415,"lon":5.34975,"is_reserved":false,"is_disabled":false,"rental_uris":{"android":"levelo://app?vid=682cf22c-e03f-42c3-9145-f5963a750f38","ios":"levelo://app?vid=682cf22c-e03f-42c3-9145-f5963a750f38"},"vehicle_type_id":"4","last_reported":1713013622,"current_range_meters":22800,"station_id":"ce4bhbh2rcd13ifvqepg","pricing_plan_id":"cebpf4jnsgd1na2vs0mg"},{"bike_id":"5bec1293-3a62-4786-a8e3-deded41f1a63","system_id":"levelo_inurba_marseille","lat":43.28412,"lon":5.34984,"is_reserved":false,"is_disabled":false,"rental_uris":{"android":"levelo://app?vid=5bec1293-3a62-4786-a8e3-deded41f1a63","ios":"levelo://app?vid=5bec1293-3a62-4786-a8e3-deded41f1a63"},"vehicle_type_id":"4","last_reported":1713013622,"current_range_meters":12800,"station_id":"ce4bhbh2rcd13ifvqepg","pricing_plan_id":"cebpf4jnsgd1na2vs0mg"},{"bike_id":"845d3f40-fe5b-4555-86eb-1f3da6f342e4","system_id":"levelo_inurba_marseille","lat":43.2841,"lon":5.3499,"is_reserved":false,"is_disabled":false,"rental_uris":{"android":"levelo://app?vid=845d3f40-fe5b-4555-86eb-1f3da6f342e4","ios":"levelo://app?vid=845d3f40-fe5b-4555-86eb-1f3da6f342e4"},"vehicle_type_id":"4","last_reported":1713013622,"current_range_meters":15600,"station_id":"ce4bhbh2rcd13ifvqepg","pricing_plan_id":"cebpf4jnsgd1na2vs0mg"},{"bike_id":"ab660554-1850-4ebb-af66-78b3d3d0d56d","system_id":"levelo_inurba_marseille","lat":43.28409,"lon":5.34992,"is_reserved":false,"is_disabled":false,"rental_uris":{"android":"levelo://app?vid=ab660554-1850-4ebb-af66-78b3d3d0d56d","ios":"levelo://app?vid=ab660554-1850-4ebb-af66-78b3d3d0d56d"},"vehicle_type_id":"4","last_reported":1713013622,"current_range_meters":10000,"station_id":"ce4bhbh2rcd13ifvqepg","pricing_plan_id":"cebpf4jnsgd1na2vs0mg"},{"bike_id":"e91d0c2e-7ab8-4bf5-9a18-e44691ad39e8","system_id":"levelo_inurba_marseille","lat":43.284139,"lon":5.349752,"is_reserved":false,"is_disabled":false,"rental_uris":{"android":"levelo://app?vid=e91d0c2e-7ab8-4bf5-9a18-e44691ad39e8","ios":"levelo://app?vid=e91d0c2e-7ab8-4bf5-9a18-e44691ad39e8"},"vehicle_type_id":"4","last_reported":1713013622,"current_range_meters":12800,"station_id":"ce4bhbh2rcd13ifvqepg","pricing_plan_id":"cebpf4jnsgd1na2vs0mg"},{"bike_id":"f3dd5371-6924-4c24-ac3a-19d4979477ca","system_id":"levelo_inurba_marseille","lat":43.28412,"lon":5.34981,"is_reserved":false,"is_disabled":false,"rental_uris":{"android":"levelo://app?vid=f3dd5371-6924-4c24-ac3a-19d4979477ca","ios":"levelo://app?vid=f3dd5371-6924-4c24-ac3a-19d4979477ca"},"vehicle_type_id":"4","last_reported":1713013622,"current_range_meters":8000,"station_id":"ce4bhbh2rcd13ifvqepg","pricing_plan_id":"cebpf4jnsgd1na2vs0mg"},{"bike_id":"ed91fe6e-92c2-40c8-9f02-3a90888a6e43","system_id":"levelo_inurba_marseille","lat":43.28411,"lon":5.34984,"is_reserved":false,"is_disabled":false,"rental_uris":{"android":"levelo://app?vid=ed91fe6e-92c2-40c8-9f02-3a90888a6e43","ios":"levelo://app?vid=ed91fe6e-92c2-40c8-9f02-3a90888a6e43"},"vehicle_type_id":"4","last_reported":1713013622,"current_range_meters":8800,"station_id":"ce4bhbh2rcd13ifvqepg","pricing_plan_id":"cebpf4jnsgd1na2vs0mg"},{"bike_id":"9c5a1687-9369-449c-afa2-d2d5a50b66ae","system_id":"levelo_inurba_marseille","lat":43.284094,"lon":5.349882,"is_reserved":false,"is_disabled":false,"rental_uris":{"android":"levelo://app?vid=9c5a1687-9369-449c-afa2-d2d5a50b66ae","ios":"levelo://app?vid=9c5a1687-9369-449c-afa2-d2d5a50b66ae"},"vehicle_type_id":"4","last_reported":1713013622,"current_range_meters":28000,"station_id":"ce4bhbh2rcd13ifvqepg","pricing_plan_id":"cebpf4jnsgd1na2vs0mg"},{"bike_id":"869e3910-ab9e-4732-883b-1574c92eeccf","system_id":"levelo_inurba_marseille","lat":43.284113,"lon":5.349817,"is_reserved":false,"is_disabled":false,"rental_uris":{"android":"levelo://app?vid=869e3910-ab9e-4732-883b-1574c92eeccf","ios":"levelo://app?vid=869e3910-ab9e-4732-883b-1574c92eeccf"},"vehicle_type_id":"4","last_reported":1713013622,"current_range_meters":7600,"station_id":"ce4bhbh2rcd13ifvqepg","pricing_plan_id":"cebpf4jnsgd1na2vs0mg"},{"bike_id":"711036c5-8aa3-47b6-8e1d-a3b041d7500d","system_id":"levelo_inurba_marseille","lat":43.284084,"lon":5.349904,"is_reserved":false,"is_disabled":false,"rental_uris":{"android":"levelo://app?vid=711036c5-8aa3-47b6-8e1d-a3b041d7500d","ios":"levelo://app?vid=711036c5-8aa3-47b6-8e1d-a3b041d7500d"},"vehicle_type_id":"4","last_reported":1713013622,"current_range_meters":18400,"station_id":"ce4bhbh2rcd13ifvqepg","pricing_plan_id":"cebpf4jnsgd1na2vs0mg"},{"bike_id":"b3b708fd-9bc2-410b-8901-4e58dbbc3a24","system_id":"levelo_inurba_marseille","lat":43.28412,"lon":5.34979,"is_reserved":false,"is_disabled":false,"rental_uris":{"android":"levelo://app?vid=b3b708fd-9bc2-410b-8901-4e58dbbc3a24","ios":"levelo://app?vid=b3b708fd-9bc2-410b-8901-4e58dbbc3a24"},"vehicle_type_id":"4","last_reported":1713013622,"current_range_meters":6400,"station_id":"ce4bhbh2rcd13ifvqepg","pricing_plan_id":"cebpf4jnsgd1na2vs0mg"},{"bike_id":"d98de919-3898-4e64-8c1f-f6c7b53a3ea5","system_id":"levelo_inurba_marseille","lat":43.284088,"lon":5.349882,"is_reserved":false,"is_disabled":false,"rental_uris":{"android":"levelo://app?vid=d98de919-3898-4e64-8c1f-f6c7b53a3ea5","ios":"levelo://app?vid=d98de919-3898-4e64-8c1f-f6c7b53a3ea5"},"vehicle_type_id":"4","last_reported":1713013622,"current_range_meters":23600,"station_id":"ce4bhbh2rcd13ifvqepg","pricing_plan_id":"cebpf4jnsgd1na2vs0mg"},{"bike_id":"2a031065-cc1b-4bda-ab6c-7a96fb5436a3","system_id":"levelo_inurba_marseille","lat":43.28405,"lon":5.34991,"is_reserved":false,"is_disabled":false,"rental_uris":{"android":"levelo://app?vid=2a031065-cc1b-4bda-ab6c-7a96fb5436a3","ios":"levelo://app?vid=2a031065-cc1b-4bda-ab6c-7a96fb5436a3"},"vehicle_type_id":"4","last_reported":1713013622,"current_range_meters":17600,"station_id":"ce4bhbh2rcd13ifvqepg","pricing_plan_id":"cebpf4jnsgd1na2vs0mg"},{"bike_id":"650f3469-8e1d-4d3d-aee6-45b4a84b5a66","system_id":"levelo_inurba_marseille","lat":43.283627,"lon":5.350187,"is_reserved":false,"is_disabled":false,"rental_uris":{"android":"levelo://app?vid=650f3469-8e1d-4d3d-aee6-45b4a84b5a66","ios":"levelo://app?vid=650f3469-8e1d-4d3d-aee6-45b4a84b5a66"},"vehicle_type_id":"4","last_reported":1713013622,"current_range_meters":5200,"station_id":"ce4bhbh2rcd13ifvqepg","pricing_plan_id":"cebpf4jnsgd1na2vs0mg"},{"bike_id":"17337c49-442a-45a7-85fd-eec7ba028ee5","system_id":"levelo_inurba_marseille","lat":43.294314,"lon":5.397498,"is_reserved":false,"is_disabled":false,"rental_uris":{"android":"levelo://app?vid=17337c49-442a-45a7-85fd-eec7ba028ee5","ios":"levelo://app?vid=17337c49-442a-45a7-85fd-eec7ba028ee5"},"vehicle_type_id":"4","last_reported":1713013622,"current_range_meters":12000,"station_id":"ce4bh3h2rcd13ifvqdo0","pricing_plan_id":"cebpf4jnsgd1na2vs0mg"},{"bike_id":"99495838-e53a-4ba1-9c54-acb577ea7817","system_id":"levelo_inurba_marseille","lat":43.283024,"lon":5.350435,"is_reserved":false,"is_disabled":false,"rental_uris":{"android":"levelo://app?vid=99495838-e53a-4ba1-9c54-acb577ea7817","ios":"levelo://app?vid=99495838-e53a-4ba1-9c54-acb577ea7817"},"vehicle_type_id":"4","last_reported":1713013622,"current_range_meters":9200,"station_id":"ce4bhbp2rcd13ifvqerg","pricing_plan_id":"cebpf4jnsgd1na2vs0mg"},{"bike_id":"ee98c778-0658-4274-ab88-7bd7367417ff","system_id":"levelo_inurba_marseille","lat":43.28276,"lon":5.35084,"is_reserved":false,"is_disabled":false,"rental_uris":{"android":"levelo://app?vid=ee98c778-0658-4274-ab88-7bd7367417ff","ios":"levelo://app?vid=ee98c778-0658-4274-ab88-7bd7367417ff"},"vehicle_type_id":"4","last_reported":1713013622,"current_range_meters":28000,"station_id":"ce4bhbp2rcd13ifvqerg","pricing_plan_id":"cebpf4jnsgd1na2vs0mg"},{"bike_id":"397e99bb-5afd-4b13-99f6-69c58da92da4","system_id":"levelo_inurba_marseille","lat":43.282754,"lon":5.350519,"is_reserved":false,"is_disabled":false,"rental_uris":{"android":"levelo://app?vid=397e99bb-5afd-4b13-99f6-69c58da92da4","ios":"levelo://app?vid=397e99bb-5afd-4b13-99f6-69c58da92da4"},"vehicle_type_id":"4","last_reported":1713013622,"current_range_meters":30800,"station_id":"ce4bhbp2rcd13ifvqerg","pricing_plan_id":"cebpf4jnsgd1na2vs0mg"},{"bike_id":"3762ce5c-eb24-4ab2-b738-ff13b4f95b3a","system_id":"levelo_inurba_marseille","lat":43.28278,"lon":5.350725,"is_reserved":false,"is_disabled":false,"rental_uris":{"android":"levelo://app?vid=3762ce5c-eb24-4ab2-b738-ff13b4f95b3a","ios":"levelo://app?vid=3762ce5c-eb24-4ab2-b738-ff13b4f95b3a"},"vehicle_type_id":"4","last_reported":1713013622,"current_range_meters":26800,"station_id":"ce4bhbp2rcd13ifvqerg","pricing_plan_id":"cebpf4jnsgd1na2vs0mg"},{"bike_id":"915ed67b-6205-418d-8eac-6d3ed8ee0a6f","system_id":"levelo_inurba_marseille","lat":43.282744,"lon":5.350533,"is_reserved":false,"is_disabled":false,"rental_uris":{"android":"levelo://app?vid=915ed67b-6205-418d-8eac-6d3ed8ee0a6f","ios":"levelo://app?vid=915ed67b-6205-418d-8eac-6d3ed8ee0a6f"},"vehicle_type_id":"4","last_reported":1713013622,"current_range_meters":31200,"station_id":"ce4bhbp2rcd13ifvqerg","pricing_plan_id":"cebpf4jnsgd1na2vs0mg"},{"bike_id":"8ae4177a-33e4-45f0-8ce4-6d71cf0cb902","system_id":"levelo_inurba_marseille","lat":43.28272,"lon":5.35084,"is_reserved":false,"is_disabled":false,"rental_uris":{"android":"levelo://app?vid=8ae4177a-33e4-45f0-8ce4-6d71cf0cb902","ios":"levelo://app?vid=8ae4177a-33e4-45f0-8ce4-6d71cf0cb902"},"vehicle_type_id":"4","last_reported":1713013622,"current_range_meters":18400,"station_id":"ce4bhbp2rcd13ifvqerg","pricing_plan_id":"cebpf4jnsgd1na2vs0mg"},{"bike_id":"3dc49ffc-66ae-487c-85a0-28bb7a38968e","system_id":"levelo_inurba_marseille","lat":43.282744,"lon":5.350533,"is_reserved":false,"is_disabled":false,"rental_uris":{"android":"levelo://app?vid=3dc49ffc-66ae-487c-85a0-28bb7a38968e","ios":"levelo://app?vid=3dc49ffc-66ae-487c-85a0-28bb7a38968e"},"vehicle_type_id":"4","last_reported":1713013622,"current_range_meters":20000,"station_id":"ce4bhbp2rcd13ifvqerg","pricing_plan_id":"cebpf4jnsgd1na2vs0mg"},{"bike_id":"fd187a7e-9b14-4752-b11c-966ee6a54dc7","system_id":"levelo_inurba_marseille","lat":43.282744,"lon":5.350533,"is_reserved":false,"is_disabled":false,"rental_uris":{"android":"levelo://app?vid=fd187a7e-9b14-4752-b11c-966ee6a54dc7","ios":"levelo://app?vid=fd187a7e-9b14-4752-b11c-966ee6a54dc7"},"vehicle_type_id":"4","last_reported":1713013622,"current_range_meters":30800,"station_id":"ce4bhbp2rcd13ifvqerg","pricing_plan_id":"cebpf4jnsgd1na2vs0mg"},{"bike_id":"85976064-6db3-42c7-8670-e5b07726e9ad","system_id":"levelo_inurba_marseille","lat":43.282744,"lon":5.350533,"is_reserved":false,"is_disabled":false,"rental_uris":{"android":"levelo://app?vid=85976064-6db3-42c7-8670-e5b07726e9ad","ios":"levelo://app?vid=85976064-6db3-42c7-8670-e5b07726e9ad"},"vehicle_type_id":"4","last_reported":1713013622,"current_range_meters":24400,"station_id":"ce4bhbp2rcd13ifvqerg","pricing_plan_id":"cebpf4jnsgd1na2vs0mg"},{"bike_id":"45095368-e8f8-4089-a062-f2da5473f6c4","system_id":"levelo_inurba_marseille","lat":43.28275,"lon":5.3507,"is_reserved":false,"is_disabled":false,"rental_uris":{"android":"levelo://app?vid=45095368-e8f8-4089-a062-f2da5473f6c4","ios":"levelo://app?vid=45095368-e8f8-4089-a062-f2da5473f6c4"},"vehicle_type_id":"4","last_reported":1713013622,"current_range_meters":21200,"station_id":"ce4bhbp2rcd13ifvqerg","pricing_plan_id":"cebpf4jnsgd1na2vs0mg"},{"bike_id":"dd2f7623-22d1-4e57-befd-d3b11a40e665","system_id":"levelo_inurba_marseille","lat":43.282757,"lon":5.350677,"is_reserved":false,"is_disabled":false,"rental_uris":{"android":"levelo://app?vid=dd2f7623-22d1-4e57-befd-d3b11a40e665","ios":"levelo://app?vid=dd2f7623-22d1-4e57-befd-d3b11a40e665"},"vehicle_type_id":"4","last_reported":1713013622,"current_range_meters":31200,"station_id":"ce4bhbp2rcd13ifvqerg","pricing_plan_id":"cebpf4jnsgd1na2vs0mg"},{"bike_id":"284f5453-fed5-4f27-bdde-32c8b48736b6","system_id":"levelo_inurba_marseille","lat":43.28274,"lon":5.35071,"is_reserved":false,"is_disabled":false,"rental_uris":{"android":"levelo://app?vid=284f5453-fed5-4f27-bdde-32c8b48736b6","ios":"levelo://app?vid=284f5453-fed5-4f27-bdde-32c8b48736b6"},"vehicle_type_id":"4","last_reported":1713013622,"current_range_meters":17200,"station_id":"ce4bhbp2rcd13ifvqerg","pricing_plan_id":"cebpf4jnsgd1na2vs0mg"},{"bike_id":"42afd5e2-060e-4fe6-91fd-19c7277ccc1f","system_id":"levelo_inurba_marseille","lat":43.28279,"lon":5.35053,"is_reserved":false,"is_disabled":false,"rental_uris":{"android":"levelo://app?vid=42afd5e2-060e-4fe6-91fd-19c7277ccc1f","ios":"levelo://app?vid=42afd5e2-060e-4fe6-91fd-19c7277ccc1f"},"vehicle_type_id":"4","last_reported":1713013622,"current_range_meters":25600,"station_id":"ce4bhbh2rcd13ifvqepg","pricing_plan_id":"cebpf4jnsgd1na2vs0mg"},{"bike_id":"209ee2dd-9669-4c11-98fc-e8b69bf1e85e","system_id":"levelo_inurba_marseille","lat":43.28278,"lon":5.35056,"is_reserved":false,"is_disabled":false,"rental_uris":{"android":"levelo://app?vid=209ee2dd-9669-4c11-98fc-e8b69bf1e85e","ios":"levelo://app?vid=209ee2dd-9669-4c11-98fc-e8b69bf1e85e"},"vehicle_type_id":"4","last_reported":1713013622,"current_range_meters":16400,"station_id":"ce4bhbp2rcd13ifvqerg","pricing_plan_id":"cebpf4jnsgd1na2vs0mg"},{"bike_id":"b691a5e6-727f-40fb-b815-8b23612f4ae6","system_id":"levelo_inurba_marseille","lat":43.282745,"lon":5.35068,"is_reserved":false,"is_disabled":false,"rental_uris":{"android":"levelo://app?vid=b691a5e6-727f-40fb-b815-8b23612f4ae6","ios":"levelo://app?vid=b691a5e6-727f-40fb-b815-8b23612f4ae6"},"vehicle_type_id":"4","last_reported":1713013622,"current_range_meters":5200,"station_id":"ce4bhbp2rcd13ifvqerg","pricing_plan_id":"cebpf4jnsgd1na2vs0mg"},{"bike_id":"08f9eec6-da00-4c15-a1c6-1938dcb60168","system_id":"levelo_inurba_marseille","lat":43.282745,"lon":5.35067,"is_reserved":false,"is_disabled":false,"rental_uris":{"android":"levelo://app?vid=08f9eec6-da00-4c15-a1c6-1938dcb60168","ios":"levelo://app?vid=08f9eec6-da00-4c15-a1c6-1938dcb60168"},"vehicle_type_id":"4","last_reported":1713013622,"current_range_meters":25600,"station_id":"ce4bhbp2rcd13ifvqerg","pricing_plan_id":"cebpf4jnsgd1na2vs0mg"},{"bike_id":"6db10ae1-044f-407f-8de9-07f96fb4f629","system_id":"levelo_inurba_marseille","lat":43.282743,"lon":5.350672,"is_reserved":false,"is_disabled":false,"rental_uris":{"android":"levelo://app?vid=6db10ae1-044f-407f-8de9-07f96fb4f629","ios":"levelo://app?vid=6db10ae1-044f-407f-8de9-07f96fb4f629"},"vehicle_type_id":"4","last_reported":1713013622,"current_range_meters":6800,"station_id":"ce4bhbp2rcd13ifvqerg","pricing_plan_id":"cebpf4jnsgd1na2vs0mg"},{"bike_id":"b057e98b-5649-4cc8-8f04-2e66e4459eb8","system_id":"levelo_inurba_marseille","lat":43.282744,"lon":5.350533,"is_reserved":false,"is_disabled":false,"rental_uris":{"android":"levelo://app?vid=b057e98b-5649-4cc8-8f04-2e66e4459eb8","ios":"levelo://app?vid=b057e98b-5649-4cc8-8f04-2e66e4459eb8"},"vehicle_type_id":"4","last_reported":1713013622,"current_range_meters":31600,"station_id":"ce4bhbp2rcd13ifvqerg","pricing_plan_id":"cebpf4jnsgd1na2vs0mg"},{"bike_id":"ecd5d107-c326-450d-9c57-5ebde999a3d0","system_id":"levelo_inurba_marseille","lat":43.28273,"lon":5.35069,"is_reserved":false,"is_disabled":false,"rental_uris":{"android":"levelo://app?vid=ecd5d107-c326-450d-9c57-5ebde999a3d0","ios":"levelo://app?vid=ecd5d107-c326-450d-9c57-5ebde999a3d0"},"vehicle_type_id":"4","last_reported":1713013622,"current_range_meters":12000,"station_id":"ce4bhbp2rcd13ifvqerg","pricing_plan_id":"cebpf4jnsgd1na2vs0mg"},{"bike_id":"09dea75d-e477-4774-b8fd-d6b6d8f51bf1","system_id":"levelo_inurba_marseille","lat":43.28273,"lon":5.35067,"is_reserved":false,"is_disabled":false,"rental_uris":{"android":"levelo://app?vid=09dea75d-e477-4774-b8fd-d6b6d8f51bf1","ios":"levelo://app?vid=09dea75d-e477-4774-b8fd-d6b6d8f51bf1"},"vehicle_type_id":"4","last_reported":1713013622,"current_range_meters":24400,"station_id":"ce4bhbp2rcd13ifvqerg","pricing_plan_id":"cebpf4jnsgd1na2vs0mg"},{"bike_id":"423ffda4-c426-4d0b-8b66-1018fc85ec2c","system_id":"levelo_inurba_marseille","lat":43.28273,"lon":5.350664,"is_reserved":false,"is_disabled":false,"rental_uris":{"android":"levelo://app?vid=423ffda4-c426-4d0b-8b66-1018fc85ec2c","ios":"levelo://app?vid=423ffda4-c426-4d0b-8b66-1018fc85ec2c"},"vehicle_type_id":"4","last_reported":1713013622,"current_range_meters":26400,"station_id":"ce4bhbp2rcd13ifvqerg","pricing_plan_id":"cebpf4jnsgd1na2vs0mg"},{"bike_id":"cb41179e-eab8-4b4c-89e3-ca8697b8d568","system_id":"levelo_inurba_marseille","lat":43.282754,"lon":5.350519,"is_reserved":false,"is_disabled":false,"rental_uris":{"android":"levelo://app?vid=cb41179e-eab8-4b4c-89e3-ca8697b8d568","ios":"levelo://app?vid=cb41179e-eab8-4b4c-89e3-ca8697b8d568"},"vehicle_type_id":"4","last_reported":1713013622,"current_range_meters":27600,"station_id":"ce4bhbp2rcd13ifvqerg","pricing_plan_id":"cebpf4jnsgd1na2vs0mg"},{"bike_id":"e44b1814-1bdc-457b-b738-022e21094c02","system_id":"levelo_inurba_marseille","lat":43.282754,"lon":5.350519,"is_reserved":false,"is_disabled":false,"rental_uris":{"android":"levelo://app?vid=e44b1814-1bdc-457b-b738-022e21094c02","ios":"levelo://app?vid=e44b1814-1bdc-457b-b738-022e21094c02"},"vehicle_type_id":"4","last_reported":1713013622,"current_range_meters":31200,"station_id":"ce4bhbp2rcd13ifvqerg","pricing_plan_id":"cebpf4jnsgd1na2vs0mg"},{"bike_id":"5226fa41-56e3-46e2-8799-068c00f11f83","system_id":"levelo_inurba_marseille","lat":43.282744,"lon":5.350533,"is_reserved":false,"is_disabled":false,"rental_uris":{"android":"levelo://app?vid=5226fa41-56e3-46e2-8799-068c00f11f83","ios":"levelo://app?vid=5226fa41-56e3-46e2-8799-068c00f11f83"},"vehicle_type_id":"4","last_reported":1713013622,"current_range_meters":18000,"station_id":"ce4bhbp2rcd13ifvqerg","pricing_plan_id":"cebpf4jnsgd1na2vs0mg"},{"bike_id":"8de6b88e-4429-4f08-8c5e-f71ec8ebd54d","system_id":"levelo_inurba_marseille","lat":43.282702,"lon":5.350739,"is_reserved":false,"is_disabled":false,"rental_uris":{"android":"levelo://app?vid=8de6b88e-4429-4f08-8c5e-f71ec8ebd54d","ios":"levelo://app?vid=8de6b88e-4429-4f08-8c5e-f71ec8ebd54d"},"vehicle_type_id":"4","last_reported":1713013622,"current_range_meters":7200,"station_id":"ce4bhbp2rcd13ifvqerg","pricing_plan_id":"cebpf4jnsgd1na2vs0mg"},{"bike_id":"5aff3467-b257-410c-8d3a-bcc4cfb6134b","system_id":"levelo_inurba_marseille","lat":43.28273,"lon":5.35064,"is_reserved":false,"is_disabled":false,"rental_uris":{"android":"levelo://app?vid=5aff3467-b257-410c-8d3a-bcc4cfb6134b","ios":"levelo://app?vid=5aff3467-b257-410c-8d3a-bcc4cfb6134b"},"vehicle_type_id":"4","last_reported":1713013622,"current_range_meters":22800,"station_id":"ce4bhbp2rcd13ifvqerg","pricing_plan_id":"cebpf4jnsgd1na2vs0mg"},{"bike_id":"f158be52-c756-49d2-ac30-5b984e509304","system_id":"levelo_inurba_marseille","lat":43.282744,"lon":5.350533,"is_reserved":false,"is_disabled":false,"rental_uris":{"android":"levelo://app?vid=f158be52-c756-49d2-ac30-5b984e509304","ios":"levelo://app?vid=f158be52-c756-49d2-ac30-5b984e509304"},"vehicle_type_id":"4","last_reported":1713013622,"current_range_meters":10400,"station_id":"ce4bhbp2rcd13ifvqerg","pricing_plan_id":"cebpf4jnsgd1na2vs0mg"},{"bike_id":"45004dd5-e394-411e-9553-d09384e7f229","system_id":"levelo_inurba_marseille","lat":43.282734,"lon":5.350614,"is_reserved":false,"is_disabled":false,"rental_uris":{"android":"levelo://app?vid=45004dd5-e394-411e-9553-d09384e7f229","ios":"levelo://app?vid=45004dd5-e394-411e-9553-d09384e7f229"},"vehicle_type_id":"4","last_reported":1713013622,"current_range_meters":21200,"station_id":"ce4bhbp2rcd13ifvqerg","pricing_plan_id":"cebpf4jnsgd1na2vs0mg"},{"bike_id":"a789cc7a-6a1d-4726-b446-98f887ce5c06","system_id":"levelo_inurba_marseille","lat":43.282703,"lon":5.350711,"is_reserved":false,"is_disabled":false,"rental_uris":{"android":"levelo://app?vid=a789cc7a-6a1d-4726-b446-98f887ce5c06","ios":"levelo://app?vid=a789cc7a-6a1d-4726-b446-98f887ce5c06"},"vehicle_type_id":"4","last_reported":1713013622,"current_range_meters":25200,"station_id":"ce4bhbp2rcd13ifvqerg","pricing_plan_id":"cebpf4jnsgd1na2vs0mg"},{"bike_id":"c5ea61bd-f846-4171-a288-eb8b7309e35a","system_id":"levelo_inurba_marseille","lat":43.282744,"lon":5.350533,"is_reserved":false,"is_disabled":false,"rental_uris":{"android":"levelo://app?vid=c5ea61bd-f846-4171-a288-eb8b7309e35a","ios":"levelo://app?vid=c5ea61bd-f846-4171-a288-eb8b7309e35a"},"vehicle_type_id":"4","last_reported":1713013622,"current_range_meters":25200,"station_id":"ce4bhbp2rcd13ifvqerg","pricing_plan_id":"cebpf4jnsgd1na2vs0mg"},{"bike_id":"a8b7862c-51ba-4034-be60-9077a2cb38bb","system_id":"levelo_inurba_marseille","lat":43.282693,"lon":5.350719,"is_reserved":false,"is_disabled":false,"rental_uris":{"android":"levelo://app?vid=a8b7862c-51ba-4034-be60-9077a2cb38bb","ios":"levelo://app?vid=a8b7862c-51ba-4034-be60-9077a2cb38bb"},"vehicle_type_id":"4","last_reported":1713013622,"current_range_meters":26800,"station_id":"ce4bhbp2rcd13ifvqerg","pricing_plan_id":"cebpf4jnsgd1na2vs0mg"},{"bike_id":"1617dbd4-0c07-4112-bb86-266e8c2b73b4","system_id":"levelo_inurba_marseille","lat":43.28273,"lon":5.35059,"is_reserved":false,"is_disabled":false,"rental_uris":{"android":"levelo://app?vid=1617dbd4-0c07-4112-bb86-266e8c2b73b4","ios":"levelo://app?vid=1617dbd4-0c07-4112-bb86-266e8c2b73b4"},"vehicle_type_id":"4","last_reported":1713013622,"current_range_meters":16400,"station_id":"ce4bhbp2rcd13ifvqerg","pricing_plan_id":"cebpf4jnsgd1na2vs0mg"},{"bike_id":"bdaa1ac5-975e-453f-b5fc-9095d03c7e1e","system_id":"levelo_inurba_marseille","lat":43.282728,"lon":5.350595,"is_reserved":false,"is_disabled":false,"rental_uris":{"android":"levelo://app?vid=bdaa1ac5-975e-453f-b5fc-9095d03c7e1e","ios":"levelo://app?vid=bdaa1ac5-975e-453f-b5fc-9095d03c7e1e"},"vehicle_type_id":"4","last_reported":1713013622,"current_range_meters":31200,"station_id":"ce4bhbp2rcd13ifvqerg","pricing_plan_id":"cebpf4jnsgd1na2vs0mg"},{"bike_id":"e9e7ea2a-2f8d-443b-8361-9fa397f361cc","system_id":"levelo_inurba_marseille","lat":43.282686,"lon":5.350716,"is_reserved":false,"is_disabled":false,"rental_uris":{"android":"levelo://app?vid=e9e7ea2a-2f8d-443b-8361-9fa397f361cc","ios":"levelo://app?vid=e9e7ea2a-2f8d-443b-8361-9fa397f361cc"},"vehicle_type_id":"4","last_reported":1713013622,"current_range_meters":4800,"station_id":"ce4bhbp2rcd13ifvqerg","pricing_plan_id":"cebpf4jnsgd1na2vs0mg"},{"bike_id":"6ebe8ef3-1684-4cc6-b952-fc29ecd5a55d","system_id":"levelo_inurba_marseille","lat":43.282702,"lon":5.350652,"is_reserved":false,"is_disabled":false,"rental_uris":{"android":"levelo://app?vid=6ebe8ef3-1684-4cc6-b952-fc29ecd5a55d","ios":"levelo://app?vid=6ebe8ef3-1684-4cc6-b952-fc29ecd5a55d"},"vehicle_type_id":"4","last_reported":1713013622,"current_range_meters":14000,"station_id":"ce4bhbp2rcd13ifvqerg","pricing_plan_id":"cebpf4jnsgd1na2vs0mg"},{"bike_id":"5eef2f7a-dd2f-4a23-8471-bf9643857634","system_id":"levelo_inurba_marseille","lat":43.28271,"lon":5.35062,"is_reserved":false,"is_disabled":false,"rental_uris":{"android":"levelo://app?vid=5eef2f7a-dd2f-4a23-8471-bf9643857634","ios":"levelo://app?vid=5eef2f7a-dd2f-4a23-8471-bf9643857634"},"vehicle_type_id":"4","last_reported":1713013622,"current_range_meters":15600,"station_id":"ce4bhbp2rcd13ifvqerg","pricing_plan_id":"cebpf4jnsgd1na2vs0mg"},{"bike_id":"10e32aac-2cee-4cad-b147-72c3ee374b1b","system_id":"levelo_inurba_marseille","lat":43.28271,"lon":5.35062,"is_reserved":false,"is_disabled":false,"rental_uris":{"android":"levelo://app?vid=10e32aac-2cee-4cad-b147-72c3ee374b1b","ios":"levelo://app?vid=10e32aac-2cee-4cad-b147-72c3ee374b1b"},"vehicle_type_id":"4","last_reported":1713013622,"current_range_meters":4400,"station_id":"ce4bhbp2rcd13ifvqerg","pricing_plan_id":"cebpf4jnsgd1na2vs0mg"},{"bike_id":"9828eff5-ede1-417e-8793-bb7bce2da390","system_id":"levelo_inurba_marseille","lat":43.282744,"lon":5.350533,"is_reserved":false,"is_disabled":false,"rental_uris":{"android":"levelo://app?vid=9828eff5-ede1-417e-8793-bb7bce2da390","ios":"levelo://app?vid=9828eff5-ede1-417e-8793-bb7bce2da390"},"vehicle_type_id":"4","last_reported":1713013622,"current_range_meters":7200,"station_id":"ce4bhbp2rcd13ifvqerg","pricing_plan_id":"cebpf4jnsgd1na2vs0mg"},{"bike_id":"93e6abb6-792a-45f0-a2d3-ab18314078f1","system_id":"levelo_inurba_marseille","lat":43.28273,"lon":5.35054,"is_reserved":false,"is_disabled":false,"rental_uris":{"android":"levelo://app?vid=93e6abb6-792a-45f0-a2d3-ab18314078f1","ios":"levelo://app?vid=93e6abb6-792a-45f0-a2d3-ab18314078f1"},"vehicle_type_id":"4","last_reported":1713013622,"current_range_meters":12800,"station_id":"ce4bhbp2rcd13ifvqerg","pricing_plan_id":"cebpf4jnsgd1na2vs0mg"},{"bike_id":"f9095647-9f88-4908-8d6f-20882bbb2943","system_id":"levelo_inurba_marseille","lat":43.28271,"lon":5.3506,"is_reserved":false,"is_disabled":false,"rental_uris":{"android":"levelo://app?vid=f9095647-9f88-4908-8d6f-20882bbb2943","ios":"levelo://app?vid=f9095647-9f88-4908-8d6f-20882bbb2943"},"vehicle_type_id":"4","last_reported":1713013622,"current_range_meters":14800,"station_id":"ce4bhbp2rcd13ifvqerg","pricing_plan_id":"cebpf4jnsgd1na2vs0mg"},{"bike_id":"666e69b6-f881-47c1-aeaf-1f08ecf16064","system_id":"levelo_inurba_marseille","lat":43.282744,"lon":5.350533,"is_reserved":false,"is_disabled":false,"rental_uris":{"android":"levelo://app?vid=666e69b6-f881-47c1-aeaf-1f08ecf16064","ios":"levelo://app?vid=666e69b6-f881-47c1-aeaf-1f08ecf16064"},"vehicle_type_id":"4","last_reported":1713013622,"current_range_meters":25600,"station_id":"ce4bhbp2rcd13ifvqerg","pricing_plan_id":"cebpf4jnsgd1na2vs0mg"},{"bike_id":"2bec55fa-c489-44c4-915f-8ea4c551441e","system_id":"levelo_inurba_marseille","lat":43.28269,"lon":5.35066,"is_reserved":false,"is_disabled":false,"rental_uris":{"android":"levelo://app?vid=2bec55fa-c489-44c4-915f-8ea4c551441e","ios":"levelo://app?vid=2bec55fa-c489-44c4-915f-8ea4c551441e"},"vehicle_type_id":"4","last_reported":1713013622,"current_range_meters":25200,"station_id":"ce4bhbp2rcd13ifvqerg","pricing_plan_id":"cebpf4jnsgd1na2vs0mg"},{"bike_id":"ef5262ad-d8a6-4224-bc23-f0c5784c226c","system_id":"levelo_inurba_marseille","lat":43.282701,"lon":5.350619,"is_reserved":false,"is_disabled":false,"rental_uris":{"android":"levelo://app?vid=ef5262ad-d8a6-4224-bc23-f0c5784c226c","ios":"levelo://app?vid=ef5262ad-d8a6-4224-bc23-f0c5784c226c"},"vehicle_type_id":"4","last_reported":1713013622,"current_range_meters":13600,"station_id":"ce4bhbp2rcd13ifvqerg","pricing_plan_id":"cebpf4jnsgd1na2vs0mg"},{"bike_id":"c1435a18-9e41-452c-b810-9efc51632c1e","system_id":"levelo_inurba_marseille","lat":43.282744,"lon":5.350533,"is_reserved":false,"is_disabled":false,"rental_uris":{"android":"levelo://app?vid=c1435a18-9e41-452c-b810-9efc51632c1e","ios":"levelo://app?vid=c1435a18-9e41-452c-b810-9efc51632c1e"},"vehicle_type_id":"4","last_reported":1713013622,"current_range_meters":24800,"station_id":"ce4bhbp2rcd13ifvqerg","pricing_plan_id":"cebpf4jnsgd1na2vs0mg"},{"bike_id":"463f6f3b-9028-40ad-8f63-3403dafc493e","system_id":"levelo_inurba_marseille","lat":43.282744,"lon":5.350533,"is_reserved":false,"is_disabled":false,"rental_uris":{"android":"levelo://app?vid=463f6f3b-9028-40ad-8f63-3403dafc493e","ios":"levelo://app?vid=463f6f3b-9028-40ad-8f63-3403dafc493e"},"vehicle_type_id":"4","last_reported":1713013622,"current_range_meters":10400,"station_id":"ce4bhbp2rcd13ifvqerg","pricing_plan_id":"cebpf4jnsgd1na2vs0mg"},{"bike_id":"3992ceea-a220-43a8-9bbc-8b72eadbc50d","system_id":"levelo_inurba_marseille","lat":43.282744,"lon":5.350533,"is_reserved":false,"is_disabled":false,"rental_uris":{"android":"levelo://app?vid=3992ceea-a220-43a8-9bbc-8b72eadbc50d","ios":"levelo://app?vid=3992ceea-a220-43a8-9bbc-8b72eadbc50d"},"vehicle_type_id":"4","last_reported":1713013622,"current_range_meters":13200,"station_id":"ce4bhbp2rcd13ifvqerg","pricing_plan_id":"cebpf4jnsgd1na2vs0mg"},{"bike_id":"25d60afb-79c4-4b09-9985-f3b1573817af","system_id":"levelo_inurba_marseille","lat":43.28269,"lon":5.35065,"is_reserved":false,"is_disabled":false,"rental_uris":{"android":"levelo://app?vid=25d60afb-79c4-4b09-9985-f3b1573817af","ios":"levelo://app?vid=25d60afb-79c4-4b09-9985-f3b1573817af"},"vehicle_type_id":"4","last_reported":1713013622,"current_range_meters":6800,"station_id":"ce4bhbp2rcd13ifvqerg","pricing_plan_id":"cebpf4jnsgd1na2vs0mg"},{"bike_id":"32c6cb10-66d7-43b8-8119-e80e4d2bc17f","system_id":"levelo_inurba_marseille","lat":43.282648,"lon":5.350796,"is_reserved":false,"is_disabled":false,"rental_uris":{"android":"levelo://app?vid=32c6cb10-66d7-43b8-8119-e80e4d2bc17f","ios":"levelo://app?vid=32c6cb10-66d7-43b8-8119-e80e4d2bc17f"},"vehicle_type_id":"4","last_reported":1713013622,"current_range_meters":31200,"station_id":"ce4bhbp2rcd13ifvqerg","pricing_plan_id":"cebpf4jnsgd1na2vs0mg"},{"bike_id":"89e3fad3-4ec8-473d-abc3-7bcb1ea4cc55","system_id":"levelo_inurba_marseille","lat":43.28268,"lon":5.35068,"is_reserved":false,"is_disabled":false,"rental_uris":{"android":"levelo://app?vid=89e3fad3-4ec8-473d-abc3-7bcb1ea4cc55","ios":"levelo://app?vid=89e3fad3-4ec8-473d-abc3-7bcb1ea4cc55"},"vehicle_type_id":"4","last_reported":1713013622,"current_range_meters":2400,"station_id":"ce4bhbp2rcd13ifvqerg","pricing_plan_id":"cebpf4jnsgd1na2vs0mg"},{"bike_id":"2c6e7537-c5a5-4654-ada0-cc5f2e67543b","system_id":"levelo_inurba_marseille","lat":43.28267,"lon":5.35071,"is_reserved":false,"is_disabled":false,"rental_uris":{"android":"levelo://app?vid=2c6e7537-c5a5-4654-ada0-cc5f2e67543b","ios":"levelo://app?vid=2c6e7537-c5a5-4654-ada0-cc5f2e67543b"},"vehicle_type_id":"4","last_reported":1713013622,"current_range_meters":14800,"station_id":"ce4bhbp2rcd13ifvqerg","pricing_plan_id":"cebpf4jnsgd1na2vs0mg"},{"bike_id":"25823ada-fd19-4af2-8cad-70cd1f39268c","system_id":"levelo_inurba_marseille","lat":43.282696,"lon":5.350614,"is_reserved":false,"is_disabled":false,"rental_uris":{"android":"levelo://app?vid=25823ada-fd19-4af2-8cad-70cd1f39268c","ios":"levelo://app?vid=25823ada-fd19-4af2-8cad-70cd1f39268c"},"vehicle_type_id":"4","last_reported":1713013622,"current_range_meters":14400,"station_id":"ce4bhbp2rcd13ifvqerg","pricing_plan_id":"cebpf4jnsgd1na2vs0mg"},{"bike_id":"1f916031-09d4-4d9c-966c-e88091616c04","system_id":"levelo_inurba_marseille","lat":43.282744,"lon":5.350533,"is_reserved":false,"is_disabled":false,"rental_uris":{"android":"levelo://app?vid=1f916031-09d4-4d9c-966c-e88091616c04","ios":"levelo://app?vid=1f916031-09d4-4d9c-966c-e88091616c04"},"vehicle_type_id":"4","last_reported":1713013622,"current_range_meters":27600,"station_id":"ce4bhbp2rcd13ifvqerg","pricing_plan_id":"cebpf4jnsgd1na2vs0mg"},{"bike_id":"1e4eaa03-2e19-43ba-8d72-0451dea67fca","system_id":"levelo_inurba_marseille","lat":43.28266,"lon":5.35073,"is_reserved":false,"is_disabled":false,"rental_uris":{"android":"levelo://app?vid=1e4eaa03-2e19-43ba-8d72-0451dea67fca","ios":"levelo://app?vid=1e4eaa03-2e19-43ba-8d72-0451dea67fca"},"vehicle_type_id":"4","last_reported":1713013622,"current_range_meters":16800,"station_id":"ce4bhbp2rcd13ifvqerg","pricing_plan_id":"cebpf4jnsgd1na2vs0mg"},{"bike_id":"544a3e93-6935-44b8-aebe-e7759ff2b1e1","system_id":"levelo_inurba_marseille","lat":43.28268,"lon":5.350655,"is_reserved":false,"is_disabled":false,"rental_uris":{"android":"levelo://app?vid=544a3e93-6935-44b8-aebe-e7759ff2b1e1","ios":"levelo://app?vid=544a3e93-6935-44b8-aebe-e7759ff2b1e1"},"vehicle_type_id":"4","last_reported":1713013622,"current_range_meters":18000,"station_id":"ce4bhbp2rcd13ifvqerg","pricing_plan_id":"cebpf4jnsgd1na2vs0mg"},{"bike_id":"a7f86906-7add-4e76-a7f0-afab9e84ba14","system_id":"levelo_inurba_marseille","lat":43.28268,"lon":5.35063,"is_reserved":false,"is_disabled":false,"rental_uris":{"android":"levelo://app?vid=a7f86906-7add-4e76-a7f0-afab9e84ba14","ios":"levelo://app?vid=a7f86906-7add-4e76-a7f0-afab9e84ba14"},"vehicle_type_id":"4","last_reported":1713013622,"current_range_meters":21200,"station_id":"ce4bhbp2rcd13ifvqerg","pricing_plan_id":"cebpf4jnsgd1na2vs0mg"},{"bike_id":"62a30e18-0c3e-4f42-9681-e2d9a4106ebf","system_id":"levelo_inurba_marseille","lat":43.282675,"lon":5.350645,"is_reserved":false,"is_disabled":false,"rental_uris":{"android":"levelo://app?vid=62a30e18-0c3e-4f42-9681-e2d9a4106ebf","ios":"levelo://app?vid=62a30e18-0c3e-4f42-9681-e2d9a4106ebf"},"vehicle_type_id":"4","last_reported":1713013622,"current_range_meters":18400,"station_id":"ce4bhbp2rcd13ifvqerg","pricing_plan_id":"cebpf4jnsgd1na2vs0mg"},{"bike_id":"9af90f2d-ab63-4c1e-b780-2aea330c2401","system_id":"levelo_inurba_marseille","lat":43.282682,"lon":5.350614,"is_reserved":false,"is_disabled":false,"rental_uris":{"android":"levelo://app?vid=9af90f2d-ab63-4c1e-b780-2aea330c2401","ios":"levelo://app?vid=9af90f2d-ab63-4c1e-b780-2aea330c2401"},