{"last_updated":1702191980,"ttl":30,"version":"2.2","data":{"bikes":[{"bike_id":"54ac1c1b-b8fc-4d66-b66b-d6c8378d491d","system_id":"levelo_inurba_marseille","lat":43.30549,"lon":5.36696,"is_reserved":false,"is_disabled":false,"rental_uris":{"android":"levelo://app?vid=54ac1c1b-b8fc-4d66-b66b-d6c8378d491d","ios":"levelo://app?vid=54ac1c1b-b8fc-4d66-b66b-d6c8378d491d"},"vehicle_type_id":"4","last_reported":1702191980,"current_range_meters":27600,"station_id":"ce4bgrp2rcd13ifvqc9g","pricing_plan_id":"free"},{"bike_id":"6d127254-6afc-45f0-bd9f-2c5eea3196f9","system_id":"levelo_inurba_marseille","lat":43.30547,"lon":5.36541,"is_reserved":false,"is_disabled":false,"rental_uris":{"android":"levelo://app?vid=6d127254-6afc-45f0-bd9f-2c5eea3196f9","ios":"levelo://app?vid=6d127254-6afc-45f0-bd9f-2c5eea3196f9"},"vehicle_type_id":"4","last_reported":1702191980,"current_range_meters":30000,"station_id":"ce4bgs12rcd13ifvqcag","pricing_plan_id":"free"},{"bike_id":"0256fc0f-07e7-4e62-84ac-07632fac8379","system_id":"levelo_inurba_marseille","lat":43.305368,"lon":5.367343,"is_reserved":false,"is_disabled":false,"rental_uris":{"android":"levelo://app?vid=0256fc0f-07e7-4e62-84ac-07632fac8379","ios":"levelo://app?vid=0256fc0f-07e7-4e62-84ac-07632fac8379"},"vehicle_type_id":"4","last_reported":1702191980,"current_range_meters":29200,"station_id":"ce4bgrp2rcd13ifvqc9g","pricing_plan_id":"free"},{"bike_id":"5a3027a7-2b68-4942-9590-ac43f95720f3","system_id":"levelo_inurba_marseille","lat":43.305989,"lon":5.37225,"is_reserved":false,"is_disabled":false,"rental_uris":{"android":"levelo://app?vid=5a3027a7-2b68-4942-9590-ac43f95720f3","ios":"levelo://app?vid=5a3027a7-2b68-4942-9590-ac43f95720f3"},"vehicle_type_id":"4","last_reported":1702191980,"current_range_meters":27600,"station_id":"ce4bgqh2rcd13ifvqc4g","pricing_plan_id":"free"},{"bike_id":"9ae367b1-a4f3-47aa-ab3b-c8db2ef55fdd","system_id":"levelo_inurba_marseille","lat":43.317075,"lon":5.377367,"is_reserved":false,"is_disabled":false,"rental_uris":{"android":"levelo://app?vid=9ae367b1-a4f3-47aa-ab3b-c8db2ef55fdd","ios":"levelo://app?vid=9ae367b1-a4f3-47aa-ab3b-c8db2ef55fdd"},"vehicle_type_id":"4","last_reported":1702191980,"current_range_meters":28000,"station_id":"ce4bgth2rcd13ifvqch0","pricing_plan_id":"free"},{"bike_id":"b9d6c71a-3fde-4794-891d-c42bb7cf843f","system_id":"levelo_inurba_marseille","lat":43.301939,"lon":5.366286,"is_reserved":false,"is_disabled":false,"rental_uris":{"android":"levelo://app?vid=b9d6c71a-3fde-4794-891d-c42bb7cf843f","ios":"levelo://app?vid=b9d6c71a-3fde-4794-891d-c42bb7cf843f"},"vehicle_type_id":"4","last_reported":1702191980,"current_range_meters":27600,"station_id":"ce4bgrh2rcd13ifvqc8g","pricing_plan_id":"free"},{"bike_id":"e226f3d9-7b34-42c6-8510-999f4bdae60d","system_id":"levelo_inurba_marseille","lat":43.304606,"lon":5.379026,"is_reserved":false,"is_disabled":false,"rental_uris":{"android":"levelo://app?vid=e226f3d9-7b34-42c6-8510-999f4bdae60d","ios":"levelo://app?vid=e226f3d9-7b34-42c6-8510-999f4bdae60d"},"vehicle_type_id":"4","last_reported":1702191980,"current_range_meters":20000,"station_id":"ce4bgup2rcd13ifvqcn0","pricing_plan_id":"free"},{"bike_id":"375b8ecb-7a97-4f6d-8885-ed3fb98461ac","system_id":"levelo_inurba_marseille","lat":43.304606,"lon":5.379026,"is_reserved":false,"is_disabled":false,"rental_uris":{"android":"levelo://app?vid=375b8ecb-7a97-4f6d-8885-ed3fb98461ac","ios":"levelo://app?vid=375b8ecb-7a97-4f6d-8885-ed3fb98461ac"},"vehicle_type_id":"4","last_reported":1702191980,"current_range_meters":20400,"station_id":"ce4bgup2rcd13ifvqcn0","pricing_plan_id":"free"},{"bike_id":"a892cb0a-d851-4ffa-9e63-6ecde5c166ec","system_id":"levelo_inurba_marseille","lat":43.304606,"lon":5.379026,"is_reserved":false,"is_disabled":false,"rental_uris":{"android":"levelo://app?vid=a892cb0a-d851-4ffa-9e63-6ecde5c166ec","ios":"levelo://app?vid=a892cb0a-d851-4ffa-9e63-6ecde5c166ec"},"vehicle_type_id":"4","last_reported":1702191980,"current_range_meters":13200,"station_id":"ce4bgup2rcd13ifvqcn0","pricing_plan_id":"free"},{"bike_id":"23d868cc-3adf-48c5-a90f-32eb4c4ae8cb","system_id":"levelo_inurba_marseille","lat":43.304606,"lon":5.379026,"is_reserved":false,"is_disabled":false,"rental_uris":{"android":"levelo://app?vid=23d868cc-3adf-48c5-a90f-32eb4c4ae8cb","ios":"levelo://app?vid=23d868cc-3adf-48c5-a90f-32eb4c4ae8cb"},"vehicle_type_id":"4","last_reported":1702191980,"current_range_meters":22800,"station_id":"ce4bgup2rcd13ifvqcn0","pricing_plan_id":"free"},{"bike_id":"efbbd337-06a5-46a0-a6c7-503e1a69f009","system_id":"levelo_inurba_marseille","lat":43.304606,"lon":5.379026,"is_reserved":false,"is_disabled":false,"rental_uris":{"android":"levelo://app?vid=efbbd337-06a5-46a0-a6c7-503e1a69f009","ios":"levelo://app?vid=efbbd337-06a5-46a0-a6c7-503e1a69f009"},"vehicle_type_id":"4","last_reported":1702191980,"current_range_meters":30400,"station_id":"ce4bgup2rcd13ifvqcn0","pricing_plan_id":"free"},{"bike_id":"cbd77630-1cb7-403d-8ac1-7464ee562c5f","system_id":"levelo_inurba_marseille","lat":43.304606,"lon":5.379026,"is_reserved":false,"is_disabled":false,"rental_uris":{"android":"levelo://app?vid=cbd77630-1cb7-403d-8ac1-7464ee562c5f","ios":"levelo://app?vid=cbd77630-1cb7-403d-8ac1-7464ee562c5f"},"vehicle_type_id":"4","last_reported":1702191980,"current_range_meters":23600,"station_id":"ce4bgup2rcd13ifvqcn0","pricing_plan_id":"free"},{"bike_id":"e606102b-a630-4793-8c67-412e6b33c3ae","system_id":"levelo_inurba_marseille","lat":43.31996,"lon":5.38143,"is_reserved":false,"is_disabled":false,"rental_uris":{"android":"levelo://app?vid=e606102b-a630-4793-8c67-412e6b33c3ae","ios":"levelo://app?vid=e606102b-a630-4793-8c67-412e6b33c3ae"},"vehicle_type_id":"4","last_reported":1702191980,"current_range_meters":11200,"station_id":"ce4bhr12rcd13ifvqhpg","pricing_plan_id":"free"},{"bike_id":"d8be298e-f4c0-4479-a66b-e307c680d7cc","system_id":"levelo_inurba_marseille","lat":43.31356,"lon":5.38493,"is_reserved":false,"is_disabled":false,"rental_uris":{"android":"levelo://app?vid=d8be298e-f4c0-4479-a66b-e307c680d7cc","ios":"levelo://app?vid=d8be298e-f4c0-4479-a66b-e307c680d7cc"},"vehicle_type_id":"4","last_reported":1702191980,"current_range_meters":21200,"station_id":"ce4bgt92rcd13ifvqcf0","pricing_plan_id":"free"},{"bike_id":"7dc5965b-044c-45bc-b7fc-1a056dd3927f","system_id":"levelo_inurba_marseille","lat":43.299222,"lon":5.365554,"is_reserved":false,"is_disabled":false,"rental_uris":{"android":"levelo://app?vid=7dc5965b-044c-45bc-b7fc-1a056dd3927f","ios":"levelo://app?vid=7dc5965b-044c-45bc-b7fc-1a056dd3927f"},"vehicle_type_id":"4","last_reported":1702191980,"current_range_meters":10800,"station_id":"ce4bgm92rcd13ifvqbr0","pricing_plan_id":"free"},{"bike_id":"c0a64277-f5dd-4691-8acb-5c084fb0cfac","system_id":"levelo_inurba_marseille","lat":43.298433,"lon":5.362774,"is_reserved":false,"is_disabled":false,"rental_uris":{"android":"levelo://app?vid=c0a64277-f5dd-4691-8acb-5c084fb0cfac","ios":"levelo://app?vid=c0a64277-f5dd-4691-8acb-5c084fb0cfac"},"vehicle_type_id":"4","last_reported":1702191980,"current_range_meters":26800,"station_id":"ce4bgpp2rcd13ifvqc3g","pricing_plan_id":"free"},{"bike_id":"5a5b8b00-c73c-44ab-b896-d1d277f7be78","system_id":"levelo_inurba_marseille","lat":43.31185,"lon":5.38714,"is_reserved":false,"is_disabled":false,"rental_uris":{"android":"levelo://app?vid=5a5b8b00-c73c-44ab-b896-d1d277f7be78","ios":"levelo://app?vid=5a5b8b00-c73c-44ab-b896-d1d277f7be78"},"vehicle_type_id":"4","last_reported":1702191980,"current_range_meters":15200,"station_id":"ce4bgv12rcd13ifvqcp0","pricing_plan_id":"free"},{"bike_id":"0370f0dd-02e1-44c3-b626-7cdd11d7ffac","system_id":"levelo_inurba_marseille","lat":43.32287,"lon":5.38266,"is_reserved":false,"is_disabled":false,"rental_uris":{"android":"levelo://app?vid=0370f0dd-02e1-44c3-b626-7cdd11d7ffac","ios":"levelo://app?vid=0370f0dd-02e1-44c3-b626-7cdd11d7ffac"},"vehicle_type_id":"4","last_reported":1702191980,"current_range_meters":31200,"station_id":"ce4bhr12rcd13ifvqhqg","pricing_plan_id":"free"},{"bike_id":"c60cbb7e-9382-450f-b819-5c2450f4f643","system_id":"levelo_inurba_marseille","lat":43.322872,"lon":5.382688,"is_reserved":false,"is_disabled":false,"rental_uris":{"android":"levelo://app?vid=c60cbb7e-9382-450f-b819-5c2450f4f643","ios":"levelo://app?vid=c60cbb7e-9382-450f-b819-5c2450f4f643"},"vehicle_type_id":"4","last_reported":1702191980,"current_range_meters":2000,"station_id":"ce4bhr12rcd13ifvqhqg","pricing_plan_id":"free"},{"bike_id":"9a75aac0-2e54-4ffe-8b56-07e48315b873","system_id":"levelo_inurba_marseille","lat":43.32825,"lon":5.36693,"is_reserved":false,"is_disabled":false,"rental_uris":{"android":"levelo://app?vid=9a75aac0-2e54-4ffe-8b56-07e48315b873","ios":"levelo://app?vid=9a75aac0-2e54-4ffe-8b56-07e48315b873"},"vehicle_type_id":"4","last_reported":1702191980,"current_range_meters":24800,"station_id":"ce4bhs92rcd13ifvqi0g","pricing_plan_id":"free"},{"bike_id":"6ac675f1-e0be-498c-ad2f-b742a949d4b0","system_id":"levelo_inurba_marseille","lat":43.298218,"lon":5.374416,"is_reserved":false,"is_disabled":false,"rental_uris":{"android":"levelo://app?vid=6ac675f1-e0be-498c-ad2f-b742a949d4b0","ios":"levelo://app?vid=6ac675f1-e0be-498c-ad2f-b742a949d4b0"},"vehicle_type_id":"4","last_reported":1702191980,"current_range_meters":0,"station_id":"","pricing_plan_id":"free"},{"bike_id":"616e8526-5b38-4994-9814-0ba76b59228f","system_id":"levelo_inurba_marseille","lat":43.2968,"lon":5.37291,"is_reserved":false,"is_disabled":false,"rental_uris":{"android":"levelo://app?vid=616e8526-5b38-4994-9814-0ba76b59228f","ios":"levelo://app?vid=616e8526-5b38-4994-9814-0ba76b59228f"},"vehicle_type_id":"4","last_reported":1702191980,"current_range_meters":29600,"station_id":"ce4bgk12rcd13ifvqbj0","pricing_plan_id":"free"},{"bike_id":"92dc65d6-6823-4de3-93d4-056f738f090c","system_id":"levelo_inurba_marseille","lat":43.316538,"lon":5.38954,"is_reserved":false,"is_disabled":false,"rental_uris":{"android":"levelo://app?vid=92dc65d6-6823-4de3-93d4-056f738f090c","ios":"levelo://app?vid=92dc65d6-6823-4de3-93d4-056f738f090c"},"vehicle_type_id":"4","last_reported":1702191980,"current_range_meters":0,"station_id":"","pricing_plan_id":"free"},{"bike_id":"aceb52ec-6862-46cf-b3f4-ad429451a7fd","system_id":"levelo_inurba_marseille","lat":43.299028,"lon":5.381509,"is_reserved":false,"is_disabled":false,"rental_uris":{"android":"levelo://app?vid=aceb52ec-6862-46cf-b3f4-ad429451a7fd","ios":"levelo://app?vid=aceb52ec-6862-46cf-b3f4-ad429451a7fd"},"vehicle_type_id":"4","last_reported":1702191980,"current_range_meters":25600,"station_id":"ce4bgj12rcd13ifvqbc0","pricing_plan_id":"free"},{"bike_id":"ca48f5c0-d13a-416c-9db2-7fe435e07c8b","system_id":"levelo_inurba_marseille","lat":43.299,"lon":5.381296,"is_reserved":false,"is_disabled":false,"rental_uris":{"android":"levelo://app?vid=ca48f5c0-d13a-416c-9db2-7fe435e07c8b","ios":"levelo://app?vid=ca48f5c0-d13a-416c-9db2-7fe435e07c8b"},"vehicle_type_id":"4","last_reported":1702191980,"current_range_meters":24000,"station_id":"ce4bgj12rcd13ifvqbc0","pricing_plan_id":"free"},{"bike_id":"7f9f585c-dd90-4729-82c8-734762289b11","system_id":"levelo_inurba_marseille","lat":43.299028,"lon":5.381509,"is_reserved":false,"is_disabled":false,"rental_uris":{"android":"levelo://app?vid=7f9f585c-dd90-4729-82c8-734762289b11","ios":"levelo://app?vid=7f9f585c-dd90-4729-82c8-734762289b11"},"vehicle_type_id":"4","last_reported":1702191980,"current_range_meters":23600,"station_id":"ce4bgj12rcd13ifvqbc0","pricing_plan_id":"free"},{"bike_id":"6b563076-5794-4ff4-aa49-6c87963efe82","system_id":"levelo_inurba_marseille","lat":43.296265,"lon":5.3749,"is_reserved":false,"is_disabled":false,"rental_uris":{"android":"levelo://app?vid=6b563076-5794-4ff4-aa49-6c87963efe82","ios":"levelo://app?vid=6b563076-5794-4ff4-aa49-6c87963efe82"},"vehicle_type_id":"4","last_reported":1702191980,"current_range_meters":15200,"station_id":"","pricing_plan_id":"free"},{"bike_id":"d69f04d9-84df-4f26-bc64-9f532752e790","system_id":"levelo_inurba_marseille","lat":43.31759,"lon":5.39005,"is_reserved":false,"is_disabled":false,"rental_uris":{"android":"levelo://app?vid=d69f04d9-84df-4f26-bc64-9f532752e790","ios":"levelo://app?vid=d69f04d9-84df-4f26-bc64-9f532752e790"},"vehicle_type_id":"4","last_reported":1702191980,"current_range_meters":6800,"station_id":"ce4bhqp2rcd13ifvqhng","pricing_plan_id":"free"},{"bike_id":"1d51cfeb-ac17-4ef2-bc01-753550bf95b2","system_id":"levelo_inurba_marseille","lat":43.31756,"lon":5.390153,"is_reserved":false,"is_disabled":false,"rental_uris":{"android":"levelo://app?vid=1d51cfeb-ac17-4ef2-bc01-753550bf95b2","ios":"levelo://app?vid=1d51cfeb-ac17-4ef2-bc01-753550bf95b2"},"vehicle_type_id":"4","last_reported":1702191980,"current_range_meters":22000,"station_id":"ce4bhqp2rcd13ifvqhng","pricing_plan_id":"free"},{"bike_id":"5cb9e7ad-1553-4f21-84a3-e2cbd5c03b46","system_id":"levelo_inurba_marseille","lat":43.295748,"lon":5.37522,"is_reserved":false,"is_disabled":false,"rental_uris":{"android":"levelo://app?vid=5cb9e7ad-1553-4f21-84a3-e2cbd5c03b46","ios":"levelo://app?vid=5cb9e7ad-1553-4f21-84a3-e2cbd5c03b46"},"vehicle_type_id":"4","last_reported":1702191980,"current_range_meters":28400,"station_id":"ce4bgh92rcd13ifvqb50","pricing_plan_id":"free"},{"bike_id":"16f2056c-ab2c-4dd4-a463-fb37474fe57c","system_id":"levelo_inurba_marseille","lat":43.295279,"lon":5.375048,"is_reserved":false,"is_disabled":false,"rental_uris":{"android":"levelo://app?vid=16f2056c-ab2c-4dd4-a463-fb37474fe57c","ios":"levelo://app?vid=16f2056c-ab2c-4dd4-a463-fb37474fe57c"},"vehicle_type_id":"4","last_reported":1702191980,"current_range_meters":19600,"station_id":"ce4bgkp2rcd13ifvqbmg","pricing_plan_id":"free"},{"bike_id":"cba4b429-f726-4cdc-8cc7-5afb9171f120","system_id":"levelo_inurba_marseille","lat":43.323686,"lon":5.388834,"is_reserved":false,"is_disabled":false,"rental_uris":{"android":"levelo://app?vid=cba4b429-f726-4cdc-8cc7-5afb9171f120","ios":"levelo://app?vid=cba4b429-f726-4cdc-8cc7-5afb9171f120"},"vehicle_type_id":"4","last_reported":1702191980,"current_range_meters":11200,"station_id":"ce4bhqp2rcd13ifvqhog","pricing_plan_id":"free"},{"bike_id":"84f4cdcf-c199-4789-9683-5a3f2582e0a2","system_id":"levelo_inurba_marseille","lat":43.293523,"lon":5.37454,"is_reserved":false,"is_disabled":false,"rental_uris":{"android":"levelo://app?vid=84f4cdcf-c199-4789-9683-5a3f2582e0a2","ios":"levelo://app?vid=84f4cdcf-c199-4789-9683-5a3f2582e0a2"},"vehicle_type_id":"4","last_reported":1702191980,"current_range_meters":8000,"station_id":"","pricing_plan_id":"free"},{"bike_id":"f6c5f525-b908-406a-81e6-1e25dde9d7b1","system_id":"levelo_inurba_marseille","lat":43.292311,"lon":5.360731,"is_reserved":false,"is_disabled":false,"rental_uris":{"android":"levelo://app?vid=f6c5f525-b908-406a-81e6-1e25dde9d7b1","ios":"levelo://app?vid=f6c5f525-b908-406a-81e6-1e25dde9d7b1"},"vehicle_type_id":"4","last_reported":1702191980,"current_range_meters":11600,"station_id":"ce4bhbh2rcd13ifvqeqg","pricing_plan_id":"free"},{"bike_id":"3f93876b-be7b-4b77-a2a2-6acd1350ae37","system_id":"levelo_inurba_marseille","lat":43.2936,"lon":5.37835,"is_reserved":false,"is_disabled":false,"rental_uris":{"android":"levelo://app?vid=3f93876b-be7b-4b77-a2a2-6acd1350ae37","ios":"levelo://app?vid=3f93876b-be7b-4b77-a2a2-6acd1350ae37"},"vehicle_type_id":"4","last_reported":1702191980,"current_range_meters":24000,"station_id":"ce4bgjh2rcd13ifvqbf0","pricing_plan_id":"free"},{"bike_id":"fd25a0e6-bcdd-49be-ad78-d33a3f898c6f","system_id":"levelo_inurba_marseille","lat":43.292311,"lon":5.360731,"is_reserved":false,"is_disabled":false,"rental_uris":{"android":"levelo://app?vid=fd25a0e6-bcdd-49be-ad78-d33a3f898c6f","ios":"levelo://app?vid=fd25a0e6-bcdd-49be-ad78-d33a3f898c6f"},"vehicle_type_id":"4","last_reported":1702191980,"current_range_meters":10400,"station_id":"ce4bhbh2rcd13ifvqeqg","pricing_plan_id":"free"},{"bike_id":"65d88c9f-9875-46da-8fab-a39cfd68fa01","system_id":"levelo_inurba_marseille","lat":43.292311,"lon":5.360731,"is_reserved":false,"is_disabled":false,"rental_uris":{"android":"levelo://app?vid=65d88c9f-9875-46da-8fab-a39cfd68fa01","ios":"levelo://app?vid=65d88c9f-9875-46da-8fab-a39cfd68fa01"},"vehicle_type_id":"4","last_reported":1702191980,"current_range_meters":6800,"station_id":"ce4bhbh2rcd13ifvqeqg","pricing_plan_id":"free"},{"bike_id":"ffe8e861-9583-46be-9da3-462d5c1037ee","system_id":"levelo_inurba_marseille","lat":43.29265,"lon":5.37629,"is_reserved":false,"is_disabled":false,"rental_uris":{"android":"levelo://app?vid=ffe8e861-9583-46be-9da3-462d5c1037ee","ios":"levelo://app?vid=ffe8e861-9583-46be-9da3-462d5c1037ee"},"vehicle_type_id":"4","last_reported":1702191980,"current_range_meters":8000,"station_id":"ce4bgi12rcd13ifvqb80","pricing_plan_id":"free"},{"bike_id":"e5e1556d-54f6-4de3-a906-092c27b81b2d","system_id":"levelo_inurba_marseille","lat":43.309038,"lon":5.396546,"is_reserved":false,"is_disabled":false,"rental_uris":{"android":"levelo://app?vid=e5e1556d-54f6-4de3-a906-092c27b81b2d","ios":"levelo://app?vid=e5e1556d-54f6-4de3-a906-092c27b81b2d"},"vehicle_type_id":"4","last_reported":1702191980,"current_range_meters":30400,"station_id":"ce4bh012rcd13ifvqcv0","pricing_plan_id":"free"},{"bike_id":"8bc9351a-2a2e-42b3-a651-fd9226da845a","system_id":"levelo_inurba_marseille","lat":43.313291,"lon":5.396838,"is_reserved":false,"is_disabled":false,"rental_uris":{"android":"levelo://app?vid=8bc9351a-2a2e-42b3-a651-fd9226da845a","ios":"levelo://app?vid=8bc9351a-2a2e-42b3-a651-fd9226da845a"},"vehicle_type_id":"4","last_reported":1702191980,"current_range_meters":22800,"station_id":"ce4bgvp2rcd13ifvqcu0","pricing_plan_id":"free"},{"bike_id":"b32858cf-24de-454f-a558-b0d9b5a15d36","system_id":"levelo_inurba_marseille","lat":43.31326,"lon":5.39692,"is_reserved":false,"is_disabled":false,"rental_uris":{"android":"levelo://app?vid=b32858cf-24de-454f-a558-b0d9b5a15d36","ios":"levelo://app?vid=b32858cf-24de-454f-a558-b0d9b5a15d36"},"vehicle_type_id":"4","last_reported":1702191980,"current_range_meters":0,"station_id":"ce4bgvp2rcd13ifvqcu0","pricing_plan_id":"free"},{"bike_id":"401fe086-2828-4d63-bd6b-53603201f345","system_id":"levelo_inurba_marseille","lat":43.313291,"lon":5.396838,"is_reserved":false,"is_disabled":false,"rental_uris":{"android":"levelo://app?vid=401fe086-2828-4d63-bd6b-53603201f345","ios":"levelo://app?vid=401fe086-2828-4d63-bd6b-53603201f345"},"vehicle_type_id":"4","last_reported":1702191980,"current_range_meters":2400,"station_id":"ce4bgvp2rcd13ifvqcu0","pricing_plan_id":"free"},{"bike_id":"c0630aab-3bb0-43d3-8b9d-674ab7344152","system_id":"levelo_inurba_marseille","lat":43.313291,"lon":5.396838,"is_reserved":false,"is_disabled":false,"rental_uris":{"android":"levelo://app?vid=c0630aab-3bb0-43d3-8b9d-674ab7344152","ios":"levelo://app?vid=c0630aab-3bb0-43d3-8b9d-674ab7344152"},"vehicle_type_id":"4","last_reported":1702191980,"current_range_meters":9600,"station_id":"ce4bgvp2rcd13ifvqcu0","pricing_plan_id":"free"},{"bike_id":"946c553e-df8f-4ce9-b6ae-027997ed4451","system_id":"levelo_inurba_marseille","lat":43.29187,"lon":5.35797,"is_reserved":false,"is_disabled":false,"rental_uris":{"android":"levelo://app?vid=946c553e-df8f-4ce9-b6ae-027997ed4451","ios":"levelo://app?vid=946c553e-df8f-4ce9-b6ae-027997ed4451"},"vehicle_type_id":"4","last_reported":1702191980,"current_range_meters":14000,"station_id":"ce4bhb12rcd13ifvqel0","pricing_plan_id":"free"},{"bike_id":"8df1102b-26fe-4795-925d-70fd629fbebc","system_id":"levelo_inurba_marseille","lat":43.29529,"lon":5.385581,"is_reserved":false,"is_disabled":false,"rental_uris":{"android":"levelo://app?vid=8df1102b-26fe-4795-925d-70fd629fbebc","ios":"levelo://app?vid=8df1102b-26fe-4795-925d-70fd629fbebc"},"vehicle_type_id":"4","last_reported":1702191980,"current_range_meters":24800,"station_id":"ce4bgih2rcd13ifvqba0","pricing_plan_id":"free"},{"bike_id":"5ed66215-e812-4934-8bd8-05fa06e2778c","system_id":"levelo_inurba_marseille","lat":43.332998,"lon":5.379821,"is_reserved":false,"is_disabled":false,"rental_uris":{"android":"levelo://app?vid=5ed66215-e812-4934-8bd8-05fa06e2778c","ios":"levelo://app?vid=5ed66215-e812-4934-8bd8-05fa06e2778c"},"vehicle_type_id":"4","last_reported":1702191980,"current_range_meters":27200,"station_id":"","pricing_plan_id":"free"},{"bike_id":"9088a22d-3cb6-4e74-88ec-b7d233356769","system_id":"levelo_inurba_marseille","lat":43.289184,"lon":5.366408,"is_reserved":false,"is_disabled":false,"rental_uris":{"android":"levelo://app?vid=9088a22d-3cb6-4e74-88ec-b7d233356769","ios":"levelo://app?vid=9088a22d-3cb6-4e74-88ec-b7d233356769"},"vehicle_type_id":"4","last_reported":1702191980,"current_range_meters":11200,"station_id":"ce4bhap2rcd13ifvqek0","pricing_plan_id":"free"},{"bike_id":"306740bc-4dce-42d1-8fa6-3da3034ba92b","system_id":"levelo_inurba_marseille","lat":43.2895,"lon":5.36414,"is_reserved":false,"is_disabled":false,"rental_uris":{"android":"levelo://app?vid=306740bc-4dce-42d1-8fa6-3da3034ba92b","ios":"levelo://app?vid=306740bc-4dce-42d1-8fa6-3da3034ba92b"},"vehicle_type_id":"4","last_reported":1702191980,"current_range_meters":20000,"station_id":"ce4bhc92rcd13ifvqetg","pricing_plan_id":"free"},{"bike_id":"87690891-0d9c-4a12-9ad1-a19ab8d420cb","system_id":"levelo_inurba_marseille","lat":43.289184,"lon":5.366408,"is_reserved":false,"is_disabled":false,"rental_uris":{"android":"levelo://app?vid=87690891-0d9c-4a12-9ad1-a19ab8d420cb","ios":"levelo://app?vid=87690891-0d9c-4a12-9ad1-a19ab8d420cb"},"vehicle_type_id":"4","last_reported":1702191980,"current_range_meters":30400,"station_id":"ce4bhap2rcd13ifvqek0","pricing_plan_id":"free"},{"bike_id":"2d5dc379-ff1d-47a7-8614-6989dc3313f4","system_id":"levelo_inurba_marseille","lat":43.289184,"lon":5.366408,"is_reserved":false,"is_disabled":false,"rental_uris":{"android":"levelo://app?vid=2d5dc379-ff1d-47a7-8614-6989dc3313f4","ios":"levelo://app?vid=2d5dc379-ff1d-47a7-8614-6989dc3313f4"},"vehicle_type_id":"4","last_reported":1702191980,"current_range_meters":22800,"station_id":"ce4bhap2rcd13ifvqek0","pricing_plan_id":"free"},{"bike_id":"0d55287e-6324-4a21-96f1-2aa124f5d1a5","system_id":"levelo_inurba_marseille","lat":43.290161,"lon":5.375651,"is_reserved":false,"is_disabled":false,"rental_uris":{"android":"levelo://app?vid=0d55287e-6324-4a21-96f1-2aa124f5d1a5","ios":"levelo://app?vid=0d55287e-6324-4a21-96f1-2aa124f5d1a5"},"vehicle_type_id":"4","last_reported":1702191980,"current_range_meters":10400,"station_id":"","pricing_plan_id":"free"},{"bike_id":"a02a1b20-1fb1-4951-988a-77389649024d","system_id":"levelo_inurba_marseille","lat":43.289259,"lon":5.366364,"is_reserved":false,"is_disabled":false,"rental_uris":{"android":"levelo://app?vid=a02a1b20-1fb1-4951-988a-77389649024d","ios":"levelo://app?vid=a02a1b20-1fb1-4951-988a-77389649024d"},"vehicle_type_id":"4","last_reported":1702191980,"current_range_meters":9200,"station_id":"","pricing_plan_id":"free"},{"bike_id":"77cdbc31-1e16-4353-aaa7-7a681e5dd526","system_id":"levelo_inurba_marseille","lat":43.292644,"lon":5.384257,"is_reserved":false,"is_disabled":false,"rental_uris":{"android":"levelo://app?vid=77cdbc31-1e16-4353-aaa7-7a681e5dd526","ios":"levelo://app?vid=77cdbc31-1e16-4353-aaa7-7a681e5dd526"},"vehicle_type_id":"4","last_reported":1702191980,"current_range_meters":23200,"station_id":"ce4bh692rcd13ifvqea0","pricing_plan_id":"free"},{"bike_id":"5c79bc93-8f13-4c40-8a8c-8f35d3902245","system_id":"levelo_inurba_marseille","lat":43.3334,"lon":5.38375,"is_reserved":false,"is_disabled":false,"rental_uris":{"android":"levelo://app?vid=5c79bc93-8f13-4c40-8a8c-8f35d3902245","ios":"levelo://app?vid=5c79bc93-8f13-4c40-8a8c-8f35d3902245"},"vehicle_type_id":"4","last_reported":1702191980,"current_range_meters":12000,"station_id":"","pricing_plan_id":"free"},{"bike_id":"4d3bc24f-5d77-47a8-a528-fdb18e7d198d","system_id":"levelo_inurba_marseille","lat":43.29094,"lon":5.38143,"is_reserved":false,"is_disabled":false,"rental_uris":{"android":"levelo://app?vid=4d3bc24f-5d77-47a8-a528-fdb18e7d198d","ios":"levelo://app?vid=4d3bc24f-5d77-47a8-a528-fdb18e7d198d"},"vehicle_type_id":"4","last_reported":1702191980,"current_range_meters":3200,"station_id":"ce4bh512rcd13ifvqe2g","pricing_plan_id":"free"},{"bike_id":"da192899-8833-474c-a2f3-ac18fc97bd54","system_id":"levelo_inurba_marseille","lat":43.31278,"lon":5.40172,"is_reserved":false,"is_disabled":false,"rental_uris":{"android":"levelo://app?vid=da192899-8833-474c-a2f3-ac18fc97bd54","ios":"levelo://app?vid=da192899-8833-474c-a2f3-ac18fc97bd54"},"vehicle_type_id":"4","last_reported":1702191980,"current_range_meters":9600,"station_id":"ce4bh092rcd13ifvqd30","pricing_plan_id":"free"},{"bike_id":"40d0ad98-e7a3-4142-bb7f-75101f4c8a92","system_id":"levelo_inurba_marseille","lat":43.30927,"lon":5.40143,"is_reserved":false,"is_disabled":false,"rental_uris":{"android":"levelo://app?vid=40d0ad98-e7a3-4142-bb7f-75101f4c8a92","ios":"levelo://app?vid=40d0ad98-e7a3-4142-bb7f-75101f4c8a92"},"vehicle_type_id":"4","last_reported":1702191980,"current_range_meters":2400,"station_id":"ce4bgvp2rcd13ifvqct0","pricing_plan_id":"free"},{"bike_id":"6bdf5736-d2e7-4812-ae5b-655b69deb87b","system_id":"levelo_inurba_marseille","lat":43.309371,"lon":5.401449,"is_reserved":false,"is_disabled":false,"rental_uris":{"android":"levelo://app?vid=6bdf5736-d2e7-4812-ae5b-655b69deb87b","ios":"levelo://app?vid=6bdf5736-d2e7-4812-ae5b-655b69deb87b"},"vehicle_type_id":"4","last_reported":1702191980,"current_range_meters":13200,"station_id":"ce4bgvp2rcd13ifvqct0","pricing_plan_id":"free"},{"bike_id":"12254971-6f18-4736-91cb-f61b0de64a8a","system_id":"levelo_inurba_marseille","lat":43.337645,"lon":5.374265,"is_reserved":false,"is_disabled":false,"rental_uris":{"android":"levelo://app?vid=12254971-6f18-4736-91cb-f61b0de64a8a","ios":"levelo://app?vid=12254971-6f18-4736-91cb-f61b0de64a8a"},"vehicle_type_id":"4","last_reported":1702191980,"current_range_meters":24800,"station_id":"","pricing_plan_id":"free"},{"bike_id":"4015c590-8b74-4dec-b47c-b86a2d5c5771","system_id":"levelo_inurba_marseille","lat":43.28727,"lon":5.36078,"is_reserved":false,"is_disabled":false,"rental_uris":{"android":"levelo://app?vid=4015c590-8b74-4dec-b47c-b86a2d5c5771","ios":"levelo://app?vid=4015c590-8b74-4dec-b47c-b86a2d5c5771"},"vehicle_type_id":"4","last_reported":1702191980,"current_range_meters":25600,"station_id":"cki0cbj6b192h4jlfktg","pricing_plan_id":"free"},{"bike_id":"0e082087-ce16-429c-85f8-486413ca4fba","system_id":"levelo_inurba_marseille","lat":43.298681,"lon":5.397225,"is_reserved":false,"is_disabled":false,"rental_uris":{"android":"levelo://app?vid=0e082087-ce16-429c-85f8-486413ca4fba","ios":"levelo://app?vid=0e082087-ce16-429c-85f8-486413ca4fba"},"vehicle_type_id":"4","last_reported":1702191980,"current_range_meters":26400,"station_id":"ce4bh0h2rcd13ifvqd50","pricing_plan_id":"free"},{"bike_id":"6f101e4c-47d9-403a-917e-f30239ecdade","system_id":"levelo_inurba_marseille","lat":43.290345,"lon":5.38646,"is_reserved":false,"is_disabled":false,"rental_uris":{"android":"levelo://app?vid=6f101e4c-47d9-403a-917e-f30239ecdade","ios":"levelo://app?vid=6f101e4c-47d9-403a-917e-f30239ecdade"},"vehicle_type_id":"4","last_reported":1702191980,"current_range_meters":28800,"station_id":"ce4bh4p2rcd13ifvqe0g","pricing_plan_id":"free"},{"bike_id":"090f8abd-8109-471a-8851-c0dde1f6b98f","system_id":"levelo_inurba_marseille","lat":43.290336,"lon":5.386425,"is_reserved":false,"is_disabled":false,"rental_uris":{"android":"levelo://app?vid=090f8abd-8109-471a-8851-c0dde1f6b98f","ios":"levelo://app?vid=090f8abd-8109-471a-8851-c0dde1f6b98f"},"vehicle_type_id":"4","last_reported":1702191980,"current_range_meters":26800,"station_id":"ce4bh4p2rcd13ifvqe0g","pricing_plan_id":"free"},{"bike_id":"d3b94379-b2aa-4cd5-aebc-857639d65bbc","system_id":"levelo_inurba_marseille","lat":43.286039,"lon":5.370681,"is_reserved":false,"is_disabled":false,"rental_uris":{"android":"levelo://app?vid=d3b94379-b2aa-4cd5-aebc-857639d65bbc","ios":"levelo://app?vid=d3b94379-b2aa-4cd5-aebc-857639d65bbc"},"vehicle_type_id":"4","last_reported":1702191980,"current_range_meters":12400,"station_id":"ce4bht12rcd13ifvqi60","pricing_plan_id":"free"},{"bike_id":"02162eac-8379-4d47-857c-c588dfb5b4ba","system_id":"levelo_inurba_marseille","lat":43.28462,"lon":5.358915,"is_reserved":false,"is_disabled":false,"rental_uris":{"android":"levelo://app?vid=02162eac-8379-4d47-857c-c588dfb5b4ba","ios":"levelo://app?vid=02162eac-8379-4d47-857c-c588dfb5b4ba"},"vehicle_type_id":"4","last_reported":1702191980,"current_range_meters":4000,"station_id":"ce4bhah2rcd13ifvqei0","pricing_plan_id":"free"},{"bike_id":"fdad5871-d4ce-4671-80c9-cb4c238f314c","system_id":"levelo_inurba_marseille","lat":43.29572,"lon":5.39963,"is_reserved":false,"is_disabled":false,"rental_uris":{"android":"levelo://app?vid=fdad5871-d4ce-4671-80c9-cb4c238f314c","ios":"levelo://app?vid=fdad5871-d4ce-4671-80c9-cb4c238f314c"},"vehicle_type_id":"4","last_reported":1702191980,"current_range_meters":20800,"station_id":"ce4bh312rcd13ifvqdj0","pricing_plan_id":"free"},{"bike_id":"dc054975-6a48-4061-bf44-0bc6e5190bf4","system_id":"levelo_inurba_marseille","lat":43.319179,"lon":5.407725,"is_reserved":false,"is_disabled":false,"rental_uris":{"android":"levelo://app?vid=dc054975-6a48-4061-bf44-0bc6e5190bf4","ios":"levelo://app?vid=dc054975-6a48-4061-bf44-0bc6e5190bf4"},"vehicle_type_id":"4","last_reported":1702191980,"current_range_meters":22400,"station_id":"ce4bhq12rcd13ifvqhig","pricing_plan_id":"free"},{"bike_id":"33d78b75-41af-4f7b-ad4a-0b93d22b7176","system_id":"levelo_inurba_marseille","lat":43.323464,"lon":5.406297,"is_reserved":false,"is_disabled":false,"rental_uris":{"android":"levelo://app?vid=33d78b75-41af-4f7b-ad4a-0b93d22b7176","ios":"levelo://app?vid=33d78b75-41af-4f7b-ad4a-0b93d22b7176"},"vehicle_type_id":"4","last_reported":1702191980,"current_range_meters":31200,"station_id":"ce4bhq92rcd13ifvqhjg","pricing_plan_id":"free"},{"bike_id":"06b3aba6-9d1c-4e37-9a84-95de7cc08875","system_id":"levelo_inurba_marseille","lat":43.323464,"lon":5.406297,"is_reserved":false,"is_disabled":false,"rental_uris":{"android":"levelo://app?vid=06b3aba6-9d1c-4e37-9a84-95de7cc08875","ios":"levelo://app?vid=06b3aba6-9d1c-4e37-9a84-95de7cc08875"},"vehicle_type_id":"4","last_reported":1702191980,"current_range_meters":30800,"station_id":"ce4bhq92rcd13ifvqhjg","pricing_plan_id":"free"},{"bike_id":"e459c0a4-7239-43b8-969c-b16f831310e9","system_id":"levelo_inurba_marseille","lat":43.323464,"lon":5.406297,"is_reserved":false,"is_disabled":false,"rental_uris":{"android":"levelo://app?vid=e459c0a4-7239-43b8-969c-b16f831310e9","ios":"levelo://app?vid=e459c0a4-7239-43b8-969c-b16f831310e9"},"vehicle_type_id":"4","last_reported":1702191980,"current_range_meters":7600,"station_id":"ce4bhq92rcd13ifvqhjg","pricing_plan_id":"free"},{"bike_id":"4da7061c-0a7d-407c-8ed7-5b8d45e64490","system_id":"levelo_inurba_marseille","lat":43.323464,"lon":5.406297,"is_reserved":false,"is_disabled":false,"rental_uris":{"android":"levelo://app?vid=4da7061c-0a7d-407c-8ed7-5b8d45e64490","ios":"levelo://app?vid=4da7061c-0a7d-407c-8ed7-5b8d45e64490"},"vehicle_type_id":"4","last_reported":1702191980,"current_range_meters":30800,"station_id":"ce4bhq92rcd13ifvqhjg","pricing_plan_id":"free"},{"bike_id":"2e3f5d1b-7227-4fd1-a3be-fcff682e2738","system_id":"levelo_inurba_marseille","lat":43.323464,"lon":5.406297,"is_reserved":false,"is_disabled":false,"rental_uris":{"android":"levelo://app?vid=2e3f5d1b-7227-4fd1-a3be-fcff682e2738","ios":"levelo://app?vid=2e3f5d1b-7227-4fd1-a3be-fcff682e2738"},"vehicle_type_id":"4","last_reported":1702191980,"current_range_meters":31600,"station_id":"ce4bhq92rcd13ifvqhjg","pricing_plan_id":"free"},{"bike_id":"9517bf5f-76a9-431d-87ba-1e90794a825d","system_id":"levelo_inurba_marseille","lat":43.288501,"lon":5.393087,"is_reserved":false,"is_disabled":false,"rental_uris":{"android":"levelo://app?vid=9517bf5f-76a9-431d-87ba-1e90794a825d","ios":"levelo://app?vid=9517bf5f-76a9-431d-87ba-1e90794a825d"},"vehicle_type_id":"4","last_reported":1702191980,"current_range_meters":0,"station_id":"ce4bh2p2rcd13ifvqdi0","pricing_plan_id":"free"},{"bike_id":"991ddd9a-1c6e-4cbb-a571-16a27948f6ae","system_id":"levelo_inurba_marseille","lat":43.28427,"lon":5.34986,"is_reserved":false,"is_disabled":false,"rental_uris":{"android":"levelo://app?vid=991ddd9a-1c6e-4cbb-a571-16a27948f6ae","ios":"levelo://app?vid=991ddd9a-1c6e-4cbb-a571-16a27948f6ae"},"vehicle_type_id":"4","last_reported":1702191980,"current_range_meters":28800,"station_id":"ce4bhbh2rcd13ifvqepg","pricing_plan_id":"free"},{"bike_id":"04ea0db6-64fe-489b-8130-dafd142542e4","system_id":"levelo_inurba_marseille","lat":43.284219,"lon":5.3497,"is_reserved":false,"is_disabled":false,"rental_uris":{"android":"levelo://app?vid=04ea0db6-64fe-489b-8130-dafd142542e4","ios":"levelo://app?vid=04ea0db6-64fe-489b-8130-dafd142542e4"},"vehicle_type_id":"4","last_reported":1702191980,"current_range_meters":30000,"station_id":"ce4bhbh2rcd13ifvqepg","pricing_plan_id":"free"},{"bike_id":"4435bfef-b3b8-4058-84bf-68d8cc973a03","system_id":"levelo_inurba_marseille","lat":43.280382,"lon":5.369291,"is_reserved":false,"is_disabled":false,"rental_uris":{"android":"levelo://app?vid=4435bfef-b3b8-4058-84bf-68d8cc973a03","ios":"levelo://app?vid=4435bfef-b3b8-4058-84bf-68d8cc973a03"},"vehicle_type_id":"4","last_reported":1702191980,"current_range_meters":18400,"station_id":"ce4bha12rcd13ifvqef0","pricing_plan_id":"free"},{"bike_id":"9a44b532-0bac-45c7-96f2-b26547fc4bf5","system_id":"levelo_inurba_marseille","lat":43.29041,"lon":5.399634,"is_reserved":false,"is_disabled":false,"rental_uris":{"android":"levelo://app?vid=9a44b532-0bac-45c7-96f2-b26547fc4bf5","ios":"levelo://app?vid=9a44b532-0bac-45c7-96f2-b26547fc4bf5"},"vehicle_type_id":"4","last_reported":1702191980,"current_range_meters":18000,"station_id":"ce4bh392rcd13ifvqdm0","pricing_plan_id":"free"},{"bike_id":"b00f5340-00c7-46cf-a639-ed5c863cb6cb","system_id":"levelo_inurba_marseille","lat":43.281044,"lon":5.378308,"is_reserved":false,"is_disabled":false,"rental_uris":{"android":"levelo://app?vid=b00f5340-00c7-46cf-a639-ed5c863cb6cb","ios":"levelo://app?vid=b00f5340-00c7-46cf-a639-ed5c863cb6cb"},"vehicle_type_id":"4","last_reported":1702191980,"current_range_meters":400,"station_id":"ce4bha12rcd13ifvqee0","pricing_plan_id":"free"},{"bike_id":"e2d17c71-1426-462e-9c1e-c9fc623ceed1","system_id":"levelo_inurba_marseille","lat":43.326605,"lon":5.409903,"is_reserved":false,"is_disabled":false,"rental_uris":{"android":"levelo://app?vid=e2d17c71-1426-462e-9c1e-c9fc623ceed1","ios":"levelo://app?vid=e2d17c71-1426-462e-9c1e-c9fc623ceed1"},"vehicle_type_id":"4","last_reported":1702191980,"current_range_meters":26000,"station_id":"ce4bhpp2rcd13ifvqhgg","pricing_plan_id":"free"},{"bike_id":"6020eb43-c1b0-4340-aa00-25e2e88e33bf","system_id":"levelo_inurba_marseille","lat":43.326605,"lon":5.409903,"is_reserved":false,"is_disabled":false,"rental_uris":{"android":"levelo://app?vid=6020eb43-c1b0-4340-aa00-25e2e88e33bf","ios":"levelo://app?vid=6020eb43-c1b0-4340-aa00-25e2e88e33bf"},"vehicle_type_id":"4","last_reported":1702191980,"current_range_meters":23600,"station_id":"ce4bhpp2rcd13ifvqhgg","pricing_plan_id":"free"},{"bike_id":"8a3b77a2-0523-4674-96ec-4a0f6cd6735e","system_id":"levelo_inurba_marseille","lat":43.304188,"lon":5.412904,"is_reserved":false,"is_disabled":false,"rental_uris":{"android":"levelo://app?vid=8a3b77a2-0523-4674-96ec-4a0f6cd6735e","ios":"levelo://app?vid=8a3b77a2-0523-4674-96ec-4a0f6cd6735e"},"vehicle_type_id":"4","last_reported":1702191980,"current_range_meters":14800,"station_id":"ce4bhop2rcd13ifvqh8g","pricing_plan_id":"free"},{"bike_id":"f95a19e9-7b32-49ce-a457-a2df8fc69118","system_id":"levelo_inurba_marseille","lat":43.304188,"lon":5.412904,"is_reserved":false,"is_disabled":false,"rental_uris":{"android":"levelo://app?vid=f95a19e9-7b32-49ce-a457-a2df8fc69118","ios":"levelo://app?vid=f95a19e9-7b32-49ce-a457-a2df8fc69118"},"vehicle_type_id":"4","last_reported":1702191980,"current_range_meters":4800,"station_id":"ce4bhop2rcd13ifvqh8g","pricing_plan_id":"free"},{"bike_id":"130f4392-f78a-4479-b25d-58a7d67aabe1","system_id":"levelo_inurba_marseille","lat":43.304188,"lon":5.412904,"is_reserved":false,"is_disabled":false,"rental_uris":{"android":"levelo://app?vid=130f4392-f78a-4479-b25d-58a7d67aabe1","ios":"levelo://app?vid=130f4392-f78a-4479-b25d-58a7d67aabe1"},"vehicle_type_id":"4","last_reported":1702191980,"current_range_meters":31200,"station_id":"ce4bhop2rcd13ifvqh8g","pricing_plan_id":"free"},{"bike_id":"31a033fb-76c1-4d90-acaa-e61f8f9e2008","system_id":"levelo_inurba_marseille","lat":43.304188,"lon":5.412904,"is_reserved":false,"is_disabled":false,"rental_uris":{"android":"levelo://app?vid=31a033fb-76c1-4d90-acaa-e61f8f9e2008","ios":"levelo://app?vid=31a033fb-76c1-4d90-acaa-e61f8f9e2008"},"vehicle_type_id":"4","last_reported":1702191980,"current_range_meters":24800,"station_id":"ce4bhop2rcd13ifvqh8g","pricing_plan_id":"free"},{"bike_id":"0bc1eb45-a665-44a3-8a8b-d748ef95b051","system_id":"levelo_inurba_marseille","lat":43.304188,"lon":5.412904,"is_reserved":false,"is_disabled":false,"rental_uris":{"android":"levelo://app?vid=0bc1eb45-a665-44a3-8a8b-d748ef95b051","ios":"levelo://app?vid=0bc1eb45-a665-44a3-8a8b-d748ef95b051"},"vehicle_type_id":"4","last_reported":1702191980,"current_range_meters":24000,"station_id":"ce4bhop2rcd13ifvqh8g","pricing_plan_id":"free"},{"bike_id":"4b422a83-f8c3-4ec4-aba9-487aa2871742","system_id":"levelo_inurba_marseille","lat":43.287154,"lon":5.399979,"is_reserved":false,"is_disabled":false,"rental_uris":{"android":"levelo://app?vid=4b422a83-f8c3-4ec4-aba9-487aa2871742","ios":"levelo://app?vid=4b422a83-f8c3-4ec4-aba9-487aa2871742"},"vehicle_type_id":"4","last_reported":1702191980,"current_range_meters":19600,"station_id":"ce4bho92rcd13ifvqh3g","pricing_plan_id":"free"},{"bike_id":"58f52f1b-f682-43f9-888f-474549184cf8","system_id":"levelo_inurba_marseille","lat":43.32215,"lon":5.41464,"is_reserved":false,"is_disabled":false,"rental_uris":{"android":"levelo://app?vid=58f52f1b-f682-43f9-888f-474549184cf8","ios":"levelo://app?vid=58f52f1b-f682-43f9-888f-474549184cf8"},"vehicle_type_id":"4","last_reported":1702191980,"current_range_meters":14400,"station_id":"","pricing_plan_id":"free"},{"bike_id":"84520233-7c1d-425e-b28d-d323f0b15b3b","system_id":"levelo_inurba_marseille","lat":43.299579,"lon":5.413255,"is_reserved":false,"is_disabled":false,"rental_uris":{"android":"levelo://app?vid=84520233-7c1d-425e-b28d-d323f0b15b3b","ios":"levelo://app?vid=84520233-7c1d-425e-b28d-d323f0b15b3b"},"vehicle_type_id":"4","last_reported":1702191980,"current_range_meters":30000,"station_id":"ce4bhp12rcd13ifvqh9g","pricing_plan_id":"free"},{"bike_id":"44c8100c-f6fa-4a5b-9224-234e6380e89c","system_id":"levelo_inurba_marseille","lat":43.320045,"lon":5.415048,"is_reserved":false,"is_disabled":false,"rental_uris":{"android":"levelo://app?vid=44c8100c-f6fa-4a5b-9224-234e6380e89c","ios":"levelo://app?vid=44c8100c-f6fa-4a5b-9224-234e6380e89c"},"vehicle_type_id":"4","last_reported":1702191980,"current_range_meters":30400,"station_id":"ce4bhq92rcd13ifvqhkg","pricing_plan_id":"free"},{"bike_id":"3ba1c13c-1418-4db0-b5bf-b43d8c6ebf93","system_id":"levelo_inurba_marseille","lat":43.27964,"lon":5.387135,"is_reserved":false,"is_disabled":false,"rental_uris":{"android":"levelo://app?vid=3ba1c13c-1418-4db0-b5bf-b43d8c6ebf93","ios":"levelo://app?vid=3ba1c13c-1418-4db0-b5bf-b43d8c6ebf93"},"vehicle_type_id":"4","last_reported":1702191980,"current_range_meters":13200,"station_id":"ce4bhg12rcd13ifvqf80","pricing_plan_id":"free"},{"bike_id":"1ae047ec-9761-4939-97fc-a17bf2fe6c47","system_id":"levelo_inurba_marseille","lat":43.320045,"lon":5.415046,"is_reserved":false,"is_disabled":false,"rental_uris":{"android":"levelo://app?vid=1ae047ec-9761-4939-97fc-a17bf2fe6c47","ios":"levelo://app?vid=1ae047ec-9761-4939-97fc-a17bf2fe6c47"},"vehicle_type_id":"4","last_reported":1702191980,"current_range_meters":30400,"station_id":"ce4bhq92rcd13ifvqhkg","pricing_plan_id":"free"},{"bike_id":"4bfd864f-a596-4c56-9c2a-ab0fbb53783a","system_id":"levelo_inurba_marseille","lat":43.276179,"lon":5.361009,"is_reserved":false,"is_disabled":false,"rental_uris":{"android":"levelo://app?vid=4bfd864f-a596-4c56-9c2a-ab0fbb53783a","ios":"levelo://app?vid=4bfd864f-a596-4c56-9c2a-ab0fbb53783a"},"vehicle_type_id":"4","last_reported":1702191980,"current_range_meters":20800,"station_id":"ce4bgj92rcd13ifvqbe0","pricing_plan_id":"free"},{"bike_id":"60acf5ee-5101-4a63-9e84-8f1eb397caa4","system_id":"levelo_inurba_marseille","lat":43.325243,"lon":5.414326,"is_reserved":false,"is_disabled":false,"rental_uris":{"android":"levelo://app?vid=60acf5ee-5101-4a63-9e84-8f1eb397caa4","ios":"levelo://app?vid=60acf5ee-5101-4a63-9e84-8f1eb397caa4"},"vehicle_type_id":"4","last_reported":1702191980,"current_range_meters":26800,"station_id":"ce4bhq12rcd13ifvqhhg","pricing_plan_id":"free"},{"bike_id":"dfa92ed6-65e2-4d7b-afad-926463d2b88b","system_id":"levelo_inurba_marseille","lat":43.303837,"lon":5.418724,"is_reserved":false,"is_disabled":false,"rental_uris":{"android":"levelo://app?vid=dfa92ed6-65e2-4d7b-afad-926463d2b88b","ios":"levelo://app?vid=dfa92ed6-65e2-4d7b-afad-926463d2b88b"},"vehicle_type_id":"4","last_reported":1702191980,"current_range_meters":26800,"station_id":"ce4bhop2rcd13ifvqh7g","pricing_plan_id":"free"},{"bike_id":"ad64e0ff-8925-4e6a-b0db-751256cb562d","system_id":"levelo_inurba_marseille","lat":43.336148,"lon":5.410349,"is_reserved":false,"is_disabled":false,"rental_uris":{"android":"levelo://app?vid=ad64e0ff-8925-4e6a-b0db-751256cb562d","ios":"levelo://app?vid=ad64e0ff-8925-4e6a-b0db-751256cb562d"},"vehicle_type_id":"4","last_reported":1702191980,"current_range_meters":8400,"station_id":"ce4bhqh2rcd13ifvqhmg","pricing_plan_id":"free"},{"bike_id":"409f4331-6e4d-42f8-9847-b173992dc724","system_id":"levelo_inurba_marseille","lat":43.336068,"lon":5.410236,"is_reserved":false,"is_disabled":false,"rental_uris":{"android":"levelo://app?vid=409f4331-6e4d-42f8-9847-b173992dc724","ios":"levelo://app?vid=409f4331-6e4d-42f8-9847-b173992dc724"},"vehicle_type_id":"4","last_reported":1702191980,"current_range_meters":23600,"station_id":"ce4bhqh2rcd13ifvqhmg","pricing_plan_id":"free"},{"bike_id":"980ce821-5a5f-4dfb-a895-9c119d96e24a","system_id":"levelo_inurba_marseille","lat":43.336148,"lon":5.410349,"is_reserved":false,"is_disabled":false,"rental_uris":{"android":"levelo://app?vid=980ce821-5a5f-4dfb-a895-9c119d96e24a","ios":"levelo://app?vid=980ce821-5a5f-4dfb-a895-9c119d96e24a"},"vehicle_type_id":"4","last_reported":1702191980,"current_range_meters":29600,"station_id":"ce4bhqh2rcd13ifvqhmg","pricing_plan_id":"free"},{"bike_id":"6653323c-ce52-45ab-b010-5e270f0c1b09","system_id":"levelo_inurba_marseille","lat":43.336148,"lon":5.410349,"is_reserved":false,"is_disabled":false,"rental_uris":{"android":"levelo://app?vid=6653323c-ce52-45ab-b010-5e270f0c1b09","ios":"levelo://app?vid=6653323c-ce52-45ab-b010-5e270f0c1b09"},"vehicle_type_id":"4","last_reported":1702191980,"current_range_meters":26400,"station_id":"ce4bhqh2rcd13ifvqhmg","pricing_plan_id":"free"},{"bike_id":"5baf8328-4363-4821-9c76-b6eaf235fdb5","system_id":"levelo_inurba_marseille","lat":43.279952,"lon":5.400085,"is_reserved":false,"is_disabled":false,"rental_uris":{"android":"levelo://app?vid=5baf8328-4363-4821-9c76-b6eaf235fdb5","ios":"levelo://app?vid=5baf8328-4363-4821-9c76-b6eaf235fdb5"},"vehicle_type_id":"4","last_reported":1702191980,"current_range_meters":10000,"station_id":"ce4bho92rcd13ifvqh4g","pricing_plan_id":"free"},{"bike_id":"88e59060-d458-48a8-8abe-8a1913097d92","system_id":"levelo_inurba_marseille","lat":43.31713,"lon":5.424,"is_reserved":false,"is_disabled":false,"rental_uris":{"android":"levelo://app?vid=88e59060-d458-48a8-8abe-8a1913097d92","ios":"levelo://app?vid=88e59060-d458-48a8-8abe-8a1913097d92"},"vehicle_type_id":"4","last_reported":1702191980,"current_range_meters":21200,"station_id":"ce4bhp92rcd13ifvqhbg","pricing_plan_id":"free"},{"bike_id":"02791883-a925-42a0-9dd3-b7193f6a574b","system_id":"levelo_inurba_marseille","lat":43.31718,"lon":5.42401,"is_reserved":false,"is_disabled":false,"rental_uris":{"android":"levelo://app?vid=02791883-a925-42a0-9dd3-b7193f6a574b","ios":"levelo://app?vid=02791883-a925-42a0-9dd3-b7193f6a574b"},"vehicle_type_id":"4","last_reported":1702191980,"current_range_meters":27600,"station_id":"ce4bhp92rcd13ifvqhbg","pricing_plan_id":"free"},{"bike_id":"80038031-3601-4c51-b66a-c6c9131d41d1","system_id":"levelo_inurba_marseille","lat":43.310785,"lon":5.424305,"is_reserved":false,"is_disabled":false,"rental_uris":{"android":"levelo://app?vid=80038031-3601-4c51-b66a-c6c9131d41d1","ios":"levelo://app?vid=80038031-3601-4c51-b66a-c6c9131d41d1"},"vehicle_type_id":"4","last_reported":1702191980,"current_range_meters":30800,"station_id":"ce4bhp92rcd13ifvqhag","pricing_plan_id":"free"},{"bike_id":"affb4f45-d821-4c0f-b637-138a01e9a1ab","system_id":"levelo_inurba_marseille","lat":43.310785,"lon":5.424305,"is_reserved":false,"is_disabled":false,"rental_uris":{"android":"levelo://app?vid=affb4f45-d821-4c0f-b637-138a01e9a1ab","ios":"levelo://app?vid=affb4f45-d821-4c0f-b637-138a01e9a1ab"},"vehicle_type_id":"4","last_reported":1702191980,"current_range_meters":8000,"station_id":"ce4bhp92rcd13ifvqhag","pricing_plan_id":"free"},{"bike_id":"e7bd1e73-4f86-473d-905c-a7b0f3d6ad8a","system_id":"levelo_inurba_marseille","lat":43.31723,"lon":5.42405,"is_reserved":false,"is_disabled":false,"rental_uris":{"android":"levelo://app?vid=e7bd1e73-4f86-473d-905c-a7b0f3d6ad8a","ios":"levelo://app?vid=e7bd1e73-4f86-473d-905c-a7b0f3d6ad8a"},"vehicle_type_id":"4","last_reported":1702191980,"current_range_meters":14400,"station_id":"ce4bhp92rcd13ifvqhbg","pricing_plan_id":"free"},{"bike_id":"5e846a49-28a7-48fe-8d3c-0c53874a1a5b","system_id":"levelo_inurba_marseille","lat":43.340804,"lon":5.410219,"is_reserved":false,"is_disabled":false,"rental_uris":{"android":"levelo://app?vid=5e846a49-28a7-48fe-8d3c-0c53874a1a5b","ios":"levelo://app?vid=5e846a49-28a7-48fe-8d3c-0c53874a1a5b"},"vehicle_type_id":"4","last_reported":1702191980,"current_range_meters":11600,"station_id":"ce4bhqh2rcd13ifvqhlg","pricing_plan_id":"free"},{"bike_id":"12d9e6c5-8093-4626-a4c2-d964ff0400f8","system_id":"levelo_inurba_marseille","lat":43.340804,"lon":5.410219,"is_reserved":false,"is_disabled":false,"rental_uris":{"android":"levelo://app?vid=12d9e6c5-8093-4626-a4c2-d964ff0400f8","ios":"levelo://app?vid=12d9e6c5-8093-4626-a4c2-d964ff0400f8"},"vehicle_type_id":"4","last_reported":1702191980,"current_range_meters":31600,"station_id":"ce4bhqh2rcd13ifvqhlg","pricing_plan_id":"free"},{"bike_id":"63133364-316e-458e-b234-bbd4926c63fc","system_id":"levelo_inurba_marseille","lat":43.27583,"lon":5.39474,"is_reserved":false,"is_disabled":false,"rental_uris":{"android":"levelo://app?vid=63133364-316e-458e-b234-bbd4926c63fc","ios":"levelo://app?vid=63133364-316e-458e-b234-bbd4926c63fc"},"vehicle_type_id":"4","last_reported":1702191980,"current_range_meters":4400,"station_id":"","pricing_plan_id":"free"},{"bike_id":"8f021145-48f8-459b-aef0-f8921e18b0a0","system_id":"levelo_inurba_marseille","lat":43.27214,"lon":5.3925,"is_reserved":false,"is_disabled":false,"rental_uris":{"android":"levelo://app?vid=8f021145-48f8-459b-aef0-f8921e18b0a0","ios":"levelo://app?vid=8f021145-48f8-459b-aef0-f8921e18b0a0"},"vehicle_type_id":"4","last_reported":1702191980,"current_range_meters":0,"station_id":"","pricing_plan_id":"free"},{"bike_id":"f0ebddec-d6cc-4cea-9205-f0ce292b2962","system_id":"levelo_inurba_marseille","lat":43.278128,"lon":5.407195,"is_reserved":false,"is_disabled":false,"rental_uris":{"android":"levelo://app?vid=f0ebddec-d6cc-4cea-9205-f0ce292b2962","ios":"levelo://app?vid=f0ebddec-d6cc-4cea-9205-f0ce292b2962"},"vehicle_type_id":"4","last_reported":1702191980,"current_range_meters":26400,"station_id":"ce4bhnh2rcd13ifvqgtg","pricing_plan_id":"free"},{"bike_id":"840f6d6a-6e2d-48f3-9474-b436e1b4b666","system_id":"levelo_inurba_marseille","lat":43.269467,"lon":5.386439,"is_reserved":false,"is_disabled":false,"rental_uris":{"android":"levelo://app?vid=840f6d6a-6e2d-48f3-9474-b436e1b4b666","ios":"levelo://app?vid=840f6d6a-6e2d-48f3-9474-b436e1b4b666"},"vehicle_type_id":"4","last_reported":1702191980,"current_range_meters":28400,"station_id":"ce4bhh92rcd13ifvqfh0","pricing_plan_id":"free"},{"bike_id":"7db036fd-cf02-4cff-98a0-94f05f5342bd","system_id":"levelo_inurba_marseille","lat":43.279449,"lon":5.410344,"is_reserved":false,"is_disabled":false,"rental_uris":{"android":"levelo://app?vid=7db036fd-cf02-4cff-98a0-94f05f5342bd","ios":"levelo://app?vid=7db036fd-cf02-4cff-98a0-94f05f5342bd"},"vehicle_type_id":"4","last_reported":1702191980,"current_range_meters":0,"station_id":"ce4bhnp2rcd13ifvqh0g","pricing_plan_id":"free"},{"bike_id":"be8b92ea-1c09-44aa-b85f-00eed445ecb3","system_id":"levelo_inurba_marseille","lat":43.27946,"lon":5.41051,"is_reserved":false,"is_disabled":false,"rental_uris":{"android":"levelo://app?vid=be8b92ea-1c09-44aa-b85f-00eed445ecb3","ios":"levelo://app?vid=be8b92ea-1c09-44aa-b85f-00eed445ecb3"},"vehicle_type_id":"4","last_reported":1702191980,"current_range_meters":14000,"station_id":"ce4bhnp2rcd13ifvqh0g","pricing_plan_id":"free"},{"bike_id":"02978ae7-dc4e-4418-95db-592c2015b82a","system_id":"levelo_inurba_marseille","lat":43.26555,"lon":5.37286,"is_reserved":false,"is_disabled":false,"rental_uris":{"android":"levelo://app?vid=02978ae7-dc4e-4418-95db-592c2015b82a","ios":"levelo://app?vid=02978ae7-dc4e-4418-95db-592c2015b82a"},"vehicle_type_id":"4","last_reported":1702191980,"current_range_meters":25600,"station_id":"ce4bhg12rcd13ifvqf70","pricing_plan_id":"free"},{"bike_id":"19cc942f-ece9-40d3-8083-cccfba7fe5b1","system_id":"levelo_inurba_marseille","lat":43.279881,"lon":5.416579,"is_reserved":false,"is_disabled":false,"rental_uris":{"android":"levelo://app?vid=19cc942f-ece9-40d3-8083-cccfba7fe5b1","ios":"levelo://app?vid=19cc942f-ece9-40d3-8083-cccfba7fe5b1"},"vehicle_type_id":"4","last_reported":1702191980,"current_range_meters":400,"station_id":"ce4bho12rcd13ifvqh1g","pricing_plan_id":"free"},{"bike_id":"4add95f2-2b11-41d1-bd6e-7e6b527ea6f9","system_id":"levelo_inurba_marseille","lat":43.267966,"lon":5.393976,"is_reserved":false,"is_disabled":false,"rental_uris":{"android":"levelo://app?vid=4add95f2-2b11-41d1-bd6e-7e6b527ea6f9","ios":"levelo://app?vid=4add95f2-2b11-41d1-bd6e-7e6b527ea6f9"},"vehicle_type_id":"4","last_reported":1702191980,"current_range_meters":26000,"station_id":"ce4bhh12rcd13ifvqfg0","pricing_plan_id":"free"},{"bike_id":"74945471-49c2-4e6d-a307-30ade296f3ca","system_id":"levelo_inurba_marseille","lat":43.26361,"lon":5.37539,"is_reserved":false,"is_disabled":false,"rental_uris":{"android":"levelo://app?vid=74945471-49c2-4e6d-a307-30ade296f3ca","ios":"levelo://app?vid=74945471-49c2-4e6d-a307-30ade296f3ca"},"vehicle_type_id":"4","last_reported":1702191980,"current_range_meters":11200,"station_id":"","pricing_plan_id":"free"},{"bike_id":"983ed045-1f7b-4579-b9d1-f93588aba3b1","system_id":"levelo_inurba_marseille","lat":43.308051,"lon":5.43527,"is_reserved":false,"is_disabled":false,"rental_uris":{"android":"levelo://app?vid=983ed045-1f7b-4579-b9d1-f93588aba3b1","ios":"levelo://app?vid=983ed045-1f7b-4579-b9d1-f93588aba3b1"},"vehicle_type_id":"4","last_reported":1702191980,"current_range_meters":30400,"station_id":"ce4bhph2rcd13ifvqheg","pricing_plan_id":"free"},{"bike_id":"6e4ef9a4-8ece-4932-b43b-b3a60d61a2ca","system_id":"levelo_inurba_marseille","lat":43.317104,"lon":5.436818,"is_reserved":false,"is_disabled":false,"rental_uris":{"android":"levelo://app?vid=6e4ef9a4-8ece-4932-b43b-b3a60d61a2ca","ios":"levelo://app?vid=6e4ef9a4-8ece-4932-b43b-b3a60d61a2ca"},"vehicle_type_id":"4","last_reported":1702191980,"current_range_meters":1600,"station_id":"ce4bhp92rcd13ifvqhcg","pricing_plan_id":"free"},{"bike_id":"c360ec25-bd66-4a93-b7ed-9635234f478c","system_id":"levelo_inurba_marseille","lat":43.317104,"lon":5.436818,"is_reserved":false,"is_disabled":false,"rental_uris":{"android":"levelo://app?vid=c360ec25-bd66-4a93-b7ed-9635234f478c","ios":"levelo://app?vid=c360ec25-bd66-4a93-b7ed-9635234f478c"},"vehicle_type_id":"4","last_reported":1702191980,"current_range_meters":4800,"station_id":"ce4bhp92rcd13ifvqhcg","pricing_plan_id":"free"},{"bike_id":"dbacbb4a-9e99-4a7a-9713-43dac221ae4c","system_id":"levelo_inurba_marseille","lat":43.317104,"lon":5.436818,"is_reserved":false,"is_disabled":false,"rental_uris":{"android":"levelo://app?vid=dbacbb4a-9e99-4a7a-9713-43dac221ae4c","ios":"levelo://app?vid=dbacbb4a-9e99-4a7a-9713-43dac221ae4c"},"vehicle_type_id":"4","last_reported":1702191980,"current_range_meters":31200,"station_id":"ce4bhp92rcd13ifvqhcg","pricing_plan_id":"free"},{"bike_id":"e2a5fdfb-8206-4159-81d6-1ab96fe4d7e7","system_id":"levelo_inurba_marseille","lat":43.262012,"lon":5.379307,"is_reserved":false,"is_disabled":false,"rental_uris":{"android":"levelo://app?vid=e2a5fdfb-8206-4159-81d6-1ab96fe4d7e7","ios":"levelo://app?vid=e2a5fdfb-8206-4159-81d6-1ab96fe4d7e7"},"vehicle_type_id":"4","last_reported":1702191980,"current_range_meters":27200,"station_id":"ce4bhjp2rcd13ifvqg90","pricing_plan_id":"free"},{"bike_id":"3ef100ae-f89f-44f5-89e8-967b4acd17f5","system_id":"levelo_inurba_marseille","lat":43.26202,"lon":5.379299,"is_reserved":false,"is_disabled":false,"rental_uris":{"android":"levelo://app?vid=3ef100ae-f89f-44f5-89e8-967b4acd17f5","ios":"levelo://app?vid=3ef100ae-f89f-44f5-89e8-967b4acd17f5"},"vehicle_type_id":"4","last_reported":1702191980,"current_range_meters":27600,"station_id":"ce4bhjp2rcd13ifvqg90","pricing_plan_id":"free"},{"bike_id":"4f68f183-a711-4386-a731-e8ea8e2f115e","system_id":"levelo_inurba_marseille","lat":43.298768,"lon":5.43643,"is_reserved":false,"is_disabled":false,"rental_uris":{"android":"levelo://app?vid=4f68f183-a711-4386-a731-e8ea8e2f115e","ios":"levelo://app?vid=4f68f183-a711-4386-a731-e8ea8e2f115e"},"vehicle_type_id":"4","last_reported":1702191980,"current_range_meters":24800,"station_id":"ce4bhpp2rcd13ifvqhfg","pricing_plan_id":"free"},{"bike_id":"5f2d3882-2773-4d5c-828c-4c3c96bb97f7","system_id":"levelo_inurba_marseille","lat":43.298768,"lon":5.43643,"is_reserved":false,"is_disabled":false,"rental_uris":{"android":"levelo://app?vid=5f2d3882-2773-4d5c-828c-4c3c96bb97f7","ios":"levelo://app?vid=5f2d3882-2773-4d5c-828c-4c3c96bb97f7"},"vehicle_type_id":"4","last_reported":1702191980,"current_range_meters":30000,"station_id":"ce4bhpp2rcd13ifvqhfg","pricing_plan_id":"free"},{"bike_id":"6b17b896-99f2-456b-929e-df3811eeb274","system_id":"levelo_inurba_marseille","lat":43.298768,"lon":5.43643,"is_reserved":false,"is_disabled":false,"rental_uris":{"android":"levelo://app?vid=6b17b896-99f2-456b-929e-df3811eeb274","ios":"levelo://app?vid=6b17b896-99f2-456b-929e-df3811eeb274"},"vehicle_type_id":"4","last_reported":1702191980,"current_range_meters":27200,"station_id":"ce4bhpp2rcd13ifvqhfg","pricing_plan_id":"free"},{"bike_id":"c4a32d8b-8a0b-4189-aa9f-2983a413dfe8","system_id":"levelo_inurba_marseille","lat":43.299018,"lon":5.436634,"is_reserved":false,"is_disabled":false,"rental_uris":{"android":"levelo://app?vid=c4a32d8b-8a0b-4189-aa9f-2983a413dfe8","ios":"levelo://app?vid=c4a32d8b-8a0b-4189-aa9f-2983a413dfe8"},"vehicle_type_id":"4","last_reported":1702191980,"current_range_meters":27200,"station_id":"ce4bhpp2rcd13ifvqhfg","pricing_plan_id":"free"},{"bike_id":"83e2018e-7127-4415-8bbf-2e347a9c6750","system_id":"levelo_inurba_marseille","lat":43.298964,"lon":5.436621,"is_reserved":false,"is_disabled":false,"rental_uris":{"android":"levelo://app?vid=83e2018e-7127-4415-8bbf-2e347a9c6750","ios":"levelo://app?vid=83e2018e-7127-4415-8bbf-2e347a9c6750"},"vehicle_type_id":"4","last_reported":1702191980,"current_range_meters":26800,"station_id":"ce4bhpp2rcd13ifvqhfg","pricing_plan_id":"free"},{"bike_id":"70c52fa1-91be-4fbd-9217-7a0c668f9310","system_id":"levelo_inurba_marseille","lat":43.299002,"lon":5.436635,"is_reserved":false,"is_disabled":false,"rental_uris":{"android":"levelo://app?vid=70c52fa1-91be-4fbd-9217-7a0c668f9310","ios":"levelo://app?vid=70c52fa1-91be-4fbd-9217-7a0c668f9310"},"vehicle_type_id":"4","last_reported":1702191980,"current_range_meters":22400,"station_id":"ce4bhpp2rcd13ifvqhfg","pricing_plan_id":"free"},{"bike_id":"b9063a33-13b5-4cca-826c-3f51be03f8ec","system_id":"levelo_inurba_marseille","lat":43.281548,"lon":5.42643,"is_reserved":false,"is_disabled":false,"rental_uris":{"android":"levelo://app?vid=b9063a33-13b5-4cca-826c-3f51be03f8ec","ios":"levelo://app?vid=b9063a33-13b5-4cca-826c-3f51be03f8ec"},"vehicle_type_id":"4","last_reported":1702191980,"current_range_meters":31200,"station_id":"ce4bhnh2rcd13ifvqgug","pricing_plan_id":"free"},{"bike_id":"0341a2e7-04a4-4d8e-b96d-44e5882da047","system_id":"levelo_inurba_marseille","lat":43.275028,"lon":5.424534,"is_reserved":false,"is_disabled":false,"rental_uris":{"android":"levelo://app?vid=0341a2e7-04a4-4d8e-b96d-44e5882da047","ios":"levelo://app?vid=0341a2e7-04a4-4d8e-b96d-44e5882da047"},"vehicle_type_id":"4","last_reported":1702191980,"current_range_meters":28000,"station_id":"ce4bhn92rcd13ifvqgrg","pricing_plan_id":"free"},{"bike_id":"c84a2b07-1a24-4c2b-9039-a2e319dc57fc","system_id":"levelo_inurba_marseille","lat":43.255774,"lon":5.382277,"is_reserved":false,"is_disabled":false,"rental_uris":{"android":"levelo://app?vid=c84a2b07-1a24-4c2b-9039-a2e319dc57fc","ios":"levelo://app?vid=c84a2b07-1a24-4c2b-9039-a2e319dc57fc"},"vehicle_type_id":"4","last_reported":1702191980,"current_range_meters":4400,"station_id":"ce4bhih2rcd13ifvqfs0","pricing_plan_id":"free"},{"bike_id":"9403a47c-9166-4906-a009-e96cb999ffef","system_id":"levelo_inurba_marseille","lat":43.254947,"lon":5.376454,"is_reserved":false,"is_disabled":false,"rental_uris":{"android":"levelo://app?vid=9403a47c-9166-4906-a009-e96cb999ffef","ios":"levelo://app?vid=9403a47c-9166-4906-a009-e96cb999ffef"},"vehicle_type_id":"4","last_reported":1702191980,"current_range_meters":23600,"station_id":"ce4bhh12rcd13ifvqff0","pricing_plan_id":"free"},{"bike_id":"71e4f32e-ccb2-4c9d-ad16-d9b4cb1405d0","system_id":"levelo_inurba_marseille","lat":43.254947,"lon":5.376454,"is_reserved":false,"is_disabled":false,"rental_uris":{"android":"levelo://app?vid=71e4f32e-ccb2-4c9d-ad16-d9b4cb1405d0","ios":"levelo://app?vid=71e4f32e-ccb2-4c9d-ad16-d9b4cb1405d0"},"vehicle_type_id":"4","last_reported":1702191980,"current_range_meters":15600,"station_id":"ce4bhh12rcd13ifvqff0","pricing_plan_id":"free"},{"bike_id":"46488328-c339-4346-9280-ec5f809f328b","system_id":"levelo_inurba_marseille","lat":43.270721,"lon":5.422764,"is_reserved":false,"is_disabled":false,"rental_uris":{"android":"levelo://app?vid=46488328-c339-4346-9280-ec5f809f328b","ios":"levelo://app?vid=46488328-c339-4346-9280-ec5f809f328b"},"vehicle_type_id":"4","last_reported":1702191980,"current_range_meters":23600,"station_id":"ce4bhk92rcd13ifvqgb0","pricing_plan_id":"free"},{"bike_id":"84d2787f-fa52-48db-8cc7-7da61e6dd23e","system_id":"levelo_inurba_marseille","lat":43.257079,"lon":5.411051,"is_reserved":false,"is_disabled":false,"rental_uris":{"android":"levelo://app?vid=84d2787f-fa52-48db-8cc7-7da61e6dd23e","ios":"levelo://app?vid=84d2787f-fa52-48db-8cc7-7da61e6dd23e"},"vehicle_type_id":"4","last_reported":1702191980,"current_range_meters":30000,"station_id":"ce4bhkp2rcd13ifvqgd0","pricing_plan_id":"free"},{"bike_id":"c4962b24-02bb-4eb6-abd3-b5c966e043fc","system_id":"levelo_inurba_marseille","lat":43.250009,"lon":5.389195,"is_reserved":false,"is_disabled":false,"rental_uris":{"android":"levelo://app?vid=c4962b24-02bb-4eb6-abd3-b5c966e043fc","ios":"levelo://app?vid=c4962b24-02bb-4eb6-abd3-b5c966e043fc"},"vehicle_type_id":"4","last_reported":1702191980,"current_range_meters":27600,"station_id":"ce4bhgp2rcd13ifvqfd0","pricing_plan_id":"free"},{"bike_id":"deeabba4-3efb-4ead-8f41-4e9c61bc0f7c","system_id":"levelo_inurba_marseille","lat":43.250023,"lon":5.38919,"is_reserved":false,"is_disabled":false,"rental_uris":{"android":"levelo://app?vid=deeabba4-3efb-4ead-8f41-4e9c61bc0f7c","ios":"levelo://app?vid=deeabba4-3efb-4ead-8f41-4e9c61bc0f7c"},"vehicle_type_id":"4","last_reported":1702191980,"current_range_meters":26800,"station_id":"ce4bhgp2rcd13ifvqfd0","pricing_plan_id":"free"},{"bike_id":"b254cc68-7ded-4b0c-9b18-01968b6035f5","system_id":"levelo_inurba_marseille","lat":43.24807,"lon":5.37462,"is_reserved":false,"is_disabled":false,"rental_uris":{"android":"levelo://app?vid=b254cc68-7ded-4b0c-9b18-01968b6035f5","ios":"levelo://app?vid=b254cc68-7ded-4b0c-9b18-01968b6035f5"},"vehicle_type_id":"4","last_reported":1702191980,"current_range_meters":26400,"station_id":"ce4bhgh2rcd13ifvqfb0","pricing_plan_id":"free"},{"bike_id":"b04c5ddf-1555-4c24-b09f-1ae76a9a84c9","system_id":"levelo_inurba_marseille","lat":43.250867,"lon":5.395108,"is_reserved":false,"is_disabled":false,"rental_uris":{"android":"levelo://app?vid=b04c5ddf-1555-4c24-b09f-1ae76a9a84c9","ios":"levelo://app?vid=b04c5ddf-1555-4c24-b09f-1ae76a9a84c9"},"vehicle_type_id":"4","last_reported":1702191980,"current_range_meters":23600,"station_id":"ce4bhm12rcd13ifvqgkg","pricing_plan_id":"free"},{"bike_id":"41969743-2e50-48cb-8161-aa851361b17e","system_id":"levelo_inurba_marseille","lat":43.250966,"lon":5.395186,"is_reserved":false,"is_disabled":false,"rental_uris":{"android":"levelo://app?vid=41969743-2e50-48cb-8161-aa851361b17e","ios":"levelo://app?vid=41969743-2e50-48cb-8161-aa851361b17e"},"vehicle_type_id":"4","last_reported":1702191980,"current_range_meters":31200,"station_id":"ce4bhm12rcd13ifvqgkg","pricing_plan_id":"free"},{"bike_id":"89f6b9c7-2e47-467d-a5da-27592e88272c","system_id":"levelo_inurba_marseille","lat":43.250966,"lon":5.395186,"is_reserved":false,"is_disabled":false,"rental_uris":{"android":"levelo://app?vid=89f6b9c7-2e47-467d-a5da-27592e88272c","ios":"levelo://app?vid=89f6b9c7-2e47-467d-a5da-27592e88272c"},"vehicle_type_id":"4","last_reported":1702191980,"current_range_meters":31200,"station_id":"ce4bhm12rcd13ifvqgkg","pricing_plan_id":"free"},{"bike_id":"312e2cea-f904-48a8-b935-fb3c2c38e35f","system_id":"levelo_inurba_marseille","lat":43.24676,"lon":5.3817,"is_reserved":false,"is_disabled":false,"rental_uris":{"android":"levelo://app?vid=312e2cea-f904-48a8-b935-fb3c2c38e35f","ios":"levelo://app?vid=312e2cea-f904-48a8-b935-fb3c2c38e35f"},"vehicle_type_id":"4","last_reported":1702191980,"current_range_meters":17600,"station_id":"ce4bhih2rcd13ifvqfr0","pricing_plan_id":"free"},{"bike_id":"b22231f4-482d-4c32-aebb-e689c78d98cc","system_id":"levelo_inurba_marseille","lat":43.24673,"lon":5.38155,"is_reserved":false,"is_disabled":false,"rental_uris":{"android":"levelo://app?vid=b22231f4-482d-4c32-aebb-e689c78d98cc","ios":"levelo://app?vid=b22231f4-482d-4c32-aebb-e689c78d98cc"},"vehicle_type_id":"4","last_reported":1702191980,"current_range_meters":19600,"station_id":"ce4bhih2rcd13ifvqfr0","pricing_plan_id":"free"},{"bike_id":"f5c87d33-d918-4d16-b972-b04d089791bc","system_id":"levelo_inurba_marseille","lat":43.24693,"lon":5.382096,"is_reserved":false,"is_disabled":false,"rental_uris":{"android":"levelo://app?vid=f5c87d33-d918-4d16-b972-b04d089791bc","ios":"levelo://app?vid=f5c87d33-d918-4d16-b972-b04d089791bc"},"vehicle_type_id":"4","last_reported":1702191980,"current_range_meters":24000,"station_id":"ce4bhih2rcd13ifvqfr0","pricing_plan_id":"free"},{"bike_id":"a8920d8d-5ea0-4643-b10d-8e8ab5bf009a","system_id":"levelo_inurba_marseille","lat":43.2466,"lon":5.38154,"is_reserved":false,"is_disabled":false,"rental_uris":{"android":"levelo://app?vid=a8920d8d-5ea0-4643-b10d-8e8ab5bf009a","ios":"levelo://app?vid=a8920d8d-5ea0-4643-b10d-8e8ab5bf009a"},"vehicle_type_id":"4","last_reported":1702191980,"current_range_meters":0,"station_id":"ce4bhih2rcd13ifvqfr0","pricing_plan_id":"free"},{"bike_id":"3f2977c7-2d3e-4b05-813b-c8cad00b1d30","system_id":"levelo_inurba_marseille","lat":43.25102,"lon":5.403214,"is_reserved":false,"is_disabled":false,"rental_uris":{"android":"levelo://app?vid=3f2977c7-2d3e-4b05-813b-c8cad00b1d30","ios":"levelo://app?vid=3f2977c7-2d3e-4b05-813b-c8cad00b1d30"},"vehicle_type_id":"4","last_reported":1702191980,"current_range_meters":4400,"station_id":"ce4bhlh2rcd13ifvqgig","pricing_plan_id":"free"},{"bike_id":"d608bd2a-1e64-45d8-8604-2f7a0c32cafc","system_id":"levelo_inurba_marseille","lat":43.25113,"lon":5.40323,"is_reserved":false,"is_disabled":false,"rental_uris":{"android":"levelo://app?vid=d608bd2a-1e64-45d8-8604-2f7a0c32cafc","ios":"levelo://app?vid=d608bd2a-1e64-45d8-8604-2f7a0c32cafc"},"vehicle_type_id":"4","last_reported":1702191980,"current_range_meters":18800,"station_id":"ce4bhlh2rcd13ifvqgig","pricing_plan_id":"free"},{"bike_id":"9dc6e68a-3233-4e75-b32d-e08b4c53470d","system_id":"levelo_inurba_marseille","lat":43.2511,"lon":5.40323,"is_reserved":false,"is_disabled":false,"rental_uris":{"android":"levelo://app?vid=9dc6e68a-3233-4e75-b32d-e08b4c53470d","ios":"levelo://app?vid=9dc6e68a-3233-4e75-b32d-e08b4c53470d"},"vehicle_type_id":"4","last_reported":1702191980,"current_range_meters":18400,"station_id":"ce4bhlh2rcd13ifvqgig","pricing_plan_id":"free"},{"bike_id":"0d1213a3-e784-41d4-aebb-4f491d90bbd2","system_id":"levelo_inurba_marseille","lat":43.25106,"lon":5.40327,"is_reserved":false,"is_disabled":false,"rental_uris":{"android":"levelo://app?vid=0d1213a3-e784-41d4-aebb-4f491d90bbd2","ios":"levelo://app?vid=0d1213a3-e784-41d4-aebb-4f491d90bbd2"},"vehicle_type_id":"4","last_reported":1702191980,"current_range_meters":21200,"station_id":"ce4bhlh2rcd13ifvqgig","pricing_plan_id":"free"},{"bike_id":"1a23636c-273b-427e-ba3a-4cc57a24dce9","system_id":"levelo_inurba_marseille","lat":43.246467,"lon":5.388984,"is_reserved":false,"is_disabled":false,"rental_uris":{"android":"levelo://app?vid=1a23636c-273b-427e-ba3a-4cc57a24dce9","ios":"levelo://app?vid=1a23636c-273b-427e-ba3a-4cc57a24dce9"},"vehicle_type_id":"4","last_reported":1702191980,"current_range_meters":28800,"station_id":"ce4bhg12rcd13ifvqf60","pricing_plan_id":"free"},{"bike_id":"cdabd5a3-6605-4dff-b3c4-e56eb5b51e18","system_id":"levelo_inurba_marseille","lat":43.2443,"lon":5.37984,"is_reserved":false,"is_disabled":false,"rental_uris":{"android":"levelo://app?vid=cdabd5a3-6605-4dff-b3c4-e56eb5b51e18","ios":"levelo://app?vid=cdabd5a3-6605-4dff-b3c4-e56eb5b51e18"},"vehicle_type_id":"4","last_reported":1702191980,"current_range_meters":26000,"station_id":"","pricing_plan_id":"free"},{"bike_id":"4957a337-3ca2-4e57-9d2b-f7ca1f659f14","system_id":"levelo_inurba_marseille","lat":43.24074,"lon":5.37755,"is_reserved":false,"is_disabled":false,"rental_uris":{"android":"levelo://app?vid=4957a337-3ca2-4e57-9d2b-f7ca1f659f14","ios":"levelo://app?vid=4957a337-3ca2-4e57-9d2b-f7ca1f659f14"},"vehicle_type_id":"4","last_reported":1702191980,"current_range_meters":13600,"station_id":"ce4bhnp2rcd13ifvqgvg","pricing_plan_id":"free"},{"bike_id":"e0027151-3876-4e17-8b4a-b5c8f5b31988","system_id":"levelo_inurba_marseille","lat":43.24073,"lon":5.37755,"is_reserved":false,"is_disabled":false,"rental_uris":{"android":"levelo://app?vid=e0027151-3876-4e17-8b4a-b5c8f5b31988","ios":"levelo://app?vid=e0027151-3876-4e17-8b4a-b5c8f5b31988"},"vehicle_type_id":"4","last_reported":1702191980,"current_range_meters":14800,"station_id":"ce4bhnp2rcd13ifvqgvg","pricing_plan_id":"free"},{"bike_id":"aca0fc38-4f98-40a3-af99-c4a472034476","system_id":"levelo_inurba_marseille","lat":43.240623,"lon":5.377642,"is_reserved":false,"is_disabled":false,"rental_uris":{"android":"levelo://app?vid=aca0fc38-4f98-40a3-af99-c4a472034476","ios":"levelo://app?vid=aca0fc38-4f98-40a3-af99-c4a472034476"},"vehicle_type_id":"4","last_reported":1702191980,"current_range_meters":6800,"station_id":"ce4bhnp2rcd13ifvqgvg","pricing_plan_id":"free"},{"bike_id":"b2ebf7e6-1175-4d82-981b-1e0475d0e108","system_id":"levelo_inurba_marseille","lat":43.240623,"lon":5.377642,"is_reserved":false,"is_disabled":false,"rental_uris":{"android":"levelo://app?vid=b2ebf7e6-1175-4d82-981b-1e0475d0e108","ios":"levelo://app?vid=b2ebf7e6-1175-4d82-981b-1e0475d0e108"},"vehicle_type_id":"4","last_reported":1702191980,"current_range_meters":27200,"station_id":"ce4bhnp2rcd13ifvqgvg","pricing_plan_id":"free"},{"bike_id":"01e67547-c4ad-4fab-a1b7-ff80b23c104d","system_id":"levelo_inurba_marseille","lat":43.240623,"lon":5.377642,"is_reserved":false,"is_disabled":false,"rental_uris":{"android":"levelo://app?vid=01e67547-c4ad-4fab-a1b7-ff80b23c104d","ios":"levelo://app?vid=01e67547-c4ad-4fab-a1b7-ff80b23c104d"},"vehicle_type_id":"4","last_reported":1702191980,"current_range_meters":6800,"station_id":"ce4bhnp2rcd13ifvqgvg","pricing_plan_id":"free"},{"bike_id":"295b22b4-f231-4e9b-9581-6c371b8c9254","system_id":"levelo_inurba_marseille","lat":43.240623,"lon":5.377642,"is_reserved":false,"is_disabled":false,"rental_uris":{"android":"levelo://app?vid=295b22b4-f231-4e9b-9581-6c371b8c9254","ios":"levelo://app?vid=295b22b4-f231-4e9b-9581-6c371b8c9254"},"vehicle_type_id":"4","last_reported":1702191980,"current_range_meters":7600,"station_id":"ce4bhnp2rcd13ifvqgvg","pricing_plan_id":"free"},{"bike_id":"e23e6f4c-b4a9-4b45-8d2d-3376b5cc5c6a","system_id":"levelo_inurba_marseille","lat":43.240623,"lon":5.377642,"is_reserved":false,"is_disabled":false,"rental_uris":{"android":"levelo://app?vid=e23e6f4c-b4a9-4b45-8d2d-3376b5cc5c6a","ios":"levelo://app?vid=e23e6f4c-b4a9-4b45-8d2d-3376b5cc5c6a"},"vehicle_type_id":"4","last_reported":1702191980,"current_range_meters":32000,"station_id":"ce4bhnp2rcd13ifvqgvg","pricing_plan_id":"free"},{"bike_id":"dd51e42e-76c5-4a71-b86f-36ea61792ecb","system_id":"levelo_inurba_marseille","lat":43.241782,"lon":5.397264,"is_reserved":false,"is_disabled":false,"rental_uris":{"android":"levelo://app?vid=dd51e42e-76c5-4a71-b86f-36ea61792ecb","ios":"levelo://app?vid=dd51e42e-76c5-4a71-b86f-36ea61792ecb"},"vehicle_type_id":"4","last_reported":1702191980,"current_range_meters":13200,"station_id":"ce4bhn12rcd13ifvqgpg","pricing_plan_id":"free"},{"bike_id":"5bfc6137-deaa-46c8-b023-706fbe757221","system_id":"levelo_inurba_marseille","lat":43.241782,"lon":5.397261,"is_reserved":false,"is_disabled":false,"rental_uris":{"android":"levelo://app?vid=5bfc6137-deaa-46c8-b023-706fbe757221","ios":"levelo://app?vid=5bfc6137-deaa-46c8-b023-706fbe757221"},"vehicle_type_id":"4","last_reported":1702191980,"current_range_meters":30800,"station_id":"ce4bhn12rcd13ifvqgpg","pricing_plan_id":"free"},{"bike_id":"696980ad-f9d9-4995-b1c3-ecede5046486","system_id":"levelo_inurba_marseille","lat":43.241782,"lon":5.397261,"is_reserved":false,"is_disabled":false,"rental_uris":{"android":"levelo://app?vid=696980ad-f9d9-4995-b1c3-ecede5046486","ios":"levelo://app?vid=696980ad-f9d9-4995-b1c3-ecede5046486"},"vehicle_type_id":"4","last_reported":1702191980,"current_range_meters":24800,"station_id":"ce4bhn12rcd13ifvqgpg","pricing_plan_id":"free"},{"bike_id":"ab17fc38-eb79-448d-9157-5f64e2805185","system_id":"levelo_inurba_marseille","lat":43.23198,"lon":5.355449,"is_reserved":false,"is_disabled":false,"rental_uris":{"android":"levelo://app?vid=ab17fc38-eb79-448d-9157-5f64e2805185","ios":"levelo://app?vid=ab17fc38-eb79-448d-9157-5f64e2805185"},"vehicle_type_id":"4","last_reported":1702191980,"current_range_meters":11200,"station_id":"ce4bhu92rcd13ifvqi70","pricing_plan_id":"free"},{"bike_id":"db837267-81e3-439e-98cb-2684c730942d","system_id":"levelo_inurba_marseille","lat":43.231975,"lon":5.355455,"is_reserved":false,"is_disabled":false,"rental_uris":{"android":"levelo://app?vid=db837267-81e3-439e-98cb-2684c730942d","ios":"levelo://app?vid=db837267-81e3-439e-98cb-2684c730942d"},"vehicle_type_id":"4","last_reported":1702191980,"current_range_meters":17200,"station_id":"ce4bhu92rcd13ifvqi70","pricing_plan_id":"free"},{"bike_id":"efdf0b62-a012-45f2-a093-48aedd562b0c","system_id":"levelo_inurba_marseille","lat":43.231919,"lon":5.355532,"is_reserved":false,"is_disabled":false,"rental_uris":{"android":"levelo://app?vid=efdf0b62-a012-45f2-a093-48aedd562b0c","ios":"levelo://app?vid=efdf0b62-a012-45f2-a093-48aedd562b0c"},"vehicle_type_id":"4","last_reported":1702191980,"current_range_meters":19200,"station_id":"ce4bhu92rcd13ifvqi70","pricing_plan_id":"free"},{"bike_id":"88360225-83fa-42a7-aa9d-04d6e2f27256","system_id":"levelo_inurba_marseille","lat":43.231919,"lon":5.355532,"is_reserved":false,"is_disabled":false,"rental_uris":{"android":"levelo://app?vid=88360225-83fa-42a7-aa9d-04d6e2f27256","ios":"levelo://app?vid=88360225-83fa-42a7-aa9d-04d6e2f27256"},"vehicle_type_id":"4","last_reported":1702191980,"current_range_meters":31200,"station_id":"ce4bhu92rcd13ifvqi70","pricing_plan_id":"free"},{"bike_id":"77ff2e74-dd46-4c2a-95b8-5c28a2c2f2c9","system_id":"levelo_inurba_marseille","lat":43.231919,"lon":5.355532,"is_reserved":false,"is_disabled":false,"rental_uris":{"android":"levelo://app?vid=77ff2e74-dd46-4c2a-95b8-5c28a2c2f2c9","ios":"levelo://app?vid=77ff2e74-dd46-4c2a-95b8-5c28a2c2f2c9"},"vehicle_type_id":"4","last_reported":1702191980,"current_range_meters":12000,"station_id":"ce4bhu92rcd13ifvqi70","pricing_plan_id":"free"},{"bike_id":"bb7bc747-ded6-4030-8110-5ea800f6fe96","system_id":"levelo_inurba_marseille","lat":43.231919,"lon":5.355532,"is_reserved":false,"is_disabled":false,"rental_uris":{"android":"levelo://app?vid=bb7bc747-ded6-4030-8110-5ea800f6fe96","ios":"levelo://app?vid=bb7bc747-ded6-4030-8110-5ea800f6fe96"},"vehicle_type_id":"4","last_reported":1702191980,"current_range_meters":6000,"station_id":"ce4bhu92rcd13ifvqi70","pricing_plan_id":"free"},{"bike_id":"8b55a09a-4145-4ec5-a5e4-2721ec70ed5c","system_id":"levelo_inurba_marseille","lat":43.23195,"lon":5.355485,"is_reserved":false,"is_disabled":false,"rental_uris":{"android":"levelo://app?vid=8b55a09a-4145-4ec5-a5e4-2721ec70ed5c","ios":"levelo://app?vid=8b55a09a-4145-4ec5-a5e4-2721ec70ed5c"},"vehicle_type_id":"4","last_reported":1702191980,"current_range_meters":12000,"station_id":"ce4bhu92rcd13ifvqi70","pricing_plan_id":"free"},{"bike_id":"bf6071ec-6f6f-44cb-a34f-a35e0ed40cbc","system_id":"levelo_inurba_marseille","lat":43.231923,"lon":5.355545,"is_reserved":false,"is_disabled":false,"rental_uris":{"android":"levelo://app?vid=bf6071ec-6f6f-44cb-a34f-a35e0ed40cbc","ios":"levelo://app?vid=bf6071ec-6f6f-44cb-a34f-a35e0ed40cbc"},"vehicle_type_id":"4","last_reported":1702191980,"current_range_meters":2000,"station_id":"ce4bhu92rcd13ifvqi70","pricing_plan_id":"free"},{"bike_id":"529449ae-9bd0-4a42-b2ad-b913b1c62c25","system_id":"levelo_inurba_marseille","lat":43.231919,"lon":5.355532,"is_reserved":false,"is_disabled":false,"rental_uris":{"android":"levelo://app?vid=529449ae-9bd0-4a42-b2ad-b913b1c62c25","ios":"levelo://app?vid=529449ae-9bd0-4a42-b2ad-b913b1c62c25"},"vehicle_type_id":"4","last_reported":1702191980,"current_range_meters":29200,"station_id":"ce4bhu92rcd13ifvqi70","pricing_plan_id":"free"},{"bike_id":"a8c501f0-1f0c-4126-b8d3-0e787022ce6a","system_id":"levelo_inurba_marseille","lat":43.231919,"lon":5.355532,"is_reserved":false,"is_disabled":false,"rental_uris":{"android":"levelo://app?vid=a8c501f0-1f0c-4126-b8d3-0e787022ce6a","ios":"levelo://app?vid=a8c501f0-1f0c-4126-b8d3-0e787022ce6a"},"vehicle_type_id":"4","last_reported":1702191980,"current_range_meters":31200,"station_id":"ce4bhu92rcd13ifvqi70","pricing_plan_id":"free"},{"bike_id":"446663db-0ff0-41b4-80f1-111b68ced5a4","system_id":"levelo_inurba_marseille","lat":43.23191,"lon":5.35547,"is_reserved":false,"is_disabled":false,"rental_uris":{"android":"levelo://app?vid=446663db-0ff0-41b4-80f1-111b68ced5a4","ios":"levelo://app?vid=446663db-0ff0-41b4-80f1-111b68ced5a4"},"vehicle_type_id":"4","last_reported":1702191980,"current_range_meters":15600,"station_id":"ce4bhu92rcd13ifvqi70","pricing_plan_id":"free"},{"bike_id":"22cd89f2-b023-439e-829d-c2731be2db27","system_id":"levelo_inurba_marseille","lat":43.231794,"lon":5.400052,"is_reserved":false,"is_disabled":false,"rental_uris":{"android":"levelo://app?vid=22cd89f2-b023-439e-829d-c2731be2db27","ios":"levelo://app?vid=22cd89f2-b023-439e-829d-c2731be2db27"},"vehicle_type_id":"4","last_reported":1702191980,"current_range_meters":3600,"station_id":"ce4bhn12rcd13ifvqgqg","pricing_plan_id":"free"},{"bike_id":"291500d0-9d8c-4548-9a9d-9a7f79b46317","system_id":"levelo_inurba_marseille","lat":43.231794,"lon":5.400052,"is_reserved":false,"is_disabled":false,"rental_uris":{"android":"levelo://app?vid=291500d0-9d8c-4548-9a9d-9a7f79b46317","ios":"levelo://app?vid=291500d0-9d8c-4548-9a9d-9a7f79b46317"},"vehicle_type_id":"4","last_reported":1702191980,"current_range_meters":31200,"station_id":"ce4bhn12rcd13ifvqgqg","pricing_plan_id":"free"},{"bike_id":"bfbb4102-66c5-4281-8850-ca35098b4665","system_id":"levelo_inurba_marseille","lat":43.231794,"lon":5.400052,"is_reserved":false,"is_disabled":false,"rental_uris":{"android":"levelo://app?vid=bfbb4102-66c5-4281-8850-ca35098b4665","ios":"levelo://app?vid=bfbb4102-66c5-4281-8850-ca35098b4665"},"vehicle_type_id":"4","last_reported":1702191980,"current_range_meters":23200,"station_id":"ce4bhn12rcd13ifvqgqg","pricing_plan_id":"free"},{"bike_id":"80019cd3-e779-4c71-b181-3cecb4aeecdb","system_id":"levelo_inurba_marseille","lat":43.231794,"lon":5.400052,"is_reserved":false,"is_disabled":false,"rental_uris":{"android":"levelo://app?vid=80019cd3-e779-4c71-b181-3cecb4aeecdb","ios":"levelo://app?vid=80019cd3-e779-4c71-b181-3cecb4aeecdb"},"vehicle_type_id":"4","last_reported":1702191980,"current_range_meters":10800,"station_id":"ce4bhn12rcd13ifvqgqg","pricing_plan_id":"free"},{"bike_id":"92e5148d-4fb4-4386-8a07-4b4b7dd6e12c","system_id":"levelo_inurba_marseille","lat":43.231793,"lon":5.400044,"is_reserved":false,"is_disabled":false,"rental_uris":{"android":"levelo://app?vid=92e5148d-4fb4-4386-8a07-4b4b7dd6e12c","ios":"levelo://app?vid=92e5148d-4fb4-4386-8a07-4b4b7dd6e12c"},"vehicle_type_id":"4","last_reported":1702191980,"current_range_meters":30000,"station_id":"ce4bhn12rcd13ifvqgqg","pricing_plan_id":"free"},{"bike_id":"0c4daa76-20b2-44aa-8f00-39adef08a916","system_id":"levelo_inurba_marseille","lat":43.231562,"lon":5.436933,"is_reserved":false,"is_disabled":false,"rental_uris":{"android":"levelo://app?vid=0c4daa76-20b2-44aa-8f00-39adef08a916","ios":"levelo://app?vid=0c4daa76-20b2-44aa-8f00-39adef08a916"},"vehicle_type_id":"4","last_reported":1702191980,"current_range_meters":30400,"station_id":"ce4bhmp2rcd13ifvqgog","pricing_plan_id":"free"}]}}