{"last_updated":1725120603,"ttl":30,"version":"2.2","data":{"bikes":[{"bike_id":"27334621-6e37-4ee7-abd7-1acdb6ed94f0","system_id":"levelo_inurba_marseille","lat":43.312239,"lon":5.368562,"is_reserved":false,"is_disabled":false,"rental_uris":{"android":"levelo://app?vid=27334621-6e37-4ee7-abd7-1acdb6ed94f0","ios":"levelo://app?vid=27334621-6e37-4ee7-abd7-1acdb6ed94f0"},"vehicle_type_id":"4","last_reported":1725120603,"current_range_meters":12800,"station_id":"ce4bgl92rcd13ifvqbq0","pricing_plan_id":"cebpf4jnsgd1na2vs0mg"},{"bike_id":"ae2d671e-9f60-4c59-8482-6a172c56318e","system_id":"levelo_inurba_marseille","lat":43.314811,"lon":5.373103,"is_reserved":false,"is_disabled":false,"rental_uris":{"android":"levelo://app?vid=ae2d671e-9f60-4c59-8482-6a172c56318e","ios":"levelo://app?vid=ae2d671e-9f60-4c59-8482-6a172c56318e"},"vehicle_type_id":"4","last_reported":1725120603,"current_range_meters":24400,"station_id":"ce4bgt12rcd13ifvqcd0","pricing_plan_id":"cebpf4jnsgd1na2vs0mg"},{"bike_id":"390901bc-eb87-4dfb-8f64-4ca1b1670b68","system_id":"levelo_inurba_marseille","lat":43.314811,"lon":5.373103,"is_reserved":false,"is_disabled":false,"rental_uris":{"android":"levelo://app?vid=390901bc-eb87-4dfb-8f64-4ca1b1670b68","ios":"levelo://app?vid=390901bc-eb87-4dfb-8f64-4ca1b1670b68"},"vehicle_type_id":"4","last_reported":1725120603,"current_range_meters":7600,"station_id":"ce4bgt12rcd13ifvqcd0","pricing_plan_id":"cebpf4jnsgd1na2vs0mg"},{"bike_id":"6270d409-ab02-4acf-bdfb-ab16fdb3fc80","system_id":"levelo_inurba_marseille","lat":43.305712,"lon":5.365641,"is_reserved":false,"is_disabled":false,"rental_uris":{"android":"levelo://app?vid=6270d409-ab02-4acf-bdfb-ab16fdb3fc80","ios":"levelo://app?vid=6270d409-ab02-4acf-bdfb-ab16fdb3fc80"},"vehicle_type_id":"4","last_reported":1725120603,"current_range_meters":13200,"station_id":"ce4bgs12rcd13ifvqcag","pricing_plan_id":"cebpf4jnsgd1na2vs0mg"},{"bike_id":"aa78b556-5f64-41f9-8ad6-e6dd36e0b218","system_id":"levelo_inurba_marseille","lat":43.30539,"lon":5.3656,"is_reserved":false,"is_disabled":false,"rental_uris":{"android":"levelo://app?vid=aa78b556-5f64-41f9-8ad6-e6dd36e0b218","ios":"levelo://app?vid=aa78b556-5f64-41f9-8ad6-e6dd36e0b218"},"vehicle_type_id":"4","last_reported":1725120603,"current_range_meters":0,"station_id":"ce4bgs12rcd13ifvqcag","pricing_plan_id":"cebpf4jnsgd1na2vs0mg"},{"bike_id":"aa038c47-f36e-4e1c-9dcb-cd3e2085bfe1","system_id":"levelo_inurba_marseille","lat":43.311821,"lon":5.377199,"is_reserved":false,"is_disabled":false,"rental_uris":{"android":"levelo://app?vid=aa038c47-f36e-4e1c-9dcb-cd3e2085bfe1","ios":"levelo://app?vid=aa038c47-f36e-4e1c-9dcb-cd3e2085bfe1"},"vehicle_type_id":"4","last_reported":1725120603,"current_range_meters":400,"station_id":"","pricing_plan_id":"cebpf4jnsgd1na2vs0mg"},{"bike_id":"282aed0f-13c3-49ef-9fac-eec5fa992ce0","system_id":"levelo_inurba_marseille","lat":43.307945,"lon":5.376487,"is_reserved":false,"is_disabled":false,"rental_uris":{"android":"levelo://app?vid=282aed0f-13c3-49ef-9fac-eec5fa992ce0","ios":"levelo://app?vid=282aed0f-13c3-49ef-9fac-eec5fa992ce0"},"vehicle_type_id":"4","last_reported":1725120603,"current_range_meters":7200,"station_id":"ce4bgv92rcd13ifvqcq0","pricing_plan_id":"cebpf4jnsgd1na2vs0mg"},{"bike_id":"731a2f59-8886-4ac0-a34b-8c7429b6d6be","system_id":"levelo_inurba_marseille","lat":43.303403,"lon":5.370827,"is_reserved":false,"is_disabled":false,"rental_uris":{"android":"levelo://app?vid=731a2f59-8886-4ac0-a34b-8c7429b6d6be","ios":"levelo://app?vid=731a2f59-8886-4ac0-a34b-8c7429b6d6be"},"vehicle_type_id":"4","last_reported":1725120603,"current_range_meters":400,"station_id":"","pricing_plan_id":"cebpf4jnsgd1na2vs0mg"},{"bike_id":"4ef26142-59be-4649-9307-5819d3bdcf4c","system_id":"levelo_inurba_marseille","lat":43.303046,"lon":5.368981,"is_reserved":false,"is_disabled":false,"rental_uris":{"android":"levelo://app?vid=4ef26142-59be-4649-9307-5819d3bdcf4c","ios":"levelo://app?vid=4ef26142-59be-4649-9307-5819d3bdcf4c"},"vehicle_type_id":"4","last_reported":1725120603,"current_range_meters":0,"station_id":"ce4bgqh2rcd13ifvqc5g","pricing_plan_id":"cebpf4jnsgd1na2vs0mg"},{"bike_id":"d7067e4c-db75-43a5-a823-b22ae18f0ea8","system_id":"levelo_inurba_marseille","lat":43.31426,"lon":5.38062,"is_reserved":false,"is_disabled":false,"rental_uris":{"android":"levelo://app?vid=d7067e4c-db75-43a5-a823-b22ae18f0ea8","ios":"levelo://app?vid=d7067e4c-db75-43a5-a823-b22ae18f0ea8"},"vehicle_type_id":"4","last_reported":1725120603,"current_range_meters":7200,"station_id":"","pricing_plan_id":"cebpf4jnsgd1na2vs0mg"},{"bike_id":"345f673b-3b24-4ead-b925-ac761cbcdb02","system_id":"levelo_inurba_marseille","lat":43.30269,"lon":5.36876,"is_reserved":false,"is_disabled":false,"rental_uris":{"android":"levelo://app?vid=345f673b-3b24-4ead-b925-ac761cbcdb02","ios":"levelo://app?vid=345f673b-3b24-4ead-b925-ac761cbcdb02"},"vehicle_type_id":"4","last_reported":1725120603,"current_range_meters":0,"station_id":"ce4bgqh2rcd13ifvqc5g","pricing_plan_id":"cebpf4jnsgd1na2vs0mg"},{"bike_id":"a4beddbc-b151-4b73-93f1-ab707733d831","system_id":"levelo_inurba_marseille","lat":43.30186,"lon":5.36609,"is_reserved":false,"is_disabled":false,"rental_uris":{"android":"levelo://app?vid=a4beddbc-b151-4b73-93f1-ab707733d831","ios":"levelo://app?vid=a4beddbc-b151-4b73-93f1-ab707733d831"},"vehicle_type_id":"4","last_reported":1725120603,"current_range_meters":23600,"station_id":"ce4bgrh2rcd13ifvqc8g","pricing_plan_id":"cebpf4jnsgd1na2vs0mg"},{"bike_id":"fe0c797e-e2dc-4240-bed1-fdf32b2820cc","system_id":"levelo_inurba_marseille","lat":43.308012,"lon":5.381511,"is_reserved":false,"is_disabled":false,"rental_uris":{"android":"levelo://app?vid=fe0c797e-e2dc-4240-bed1-fdf32b2820cc","ios":"levelo://app?vid=fe0c797e-e2dc-4240-bed1-fdf32b2820cc"},"vehicle_type_id":"4","last_reported":1725120603,"current_range_meters":30400,"station_id":"ce4bgt12rcd13ifvqce0","pricing_plan_id":"cebpf4jnsgd1na2vs0mg"},{"bike_id":"d762b88e-f137-4468-abb5-e2a1f89c205b","system_id":"levelo_inurba_marseille","lat":43.304606,"lon":5.379026,"is_reserved":false,"is_disabled":false,"rental_uris":{"android":"levelo://app?vid=d762b88e-f137-4468-abb5-e2a1f89c205b","ios":"levelo://app?vid=d762b88e-f137-4468-abb5-e2a1f89c205b"},"vehicle_type_id":"4","last_reported":1725120603,"current_range_meters":8400,"station_id":"ce4bgup2rcd13ifvqcn0","pricing_plan_id":"cebpf4jnsgd1na2vs0mg"},{"bike_id":"33111f6c-7bf4-42c5-928c-b35fb24b17ce","system_id":"levelo_inurba_marseille","lat":43.304606,"lon":5.379026,"is_reserved":false,"is_disabled":false,"rental_uris":{"android":"levelo://app?vid=33111f6c-7bf4-42c5-928c-b35fb24b17ce","ios":"levelo://app?vid=33111f6c-7bf4-42c5-928c-b35fb24b17ce"},"vehicle_type_id":"4","last_reported":1725120603,"current_range_meters":30000,"station_id":"ce4bgup2rcd13ifvqcn0","pricing_plan_id":"cebpf4jnsgd1na2vs0mg"},{"bike_id":"62b9804a-9905-4d0e-9b27-b7d48b145d37","system_id":"levelo_inurba_marseille","lat":43.32477,"lon":5.36565,"is_reserved":false,"is_disabled":false,"rental_uris":{"android":"levelo://app?vid=62b9804a-9905-4d0e-9b27-b7d48b145d37","ios":"levelo://app?vid=62b9804a-9905-4d0e-9b27-b7d48b145d37"},"vehicle_type_id":"4","last_reported":1725120603,"current_range_meters":800,"station_id":"ce4bhs12rcd13ifvqhvg","pricing_plan_id":"cebpf4jnsgd1na2vs0mg"},{"bike_id":"8dcbdef2-7c38-444f-a4d7-d401e5d95ee5","system_id":"levelo_inurba_marseille","lat":43.324771,"lon":5.36557,"is_reserved":false,"is_disabled":false,"rental_uris":{"android":"levelo://app?vid=8dcbdef2-7c38-444f-a4d7-d401e5d95ee5","ios":"levelo://app?vid=8dcbdef2-7c38-444f-a4d7-d401e5d95ee5"},"vehicle_type_id":"4","last_reported":1725120603,"current_range_meters":16800,"station_id":"ce4bhs12rcd13ifvqhvg","pricing_plan_id":"cebpf4jnsgd1na2vs0mg"},{"bike_id":"d20cdff8-55d0-4d2f-a182-7a6b0000141b","system_id":"levelo_inurba_marseille","lat":43.324771,"lon":5.36557,"is_reserved":false,"is_disabled":false,"rental_uris":{"android":"levelo://app?vid=d20cdff8-55d0-4d2f-a182-7a6b0000141b","ios":"levelo://app?vid=d20cdff8-55d0-4d2f-a182-7a6b0000141b"},"vehicle_type_id":"4","last_reported":1725120603,"current_range_meters":13200,"station_id":"ce4bhs12rcd13ifvqhvg","pricing_plan_id":"cebpf4jnsgd1na2vs0mg"},{"bike_id":"b8150eca-b72d-414c-872c-f631a202c6c6","system_id":"levelo_inurba_marseille","lat":43.324771,"lon":5.36557,"is_reserved":false,"is_disabled":false,"rental_uris":{"android":"levelo://app?vid=b8150eca-b72d-414c-872c-f631a202c6c6","ios":"levelo://app?vid=b8150eca-b72d-414c-872c-f631a202c6c6"},"vehicle_type_id":"4","last_reported":1725120603,"current_range_meters":31600,"station_id":"ce4bhs12rcd13ifvqhvg","pricing_plan_id":"cebpf4jnsgd1na2vs0mg"},{"bike_id":"7316d8aa-3560-46c9-aa52-4736756a88ae","system_id":"levelo_inurba_marseille","lat":43.32482,"lon":5.365753,"is_reserved":false,"is_disabled":false,"rental_uris":{"android":"levelo://app?vid=7316d8aa-3560-46c9-aa52-4736756a88ae","ios":"levelo://app?vid=7316d8aa-3560-46c9-aa52-4736756a88ae"},"vehicle_type_id":"4","last_reported":1725120603,"current_range_meters":16800,"station_id":"ce4bhs12rcd13ifvqhvg","pricing_plan_id":"cebpf4jnsgd1na2vs0mg"},{"bike_id":"2c92ba21-ba11-4933-99a3-45c5a027f2bc","system_id":"levelo_inurba_marseille","lat":43.32483,"lon":5.36566,"is_reserved":false,"is_disabled":false,"rental_uris":{"android":"levelo://app?vid=2c92ba21-ba11-4933-99a3-45c5a027f2bc","ios":"levelo://app?vid=2c92ba21-ba11-4933-99a3-45c5a027f2bc"},"vehicle_type_id":"4","last_reported":1725120603,"current_range_meters":20000,"station_id":"ce4bhs12rcd13ifvqhvg","pricing_plan_id":"cebpf4jnsgd1na2vs0mg"},{"bike_id":"78a49b4e-6a90-4719-a2a8-5d7200793c90","system_id":"levelo_inurba_marseille","lat":43.324771,"lon":5.36557,"is_reserved":false,"is_disabled":false,"rental_uris":{"android":"levelo://app?vid=78a49b4e-6a90-4719-a2a8-5d7200793c90","ios":"levelo://app?vid=78a49b4e-6a90-4719-a2a8-5d7200793c90"},"vehicle_type_id":"4","last_reported":1725120603,"current_range_meters":10800,"station_id":"ce4bhs12rcd13ifvqhvg","pricing_plan_id":"cebpf4jnsgd1na2vs0mg"},{"bike_id":"57910b69-e270-45c5-93ac-f946ad251310","system_id":"levelo_inurba_marseille","lat":43.324771,"lon":5.36557,"is_reserved":false,"is_disabled":false,"rental_uris":{"android":"levelo://app?vid=57910b69-e270-45c5-93ac-f946ad251310","ios":"levelo://app?vid=57910b69-e270-45c5-93ac-f946ad251310"},"vehicle_type_id":"4","last_reported":1725120603,"current_range_meters":12000,"station_id":"ce4bhs12rcd13ifvqhvg","pricing_plan_id":"cebpf4jnsgd1na2vs0mg"},{"bike_id":"24c50910-519d-489e-9549-82c141f0bc46","system_id":"levelo_inurba_marseille","lat":43.324771,"lon":5.36557,"is_reserved":false,"is_disabled":false,"rental_uris":{"android":"levelo://app?vid=24c50910-519d-489e-9549-82c141f0bc46","ios":"levelo://app?vid=24c50910-519d-489e-9549-82c141f0bc46"},"vehicle_type_id":"4","last_reported":1725120603,"current_range_meters":2400,"station_id":"ce4bhs12rcd13ifvqhvg","pricing_plan_id":"cebpf4jnsgd1na2vs0mg"},{"bike_id":"d0de59c2-395e-4064-a9eb-ae9d49ff8698","system_id":"levelo_inurba_marseille","lat":43.324771,"lon":5.36557,"is_reserved":false,"is_disabled":false,"rental_uris":{"android":"levelo://app?vid=d0de59c2-395e-4064-a9eb-ae9d49ff8698","ios":"levelo://app?vid=d0de59c2-395e-4064-a9eb-ae9d49ff8698"},"vehicle_type_id":"4","last_reported":1725120603,"current_range_meters":400,"station_id":"ce4bhs12rcd13ifvqhvg","pricing_plan_id":"cebpf4jnsgd1na2vs0mg"},{"bike_id":"d21bc836-f56d-4258-b042-a1ad302300e1","system_id":"levelo_inurba_marseille","lat":43.32487,"lon":5.36554,"is_reserved":false,"is_disabled":false,"rental_uris":{"android":"levelo://app?vid=d21bc836-f56d-4258-b042-a1ad302300e1","ios":"levelo://app?vid=d21bc836-f56d-4258-b042-a1ad302300e1"},"vehicle_type_id":"4","last_reported":1725120603,"current_range_meters":30800,"station_id":"ce4bhs12rcd13ifvqhvg","pricing_plan_id":"cebpf4jnsgd1na2vs0mg"},{"bike_id":"b46cb1c1-2124-4eb0-b5fc-61f447df6f7a","system_id":"levelo_inurba_marseille","lat":43.324771,"lon":5.36557,"is_reserved":false,"is_disabled":false,"rental_uris":{"android":"levelo://app?vid=b46cb1c1-2124-4eb0-b5fc-61f447df6f7a","ios":"levelo://app?vid=b46cb1c1-2124-4eb0-b5fc-61f447df6f7a"},"vehicle_type_id":"4","last_reported":1725120603,"current_range_meters":31200,"station_id":"ce4bhs12rcd13ifvqhvg","pricing_plan_id":"cebpf4jnsgd1na2vs0mg"},{"bike_id":"a2072927-2319-4c76-a6e1-88d0e654b123","system_id":"levelo_inurba_marseille","lat":43.3249,"lon":5.36566,"is_reserved":false,"is_disabled":false,"rental_uris":{"android":"levelo://app?vid=a2072927-2319-4c76-a6e1-88d0e654b123","ios":"levelo://app?vid=a2072927-2319-4c76-a6e1-88d0e654b123"},"vehicle_type_id":"4","last_reported":1725120603,"current_range_meters":31200,"station_id":"ce4bhs12rcd13ifvqhvg","pricing_plan_id":"cebpf4jnsgd1na2vs0mg"},{"bike_id":"a2ff065d-55f9-4859-ab84-f5aacd396114","system_id":"levelo_inurba_marseille","lat":43.324771,"lon":5.36557,"is_reserved":false,"is_disabled":false,"rental_uris":{"android":"levelo://app?vid=a2ff065d-55f9-4859-ab84-f5aacd396114","ios":"levelo://app?vid=a2ff065d-55f9-4859-ab84-f5aacd396114"},"vehicle_type_id":"4","last_reported":1725120603,"current_range_meters":4400,"station_id":"ce4bhs12rcd13ifvqhvg","pricing_plan_id":"cebpf4jnsgd1na2vs0mg"},{"bike_id":"9e7b2b54-abf9-4e3f-a80f-58cea00c3147","system_id":"levelo_inurba_marseille","lat":43.302784,"lon":5.377158,"is_reserved":false,"is_disabled":false,"rental_uris":{"android":"levelo://app?vid=9e7b2b54-abf9-4e3f-a80f-58cea00c3147","ios":"levelo://app?vid=9e7b2b54-abf9-4e3f-a80f-58cea00c3147"},"vehicle_type_id":"4","last_reported":1725120603,"current_range_meters":400,"station_id":"ce4bguh2rcd13ifvqcj0","pricing_plan_id":"cebpf4jnsgd1na2vs0mg"},{"bike_id":"6aa3597d-ad4e-4fcf-9a66-adfba81492cc","system_id":"levelo_inurba_marseille","lat":43.31994,"lon":5.38159,"is_reserved":false,"is_disabled":false,"rental_uris":{"android":"levelo://app?vid=6aa3597d-ad4e-4fcf-9a66-adfba81492cc","ios":"levelo://app?vid=6aa3597d-ad4e-4fcf-9a66-adfba81492cc"},"vehicle_type_id":"4","last_reported":1725120603,"current_range_meters":20800,"station_id":"ce4bhr12rcd13ifvqhpg","pricing_plan_id":"cebpf4jnsgd1na2vs0mg"},{"bike_id":"23717bb0-71de-4c5d-827a-3ecf304c14ec","system_id":"levelo_inurba_marseille","lat":43.319935,"lon":5.381699,"is_reserved":false,"is_disabled":false,"rental_uris":{"android":"levelo://app?vid=23717bb0-71de-4c5d-827a-3ecf304c14ec","ios":"levelo://app?vid=23717bb0-71de-4c5d-827a-3ecf304c14ec"},"vehicle_type_id":"4","last_reported":1725120603,"current_range_meters":19600,"station_id":"ce4bhr12rcd13ifvqhpg","pricing_plan_id":"cebpf4jnsgd1na2vs0mg"},{"bike_id":"1201a61b-acf5-4535-8ebd-f45ca40204b3","system_id":"levelo_inurba_marseille","lat":43.313571,"lon":5.384829,"is_reserved":false,"is_disabled":false,"rental_uris":{"android":"levelo://app?vid=1201a61b-acf5-4535-8ebd-f45ca40204b3","ios":"levelo://app?vid=1201a61b-acf5-4535-8ebd-f45ca40204b3"},"vehicle_type_id":"4","last_reported":1725120603,"current_range_meters":14000,"station_id":"ce4bgt92rcd13ifvqcf0","pricing_plan_id":"cebpf4jnsgd1na2vs0mg"},{"bike_id":"7278fa05-a550-4d3e-a566-33b67f7bfb82","system_id":"levelo_inurba_marseille","lat":43.2994,"lon":5.36541,"is_reserved":false,"is_disabled":false,"rental_uris":{"android":"levelo://app?vid=7278fa05-a550-4d3e-a566-33b67f7bfb82","ios":"levelo://app?vid=7278fa05-a550-4d3e-a566-33b67f7bfb82"},"vehicle_type_id":"4","last_reported":1725120603,"current_range_meters":23600,"station_id":"","pricing_plan_id":"cebpf4jnsgd1na2vs0mg"},{"bike_id":"5a33c289-7f18-43a0-a229-d0679bfb753c","system_id":"levelo_inurba_marseille","lat":43.299724,"lon":5.371829,"is_reserved":false,"is_disabled":false,"rental_uris":{"android":"levelo://app?vid=5a33c289-7f18-43a0-a229-d0679bfb753c","ios":"levelo://app?vid=5a33c289-7f18-43a0-a229-d0679bfb753c"},"vehicle_type_id":"4","last_reported":1725120603,"current_range_meters":12800,"station_id":"ce4bgr92rcd13ifvqc7g","pricing_plan_id":"cebpf4jnsgd1na2vs0mg"},{"bike_id":"636ddf55-d60c-4122-806e-f3a0a0c62128","system_id":"levelo_inurba_marseille","lat":43.305364,"lon":5.384119,"is_reserved":false,"is_disabled":false,"rental_uris":{"android":"levelo://app?vid=636ddf55-d60c-4122-806e-f3a0a0c62128","ios":"levelo://app?vid=636ddf55-d60c-4122-806e-f3a0a0c62128"},"vehicle_type_id":"4","last_reported":1725120603,"current_range_meters":12000,"station_id":"ce4bgg92rcd13ifvqb30","pricing_plan_id":"cebpf4jnsgd1na2vs0mg"},{"bike_id":"db247262-efbd-4789-9205-e431d4d9a940","system_id":"levelo_inurba_marseille","lat":43.305364,"lon":5.384119,"is_reserved":false,"is_disabled":false,"rental_uris":{"android":"levelo://app?vid=db247262-efbd-4789-9205-e431d4d9a940","ios":"levelo://app?vid=db247262-efbd-4789-9205-e431d4d9a940"},"vehicle_type_id":"4","last_reported":1725120603,"current_range_meters":1200,"station_id":"ce4bgg92rcd13ifvqb30","pricing_plan_id":"cebpf4jnsgd1na2vs0mg"},{"bike_id":"c965ae74-1ff1-4144-890e-74b7b85292a2","system_id":"levelo_inurba_marseille","lat":43.305364,"lon":5.384119,"is_reserved":false,"is_disabled":false,"rental_uris":{"android":"levelo://app?vid=c965ae74-1ff1-4144-890e-74b7b85292a2","ios":"levelo://app?vid=c965ae74-1ff1-4144-890e-74b7b85292a2"},"vehicle_type_id":"4","last_reported":1725120603,"current_range_meters":28000,"station_id":"ce4bgg92rcd13ifvqb30","pricing_plan_id":"cebpf4jnsgd1na2vs0mg"},{"bike_id":"8a47ffa7-fa9f-4c3e-9af7-7f2d2f7b3350","system_id":"levelo_inurba_marseille","lat":43.30538,"lon":5.384353,"is_reserved":false,"is_disabled":false,"rental_uris":{"android":"levelo://app?vid=8a47ffa7-fa9f-4c3e-9af7-7f2d2f7b3350","ios":"levelo://app?vid=8a47ffa7-fa9f-4c3e-9af7-7f2d2f7b3350"},"vehicle_type_id":"4","last_reported":1725120603,"current_range_meters":0,"station_id":"ce4bgg92rcd13ifvqb30","pricing_plan_id":"cebpf4jnsgd1na2vs0mg"},{"bike_id":"f7abd65e-282d-4538-a2b2-916911c48bfb","system_id":"levelo_inurba_marseille","lat":43.311722,"lon":5.387247,"is_reserved":false,"is_disabled":false,"rental_uris":{"android":"levelo://app?vid=f7abd65e-282d-4538-a2b2-916911c48bfb","ios":"levelo://app?vid=f7abd65e-282d-4538-a2b2-916911c48bfb"},"vehicle_type_id":"4","last_reported":1725120603,"current_range_meters":10800,"station_id":"ce4bgv12rcd13ifvqcp0","pricing_plan_id":"cebpf4jnsgd1na2vs0mg"},{"bike_id":"029955b6-86f0-4e44-8d4d-9dc98f9bf3ba","system_id":"levelo_inurba_marseille","lat":43.311722,"lon":5.387247,"is_reserved":false,"is_disabled":false,"rental_uris":{"android":"levelo://app?vid=029955b6-86f0-4e44-8d4d-9dc98f9bf3ba","ios":"levelo://app?vid=029955b6-86f0-4e44-8d4d-9dc98f9bf3ba"},"vehicle_type_id":"4","last_reported":1725120603,"current_range_meters":800,"station_id":"ce4bgv12rcd13ifvqcp0","pricing_plan_id":"cebpf4jnsgd1na2vs0mg"},{"bike_id":"67bea417-a81f-4507-a102-518cde559c8a","system_id":"levelo_inurba_marseille","lat":43.301417,"lon":5.3809,"is_reserved":false,"is_disabled":false,"rental_uris":{"android":"levelo://app?vid=67bea417-a81f-4507-a102-518cde559c8a","ios":"levelo://app?vid=67bea417-a81f-4507-a102-518cde559c8a"},"vehicle_type_id":"4","last_reported":1725120603,"current_range_meters":30000,"station_id":"ce4bgjp2rcd13ifvqbh0","pricing_plan_id":"cebpf4jnsgd1na2vs0mg"},{"bike_id":"86f60cf3-51bf-4b0c-85bd-382329be5028","system_id":"levelo_inurba_marseille","lat":43.30147,"lon":5.3807,"is_reserved":false,"is_disabled":false,"rental_uris":{"android":"levelo://app?vid=86f60cf3-51bf-4b0c-85bd-382329be5028","ios":"levelo://app?vid=86f60cf3-51bf-4b0c-85bd-382329be5028"},"vehicle_type_id":"4","last_reported":1725120603,"current_range_meters":25600,"station_id":"ce4bgjp2rcd13ifvqbh0","pricing_plan_id":"cebpf4jnsgd1na2vs0mg"},{"bike_id":"581034d2-e64e-4195-836a-1d48cd4475eb","system_id":"levelo_inurba_marseille","lat":43.301417,"lon":5.3809,"is_reserved":false,"is_disabled":false,"rental_uris":{"android":"levelo://app?vid=581034d2-e64e-4195-836a-1d48cd4475eb","ios":"levelo://app?vid=581034d2-e64e-4195-836a-1d48cd4475eb"},"vehicle_type_id":"4","last_reported":1725120603,"current_range_meters":23200,"station_id":"ce4bgjp2rcd13ifvqbh0","pricing_plan_id":"cebpf4jnsgd1na2vs0mg"},{"bike_id":"7b5e3deb-5bc0-48f7-a454-a80065d87366","system_id":"levelo_inurba_marseille","lat":43.301417,"lon":5.3809,"is_reserved":false,"is_disabled":false,"rental_uris":{"android":"levelo://app?vid=7b5e3deb-5bc0-48f7-a454-a80065d87366","ios":"levelo://app?vid=7b5e3deb-5bc0-48f7-a454-a80065d87366"},"vehicle_type_id":"4","last_reported":1725120603,"current_range_meters":10800,"station_id":"ce4bgjp2rcd13ifvqbh0","pricing_plan_id":"cebpf4jnsgd1na2vs0mg"},{"bike_id":"88d203f6-a7c1-44b9-b471-3a61b7bcc7d5","system_id":"levelo_inurba_marseille","lat":43.297794,"lon":5.370888,"is_reserved":false,"is_disabled":false,"rental_uris":{"android":"levelo://app?vid=88d203f6-a7c1-44b9-b471-3a61b7bcc7d5","ios":"levelo://app?vid=88d203f6-a7c1-44b9-b471-3a61b7bcc7d5"},"vehicle_type_id":"4","last_reported":1725120603,"current_range_meters":29600,"station_id":"ce4bgop2rcd13ifvqc1g","pricing_plan_id":"cebpf4jnsgd1na2vs0mg"},{"bike_id":"10aa21d0-5638-4fcc-8ba4-1786ca6d591d","system_id":"levelo_inurba_marseille","lat":43.297794,"lon":5.370888,"is_reserved":false,"is_disabled":false,"rental_uris":{"android":"levelo://app?vid=10aa21d0-5638-4fcc-8ba4-1786ca6d591d","ios":"levelo://app?vid=10aa21d0-5638-4fcc-8ba4-1786ca6d591d"},"vehicle_type_id":"4","last_reported":1725120603,"current_range_meters":11200,"station_id":"ce4bgop2rcd13ifvqc1g","pricing_plan_id":"cebpf4jnsgd1na2vs0mg"},{"bike_id":"60ff3900-1cd1-4527-ae10-64555afa6b11","system_id":"levelo_inurba_marseille","lat":43.32294,"lon":5.3825,"is_reserved":false,"is_disabled":false,"rental_uris":{"android":"levelo://app?vid=60ff3900-1cd1-4527-ae10-64555afa6b11","ios":"levelo://app?vid=60ff3900-1cd1-4527-ae10-64555afa6b11"},"vehicle_type_id":"4","last_reported":1725120603,"current_range_meters":19600,"station_id":"ce4bhr12rcd13ifvqhqg","pricing_plan_id":"cebpf4jnsgd1na2vs0mg"},{"bike_id":"60f28687-39ba-458e-b8e0-1deb617f9d05","system_id":"levelo_inurba_marseille","lat":43.297774,"lon":5.370875,"is_reserved":false,"is_disabled":false,"rental_uris":{"android":"levelo://app?vid=60f28687-39ba-458e-b8e0-1deb617f9d05","ios":"levelo://app?vid=60f28687-39ba-458e-b8e0-1deb617f9d05"},"vehicle_type_id":"4","last_reported":1725120603,"current_range_meters":14000,"station_id":"ce4bgop2rcd13ifvqc1g","pricing_plan_id":"cebpf4jnsgd1na2vs0mg"},{"bike_id":"a9bb2cff-c958-40e1-8088-1c503550df37","system_id":"levelo_inurba_marseille","lat":43.322872,"lon":5.382756,"is_reserved":false,"is_disabled":false,"rental_uris":{"android":"levelo://app?vid=a9bb2cff-c958-40e1-8088-1c503550df37","ios":"levelo://app?vid=a9bb2cff-c958-40e1-8088-1c503550df37"},"vehicle_type_id":"4","last_reported":1725120603,"current_range_meters":28400,"station_id":"ce4bhr12rcd13ifvqhqg","pricing_plan_id":"cebpf4jnsgd1na2vs0mg"},{"bike_id":"34c664bd-ceab-4525-a3ac-3195768b5894","system_id":"levelo_inurba_marseille","lat":43.322872,"lon":5.382756,"is_reserved":false,"is_disabled":false,"rental_uris":{"android":"levelo://app?vid=34c664bd-ceab-4525-a3ac-3195768b5894","ios":"levelo://app?vid=34c664bd-ceab-4525-a3ac-3195768b5894"},"vehicle_type_id":"4","last_reported":1725120603,"current_range_meters":31600,"station_id":"ce4bhr12rcd13ifvqhqg","pricing_plan_id":"cebpf4jnsgd1na2vs0mg"},{"bike_id":"affe9a07-c79c-4218-a73e-e990c361a62a","system_id":"levelo_inurba_marseille","lat":43.297788,"lon":5.372516,"is_reserved":false,"is_disabled":false,"rental_uris":{"android":"levelo://app?vid=affe9a07-c79c-4218-a73e-e990c361a62a","ios":"levelo://app?vid=affe9a07-c79c-4218-a73e-e990c361a62a"},"vehicle_type_id":"4","last_reported":1725120603,"current_range_meters":7600,"station_id":"","pricing_plan_id":"cebpf4jnsgd1na2vs0mg"},{"bike_id":"4f5d8cc5-2898-4383-9556-1220c973149a","system_id":"levelo_inurba_marseille","lat":43.297163,"lon":5.365866,"is_reserved":false,"is_disabled":false,"rental_uris":{"android":"levelo://app?vid=4f5d8cc5-2898-4383-9556-1220c973149a","ios":"levelo://app?vid=4f5d8cc5-2898-4383-9556-1220c973149a"},"vehicle_type_id":"4","last_reported":1725120603,"current_range_meters":2800,"station_id":"ce4bgn12rcd13ifvqbt0","pricing_plan_id":"cebpf4jnsgd1na2vs0mg"},{"bike_id":"5773f65e-296c-4494-8ee0-aaa1586ba102","system_id":"levelo_inurba_marseille","lat":43.297163,"lon":5.365866,"is_reserved":false,"is_disabled":false,"rental_uris":{"android":"levelo://app?vid=5773f65e-296c-4494-8ee0-aaa1586ba102","ios":"levelo://app?vid=5773f65e-296c-4494-8ee0-aaa1586ba102"},"vehicle_type_id":"4","last_reported":1725120603,"current_range_meters":0,"station_id":"ce4bgn12rcd13ifvqbt0","pricing_plan_id":"cebpf4jnsgd1na2vs0mg"},{"bike_id":"796b4150-4f85-493a-8e48-36cba07cce59","system_id":"levelo_inurba_marseille","lat":43.29846,"lon":5.37664,"is_reserved":false,"is_disabled":false,"rental_uris":{"android":"levelo://app?vid=796b4150-4f85-493a-8e48-36cba07cce59","ios":"levelo://app?vid=796b4150-4f85-493a-8e48-36cba07cce59"},"vehicle_type_id":"4","last_reported":1725120603,"current_range_meters":23600,"station_id":"","pricing_plan_id":"cebpf4jnsgd1na2vs0mg"},{"bike_id":"f80cfea7-0989-463e-af6c-8edcb451d63a","system_id":"levelo_inurba_marseille","lat":43.296611,"lon":5.368721,"is_reserved":false,"is_disabled":false,"rental_uris":{"android":"levelo://app?vid=f80cfea7-0989-463e-af6c-8edcb451d63a","ios":"levelo://app?vid=f80cfea7-0989-463e-af6c-8edcb451d63a"},"vehicle_type_id":"4","last_reported":1725120603,"current_range_meters":10400,"station_id":"","pricing_plan_id":"cebpf4jnsgd1na2vs0mg"},{"bike_id":"8a8887de-5c7d-4b1c-91b2-78e9c920b48d","system_id":"levelo_inurba_marseille","lat":43.29682,"lon":5.37286,"is_reserved":false,"is_disabled":false,"rental_uris":{"android":"levelo://app?vid=8a8887de-5c7d-4b1c-91b2-78e9c920b48d","ios":"levelo://app?vid=8a8887de-5c7d-4b1c-91b2-78e9c920b48d"},"vehicle_type_id":"4","last_reported":1725120603,"current_range_meters":31200,"station_id":"ce4bgk12rcd13ifvqbj0","pricing_plan_id":"cebpf4jnsgd1na2vs0mg"},{"bike_id":"fcece520-2271-4518-b118-39982250de16","system_id":"levelo_inurba_marseille","lat":43.2968,"lon":5.37291,"is_reserved":false,"is_disabled":false,"rental_uris":{"android":"levelo://app?vid=fcece520-2271-4518-b118-39982250de16","ios":"levelo://app?vid=fcece520-2271-4518-b118-39982250de16"},"vehicle_type_id":"4","last_reported":1725120603,"current_range_meters":4000,"station_id":"ce4bgk12rcd13ifvqbj0","pricing_plan_id":"cebpf4jnsgd1na2vs0mg"},{"bike_id":"16f86795-df61-41d0-8ad6-3d0d649e7f8e","system_id":"levelo_inurba_marseille","lat":43.296131,"lon":5.370791,"is_reserved":false,"is_disabled":false,"rental_uris":{"android":"levelo://app?vid=16f86795-df61-41d0-8ad6-3d0d649e7f8e","ios":"levelo://app?vid=16f86795-df61-41d0-8ad6-3d0d649e7f8e"},"vehicle_type_id":"4","last_reported":1725120603,"current_range_meters":8000,"station_id":"ce4bgnh2rcd13ifvqc0g","pricing_plan_id":"cebpf4jnsgd1na2vs0mg"},{"bike_id":"c78c069c-2f2c-4411-8f68-83fe1569bf28","system_id":"levelo_inurba_marseille","lat":43.29573,"lon":5.367355,"is_reserved":false,"is_disabled":false,"rental_uris":{"android":"levelo://app?vid=c78c069c-2f2c-4411-8f68-83fe1569bf28","ios":"levelo://app?vid=c78c069c-2f2c-4411-8f68-83fe1569bf28"},"vehicle_type_id":"4","last_reported":1725120603,"current_range_meters":23600,"station_id":"ce4bgph2rcd13ifvqc2g","pricing_plan_id":"cebpf4jnsgd1na2vs0mg"},{"bike_id":"309c7dfd-7fde-4b79-91ce-c41a6aa04785","system_id":"levelo_inurba_marseille","lat":43.299028,"lon":5.381509,"is_reserved":false,"is_disabled":false,"rental_uris":{"android":"levelo://app?vid=309c7dfd-7fde-4b79-91ce-c41a6aa04785","ios":"levelo://app?vid=309c7dfd-7fde-4b79-91ce-c41a6aa04785"},"vehicle_type_id":"4","last_reported":1725120603,"current_range_meters":6000,"station_id":"ce4bgj12rcd13ifvqbc0","pricing_plan_id":"cebpf4jnsgd1na2vs0mg"},{"bike_id":"fa50ea8a-322e-4369-b931-707b1b8621bc","system_id":"levelo_inurba_marseille","lat":43.30946,"lon":5.39022,"is_reserved":false,"is_disabled":false,"rental_uris":{"android":"levelo://app?vid=fa50ea8a-322e-4369-b931-707b1b8621bc","ios":"levelo://app?vid=fa50ea8a-322e-4369-b931-707b1b8621bc"},"vehicle_type_id":"4","last_reported":1725120603,"current_range_meters":0,"station_id":"ce4bgup2rcd13ifvqco0","pricing_plan_id":"cebpf4jnsgd1na2vs0mg"},{"bike_id":"f69a2793-7ffe-427e-9016-bc3c362906e7","system_id":"levelo_inurba_marseille","lat":43.309589,"lon":5.390258,"is_reserved":false,"is_disabled":false,"rental_uris":{"android":"levelo://app?vid=f69a2793-7ffe-427e-9016-bc3c362906e7","ios":"levelo://app?vid=f69a2793-7ffe-427e-9016-bc3c362906e7"},"vehicle_type_id":"4","last_reported":1725120603,"current_range_meters":0,"station_id":"ce4bgup2rcd13ifvqco0","pricing_plan_id":"cebpf4jnsgd1na2vs0mg"},{"bike_id":"58fc4669-e83e-432a-b033-d696da9691c0","system_id":"levelo_inurba_marseille","lat":43.309589,"lon":5.390258,"is_reserved":false,"is_disabled":false,"rental_uris":{"android":"levelo://app?vid=58fc4669-e83e-432a-b033-d696da9691c0","ios":"levelo://app?vid=58fc4669-e83e-432a-b033-d696da9691c0"},"vehicle_type_id":"4","last_reported":1725120603,"current_range_meters":3600,"station_id":"ce4bgup2rcd13ifvqco0","pricing_plan_id":"cebpf4jnsgd1na2vs0mg"},{"bike_id":"88188068-9630-4b57-bca2-b525c33a7e98","system_id":"levelo_inurba_marseille","lat":43.30949,"lon":5.39036,"is_reserved":false,"is_disabled":false,"rental_uris":{"android":"levelo://app?vid=88188068-9630-4b57-bca2-b525c33a7e98","ios":"levelo://app?vid=88188068-9630-4b57-bca2-b525c33a7e98"},"vehicle_type_id":"4","last_reported":1725120603,"current_range_meters":0,"station_id":"ce4bgup2rcd13ifvqco0","pricing_plan_id":"cebpf4jnsgd1na2vs0mg"},{"bike_id":"e71302d0-f898-4d3d-95c2-2bc39f5067e9","system_id":"levelo_inurba_marseille","lat":43.309589,"lon":5.390258,"is_reserved":false,"is_disabled":false,"rental_uris":{"android":"levelo://app?vid=e71302d0-f898-4d3d-95c2-2bc39f5067e9","ios":"levelo://app?vid=e71302d0-f898-4d3d-95c2-2bc39f5067e9"},"vehicle_type_id":"4","last_reported":1725120603,"current_range_meters":3200,"station_id":"ce4bgup2rcd13ifvqco0","pricing_plan_id":"cebpf4jnsgd1na2vs0mg"},{"bike_id":"9d3946f7-8526-4fd3-86b0-221d15084098","system_id":"levelo_inurba_marseille","lat":43.309589,"lon":5.390258,"is_reserved":false,"is_disabled":false,"rental_uris":{"android":"levelo://app?vid=9d3946f7-8526-4fd3-86b0-221d15084098","ios":"levelo://app?vid=9d3946f7-8526-4fd3-86b0-221d15084098"},"vehicle_type_id":"4","last_reported":1725120603,"current_range_meters":27600,"station_id":"ce4bgup2rcd13ifvqco0","pricing_plan_id":"cebpf4jnsgd1na2vs0mg"},{"bike_id":"2c793f8c-2e09-4149-a490-9dbdebe121f6","system_id":"levelo_inurba_marseille","lat":43.317557,"lon":5.390173,"is_reserved":false,"is_disabled":false,"rental_uris":{"android":"levelo://app?vid=2c793f8c-2e09-4149-a490-9dbdebe121f6","ios":"levelo://app?vid=2c793f8c-2e09-4149-a490-9dbdebe121f6"},"vehicle_type_id":"4","last_reported":1725120603,"current_range_meters":0,"station_id":"ce4bhqp2rcd13ifvqhng","pricing_plan_id":"cebpf4jnsgd1na2vs0mg"},{"bike_id":"e1a8b071-f3c7-49de-bd69-738b42820d49","system_id":"levelo_inurba_marseille","lat":43.298037,"lon":5.381066,"is_reserved":false,"is_disabled":false,"rental_uris":{"android":"levelo://app?vid=e1a8b071-f3c7-49de-bd69-738b42820d49","ios":"levelo://app?vid=e1a8b071-f3c7-49de-bd69-738b42820d49"},"vehicle_type_id":"4","last_reported":1725120603,"current_range_meters":9200,"station_id":"ce4bgip2rcd13ifvqbb0","pricing_plan_id":"cebpf4jnsgd1na2vs0mg"},{"bike_id":"c7de6e1c-55aa-46fa-b78f-7ad69fa1b385","system_id":"levelo_inurba_marseille","lat":43.2979,"lon":5.38087,"is_reserved":false,"is_disabled":false,"rental_uris":{"android":"levelo://app?vid=c7de6e1c-55aa-46fa-b78f-7ad69fa1b385","ios":"levelo://app?vid=c7de6e1c-55aa-46fa-b78f-7ad69fa1b385"},"vehicle_type_id":"4","last_reported":1725120603,"current_range_meters":24400,"station_id":"","pricing_plan_id":"cebpf4jnsgd1na2vs0mg"},{"bike_id":"d4aa8676-502c-484e-8bc5-bf49af4569a0","system_id":"levelo_inurba_marseille","lat":43.29789,"lon":5.38093,"is_reserved":false,"is_disabled":false,"rental_uris":{"android":"levelo://app?vid=d4aa8676-502c-484e-8bc5-bf49af4569a0","ios":"levelo://app?vid=d4aa8676-502c-484e-8bc5-bf49af4569a0"},"vehicle_type_id":"4","last_reported":1725120603,"current_range_meters":0,"station_id":"ce4bgip2rcd13ifvqbb0","pricing_plan_id":"cebpf4jnsgd1na2vs0mg"},{"bike_id":"d99c1392-9b22-4760-bad6-05ad15322568","system_id":"levelo_inurba_marseille","lat":43.284217,"lon":5.349697,"is_reserved":false,"is_disabled":false,"rental_uris":{"android":"levelo://app?vid=d99c1392-9b22-4760-bad6-05ad15322568","ios":"levelo://app?vid=d99c1392-9b22-4760-bad6-05ad15322568"},"vehicle_type_id":"4","last_reported":1725120603,"current_range_meters":28000,"station_id":"ce4bhbh2rcd13ifvqepg","pricing_plan_id":"cebpf4jnsgd1na2vs0mg"},{"bike_id":"cef07738-ce32-4657-bcfd-f8768dea7f63","system_id":"levelo_inurba_marseille","lat":43.298037,"lon":5.381066,"is_reserved":false,"is_disabled":false,"rental_uris":{"android":"levelo://app?vid=cef07738-ce32-4657-bcfd-f8768dea7f63","ios":"levelo://app?vid=cef07738-ce32-4657-bcfd-f8768dea7f63"},"vehicle_type_id":"4","last_reported":1725120603,"current_range_meters":0,"station_id":"ce4bgip2rcd13ifvqbb0","pricing_plan_id":"cebpf4jnsgd1na2vs0mg"},{"bike_id":"2ecead92-a5f2-4c25-bf42-f87973061df4","system_id":"levelo_inurba_marseille","lat":43.304274,"lon":5.388873,"is_reserved":false,"is_disabled":false,"rental_uris":{"android":"levelo://app?vid=2ecead92-a5f2-4c25-bf42-f87973061df4","ios":"levelo://app?vid=2ecead92-a5f2-4c25-bf42-f87973061df4"},"vehicle_type_id":"4","last_reported":1725120603,"current_range_meters":12400,"station_id":"ce4bgk12rcd13ifvqbi0","pricing_plan_id":"cebpf4jnsgd1na2vs0mg"},{"bike_id":"b773592c-6d9b-4d3e-a929-9c7938ef910f","system_id":"levelo_inurba_marseille","lat":43.296263,"lon":5.377094,"is_reserved":false,"is_disabled":false,"rental_uris":{"android":"levelo://app?vid=b773592c-6d9b-4d3e-a929-9c7938ef910f","ios":"levelo://app?vid=b773592c-6d9b-4d3e-a929-9c7938ef910f"},"vehicle_type_id":"4","last_reported":1725120603,"current_range_meters":0,"station_id":"ce4bgi92rcd13ifvqb90","pricing_plan_id":"cebpf4jnsgd1na2vs0mg"},{"bike_id":"eeb9aa56-cb00-4f7a-8ec5-56ebe215e2a5","system_id":"levelo_inurba_marseille","lat":43.29737,"lon":5.3807,"is_reserved":false,"is_disabled":false,"rental_uris":{"android":"levelo://app?vid=eeb9aa56-cb00-4f7a-8ec5-56ebe215e2a5","ios":"levelo://app?vid=eeb9aa56-cb00-4f7a-8ec5-56ebe215e2a5"},"vehicle_type_id":"4","last_reported":1725120603,"current_range_meters":14400,"station_id":"","pricing_plan_id":"cebpf4jnsgd1na2vs0mg"},{"bike_id":"b7105656-9823-406c-afcd-c39548872ac4","system_id":"levelo_inurba_marseille","lat":43.297955,"lon":5.381893,"is_reserved":false,"is_disabled":false,"rental_uris":{"android":"levelo://app?vid=b7105656-9823-406c-afcd-c39548872ac4","ios":"levelo://app?vid=b7105656-9823-406c-afcd-c39548872ac4"},"vehicle_type_id":"4","last_reported":1725120603,"current_range_meters":0,"station_id":"ce4bgip2rcd13ifvqbb0","pricing_plan_id":"cebpf4jnsgd1na2vs0mg"},{"bike_id":"60c87af9-920f-4bcc-bbd8-6f69eb315518","system_id":"levelo_inurba_marseille","lat":43.29527,"lon":5.37501,"is_reserved":false,"is_disabled":false,"rental_uris":{"android":"levelo://app?vid=60c87af9-920f-4bcc-bbd8-6f69eb315518","ios":"levelo://app?vid=60c87af9-920f-4bcc-bbd8-6f69eb315518"},"vehicle_type_id":"4","last_reported":1725120603,"current_range_meters":15200,"station_id":"ce4bgkp2rcd13ifvqbmg","pricing_plan_id":"cebpf4jnsgd1na2vs0mg"},{"bike_id":"6fd90d66-ab0c-4f38-9d7b-f177e522f9a4","system_id":"levelo_inurba_marseille","lat":43.32367,"lon":5.388836,"is_reserved":false,"is_disabled":false,"rental_uris":{"android":"levelo://app?vid=6fd90d66-ab0c-4f38-9d7b-f177e522f9a4","ios":"levelo://app?vid=6fd90d66-ab0c-4f38-9d7b-f177e522f9a4"},"vehicle_type_id":"4","last_reported":1725120603,"current_range_meters":28400,"station_id":"ce4bhqp2rcd13ifvqhog","pricing_plan_id":"cebpf4jnsgd1na2vs0mg"},{"bike_id":"0abe9e4f-1f06-44e2-aa4d-45485da716a4","system_id":"levelo_inurba_marseille","lat":43.311732,"lon":5.393428,"is_reserved":false,"is_disabled":false,"rental_uris":{"android":"levelo://app?vid=0abe9e4f-1f06-44e2-aa4d-45485da716a4","ios":"levelo://app?vid=0abe9e4f-1f06-44e2-aa4d-45485da716a4"},"vehicle_type_id":"4","last_reported":1725120603,"current_range_meters":14000,"station_id":"","pricing_plan_id":"cebpf4jnsgd1na2vs0mg"},{"bike_id":"16c1ea44-4cad-46a2-b8dc-8714b6ef78e6","system_id":"levelo_inurba_marseille","lat":43.32367,"lon":5.388836,"is_reserved":false,"is_disabled":false,"rental_uris":{"android":"levelo://app?vid=16c1ea44-4cad-46a2-b8dc-8714b6ef78e6","ios":"levelo://app?vid=16c1ea44-4cad-46a2-b8dc-8714b6ef78e6"},"vehicle_type_id":"4","last_reported":1725120603,"current_range_meters":6000,"station_id":"ce4bhqp2rcd13ifvqhog","pricing_plan_id":"cebpf4jnsgd1na2vs0mg"},{"bike_id":"63cd9d8f-1bed-4e1c-855e-ce4ca7572711","system_id":"levelo_inurba_marseille","lat":43.32367,"lon":5.388836,"is_reserved":false,"is_disabled":false,"rental_uris":{"android":"levelo://app?vid=63cd9d8f-1bed-4e1c-855e-ce4ca7572711","ios":"levelo://app?vid=63cd9d8f-1bed-4e1c-855e-ce4ca7572711"},"vehicle_type_id":"4","last_reported":1725120603,"current_range_meters":8000,"station_id":"ce4bhqp2rcd13ifvqhog","pricing_plan_id":"cebpf4jnsgd1na2vs0mg"},{"bike_id":"16793a89-4997-4925-b5dd-9f8fb9f8ebb9","system_id":"levelo_inurba_marseille","lat":43.32367,"lon":5.388836,"is_reserved":false,"is_disabled":false,"rental_uris":{"android":"levelo://app?vid=16793a89-4997-4925-b5dd-9f8fb9f8ebb9","ios":"levelo://app?vid=16793a89-4997-4925-b5dd-9f8fb9f8ebb9"},"vehicle_type_id":"4","last_reported":1725120603,"current_range_meters":7600,"station_id":"ce4bhqp2rcd13ifvqhog","pricing_plan_id":"cebpf4jnsgd1na2vs0mg"},{"bike_id":"da66101e-0e6e-463a-8aef-2e29a20afd14","system_id":"levelo_inurba_marseille","lat":43.32367,"lon":5.388836,"is_reserved":false,"is_disabled":false,"rental_uris":{"android":"levelo://app?vid=da66101e-0e6e-463a-8aef-2e29a20afd14","ios":"levelo://app?vid=da66101e-0e6e-463a-8aef-2e29a20afd14"},"vehicle_type_id":"4","last_reported":1725120603,"current_range_meters":27600,"station_id":"ce4bhqp2rcd13ifvqhog","pricing_plan_id":"cebpf4jnsgd1na2vs0mg"},{"bike_id":"05686e82-e9a0-472c-bff9-d40e1ac69e9c","system_id":"levelo_inurba_marseille","lat":43.2959,"lon":5.38098,"is_reserved":false,"is_disabled":false,"rental_uris":{"android":"levelo://app?vid=05686e82-e9a0-472c-bff9-d40e1ac69e9c","ios":"levelo://app?vid=05686e82-e9a0-472c-bff9-d40e1ac69e9c"},"vehicle_type_id":"4","last_reported":1725120603,"current_range_meters":0,"station_id":"ce4bgl12rcd13ifvqbo0","pricing_plan_id":"cebpf4jnsgd1na2vs0mg"},{"bike_id":"77846a02-7a36-4957-b745-8142b6fcbd1c","system_id":"levelo_inurba_marseille","lat":43.29294,"lon":5.36893,"is_reserved":false,"is_disabled":false,"rental_uris":{"android":"levelo://app?vid=77846a02-7a36-4957-b745-8142b6fcbd1c","ios":"levelo://app?vid=77846a02-7a36-4957-b745-8142b6fcbd1c"},"vehicle_type_id":"4","last_reported":1725120603,"current_range_meters":20000,"station_id":"","pricing_plan_id":"cebpf4jnsgd1na2vs0mg"},{"bike_id":"6966b4ae-0d55-4252-bed1-38e62ac438f9","system_id":"levelo_inurba_marseille","lat":43.293259,"lon":5.371586,"is_reserved":false,"is_disabled":false,"rental_uris":{"android":"levelo://app?vid=6966b4ae-0d55-4252-bed1-38e62ac438f9","ios":"levelo://app?vid=6966b4ae-0d55-4252-bed1-38e62ac438f9"},"vehicle_type_id":"4","last_reported":1725120603,"current_range_meters":6800,"station_id":"ce4bgh92rcd13ifvqb40","pricing_plan_id":"cebpf4jnsgd1na2vs0mg"},{"bike_id":"cb3da654-207f-4237-8bea-0c285a51bef8","system_id":"levelo_inurba_marseille","lat":43.292749,"lon":5.368402,"is_reserved":false,"is_disabled":false,"rental_uris":{"android":"levelo://app?vid=cb3da654-207f-4237-8bea-0c285a51bef8","ios":"levelo://app?vid=cb3da654-207f-4237-8bea-0c285a51bef8"},"vehicle_type_id":"4","last_reported":1725120603,"current_range_meters":0,"station_id":"ce4bhbp2rcd13ifvqesg","pricing_plan_id":"cebpf4jnsgd1na2vs0mg"},{"bike_id":"943b58b0-3738-414a-8110-8bae624b5874","system_id":"levelo_inurba_marseille","lat":43.29278,"lon":5.36849,"is_reserved":false,"is_disabled":false,"rental_uris":{"android":"levelo://app?vid=943b58b0-3738-414a-8110-8bae624b5874","ios":"levelo://app?vid=943b58b0-3738-414a-8110-8bae624b5874"},"vehicle_type_id":"4","last_reported":1725120603,"current_range_meters":17200,"station_id":"ce4bhbp2rcd13ifvqesg","pricing_plan_id":"cebpf4jnsgd1na2vs0mg"},{"bike_id":"061cd0db-8f31-4ca0-9e6f-ed4e833e8843","system_id":"levelo_inurba_marseille","lat":43.293259,"lon":5.371586,"is_reserved":false,"is_disabled":false,"rental_uris":{"android":"levelo://app?vid=061cd0db-8f31-4ca0-9e6f-ed4e833e8843","ios":"levelo://app?vid=061cd0db-8f31-4ca0-9e6f-ed4e833e8843"},"vehicle_type_id":"4","last_reported":1725120603,"current_range_meters":5200,"station_id":"ce4bgh92rcd13ifvqb40","pricing_plan_id":"cebpf4jnsgd1na2vs0mg"},{"bike_id":"d3e2d970-a7ac-4099-8357-85291ab81264","system_id":"levelo_inurba_marseille","lat":43.29271,"lon":5.3684,"is_reserved":false,"is_disabled":false,"rental_uris":{"android":"levelo://app?vid=d3e2d970-a7ac-4099-8357-85291ab81264","ios":"levelo://app?vid=d3e2d970-a7ac-4099-8357-85291ab81264"},"vehicle_type_id":"4","last_reported":1725120603,"current_range_meters":0,"station_id":"ce4bhbp2rcd13ifvqesg","pricing_plan_id":"cebpf4jnsgd1na2vs0mg"},{"bike_id":"9de37804-6f32-472b-8dcb-a7cc18152125","system_id":"levelo_inurba_marseille","lat":43.29237,"lon":5.36587,"is_reserved":false,"is_disabled":false,"rental_uris":{"android":"levelo://app?vid=9de37804-6f32-472b-8dcb-a7cc18152125","ios":"levelo://app?vid=9de37804-6f32-472b-8dcb-a7cc18152125"},"vehicle_type_id":"4","last_reported":1725120603,"current_range_meters":6000,"station_id":"","pricing_plan_id":"cebpf4jnsgd1na2vs0mg"},{"bike_id":"6b2008d0-b29d-480f-95d0-ac3569f9ac25","system_id":"levelo_inurba_marseille","lat":43.293009,"lon":5.374584,"is_reserved":false,"is_disabled":false,"rental_uris":{"android":"levelo://app?vid=6b2008d0-b29d-480f-95d0-ac3569f9ac25","ios":"levelo://app?vid=6b2008d0-b29d-480f-95d0-ac3569f9ac25"},"vehicle_type_id":"4","last_reported":1725120603,"current_range_meters":10400,"station_id":"ce4bgi12rcd13ifvqb70","pricing_plan_id":"cebpf4jnsgd1na2vs0mg"},{"bike_id":"0b1dc425-af28-432c-83c9-b25d00b72dfb","system_id":"levelo_inurba_marseille","lat":43.292005,"lon":5.357875,"is_reserved":false,"is_disabled":false,"rental_uris":{"android":"levelo://app?vid=0b1dc425-af28-432c-83c9-b25d00b72dfb","ios":"levelo://app?vid=0b1dc425-af28-432c-83c9-b25d00b72dfb"},"vehicle_type_id":"4","last_reported":1725120603,"current_range_meters":19600,"station_id":"ce4bhb12rcd13ifvqel0","pricing_plan_id":"cebpf4jnsgd1na2vs0mg"},{"bike_id":"a0c4950d-b2ce-4728-99d6-4814646991dc","system_id":"levelo_inurba_marseille","lat":43.29299,"lon":5.37458,"is_reserved":false,"is_disabled":false,"rental_uris":{"android":"levelo://app?vid=a0c4950d-b2ce-4728-99d6-4814646991dc","ios":"levelo://app?vid=a0c4950d-b2ce-4728-99d6-4814646991dc"},"vehicle_type_id":"4","last_reported":1725120603,"current_range_meters":0,"station_id":"ce4bgi12rcd13ifvqb70","pricing_plan_id":"cebpf4jnsgd1na2vs0mg"},{"bike_id":"040b628f-b131-4f1a-bd0b-28e533fe89ab","system_id":"levelo_inurba_marseille","lat":43.293009,"lon":5.374584,"is_reserved":false,"is_disabled":false,"rental_uris":{"android":"levelo://app?vid=040b628f-b131-4f1a-bd0b-28e533fe89ab","ios":"levelo://app?vid=040b628f-b131-4f1a-bd0b-28e533fe89ab"},"vehicle_type_id":"4","last_reported":1725120603,"current_range_meters":6400,"station_id":"ce4bgi12rcd13ifvqb70","pricing_plan_id":"cebpf4jnsgd1na2vs0mg"},{"bike_id":"5b6a8609-9498-403e-a5f0-4c372961730e","system_id":"levelo_inurba_marseille","lat":43.2936,"lon":5.37835,"is_reserved":false,"is_disabled":false,"rental_uris":{"android":"levelo://app?vid=5b6a8609-9498-403e-a5f0-4c372961730e","ios":"levelo://app?vid=5b6a8609-9498-403e-a5f0-4c372961730e"},"vehicle_type_id":"4","last_reported":1725120603,"current_range_meters":31200,"station_id":"ce4bgjh2rcd13ifvqbf0","pricing_plan_id":"cebpf4jnsgd1na2vs0mg"},{"bike_id":"20addfc8-36ad-4331-a213-449fef8f610f","system_id":"levelo_inurba_marseille","lat":43.2936,"lon":5.37835,"is_reserved":false,"is_disabled":false,"rental_uris":{"android":"levelo://app?vid=20addfc8-36ad-4331-a213-449fef8f610f","ios":"levelo://app?vid=20addfc8-36ad-4331-a213-449fef8f610f"},"vehicle_type_id":"4","last_reported":1725120603,"current_range_meters":1600,"station_id":"ce4bgjh2rcd13ifvqbf0","pricing_plan_id":"cebpf4jnsgd1na2vs0mg"},{"bike_id":"6163b187-c6fb-44e6-a501-9107f26c9f42","system_id":"levelo_inurba_marseille","lat":43.300852,"lon":5.390859,"is_reserved":false,"is_disabled":false,"rental_uris":{"android":"levelo://app?vid=6163b187-c6fb-44e6-a501-9107f26c9f42","ios":"levelo://app?vid=6163b187-c6fb-44e6-a501-9107f26c9f42"},"vehicle_type_id":"4","last_reported":1725120603,"current_range_meters":4400,"station_id":"ce4bh192rcd13ifvqdb0","pricing_plan_id":"cebpf4jnsgd1na2vs0mg"},{"bike_id":"46ee5431-262a-4ccd-9734-49c8fbe46662","system_id":"levelo_inurba_marseille","lat":43.292311,"lon":5.360731,"is_reserved":false,"is_disabled":false,"rental_uris":{"android":"levelo://app?vid=46ee5431-262a-4ccd-9734-49c8fbe46662","ios":"levelo://app?vid=46ee5431-262a-4ccd-9734-49c8fbe46662"},"vehicle_type_id":"4","last_reported":1725120603,"current_range_meters":15200,"station_id":"ce4bhbh2rcd13ifvqeqg","pricing_plan_id":"cebpf4jnsgd1na2vs0mg"},{"bike_id":"2b459e60-b6c7-4127-b851-5de5e8688d4c","system_id":"levelo_inurba_marseille","lat":43.29227,"lon":5.36069,"is_reserved":false,"is_disabled":false,"rental_uris":{"android":"levelo://app?vid=2b459e60-b6c7-4127-b851-5de5e8688d4c","ios":"levelo://app?vid=2b459e60-b6c7-4127-b851-5de5e8688d4c"},"vehicle_type_id":"4","last_reported":1725120603,"current_range_meters":2800,"station_id":"ce4bhbh2rcd13ifvqeqg","pricing_plan_id":"cebpf4jnsgd1na2vs0mg"},{"bike_id":"419379df-b88a-4e78-9ba4-befa9856a5e2","system_id":"levelo_inurba_marseille","lat":43.292311,"lon":5.360731,"is_reserved":false,"is_disabled":false,"rental_uris":{"android":"levelo://app?vid=419379df-b88a-4e78-9ba4-befa9856a5e2","ios":"levelo://app?vid=419379df-b88a-4e78-9ba4-befa9856a5e2"},"vehicle_type_id":"4","last_reported":1725120603,"current_range_meters":0,"station_id":"ce4bhbh2rcd13ifvqeqg","pricing_plan_id":"cebpf4jnsgd1na2vs0mg"},{"bike_id":"f471041e-be7b-4ee3-859d-1898769812b6","system_id":"levelo_inurba_marseille","lat":43.292311,"lon":5.360731,"is_reserved":false,"is_disabled":false,"rental_uris":{"android":"levelo://app?vid=f471041e-be7b-4ee3-859d-1898769812b6","ios":"levelo://app?vid=f471041e-be7b-4ee3-859d-1898769812b6"},"vehicle_type_id":"4","last_reported":1725120603,"current_range_meters":2000,"station_id":"ce4bhbh2rcd13ifvqeqg","pricing_plan_id":"cebpf4jnsgd1na2vs0mg"},{"bike_id":"b5bf78c8-38a5-4993-94db-f2891fefd9d3","system_id":"levelo_inurba_marseille","lat":43.29222,"lon":5.36076,"is_reserved":false,"is_disabled":false,"rental_uris":{"android":"levelo://app?vid=b5bf78c8-38a5-4993-94db-f2891fefd9d3","ios":"levelo://app?vid=b5bf78c8-38a5-4993-94db-f2891fefd9d3"},"vehicle_type_id":"4","last_reported":1725120603,"current_range_meters":400,"station_id":"ce4bhbh2rcd13ifvqeqg","pricing_plan_id":"cebpf4jnsgd1na2vs0mg"},{"bike_id":"14550f30-5fe8-426e-a4dc-e97bd868f0cb","system_id":"levelo_inurba_marseille","lat":43.29223,"lon":5.36051,"is_reserved":false,"is_disabled":false,"rental_uris":{"android":"levelo://app?vid=14550f30-5fe8-426e-a4dc-e97bd868f0cb","ios":"levelo://app?vid=14550f30-5fe8-426e-a4dc-e97bd868f0cb"},"vehicle_type_id":"4","last_reported":1725120603,"current_range_meters":24800,"station_id":"ce4bhbh2rcd13ifvqeqg","pricing_plan_id":"cebpf4jnsgd1na2vs0mg"},{"bike_id":"f2ee0828-33d4-4767-bf1c-f641bb84b265","system_id":"levelo_inurba_marseille","lat":43.29222,"lon":5.36056,"is_reserved":false,"is_disabled":false,"rental_uris":{"android":"levelo://app?vid=f2ee0828-33d4-4767-bf1c-f641bb84b265","ios":"levelo://app?vid=f2ee0828-33d4-4767-bf1c-f641bb84b265"},"vehicle_type_id":"4","last_reported":1725120603,"current_range_meters":0,"station_id":"ce4bhbh2rcd13ifvqeqg","pricing_plan_id":"cebpf4jnsgd1na2vs0mg"},{"bike_id":"5792e37b-d6a6-4e62-8aee-7b019c9ee507","system_id":"levelo_inurba_marseille","lat":43.298764,"lon":5.388973,"is_reserved":false,"is_disabled":false,"rental_uris":{"android":"levelo://app?vid=5792e37b-d6a6-4e62-8aee-7b019c9ee507","ios":"levelo://app?vid=5792e37b-d6a6-4e62-8aee-7b019c9ee507"},"vehicle_type_id":"4","last_reported":1725120603,"current_range_meters":0,"station_id":"ce4bh392rcd13ifvqdl0","pricing_plan_id":"cebpf4jnsgd1na2vs0mg"},{"bike_id":"aca0887a-bbb8-41b2-b152-13c4107be5cc","system_id":"levelo_inurba_marseille","lat":43.298764,"lon":5.388973,"is_reserved":false,"is_disabled":false,"rental_uris":{"android":"levelo://app?vid=aca0887a-bbb8-41b2-b152-13c4107be5cc","ios":"levelo://app?vid=aca0887a-bbb8-41b2-b152-13c4107be5cc"},"vehicle_type_id":"4","last_reported":1725120603,"current_range_meters":18400,"station_id":"ce4bh392rcd13ifvqdl0","pricing_plan_id":"cebpf4jnsgd1na2vs0mg"},{"bike_id":"c55e8c92-6ddc-413a-a97c-0bb8e05b1819","system_id":"levelo_inurba_marseille","lat":43.298764,"lon":5.388973,"is_reserved":false,"is_disabled":false,"rental_uris":{"android":"levelo://app?vid=c55e8c92-6ddc-413a-a97c-0bb8e05b1819","ios":"levelo://app?vid=c55e8c92-6ddc-413a-a97c-0bb8e05b1819"},"vehicle_type_id":"4","last_reported":1725120603,"current_range_meters":13200,"station_id":"ce4bh392rcd13ifvqdl0","pricing_plan_id":"cebpf4jnsgd1na2vs0mg"},{"bike_id":"7011eeba-9d2f-40c4-b469-0782f58e7f54","system_id":"levelo_inurba_marseille","lat":43.292005,"lon":5.357875,"is_reserved":false,"is_disabled":false,"rental_uris":{"android":"levelo://app?vid=7011eeba-9d2f-40c4-b469-0782f58e7f54","ios":"levelo://app?vid=7011eeba-9d2f-40c4-b469-0782f58e7f54"},"vehicle_type_id":"4","last_reported":1725120603,"current_range_meters":1600,"station_id":"ce4bhb12rcd13ifvqel0","pricing_plan_id":"cebpf4jnsgd1na2vs0mg"},{"bike_id":"4167e285-e47b-4b03-a3d6-1bc912d3d16d","system_id":"levelo_inurba_marseille","lat":43.292005,"lon":5.357875,"is_reserved":false,"is_disabled":false,"rental_uris":{"android":"levelo://app?vid=4167e285-e47b-4b03-a3d6-1bc912d3d16d","ios":"levelo://app?vid=4167e285-e47b-4b03-a3d6-1bc912d3d16d"},"vehicle_type_id":"4","last_reported":1725120603,"current_range_meters":7200,"station_id":"ce4bhb12rcd13ifvqel0","pricing_plan_id":"cebpf4jnsgd1na2vs0mg"},{"bike_id":"34c5286b-b599-4583-86b6-1c001c1a049b","system_id":"levelo_inurba_marseille","lat":43.292005,"lon":5.357875,"is_reserved":false,"is_disabled":false,"rental_uris":{"android":"levelo://app?vid=34c5286b-b599-4583-86b6-1c001c1a049b","ios":"levelo://app?vid=34c5286b-b599-4583-86b6-1c001c1a049b"},"vehicle_type_id":"4","last_reported":1725120603,"current_range_meters":400,"station_id":"ce4bhb12rcd13ifvqel0","pricing_plan_id":"cebpf4jnsgd1na2vs0mg"},{"bike_id":"0f65d6c7-f33c-436a-875e-5e9c76b6ba0f","system_id":"levelo_inurba_marseille","lat":43.29189,"lon":5.358057,"is_reserved":false,"is_disabled":false,"rental_uris":{"android":"levelo://app?vid=0f65d6c7-f33c-436a-875e-5e9c76b6ba0f","ios":"levelo://app?vid=0f65d6c7-f33c-436a-875e-5e9c76b6ba0f"},"vehicle_type_id":"4","last_reported":1725120603,"current_range_meters":0,"station_id":"ce4bhb12rcd13ifvqel0","pricing_plan_id":"cebpf4jnsgd1na2vs0mg"},{"bike_id":"e6f7aa61-d6ef-4248-984a-611a42c597af","system_id":"levelo_inurba_marseille","lat":43.29529,"lon":5.385581,"is_reserved":false,"is_disabled":false,"rental_uris":{"android":"levelo://app?vid=e6f7aa61-d6ef-4248-984a-611a42c597af","ios":"levelo://app?vid=e6f7aa61-d6ef-4248-984a-611a42c597af"},"vehicle_type_id":"4","last_reported":1725120603,"current_range_meters":27600,"station_id":"ce4bgih2rcd13ifvqba0","pricing_plan_id":"cebpf4jnsgd1na2vs0mg"},{"bike_id":"9443e938-e6d1-414f-80a2-3cb4baa9d9cd","system_id":"levelo_inurba_marseille","lat":43.29526,"lon":5.38537,"is_reserved":false,"is_disabled":false,"rental_uris":{"android":"levelo://app?vid=9443e938-e6d1-414f-80a2-3cb4baa9d9cd","ios":"levelo://app?vid=9443e938-e6d1-414f-80a2-3cb4baa9d9cd"},"vehicle_type_id":"4","last_reported":1725120603,"current_range_meters":2400,"station_id":"ce4bgih2rcd13ifvqba0","pricing_plan_id":"cebpf4jnsgd1na2vs0mg"},{"bike_id":"9599cf83-f9be-43b5-bdb4-085d92cdacd9","system_id":"levelo_inurba_marseille","lat":43.29529,"lon":5.385581,"is_reserved":false,"is_disabled":false,"rental_uris":{"android":"levelo://app?vid=9599cf83-f9be-43b5-bdb4-085d92cdacd9","ios":"levelo://app?vid=9599cf83-f9be-43b5-bdb4-085d92cdacd9"},"vehicle_type_id":"4","last_reported":1725120603,"current_range_meters":30800,"station_id":"ce4bgih2rcd13ifvqba0","pricing_plan_id":"cebpf4jnsgd1na2vs0mg"},{"bike_id":"c9a14551-8403-4397-9b00-479c3e20fbc5","system_id":"levelo_inurba_marseille","lat":43.290779,"lon":5.371482,"is_reserved":false,"is_disabled":false,"rental_uris":{"android":"levelo://app?vid=c9a14551-8403-4397-9b00-479c3e20fbc5","ios":"levelo://app?vid=c9a14551-8403-4397-9b00-479c3e20fbc5"},"vehicle_type_id":"4","last_reported":1725120603,"current_range_meters":0,"station_id":"ce4bh5p2rcd13ifvqe4g","pricing_plan_id":"cebpf4jnsgd1na2vs0mg"},{"bike_id":"873e2385-1ebf-45de-8674-30b4abc5f9c2","system_id":"levelo_inurba_marseille","lat":43.302008,"lon":5.394694,"is_reserved":false,"is_disabled":false,"rental_uris":{"android":"levelo://app?vid=873e2385-1ebf-45de-8674-30b4abc5f9c2","ios":"levelo://app?vid=873e2385-1ebf-45de-8674-30b4abc5f9c2"},"vehicle_type_id":"4","last_reported":1725120603,"current_range_meters":800,"station_id":"ce4bh0p2rcd13ifvqd70","pricing_plan_id":"cebpf4jnsgd1na2vs0mg"},{"bike_id":"21b05689-c7db-4284-81db-ff467541e607","system_id":"levelo_inurba_marseille","lat":43.290624,"lon":5.359245,"is_reserved":false,"is_disabled":false,"rental_uris":{"android":"levelo://app?vid=21b05689-c7db-4284-81db-ff467541e607","ios":"levelo://app?vid=21b05689-c7db-4284-81db-ff467541e607"},"vehicle_type_id":"4","last_reported":1725120603,"current_range_meters":21200,"station_id":"ce4bha92rcd13ifvqeg0","pricing_plan_id":"cebpf4jnsgd1na2vs0mg"},{"bike_id":"3d3fc88b-7f5a-45cf-bbe0-3b7a092e709a","system_id":"levelo_inurba_marseille","lat":43.29423,"lon":5.38621,"is_reserved":false,"is_disabled":false,"rental_uris":{"android":"levelo://app?vid=3d3fc88b-7f5a-45cf-bbe0-3b7a092e709a","ios":"levelo://app?vid=3d3fc88b-7f5a-45cf-bbe0-3b7a092e709a"},"vehicle_type_id":"4","last_reported":1725120603,"current_range_meters":0,"station_id":"ce4bh2h2rcd13ifvqdh0","pricing_plan_id":"cebpf4jnsgd1na2vs0mg"},{"bike_id":"0b44f99a-2e28-4e1d-aafe-81b8aa99272f","system_id":"levelo_inurba_marseille","lat":43.290292,"lon":5.3585,"is_reserved":false,"is_disabled":false,"rental_uris":{"android":"levelo://app?vid=0b44f99a-2e28-4e1d-aafe-81b8aa99272f","ios":"levelo://app?vid=0b44f99a-2e28-4e1d-aafe-81b8aa99272f"},"vehicle_type_id":"4","last_reported":1725120603,"current_range_meters":0,"station_id":"ce4bha92rcd13ifvqeg0","pricing_plan_id":"cebpf4jnsgd1na2vs0mg"},{"bike_id":"1411a00c-c846-46d3-85a9-7d4b05aaa697","system_id":"levelo_inurba_marseille","lat":43.294162,"lon":5.386292,"is_reserved":false,"is_disabled":false,"rental_uris":{"android":"levelo://app?vid=1411a00c-c846-46d3-85a9-7d4b05aaa697","ios":"levelo://app?vid=1411a00c-c846-46d3-85a9-7d4b05aaa697"},"vehicle_type_id":"4","last_reported":1725120603,"current_range_meters":0,"station_id":"ce4bh2h2rcd13ifvqdh0","pricing_plan_id":"cebpf4jnsgd1na2vs0mg"},{"bike_id":"688674ce-07e9-481f-825c-33f0d5c2818b","system_id":"levelo_inurba_marseille","lat":43.28942,"lon":5.36636,"is_reserved":false,"is_disabled":false,"rental_uris":{"android":"levelo://app?vid=688674ce-07e9-481f-825c-33f0d5c2818b","ios":"levelo://app?vid=688674ce-07e9-481f-825c-33f0d5c2818b"},"vehicle_type_id":"4","last_reported":1725120603,"current_range_meters":0,"station_id":"ce4bhap2rcd13ifvqek0","pricing_plan_id":"cebpf4jnsgd1na2vs0mg"},{"bike_id":"1e6d086a-eba2-453e-aaaf-13c49c324a88","system_id":"levelo_inurba_marseille","lat":43.294162,"lon":5.386292,"is_reserved":false,"is_disabled":false,"rental_uris":{"android":"levelo://app?vid=1e6d086a-eba2-453e-aaaf-13c49c324a88","ios":"levelo://app?vid=1e6d086a-eba2-453e-aaaf-13c49c324a88"},"vehicle_type_id":"4","last_reported":1725120603,"current_range_meters":6000,"station_id":"ce4bh2h2rcd13ifvqdh0","pricing_plan_id":"cebpf4jnsgd1na2vs0mg"},{"bike_id":"c854bd1b-de88-4275-a21d-742568016d79","system_id":"levelo_inurba_marseille","lat":43.289184,"lon":5.366408,"is_reserved":false,"is_disabled":false,"rental_uris":{"android":"levelo://app?vid=c854bd1b-de88-4275-a21d-742568016d79","ios":"levelo://app?vid=c854bd1b-de88-4275-a21d-742568016d79"},"vehicle_type_id":"4","last_reported":1725120603,"current_range_meters":24800,"station_id":"ce4bhap2rcd13ifvqek0","pricing_plan_id":"cebpf4jnsgd1na2vs0mg"},{"bike_id":"edacec72-ce28-44f4-99c8-f9977b17f28d","system_id":"levelo_inurba_marseille","lat":43.289184,"lon":5.366408,"is_reserved":false,"is_disabled":false,"rental_uris":{"android":"levelo://app?vid=edacec72-ce28-44f4-99c8-f9977b17f28d","ios":"levelo://app?vid=edacec72-ce28-44f4-99c8-f9977b17f28d"},"vehicle_type_id":"4","last_reported":1725120603,"current_range_meters":7600,"station_id":"ce4bhap2rcd13ifvqek0","pricing_plan_id":"cebpf4jnsgd1na2vs0mg"},{"bike_id":"277e65d7-d6a2-4079-bdb8-55e1add74148","system_id":"levelo_inurba_marseille","lat":43.289184,"lon":5.366408,"is_reserved":false,"is_disabled":false,"rental_uris":{"android":"levelo://app?vid=277e65d7-d6a2-4079-bdb8-55e1add74148","ios":"levelo://app?vid=277e65d7-d6a2-4079-bdb8-55e1add74148"},"vehicle_type_id":"4","last_reported":1725120603,"current_range_meters":2000,"station_id":"ce4bhap2rcd13ifvqek0","pricing_plan_id":"cebpf4jnsgd1na2vs0mg"},{"bike_id":"2009a643-7efc-43d7-a94f-ec5d4e2d9cab","system_id":"levelo_inurba_marseille","lat":43.289184,"lon":5.366408,"is_reserved":false,"is_disabled":false,"rental_uris":{"android":"levelo://app?vid=2009a643-7efc-43d7-a94f-ec5d4e2d9cab","ios":"levelo://app?vid=2009a643-7efc-43d7-a94f-ec5d4e2d9cab"},"vehicle_type_id":"4","last_reported":1725120603,"current_range_meters":18800,"station_id":"ce4bhap2rcd13ifvqek0","pricing_plan_id":"cebpf4jnsgd1na2vs0mg"},{"bike_id":"60071417-daac-4a18-a330-d21299f3b17d","system_id":"levelo_inurba_marseille","lat":43.289184,"lon":5.366408,"is_reserved":false,"is_disabled":false,"rental_uris":{"android":"levelo://app?vid=60071417-daac-4a18-a330-d21299f3b17d","ios":"levelo://app?vid=60071417-daac-4a18-a330-d21299f3b17d"},"vehicle_type_id":"4","last_reported":1725120603,"current_range_meters":4400,"station_id":"ce4bhap2rcd13ifvqek0","pricing_plan_id":"cebpf4jnsgd1na2vs0mg"},{"bike_id":"3ee91610-51a2-4300-807b-9fe650af8aef","system_id":"levelo_inurba_marseille","lat":43.289184,"lon":5.366408,"is_reserved":false,"is_disabled":false,"rental_uris":{"android":"levelo://app?vid=3ee91610-51a2-4300-807b-9fe650af8aef","ios":"levelo://app?vid=3ee91610-51a2-4300-807b-9fe650af8aef"},"vehicle_type_id":"4","last_reported":1725120603,"current_range_meters":3200,"station_id":"ce4bhap2rcd13ifvqek0","pricing_plan_id":"cebpf4jnsgd1na2vs0mg"},{"bike_id":"12ed443b-a2c0-4d94-9404-1b1d6cf05d9e","system_id":"levelo_inurba_marseille","lat":43.29265,"lon":5.38439,"is_reserved":false,"is_disabled":false,"rental_uris":{"android":"levelo://app?vid=12ed443b-a2c0-4d94-9404-1b1d6cf05d9e","ios":"levelo://app?vid=12ed443b-a2c0-4d94-9404-1b1d6cf05d9e"},"vehicle_type_id":"4","last_reported":1725120603,"current_range_meters":0,"station_id":"ce4bh692rcd13ifvqea0","pricing_plan_id":"cebpf4jnsgd1na2vs0mg"},{"bike_id":"c111cba9-f474-4e15-8d67-7b49954216fb","system_id":"levelo_inurba_marseille","lat":43.292644,"lon":5.384257,"is_reserved":false,"is_disabled":false,"rental_uris":{"android":"levelo://app?vid=c111cba9-f474-4e15-8d67-7b49954216fb","ios":"levelo://app?vid=c111cba9-f474-4e15-8d67-7b49954216fb"},"vehicle_type_id":"4","last_reported":1725120603,"current_range_meters":0,"station_id":"ce4bh692rcd13ifvqea0","pricing_plan_id":"cebpf4jnsgd1na2vs0mg"},{"bike_id":"71f7ac57-ed50-42ff-ac15-7ea8dd43afb4","system_id":"levelo_inurba_marseille","lat":43.292644,"lon":5.384257,"is_reserved":false,"is_disabled":false,"rental_uris":{"android":"levelo://app?vid=71f7ac57-ed50-42ff-ac15-7ea8dd43afb4","ios":"levelo://app?vid=71f7ac57-ed50-42ff-ac15-7ea8dd43afb4"},"vehicle_type_id":"4","last_reported":1725120603,"current_range_meters":400,"station_id":"ce4bh692rcd13ifvqea0","pricing_plan_id":"cebpf4jnsgd1na2vs0mg"},{"bike_id":"411c8ecf-df4e-4c1a-858c-a1dd49075d07","system_id":"levelo_inurba_marseille","lat":43.292644,"lon":5.384257,"is_reserved":false,"is_disabled":false,"rental_uris":{"android":"levelo://app?vid=411c8ecf-df4e-4c1a-858c-a1dd49075d07","ios":"levelo://app?vid=411c8ecf-df4e-4c1a-858c-a1dd49075d07"},"vehicle_type_id":"4","last_reported":1725120603,"current_range_meters":0,"station_id":"ce4bh692rcd13ifvqea0","pricing_plan_id":"cebpf4jnsgd1na2vs0mg"},{"bike_id":"06303b05-ddc7-4b8e-a2c2-296214565049","system_id":"levelo_inurba_marseille","lat":43.290103,"lon":5.356114,"is_reserved":false,"is_disabled":false,"rental_uris":{"android":"levelo://app?vid=06303b05-ddc7-4b8e-a2c2-296214565049","ios":"levelo://app?vid=06303b05-ddc7-4b8e-a2c2-296214565049"},"vehicle_type_id":"4","last_reported":1725120603,"current_range_meters":0,"station_id":"ce4bhb92rcd13ifvqen0","pricing_plan_id":"cebpf4jnsgd1na2vs0mg"},{"bike_id":"cd398e81-322e-478d-aa36-97d63495ade4","system_id":"levelo_inurba_marseille","lat":43.304274,"lon":5.397513,"is_reserved":false,"is_disabled":false,"rental_uris":{"android":"levelo://app?vid=cd398e81-322e-478d-aa36-97d63495ade4","ios":"levelo://app?vid=cd398e81-322e-478d-aa36-97d63495ade4"},"vehicle_type_id":"4","last_reported":1725120603,"current_range_meters":0,"station_id":"ce4bh092rcd13ifvqd20","pricing_plan_id":"cebpf4jnsgd1na2vs0mg"},{"bike_id":"b25da2b9-8dc7-4127-a30a-f1c2224e5598","system_id":"levelo_inurba_marseille","lat":43.29007,"lon":5.35609,"is_reserved":false,"is_disabled":false,"rental_uris":{"android":"levelo://app?vid=b25da2b9-8dc7-4127-a30a-f1c2224e5598","ios":"levelo://app?vid=b25da2b9-8dc7-4127-a30a-f1c2224e5598"},"vehicle_type_id":"4","last_reported":1725120603,"current_range_meters":0,"station_id":"ce4bhb92rcd13ifvqen0","pricing_plan_id":"cebpf4jnsgd1na2vs0mg"},{"bike_id":"66b5200f-7ebc-4fe3-b7a5-e4dcf9cb7c2b","system_id":"levelo_inurba_marseille","lat":43.290104,"lon":5.356111,"is_reserved":false,"is_disabled":false,"rental_uris":{"android":"levelo://app?vid=66b5200f-7ebc-4fe3-b7a5-e4dcf9cb7c2b","ios":"levelo://app?vid=66b5200f-7ebc-4fe3-b7a5-e4dcf9cb7c2b"},"vehicle_type_id":"4","last_reported":1725120603,"current_range_meters":12400,"station_id":"ce4bhb92rcd13ifvqen0","pricing_plan_id":"cebpf4jnsgd1na2vs0mg"},{"bike_id":"e3559e78-eee7-46ee-b0c9-bbbdd9262487","system_id":"levelo_inurba_marseille","lat":43.29005,"lon":5.35608,"is_reserved":false,"is_disabled":false,"rental_uris":{"android":"levelo://app?vid=e3559e78-eee7-46ee-b0c9-bbbdd9262487","ios":"levelo://app?vid=e3559e78-eee7-46ee-b0c9-bbbdd9262487"},"vehicle_type_id":"4","last_reported":1725120603,"current_range_meters":0,"station_id":"ce4bhb92rcd13ifvqen0","pricing_plan_id":"cebpf4jnsgd1na2vs0mg"},{"bike_id":"5fee8eca-7737-4d55-810c-7f20102c0551","system_id":"levelo_inurba_marseille","lat":43.290995,"lon":5.381361,"is_reserved":false,"is_disabled":false,"rental_uris":{"android":"levelo://app?vid=5fee8eca-7737-4d55-810c-7f20102c0551","ios":"levelo://app?vid=5fee8eca-7737-4d55-810c-7f20102c0551"},"vehicle_type_id":"4","last_reported":1725120603,"current_range_meters":29600,"station_id":"ce4bh512rcd13ifvqe2g","pricing_plan_id":"cebpf4jnsgd1na2vs0mg"},{"bike_id":"c2512aa8-e1da-4628-9bb3-943661d3df4a","system_id":"levelo_inurba_marseille","lat":43.32974,"lon":5.39052,"is_reserved":false,"is_disabled":false,"rental_uris":{"android":"levelo://app?vid=c2512aa8-e1da-4628-9bb3-943661d3df4a","ios":"levelo://app?vid=c2512aa8-e1da-4628-9bb3-943661d3df4a"},"vehicle_type_id":"4","last_reported":1725120603,"current_range_meters":20400,"station_id":"","pricing_plan_id":"cebpf4jnsgd1na2vs0mg"},{"bike_id":"e332926e-7b71-49af-bd15-b15f031e828a","system_id":"levelo_inurba_marseille","lat":43.295169,"lon":5.390426,"is_reserved":false,"is_disabled":false,"rental_uris":{"android":"levelo://app?vid=e332926e-7b71-49af-bd15-b15f031e828a","ios":"levelo://app?vid=e332926e-7b71-49af-bd15-b15f031e828a"},"vehicle_type_id":"4","last_reported":1725120603,"current_range_meters":0,"station_id":"ce4bh3p2rcd13ifvqdp0","pricing_plan_id":"cebpf4jnsgd1na2vs0mg"},{"bike_id":"e97cd413-2f2e-4912-80f9-0ae27442ced5","system_id":"levelo_inurba_marseille","lat":43.297815,"lon":5.393548,"is_reserved":false,"is_disabled":false,"rental_uris":{"android":"levelo://app?vid=e97cd413-2f2e-4912-80f9-0ae27442ced5","ios":"levelo://app?vid=e97cd413-2f2e-4912-80f9-0ae27442ced5"},"vehicle_type_id":"4","last_reported":1725120603,"current_range_meters":800,"station_id":"chh1huq6cuj3fo74tm60","pricing_plan_id":"cebpf4jnsgd1na2vs0mg"},{"bike_id":"003ed30a-da03-4ed3-9ee1-6b96246d1090","system_id":"levelo_inurba_marseille","lat":43.290995,"lon":5.381361,"is_reserved":false,"is_disabled":false,"rental_uris":{"android":"levelo://app?vid=003ed30a-da03-4ed3-9ee1-6b96246d1090","ios":"levelo://app?vid=003ed30a-da03-4ed3-9ee1-6b96246d1090"},"vehicle_type_id":"4","last_reported":1725120603,"current_range_meters":27200,"station_id":"ce4bh512rcd13ifvqe2g","pricing_plan_id":"cebpf4jnsgd1na2vs0mg"},{"bike_id":"358a2d14-7360-4750-acd4-68b158315d6b","system_id":"levelo_inurba_marseille","lat":43.297807,"lon":5.393533,"is_reserved":false,"is_disabled":false,"rental_uris":{"android":"levelo://app?vid=358a2d14-7360-4750-acd4-68b158315d6b","ios":"levelo://app?vid=358a2d14-7360-4750-acd4-68b158315d6b"},"vehicle_type_id":"4","last_reported":1725120603,"current_range_meters":0,"station_id":"chh1huq6cuj3fo74tm60","pricing_plan_id":"cebpf4jnsgd1na2vs0mg"},{"bike_id":"956600ac-f3b0-430b-8b95-f88c76156cde","system_id":"levelo_inurba_marseille","lat":43.295367,"lon":5.390317,"is_reserved":false,"is_disabled":false,"rental_uris":{"android":"levelo://app?vid=956600ac-f3b0-430b-8b95-f88c76156cde","ios":"levelo://app?vid=956600ac-f3b0-430b-8b95-f88c76156cde"},"vehicle_type_id":"4","last_reported":1725120603,"current_range_meters":0,"station_id":"ce4bh3p2rcd13ifvqdp0","pricing_plan_id":"cebpf4jnsgd1na2vs0mg"},{"bike_id":"e1255df2-23e0-4f50-8604-61661718ce95","system_id":"levelo_inurba_marseille","lat":43.330442,"lon":5.389148,"is_reserved":false,"is_disabled":false,"rental_uris":{"android":"levelo://app?vid=e1255df2-23e0-4f50-8604-61661718ce95","ios":"levelo://app?vid=e1255df2-23e0-4f50-8604-61661718ce95"},"vehicle_type_id":"4","last_reported":1725120603,"current_range_meters":9600,"station_id":"ce4bhr92rcd13ifvqhrg","pricing_plan_id":"cebpf4jnsgd1na2vs0mg"},{"bike_id":"c0dc76bf-07e1-4989-ad3e-ee551f12673e","system_id":"levelo_inurba_marseille","lat":43.330442,"lon":5.389148,"is_reserved":false,"is_disabled":false,"rental_uris":{"android":"levelo://app?vid=c0dc76bf-07e1-4989-ad3e-ee551f12673e","ios":"levelo://app?vid=c0dc76bf-07e1-4989-ad3e-ee551f12673e"},"vehicle_type_id":"4","last_reported":1725120603,"current_range_meters":3600,"station_id":"ce4bhr92rcd13ifvqhrg","pricing_plan_id":"cebpf4jnsgd1na2vs0mg"},{"bike_id":"0a644a4f-3b74-4437-b23d-13d1c4b78ccf","system_id":"levelo_inurba_marseille","lat":43.330442,"lon":5.389148,"is_reserved":false,"is_disabled":false,"rental_uris":{"android":"levelo://app?vid=0a644a4f-3b74-4437-b23d-13d1c4b78ccf","ios":"levelo://app?vid=0a644a4f-3b74-4437-b23d-13d1c4b78ccf"},"vehicle_type_id":"4","last_reported":1725120603,"current_range_meters":31200,"station_id":"ce4bhr92rcd13ifvqhrg","pricing_plan_id":"cebpf4jnsgd1na2vs0mg"},{"bike_id":"7ac6f7eb-867f-48c9-b515-f84baa81f55b","system_id":"levelo_inurba_marseille","lat":43.330442,"lon":5.389148,"is_reserved":false,"is_disabled":false,"rental_uris":{"android":"levelo://app?vid=7ac6f7eb-867f-48c9-b515-f84baa81f55b","ios":"levelo://app?vid=7ac6f7eb-867f-48c9-b515-f84baa81f55b"},"vehicle_type_id":"4","last_reported":1725120603,"current_range_meters":28400,"station_id":"ce4bhr92rcd13ifvqhrg","pricing_plan_id":"cebpf4jnsgd1na2vs0mg"},{"bike_id":"398e729e-fdb9-4229-b12b-0caa80a52fa5","system_id":"levelo_inurba_marseille","lat":43.330442,"lon":5.389148,"is_reserved":false,"is_disabled":false,"rental_uris":{"android":"levelo://app?vid=398e729e-fdb9-4229-b12b-0caa80a52fa5","ios":"levelo://app?vid=398e729e-fdb9-4229-b12b-0caa80a52fa5"},"vehicle_type_id":"4","last_reported":1725120603,"current_range_meters":28800,"station_id":"ce4bhr92rcd13ifvqhrg","pricing_plan_id":"cebpf4jnsgd1na2vs0mg"},{"bike_id":"d2d77b09-2d0f-4506-a975-d13bb1c063e3","system_id":"levelo_inurba_marseille","lat":43.28973,"lon":5.37824,"is_reserved":false,"is_disabled":false,"rental_uris":{"android":"levelo://app?vid=d2d77b09-2d0f-4506-a975-d13bb1c063e3","ios":"levelo://app?vid=d2d77b09-2d0f-4506-a975-d13bb1c063e3"},"vehicle_type_id":"4","last_reported":1725120603,"current_range_meters":12000,"station_id":"ce4bh9p2rcd13ifvqed0","pricing_plan_id":"cebpf4jnsgd1na2vs0mg"},{"bike_id":"07031541-da7d-418b-bce8-caf35d3c22e5","system_id":"levelo_inurba_marseille","lat":43.330442,"lon":5.389148,"is_reserved":false,"is_disabled":false,"rental_uris":{"android":"levelo://app?vid=07031541-da7d-418b-bce8-caf35d3c22e5","ios":"levelo://app?vid=07031541-da7d-418b-bce8-caf35d3c22e5"},"vehicle_type_id":"4","last_reported":1725120603,"current_range_meters":25600,"station_id":"ce4bhr92rcd13ifvqhrg","pricing_plan_id":"cebpf4jnsgd1na2vs0mg"},{"bike_id":"ab589d60-ae13-4971-8611-104cbcc168be","system_id":"levelo_inurba_marseille","lat":43.330442,"lon":5.389148,"is_reserved":false,"is_disabled":false,"rental_uris":{"android":"levelo://app?vid=ab589d60-ae13-4971-8611-104cbcc168be","ios":"levelo://app?vid=ab589d60-ae13-4971-8611-104cbcc168be"},"vehicle_type_id":"4","last_reported":1725120603,"current_range_meters":4000,"station_id":"ce4bhr92rcd13ifvqhrg","pricing_plan_id":"cebpf4jnsgd1na2vs0mg"},{"bike_id":"dcdee03f-6e7f-46d0-a8b2-bca9a7186a15","system_id":"levelo_inurba_marseille","lat":43.330442,"lon":5.389148,"is_reserved":false,"is_disabled":false,"rental_uris":{"android":"levelo://app?vid=dcdee03f-6e7f-46d0-a8b2-bca9a7186a15","ios":"levelo://app?vid=dcdee03f-6e7f-46d0-a8b2-bca9a7186a15"},"vehicle_type_id":"4","last_reported":1725120603,"current_range_meters":29600,"station_id":"ce4bhr92rcd13ifvqhrg","pricing_plan_id":"cebpf4jnsgd1na2vs0mg"},{"bike_id":"ebb1edef-a60c-47a7-a4bc-c44f452ce38f","system_id":"levelo_inurba_marseille","lat":43.289741,"lon":5.378306,"is_reserved":false,"is_disabled":false,"rental_uris":{"android":"levelo://app?vid=ebb1edef-a60c-47a7-a4bc-c44f452ce38f","ios":"levelo://app?vid=ebb1edef-a60c-47a7-a4bc-c44f452ce38f"},"vehicle_type_id":"4","last_reported":1725120603,"current_range_meters":16800,"station_id":"ce4bh9p2rcd13ifvqed0","pricing_plan_id":"cebpf4jnsgd1na2vs0mg"},{"bike_id":"b5c3918b-9981-43ad-b1e3-631aec98047b","system_id":"levelo_inurba_marseille","lat":43.330442,"lon":5.389148,"is_reserved":false,"is_disabled":false,"rental_uris":{"android":"levelo://app?vid=b5c3918b-9981-43ad-b1e3-631aec98047b","ios":"levelo://app?vid=b5c3918b-9981-43ad-b1e3-631aec98047b"},"vehicle_type_id":"4","last_reported":1725120603,"current_range_meters":31600,"station_id":"ce4bhr92rcd13ifvqhrg","pricing_plan_id":"cebpf4jnsgd1na2vs0mg"},{"bike_id":"ac703beb-ba9b-41a7-afd2-0ed2fdc5e845","system_id":"levelo_inurba_marseille","lat":43.289741,"lon":5.378306,"is_reserved":false,"is_disabled":false,"rental_uris":{"android":"levelo://app?vid=ac703beb-ba9b-41a7-afd2-0ed2fdc5e845","ios":"levelo://app?vid=ac703beb-ba9b-41a7-afd2-0ed2fdc5e845"},"vehicle_type_id":"4","last_reported":1725120603,"current_range_meters":11600,"station_id":"ce4bh9p2rcd13ifvqed0","pricing_plan_id":"cebpf4jnsgd1na2vs0mg"},{"bike_id":"653eaef0-9bc5-46d0-8e22-88467486657a","system_id":"levelo_inurba_marseille","lat":43.28972,"lon":5.37838,"is_reserved":false,"is_disabled":false,"rental_uris":{"android":"levelo://app?vid=653eaef0-9bc5-46d0-8e22-88467486657a","ios":"levelo://app?vid=653eaef0-9bc5-46d0-8e22-88467486657a"},"vehicle_type_id":"4","last_reported":1725120603,"current_range_meters":0,"station_id":"ce4bh9p2rcd13ifvqed0","pricing_plan_id":"cebpf4jnsgd1na2vs0mg"},{"bike_id":"6ea919fb-8f0b-4974-8a4b-b7eeddc0d9ce","system_id":"levelo_inurba_marseille","lat":43.289741,"lon":5.378306,"is_reserved":false,"is_disabled":false,"rental_uris":{"android":"levelo://app?vid=6ea919fb-8f0b-4974-8a4b-b7eeddc0d9ce","ios":"levelo://app?vid=6ea919fb-8f0b-4974-8a4b-b7eeddc0d9ce"},"vehicle_type_id":"4","last_reported":1725120603,"current_range_meters":0,"station_id":"ce4bh9p2rcd13ifvqed0","pricing_plan_id":"cebpf4jnsgd1na2vs0mg"},{"bike_id":"48dd92c8-a26d-4d0b-b205-cd32ae09269f","system_id":"levelo_inurba_marseille","lat":43.330442,"lon":5.389148,"is_reserved":false,"is_disabled":false,"rental_uris":{"android":"levelo://app?vid=48dd92c8-a26d-4d0b-b205-cd32ae09269f","ios":"levelo://app?vid=48dd92c8-a26d-4d0b-b205-cd32ae09269f"},"vehicle_type_id":"4","last_reported":1725120603,"current_range_meters":26400,"station_id":"ce4bhr92rcd13ifvqhrg","pricing_plan_id":"cebpf4jnsgd1na2vs0mg"},{"bike_id":"f762d1f7-a054-45a4-9571-acd11ff790a9","system_id":"levelo_inurba_marseille","lat":43.2901,"lon":5.381269,"is_reserved":false,"is_disabled":false,"rental_uris":{"android":"levelo://app?vid=f762d1f7-a054-45a4-9571-acd11ff790a9","ios":"levelo://app?vid=f762d1f7-a054-45a4-9571-acd11ff790a9"},"vehicle_type_id":"4","last_reported":1725120603,"current_range_meters":5200,"station_id":"ce4bh4p2rcd13ifvqe1g","pricing_plan_id":"cebpf4jnsgd1na2vs0mg"},{"bike_id":"9742f2fe-4359-4018-b293-e41fb8faa997","system_id":"levelo_inurba_marseille","lat":43.28856,"lon":5.35859,"is_reserved":false,"is_disabled":false,"rental_uris":{"android":"levelo://app?vid=9742f2fe-4359-4018-b293-e41fb8faa997","ios":"levelo://app?vid=9742f2fe-4359-4018-b293-e41fb8faa997"},"vehicle_type_id":"4","last_reported":1725120603,"current_range_meters":0,"station_id":"ce4bhb12rcd13ifvqem0","pricing_plan_id":"cebpf4jnsgd1na2vs0mg"},{"bike_id":"2cf757ba-6687-4498-9085-10d09452f568","system_id":"levelo_inurba_marseille","lat":43.3375,"lon":5.37447,"is_reserved":false,"is_disabled":false,"rental_uris":{"android":"levelo://app?vid=2cf757ba-6687-4498-9085-10d09452f568","ios":"levelo://app?vid=2cf757ba-6687-4498-9085-10d09452f568"},"vehicle_type_id":"4","last_reported":1725120603,"current_range_meters":27200,"station_id":"","pricing_plan_id":"cebpf4jnsgd1na2vs0mg"},{"bike_id":"ac3f76a1-32fa-46a9-b40b-1d8f2319d192","system_id":"levelo_inurba_marseille","lat":43.309371,"lon":5.401449,"is_reserved":false,"is_disabled":false,"rental_uris":{"android":"levelo://app?vid=ac3f76a1-32fa-46a9-b40b-1d8f2319d192","ios":"levelo://app?vid=ac3f76a1-32fa-46a9-b40b-1d8f2319d192"},"vehicle_type_id":"4","last_reported":1725120603,"current_range_meters":400,"station_id":"ce4bgvp2rcd13ifvqct0","pricing_plan_id":"cebpf4jnsgd1na2vs0mg"},{"bike_id":"8cac9b46-db8b-4978-9ee4-b0375bb93662","system_id":"levelo_inurba_marseille","lat":43.337511,"lon":5.374646,"is_reserved":false,"is_disabled":false,"rental_uris":{"android":"levelo://app?vid=8cac9b46-db8b-4978-9ee4-b0375bb93662","ios":"levelo://app?vid=8cac9b46-db8b-4978-9ee4-b0375bb93662"},"vehicle_type_id":"4","last_reported":1725120603,"current_range_meters":24400,"station_id":"","pricing_plan_id":"cebpf4jnsgd1na2vs0mg"},{"bike_id":"a8227e9b-bd18-4fc0-b815-b7e484f2391f","system_id":"levelo_inurba_marseille","lat":43.33756,"lon":5.37449,"is_reserved":false,"is_disabled":false,"rental_uris":{"android":"levelo://app?vid=a8227e9b-bd18-4fc0-b815-b7e484f2391f","ios":"levelo://app?vid=a8227e9b-bd18-4fc0-b815-b7e484f2391f"},"vehicle_type_id":"4","last_reported":1725120603,"current_range_meters":29200,"station_id":"","pricing_plan_id":"cebpf4jnsgd1na2vs0mg"},{"bike_id":"3959be38-de68-44e9-b7fa-ece1c85d0da9","system_id":"levelo_inurba_marseille","lat":43.306412,"lon":5.401035,"is_reserved":false,"is_disabled":false,"rental_uris":{"android":"levelo://app?vid=3959be38-de68-44e9-b7fa-ece1c85d0da9","ios":"levelo://app?vid=3959be38-de68-44e9-b7fa-ece1c85d0da9"},"vehicle_type_id":"4","last_reported":1725120603,"current_range_meters":16000,"station_id":"ce4bh112rcd13ifvqda0","pricing_plan_id":"cebpf4jnsgd1na2vs0mg"},{"bike_id":"a54ce15e-8066-4d40-a065-5166632edca7","system_id":"levelo_inurba_marseille","lat":43.28727,"lon":5.36078,"is_reserved":false,"is_disabled":false,"rental_uris":{"android":"levelo://app?vid=a54ce15e-8066-4d40-a065-5166632edca7","ios":"levelo://app?vid=a54ce15e-8066-4d40-a065-5166632edca7"},"vehicle_type_id":"4","last_reported":1725120603,"current_range_meters":22800,"station_id":"cki0cbj6b192h4jlfktg","pricing_plan_id":"cebpf4jnsgd1na2vs0mg"},{"bike_id":"5fbc0c24-8f40-4c66-bbef-15e51dd5f439","system_id":"levelo_inurba_marseille","lat":43.298681,"lon":5.397225,"is_reserved":false,"is_disabled":false,"rental_uris":{"android":"levelo://app?vid=5fbc0c24-8f40-4c66-bbef-15e51dd5f439","ios":"levelo://app?vid=5fbc0c24-8f40-4c66-bbef-15e51dd5f439"},"vehicle_type_id":"4","last_reported":1725120603,"current_range_meters":800,"station_id":"ce4bh0h2rcd13ifvqd50","pricing_plan_id":"cebpf4jnsgd1na2vs0mg"},{"bike_id":"3da5e09b-faaa-4343-85d7-7c3450e33163","system_id":"levelo_inurba_marseille","lat":43.298681,"lon":5.397225,"is_reserved":false,"is_disabled":false,"rental_uris":{"android":"levelo://app?vid=3da5e09b-faaa-4343-85d7-7c3450e33163","ios":"levelo://app?vid=3da5e09b-faaa-4343-85d7-7c3450e33163"},"vehicle_type_id":"4","last_reported":1725120603,"current_range_meters":4400,"station_id":"ce4bh0h2rcd13ifvqd50","pricing_plan_id":"cebpf4jnsgd1na2vs0mg"},{"bike_id":"de610755-9459-4809-aeea-22ac2c932b0d","system_id":"levelo_inurba_marseille","lat":43.290336,"lon":5.386425,"is_reserved":false,"is_disabled":false,"rental_uris":{"android":"levelo://app?vid=de610755-9459-4809-aeea-22ac2c932b0d","ios":"levelo://app?vid=de610755-9459-4809-aeea-22ac2c932b0d"},"vehicle_type_id":"4","last_reported":1725120603,"current_range_meters":29600,"station_id":"ce4bh4p2rcd13ifvqe0g","pricing_plan_id":"cebpf4jnsgd1na2vs0mg"},{"bike_id":"82260ee8-1f8e-428d-b6df-c818402288d5","system_id":"levelo_inurba_marseille","lat":43.287185,"lon":5.379373,"is_reserved":false,"is_disabled":false,"rental_uris":{"android":"levelo://app?vid=82260ee8-1f8e-428d-b6df-c818402288d5","ios":"levelo://app?vid=82260ee8-1f8e-428d-b6df-c818402288d5"},"vehicle_type_id":"4","last_reported":1725120603,"current_range_meters":18000,"station_id":"ce4bh9p2rcd13ifvqec0","pricing_plan_id":"cebpf4jnsgd1na2vs0mg"},{"bike_id":"69a9fbd2-0aa3-47fe-aede-d207640687f0","system_id":"levelo_inurba_marseille","lat":43.287184,"lon":5.37937,"is_reserved":false,"is_disabled":false,"rental_uris":{"android":"levelo://app?vid=69a9fbd2-0aa3-47fe-aede-d207640687f0","ios":"levelo://app?vid=69a9fbd2-0aa3-47fe-aede-d207640687f0"},"vehicle_type_id":"4","last_reported":1725120603,"current_range_meters":9200,"station_id":"ce4bh9p2rcd13ifvqec0","pricing_plan_id":"cebpf4jnsgd1na2vs0mg"},{"bike_id":"640ddfcb-1f14-4288-8419-74866883ce26","system_id":"levelo_inurba_marseille","lat":43.291994,"lon":5.392907,"is_reserved":false,"is_disabled":false,"rental_uris":{"android":"levelo://app?vid=640ddfcb-1f14-4288-8419-74866883ce26","ios":"levelo://app?vid=640ddfcb-1f14-4288-8419-74866883ce26"},"vehicle_type_id":"4","last_reported":1725120603,"current_range_meters":3200,"station_id":"ce4bh192rcd13ifvqdd0","pricing_plan_id":"cebpf4jnsgd1na2vs0mg"},{"bike_id":"e5006343-6bcb-4379-a330-e4d841d49141","system_id":"levelo_inurba_marseille","lat":43.291994,"lon":5.392907,"is_reserved":false,"is_disabled":false,"rental_uris":{"android":"levelo://app?vid=e5006343-6bcb-4379-a330-e4d841d49141","ios":"levelo://app?vid=e5006343-6bcb-4379-a330-e4d841d49141"},"vehicle_type_id":"4","last_reported":1725120603,"current_range_meters":13600,"station_id":"ce4bh192rcd13ifvqdd0","pricing_plan_id":"cebpf4jnsgd1na2vs0mg"},{"bike_id":"5c41bd16-5737-41f0-a77c-bbd1dd10856c","system_id":"levelo_inurba_marseille","lat":43.291994,"lon":5.392907,"is_reserved":false,"is_disabled":false,"rental_uris":{"android":"levelo://app?vid=5c41bd16-5737-41f0-a77c-bbd1dd10856c","ios":"levelo://app?vid=5c41bd16-5737-41f0-a77c-bbd1dd10856c"},"vehicle_type_id":"4","last_reported":1725120603,"current_range_meters":8400,"station_id":"ce4bh192rcd13ifvqdd0","pricing_plan_id":"cebpf4jnsgd1na2vs0mg"},{"bike_id":"21d43c7e-a8db-41fa-9e9f-dbd44332d517","system_id":"levelo_inurba_marseille","lat":43.28465,"lon":5.35881,"is_reserved":false,"is_disabled":false,"rental_uris":{"android":"levelo://app?vid=21d43c7e-a8db-41fa-9e9f-dbd44332d517","ios":"levelo://app?vid=21d43c7e-a8db-41fa-9e9f-dbd44332d517"},"vehicle_type_id":"4","last_reported":1725120603,"current_range_meters":0,"station_id":"ce4bhah2rcd13ifvqei0","pricing_plan_id":"cebpf4jnsgd1na2vs0mg"},{"bike_id":"55cf9f4a-e1a7-4cd2-b075-4bf709708f22","system_id":"levelo_inurba_marseille","lat":43.284538,"lon":5.358657,"is_reserved":false,"is_disabled":false,"rental_uris":{"android":"levelo://app?vid=55cf9f4a-e1a7-4cd2-b075-4bf709708f22","ios":"levelo://app?vid=55cf9f4a-e1a7-4cd2-b075-4bf709708f22"},"vehicle_type_id":"4","last_reported":1725120603,"current_range_meters":8400,"station_id":"ce4bhah2rcd13ifvqei0","pricing_plan_id":"cebpf4jnsgd1na2vs0mg"},{"bike_id":"3efba184-45e3-428b-ac8a-9576d7974455","system_id":"levelo_inurba_marseille","lat":43.284534,"lon":5.358662,"is_reserved":false,"is_disabled":false,"rental_uris":{"android":"levelo://app?vid=3efba184-45e3-428b-ac8a-9576d7974455","ios":"levelo://app?vid=3efba184-45e3-428b-ac8a-9576d7974455"},"vehicle_type_id":"4","last_reported":1725120603,"current_range_meters":31200,"station_id":"ce4bhah2rcd13ifvqei0","pricing_plan_id":"cebpf4jnsgd1na2vs0mg"},{"bike_id":"3f1bb3d8-d6c4-4003-9e4c-7d256f71f749","system_id":"levelo_inurba_marseille","lat":43.28633,"lon":5.35112,"is_reserved":false,"is_disabled":false,"rental_uris":{"android":"levelo://app?vid=3f1bb3d8-d6c4-4003-9e4c-7d256f71f749","ios":"levelo://app?vid=3f1bb3d8-d6c4-4003-9e4c-7d256f71f749"},"vehicle_type_id":"4","last_reported":1725120603,"current_range_meters":30800,"station_id":"ce4bhch2rcd13ifvqeug","pricing_plan_id":"cebpf4jnsgd1na2vs0mg"},{"bike_id":"eb4c381a-8c23-4248-a19e-95f2cd0abcbc","system_id":"levelo_inurba_marseille","lat":43.28622,"lon":5.35103,"is_reserved":false,"is_disabled":false,"rental_uris":{"android":"levelo://app?vid=eb4c381a-8c23-4248-a19e-95f2cd0abcbc","ios":"levelo://app?vid=eb4c381a-8c23-4248-a19e-95f2cd0abcbc"},"vehicle_type_id":"4","last_reported":1725120603,"current_range_meters":9600,"station_id":"ce4bhch2rcd13ifvqeug","pricing_plan_id":"cebpf4jnsgd1na2vs0mg"},{"bike_id":"d0dd64b7-76e8-4345-8782-f7cf156188cc","system_id":"levelo_inurba_marseille","lat":43.2862,"lon":5.35102,"is_reserved":false,"is_disabled":false,"rental_uris":{"android":"levelo://app?vid=d0dd64b7-76e8-4345-8782-f7cf156188cc","ios":"levelo://app?vid=d0dd64b7-76e8-4345-8782-f7cf156188cc"},"vehicle_type_id":"4","last_reported":1725120603,"current_range_meters":29600,"station_id":"ce4bhch2rcd13ifvqeug","pricing_plan_id":"cebpf4jnsgd1na2vs0mg"},{"bike_id":"9b220acb-a6d2-400b-adfc-d8df3f666b4b","system_id":"levelo_inurba_marseille","lat":43.2862,"lon":5.351,"is_reserved":false,"is_disabled":false,"rental_uris":{"android":"levelo://app?vid=9b220acb-a6d2-400b-adfc-d8df3f666b4b","ios":"levelo://app?vid=9b220acb-a6d2-400b-adfc-d8df3f666b4b"},"vehicle_type_id":"4","last_reported":1725120603,"current_range_meters":30000,"station_id":"ce4bhch2rcd13ifvqeug","pricing_plan_id":"cebpf4jnsgd1na2vs0mg"},{"bike_id":"3374ae36-602b-4d51-99e5-ae6fe281e784","system_id":"levelo_inurba_marseille","lat":43.28618,"lon":5.35104,"is_reserved":false,"is_disabled":false,"rental_uris":{"android":"levelo://app?vid=3374ae36-602b-4d51-99e5-ae6fe281e784","ios":"levelo://app?vid=3374ae36-602b-4d51-99e5-ae6fe281e784"},"vehicle_type_id":"4","last_reported":1725120603,"current_range_meters":30000,"station_id":"ce4bhch2rcd13ifvqeug","pricing_plan_id":"cebpf4jnsgd1na2vs0mg"},{"bike_id":"614197d8-610f-413a-95db-41d393a83827","system_id":"levelo_inurba_marseille","lat":43.28617,"lon":5.35107,"is_reserved":false,"is_disabled":false,"rental_uris":{"android":"levelo://app?vid=614197d8-610f-413a-95db-41d393a83827","ios":"levelo://app?vid=614197d8-610f-413a-95db-41d393a83827"},"vehicle_type_id":"4","last_reported":1725120603,"current_range_meters":30800,"station_id":"ce4bhch2rcd13ifvqeug","pricing_plan_id":"cebpf4jnsgd1na2vs0mg"},{"bike_id":"23c1998f-c722-4e77-b25c-33afe801d5fe","system_id":"levelo_inurba_marseille","lat":43.28616,"lon":5.3511,"is_reserved":false,"is_disabled":false,"rental_uris":{"android":"levelo://app?vid=23c1998f-c722-4e77-b25c-33afe801d5fe","ios":"levelo://app?vid=23c1998f-c722-4e77-b25c-33afe801d5fe"},"vehicle_type_id":"4","last_reported":1725120603,"current_range_meters":21600,"station_id":"ce4bhch2rcd13ifvqeug","pricing_plan_id":"cebpf4jnsgd1na2vs0mg"},{"bike_id":"80839559-a286-4ed2-817b-b78d76c6d197","system_id":"levelo_inurba_marseille","lat":43.28615,"lon":5.35111,"is_reserved":false,"is_disabled":false,"rental_uris":{"android":"levelo://app?vid=80839559-a286-4ed2-817b-b78d76c6d197","ios":"levelo://app?vid=80839559-a286-4ed2-817b-b78d76c6d197"},"vehicle_type_id":"4","last_reported":1725120603,"current_range_meters":21600,"station_id":"ce4bhch2rcd13ifvqeug","pricing_plan_id":"cebpf4jnsgd1na2vs0mg"},{"bike_id":"dc34d470-84f1-4a5f-85b1-e95bc37979a8","system_id":"levelo_inurba_marseille","lat":43.28617,"lon":5.35104,"is_reserved":false,"is_disabled":false,"rental_uris":{"android":"levelo://app?vid=dc34d470-84f1-4a5f-85b1-e95bc37979a8","ios":"levelo://app?vid=dc34d470-84f1-4a5f-85b1-e95bc37979a8"},"vehicle_type_id":"4","last_reported":1725120603,"current_range_meters":20800,"station_id":"ce4bhch2rcd13ifvqeug","pricing_plan_id":"cebpf4jnsgd1na2vs0mg"},{"bike_id":"ab1fa1a5-a8b4-4e99-99cf-95d797612cbc","system_id":"levelo_inurba_marseille","lat":43.293249,"lon":5.371578,"is_reserved":false,"is_disabled":false,"rental_uris":{"android":"levelo://app?vid=ab1fa1a5-a8b4-4e99-99cf-95d797612cbc","ios":"levelo://app?vid=ab1fa1a5-a8b4-4e99-99cf-95d797612cbc"},"vehicle_type_id":"4","last_reported":1725120603,"current_range_meters":10800,"station_id":"ce4bgh92rcd13ifvqb40","pricing_plan_id":"cebpf4jnsgd1na2vs0mg"},{"bike_id":"9f695c9a-0480-4b0f-a8bb-25f8a955f336","system_id":"levelo_inurba_marseille","lat":43.285856,"lon":5.350771,"is_reserved":false,"is_disabled":false,"rental_uris":{"android":"levelo://app?vid=9f695c9a-0480-4b0f-a8bb-25f8a955f336","ios":"levelo://app?vid=9f695c9a-0480-4b0f-a8bb-25f8a955f336"},"vehicle_type_id":"4","last_reported":1725120603,"current_range_meters":31200,"station_id":"ce4bhch2rcd13ifvqeug","pricing_plan_id":"cebpf4jnsgd1na2vs0mg"},{"bike_id":"f7739048-b688-4ed8-8596-8c43b5f52a11","system_id":"levelo_inurba_marseille","lat":43.286193,"lon":5.350938,"is_reserved":false,"is_disabled":false,"rental_uris":{"android":"levelo://app?vid=f7739048-b688-4ed8-8596-8c43b5f52a11","ios":"levelo://app?vid=f7739048-b688-4ed8-8596-8c43b5f52a11"},"vehicle_type_id":"4","last_reported":1725120603,"current_range_meters":16000,"station_id":"ce4bhch2rcd13ifvqeug","pricing_plan_id":"cebpf4jnsgd1na2vs0mg"},{"bike_id":"df8e1456-afde-4253-8700-a088d6d9bd27","system_id":"levelo_inurba_marseille","lat":43.28617,"lon":5.351,"is_reserved":false,"is_disabled":false,"rental_uris":{"android":"levelo://app?vid=df8e1456-afde-4253-8700-a088d6d9bd27","ios":"levelo://app?vid=df8e1456-afde-4253-8700-a088d6d9bd27"},"vehicle_type_id":"4","last_reported":1725120603,"current_range_meters":31200,"station_id":"ce4bhch2rcd13ifvqeug","pricing_plan_id":"cebpf4jnsgd1na2vs0mg"},{"bike_id":"2d5d01c8-8769-470d-b302-4868a4036aee","system_id":"levelo_inurba_marseille","lat":43.285856,"lon":5.350771,"is_reserved":false,"is_disabled":false,"rental_uris":{"android":"levelo://app?vid=2d5d01c8-8769-470d-b302-4868a4036aee","ios":"levelo://app?vid=2d5d01c8-8769-470d-b302-4868a4036aee"},"vehicle_type_id":"4","last_reported":1725120603,"current_range_meters":31200,"station_id":"ce4bhch2rcd13ifvqeug","pricing_plan_id":"cebpf4jnsgd1na2vs0mg"},{"bike_id":"e4e78345-75ed-4fd5-9872-b35c9f8bb841","system_id":"levelo_inurba_marseille","lat":43.285856,"lon":5.350771,"is_reserved":false,"is_disabled":false,"rental_uris":{"android":"levelo://app?vid=e4e78345-75ed-4fd5-9872-b35c9f8bb841","ios":"levelo://app?vid=e4e78345-75ed-4fd5-9872-b35c9f8bb841"},"vehicle_type_id":"4","last_reported":1725120603,"current_range_meters":800,"station_id":"ce4bhch2rcd13ifvqeug","pricing_plan_id":"cebpf4jnsgd1na2vs0mg"},{"bike_id":"81c260e1-32e6-43b7-bbc2-51093327d6b6","system_id":"levelo_inurba_marseille","lat":43.28615,"lon":5.35105,"is_reserved":false,"is_disabled":false,"rental_uris":{"android":"levelo://app?vid=81c260e1-32e6-43b7-bbc2-51093327d6b6","ios":"levelo://app?vid=81c260e1-32e6-43b7-bbc2-51093327d6b6"},"vehicle_type_id":"4","last_reported":1725120603,"current_range_meters":10000,"station_id":"ce4bhch2rcd13ifvqeug","pricing_plan_id":"cebpf4jnsgd1na2vs0mg"},{"bike_id":"cfa3aad5-967c-4fc3-b029-436a21341147","system_id":"levelo_inurba_marseille","lat":43.28614,"lon":5.35107,"is_reserved":false,"is_disabled":false,"rental_uris":{"android":"levelo://app?vid=cfa3aad5-967c-4fc3-b029-436a21341147","ios":"levelo://app?vid=cfa3aad5-967c-4fc3-b029-436a21341147"},"vehicle_type_id":"4","last_reported":1725120603,"current_range_meters":12000,"station_id":"ce4bhch2rcd13ifvqeug","pricing_plan_id":"cebpf4jnsgd1na2vs0mg"},{"bike_id":"8b9931d6-5f3b-4227-aa4d-d7838c017f6d","system_id":"levelo_inurba_marseille","lat":43.285856,"lon":5.350771,"is_reserved":false,"is_disabled":false,"rental_uris":{"android":"levelo://app?vid=8b9931d6-5f3b-4227-aa4d-d7838c017f6d","ios":"levelo://app?vid=8b9931d6-5f3b-4227-aa4d-d7838c017f6d"},"vehicle_type_id":"4","last_reported":1725120603,"current_range_meters":31200,"station_id":"ce4bhch2rcd13ifvqeug","pricing_plan_id":"cebpf4jnsgd1na2vs0mg"},{"bike_id":"b4196874-35c9-4d80-8e5f-fdd1eade6544","system_id":"levelo_inurba_marseille","lat":43.28617,"lon":5.35095,"is_reserved":false,"is_disabled":false,"rental_uris":{"android":"levelo://app?vid=b4196874-35c9-4d80-8e5f-fdd1eade6544","ios":"levelo://app?vid=b4196874-35c9-4d80-8e5f-fdd1eade6544"},"vehicle_type_id":"4","last_reported":1725120603,"current_range_meters":15600,"station_id":"ce4bhch2rcd13ifvqeug","pricing_plan_id":"cebpf4jnsgd1na2vs0mg"},{"bike_id":"f78d2aae-d9ac-42a1-b97a-4e07111a8041","system_id":"levelo_inurba_marseille","lat":43.28615,"lon":5.35101,"is_reserved":false,"is_disabled":false,"rental_uris":{"android":"levelo://app?vid=f78d2aae-d9ac-42a1-b97a-4e07111a8041","ios":"levelo://app?vid=f78d2aae-d9ac-42a1-b97a-4e07111a8041"},"vehicle_type_id":"4","last_reported":1725120603,"current_range_meters":24800,"station_id":"ce4bhch2rcd13ifvqeug","pricing_plan_id":"cebpf4jnsgd1na2vs0mg"},{"bike_id":"31484b4f-22ba-4145-aedd-9fc5e81a2d8b","system_id":"levelo_inurba_marseille","lat":43.28614,"lon":5.35104,"is_reserved":false,"is_disabled":false,"rental_uris":{"android":"levelo://app?vid=31484b4f-22ba-4145-aedd-9fc5e81a2d8b","ios":"levelo://app?vid=31484b4f-22ba-4145-aedd-9fc5e81a2d8b"},"vehicle_type_id":"4","last_reported":1725120603,"current_range_meters":30800,"station_id":"ce4bhch2rcd13ifvqeug","pricing_plan_id":"cebpf4jnsgd1na2vs0mg"},{"bike_id":"c67b26c8-9593-4066-b9b9-4cf6d4911a8e","system_id":"levelo_inurba_marseille","lat":43.28614,"lon":5.35102,"is_reserved":false,"is_disabled":false,"rental_uris":{"android":"levelo://app?vid=c67b26c8-9593-4066-b9b9-4cf6d4911a8e","ios":"levelo://app?vid=c67b26c8-9593-4066-b9b9-4cf6d4911a8e"},"vehicle_type_id":"4","last_reported":1725120603,"current_range_meters":26400,"station_id":"ce4bhch2rcd13ifvqeug","pricing_plan_id":"cebpf4jnsgd1na2vs0mg"},{"bike_id":"2b4bdfab-0b92-4838-a280-737a12a6233e","system_id":"levelo_inurba_marseille","lat":43.286156,"lon":5.350968,"is_reserved":false,"is_disabled":false,"rental_uris":{"android":"levelo://app?vid=2b4bdfab-0b92-4838-a280-737a12a6233e","ios":"levelo://app?vid=2b4bdfab-0b92-4838-a280-737a12a6233e"},"vehicle_type_id":"4","last_reported":1725120603,"current_range_meters":14800,"station_id":"ce4bhch2rcd13ifvqeug","pricing_plan_id":"cebpf4jnsgd1na2vs0mg"},{"bike_id":"dd79b056-fa03-4a99-b7da-4a03b57d741d","system_id":"levelo_inurba_marseille","lat":43.286154,"lon":5.350975,"is_reserved":false,"is_disabled":false,"rental_uris":{"android":"levelo://app?vid=dd79b056-fa03-4a99-b7da-4a03b57d741d","ios":"levelo://app?vid=dd79b056-fa03-4a99-b7da-4a03b57d741d"},"vehicle_type_id":"4","last_reported":1725120603,"current_range_meters":23200,"station_id":"ce4bhch2rcd13ifvqeug","pricing_plan_id":"cebpf4jnsgd1na2vs0mg"},{"bike_id":"4bfeb955-241e-4a94-aca9-07f9e8a2ec5c","system_id":"levelo_inurba_marseille","lat":43.28611,"lon":5.35104,"is_reserved":false,"is_disabled":false,"rental_uris":{"android":"levelo://app?vid=4bfeb955-241e-4a94-aca9-07f9e8a2ec5c","ios":"levelo://app?vid=4bfeb955-241e-4a94-aca9-07f9e8a2ec5c"},"vehicle_type_id":"4","last_reported":1725120603,"current_range_meters":31200,"station_id":"ce4bhch2rcd13ifvqeug","pricing_plan_id":"cebpf4jnsgd1na2vs0mg"},{"bike_id":"d446e27c-95b6-468a-805a-3c8e86354df9","system_id":"levelo_inurba_marseille","lat":43.28615,"lon":5.35091,"is_reserved":false,"is_disabled":false,"rental_uris":{"android":"levelo://app?vid=d446e27c-95b6-468a-805a-3c8e86354df9","ios":"levelo://app?vid=d446e27c-95b6-468a-805a-3c8e86354df9"},"vehicle_type_id":"4","last_reported":1725120603,"current_range_meters":25200,"station_id":"ce4bhch2rcd13ifvqeug","pricing_plan_id":"cebpf4jnsgd1na2vs0mg"},{"bike_id":"fe76776d-ef7f-4e55-9c8d-82e650defc29","system_id":"levelo_inurba_marseille","lat":43.2861,"lon":5.35104,"is_reserved":false,"is_disabled":false,"rental_uris":{"android":"levelo://app?vid=fe76776d-ef7f-4e55-9c8d-82e650defc29","ios":"levelo://app?vid=fe76776d-ef7f-4e55-9c8d-82e650defc29"},"vehicle_type_id":"4","last_reported":1725120603,"current_range_meters":18000,"station_id":"ce4bhch2rcd13ifvqeug","pricing_plan_id":"cebpf4jnsgd1na2vs0mg"},{"bike_id":"5b899157-8493-46f6-946c-33fa90333ee2","system_id":"levelo_inurba_marseille","lat":43.28609,"lon":5.35103,"is_reserved":false,"is_disabled":false,"rental_uris":{"android":"levelo://app?vid=5b899157-8493-46f6-946c-33fa90333ee2","ios":"levelo://app?vid=5b899157-8493-46f6-946c-33fa90333ee2"},"vehicle_type_id":"4","last_reported":1725120603,"current_range_meters":12400,"station_id":"ce4bhch2rcd13ifvqeug","pricing_plan_id":"cebpf4jnsgd1na2vs0mg"},{"bike_id":"5e9d269f-2ad2-452a-8d7c-dd7fd08629fd","system_id":"levelo_inurba_marseille","lat":43.28611,"lon":5.35096,"is_reserved":false,"is_disabled":false,"rental_uris":{"android":"levelo://app?vid=5e9d269f-2ad2-452a-8d7c-dd7fd08629fd","ios":"levelo://app?vid=5e9d269f-2ad2-452a-8d7c-dd7fd08629fd"},"vehicle_type_id":"4","last_reported":1725120603,"current_range_meters":31200,"station_id":"ce4bhch2rcd13ifvqeug","pricing_plan_id":"cebpf4jnsgd1na2vs0mg"},{"bike_id":"a48b2549-6cd5-47d3-8258-725a5a949296","system_id":"levelo_inurba_marseille","lat":43.28419,"lon":5.37507,"is_reserved":false,"is_disabled":false,"rental_uris":{"android":"levelo://app?vid=a48b2549-6cd5-47d3-8258-725a5a949296","ios":"levelo://app?vid=a48b2549-6cd5-47d3-8258-725a5a949296"},"vehicle_type_id":"4","last_reported":1725120603,"current_range_meters":0,"station_id":"ce4bh412rcd13ifvqds0","pricing_plan_id":"cebpf4jnsgd1na2vs0mg"},{"bike_id":"c085892e-5321-42b1-9d16-a0a3a8fcde3e","system_id":"levelo_inurba_marseille","lat":43.283998,"lon":5.375062,"is_reserved":false,"is_disabled":false,"rental_uris":{"android":"levelo://app?vid=c085892e-5321-42b1-9d16-a0a3a8fcde3e","ios":"levelo://app?vid=c085892e-5321-42b1-9d16-a0a3a8fcde3e"},"vehicle_type_id":"4","last_reported":1725120603,"current_range_meters":0,"station_id":"ce4bh412rcd13ifvqds0","pricing_plan_id":"cebpf4jnsgd1na2vs0mg"},{"bike_id":"68588ea4-4e0e-4cf2-b84d-7fcb220c541c","system_id":"levelo_inurba_marseille","lat":43.34181,"lon":5.36026,"is_reserved":false,"is_disabled":false,"rental_uris":{"android":"levelo://app?vid=68588ea4-4e0e-4cf2-b84d-7fcb220c541c","ios":"levelo://app?vid=68588ea4-4e0e-4cf2-b84d-7fcb220c541c"},"vehicle_type_id":"4","last_reported":1725120603,"current_range_meters":0,"station_id":"","pricing_plan_id":"cebpf4jnsgd1na2vs0mg"},{"bike_id":"e900ee9d-f7b9-4a49-9f91-7da53ce318cd","system_id":"levelo_inurba_marseille","lat":43.28682,"lon":5.38656,"is_reserved":false,"is_disabled":false,"rental_uris":{"android":"levelo://app?vid=e900ee9d-f7b9-4a49-9f91-7da53ce318cd","ios":"levelo://app?vid=e900ee9d-f7b9-4a49-9f91-7da53ce318cd"},"vehicle_type_id":"4","last_reported":1725120603,"current_range_meters":0,"station_id":"ce4bh492rcd13ifvqdug","pricing_plan_id":"cebpf4jnsgd1na2vs0mg"},{"bike_id":"b54a8fbe-dc79-4298-aff3-d3214c108aa5","system_id":"levelo_inurba_marseille","lat":43.286595,"lon":5.386795,"is_reserved":false,"is_disabled":false,"rental_uris":{"android":"levelo://app?vid=b54a8fbe-dc79-4298-aff3-d3214c108aa5","ios":"levelo://app?vid=b54a8fbe-dc79-4298-aff3-d3214c108aa5"},"vehicle_type_id":"4","last_reported":1725120603,"current_range_meters":17200,"station_id":"ce4bh492rcd13ifvqdug","pricing_plan_id":"cebpf4jnsgd1na2vs0mg"},{"bike_id":"71ca5854-fd92-481f-88a7-6430b8ce5167","system_id":"levelo_inurba_marseille","lat":43.319179,"lon":5.407725,"is_reserved":false,"is_disabled":false,"rental_uris":{"android":"levelo://app?vid=71ca5854-fd92-481f-88a7-6430b8ce5167","ios":"levelo://app?vid=71ca5854-fd92-481f-88a7-6430b8ce5167"},"vehicle_type_id":"4","last_reported":1725120603,"current_range_meters":0,"station_id":"ce4bhq12rcd13ifvqhig","pricing_plan_id":"cebpf4jnsgd1na2vs0mg"},{"bike_id":"e25e4389-6cb6-4475-8df7-61451c80c4f8","system_id":"levelo_inurba_marseille","lat":43.323464,"lon":5.406297,"is_reserved":false,"is_disabled":false,"rental_uris":{"android":"levelo://app?vid=e25e4389-6cb6-4475-8df7-61451c80c4f8","ios":"levelo://app?vid=e25e4389-6cb6-4475-8df7-61451c80c4f8"},"vehicle_type_id":"4","last_reported":1725120603,"current_range_meters":31600,"station_id":"ce4bhq92rcd13ifvqhjg","pricing_plan_id":"cebpf4jnsgd1na2vs0mg"},{"bike_id":"a59be263-2814-4a52-b7b8-890ab4d1336a","system_id":"levelo_inurba_marseille","lat":43.323464,"lon":5.406297,"is_reserved":false,"is_disabled":false,"rental_uris":{"android":"levelo://app?vid=a59be263-2814-4a52-b7b8-890ab4d1336a","ios":"levelo://app?vid=a59be263-2814-4a52-b7b8-890ab4d1336a"},"vehicle_type_id":"4","last_reported":1725120603,"current_range_meters":23600,"station_id":"ce4bhq92rcd13ifvqhjg","pricing_plan_id":"cebpf4jnsgd1na2vs0mg"},{"bike_id":"f6856dc7-e7c9-41de-9616-f79c0558d53a","system_id":"levelo_inurba_marseille","lat":43.323464,"lon":5.406297,"is_reserved":false,"is_disabled":false,"rental_uris":{"android":"levelo://app?vid=f6856dc7-e7c9-41de-9616-f79c0558d53a","ios":"levelo://app?vid=f6856dc7-e7c9-41de-9616-f79c0558d53a"},"vehicle_type_id":"4","last_reported":1725120603,"current_range_meters":16400,"station_id":"ce4bhq92rcd13ifvqhjg","pricing_plan_id":"cebpf4jnsgd1na2vs0mg"},{"bike_id":"cb5fdb8c-c6fb-460e-a43d-d66b57905c3b","system_id":"levelo_inurba_marseille","lat":43.323464,"lon":5.406297,"is_reserved":false,"is_disabled":false,"rental_uris":{"android":"levelo://app?vid=cb5fdb8c-c6fb-460e-a43d-d66b57905c3b","ios":"levelo://app?vid=cb5fdb8c-c6fb-460e-a43d-d66b57905c3b"},"vehicle_type_id":"4","last_reported":1725120603,"current_range_meters":4000,"station_id":"ce4bhq92rcd13ifvqhjg","pricing_plan_id":"cebpf4jnsgd1na2vs0mg"},