{"last_updated":1684789558,"ttl":30,"version":"2.2","data":{"bikes":[{"bike_id":"460f19ce-3533-4e0e-9bc9-d526d1a1bad5","system_id":"levelo_inurba_marseille","lat":43.31341,"lon":5.367098,"is_reserved":false,"is_disabled":false,"rental_uris":{"android":"levelo://app?vid=460f19ce-3533-4e0e-9bc9-d526d1a1bad5","ios":"levelo://app?vid=460f19ce-3533-4e0e-9bc9-d526d1a1bad5"},"vehicle_type_id":"4","last_reported":1684789558,"current_range_meters":5200,"station_id":"ce4bgr92rcd13ifvqc6g","pricing_plan_id":"free"},{"bike_id":"78c54cd8-8410-40ac-9de2-53a797dfa57d","system_id":"levelo_inurba_marseille","lat":43.309076,"lon":5.368465,"is_reserved":false,"is_disabled":false,"rental_uris":{"android":"levelo://app?vid=78c54cd8-8410-40ac-9de2-53a797dfa57d","ios":"levelo://app?vid=78c54cd8-8410-40ac-9de2-53a797dfa57d"},"vehicle_type_id":"4","last_reported":1684789558,"current_range_meters":18800,"station_id":"ce4bgn92rcd13ifvqbvg","pricing_plan_id":"free"},{"bike_id":"bdd212f1-a957-4f8f-ba63-a255a1393a16","system_id":"levelo_inurba_marseille","lat":43.309076,"lon":5.368465,"is_reserved":false,"is_disabled":false,"rental_uris":{"android":"levelo://app?vid=bdd212f1-a957-4f8f-ba63-a255a1393a16","ios":"levelo://app?vid=bdd212f1-a957-4f8f-ba63-a255a1393a16"},"vehicle_type_id":"4","last_reported":1684789558,"current_range_meters":18400,"station_id":"ce4bgn92rcd13ifvqbvg","pricing_plan_id":"free"},{"bike_id":"da99a2fd-e506-4ad1-a062-c64f565dcbb1","system_id":"levelo_inurba_marseille","lat":43.308614,"lon":5.372098,"is_reserved":false,"is_disabled":false,"rental_uris":{"android":"levelo://app?vid=da99a2fd-e506-4ad1-a062-c64f565dcbb1","ios":"levelo://app?vid=da99a2fd-e506-4ad1-a062-c64f565dcbb1"},"vehicle_type_id":"4","last_reported":1684789558,"current_range_meters":18800,"station_id":"ce4bguh2rcd13ifvqckg","pricing_plan_id":"free"},{"bike_id":"500b68df-c817-48c7-b158-c530a6be3288","system_id":"levelo_inurba_marseille","lat":43.308614,"lon":5.372098,"is_reserved":false,"is_disabled":false,"rental_uris":{"android":"levelo://app?vid=500b68df-c817-48c7-b158-c530a6be3288","ios":"levelo://app?vid=500b68df-c817-48c7-b158-c530a6be3288"},"vehicle_type_id":"4","last_reported":1684789558,"current_range_meters":10400,"station_id":"ce4bguh2rcd13ifvqckg","pricing_plan_id":"free"},{"bike_id":"b281005e-b5e9-4060-b8a2-ab04b41d7962","system_id":"levelo_inurba_marseille","lat":43.305989,"lon":5.37225,"is_reserved":false,"is_disabled":false,"rental_uris":{"android":"levelo://app?vid=b281005e-b5e9-4060-b8a2-ab04b41d7962","ios":"levelo://app?vid=b281005e-b5e9-4060-b8a2-ab04b41d7962"},"vehicle_type_id":"4","last_reported":1684789558,"current_range_meters":4400,"station_id":"ce4bgqh2rcd13ifvqc4g","pricing_plan_id":"free"},{"bike_id":"63c31412-a347-4ba6-96b5-606b12e7553a","system_id":"levelo_inurba_marseille","lat":43.30605,"lon":5.37229,"is_reserved":false,"is_disabled":false,"rental_uris":{"android":"levelo://app?vid=63c31412-a347-4ba6-96b5-606b12e7553a","ios":"levelo://app?vid=63c31412-a347-4ba6-96b5-606b12e7553a"},"vehicle_type_id":"4","last_reported":1684789558,"current_range_meters":25600,"station_id":"ce4bgqh2rcd13ifvqc4g","pricing_plan_id":"free"},{"bike_id":"f2ed0349-543f-4a73-9129-0d8a0169ec1f","system_id":"levelo_inurba_marseille","lat":43.305989,"lon":5.37225,"is_reserved":false,"is_disabled":false,"rental_uris":{"android":"levelo://app?vid=f2ed0349-543f-4a73-9129-0d8a0169ec1f","ios":"levelo://app?vid=f2ed0349-543f-4a73-9129-0d8a0169ec1f"},"vehicle_type_id":"4","last_reported":1684789558,"current_range_meters":31200,"station_id":"ce4bgqh2rcd13ifvqc4g","pricing_plan_id":"free"},{"bike_id":"053f8717-a6b5-454c-adeb-86c220b2ba02","system_id":"levelo_inurba_marseille","lat":43.305989,"lon":5.37225,"is_reserved":false,"is_disabled":false,"rental_uris":{"android":"levelo://app?vid=053f8717-a6b5-454c-adeb-86c220b2ba02","ios":"levelo://app?vid=053f8717-a6b5-454c-adeb-86c220b2ba02"},"vehicle_type_id":"4","last_reported":1684789558,"current_range_meters":24800,"station_id":"ce4bgqh2rcd13ifvqc4g","pricing_plan_id":"free"},{"bike_id":"a710960d-83b5-4e33-9b7e-5e259884c958","system_id":"levelo_inurba_marseille","lat":43.317075,"lon":5.377367,"is_reserved":false,"is_disabled":false,"rental_uris":{"android":"levelo://app?vid=a710960d-83b5-4e33-9b7e-5e259884c958","ios":"levelo://app?vid=a710960d-83b5-4e33-9b7e-5e259884c958"},"vehicle_type_id":"4","last_reported":1684789558,"current_range_meters":20000,"station_id":"ce4bgth2rcd13ifvqch0","pricing_plan_id":"free"},{"bike_id":"01cb1f9e-88ac-4cae-b815-eb2cf09ac55d","system_id":"levelo_inurba_marseille","lat":43.317075,"lon":5.377367,"is_reserved":false,"is_disabled":false,"rental_uris":{"android":"levelo://app?vid=01cb1f9e-88ac-4cae-b815-eb2cf09ac55d","ios":"levelo://app?vid=01cb1f9e-88ac-4cae-b815-eb2cf09ac55d"},"vehicle_type_id":"4","last_reported":1684789558,"current_range_meters":14000,"station_id":"ce4bgth2rcd13ifvqch0","pricing_plan_id":"free"},{"bike_id":"a44214c2-4700-4705-bd88-6d894ade7cb1","system_id":"levelo_inurba_marseille","lat":43.315289,"lon":5.380349,"is_reserved":false,"is_disabled":false,"rental_uris":{"android":"levelo://app?vid=a44214c2-4700-4705-bd88-6d894ade7cb1","ios":"levelo://app?vid=a44214c2-4700-4705-bd88-6d894ade7cb1"},"vehicle_type_id":"4","last_reported":1684789558,"current_range_meters":15200,"station_id":"ce4bhsp2rcd13ifvqi50","pricing_plan_id":"free"},{"bike_id":"fc92116e-5e99-4a1e-bbbc-810317e537cc","system_id":"levelo_inurba_marseille","lat":43.315293,"lon":5.380349,"is_reserved":false,"is_disabled":false,"rental_uris":{"android":"levelo://app?vid=fc92116e-5e99-4a1e-bbbc-810317e537cc","ios":"levelo://app?vid=fc92116e-5e99-4a1e-bbbc-810317e537cc"},"vehicle_type_id":"4","last_reported":1684789558,"current_range_meters":29600,"station_id":"ce4bhsp2rcd13ifvqi50","pricing_plan_id":"free"},{"bike_id":"70027a23-fa34-4694-afb1-e1e87d7b812d","system_id":"levelo_inurba_marseille","lat":43.301939,"lon":5.366286,"is_reserved":false,"is_disabled":false,"rental_uris":{"android":"levelo://app?vid=70027a23-fa34-4694-afb1-e1e87d7b812d","ios":"levelo://app?vid=70027a23-fa34-4694-afb1-e1e87d7b812d"},"vehicle_type_id":"4","last_reported":1684789558,"current_range_meters":17200,"station_id":"ce4bgrh2rcd13ifvqc8g","pricing_plan_id":"free"},{"bike_id":"6a75c236-5342-40ec-98ef-e72d7f56bb03","system_id":"levelo_inurba_marseille","lat":43.301939,"lon":5.366286,"is_reserved":false,"is_disabled":false,"rental_uris":{"android":"levelo://app?vid=6a75c236-5342-40ec-98ef-e72d7f56bb03","ios":"levelo://app?vid=6a75c236-5342-40ec-98ef-e72d7f56bb03"},"vehicle_type_id":"4","last_reported":1684789558,"current_range_meters":8000,"station_id":"ce4bgrh2rcd13ifvqc8g","pricing_plan_id":"free"},{"bike_id":"3c325e6d-b03c-4de8-afad-fad89e436908","system_id":"levelo_inurba_marseille","lat":43.301939,"lon":5.366286,"is_reserved":false,"is_disabled":false,"rental_uris":{"android":"levelo://app?vid=3c325e6d-b03c-4de8-afad-fad89e436908","ios":"levelo://app?vid=3c325e6d-b03c-4de8-afad-fad89e436908"},"vehicle_type_id":"4","last_reported":1684789558,"current_range_meters":0,"station_id":"ce4bgrh2rcd13ifvqc8g","pricing_plan_id":"free"},{"bike_id":"9bae9840-ed93-44fb-a5d4-fae1df29a1de","system_id":"levelo_inurba_marseille","lat":43.31018,"lon":5.38187,"is_reserved":false,"is_disabled":false,"rental_uris":{"android":"levelo://app?vid=9bae9840-ed93-44fb-a5d4-fae1df29a1de","ios":"levelo://app?vid=9bae9840-ed93-44fb-a5d4-fae1df29a1de"},"vehicle_type_id":"4","last_reported":1684789558,"current_range_meters":22400,"station_id":"","pricing_plan_id":"free"},{"bike_id":"2fcb3fba-42aa-437d-8a97-9542e2b43d1c","system_id":"levelo_inurba_marseille","lat":43.308012,"lon":5.381511,"is_reserved":false,"is_disabled":false,"rental_uris":{"android":"levelo://app?vid=2fcb3fba-42aa-437d-8a97-9542e2b43d1c","ios":"levelo://app?vid=2fcb3fba-42aa-437d-8a97-9542e2b43d1c"},"vehicle_type_id":"4","last_reported":1684789558,"current_range_meters":7200,"station_id":"ce4bgt12rcd13ifvqce0","pricing_plan_id":"free"},{"bike_id":"1107bfd1-0642-4bd2-be75-84eea7fe3005","system_id":"levelo_inurba_marseille","lat":43.308012,"lon":5.381511,"is_reserved":false,"is_disabled":false,"rental_uris":{"android":"levelo://app?vid=1107bfd1-0642-4bd2-be75-84eea7fe3005","ios":"levelo://app?vid=1107bfd1-0642-4bd2-be75-84eea7fe3005"},"vehicle_type_id":"4","last_reported":1684789558,"current_range_meters":9200,"station_id":"ce4bgt12rcd13ifvqce0","pricing_plan_id":"free"},{"bike_id":"7af393ec-13ba-4fbc-b233-133664b816ae","system_id":"levelo_inurba_marseille","lat":43.308012,"lon":5.381511,"is_reserved":false,"is_disabled":false,"rental_uris":{"android":"levelo://app?vid=7af393ec-13ba-4fbc-b233-133664b816ae","ios":"levelo://app?vid=7af393ec-13ba-4fbc-b233-133664b816ae"},"vehicle_type_id":"4","last_reported":1684789558,"current_range_meters":23600,"station_id":"ce4bgt12rcd13ifvqce0","pricing_plan_id":"free"},{"bike_id":"7ef46d0b-9ac4-457e-a1d8-f4dcac74039c","system_id":"levelo_inurba_marseille","lat":43.308012,"lon":5.381511,"is_reserved":false,"is_disabled":false,"rental_uris":{"android":"levelo://app?vid=7ef46d0b-9ac4-457e-a1d8-f4dcac74039c","ios":"levelo://app?vid=7ef46d0b-9ac4-457e-a1d8-f4dcac74039c"},"vehicle_type_id":"4","last_reported":1684789558,"current_range_meters":28000,"station_id":"ce4bgt12rcd13ifvqce0","pricing_plan_id":"free"},{"bike_id":"4dfde6a7-02ba-44e8-8d36-6d9e823b6ccb","system_id":"levelo_inurba_marseille","lat":43.304606,"lon":5.379026,"is_reserved":false,"is_disabled":false,"rental_uris":{"android":"levelo://app?vid=4dfde6a7-02ba-44e8-8d36-6d9e823b6ccb","ios":"levelo://app?vid=4dfde6a7-02ba-44e8-8d36-6d9e823b6ccb"},"vehicle_type_id":"4","last_reported":1684789558,"current_range_meters":9200,"station_id":"ce4bgup2rcd13ifvqcn0","pricing_plan_id":"free"},{"bike_id":"184d2356-183d-4bf1-8508-52c139d8a6fb","system_id":"levelo_inurba_marseille","lat":43.304606,"lon":5.379026,"is_reserved":false,"is_disabled":false,"rental_uris":{"android":"levelo://app?vid=184d2356-183d-4bf1-8508-52c139d8a6fb","ios":"levelo://app?vid=184d2356-183d-4bf1-8508-52c139d8a6fb"},"vehicle_type_id":"4","last_reported":1684789558,"current_range_meters":22400,"station_id":"ce4bgup2rcd13ifvqcn0","pricing_plan_id":"free"},{"bike_id":"5028363d-8222-4177-b2c2-12ddbfd4f4e5","system_id":"levelo_inurba_marseille","lat":43.304606,"lon":5.379026,"is_reserved":false,"is_disabled":false,"rental_uris":{"android":"levelo://app?vid=5028363d-8222-4177-b2c2-12ddbfd4f4e5","ios":"levelo://app?vid=5028363d-8222-4177-b2c2-12ddbfd4f4e5"},"vehicle_type_id":"4","last_reported":1684789558,"current_range_meters":3600,"station_id":"ce4bgup2rcd13ifvqcn0","pricing_plan_id":"free"},{"bike_id":"7ea07382-128c-4094-975c-2ecb6cc97de9","system_id":"levelo_inurba_marseille","lat":43.31995,"lon":5.38156,"is_reserved":false,"is_disabled":false,"rental_uris":{"android":"levelo://app?vid=7ea07382-128c-4094-975c-2ecb6cc97de9","ios":"levelo://app?vid=7ea07382-128c-4094-975c-2ecb6cc97de9"},"vehicle_type_id":"4","last_reported":1684789558,"current_range_meters":10400,"station_id":"ce4bhr12rcd13ifvqhpg","pricing_plan_id":"free"},{"bike_id":"4f042806-753f-4764-a013-a8a8f74d9ea3","system_id":"levelo_inurba_marseille","lat":43.32007,"lon":5.38159,"is_reserved":false,"is_disabled":false,"rental_uris":{"android":"levelo://app?vid=4f042806-753f-4764-a013-a8a8f74d9ea3","ios":"levelo://app?vid=4f042806-753f-4764-a013-a8a8f74d9ea3"},"vehicle_type_id":"4","last_reported":1684789558,"current_range_meters":400,"station_id":"ce4bhr12rcd13ifvqhpg","pricing_plan_id":"free"},{"bike_id":"457cabb8-aa83-4382-bfc2-3298a5a76c71","system_id":"levelo_inurba_marseille","lat":43.313571,"lon":5.384829,"is_reserved":false,"is_disabled":false,"rental_uris":{"android":"levelo://app?vid=457cabb8-aa83-4382-bfc2-3298a5a76c71","ios":"levelo://app?vid=457cabb8-aa83-4382-bfc2-3298a5a76c71"},"vehicle_type_id":"4","last_reported":1684789558,"current_range_meters":5600,"station_id":"ce4bgt92rcd13ifvqcf0","pricing_plan_id":"free"},{"bike_id":"c6deb572-6d22-4d95-abfa-2f1a83c0e17b","system_id":"levelo_inurba_marseille","lat":43.313571,"lon":5.384829,"is_reserved":false,"is_disabled":false,"rental_uris":{"android":"levelo://app?vid=c6deb572-6d22-4d95-abfa-2f1a83c0e17b","ios":"levelo://app?vid=c6deb572-6d22-4d95-abfa-2f1a83c0e17b"},"vehicle_type_id":"4","last_reported":1684789558,"current_range_meters":25200,"station_id":"ce4bgt92rcd13ifvqcf0","pricing_plan_id":"free"},{"bike_id":"79dd914f-6c45-4474-b311-80cd343a3b64","system_id":"levelo_inurba_marseille","lat":43.31357,"lon":5.38517,"is_reserved":false,"is_disabled":false,"rental_uris":{"android":"levelo://app?vid=79dd914f-6c45-4474-b311-80cd343a3b64","ios":"levelo://app?vid=79dd914f-6c45-4474-b311-80cd343a3b64"},"vehicle_type_id":"4","last_reported":1684789558,"current_range_meters":25600,"station_id":"ce4bgt92rcd13ifvqcf0","pricing_plan_id":"free"},{"bike_id":"0561fc32-8dda-477c-8ef8-b0ca4405d5a8","system_id":"levelo_inurba_marseille","lat":43.29945,"lon":5.36543,"is_reserved":false,"is_disabled":false,"rental_uris":{"android":"levelo://app?vid=0561fc32-8dda-477c-8ef8-b0ca4405d5a8","ios":"levelo://app?vid=0561fc32-8dda-477c-8ef8-b0ca4405d5a8"},"vehicle_type_id":"4","last_reported":1684789558,"current_range_meters":0,"station_id":"ce4bgm92rcd13ifvqbr0","pricing_plan_id":"free"},{"bike_id":"19d0ab12-bbc6-4d63-9cde-9b7fd6cdf8f6","system_id":"levelo_inurba_marseille","lat":43.299222,"lon":5.365554,"is_reserved":false,"is_disabled":false,"rental_uris":{"android":"levelo://app?vid=19d0ab12-bbc6-4d63-9cde-9b7fd6cdf8f6","ios":"levelo://app?vid=19d0ab12-bbc6-4d63-9cde-9b7fd6cdf8f6"},"vehicle_type_id":"4","last_reported":1684789558,"current_range_meters":10000,"station_id":"ce4bgm92rcd13ifvqbr0","pricing_plan_id":"free"},{"bike_id":"86338c9f-11e3-4380-84b4-67e5eed9bee7","system_id":"levelo_inurba_marseille","lat":43.305364,"lon":5.384119,"is_reserved":false,"is_disabled":false,"rental_uris":{"android":"levelo://app?vid=86338c9f-11e3-4380-84b4-67e5eed9bee7","ios":"levelo://app?vid=86338c9f-11e3-4380-84b4-67e5eed9bee7"},"vehicle_type_id":"4","last_reported":1684789558,"current_range_meters":0,"station_id":"ce4bgg92rcd13ifvqb30","pricing_plan_id":"free"},{"bike_id":"a0cf1be7-0005-475c-8744-1fbac1c7c3f5","system_id":"levelo_inurba_marseille","lat":43.31171,"lon":5.38707,"is_reserved":false,"is_disabled":false,"rental_uris":{"android":"levelo://app?vid=a0cf1be7-0005-475c-8744-1fbac1c7c3f5","ios":"levelo://app?vid=a0cf1be7-0005-475c-8744-1fbac1c7c3f5"},"vehicle_type_id":"4","last_reported":1684789558,"current_range_meters":22400,"station_id":"ce4bgv12rcd13ifvqcp0","pricing_plan_id":"free"},{"bike_id":"171b2947-baf3-4ffc-a468-cdc51d6f160f","system_id":"levelo_inurba_marseille","lat":43.29796,"lon":5.36548,"is_reserved":false,"is_disabled":false,"rental_uris":{"android":"levelo://app?vid=171b2947-baf3-4ffc-a468-cdc51d6f160f","ios":"levelo://app?vid=171b2947-baf3-4ffc-a468-cdc51d6f160f"},"vehicle_type_id":"4","last_reported":1684789558,"current_range_meters":23200,"station_id":"","pricing_plan_id":"free"},{"bike_id":"cf5ba93a-4540-4bb3-8a65-808159e6dbb2","system_id":"levelo_inurba_marseille","lat":43.311722,"lon":5.387247,"is_reserved":false,"is_disabled":false,"rental_uris":{"android":"levelo://app?vid=cf5ba93a-4540-4bb3-8a65-808159e6dbb2","ios":"levelo://app?vid=cf5ba93a-4540-4bb3-8a65-808159e6dbb2"},"vehicle_type_id":"4","last_reported":1684789558,"current_range_meters":5600,"station_id":"ce4bgv12rcd13ifvqcp0","pricing_plan_id":"free"},{"bike_id":"71a7cd51-c98e-4b63-902f-c2f5a808a065","system_id":"levelo_inurba_marseille","lat":43.32778,"lon":5.36687,"is_reserved":false,"is_disabled":false,"rental_uris":{"android":"levelo://app?vid=71a7cd51-c98e-4b63-902f-c2f5a808a065","ios":"levelo://app?vid=71a7cd51-c98e-4b63-902f-c2f5a808a065"},"vehicle_type_id":"4","last_reported":1684789558,"current_range_meters":12800,"station_id":"","pricing_plan_id":"free"},{"bike_id":"a2ac4576-5354-4814-871c-625f103d3696","system_id":"levelo_inurba_marseille","lat":43.32822,"lon":5.36687,"is_reserved":false,"is_disabled":false,"rental_uris":{"android":"levelo://app?vid=a2ac4576-5354-4814-871c-625f103d3696","ios":"levelo://app?vid=a2ac4576-5354-4814-871c-625f103d3696"},"vehicle_type_id":"4","last_reported":1684789558,"current_range_meters":16000,"station_id":"ce4bhs92rcd13ifvqi0g","pricing_plan_id":"free"},{"bike_id":"411c53dc-8a67-493a-b123-b1e299cae53c","system_id":"levelo_inurba_marseille","lat":43.32824,"lon":5.36683,"is_reserved":false,"is_disabled":false,"rental_uris":{"android":"levelo://app?vid=411c53dc-8a67-493a-b123-b1e299cae53c","ios":"levelo://app?vid=411c53dc-8a67-493a-b123-b1e299cae53c"},"vehicle_type_id":"4","last_reported":1684789558,"current_range_meters":22400,"station_id":"ce4bhs92rcd13ifvqi0g","pricing_plan_id":"free"},{"bike_id":"a7fb6a73-9ebf-4b56-938e-67995ffda768","system_id":"levelo_inurba_marseille","lat":43.32824,"lon":5.36678,"is_reserved":false,"is_disabled":false,"rental_uris":{"android":"levelo://app?vid=a7fb6a73-9ebf-4b56-938e-67995ffda768","ios":"levelo://app?vid=a7fb6a73-9ebf-4b56-938e-67995ffda768"},"vehicle_type_id":"4","last_reported":1684789558,"current_range_meters":24000,"station_id":"ce4bhs92rcd13ifvqi0g","pricing_plan_id":"free"},{"bike_id":"9d891959-73d6-4c5c-ad12-227228d64e9d","system_id":"levelo_inurba_marseille","lat":43.32829,"lon":5.36679,"is_reserved":false,"is_disabled":false,"rental_uris":{"android":"levelo://app?vid=9d891959-73d6-4c5c-ad12-227228d64e9d","ios":"levelo://app?vid=9d891959-73d6-4c5c-ad12-227228d64e9d"},"vehicle_type_id":"4","last_reported":1684789558,"current_range_meters":10400,"station_id":"ce4bhs92rcd13ifvqi0g","pricing_plan_id":"free"},{"bike_id":"0c527357-382a-455f-b5f5-320006445085","system_id":"levelo_inurba_marseille","lat":43.328371,"lon":5.366909,"is_reserved":false,"is_disabled":false,"rental_uris":{"android":"levelo://app?vid=0c527357-382a-455f-b5f5-320006445085","ios":"levelo://app?vid=0c527357-382a-455f-b5f5-320006445085"},"vehicle_type_id":"4","last_reported":1684789558,"current_range_meters":6800,"station_id":"ce4bhs92rcd13ifvqi0g","pricing_plan_id":"free"},{"bike_id":"56569103-3d78-4795-9074-b49cf021049d","system_id":"levelo_inurba_marseille","lat":43.32832,"lon":5.36685,"is_reserved":false,"is_disabled":false,"rental_uris":{"android":"levelo://app?vid=56569103-3d78-4795-9074-b49cf021049d","ios":"levelo://app?vid=56569103-3d78-4795-9074-b49cf021049d"},"vehicle_type_id":"4","last_reported":1684789558,"current_range_meters":0,"station_id":"ce4bhs92rcd13ifvqi0g","pricing_plan_id":"free"},{"bike_id":"59f7c8e9-ca2e-40e2-a950-1cb3054febcc","system_id":"levelo_inurba_marseille","lat":43.328371,"lon":5.366912,"is_reserved":false,"is_disabled":false,"rental_uris":{"android":"levelo://app?vid=59f7c8e9-ca2e-40e2-a950-1cb3054febcc","ios":"levelo://app?vid=59f7c8e9-ca2e-40e2-a950-1cb3054febcc"},"vehicle_type_id":"4","last_reported":1684789558,"current_range_meters":0,"station_id":"ce4bhs92rcd13ifvqi0g","pricing_plan_id":"free"},{"bike_id":"827edc69-8978-4b93-b20d-1ac5bcb0de9c","system_id":"levelo_inurba_marseille","lat":43.29709,"lon":5.36615,"is_reserved":false,"is_disabled":false,"rental_uris":{"android":"levelo://app?vid=827edc69-8978-4b93-b20d-1ac5bcb0de9c","ios":"levelo://app?vid=827edc69-8978-4b93-b20d-1ac5bcb0de9c"},"vehicle_type_id":"4","last_reported":1684789558,"current_range_meters":4400,"station_id":"","pricing_plan_id":"free"},{"bike_id":"d08e4a46-2bce-4d0c-9f6e-084c285c7df8","system_id":"levelo_inurba_marseille","lat":43.29743,"lon":5.3771,"is_reserved":false,"is_disabled":false,"rental_uris":{"android":"levelo://app?vid=d08e4a46-2bce-4d0c-9f6e-084c285c7df8","ios":"levelo://app?vid=d08e4a46-2bce-4d0c-9f6e-084c285c7df8"},"vehicle_type_id":"4","last_reported":1684789558,"current_range_meters":23600,"station_id":"","pricing_plan_id":"free"},{"bike_id":"adef6489-136e-48e4-9865-656a637940cc","system_id":"levelo_inurba_marseille","lat":43.299135,"lon":5.381406,"is_reserved":false,"is_disabled":false,"rental_uris":{"android":"levelo://app?vid=adef6489-136e-48e4-9865-656a637940cc","ios":"levelo://app?vid=adef6489-136e-48e4-9865-656a637940cc"},"vehicle_type_id":"4","last_reported":1684789558,"current_range_meters":18000,"station_id":"","pricing_plan_id":"free"},{"bike_id":"691b0647-f3e2-4ed6-97bc-d45c2590589e","system_id":"levelo_inurba_marseille","lat":43.309589,"lon":5.390258,"is_reserved":false,"is_disabled":false,"rental_uris":{"android":"levelo://app?vid=691b0647-f3e2-4ed6-97bc-d45c2590589e","ios":"levelo://app?vid=691b0647-f3e2-4ed6-97bc-d45c2590589e"},"vehicle_type_id":"4","last_reported":1684789558,"current_range_meters":8800,"station_id":"ce4bgup2rcd13ifvqco0","pricing_plan_id":"free"},{"bike_id":"b69d9f94-c380-416f-be34-1420b4ab241f","system_id":"levelo_inurba_marseille","lat":43.309589,"lon":5.390258,"is_reserved":false,"is_disabled":false,"rental_uris":{"android":"levelo://app?vid=b69d9f94-c380-416f-be34-1420b4ab241f","ios":"levelo://app?vid=b69d9f94-c380-416f-be34-1420b4ab241f"},"vehicle_type_id":"4","last_reported":1684789558,"current_range_meters":22800,"station_id":"ce4bgup2rcd13ifvqco0","pricing_plan_id":"free"},{"bike_id":"54bf57c2-5269-4a00-8519-70f04c76eb55","system_id":"levelo_inurba_marseille","lat":43.317557,"lon":5.390173,"is_reserved":false,"is_disabled":false,"rental_uris":{"android":"levelo://app?vid=54bf57c2-5269-4a00-8519-70f04c76eb55","ios":"levelo://app?vid=54bf57c2-5269-4a00-8519-70f04c76eb55"},"vehicle_type_id":"4","last_reported":1684789558,"current_range_meters":31200,"station_id":"ce4bhqp2rcd13ifvqhng","pricing_plan_id":"free"},{"bike_id":"4bea15e1-2896-4cf7-a514-219ec582ba90","system_id":"levelo_inurba_marseille","lat":43.317557,"lon":5.390173,"is_reserved":false,"is_disabled":false,"rental_uris":{"android":"levelo://app?vid=4bea15e1-2896-4cf7-a514-219ec582ba90","ios":"levelo://app?vid=4bea15e1-2896-4cf7-a514-219ec582ba90"},"vehicle_type_id":"4","last_reported":1684789558,"current_range_meters":12800,"station_id":"ce4bhqp2rcd13ifvqhng","pricing_plan_id":"free"},{"bike_id":"285ecbbd-8ad4-494f-9245-b79ce3cb27b4","system_id":"levelo_inurba_marseille","lat":43.317557,"lon":5.390173,"is_reserved":false,"is_disabled":false,"rental_uris":{"android":"levelo://app?vid=285ecbbd-8ad4-494f-9245-b79ce3cb27b4","ios":"levelo://app?vid=285ecbbd-8ad4-494f-9245-b79ce3cb27b4"},"vehicle_type_id":"4","last_reported":1684789558,"current_range_meters":30000,"station_id":"ce4bhqp2rcd13ifvqhng","pricing_plan_id":"free"},{"bike_id":"e9d39bd0-abcc-465f-8db9-d3840e06ef07","system_id":"levelo_inurba_marseille","lat":43.317557,"lon":5.390173,"is_reserved":false,"is_disabled":false,"rental_uris":{"android":"levelo://app?vid=e9d39bd0-abcc-465f-8db9-d3840e06ef07","ios":"levelo://app?vid=e9d39bd0-abcc-465f-8db9-d3840e06ef07"},"vehicle_type_id":"4","last_reported":1684789558,"current_range_meters":31200,"station_id":"ce4bhqp2rcd13ifvqhng","pricing_plan_id":"free"},{"bike_id":"3f5897fe-e98b-4d7c-969b-c40302317e14","system_id":"levelo_inurba_marseille","lat":43.317557,"lon":5.390173,"is_reserved":false,"is_disabled":false,"rental_uris":{"android":"levelo://app?vid=3f5897fe-e98b-4d7c-969b-c40302317e14","ios":"levelo://app?vid=3f5897fe-e98b-4d7c-969b-c40302317e14"},"vehicle_type_id":"4","last_reported":1684789558,"current_range_meters":24400,"station_id":"ce4bhqp2rcd13ifvqhng","pricing_plan_id":"free"},{"bike_id":"cf5a8f61-b873-4ce0-99ca-3eee7a600c59","system_id":"levelo_inurba_marseille","lat":43.317557,"lon":5.390173,"is_reserved":false,"is_disabled":false,"rental_uris":{"android":"levelo://app?vid=cf5a8f61-b873-4ce0-99ca-3eee7a600c59","ios":"levelo://app?vid=cf5a8f61-b873-4ce0-99ca-3eee7a600c59"},"vehicle_type_id":"4","last_reported":1684789558,"current_range_meters":28400,"station_id":"ce4bhqp2rcd13ifvqhng","pricing_plan_id":"free"},{"bike_id":"d4f00183-f1e0-4565-a747-b90eb1b6df9d","system_id":"levelo_inurba_marseille","lat":43.31488,"lon":5.39112,"is_reserved":false,"is_disabled":false,"rental_uris":{"android":"levelo://app?vid=d4f00183-f1e0-4565-a747-b90eb1b6df9d","ios":"levelo://app?vid=d4f00183-f1e0-4565-a747-b90eb1b6df9d"},"vehicle_type_id":"4","last_reported":1684789558,"current_range_meters":0,"station_id":"","pricing_plan_id":"free"},{"bike_id":"080c5b24-8774-452d-9921-9694eb45ce56","system_id":"levelo_inurba_marseille","lat":43.298037,"lon":5.381066,"is_reserved":false,"is_disabled":false,"rental_uris":{"android":"levelo://app?vid=080c5b24-8774-452d-9921-9694eb45ce56","ios":"levelo://app?vid=080c5b24-8774-452d-9921-9694eb45ce56"},"vehicle_type_id":"4","last_reported":1684789558,"current_range_meters":24000,"station_id":"ce4bgip2rcd13ifvqbb0","pricing_plan_id":"free"},{"bike_id":"a31f432a-8c59-4cf8-877e-97dd86201e4f","system_id":"levelo_inurba_marseille","lat":43.304274,"lon":5.388873,"is_reserved":false,"is_disabled":false,"rental_uris":{"android":"levelo://app?vid=a31f432a-8c59-4cf8-877e-97dd86201e4f","ios":"levelo://app?vid=a31f432a-8c59-4cf8-877e-97dd86201e4f"},"vehicle_type_id":"4","last_reported":1684789558,"current_range_meters":400,"station_id":"ce4bgk12rcd13ifvqbi0","pricing_plan_id":"free"},{"bike_id":"07b7685b-33bd-464f-9775-0aae7d0812ec","system_id":"levelo_inurba_marseille","lat":43.32367,"lon":5.388836,"is_reserved":false,"is_disabled":false,"rental_uris":{"android":"levelo://app?vid=07b7685b-33bd-464f-9775-0aae7d0812ec","ios":"levelo://app?vid=07b7685b-33bd-464f-9775-0aae7d0812ec"},"vehicle_type_id":"4","last_reported":1684789558,"current_range_meters":28800,"station_id":"ce4bhqp2rcd13ifvqhog","pricing_plan_id":"free"},{"bike_id":"aea4c755-8e80-438a-a19c-01287b54f344","system_id":"levelo_inurba_marseille","lat":43.32367,"lon":5.388836,"is_reserved":false,"is_disabled":false,"rental_uris":{"android":"levelo://app?vid=aea4c755-8e80-438a-a19c-01287b54f344","ios":"levelo://app?vid=aea4c755-8e80-438a-a19c-01287b54f344"},"vehicle_type_id":"4","last_reported":1684789558,"current_range_meters":18800,"station_id":"ce4bhqp2rcd13ifvqhog","pricing_plan_id":"free"},{"bike_id":"e93e9afc-a4d8-40a8-acd4-6ce3c457187d","system_id":"levelo_inurba_marseille","lat":43.32367,"lon":5.388836,"is_reserved":false,"is_disabled":false,"rental_uris":{"android":"levelo://app?vid=e93e9afc-a4d8-40a8-acd4-6ce3c457187d","ios":"levelo://app?vid=e93e9afc-a4d8-40a8-acd4-6ce3c457187d"},"vehicle_type_id":"4","last_reported":1684789558,"current_range_meters":14400,"station_id":"ce4bhqp2rcd13ifvqhog","pricing_plan_id":"free"},{"bike_id":"f9ed80b5-efde-442b-baf5-6d3003fb1869","system_id":"levelo_inurba_marseille","lat":43.32367,"lon":5.388836,"is_reserved":false,"is_disabled":false,"rental_uris":{"android":"levelo://app?vid=f9ed80b5-efde-442b-baf5-6d3003fb1869","ios":"levelo://app?vid=f9ed80b5-efde-442b-baf5-6d3003fb1869"},"vehicle_type_id":"4","last_reported":1684789558,"current_range_meters":23600,"station_id":"ce4bhqp2rcd13ifvqhog","pricing_plan_id":"free"},{"bike_id":"41e3f1d6-c88a-4132-948c-86b57f36c41d","system_id":"levelo_inurba_marseille","lat":43.32363,"lon":5.38882,"is_reserved":false,"is_disabled":false,"rental_uris":{"android":"levelo://app?vid=41e3f1d6-c88a-4132-948c-86b57f36c41d","ios":"levelo://app?vid=41e3f1d6-c88a-4132-948c-86b57f36c41d"},"vehicle_type_id":"4","last_reported":1684789558,"current_range_meters":24800,"station_id":"ce4bhqp2rcd13ifvqhog","pricing_plan_id":"free"},{"bike_id":"54f4f14a-114e-4a16-8ee4-5f49ed60a6fa","system_id":"levelo_inurba_marseille","lat":43.32367,"lon":5.388836,"is_reserved":false,"is_disabled":false,"rental_uris":{"android":"levelo://app?vid=54f4f14a-114e-4a16-8ee4-5f49ed60a6fa","ios":"levelo://app?vid=54f4f14a-114e-4a16-8ee4-5f49ed60a6fa"},"vehicle_type_id":"4","last_reported":1684789558,"current_range_meters":31200,"station_id":"ce4bhqp2rcd13ifvqhog","pricing_plan_id":"free"},{"bike_id":"169de8b1-112e-4c5f-9965-cf75ffea8c0e","system_id":"levelo_inurba_marseille","lat":43.32367,"lon":5.388836,"is_reserved":false,"is_disabled":false,"rental_uris":{"android":"levelo://app?vid=169de8b1-112e-4c5f-9965-cf75ffea8c0e","ios":"levelo://app?vid=169de8b1-112e-4c5f-9965-cf75ffea8c0e"},"vehicle_type_id":"4","last_reported":1684789558,"current_range_meters":12000,"station_id":"ce4bhqp2rcd13ifvqhog","pricing_plan_id":"free"},{"bike_id":"541d96a7-deec-44d2-b937-fa831e713ad5","system_id":"levelo_inurba_marseille","lat":43.323681,"lon":5.38879,"is_reserved":false,"is_disabled":false,"rental_uris":{"android":"levelo://app?vid=541d96a7-deec-44d2-b937-fa831e713ad5","ios":"levelo://app?vid=541d96a7-deec-44d2-b937-fa831e713ad5"},"vehicle_type_id":"4","last_reported":1684789558,"current_range_meters":18400,"station_id":"","pricing_plan_id":"free"},{"bike_id":"53c80b4b-d032-45da-9217-748d7d82aa73","system_id":"levelo_inurba_marseille","lat":43.32367,"lon":5.388836,"is_reserved":false,"is_disabled":false,"rental_uris":{"android":"levelo://app?vid=53c80b4b-d032-45da-9217-748d7d82aa73","ios":"levelo://app?vid=53c80b4b-d032-45da-9217-748d7d82aa73"},"vehicle_type_id":"4","last_reported":1684789558,"current_range_meters":17200,"station_id":"ce4bhqp2rcd13ifvqhog","pricing_plan_id":"free"},{"bike_id":"f2371f63-e4eb-48fe-aaa9-64cb538c1f31","system_id":"levelo_inurba_marseille","lat":43.32367,"lon":5.388836,"is_reserved":false,"is_disabled":false,"rental_uris":{"android":"levelo://app?vid=f2371f63-e4eb-48fe-aaa9-64cb538c1f31","ios":"levelo://app?vid=f2371f63-e4eb-48fe-aaa9-64cb538c1f31"},"vehicle_type_id":"4","last_reported":1684789558,"current_range_meters":12000,"station_id":"ce4bhqp2rcd13ifvqhog","pricing_plan_id":"free"},{"bike_id":"e9e39f5f-daa1-4afd-bbb4-fbd91e7ae607","system_id":"levelo_inurba_marseille","lat":43.32367,"lon":5.388836,"is_reserved":false,"is_disabled":false,"rental_uris":{"android":"levelo://app?vid=e9e39f5f-daa1-4afd-bbb4-fbd91e7ae607","ios":"levelo://app?vid=e9e39f5f-daa1-4afd-bbb4-fbd91e7ae607"},"vehicle_type_id":"4","last_reported":1684789558,"current_range_meters":18000,"station_id":"ce4bhqp2rcd13ifvqhog","pricing_plan_id":"free"},{"bike_id":"83775f59-0d5a-488f-aa70-72fb12009392","system_id":"levelo_inurba_marseille","lat":43.32367,"lon":5.388836,"is_reserved":false,"is_disabled":false,"rental_uris":{"android":"levelo://app?vid=83775f59-0d5a-488f-aa70-72fb12009392","ios":"levelo://app?vid=83775f59-0d5a-488f-aa70-72fb12009392"},"vehicle_type_id":"4","last_reported":1684789558,"current_range_meters":17200,"station_id":"ce4bhqp2rcd13ifvqhog","pricing_plan_id":"free"},{"bike_id":"39cdbf93-6286-4d2e-b9b0-d4194b04b83c","system_id":"levelo_inurba_marseille","lat":43.32367,"lon":5.388836,"is_reserved":false,"is_disabled":false,"rental_uris":{"android":"levelo://app?vid=39cdbf93-6286-4d2e-b9b0-d4194b04b83c","ios":"levelo://app?vid=39cdbf93-6286-4d2e-b9b0-d4194b04b83c"},"vehicle_type_id":"4","last_reported":1684789558,"current_range_meters":28400,"station_id":"ce4bhqp2rcd13ifvqhog","pricing_plan_id":"free"},{"bike_id":"b2239e09-41dc-4cde-9b2f-b27fe7d0a355","system_id":"levelo_inurba_marseille","lat":43.32367,"lon":5.388836,"is_reserved":false,"is_disabled":false,"rental_uris":{"android":"levelo://app?vid=b2239e09-41dc-4cde-9b2f-b27fe7d0a355","ios":"levelo://app?vid=b2239e09-41dc-4cde-9b2f-b27fe7d0a355"},"vehicle_type_id":"4","last_reported":1684789558,"current_range_meters":24400,"station_id":"ce4bhqp2rcd13ifvqhog","pricing_plan_id":"free"},{"bike_id":"278cf516-bd46-4a4e-b2c7-90ce64b42f33","system_id":"levelo_inurba_marseille","lat":43.32367,"lon":5.388836,"is_reserved":false,"is_disabled":false,"rental_uris":{"android":"levelo://app?vid=278cf516-bd46-4a4e-b2c7-90ce64b42f33","ios":"levelo://app?vid=278cf516-bd46-4a4e-b2c7-90ce64b42f33"},"vehicle_type_id":"4","last_reported":1684789558,"current_range_meters":19600,"station_id":"ce4bhqp2rcd13ifvqhog","pricing_plan_id":"free"},{"bike_id":"01d401da-ad68-4b2e-a4ac-24f3f8771d91","system_id":"levelo_inurba_marseille","lat":43.32367,"lon":5.388836,"is_reserved":false,"is_disabled":false,"rental_uris":{"android":"levelo://app?vid=01d401da-ad68-4b2e-a4ac-24f3f8771d91","ios":"levelo://app?vid=01d401da-ad68-4b2e-a4ac-24f3f8771d91"},"vehicle_type_id":"4","last_reported":1684789558,"current_range_meters":16400,"station_id":"ce4bhqp2rcd13ifvqhog","pricing_plan_id":"free"},{"bike_id":"0608d36a-4358-4203-bab3-ddf6c3613372","system_id":"levelo_inurba_marseille","lat":43.323674,"lon":5.388958,"is_reserved":false,"is_disabled":false,"rental_uris":{"android":"levelo://app?vid=0608d36a-4358-4203-bab3-ddf6c3613372","ios":"levelo://app?vid=0608d36a-4358-4203-bab3-ddf6c3613372"},"vehicle_type_id":"4","last_reported":1684789558,"current_range_meters":16800,"station_id":"ce4bhqp2rcd13ifvqhog","pricing_plan_id":"free"},{"bike_id":"05c971ba-89c2-49aa-98e5-987ad747e0b3","system_id":"levelo_inurba_marseille","lat":43.29602,"lon":5.381084,"is_reserved":false,"is_disabled":false,"rental_uris":{"android":"levelo://app?vid=05c971ba-89c2-49aa-98e5-987ad747e0b3","ios":"levelo://app?vid=05c971ba-89c2-49aa-98e5-987ad747e0b3"},"vehicle_type_id":"4","last_reported":1684789558,"current_range_meters":7600,"station_id":"ce4bgl12rcd13ifvqbo0","pricing_plan_id":"free"},{"bike_id":"aaa7df21-24f0-4fdb-bd17-b2deb07fb0ff","system_id":"levelo_inurba_marseille","lat":43.293249,"lon":5.371578,"is_reserved":false,"is_disabled":false,"rental_uris":{"android":"levelo://app?vid=aaa7df21-24f0-4fdb-bd17-b2deb07fb0ff","ios":"levelo://app?vid=aaa7df21-24f0-4fdb-bd17-b2deb07fb0ff"},"vehicle_type_id":"4","last_reported":1684789558,"current_range_meters":17600,"station_id":"ce4bgh92rcd13ifvqb40","pricing_plan_id":"free"},{"bike_id":"11bdbb39-a2ce-4c58-89a2-dcd8120903ad","system_id":"levelo_inurba_marseille","lat":43.293249,"lon":5.371578,"is_reserved":false,"is_disabled":false,"rental_uris":{"android":"levelo://app?vid=11bdbb39-a2ce-4c58-89a2-dcd8120903ad","ios":"levelo://app?vid=11bdbb39-a2ce-4c58-89a2-dcd8120903ad"},"vehicle_type_id":"4","last_reported":1684789558,"current_range_meters":26000,"station_id":"ce4bgh92rcd13ifvqb40","pricing_plan_id":"free"},{"bike_id":"9d6c1e1c-d161-4124-8b67-fda87af4b1c5","system_id":"levelo_inurba_marseille","lat":43.29274,"lon":5.36835,"is_reserved":false,"is_disabled":false,"rental_uris":{"android":"levelo://app?vid=9d6c1e1c-d161-4124-8b67-fda87af4b1c5","ios":"levelo://app?vid=9d6c1e1c-d161-4124-8b67-fda87af4b1c5"},"vehicle_type_id":"4","last_reported":1684789558,"current_range_meters":25200,"station_id":"ce4bhbp2rcd13ifvqesg","pricing_plan_id":"free"},{"bike_id":"fa2fba47-b596-4cdb-bc1f-f0e5e9629888","system_id":"levelo_inurba_marseille","lat":43.29698,"lon":5.38397,"is_reserved":false,"is_disabled":false,"rental_uris":{"android":"levelo://app?vid=fa2fba47-b596-4cdb-bc1f-f0e5e9629888","ios":"levelo://app?vid=fa2fba47-b596-4cdb-bc1f-f0e5e9629888"},"vehicle_type_id":"4","last_reported":1684789558,"current_range_meters":2000,"station_id":"","pricing_plan_id":"free"},{"bike_id":"7695e961-e104-4076-acee-c344f7297c2f","system_id":"levelo_inurba_marseille","lat":43.29529,"lon":5.385581,"is_reserved":false,"is_disabled":false,"rental_uris":{"android":"levelo://app?vid=7695e961-e104-4076-acee-c344f7297c2f","ios":"levelo://app?vid=7695e961-e104-4076-acee-c344f7297c2f"},"vehicle_type_id":"4","last_reported":1684789558,"current_range_meters":15600,"station_id":"ce4bgih2rcd13ifvqba0","pricing_plan_id":"free"},{"bike_id":"13d6d9ae-100f-4d61-95f7-ca91f07b69ea","system_id":"levelo_inurba_marseille","lat":43.290319,"lon":5.375732,"is_reserved":false,"is_disabled":false,"rental_uris":{"android":"levelo://app?vid=13d6d9ae-100f-4d61-95f7-ca91f07b69ea","ios":"levelo://app?vid=13d6d9ae-100f-4d61-95f7-ca91f07b69ea"},"vehicle_type_id":"4","last_reported":1684789558,"current_range_meters":17200,"station_id":"ce4bh692rcd13ifvqe90","pricing_plan_id":"free"},{"bike_id":"a70b26a8-1be2-4916-9515-3941a609b793","system_id":"levelo_inurba_marseille","lat":43.311722,"lon":5.387247,"is_reserved":false,"is_disabled":false,"rental_uris":{"android":"levelo://app?vid=a70b26a8-1be2-4916-9515-3941a609b793","ios":"levelo://app?vid=a70b26a8-1be2-4916-9515-3941a609b793"},"vehicle_type_id":"4","last_reported":1684789558,"current_range_meters":15600,"station_id":"ce4bgv12rcd13ifvqcp0","pricing_plan_id":"free"},{"bike_id":"04c15102-3f2c-4aae-86ba-0ba1c77cce21","system_id":"levelo_inurba_marseille","lat":43.302992,"lon":5.392136,"is_reserved":false,"is_disabled":false,"rental_uris":{"android":"levelo://app?vid=04c15102-3f2c-4aae-86ba-0ba1c77cce21","ios":"levelo://app?vid=04c15102-3f2c-4aae-86ba-0ba1c77cce21"},"vehicle_type_id":"4","last_reported":1684789558,"current_range_meters":7600,"station_id":"ce4bgkh2rcd13ifvqbk0","pricing_plan_id":"free"},{"bike_id":"35be1dc9-227b-4d89-a49d-579da598318c","system_id":"levelo_inurba_marseille","lat":43.302992,"lon":5.392136,"is_reserved":false,"is_disabled":false,"rental_uris":{"android":"levelo://app?vid=35be1dc9-227b-4d89-a49d-579da598318c","ios":"levelo://app?vid=35be1dc9-227b-4d89-a49d-579da598318c"},"vehicle_type_id":"4","last_reported":1684789558,"current_range_meters":18000,"station_id":"ce4bgkh2rcd13ifvqbk0","pricing_plan_id":"free"},{"bike_id":"6529f5cd-71dd-40ea-99a9-eb56b045975e","system_id":"levelo_inurba_marseille","lat":43.2936,"lon":5.37835,"is_reserved":false,"is_disabled":false,"rental_uris":{"android":"levelo://app?vid=6529f5cd-71dd-40ea-99a9-eb56b045975e","ios":"levelo://app?vid=6529f5cd-71dd-40ea-99a9-eb56b045975e"},"vehicle_type_id":"4","last_reported":1684789558,"current_range_meters":14400,"station_id":"ce4bgjh2rcd13ifvqbf0","pricing_plan_id":"free"},{"bike_id":"4d98ce75-28eb-4bfe-b52a-e65d1f209ad8","system_id":"levelo_inurba_marseille","lat":43.29223,"lon":5.36079,"is_reserved":false,"is_disabled":false,"rental_uris":{"android":"levelo://app?vid=4d98ce75-28eb-4bfe-b52a-e65d1f209ad8","ios":"levelo://app?vid=4d98ce75-28eb-4bfe-b52a-e65d1f209ad8"},"vehicle_type_id":"4","last_reported":1684789558,"current_range_meters":0,"station_id":"","pricing_plan_id":"free"},{"bike_id":"f8b64dab-cfb9-48b9-b4c7-2e7647376654","system_id":"levelo_inurba_marseille","lat":43.300852,"lon":5.390859,"is_reserved":false,"is_disabled":false,"rental_uris":{"android":"levelo://app?vid=f8b64dab-cfb9-48b9-b4c7-2e7647376654","ios":"levelo://app?vid=f8b64dab-cfb9-48b9-b4c7-2e7647376654"},"vehicle_type_id":"4","last_reported":1684789558,"current_range_meters":14800,"station_id":"ce4bh192rcd13ifvqdb0","pricing_plan_id":"free"},{"bike_id":"803f37f2-9a64-458b-b900-1db2b7802f05","system_id":"levelo_inurba_marseille","lat":43.300852,"lon":5.390859,"is_reserved":false,"is_disabled":false,"rental_uris":{"android":"levelo://app?vid=803f37f2-9a64-458b-b900-1db2b7802f05","ios":"levelo://app?vid=803f37f2-9a64-458b-b900-1db2b7802f05"},"vehicle_type_id":"4","last_reported":1684789558,"current_range_meters":29600,"station_id":"ce4bh192rcd13ifvqdb0","pricing_plan_id":"free"},{"bike_id":"2e23fd65-ae04-4b61-85cc-15a59fc540ea","system_id":"levelo_inurba_marseille","lat":43.298764,"lon":5.388973,"is_reserved":false,"is_disabled":false,"rental_uris":{"android":"levelo://app?vid=2e23fd65-ae04-4b61-85cc-15a59fc540ea","ios":"levelo://app?vid=2e23fd65-ae04-4b61-85cc-15a59fc540ea"},"vehicle_type_id":"4","last_reported":1684789558,"current_range_meters":12000,"station_id":"ce4bh392rcd13ifvqdl0","pricing_plan_id":"free"},{"bike_id":"14acaacb-a326-4d6c-a335-e10dd734bba0","system_id":"levelo_inurba_marseille","lat":43.298764,"lon":5.388973,"is_reserved":false,"is_disabled":false,"rental_uris":{"android":"levelo://app?vid=14acaacb-a326-4d6c-a335-e10dd734bba0","ios":"levelo://app?vid=14acaacb-a326-4d6c-a335-e10dd734bba0"},"vehicle_type_id":"4","last_reported":1684789558,"current_range_meters":16400,"station_id":"ce4bh392rcd13ifvqdl0","pricing_plan_id":"free"},{"bike_id":"8a8b1004-c625-4fc8-833e-2368ff15fa3b","system_id":"levelo_inurba_marseille","lat":43.298764,"lon":5.388973,"is_reserved":false,"is_disabled":false,"rental_uris":{"android":"levelo://app?vid=8a8b1004-c625-4fc8-833e-2368ff15fa3b","ios":"levelo://app?vid=8a8b1004-c625-4fc8-833e-2368ff15fa3b"},"vehicle_type_id":"4","last_reported":1684789558,"current_range_meters":3600,"station_id":"ce4bh392rcd13ifvqdl0","pricing_plan_id":"free"},{"bike_id":"73ad0232-7b44-46cb-86c1-0b2106a0ba99","system_id":"levelo_inurba_marseille","lat":43.298764,"lon":5.388973,"is_reserved":false,"is_disabled":false,"rental_uris":{"android":"levelo://app?vid=73ad0232-7b44-46cb-86c1-0b2106a0ba99","ios":"levelo://app?vid=73ad0232-7b44-46cb-86c1-0b2106a0ba99"},"vehicle_type_id":"4","last_reported":1684789558,"current_range_meters":22400,"station_id":"ce4bh392rcd13ifvqdl0","pricing_plan_id":"free"},{"bike_id":"5ccfebc3-02df-4069-aec7-88b3ffcf1c53","system_id":"levelo_inurba_marseille","lat":43.298764,"lon":5.388973,"is_reserved":false,"is_disabled":false,"rental_uris":{"android":"levelo://app?vid=5ccfebc3-02df-4069-aec7-88b3ffcf1c53","ios":"levelo://app?vid=5ccfebc3-02df-4069-aec7-88b3ffcf1c53"},"vehicle_type_id":"4","last_reported":1684789558,"current_range_meters":6000,"station_id":"ce4bh392rcd13ifvqdl0","pricing_plan_id":"free"},{"bike_id":"2c010b2f-1452-4a07-a50a-879f3625bf48","system_id":"levelo_inurba_marseille","lat":43.309589,"lon":5.390258,"is_reserved":false,"is_disabled":false,"rental_uris":{"android":"levelo://app?vid=2c010b2f-1452-4a07-a50a-879f3625bf48","ios":"levelo://app?vid=2c010b2f-1452-4a07-a50a-879f3625bf48"},"vehicle_type_id":"4","last_reported":1684789558,"current_range_meters":21600,"station_id":"ce4bgup2rcd13ifvqco0","pricing_plan_id":"free"},{"bike_id":"f62c8a17-78db-426e-94be-1e3477c8da11","system_id":"levelo_inurba_marseille","lat":43.298764,"lon":5.388973,"is_reserved":false,"is_disabled":false,"rental_uris":{"android":"levelo://app?vid=f62c8a17-78db-426e-94be-1e3477c8da11","ios":"levelo://app?vid=f62c8a17-78db-426e-94be-1e3477c8da11"},"vehicle_type_id":"4","last_reported":1684789558,"current_range_meters":28800,"station_id":"ce4bh392rcd13ifvqdl0","pricing_plan_id":"free"},{"bike_id":"2ae998ec-c4a8-434f-bde8-a6acb91f3743","system_id":"levelo_inurba_marseille","lat":43.291675,"lon":5.371583,"is_reserved":false,"is_disabled":false,"rental_uris":{"android":"levelo://app?vid=2ae998ec-c4a8-434f-bde8-a6acb91f3743","ios":"levelo://app?vid=2ae998ec-c4a8-434f-bde8-a6acb91f3743"},"vehicle_type_id":"4","last_reported":1684789558,"current_range_meters":10000,"station_id":"ce4bha92rcd13ifvqeh0","pricing_plan_id":"free"},{"bike_id":"a82c3aaf-cbeb-496f-ae44-ca0c09db8b1c","system_id":"levelo_inurba_marseille","lat":43.291994,"lon":5.357886,"is_reserved":false,"is_disabled":false,"rental_uris":{"android":"levelo://app?vid=a82c3aaf-cbeb-496f-ae44-ca0c09db8b1c","ios":"levelo://app?vid=a82c3aaf-cbeb-496f-ae44-ca0c09db8b1c"},"vehicle_type_id":"4","last_reported":1684789558,"current_range_meters":6400,"station_id":"ce4bhb12rcd13ifvqel0","pricing_plan_id":"free"},{"bike_id":"7e0b1a31-f853-4e64-bbc6-6575d9a388ff","system_id":"levelo_inurba_marseille","lat":43.309038,"lon":5.396546,"is_reserved":false,"is_disabled":false,"rental_uris":{"android":"levelo://app?vid=7e0b1a31-f853-4e64-bbc6-6575d9a388ff","ios":"levelo://app?vid=7e0b1a31-f853-4e64-bbc6-6575d9a388ff"},"vehicle_type_id":"4","last_reported":1684789558,"current_range_meters":31200,"station_id":"ce4bh012rcd13ifvqcv0","pricing_plan_id":"free"},{"bike_id":"bc90a2cf-425e-456d-ac06-618404f30d6c","system_id":"levelo_inurba_marseille","lat":43.309038,"lon":5.396546,"is_reserved":false,"is_disabled":false,"rental_uris":{"android":"levelo://app?vid=bc90a2cf-425e-456d-ac06-618404f30d6c","ios":"levelo://app?vid=bc90a2cf-425e-456d-ac06-618404f30d6c"},"vehicle_type_id":"4","last_reported":1684789558,"current_range_meters":24800,"station_id":"ce4bh012rcd13ifvqcv0","pricing_plan_id":"free"},{"bike_id":"5624c06a-f365-474c-a893-9d27ea57131f","system_id":"levelo_inurba_marseille","lat":43.313291,"lon":5.396838,"is_reserved":false,"is_disabled":false,"rental_uris":{"android":"levelo://app?vid=5624c06a-f365-474c-a893-9d27ea57131f","ios":"levelo://app?vid=5624c06a-f365-474c-a893-9d27ea57131f"},"vehicle_type_id":"4","last_reported":1684789558,"current_range_meters":22000,"station_id":"ce4bgvp2rcd13ifvqcu0","pricing_plan_id":"free"},{"bike_id":"88a0035d-649c-4048-97fc-0255d742030d","system_id":"levelo_inurba_marseille","lat":43.309038,"lon":5.396546,"is_reserved":false,"is_disabled":false,"rental_uris":{"android":"levelo://app?vid=88a0035d-649c-4048-97fc-0255d742030d","ios":"levelo://app?vid=88a0035d-649c-4048-97fc-0255d742030d"},"vehicle_type_id":"4","last_reported":1684789558,"current_range_meters":1600,"station_id":"ce4bh012rcd13ifvqcv0","pricing_plan_id":"free"},{"bike_id":"7f7ef650-ec5e-4c38-bee6-f0130b803fd4","system_id":"levelo_inurba_marseille","lat":43.313291,"lon":5.396838,"is_reserved":false,"is_disabled":false,"rental_uris":{"android":"levelo://app?vid=7f7ef650-ec5e-4c38-bee6-f0130b803fd4","ios":"levelo://app?vid=7f7ef650-ec5e-4c38-bee6-f0130b803fd4"},"vehicle_type_id":"4","last_reported":1684789558,"current_range_meters":29200,"station_id":"ce4bgvp2rcd13ifvqcu0","pricing_plan_id":"free"},{"bike_id":"50ad3c9f-afe7-4229-9177-838a35b27008","system_id":"levelo_inurba_marseille","lat":43.313291,"lon":5.396838,"is_reserved":false,"is_disabled":false,"rental_uris":{"android":"levelo://app?vid=50ad3c9f-afe7-4229-9177-838a35b27008","ios":"levelo://app?vid=50ad3c9f-afe7-4229-9177-838a35b27008"},"vehicle_type_id":"4","last_reported":1684789558,"current_range_meters":16800,"station_id":"ce4bgvp2rcd13ifvqcu0","pricing_plan_id":"free"},{"bike_id":"2cc0024c-6a40-4006-968a-f0eecea4b8d6","system_id":"levelo_inurba_marseille","lat":43.313291,"lon":5.396838,"is_reserved":false,"is_disabled":false,"rental_uris":{"android":"levelo://app?vid=2cc0024c-6a40-4006-968a-f0eecea4b8d6","ios":"levelo://app?vid=2cc0024c-6a40-4006-968a-f0eecea4b8d6"},"vehicle_type_id":"4","last_reported":1684789558,"current_range_meters":30400,"station_id":"ce4bgvp2rcd13ifvqcu0","pricing_plan_id":"free"},{"bike_id":"4c1e3b57-92b1-4105-b6ab-3cfb2eef35ca","system_id":"levelo_inurba_marseille","lat":43.313109,"lon":5.396952,"is_reserved":false,"is_disabled":false,"rental_uris":{"android":"levelo://app?vid=4c1e3b57-92b1-4105-b6ab-3cfb2eef35ca","ios":"levelo://app?vid=4c1e3b57-92b1-4105-b6ab-3cfb2eef35ca"},"vehicle_type_id":"4","last_reported":1684789558,"current_range_meters":4400,"station_id":"","pricing_plan_id":"free"},{"bike_id":"7e18d231-f976-4702-946a-319b39bcb7e5","system_id":"levelo_inurba_marseille","lat":43.309038,"lon":5.396546,"is_reserved":false,"is_disabled":false,"rental_uris":{"android":"levelo://app?vid=7e18d231-f976-4702-946a-319b39bcb7e5","ios":"levelo://app?vid=7e18d231-f976-4702-946a-319b39bcb7e5"},"vehicle_type_id":"4","last_reported":1684789558,"current_range_meters":4800,"station_id":"ce4bh012rcd13ifvqcv0","pricing_plan_id":"free"},{"bike_id":"78c172a1-3e92-435f-8d24-13ab92ae7563","system_id":"levelo_inurba_marseille","lat":43.309038,"lon":5.396546,"is_reserved":false,"is_disabled":false,"rental_uris":{"android":"levelo://app?vid=78c172a1-3e92-435f-8d24-13ab92ae7563","ios":"levelo://app?vid=78c172a1-3e92-435f-8d24-13ab92ae7563"},"vehicle_type_id":"4","last_reported":1684789558,"current_range_meters":8400,"station_id":"ce4bh012rcd13ifvqcv0","pricing_plan_id":"free"},{"bike_id":"649def23-efd3-49c3-a26b-a5b0ab428831","system_id":"levelo_inurba_marseille","lat":43.31328,"lon":5.39699,"is_reserved":false,"is_disabled":false,"rental_uris":{"android":"levelo://app?vid=649def23-efd3-49c3-a26b-a5b0ab428831","ios":"levelo://app?vid=649def23-efd3-49c3-a26b-a5b0ab428831"},"vehicle_type_id":"4","last_reported":1684789558,"current_range_meters":30000,"station_id":"ce4bgvp2rcd13ifvqcu0","pricing_plan_id":"free"},{"bike_id":"754ca419-00e5-4ba5-9dd0-2489ece39e44","system_id":"levelo_inurba_marseille","lat":43.313291,"lon":5.396838,"is_reserved":false,"is_disabled":false,"rental_uris":{"android":"levelo://app?vid=754ca419-00e5-4ba5-9dd0-2489ece39e44","ios":"levelo://app?vid=754ca419-00e5-4ba5-9dd0-2489ece39e44"},"vehicle_type_id":"4","last_reported":1684789558,"current_range_meters":29600,"station_id":"ce4bgvp2rcd13ifvqcu0","pricing_plan_id":"free"},{"bike_id":"001c4e46-97ab-4a2c-9ef3-b832c1b13572","system_id":"levelo_inurba_marseille","lat":43.309038,"lon":5.396546,"is_reserved":false,"is_disabled":false,"rental_uris":{"android":"levelo://app?vid=001c4e46-97ab-4a2c-9ef3-b832c1b13572","ios":"levelo://app?vid=001c4e46-97ab-4a2c-9ef3-b832c1b13572"},"vehicle_type_id":"4","last_reported":1684789558,"current_range_meters":5600,"station_id":"ce4bh012rcd13ifvqcv0","pricing_plan_id":"free"},{"bike_id":"171388c5-097d-4f69-9895-1ec7c95dc03b","system_id":"levelo_inurba_marseille","lat":43.309038,"lon":5.396546,"is_reserved":false,"is_disabled":false,"rental_uris":{"android":"levelo://app?vid=171388c5-097d-4f69-9895-1ec7c95dc03b","ios":"levelo://app?vid=171388c5-097d-4f69-9895-1ec7c95dc03b"},"vehicle_type_id":"4","last_reported":1684789558,"current_range_meters":30800,"station_id":"ce4bh012rcd13ifvqcv0","pricing_plan_id":"free"},{"bike_id":"2b99530b-fce6-47ef-8897-9ed42302157d","system_id":"levelo_inurba_marseille","lat":43.29529,"lon":5.385581,"is_reserved":false,"is_disabled":false,"rental_uris":{"android":"levelo://app?vid=2b99530b-fce6-47ef-8897-9ed42302157d","ios":"levelo://app?vid=2b99530b-fce6-47ef-8897-9ed42302157d"},"vehicle_type_id":"4","last_reported":1684789558,"current_range_meters":26800,"station_id":"ce4bgih2rcd13ifvqba0","pricing_plan_id":"free"},{"bike_id":"5b2d75f0-3919-4610-ba66-bdd57b4ad0a6","system_id":"levelo_inurba_marseille","lat":43.29529,"lon":5.385581,"is_reserved":false,"is_disabled":false,"rental_uris":{"android":"levelo://app?vid=5b2d75f0-3919-4610-ba66-bdd57b4ad0a6","ios":"levelo://app?vid=5b2d75f0-3919-4610-ba66-bdd57b4ad0a6"},"vehicle_type_id":"4","last_reported":1684789558,"current_range_meters":6000,"station_id":"ce4bgih2rcd13ifvqba0","pricing_plan_id":"free"},{"bike_id":"72788bae-e510-4248-911c-7f9810f1f2e6","system_id":"levelo_inurba_marseille","lat":43.29529,"lon":5.385581,"is_reserved":false,"is_disabled":false,"rental_uris":{"android":"levelo://app?vid=72788bae-e510-4248-911c-7f9810f1f2e6","ios":"levelo://app?vid=72788bae-e510-4248-911c-7f9810f1f2e6"},"vehicle_type_id":"4","last_reported":1684789558,"current_range_meters":18800,"station_id":"ce4bgih2rcd13ifvqba0","pricing_plan_id":"free"},{"bike_id":"01aebabe-e107-4cbd-8960-bb03c6936ff9","system_id":"levelo_inurba_marseille","lat":43.290624,"lon":5.359245,"is_reserved":false,"is_disabled":false,"rental_uris":{"android":"levelo://app?vid=01aebabe-e107-4cbd-8960-bb03c6936ff9","ios":"levelo://app?vid=01aebabe-e107-4cbd-8960-bb03c6936ff9"},"vehicle_type_id":"4","last_reported":1684789558,"current_range_meters":21200,"station_id":"ce4bha92rcd13ifvqeg0","pricing_plan_id":"free"},{"bike_id":"423f82ec-6d59-47c6-bfd1-1a0a68f01ded","system_id":"levelo_inurba_marseille","lat":43.290631,"lon":5.359244,"is_reserved":false,"is_disabled":false,"rental_uris":{"android":"levelo://app?vid=423f82ec-6d59-47c6-bfd1-1a0a68f01ded","ios":"levelo://app?vid=423f82ec-6d59-47c6-bfd1-1a0a68f01ded"},"vehicle_type_id":"4","last_reported":1684789558,"current_range_meters":22000,"station_id":"ce4bha92rcd13ifvqeg0","pricing_plan_id":"free"},{"bike_id":"30dd6150-e08f-4f9e-b76c-9284fea5f558","system_id":"levelo_inurba_marseille","lat":43.290631,"lon":5.359244,"is_reserved":false,"is_disabled":false,"rental_uris":{"android":"levelo://app?vid=30dd6150-e08f-4f9e-b76c-9284fea5f558","ios":"levelo://app?vid=30dd6150-e08f-4f9e-b76c-9284fea5f558"},"vehicle_type_id":"4","last_reported":1684789558,"current_range_meters":22800,"station_id":"ce4bha92rcd13ifvqeg0","pricing_plan_id":"free"},{"bike_id":"23489960-5368-40d5-8a46-1a966387a6e3","system_id":"levelo_inurba_marseille","lat":43.290319,"lon":5.375732,"is_reserved":false,"is_disabled":false,"rental_uris":{"android":"levelo://app?vid=23489960-5368-40d5-8a46-1a966387a6e3","ios":"levelo://app?vid=23489960-5368-40d5-8a46-1a966387a6e3"},"vehicle_type_id":"4","last_reported":1684789558,"current_range_meters":27600,"station_id":"ce4bh692rcd13ifvqe90","pricing_plan_id":"free"},{"bike_id":"fe7d5161-1e01-4c6e-9915-a3c1ea74cf55","system_id":"levelo_inurba_marseille","lat":43.294153,"lon":5.386305,"is_reserved":false,"is_disabled":false,"rental_uris":{"android":"levelo://app?vid=fe7d5161-1e01-4c6e-9915-a3c1ea74cf55","ios":"levelo://app?vid=fe7d5161-1e01-4c6e-9915-a3c1ea74cf55"},"vehicle_type_id":"4","last_reported":1684789558,"current_range_meters":8800,"station_id":"ce4bh2h2rcd13ifvqdh0","pricing_plan_id":"free"},{"bike_id":"729313ed-47ba-4b1f-a33c-9683065f4ab3","system_id":"levelo_inurba_marseille","lat":43.29417,"lon":5.38624,"is_reserved":false,"is_disabled":false,"rental_uris":{"android":"levelo://app?vid=729313ed-47ba-4b1f-a33c-9683065f4ab3","ios":"levelo://app?vid=729313ed-47ba-4b1f-a33c-9683065f4ab3"},"vehicle_type_id":"4","last_reported":1684789558,"current_range_meters":14000,"station_id":"ce4bh2h2rcd13ifvqdh0","pricing_plan_id":"free"},{"bike_id":"6b2c1957-ac78-42b5-ab92-a3105acb870b","system_id":"levelo_inurba_marseille","lat":43.289468,"lon":5.363719,"is_reserved":false,"is_disabled":false,"rental_uris":{"android":"levelo://app?vid=6b2c1957-ac78-42b5-ab92-a3105acb870b","ios":"levelo://app?vid=6b2c1957-ac78-42b5-ab92-a3105acb870b"},"vehicle_type_id":"4","last_reported":1684789558,"current_range_meters":3600,"station_id":"ce4bhc92rcd13ifvqetg","pricing_plan_id":"free"},{"bike_id":"58c60a78-4324-4787-95ff-df20c8c33139","system_id":"levelo_inurba_marseille","lat":43.33044,"lon":5.3891,"is_reserved":false,"is_disabled":false,"rental_uris":{"android":"levelo://app?vid=58c60a78-4324-4787-95ff-df20c8c33139","ios":"levelo://app?vid=58c60a78-4324-4787-95ff-df20c8c33139"},"vehicle_type_id":"4","last_reported":1684789558,"current_range_meters":14000,"station_id":"ce4bhr92rcd13ifvqhrg","pricing_plan_id":"free"},{"bike_id":"c80ade81-0afe-4db6-a46b-89f525d03dd0","system_id":"levelo_inurba_marseille","lat":43.330445,"lon":5.389116,"is_reserved":false,"is_disabled":false,"rental_uris":{"android":"levelo://app?vid=c80ade81-0afe-4db6-a46b-89f525d03dd0","ios":"levelo://app?vid=c80ade81-0afe-4db6-a46b-89f525d03dd0"},"vehicle_type_id":"4","last_reported":1684789558,"current_range_meters":8000,"station_id":"","pricing_plan_id":"free"},{"bike_id":"8729f2f5-1fb1-480d-8c6e-c5689c2590b4","system_id":"levelo_inurba_marseille","lat":43.33041,"lon":5.38918,"is_reserved":false,"is_disabled":false,"rental_uris":{"android":"levelo://app?vid=8729f2f5-1fb1-480d-8c6e-c5689c2590b4","ios":"levelo://app?vid=8729f2f5-1fb1-480d-8c6e-c5689c2590b4"},"vehicle_type_id":"4","last_reported":1684789558,"current_range_meters":16800,"station_id":"ce4bhr92rcd13ifvqhrg","pricing_plan_id":"free"},{"bike_id":"59a2a02d-cb16-41c1-90d7-8a5818af9e1c","system_id":"levelo_inurba_marseille","lat":43.33045,"lon":5.38916,"is_reserved":false,"is_disabled":false,"rental_uris":{"android":"levelo://app?vid=59a2a02d-cb16-41c1-90d7-8a5818af9e1c","ios":"levelo://app?vid=59a2a02d-cb16-41c1-90d7-8a5818af9e1c"},"vehicle_type_id":"4","last_reported":1684789558,"current_range_meters":31200,"station_id":"ce4bhr92rcd13ifvqhrg","pricing_plan_id":"free"},{"bike_id":"a4dc9252-63f5-4bcc-bc39-f285767444de","system_id":"levelo_inurba_marseille","lat":43.33045,"lon":5.38919,"is_reserved":false,"is_disabled":false,"rental_uris":{"android":"levelo://app?vid=a4dc9252-63f5-4bcc-bc39-f285767444de","ios":"levelo://app?vid=a4dc9252-63f5-4bcc-bc39-f285767444de"},"vehicle_type_id":"4","last_reported":1684789558,"current_range_meters":12400,"station_id":"ce4bhr92rcd13ifvqhrg","pricing_plan_id":"free"},{"bike_id":"3b33ff00-0be8-4652-8a92-85a4252d7662","system_id":"levelo_inurba_marseille","lat":43.284793,"lon":5.384113,"is_reserved":false,"is_disabled":false,"rental_uris":{"android":"levelo://app?vid=3b33ff00-0be8-4652-8a92-85a4252d7662","ios":"levelo://app?vid=3b33ff00-0be8-4652-8a92-85a4252d7662"},"vehicle_type_id":"4","last_reported":1684789558,"current_range_meters":0,"station_id":"ce4bh512rcd13ifvqe3g","pricing_plan_id":"free"},{"bike_id":"0ccddb73-b2ae-4639-8c56-abaef88521eb","system_id":"levelo_inurba_marseille","lat":43.29526,"lon":5.39044,"is_reserved":false,"is_disabled":false,"rental_uris":{"android":"levelo://app?vid=0ccddb73-b2ae-4639-8c56-abaef88521eb","ios":"levelo://app?vid=0ccddb73-b2ae-4639-8c56-abaef88521eb"},"vehicle_type_id":"4","last_reported":1684789558,"current_range_meters":0,"station_id":"ce4bh3p2rcd13ifvqdp0","pricing_plan_id":"free"},{"bike_id":"16fd87f3-72c6-48ff-a8dc-db3d8e59bb00","system_id":"levelo_inurba_marseille","lat":43.30515,"lon":5.39932,"is_reserved":false,"is_disabled":false,"rental_uris":{"android":"levelo://app?vid=16fd87f3-72c6-48ff-a8dc-db3d8e59bb00","ios":"levelo://app?vid=16fd87f3-72c6-48ff-a8dc-db3d8e59bb00"},"vehicle_type_id":"4","last_reported":1684789558,"current_range_meters":7600,"station_id":"","pricing_plan_id":"free"},{"bike_id":"3d679d76-3520-4b16-9a35-6b9ba1c94abc","system_id":"levelo_inurba_marseille","lat":43.290094,"lon":5.381264,"is_reserved":false,"is_disabled":false,"rental_uris":{"android":"levelo://app?vid=3d679d76-3520-4b16-9a35-6b9ba1c94abc","ios":"levelo://app?vid=3d679d76-3520-4b16-9a35-6b9ba1c94abc"},"vehicle_type_id":"4","last_reported":1684789558,"current_range_meters":27200,"station_id":"ce4bh4p2rcd13ifvqe1g","pricing_plan_id":"free"},{"bike_id":"c743ba44-b785-42c1-a620-c13078b915ed","system_id":"levelo_inurba_marseille","lat":43.28856,"lon":5.358371,"is_reserved":false,"is_disabled":false,"rental_uris":{"android":"levelo://app?vid=c743ba44-b785-42c1-a620-c13078b915ed","ios":"levelo://app?vid=c743ba44-b785-42c1-a620-c13078b915ed"},"vehicle_type_id":"4","last_reported":1684789558,"current_range_meters":31200,"station_id":"ce4bhb12rcd13ifvqem0","pricing_plan_id":"free"},{"bike_id":"0b96314d-5160-4386-abd0-857abf09a143","system_id":"levelo_inurba_marseille","lat":43.2901,"lon":5.381269,"is_reserved":false,"is_disabled":false,"rental_uris":{"android":"levelo://app?vid=0b96314d-5160-4386-abd0-857abf09a143","ios":"levelo://app?vid=0b96314d-5160-4386-abd0-857abf09a143"},"vehicle_type_id":"4","last_reported":1684789558,"current_range_meters":20800,"station_id":"ce4bh4p2rcd13ifvqe1g","pricing_plan_id":"free"},{"bike_id":"5f50f4b7-8de7-4b28-94c7-4ec88e3d737c","system_id":"levelo_inurba_marseille","lat":43.28856,"lon":5.358371,"is_reserved":false,"is_disabled":false,"rental_uris":{"android":"levelo://app?vid=5f50f4b7-8de7-4b28-94c7-4ec88e3d737c","ios":"levelo://app?vid=5f50f4b7-8de7-4b28-94c7-4ec88e3d737c"},"vehicle_type_id":"4","last_reported":1684789558,"current_range_meters":32000,"station_id":"ce4bhb12rcd13ifvqem0","pricing_plan_id":"free"},{"bike_id":"b9a75d82-2925-4e8b-879d-3aef81bd565e","system_id":"levelo_inurba_marseille","lat":43.28856,"lon":5.358371,"is_reserved":false,"is_disabled":false,"rental_uris":{"android":"levelo://app?vid=b9a75d82-2925-4e8b-879d-3aef81bd565e","ios":"levelo://app?vid=b9a75d82-2925-4e8b-879d-3aef81bd565e"},"vehicle_type_id":"4","last_reported":1684789558,"current_range_meters":0,"station_id":"ce4bhb12rcd13ifvqem0","pricing_plan_id":"free"},{"bike_id":"b22af045-e1af-45b3-bbf0-bbce2bee8f50","system_id":"levelo_inurba_marseille","lat":43.28856,"lon":5.358371,"is_reserved":false,"is_disabled":false,"rental_uris":{"android":"levelo://app?vid=b22af045-e1af-45b3-bbf0-bbce2bee8f50","ios":"levelo://app?vid=b22af045-e1af-45b3-bbf0-bbce2bee8f50"},"vehicle_type_id":"4","last_reported":1684789558,"current_range_meters":4800,"station_id":"ce4bhb12rcd13ifvqem0","pricing_plan_id":"free"},{"bike_id":"caf46a96-9347-4fc3-b313-be536f4b4bf0","system_id":"levelo_inurba_marseille","lat":43.28856,"lon":5.358371,"is_reserved":false,"is_disabled":false,"rental_uris":{"android":"levelo://app?vid=caf46a96-9347-4fc3-b313-be536f4b4bf0","ios":"levelo://app?vid=caf46a96-9347-4fc3-b313-be536f4b4bf0"},"vehicle_type_id":"4","last_reported":1684789558,"current_range_meters":31200,"station_id":"ce4bhb12rcd13ifvqem0","pricing_plan_id":"free"},{"bike_id":"889cab72-9490-4347-a2ed-78b7d9178e8c","system_id":"levelo_inurba_marseille","lat":43.28856,"lon":5.358371,"is_reserved":false,"is_disabled":false,"rental_uris":{"android":"levelo://app?vid=889cab72-9490-4347-a2ed-78b7d9178e8c","ios":"levelo://app?vid=889cab72-9490-4347-a2ed-78b7d9178e8c"},"vehicle_type_id":"4","last_reported":1684789558,"current_range_meters":15200,"station_id":"ce4bhb12rcd13ifvqem0","pricing_plan_id":"free"},{"bike_id":"9df911bc-d9d7-4bf4-b625-8a95efceec81","system_id":"levelo_inurba_marseille","lat":43.28856,"lon":5.358371,"is_reserved":false,"is_disabled":false,"rental_uris":{"android":"levelo://app?vid=9df911bc-d9d7-4bf4-b625-8a95efceec81","ios":"levelo://app?vid=9df911bc-d9d7-4bf4-b625-8a95efceec81"},"vehicle_type_id":"4","last_reported":1684789558,"current_range_meters":25600,"station_id":"ce4bhb12rcd13ifvqem0","pricing_plan_id":"free"},{"bike_id":"5dccd3ad-0113-453b-af79-33dddde46cb7","system_id":"levelo_inurba_marseille","lat":43.28856,"lon":5.358371,"is_reserved":false,"is_disabled":false,"rental_uris":{"android":"levelo://app?vid=5dccd3ad-0113-453b-af79-33dddde46cb7","ios":"levelo://app?vid=5dccd3ad-0113-453b-af79-33dddde46cb7"},"vehicle_type_id":"4","last_reported":1684789558,"current_range_meters":30400,"station_id":"ce4bhb12rcd13ifvqem0","pricing_plan_id":"free"},{"bike_id":"35199331-8d8f-466c-b16a-436f0aa5c67d","system_id":"levelo_inurba_marseille","lat":43.28856,"lon":5.358371,"is_reserved":false,"is_disabled":false,"rental_uris":{"android":"levelo://app?vid=35199331-8d8f-466c-b16a-436f0aa5c67d","ios":"levelo://app?vid=35199331-8d8f-466c-b16a-436f0aa5c67d"},"vehicle_type_id":"4","last_reported":1684789558,"current_range_meters":29200,"station_id":"ce4bhb12rcd13ifvqem0","pricing_plan_id":"free"},{"bike_id":"67a200fb-372b-4860-9e78-7a54485b59ad","system_id":"levelo_inurba_marseille","lat":43.28856,"lon":5.358371,"is_reserved":false,"is_disabled":false,"rental_uris":{"android":"levelo://app?vid=67a200fb-372b-4860-9e78-7a54485b59ad","ios":"levelo://app?vid=67a200fb-372b-4860-9e78-7a54485b59ad"},"vehicle_type_id":"4","last_reported":1684789558,"current_range_meters":31200,"station_id":"ce4bhb12rcd13ifvqem0","pricing_plan_id":"free"},{"bike_id":"f01aafda-b474-4a76-8586-ae89c1b331fe","system_id":"levelo_inurba_marseille","lat":43.28856,"lon":5.358371,"is_reserved":false,"is_disabled":false,"rental_uris":{"android":"levelo://app?vid=f01aafda-b474-4a76-8586-ae89c1b331fe","ios":"levelo://app?vid=f01aafda-b474-4a76-8586-ae89c1b331fe"},"vehicle_type_id":"4","last_reported":1684789558,"current_range_meters":31600,"station_id":"ce4bhb12rcd13ifvqem0","pricing_plan_id":"free"},{"bike_id":"c8a6a57f-cf6f-47a9-b295-a6917843e52c","system_id":"levelo_inurba_marseille","lat":43.33738,"lon":5.37453,"is_reserved":false,"is_disabled":false,"rental_uris":{"android":"levelo://app?vid=c8a6a57f-cf6f-47a9-b295-a6917843e52c","ios":"levelo://app?vid=c8a6a57f-cf6f-47a9-b295-a6917843e52c"},"vehicle_type_id":"4","last_reported":1684789558,"current_range_meters":6000,"station_id":"","pricing_plan_id":"free"},{"bike_id":"ca9213b3-c398-40c2-ac12-438e124c4ad8","system_id":"levelo_inurba_marseille","lat":43.30642,"lon":5.401031,"is_reserved":false,"is_disabled":false,"rental_uris":{"android":"levelo://app?vid=ca9213b3-c398-40c2-ac12-438e124c4ad8","ios":"levelo://app?vid=ca9213b3-c398-40c2-ac12-438e124c4ad8"},"vehicle_type_id":"4","last_reported":1684789558,"current_range_meters":4400,"station_id":"ce4bh112rcd13ifvqda0","pricing_plan_id":"free"},{"bike_id":"b0d64b9f-17be-4b41-9cb4-683debf4cb72","system_id":"levelo_inurba_marseille","lat":43.30636,"lon":5.40073,"is_reserved":false,"is_disabled":false,"rental_uris":{"android":"levelo://app?vid=b0d64b9f-17be-4b41-9cb4-683debf4cb72","ios":"levelo://app?vid=b0d64b9f-17be-4b41-9cb4-683debf4cb72"},"vehicle_type_id":"4","last_reported":1684789558,"current_range_meters":1200,"station_id":"ce4bh112rcd13ifvqda0","pricing_plan_id":"free"},{"bike_id":"4ceafcdf-c965-4ad1-b174-80367cb32ce1","system_id":"levelo_inurba_marseille","lat":43.337537,"lon":5.374711,"is_reserved":false,"is_disabled":false,"rental_uris":{"android":"levelo://app?vid=4ceafcdf-c965-4ad1-b174-80367cb32ce1","ios":"levelo://app?vid=4ceafcdf-c965-4ad1-b174-80367cb32ce1"},"vehicle_type_id":"4","last_reported":1684789558,"current_range_meters":28800,"station_id":"","pricing_plan_id":"free"},{"bike_id":"86eabba7-d43b-4fcd-a412-42872f6ff56c","system_id":"levelo_inurba_marseille","lat":43.30642,"lon":5.401031,"is_reserved":false,"is_disabled":false,"rental_uris":{"android":"levelo://app?vid=86eabba7-d43b-4fcd-a412-42872f6ff56c","ios":"levelo://app?vid=86eabba7-d43b-4fcd-a412-42872f6ff56c"},"vehicle_type_id":"4","last_reported":1684789558,"current_range_meters":14000,"station_id":"ce4bh112rcd13ifvqda0","pricing_plan_id":"free"},{"bike_id":"66a74e04-1afd-4831-9866-d6b53dc382c7","system_id":"levelo_inurba_marseille","lat":43.33759,"lon":5.37448,"is_reserved":false,"is_disabled":false,"rental_uris":{"android":"levelo://app?vid=66a74e04-1afd-4831-9866-d6b53dc382c7","ios":"levelo://app?vid=66a74e04-1afd-4831-9866-d6b53dc382c7"},"vehicle_type_id":"4","last_reported":1684789558,"current_range_meters":1600,"station_id":"","pricing_plan_id":"free"},{"bike_id":"85512251-ebcd-4701-b0d9-d5af2195f3fb","system_id":"levelo_inurba_marseille","lat":43.30642,"lon":5.401031,"is_reserved":false,"is_disabled":false,"rental_uris":{"android":"levelo://app?vid=85512251-ebcd-4701-b0d9-d5af2195f3fb","ios":"levelo://app?vid=85512251-ebcd-4701-b0d9-d5af2195f3fb"},"vehicle_type_id":"4","last_reported":1684789558,"current_range_meters":10000,"station_id":"ce4bh112rcd13ifvqda0","pricing_plan_id":"free"},{"bike_id":"a1c917f8-6b8c-49ef-a3ae-b103cf603ba7","system_id":"levelo_inurba_marseille","lat":43.33758,"lon":5.37464,"is_reserved":false,"is_disabled":false,"rental_uris":{"android":"levelo://app?vid=a1c917f8-6b8c-49ef-a3ae-b103cf603ba7","ios":"levelo://app?vid=a1c917f8-6b8c-49ef-a3ae-b103cf603ba7"},"vehicle_type_id":"4","last_reported":1684789558,"current_range_meters":24800,"station_id":"","pricing_plan_id":"free"},{"bike_id":"e123cd43-562a-427d-b741-98d33ce5dea2","system_id":"levelo_inurba_marseille","lat":43.33763,"lon":5.37438,"is_reserved":false,"is_disabled":false,"rental_uris":{"android":"levelo://app?vid=e123cd43-562a-427d-b741-98d33ce5dea2","ios":"levelo://app?vid=e123cd43-562a-427d-b741-98d33ce5dea2"},"vehicle_type_id":"4","last_reported":1684789558,"current_range_meters":31200,"station_id":"","pricing_plan_id":"free"},{"bike_id":"bdfa6a85-4365-4812-b11d-72f32b49d000","system_id":"levelo_inurba_marseille","lat":43.33767,"lon":5.37424,"is_reserved":false,"is_disabled":false,"rental_uris":{"android":"levelo://app?vid=bdfa6a85-4365-4812-b11d-72f32b49d000","ios":"levelo://app?vid=bdfa6a85-4365-4812-b11d-72f32b49d000"},"vehicle_type_id":"4","last_reported":1684789558,"current_range_meters":31600,"station_id":"","pricing_plan_id":"free"},{"bike_id":"e941823d-fb63-4f93-8066-1a7f01015b2a","system_id":"levelo_inurba_marseille","lat":43.33765,"lon":5.37448,"is_reserved":false,"is_disabled":false,"rental_uris":{"android":"levelo://app?vid=e941823d-fb63-4f93-8066-1a7f01015b2a","ios":"levelo://app?vid=e941823d-fb63-4f93-8066-1a7f01015b2a"},"vehicle_type_id":"4","last_reported":1684789558,"current_range_meters":19200,"station_id":"","pricing_plan_id":"free"},{"bike_id":"2d84c10e-834d-4d28-ac1e-0c5d4bb1b336","system_id":"levelo_inurba_marseille","lat":43.33765,"lon":5.37448,"is_reserved":false,"is_disabled":false,"rental_uris":{"android":"levelo://app?vid=2d84c10e-834d-4d28-ac1e-0c5d4bb1b336","ios":"levelo://app?vid=2d84c10e-834d-4d28-ac1e-0c5d4bb1b336"},"vehicle_type_id":"4","last_reported":1684789558,"current_range_meters":30400,"station_id":"","pricing_plan_id":"free"},{"bike_id":"1fd4dd02-e419-4f78-8bb6-12a784adc753","system_id":"levelo_inurba_marseille","lat":43.31293,"lon":5.402,"is_reserved":false,"is_disabled":false,"rental_uris":{"android":"levelo://app?vid=1fd4dd02-e419-4f78-8bb6-12a784adc753","ios":"levelo://app?vid=1fd4dd02-e419-4f78-8bb6-12a784adc753"},"vehicle_type_id":"4","last_reported":1684789558,"current_range_meters":0,"station_id":"","pricing_plan_id":"free"},{"bike_id":"96cc63f6-42e4-4943-99ac-494d02001187","system_id":"levelo_inurba_marseille","lat":43.33767,"lon":5.37454,"is_reserved":false,"is_disabled":false,"rental_uris":{"android":"levelo://app?vid=96cc63f6-42e4-4943-99ac-494d02001187","ios":"levelo://app?vid=96cc63f6-42e4-4943-99ac-494d02001187"},"vehicle_type_id":"4","last_reported":1684789558,"current_range_meters":29600,"station_id":"","pricing_plan_id":"free"},{"bike_id":"0881189d-3f26-43d2-9ffa-1eb164c13dc3","system_id":"levelo_inurba_marseille","lat":43.30642,"lon":5.401031,"is_reserved":false,"is_disabled":false,"rental_uris":{"android":"levelo://app?vid=0881189d-3f26-43d2-9ffa-1eb164c13dc3","ios":"levelo://app?vid=0881189d-3f26-43d2-9ffa-1eb164c13dc3"},"vehicle_type_id":"4","last_reported":1684789558,"current_range_meters":7600,"station_id":"ce4bh112rcd13ifvqda0","pricing_plan_id":"free"},{"bike_id":"f2dd4f43-8118-4571-8571-e176a6fa704b","system_id":"levelo_inurba_marseille","lat":43.33773,"lon":5.37422,"is_reserved":false,"is_disabled":false,"rental_uris":{"android":"levelo://app?vid=f2dd4f43-8118-4571-8571-e176a6fa704b","ios":"levelo://app?vid=f2dd4f43-8118-4571-8571-e176a6fa704b"},"vehicle_type_id":"4","last_reported":1684789558,"current_range_meters":30400,"station_id":"","pricing_plan_id":"free"},{"bike_id":"40fe7f2e-a34b-4015-99e6-fd0b8b520a57","system_id":"levelo_inurba_marseille","lat":43.30642,"lon":5.401031,"is_reserved":false,"is_disabled":false,"rental_uris":{"android":"levelo://app?vid=40fe7f2e-a34b-4015-99e6-fd0b8b520a57","ios":"levelo://app?vid=40fe7f2e-a34b-4015-99e6-fd0b8b520a57"},"vehicle_type_id":"4","last_reported":1684789558,"current_range_meters":26000,"station_id":"ce4bh112rcd13ifvqda0","pricing_plan_id":"free"},{"bike_id":"025d41ed-ce8f-4cea-b15d-f6470881ef40","system_id":"levelo_inurba_marseille","lat":43.30642,"lon":5.401031,"is_reserved":false,"is_disabled":false,"rental_uris":{"android":"levelo://app?vid=025d41ed-ce8f-4cea-b15d-f6470881ef40","ios":"levelo://app?vid=025d41ed-ce8f-4cea-b15d-f6470881ef40"},"vehicle_type_id":"4","last_reported":1684789558,"current_range_meters":3600,"station_id":"ce4bh112rcd13ifvqda0","pricing_plan_id":"free"},{"bike_id":"6a665f5b-5b42-4628-aa62-befdcfcc50b4","system_id":"levelo_inurba_marseille","lat":43.30642,"lon":5.401031,"is_reserved":false,"is_disabled":false,"rental_uris":{"android":"levelo://app?vid=6a665f5b-5b42-4628-aa62-befdcfcc50b4","ios":"levelo://app?vid=6a665f5b-5b42-4628-aa62-befdcfcc50b4"},"vehicle_type_id":"4","last_reported":1684789558,"current_range_meters":4400,"station_id":"ce4bh112rcd13ifvqda0","pricing_plan_id":"free"},{"bike_id":"c3b66989-b85e-4172-b369-d5cd98ae4ea7","system_id":"levelo_inurba_marseille","lat":43.33773,"lon":5.37458,"is_reserved":false,"is_disabled":false,"rental_uris":{"android":"levelo://app?vid=c3b66989-b85e-4172-b369-d5cd98ae4ea7","ios":"levelo://app?vid=c3b66989-b85e-4172-b369-d5cd98ae4ea7"},"vehicle_type_id":"4","last_reported":1684789558,"current_range_meters":4400,"station_id":"","pricing_plan_id":"free"},{"bike_id":"6c779d34-5e8b-48cf-adf8-316327a9a7c6","system_id":"levelo_inurba_marseille","lat":43.337813,"lon":5.374352,"is_reserved":false,"is_disabled":false,"rental_uris":{"android":"levelo://app?vid=6c779d34-5e8b-48cf-adf8-316327a9a7c6","ios":"levelo://app?vid=6c779d34-5e8b-48cf-adf8-316327a9a7c6"},"vehicle_type_id":"4","last_reported":1684789558,"current_range_meters":28000,"station_id":"","pricing_plan_id":"free"},{"bike_id":"1e64a4e8-9353-4b64-ba07-c1c0ce218328","system_id":"levelo_inurba_marseille","lat":43.301117,"lon":5.398795,"is_reserved":false,"is_disabled":false,"rental_uris":{"android":"levelo://app?vid=1e64a4e8-9353-4b64-ba07-c1c0ce218328","ios":"levelo://app?vid=1e64a4e8-9353-4b64-ba07-c1c0ce218328"},"vehicle_type_id":"4","last_reported":1684789558,"current_range_meters":8800,"station_id":"ce4bh0h2rcd13ifvqd40","pricing_plan_id":"free"},{"bike_id":"3695088b-0769-4a59-b1de-7497a0b345b3","system_id":"levelo_inurba_marseille","lat":43.29881,"lon":5.39722,"is_reserved":false,"is_disabled":false,"rental_uris":{"android":"levelo://app?vid=3695088b-0769-4a59-b1de-7497a0b345b3","ios":"levelo://app?vid=3695088b-0769-4a59-b1de-7497a0b345b3"},"vehicle_type_id":"4","last_reported":1684789558,"current_range_meters":28000,"station_id":"","pricing_plan_id":"free"},{"bike_id":"61bd1aac-aefc-4089-b728-ac896f6699cf","system_id":"levelo_inurba_marseille","lat":43.298681,"lon":5.397225,"is_reserved":false,"is_disabled":false,"rental_uris":{"android":"levelo://app?vid=61bd1aac-aefc-4089-b728-ac896f6699cf","ios":"levelo://app?vid=61bd1aac-aefc-4089-b728-ac896f6699cf"},"vehicle_type_id":"4","last_reported":1684789558,"current_range_meters":7200,"station_id":"ce4bh0h2rcd13ifvqd50","pricing_plan_id":"free"},{"bike_id":"e9ce178d-46fa-4269-b761-f317a61b16ff","system_id":"levelo_inurba_marseille","lat":43.286593,"lon":5.363346,"is_reserved":false,"is_disabled":false,"rental_uris":{"android":"levelo://app?vid=e9ce178d-46fa-4269-b761-f317a61b16ff","ios":"levelo://app?vid=e9ce178d-46fa-4269-b761-f317a61b16ff"},"vehicle_type_id":"4","last_reported":1684789558,"current_range_meters":14400,"station_id":"ce4bhah2rcd13ifvqej0","pricing_plan_id":"free"},{"bike_id":"02b28150-2d5e-48f2-a03d-9bed69bc2f90","system_id":"levelo_inurba_marseille","lat":43.286593,"lon":5.363346,"is_reserved":false,"is_disabled":false,"rental_uris":{"android":"levelo://app?vid=02b28150-2d5e-48f2-a03d-9bed69bc2f90","ios":"levelo://app?vid=02b28150-2d5e-48f2-a03d-9bed69bc2f90"},"vehicle_type_id":"4","last_reported":1684789558,"current_range_meters":31200,"station_id":"ce4bhah2rcd13ifvqej0","pricing_plan_id":"free"},{"bike_id":"016a8a46-3e31-4db7-a2bf-9c61cb31fae6","system_id":"levelo_inurba_marseille","lat":43.298681,"lon":5.397225,"is_reserved":false,"is_disabled":false,"rental_uris":{"android":"levelo://app?vid=016a8a46-3e31-4db7-a2bf-9c61cb31fae6","ios":"levelo://app?vid=016a8a46-3e31-4db7-a2bf-9c61cb31fae6"},"vehicle_type_id":"4","last_reported":1684789558,"current_range_meters":28400,"station_id":"ce4bh0h2rcd13ifvqd50","pricing_plan_id":"free"},{"bike_id":"c3a95e83-d738-4c56-ae74-ffb52f4fe59b","system_id":"levelo_inurba_marseille","lat":43.286591,"lon":5.363346,"is_reserved":false,"is_disabled":false,"rental_uris":{"android":"levelo://app?vid=c3a95e83-d738-4c56-ae74-ffb52f4fe59b","ios":"levelo://app?vid=c3a95e83-d738-4c56-ae74-ffb52f4fe59b"},"vehicle_type_id":"4","last_reported":1684789558,"current_range_meters":26400,"station_id":"ce4bhah2rcd13ifvqej0","pricing_plan_id":"free"},{"bike_id":"9f3d1d84-f72b-4c37-b70b-c6bc8e436ec1","system_id":"levelo_inurba_marseille","lat":43.286591,"lon":5.363346,"is_reserved":false,"is_disabled":false,"rental_uris":{"android":"levelo://app?vid=9f3d1d84-f72b-4c37-b70b-c6bc8e436ec1","ios":"levelo://app?vid=9f3d1d84-f72b-4c37-b70b-c6bc8e436ec1"},"vehicle_type_id":"4","last_reported":1684789558,"current_range_meters":8800,"station_id":"ce4bhah2rcd13ifvqej0","pricing_plan_id":"free"},{"bike_id":"5cf44d14-0de7-4c6b-9a26-3a9b6a8ae6d2","system_id":"levelo_inurba_marseille","lat":43.298681,"lon":5.397225,"is_reserved":false,"is_disabled":false,"rental_uris":{"android":"levelo://app?vid=5cf44d14-0de7-4c6b-9a26-3a9b6a8ae6d2","ios":"levelo://app?vid=5cf44d14-0de7-4c6b-9a26-3a9b6a8ae6d2"},"vehicle_type_id":"4","last_reported":1684789558,"current_range_meters":23600,"station_id":"ce4bh0h2rcd13ifvqd50","pricing_plan_id":"free"},{"bike_id":"be94ee93-cde3-4ab0-b285-09d0f6cbd4e1","system_id":"levelo_inurba_marseille","lat":43.286593,"lon":5.363346,"is_reserved":false,"is_disabled":false,"rental_uris":{"android":"levelo://app?vid=be94ee93-cde3-4ab0-b285-09d0f6cbd4e1","ios":"levelo://app?vid=be94ee93-cde3-4ab0-b285-09d0f6cbd4e1"},"vehicle_type_id":"4","last_reported":1684789558,"current_range_meters":8800,"station_id":"ce4bhah2rcd13ifvqej0","pricing_plan_id":"free"},{"bike_id":"2f6ca982-b2f0-486b-b725-2438486a59ca","system_id":"levelo_inurba_marseille","lat":43.286593,"lon":5.363346,"is_reserved":false,"is_disabled":false,"rental_uris":{"android":"levelo://app?vid=2f6ca982-b2f0-486b-b725-2438486a59ca","ios":"levelo://app?vid=2f6ca982-b2f0-486b-b725-2438486a59ca"},"vehicle_type_id":"4","last_reported":1684789558,"current_range_meters":19600,"station_id":"ce4bhah2rcd13ifvqej0","pricing_plan_id":"free"},{"bike_id":"4c45398d-1833-42bd-8f15-1b5839e71d1f","system_id":"levelo_inurba_marseille","lat":43.286591,"lon":5.363346,"is_reserved":false,"is_disabled":false,"rental_uris":{"android":"levelo://app?vid=4c45398d-1833-42bd-8f15-1b5839e71d1f","ios":"levelo://app?vid=4c45398d-1833-42bd-8f15-1b5839e71d1f"},"vehicle_type_id":"4","last_reported":1684789558,"current_range_meters":10000,"station_id":"ce4bhah2rcd13ifvqej0","pricing_plan_id":"free"},{"bike_id":"c26891be-6b0e-49ca-9c8e-960e19159d87","system_id":"levelo_inurba_marseille","lat":43.295194,"lon":5.39397,"is_reserved":false,"is_disabled":false,"rental_uris":{"android":"levelo://app?vid=c26891be-6b0e-49ca-9c8e-960e19159d87","ios":"levelo://app?vid=c26891be-6b0e-49ca-9c8e-960e19159d87"},"vehicle_type_id":"4","last_reported":1684789558,"current_range_meters":10000,"station_id":"ce4bh292rcd13ifvqdf0","pricing_plan_id":"free"},{"bike_id":"bb8aab0a-8be0-446e-ad0e-649fe89dc69e","system_id":"levelo_inurba_marseille","lat":43.295194,"lon":5.39397,"is_reserved":false,"is_disabled":false,"rental_uris":{"android":"levelo://app?vid=bb8aab0a-8be0-446e-ad0e-649fe89dc69e","ios":"levelo://app?vid=bb8aab0a-8be0-446e-ad0e-649fe89dc69e"},"vehicle_type_id":"4","last_reported":1684789558,"current_range_meters":3200,"station_id":"ce4bh292rcd13ifvqdf0","pricing_plan_id":"free"},{"bike_id":"7b3661a9-526a-44dc-b29b-083a09aeecad","system_id":"levelo_inurba_marseille","lat":43.29514,"lon":5.39412,"is_reserved":false,"is_disabled":false,"rental_uris":{"android":"levelo://app?vid=7b3661a9-526a-44dc-b29b-083a09aeecad","ios":"levelo://app?vid=7b3661a9-526a-44dc-b29b-083a09aeecad"},"vehicle_type_id":"4","last_reported":1684789558,"current_range_meters":0,"station_id":"ce4bh292rcd13ifvqdf0","pricing_plan_id":"free"},{"bike_id":"0014d259-8970-4a03-aebd-f66b5d8c13fd","system_id":"levelo_inurba_marseille","lat":43.290345,"lon":5.38646,"is_reserved":false,"is_disabled":false,"rental_uris":{"android":"levelo://app?vid=0014d259-8970-4a03-aebd-f66b5d8c13fd","ios":"levelo://app?vid=0014d259-8970-4a03-aebd-f66b5d8c13fd"},"vehicle_type_id":"4","last_reported":1684789558,"current_range_meters":24400,"station_id":"ce4bh4p2rcd13ifvqe0g","pricing_plan_id":"free"},{"bike_id":"841baef0-1bfe-4a7c-ab2c-044b49644df7","system_id":"levelo_inurba_marseille","lat":43.290345,"lon":5.38646,"is_reserved":false,"is_disabled":false,"rental_uris":{"android":"levelo://app?vid=841baef0-1bfe-4a7c-ab2c-044b49644df7","ios":"levelo://app?vid=841baef0-1bfe-4a7c-ab2c-044b49644df7"},"vehicle_type_id":"4","last_reported":1684789558,"current_range_meters":23200,"station_id":"ce4bh4p2rcd13ifvqe0g","pricing_plan_id":"free"},{"bike_id":"a3c60369-1599-4640-aa5b-63a35502e04d","system_id":"levelo_inurba_marseille","lat":43.290345,"lon":5.38646,"is_reserved":false,"is_disabled":false,"rental_uris":{"android":"levelo://app?vid=a3c60369-1599-4640-aa5b-63a35502e04d","ios":"levelo://app?vid=a3c60369-1599-4640-aa5b-63a35502e04d"},"vehicle_type_id":"4","last_reported":1684789558,"current_range_meters":30800,"station_id":"ce4bh4p2rcd13ifvqe0g","pricing_plan_id":"free"},{"bike_id":"a62917b3-3b7d-4e35-903e-c4d85aa8feca","system_id":"levelo_inurba_marseille","lat":43.290345,"lon":5.38646,"is_reserved":false,"is_disabled":false,"rental_uris":{"android":"levelo://app?vid=a62917b3-3b7d-4e35-903e-c4d85aa8feca","ios":"levelo://app?vid=a62917b3-3b7d-4e35-903e-c4d85aa8feca"},"vehicle_type_id":"4","last_reported":1684789558,"current_range_meters":6000,"station_id":"ce4bh4p2rcd13ifvqe0g","pricing_plan_id":"free"},{"bike_id":"0cbf76b6-62c9-4224-88e3-6261b9633ea2","system_id":"levelo_inurba_marseille","lat":43.290345,"lon":5.38646,"is_reserved":false,"is_disabled":false,"rental_uris":{"android":"levelo://app?vid=0cbf76b6-62c9-4224-88e3-6261b9633ea2","ios":"levelo://app?vid=0cbf76b6-62c9-4224-88e3-6261b9633ea2"},"vehicle_type_id":"4","last_reported":1684789558,"current_range_meters":7200,"station_id":"ce4bh4p2rcd13ifvqe0g","pricing_plan_id":"free"},{"bike_id":"d4222250-9ad0-4e43-9017-2a71c211334c","system_id":"levelo_inurba_marseille","lat":43.29029,"lon":5.38641,"is_reserved":false,"is_disabled":false,"rental_uris":{"android":"levelo://app?vid=d4222250-9ad0-4e43-9017-2a71c211334c","ios":"levelo://app?vid=d4222250-9ad0-4e43-9017-2a71c211334c"},"vehicle_type_id":"4","last_reported":1684789558,"current_range_meters":22800,"station_id":"ce4bh4p2rcd13ifvqe0g","pricing_plan_id":"free"},{"bike_id":"5a291f3d-b4fd-4239-9f6f-7b8b142cd947","system_id":"levelo_inurba_marseille","lat":43.29033,"lon":5.3865,"is_reserved":false,"is_disabled":false,"rental_uris":{"android":"levelo://app?vid=5a291f3d-b4fd-4239-9f6f-7b8b142cd947","ios":"levelo://app?vid=5a291f3d-b4fd-4239-9f6f-7b8b142cd947"},"vehicle_type_id":"4","last_reported":1684789558,"current_range_meters":17600,"station_id":"ce4bh4p2rcd13ifvqe0g","pricing_plan_id":"free"},{"bike_id":"638d70da-4645-472f-84fb-6cb7ac383817","system_id":"levelo_inurba_marseille","lat":43.29031,"lon":5.38654,"is_reserved":false,"is_disabled":false,"rental_uris":{"android":"levelo://app?vid=638d70da-4645-472f-84fb-6cb7ac383817","ios":"levelo://app?vid=638d70da-4645-472f-84fb-6cb7ac383817"},"vehicle_type_id":"4","last_reported":1684789558,"current_range_meters":28000,"station_id":"ce4bh4p2rcd13ifvqe0g","pricing_plan_id":"free"},{"bike_id":"3ea56702-951d-4932-a8ae-e3cb1d2ca6ce","system_id":"levelo_inurba_marseille","lat":43.302759,"lon":5.400793,"is_reserved":false,"is_disabled":false,"rental_uris":{"android":"levelo://app?vid=3ea56702-951d-4932-a8ae-e3cb1d2ca6ce","ios":"levelo://app?vid=3ea56702-951d-4932-a8ae-e3cb1d2ca6ce"},"vehicle_type_id":"4","last_reported":1684789558,"current_range_meters":8400,"station_id":"ce4bgvh2rcd13ifvqcs0","pricing_plan_id":"free"},{"bike_id":"918a9886-e0ba-4d98-8d01-d558433a1c3a","system_id":"levelo_inurba_marseille","lat":43.302759,"lon":5.400793,"is_reserved":false,"is_disabled":false,"rental_uris":{"android":"levelo://app?vid=918a9886-e0ba-4d98-8d01-d558433a1c3a","ios":"levelo://app?vid=918a9886-e0ba-4d98-8d01-d558433a1c3a"},"vehicle_type_id":"4","last_reported":1684789558,"current_range_meters":1200,"station_id":"ce4bgvh2rcd13ifvqcs0","pricing_plan_id":"free"},{"bike_id":"244eeb15-f20b-487b-9839-6e9dc2dae865","system_id":"levelo_inurba_marseille","lat":43.286039,"lon":5.370679,"is_reserved":false,"is_disabled":false,"rental_uris":{"android":"levelo://app?vid=244eeb15-f20b-487b-9839-6e9dc2dae865","ios":"levelo://app?vid=244eeb15-f20b-487b-9839-6e9dc2dae865"},"vehicle_type_id":"4","last_reported":1684789558,"current_range_meters":26800,"station_id":"ce4bht12rcd13ifvqi60","pricing_plan_id":"free"},{"bike_id":"a1c4021b-e0ec-44ad-84b1-2ce25bbdcf1b","system_id":"levelo_inurba_marseille","lat":43.287184,"lon":5.37937,"is_reserved":false,"is_disabled":false,"rental_uris":{"android":"levelo://app?vid=a1c4021b-e0ec-44ad-84b1-2ce25bbdcf1b","ios":"levelo://app?vid=a1c4021b-e0ec-44ad-84b1-2ce25bbdcf1b"},"vehicle_type_id":"4","last_reported":1684789558,"current_range_meters":18800,"station_id":"ce4bh9p2rcd13ifvqec0","pricing_plan_id":"free"},{"bike_id":"02d87b81-b7ca-49ec-be65-b850e8efb790","system_id":"levelo_inurba_marseille","lat":43.2861,"lon":5.37064,"is_reserved":false,"is_disabled":false,"rental_uris":{"android":"levelo://app?vid=02d87b81-b7ca-49ec-be65-b850e8efb790","ios":"levelo://app?vid=02d87b81-b7ca-49ec-be65-b850e8efb790"},"vehicle_type_id":"4","last_reported":1684789558,"current_range_meters":2800,"station_id":"ce4bht12rcd13ifvqi60","pricing_plan_id":"free"},{"bike_id":"da7c5dec-dd11-47d9-a3a3-a5a8fee13e5d","system_id":"levelo_inurba_marseille","lat":43.287184,"lon":5.37937,"is_reserved":false,"is_disabled":false,"rental_uris":{"android":"levelo://app?vid=da7c5dec-dd11-47d9-a3a3-a5a8fee13e5d","ios":"levelo://app?vid=da7c5dec-dd11-47d9-a3a3-a5a8fee13e5d"},"vehicle_type_id":"4","last_reported":1684789558,"current_range_meters":17200,"station_id":"ce4bh9p2rcd13ifvqec0","pricing_plan_id":"free"},{"bike_id":"a16473da-f79e-4a24-b6c9-cc75a0906008","system_id":"levelo_inurba_marseille","lat":43.287184,"lon":5.37937,"is_reserved":false,"is_disabled":false,"rental_uris":{"android":"levelo://app?vid=a16473da-f79e-4a24-b6c9-cc75a0906008","ios":"levelo://app?vid=a16473da-f79e-4a24-b6c9-cc75a0906008"},"vehicle_type_id":"4","last_reported":1684789558,"current_range_meters":4400,"station_id":"ce4bh9p2rcd13ifvqec0","pricing_plan_id":"free"},{"bike_id":"c9673b23-8c52-4b3c-87a2-87363bebb6d9","system_id":"levelo_inurba_marseille","lat":43.287184,"lon":5.37937,"is_reserved":false,"is_disabled":false,"rental_uris":{"android":"levelo://app?vid=c9673b23-8c52-4b3c-87a2-87363bebb6d9","ios":"levelo://app?vid=c9673b23-8c52-4b3c-87a2-87363bebb6d9"},"vehicle_type_id":"4","last_reported":1684789558,"current_range_meters":24800,"station_id":"ce4bh9p2rcd13ifvqec0","pricing_plan_id":"free"},{"bike_id":"26956c3a-ab9d-4834-b81b-8531bbec20a5","system_id":"levelo_inurba_marseille","lat":43.287184,"lon":5.37937,"is_reserved":false,"is_disabled":false,"rental_uris":{"android":"levelo://app?vid=26956c3a-ab9d-4834-b81b-8531bbec20a5","ios":"levelo://app?vid=26956c3a-ab9d-4834-b81b-8531bbec20a5"},"vehicle_type_id":"4","last_reported":1684789558,"current_range_meters":24800,"station_id":"ce4bh9p2rcd13ifvqec0","pricing_plan_id":"free"},{"bike_id":"8622d3f7-f193-44d1-9a5a-06511c1588e4","system_id":"levelo_inurba_marseille","lat":43.287184,"lon":5.37937,"is_reserved":false,"is_disabled":false,"rental_uris":{"android":"levelo://app?vid=8622d3f7-f193-44d1-9a5a-06511c1588e4","ios":"levelo://app?vid=8622d3f7-f193-44d1-9a5a-06511c1588e4"},"vehicle_type_id":"4","last_reported":1684789558,"current_range_meters":16000,"station_id":"ce4bh9p2rcd13ifvqec0","pricing_plan_id":"free"},{"bike_id":"ffe1c75c-b4fc-4a21-bdcc-c71d51d39090","system_id":"levelo_inurba_marseille","lat":43.287185,"lon":5.379373,"is_reserved":false,"is_disabled":false,"rental_uris":{"android":"levelo://app?vid=ffe1c75c-b4fc-4a21-bdcc-c71d51d39090","ios":"levelo://app?vid=ffe1c75c-b4fc-4a21-bdcc-c71d51d39090"},"vehicle_type_id":"4","last_reported":1684789558,"current_range_meters":9600,"station_id":"ce4bh9p2rcd13ifvqec0","pricing_plan_id":"free"},{"bike_id":"9f06bcbc-e921-4790-b870-df6dfe6d616d","system_id":"levelo_inurba_marseille","lat":43.287185,"lon":5.379373,"is_reserved":false,"is_disabled":false,"rental_uris":{"android":"levelo://app?vid=9f06bcbc-e921-4790-b870-df6dfe6d616d","ios":"levelo://app?vid=9f06bcbc-e921-4790-b870-df6dfe6d616d"},"vehicle_type_id":"4","last_reported":1684789558,"current_range_meters":0,"station_id":"ce4bh9p2rcd13ifvqec0","pricing_plan_id":"free"},{"bike_id":"179774a8-d162-4313-829d-9866ec07a3d4","system_id":"levelo_inurba_marseille","lat":43.287185,"lon":5.379373,"is_reserved":false,"is_disabled":false,"rental_uris":{"android":"levelo://app?vid=179774a8-d162-4313-829d-9866ec07a3d4","ios":"levelo://app?vid=179774a8-d162-4313-829d-9866ec07a3d4"},"vehicle_type_id":"4","last_reported":1684789558,"current_range_meters":2400,"station_id":"ce4bh9p2rcd13ifvqec0","pricing_plan_id":"free"},{"bike_id":"2a16731c-6276-4e1b-81bb-718f52159079","system_id":"levelo_inurba_marseille","lat":43.316517,"lon":5.404375,"is_reserved":false,"is_disabled":false,"rental_uris":{"android":"levelo://app?vid=2a16731c-6276-4e1b-81bb-718f52159079","ios":"levelo://app?vid=2a16731c-6276-4e1b-81bb-718f52159079"},"vehicle_type_id":"4","last_reported":1684789558,"current_range_meters":15200,"station_id":"ce4bh012rcd13ifvqd00","pricing_plan_id":"free"},{"bike_id":"d7457943-c11d-4c93-8aec-0e6429232ca2","system_id":"levelo_inurba_marseille","lat":43.316517,"lon":5.404375,"is_reserved":false,"is_disabled":false,"rental_uris":{"android":"levelo://app?vid=d7457943-c11d-4c93-8aec-0e6429232ca2","ios":"levelo://app?vid=d7457943-c11d-4c93-8aec-0e6429232ca2"},"vehicle_type_id":"4","last_reported":1684789558,"current_range_meters":19600,"station_id":"ce4bh012rcd13ifvqd00","pricing_plan_id":"free"},{"bike_id":"1275e986-e002-43fe-a727-02505f22bbdb","system_id":"levelo_inurba_marseille","lat":43.291994,"lon":5.392907,"is_reserved":false,"is_disabled":false,"rental_uris":{"android":"levelo://app?vid=1275e986-e002-43fe-a727-02505f22bbdb","ios":"levelo://app?vid=1275e986-e002-43fe-a727-02505f22bbdb"},"vehicle_type_id":"4","last_reported":1684789558,"current_range_meters":14400,"station_id":"ce4bh192rcd13ifvqdd0","pricing_plan_id":"free"},{"bike_id":"773b32dc-5921-4539-9b15-312ef98836cd","system_id":"levelo_inurba_marseille","lat":43.291994,"lon":5.392907,"is_reserved":false,"is_disabled":false,"rental_uris":{"android":"levelo://app?vid=773b32dc-5921-4539-9b15-312ef98836cd","ios":"levelo://app?vid=773b32dc-5921-4539-9b15-312ef98836cd"},"vehicle_type_id":"4","last_reported":1684789558,"current_range_meters":3600,"station_id":"ce4bh192rcd13ifvqdd0","pricing_plan_id":"free"},{"bike_id":"b738d369-ff10-4528-a54e-051c14b63248","system_id":"levelo_inurba_marseille","lat":43.284534,"lon":5.358662,"is_reserved":false,"is_disabled":false,"rental_uris":{"android":"levelo://app?vid=b738d369-ff10-4528-a54e-051c14b63248","ios":"levelo://app?vid=b738d369-ff10-4528-a54e-051c14b63248"},"vehicle_type_id":"4","last_reported":1684789558,"current_range_meters":14000,"station_id":"ce4bhah2rcd13ifvqei0","pricing_plan_id":"free"},{"bike_id":"120a5bc7-adfc-47c2-ada2-bbb22a238bc5","system_id":"levelo_inurba_marseille","lat":43.284534,"lon":5.358662,"is_reserved":false,"is_disabled":false,"rental_uris":{"android":"levelo://app?vid=120a5bc7-adfc-47c2-ada2-bbb22a238bc5","ios":"levelo://app?vid=120a5bc7-adfc-47c2-ada2-bbb22a238bc5"},"vehicle_type_id":"4","last_reported":1684789558,"current_range_meters":11600,"station_id":"ce4bhah2rcd13ifvqei0","pricing_plan_id":"free"},{"bike_id":"d599c619-acee-4b25-b6e7-9c4318a4fe85","system_id":"levelo_inurba_marseille","lat":43.284534,"lon":5.358662,"is_reserved":false,"is_disabled":false,"rental_uris":{"android":"levelo://app?vid=d599c619-acee-4b25-b6e7-9c4318a4fe85","ios":"levelo://app?vid=d599c619-acee-4b25-b6e7-9c4318a4fe85"},"vehicle_type_id":"4","last_reported":1684789558,"current_range_meters":3600,"station_id":"ce4bhah2rcd13ifvqei0","pricing_plan_id":"free"},{"bike_id":"4a5b6745-4997-4380-b128-b9661334f6e7","system_id":"levelo_inurba_marseille","lat":43.284534,"lon":5.358662,"is_reserved":false,"is_disabled":false,"rental_uris":{"android":"levelo://app?vid=4a5b6745-4997-4380-b128-b9661334f6e7","ios":"levelo://app?vid=4a5b6745-4997-4380-b128-b9661334f6e7"},"vehicle_type_id":"4","last_reported":1684789558,"current_range_meters":15600,"station_id":"ce4bhah2rcd13ifvqei0","pricing_plan_id":"free"},{"bike_id":"6cab2732-9a80-4b1a-8b48-fe0d229fdb60","system_id":"levelo_inurba_marseille","lat":43.284534,"lon":5.358662,"is_reserved":false,"is_disabled":false,"rental_uris":{"android":"levelo://app?vid=6cab2732-9a80-4b1a-8b48-fe0d229fdb60","ios":"levelo://app?vid=6cab2732-9a80-4b1a-8b48-fe0d229fdb60"},"vehicle_type_id":"4","last_reported":1684789558,"current_range_meters":22400,"station_id":"ce4bhah2rcd13ifvqei0","pricing_plan_id":"free"},{"bike_id":"47b3c0f3-3cc8-41de-9a3a-b9f96a1566ef","system_id":"levelo_inurba_marseille","lat":43.284534,"lon":5.358662,"is_reserved":false,"is_disabled":false,"rental_uris":{"android":"levelo://app?vid=47b3c0f3-3cc8-41de-9a3a-b9f96a1566ef","ios":"levelo://app?vid=47b3c0f3-3cc8-41de-9a3a-b9f96a1566ef"},"vehicle_type_id":"4","last_reported":1684789558,"current_range_meters":0,"station_id":"ce4bhah2rcd13ifvqei0","pricing_plan_id":"free"},{"bike_id":"81fcf9fe-96b9-46c8-88fe-4d15d739008a","system_id":"levelo_inurba_marseille","lat":43.284534,"lon":5.358662,"is_reserved":false,"is_disabled":false,"rental_uris":{"android":"levelo://app?vid=81fcf9fe-96b9-46c8-88fe-4d15d739008a","ios":"levelo://app?vid=81fcf9fe-96b9-46c8-88fe-4d15d739008a"},"vehicle_type_id":"4","last_reported":1684789558,"current_range_meters":18400,"station_id":"ce4bhah2rcd13ifvqei0","pricing_plan_id":"free"},{"bike_id":"ab14d55a-20f4-4655-b34e-203c9a6adf94","system_id":"levelo_inurba_marseille","lat":43.284534,"lon":5.358662,"is_reserved":false,"is_disabled":false,"rental_uris":{"android":"levelo://app?vid=ab14d55a-20f4-4655-b34e-203c9a6adf94","ios":"levelo://app?vid=ab14d55a-20f4-4655-b34e-203c9a6adf94"},"vehicle_type_id":"4","last_reported":1684789558,"current_range_meters":6800,"station_id":"ce4bhah2rcd13ifvqei0","pricing_plan_id":"free"},{"bike_id":"12e8ceba-946d-4d77-bba2-6b864a55c9ac","system_id":"levelo_inurba_marseille","lat":43.285856,"lon":5.350771,"is_reserved":false,"is_disabled":false,"rental_uris":{"android":"levelo://app?vid=12e8ceba-946d-4d77-bba2-6b864a55c9ac","ios":"levelo://app?vid=12e8ceba-946d-4d77-bba2-6b864a55c9ac"},"vehicle_type_id":"4","last_reported":1684789558,"current_range_meters":800,"station_id":"ce4bhch2rcd13ifvqeug","pricing_plan_id":"free"},{"bike_id":"322662f1-f216-4c38-a922-886e1bdd11bd","system_id":"levelo_inurba_marseille","lat":43.28616,"lon":5.35105,"is_reserved":false,"is_disabled":false,"rental_uris":{"android":"levelo://app?vid=322662f1-f216-4c38-a922-886e1bdd11bd","ios":"levelo://app?vid=322662f1-f216-4c38-a922-886e1bdd11bd"},"vehicle_type_id":"4","last_reported":1684789558,"current_range_meters":21600,"station_id":"","pricing_plan_id":"free"},{"bike_id":"85f9a319-0696-4afb-98e9-2aa9246fdf8a","system_id":"levelo_inurba_marseille","lat":43.28615,"lon":5.35104,"is_reserved":false,"is_disabled":false,"rental_uris":{"android":"levelo://app?vid=85f9a319-0696-4afb-98e9-2aa9246fdf8a","ios":"levelo://app?vid=85f9a319-0696-4afb-98e9-2aa9246fdf8a"},"vehicle_type_id":"4","last_reported":1684789558,"current_range_meters":20400,"station_id":"","pricing_plan_id":"free"},{"bike_id":"63075969-a095-49b5-a27f-ba56d3a18280","system_id":"levelo_inurba_marseille","lat":43.28613,"lon":5.35103,"is_reserved":false,"is_disabled":false,"rental_uris":{"android":"levelo://app?vid=63075969-a095-49b5-a27f-ba56d3a18280","ios":"levelo://app?vid=63075969-a095-49b5-a27f-ba56d3a18280"},"vehicle_type_id":"4","last_reported":1684789558,"current_range_meters":9200,"station_id":"","pricing_plan_id":"free"},{"bike_id":"1fb3a499-53cb-4f1a-86c1-2029758671e7","system_id":"levelo_inurba_marseille","lat":43.295713,"lon":5.399639,"is_reserved":false,"is_disabled":false,"rental_uris":{"android":"levelo://app?vid=1fb3a499-53cb-4f1a-86c1-2029758671e7","ios":"levelo://app?vid=1fb3a499-53cb-4f1a-86c1-2029758671e7"},"vehicle_type_id":"4","last_reported":1684789558,"current_range_meters":4800,"station_id":"ce4bh312rcd13ifvqdj0","pricing_plan_id":"free"},{"bike_id":"9e0279ce-2286-43a7-ad90-ba73cedde92e","system_id":"levelo_inurba_marseille","lat":43.295713,"lon":5.399639,"is_reserved":false,"is_disabled":false,"rental_uris":{"android":"levelo://app?vid=9e0279ce-2286-43a7-ad90-ba73cedde92e","ios":"levelo://app?vid=9e0279ce-2286-43a7-ad90-ba73cedde92e"},"vehicle_type_id":"4","last_reported":1684789558,"current_range_meters":3200,"station_id":"ce4bh312rcd13ifvqdj0","pricing_plan_id":"free"},{"bike_id":"90423e2c-046c-4ba6-b53c-7414e9d9a7b3","system_id":"levelo_inurba_marseille","lat":43.286595,"lon":5.386795,"is_reserved":false,"is_disabled":false,"rental_uris":{"android":"levelo://app?vid=90423e2c-046c-4ba6-b53c-7414e9d9a7b3","ios":"levelo://app?vid=90423e2c-046c-4ba6-b53c-7414e9d9a7b3"},"vehicle_type_id":"4","last_reported":1684789558,"current_range_meters":8000,"station_id":"ce4bh492rcd13ifvqdug","pricing_plan_id":"free"},{"bike_id":"51242a3e-8431-425c-9499-7568e184e7b4","system_id":"levelo_inurba_marseille","lat":43.323464,"lon":5.406297,"is_reserved":false,"is_disabled":false,"rental_uris":{"android":"levelo://app?vid=51242a3e-8431-425c-9499-7568e184e7b4","ios":"levelo://app?vid=51242a3e-8431-425c-9499-7568e184e7b4"},"vehicle_type_id":"4","last_reported":1684789558,"current_range_meters":3600,"station_id":"ce4bhq92rcd13ifvqhjg","pricing_plan_id":"free"},{"bike_id":"9c3a0629-b710-4105-a14c-b04a997ad1cd","system_id":"levelo_inurba_marseille","lat":43.33721,"lon":5.39185,"is_reserved":false,"is_disabled":false,"rental_uris":{"android":"levelo://app?vid=9c3a0629-b710-4105-a14c-b04a997ad1cd","ios":"levelo://app?vid=9c3a0629-b710-4105-a14c-b04a997ad1cd"},"vehicle_type_id":"4","last_reported":1684789558,"current_range_meters":25200,"station_id":"","pricing_plan_id":"free"},{"bike_id":"c0eda90a-2ac1-4bbb-9ad3-f3d47e25324c","system_id":"levelo_inurba_marseille","lat":43.3372,"lon":5.39189,"is_reserved":false,"is_disabled":false,"rental_uris":{"android":"levelo://app?vid=c0eda90a-2ac1-4bbb-9ad3-f3d47e25324c","ios":"levelo://app?vid=c0eda90a-2ac1-4bbb-9ad3-f3d47e25324c"},"vehicle_type_id":"4","last_reported":1684789558,"current_range_meters":27600,"station_id":"","pricing_plan_id":"free"},{"bike_id":"676c17c7-eeee-464e-86b0-2992dc7fe1b5","system_id":"levelo_inurba_marseille","lat":43.323464,"lon":5.406297,"is_reserved":false,"is_disabled":false,"rental_uris":{"android":"levelo://app?vid=676c17c7-eeee-464e-86b0-2992dc7fe1b5","ios":"levelo://app?vid=676c17c7-eeee-464e-86b0-2992dc7fe1b5"},"vehicle_type_id":"4","last_reported":1684789558,"current_range_meters":0,"station_id":"ce4bhq92rcd13ifvqhjg","pricing_plan_id":"free"},{"bike_id":"9b8cc494-36e3-46db-9751-621ff24b8854","system_id":"levelo_inurba_marseille","lat":43.323464,"lon":5.406297,"is_reserved":false,"is_disabled":false,"rental_uris":{"android":"levelo://app?vid=9b8cc494-36e3-46db-9751-621ff24b8854","ios":"levelo://app?vid=9b8cc494-36e3-46db-9751-621ff24b8854"},"vehicle_type_id":"4","last_reported":1684789558,"current_range_meters":0,"station_id":"ce4bhq92rcd13ifvqhjg","pricing_plan_id":"free"},{"bike_id":"726c16ff-8208-4c7b-8ef5-d45410114479","system_id":"levelo_inurba_marseille","lat":43.33728,"lon":5.3919,"is_reserved":false,"is_disabled":false,"rental_uris":{"android":"levelo://app?vid=726c16ff-8208-4c7b-8ef5-d45410114479","ios":"levelo://app?vid=726c16ff-8208-4c7b-8ef5-d45410114479"},"vehicle_type_id":"4","last_reported":1684789558,"current_range_meters":18000,"station_id":"","pricing_plan_id":"free"},{"bike_id":"c6f4cadb-237a-42d8-a144-6cf71eb6c44a","system_id":"levelo_inurba_marseille","lat":43.33727,"lon":5.39193,"is_reserved":false,"is_disabled":false,"rental_uris":{"android":"levelo://app?vid=c6f4cadb-237a-42d8-a144-6cf71eb6c44a","ios":"levelo://app?vid=c6f4cadb-237a-42d8-a144-6cf71eb6c44a"},"vehicle_type_id":"4","last_reported":1684789558,"current_range_meters":11600,"station_id":"","pricing_plan_id":"free"},{"bike_id":"22eb0933-3c60-4b74-bd10-a4cdbd91f2e0","system_id":"levelo_inurba_marseille","lat":43.283494,"lon":5.380945,"is_reserved":false,"is_disabled":false,"rental_uris":{"android":"levelo://app?vid=22eb0933-3c60-4b74-bd10-a4cdbd91f2e0","ios":"levelo://app?vid=22eb0933-3c60-4b74-bd10-a4cdbd91f2e0"},"vehicle_type_id":"4","last_reported":1684789558,"current_range_meters":14000,"station_id":"ce4bh412rcd13ifvqdr0","pricing_plan_id":"free"},{"bike_id":"feb91a39-2cd2-4dcf-998e-64901ad8469e","system_id":"levelo_inurba_marseille","lat":43.288497,"lon":5.393089,"is_reserved":false,"is_disabled":false,"rental_uris":{"android":"levelo://app?vid=feb91a39-2cd2-4dcf-998e-64901ad8469e","ios":"levelo://app?vid=feb91a39-2cd2-4dcf-998e-64901ad8469e"},"vehicle_type_id":"4","last_reported":1684789558,"current_range_meters":20000,"station_id":"ce4bh2p2rcd13ifvqdi0","pricing_plan_id":"free"},{"bike_id":"0c2d7ea3-9ced-428f-8791-98668e9eb6d0","system_id":"levelo_inurba_marseille","lat":43.283498,"lon":5.380948,"is_reserved":false,"is_disabled":false,"rental_uris":{"android":"levelo://app?vid=0c2d7ea3-9ced-428f-8791-98668e9eb6d0","ios":"levelo://app?vid=0c2d7ea3-9ced-428f-8791-98668e9eb6d0"},