{"last_updated":1749719509,"ttl":60,"version":"2.2","data":{"bikes":[{"bike_id":"b31f0139-170f-4194-984f-4386218a1e9d","system_id":"levelo_inurba_marseille","lat":43.33771,"lon":5.37424,"is_reserved":false,"is_disabled":true,"rental_uris":{"android":"levelo://app?vid=b31f0139-170f-4194-984f-4386218a1e9d","ios":"levelo://app?vid=b31f0139-170f-4194-984f-4386218a1e9d"},"vehicle_type_id":"4","last_reported":1749719509,"current_range_meters":0,"station_id":"","pricing_plan_id":"cebpf4jnsgd1na2vs0mg"},{"bike_id":"1acfb620-cad7-48c0-8901-d7a5b74a5b65","system_id":"levelo_inurba_marseille","lat":43.33751,"lon":5.37456,"is_reserved":false,"is_disabled":false,"rental_uris":{"android":"levelo://app?vid=1acfb620-cad7-48c0-8901-d7a5b74a5b65","ios":"levelo://app?vid=1acfb620-cad7-48c0-8901-d7a5b74a5b65"},"vehicle_type_id":"4","last_reported":1749719509,"current_range_meters":9200,"station_id":"","pricing_plan_id":"cebpf4jnsgd1na2vs0mg"},{"bike_id":"15642284-38bf-46a3-8429-b976f7e075a1","system_id":"levelo_inurba_marseille","lat":43.27923,"lon":5.382914,"is_reserved":false,"is_disabled":true,"rental_uris":{"android":"levelo://app?vid=15642284-38bf-46a3-8429-b976f7e075a1","ios":"levelo://app?vid=15642284-38bf-46a3-8429-b976f7e075a1"},"vehicle_type_id":"4","last_reported":1749719509,"current_range_meters":0,"station_id":"","pricing_plan_id":"cebpf4jnsgd1na2vs0mg"},{"bike_id":"bf89d78c-eb96-40d5-beb0-f402ef102cc1","system_id":"levelo_inurba_marseille","lat":43.337444,"lon":5.374475,"is_reserved":false,"is_disabled":true,"rental_uris":{"android":"levelo://app?vid=bf89d78c-eb96-40d5-beb0-f402ef102cc1","ios":"levelo://app?vid=bf89d78c-eb96-40d5-beb0-f402ef102cc1"},"vehicle_type_id":"4","last_reported":1749719509,"current_range_meters":0,"station_id":"","pricing_plan_id":"cebpf4jnsgd1na2vs0mg"},{"bike_id":"6908bae8-72a3-4af1-871a-a204f93e7563","system_id":"levelo_inurba_marseille","lat":43.32389,"lon":5.39332,"is_reserved":false,"is_disabled":true,"rental_uris":{"android":"levelo://app?vid=6908bae8-72a3-4af1-871a-a204f93e7563","ios":"levelo://app?vid=6908bae8-72a3-4af1-871a-a204f93e7563"},"vehicle_type_id":"4","last_reported":1749719509,"current_range_meters":0,"station_id":"","pricing_plan_id":"cebpf4jnsgd1na2vs0mg"},{"bike_id":"7c6a9c32-3bbe-4d4c-8294-1969d0688a87","system_id":"levelo_inurba_marseille","lat":43.28482,"lon":5.42295,"is_reserved":false,"is_disabled":true,"rental_uris":{"android":"levelo://app?vid=7c6a9c32-3bbe-4d4c-8294-1969d0688a87","ios":"levelo://app?vid=7c6a9c32-3bbe-4d4c-8294-1969d0688a87"},"vehicle_type_id":"4","last_reported":1749719509,"current_range_meters":0,"station_id":"","pricing_plan_id":"cebpf4jnsgd1na2vs0mg"},{"bike_id":"18ab1fe6-a7e6-448a-9631-a8542cf8c56c","system_id":"levelo_inurba_marseille","lat":43.33234,"lon":5.37924,"is_reserved":false,"is_disabled":true,"rental_uris":{"android":"levelo://app?vid=18ab1fe6-a7e6-448a-9631-a8542cf8c56c","ios":"levelo://app?vid=18ab1fe6-a7e6-448a-9631-a8542cf8c56c"},"vehicle_type_id":"4","last_reported":1749719509,"current_range_meters":0,"station_id":"","pricing_plan_id":"cebpf4jnsgd1na2vs0mg"},{"bike_id":"9e55e93e-42c5-4c2c-9154-2d3c316cb5d9","system_id":"levelo_inurba_marseille","lat":43.31864,"lon":5.39368,"is_reserved":false,"is_disabled":true,"rental_uris":{"android":"levelo://app?vid=9e55e93e-42c5-4c2c-9154-2d3c316cb5d9","ios":"levelo://app?vid=9e55e93e-42c5-4c2c-9154-2d3c316cb5d9"},"vehicle_type_id":"4","last_reported":1749719509,"current_range_meters":0,"station_id":"","pricing_plan_id":"cebpf4jnsgd1na2vs0mg"},{"bike_id":"e999fb91-4b7d-41af-8c8b-18ce805e372d","system_id":"levelo_inurba_marseille","lat":43.27741,"lon":5.37559,"is_reserved":false,"is_disabled":true,"rental_uris":{"android":"levelo://app?vid=e999fb91-4b7d-41af-8c8b-18ce805e372d","ios":"levelo://app?vid=e999fb91-4b7d-41af-8c8b-18ce805e372d"},"vehicle_type_id":"4","last_reported":1749719509,"current_range_meters":0,"station_id":"","pricing_plan_id":"cebpf4jnsgd1na2vs0mg"},{"bike_id":"78778bea-ee8d-4617-9940-e8d532761b1d","system_id":"levelo_inurba_marseille","lat":43.32563,"lon":5.42708,"is_reserved":false,"is_disabled":true,"rental_uris":{"android":"levelo://app?vid=78778bea-ee8d-4617-9940-e8d532761b1d","ios":"levelo://app?vid=78778bea-ee8d-4617-9940-e8d532761b1d"},"vehicle_type_id":"4","last_reported":1749719509,"current_range_meters":0,"station_id":"","pricing_plan_id":"cebpf4jnsgd1na2vs0mg"},{"bike_id":"492f4bbd-1190-4ef2-b66a-479ffe91b09b","system_id":"levelo_inurba_marseille","lat":43.337444,"lon":5.374475,"is_reserved":false,"is_disabled":true,"rental_uris":{"android":"levelo://app?vid=492f4bbd-1190-4ef2-b66a-479ffe91b09b","ios":"levelo://app?vid=492f4bbd-1190-4ef2-b66a-479ffe91b09b"},"vehicle_type_id":"4","last_reported":1749719509,"current_range_meters":0,"station_id":"","pricing_plan_id":"cebpf4jnsgd1na2vs0mg"},{"bike_id":"ce526313-e4c7-47eb-856f-183916936663","system_id":"levelo_inurba_marseille","lat":43.26218,"lon":5.39541,"is_reserved":false,"is_disabled":true,"rental_uris":{"android":"levelo://app?vid=ce526313-e4c7-47eb-856f-183916936663","ios":"levelo://app?vid=ce526313-e4c7-47eb-856f-183916936663"},"vehicle_type_id":"4","last_reported":1749719509,"current_range_meters":0,"station_id":"","pricing_plan_id":"cebpf4jnsgd1na2vs0mg"},{"bike_id":"15988eb6-4ac2-4228-b4b4-8767be95739e","system_id":"levelo_inurba_marseille","lat":43.31309,"lon":5.36682,"is_reserved":false,"is_disabled":true,"rental_uris":{"android":"levelo://app?vid=15988eb6-4ac2-4228-b4b4-8767be95739e","ios":"levelo://app?vid=15988eb6-4ac2-4228-b4b4-8767be95739e"},"vehicle_type_id":"4","last_reported":1749719509,"current_range_meters":0,"station_id":"ce4bgr92rcd13ifvqc6g","pricing_plan_id":"cebpf4jnsgd1na2vs0mg"},{"bike_id":"b6df3a0b-f61f-4e01-ad81-76b8905cd7a4","system_id":"levelo_inurba_marseille","lat":43.3054,"lon":5.36546,"is_reserved":false,"is_disabled":true,"rental_uris":{"android":"levelo://app?vid=b6df3a0b-f61f-4e01-ad81-76b8905cd7a4","ios":"levelo://app?vid=b6df3a0b-f61f-4e01-ad81-76b8905cd7a4"},"vehicle_type_id":"4","last_reported":1749719509,"current_range_meters":0,"station_id":"ce4bgs12rcd13ifvqcag","pricing_plan_id":"cebpf4jnsgd1na2vs0mg"},{"bike_id":"8784e624-00f3-4551-bafe-853f93436fc4","system_id":"levelo_inurba_marseille","lat":43.305457,"lon":5.365552,"is_reserved":false,"is_disabled":true,"rental_uris":{"android":"levelo://app?vid=8784e624-00f3-4551-bafe-853f93436fc4","ios":"levelo://app?vid=8784e624-00f3-4551-bafe-853f93436fc4"},"vehicle_type_id":"4","last_reported":1749719509,"current_range_meters":0,"station_id":"ce4bgs12rcd13ifvqcag","pricing_plan_id":"cebpf4jnsgd1na2vs0mg"},{"bike_id":"4dcd176a-acfc-494d-9b1d-008dbf913888","system_id":"levelo_inurba_marseille","lat":43.31059,"lon":5.38351,"is_reserved":false,"is_disabled":true,"rental_uris":{"android":"levelo://app?vid=4dcd176a-acfc-494d-9b1d-008dbf913888","ios":"levelo://app?vid=4dcd176a-acfc-494d-9b1d-008dbf913888"},"vehicle_type_id":"4","last_reported":1749719509,"current_range_meters":0,"station_id":"ce4bgv92rcd13ifvqcr0","pricing_plan_id":"cebpf4jnsgd1na2vs0mg"},{"bike_id":"a13bfa59-00c2-40db-8b7d-f94fc426e28c","system_id":"levelo_inurba_marseille","lat":43.29265,"lon":5.38445,"is_reserved":false,"is_disabled":true,"rental_uris":{"android":"levelo://app?vid=a13bfa59-00c2-40db-8b7d-f94fc426e28c","ios":"levelo://app?vid=a13bfa59-00c2-40db-8b7d-f94fc426e28c"},"vehicle_type_id":"4","last_reported":1749719509,"current_range_meters":0,"station_id":"ce4bh692rcd13ifvqea0","pricing_plan_id":"cebpf4jnsgd1na2vs0mg"},{"bike_id":"2ee7702c-868b-4841-b603-685490ed9d51","system_id":"levelo_inurba_marseille","lat":43.28297,"lon":5.35042,"is_reserved":false,"is_disabled":true,"rental_uris":{"android":"levelo://app?vid=2ee7702c-868b-4841-b603-685490ed9d51","ios":"levelo://app?vid=2ee7702c-868b-4841-b603-685490ed9d51"},"vehicle_type_id":"4","last_reported":1749719509,"current_range_meters":0,"station_id":"ce4bhbp2rcd13ifvqerg","pricing_plan_id":"cebpf4jnsgd1na2vs0mg"},{"bike_id":"dcb6d40c-7c66-487f-8864-eefac3a3d9bb","system_id":"levelo_inurba_marseille","lat":43.28621,"lon":5.35098,"is_reserved":false,"is_disabled":true,"rental_uris":{"android":"levelo://app?vid=dcb6d40c-7c66-487f-8864-eefac3a3d9bb","ios":"levelo://app?vid=dcb6d40c-7c66-487f-8864-eefac3a3d9bb"},"vehicle_type_id":"4","last_reported":1749719509,"current_range_meters":0,"station_id":"ce4bhch2rcd13ifvqeug","pricing_plan_id":"cebpf4jnsgd1na2vs0mg"},{"bike_id":"2a80d09a-7e31-4443-923e-3d1c518c4a54","system_id":"levelo_inurba_marseille","lat":43.25496,"lon":5.37645,"is_reserved":false,"is_disabled":true,"rental_uris":{"android":"levelo://app?vid=2a80d09a-7e31-4443-923e-3d1c518c4a54","ios":"levelo://app?vid=2a80d09a-7e31-4443-923e-3d1c518c4a54"},"vehicle_type_id":"4","last_reported":1749719509,"current_range_meters":0,"station_id":"ce4bhh12rcd13ifvqff0","pricing_plan_id":"cebpf4jnsgd1na2vs0mg"},{"bike_id":"81b8706f-d9bc-4a4e-b240-092ad8ad5797","system_id":"levelo_inurba_marseille","lat":43.26783,"lon":5.39417,"is_reserved":false,"is_disabled":true,"rental_uris":{"android":"levelo://app?vid=81b8706f-d9bc-4a4e-b240-092ad8ad5797","ios":"levelo://app?vid=81b8706f-d9bc-4a4e-b240-092ad8ad5797"},"vehicle_type_id":"4","last_reported":1749719509,"current_range_meters":0,"station_id":"ce4bhh12rcd13ifvqfg0","pricing_plan_id":"cebpf4jnsgd1na2vs0mg"},{"bike_id":"7b272f9c-094a-4084-9822-ab5b32cdb285","system_id":"levelo_inurba_marseille","lat":43.256344,"lon":5.411487,"is_reserved":false,"is_disabled":true,"rental_uris":{"android":"levelo://app?vid=7b272f9c-094a-4084-9822-ab5b32cdb285","ios":"levelo://app?vid=7b272f9c-094a-4084-9822-ab5b32cdb285"},"vehicle_type_id":"4","last_reported":1749719509,"current_range_meters":0,"station_id":"ce4bhkp2rcd13ifvqgd0","pricing_plan_id":"cebpf4jnsgd1na2vs0mg"},{"bike_id":"0957761d-fa71-4312-9901-7b1b9a8b8955","system_id":"levelo_inurba_marseille","lat":43.23147,"lon":5.43721,"is_reserved":false,"is_disabled":true,"rental_uris":{"android":"levelo://app?vid=0957761d-fa71-4312-9901-7b1b9a8b8955","ios":"levelo://app?vid=0957761d-fa71-4312-9901-7b1b9a8b8955"},"vehicle_type_id":"4","last_reported":1749719509,"current_range_meters":0,"station_id":"ce4bhmp2rcd13ifvqgog","pricing_plan_id":"cebpf4jnsgd1na2vs0mg"},{"bike_id":"6733a139-e631-4f12-887c-6cac9847c371","system_id":"levelo_inurba_marseille","lat":43.2956,"lon":5.42276,"is_reserved":false,"is_disabled":true,"rental_uris":{"android":"levelo://app?vid=6733a139-e631-4f12-887c-6cac9847c371","ios":"levelo://app?vid=6733a139-e631-4f12-887c-6cac9847c371"},"vehicle_type_id":"4","last_reported":1749719509,"current_range_meters":0,"station_id":"ce4bhph2rcd13ifvqhdg","pricing_plan_id":"cebpf4jnsgd1na2vs0mg"},{"bike_id":"34079f42-b9d3-4f05-b94e-8f5fac3bf6ca","system_id":"levelo_inurba_marseille","lat":43.32499,"lon":5.36561,"is_reserved":false,"is_disabled":true,"rental_uris":{"android":"levelo://app?vid=34079f42-b9d3-4f05-b94e-8f5fac3bf6ca","ios":"levelo://app?vid=34079f42-b9d3-4f05-b94e-8f5fac3bf6ca"},"vehicle_type_id":"4","last_reported":1749719509,"current_range_meters":0,"station_id":"ce4bhs12rcd13ifvqhvg","pricing_plan_id":"cebpf4jnsgd1na2vs0mg"},{"bike_id":"baa09194-63b5-4d5f-952b-05e25b553dc4","system_id":"levelo_inurba_marseille","lat":43.24164,"lon":5.36398,"is_reserved":false,"is_disabled":true,"rental_uris":{"android":"levelo://app?vid=baa09194-63b5-4d5f-952b-05e25b553dc4","ios":"levelo://app?vid=baa09194-63b5-4d5f-952b-05e25b553dc4"},"vehicle_type_id":"4","last_reported":1749719509,"current_range_meters":0,"station_id":"cpo36qri1sfpv3e86is0","pricing_plan_id":"cebpf4jnsgd1na2vs0mg"},{"bike_id":"ca6df3d9-d4af-470a-82cd-b5e969e09c9b","system_id":"levelo_inurba_marseille","lat":43.21743,"lon":5.34593,"is_reserved":false,"is_disabled":true,"rental_uris":{"android":"levelo://app?vid=ca6df3d9-d4af-470a-82cd-b5e969e09c9b","ios":"levelo://app?vid=ca6df3d9-d4af-470a-82cd-b5e969e09c9b"},"vehicle_type_id":"4","last_reported":1749719509,"current_range_meters":0,"station_id":"st_cvj6r9ubvosntc0bgbag","pricing_plan_id":"cebpf4jnsgd1na2vs0mg"},{"bike_id":"37fe0c8d-87af-4346-9990-a25dd5a4d462","system_id":"levelo_inurba_marseille","lat":43.31536,"lon":5.38954,"is_reserved":false,"is_disabled":true,"rental_uris":{"android":"levelo://app?vid=37fe0c8d-87af-4346-9990-a25dd5a4d462","ios":"levelo://app?vid=37fe0c8d-87af-4346-9990-a25dd5a4d462"},"vehicle_type_id":"4","last_reported":1749719509,"current_range_meters":800,"station_id":"","pricing_plan_id":"cebpf4jnsgd1na2vs0mg"},{"bike_id":"de04626b-fa38-4c20-a4b1-955725294395","system_id":"levelo_inurba_marseille","lat":43.286133,"lon":5.351073,"is_reserved":false,"is_disabled":true,"rental_uris":{"android":"levelo://app?vid=de04626b-fa38-4c20-a4b1-955725294395","ios":"levelo://app?vid=de04626b-fa38-4c20-a4b1-955725294395"},"vehicle_type_id":"4","last_reported":1749719509,"current_range_meters":800,"station_id":"ce4bhch2rcd13ifvqeug","pricing_plan_id":"cebpf4jnsgd1na2vs0mg"},{"bike_id":"7389a11a-13ef-4833-8ee1-163453d9af77","system_id":"levelo_inurba_marseille","lat":43.29031,"lon":5.37571,"is_reserved":false,"is_disabled":true,"rental_uris":{"android":"levelo://app?vid=7389a11a-13ef-4833-8ee1-163453d9af77","ios":"levelo://app?vid=7389a11a-13ef-4833-8ee1-163453d9af77"},"vehicle_type_id":"4","last_reported":1749719509,"current_range_meters":1200,"station_id":"ce4bh692rcd13ifvqe90","pricing_plan_id":"cebpf4jnsgd1na2vs0mg"},{"bike_id":"03a2e21b-d201-46a1-9042-f918f56ca48f","system_id":"levelo_inurba_marseille","lat":43.28937,"lon":5.36638,"is_reserved":false,"is_disabled":true,"rental_uris":{"android":"levelo://app?vid=03a2e21b-d201-46a1-9042-f918f56ca48f","ios":"levelo://app?vid=03a2e21b-d201-46a1-9042-f918f56ca48f"},"vehicle_type_id":"4","last_reported":1749719509,"current_range_meters":1600,"station_id":"ce4bhap2rcd13ifvqek0","pricing_plan_id":"cebpf4jnsgd1na2vs0mg"},{"bike_id":"87ad60d3-a8be-4537-b606-cf205dd555df","system_id":"levelo_inurba_marseille","lat":43.30971,"lon":5.40558,"is_reserved":false,"is_disabled":true,"rental_uris":{"android":"levelo://app?vid=87ad60d3-a8be-4537-b606-cf205dd555df","ios":"levelo://app?vid=87ad60d3-a8be-4537-b606-cf205dd555df"},"vehicle_type_id":"4","last_reported":1749719509,"current_range_meters":2000,"station_id":"","pricing_plan_id":"cebpf4jnsgd1na2vs0mg"},{"bike_id":"a9b6bf99-4070-4437-bb20-72962ae30b90","system_id":"levelo_inurba_marseille","lat":43.27465,"lon":5.36375,"is_reserved":false,"is_disabled":false,"rental_uris":{"android":"levelo://app?vid=a9b6bf99-4070-4437-bb20-72962ae30b90","ios":"levelo://app?vid=a9b6bf99-4070-4437-bb20-72962ae30b90"},"vehicle_type_id":"4","last_reported":1749719509,"current_range_meters":2800,"station_id":"","pricing_plan_id":"cebpf4jnsgd1na2vs0mg"},{"bike_id":"536dbd0d-ee6f-4033-a061-ce1a8acdb24c","system_id":"levelo_inurba_marseille","lat":43.29288,"lon":5.40117,"is_reserved":false,"is_disabled":true,"rental_uris":{"android":"levelo://app?vid=536dbd0d-ee6f-4033-a061-ce1a8acdb24c","ios":"levelo://app?vid=536dbd0d-ee6f-4033-a061-ce1a8acdb24c"},"vehicle_type_id":"4","last_reported":1749719509,"current_range_meters":2800,"station_id":"ce4bh312rcd13ifvqdk0","pricing_plan_id":"cebpf4jnsgd1na2vs0mg"},{"bike_id":"f607c3f7-e60a-448a-b714-3ba9763aa5d4","system_id":"levelo_inurba_marseille","lat":43.29037,"lon":5.37563,"is_reserved":false,"is_disabled":false,"rental_uris":{"android":"levelo://app?vid=f607c3f7-e60a-448a-b714-3ba9763aa5d4","ios":"levelo://app?vid=f607c3f7-e60a-448a-b714-3ba9763aa5d4"},"vehicle_type_id":"4","last_reported":1749719509,"current_range_meters":2800,"station_id":"ce4bh692rcd13ifvqe90","pricing_plan_id":"cebpf4jnsgd1na2vs0mg"},{"bike_id":"cb85ea83-5ea9-4da8-9ead-01e61950d4e9","system_id":"levelo_inurba_marseille","lat":43.28723,"lon":5.37943,"is_reserved":false,"is_disabled":false,"rental_uris":{"android":"levelo://app?vid=cb85ea83-5ea9-4da8-9ead-01e61950d4e9","ios":"levelo://app?vid=cb85ea83-5ea9-4da8-9ead-01e61950d4e9"},"vehicle_type_id":"4","last_reported":1749719509,"current_range_meters":2800,"station_id":"ce4bh9p2rcd13ifvqec0","pricing_plan_id":"cebpf4jnsgd1na2vs0mg"},{"bike_id":"05074184-287a-4bee-a837-53121149c08e","system_id":"levelo_inurba_marseille","lat":43.25718,"lon":5.4111,"is_reserved":false,"is_disabled":false,"rental_uris":{"android":"levelo://app?vid=05074184-287a-4bee-a837-53121149c08e","ios":"levelo://app?vid=05074184-287a-4bee-a837-53121149c08e"},"vehicle_type_id":"4","last_reported":1749719509,"current_range_meters":2800,"station_id":"ce4bhkp2rcd13ifvqgd0","pricing_plan_id":"cebpf4jnsgd1na2vs0mg"},{"bike_id":"fe618e4c-94e9-41f3-a583-4f57022ca748","system_id":"levelo_inurba_marseille","lat":43.29614,"lon":5.37721,"is_reserved":false,"is_disabled":false,"rental_uris":{"android":"levelo://app?vid=fe618e4c-94e9-41f3-a583-4f57022ca748","ios":"levelo://app?vid=fe618e4c-94e9-41f3-a583-4f57022ca748"},"vehicle_type_id":"4","last_reported":1749719509,"current_range_meters":3200,"station_id":"ce4bgi92rcd13ifvqb90","pricing_plan_id":"cebpf4jnsgd1na2vs0mg"},{"bike_id":"aec84103-8934-453b-a5db-a41628cef37d","system_id":"levelo_inurba_marseille","lat":43.3025,"lon":5.40053,"is_reserved":false,"is_disabled":false,"rental_uris":{"android":"levelo://app?vid=aec84103-8934-453b-a5db-a41628cef37d","ios":"levelo://app?vid=aec84103-8934-453b-a5db-a41628cef37d"},"vehicle_type_id":"4","last_reported":1749719509,"current_range_meters":3200,"station_id":"ce4bgvh2rcd13ifvqcs0","pricing_plan_id":"cebpf4jnsgd1na2vs0mg"},{"bike_id":"4a1218af-1c39-47f1-908a-fd28e0115a0b","system_id":"levelo_inurba_marseille","lat":43.3015,"lon":5.38093,"is_reserved":false,"is_disabled":false,"rental_uris":{"android":"levelo://app?vid=4a1218af-1c39-47f1-908a-fd28e0115a0b","ios":"levelo://app?vid=4a1218af-1c39-47f1-908a-fd28e0115a0b"},"vehicle_type_id":"4","last_reported":1749719509,"current_range_meters":3600,"station_id":"ce4bgjp2rcd13ifvqbh0","pricing_plan_id":"cebpf4jnsgd1na2vs0mg"},{"bike_id":"d5b8b958-d66a-4b3a-9da6-171d5a349395","system_id":"levelo_inurba_marseille","lat":43.30299,"lon":5.39216,"is_reserved":false,"is_disabled":false,"rental_uris":{"android":"levelo://app?vid=d5b8b958-d66a-4b3a-9da6-171d5a349395","ios":"levelo://app?vid=d5b8b958-d66a-4b3a-9da6-171d5a349395"},"vehicle_type_id":"4","last_reported":1749719509,"current_range_meters":3600,"station_id":"ce4bgkh2rcd13ifvqbk0","pricing_plan_id":"cebpf4jnsgd1na2vs0mg"},{"bike_id":"df5783f1-c764-4d1f-a0be-b5ed7edd8b9d","system_id":"levelo_inurba_marseille","lat":43.28473,"lon":5.38415,"is_reserved":false,"is_disabled":false,"rental_uris":{"android":"levelo://app?vid=df5783f1-c764-4d1f-a0be-b5ed7edd8b9d","ios":"levelo://app?vid=df5783f1-c764-4d1f-a0be-b5ed7edd8b9d"},"vehicle_type_id":"4","last_reported":1749719509,"current_range_meters":4000,"station_id":"ce4bh512rcd13ifvqe3g","pricing_plan_id":"cebpf4jnsgd1na2vs0mg"},{"bike_id":"5077581b-cebb-46fc-ba69-4fa8272d4810","system_id":"levelo_inurba_marseille","lat":43.213625,"lon":5.355249,"is_reserved":false,"is_disabled":false,"rental_uris":{"android":"levelo://app?vid=5077581b-cebb-46fc-ba69-4fa8272d4810","ios":"levelo://app?vid=5077581b-cebb-46fc-ba69-4fa8272d4810"},"vehicle_type_id":"4","last_reported":1749719509,"current_range_meters":4800,"station_id":"","pricing_plan_id":"cebpf4jnsgd1na2vs0mg"},{"bike_id":"66b1cbfb-c132-4ef4-922c-0beab9b5a350","system_id":"levelo_inurba_marseille","lat":43.282776,"lon":5.361344,"is_reserved":false,"is_disabled":false,"rental_uris":{"android":"levelo://app?vid=66b1cbfb-c132-4ef4-922c-0beab9b5a350","ios":"levelo://app?vid=66b1cbfb-c132-4ef4-922c-0beab9b5a350"},"vehicle_type_id":"4","last_reported":1749719509,"current_range_meters":4800,"station_id":"","pricing_plan_id":"cebpf4jnsgd1na2vs0mg"},{"bike_id":"853e9d90-8fb4-4c17-a762-9923b9fb02f0","system_id":"levelo_inurba_marseille","lat":43.25429,"lon":5.38098,"is_reserved":false,"is_disabled":false,"rental_uris":{"android":"levelo://app?vid=853e9d90-8fb4-4c17-a762-9923b9fb02f0","ios":"levelo://app?vid=853e9d90-8fb4-4c17-a762-9923b9fb02f0"},"vehicle_type_id":"4","last_reported":1749719509,"current_range_meters":4800,"station_id":"","pricing_plan_id":"cebpf4jnsgd1na2vs0mg"},{"bike_id":"1c514f86-6260-4a89-a4af-55088bef0337","system_id":"levelo_inurba_marseille","lat":43.27718,"lon":5.37537,"is_reserved":false,"is_disabled":false,"rental_uris":{"android":"levelo://app?vid=1c514f86-6260-4a89-a4af-55088bef0337","ios":"levelo://app?vid=1c514f86-6260-4a89-a4af-55088bef0337"},"vehicle_type_id":"4","last_reported":1749719509,"current_range_meters":5600,"station_id":"","pricing_plan_id":"cebpf4jnsgd1na2vs0mg"},{"bike_id":"c000d1b5-6ea0-43c3-86fc-1aa474eecb82","system_id":"levelo_inurba_marseille","lat":43.29439,"lon":5.39755,"is_reserved":false,"is_disabled":false,"rental_uris":{"android":"levelo://app?vid=c000d1b5-6ea0-43c3-86fc-1aa474eecb82","ios":"levelo://app?vid=c000d1b5-6ea0-43c3-86fc-1aa474eecb82"},"vehicle_type_id":"4","last_reported":1749719509,"current_range_meters":5600,"station_id":"ce4bh3h2rcd13ifvqdo0","pricing_plan_id":"cebpf4jnsgd1na2vs0mg"},{"bike_id":"4934a9b7-8698-4a3c-8daa-1a13808bac44","system_id":"levelo_inurba_marseille","lat":43.28611,"lon":5.351,"is_reserved":false,"is_disabled":false,"rental_uris":{"android":"levelo://app?vid=4934a9b7-8698-4a3c-8daa-1a13808bac44","ios":"levelo://app?vid=4934a9b7-8698-4a3c-8daa-1a13808bac44"},"vehicle_type_id":"4","last_reported":1749719509,"current_range_meters":6000,"station_id":"","pricing_plan_id":"cebpf4jnsgd1na2vs0mg"},{"bike_id":"165a6ce2-f806-45b2-bf82-39d7bdd011fc","system_id":"levelo_inurba_marseille","lat":43.29369,"lon":5.385565,"is_reserved":false,"is_disabled":false,"rental_uris":{"android":"levelo://app?vid=165a6ce2-f806-45b2-bf82-39d7bdd011fc","ios":"levelo://app?vid=165a6ce2-f806-45b2-bf82-39d7bdd011fc"},"vehicle_type_id":"4","last_reported":1749719509,"current_range_meters":6000,"station_id":"","pricing_plan_id":"cebpf4jnsgd1na2vs0mg"},{"bike_id":"2f300c42-f57a-4471-8d50-42b7816314f1","system_id":"levelo_inurba_marseille","lat":43.272083,"lon":5.391932,"is_reserved":false,"is_disabled":false,"rental_uris":{"android":"levelo://app?vid=2f300c42-f57a-4471-8d50-42b7816314f1","ios":"levelo://app?vid=2f300c42-f57a-4471-8d50-42b7816314f1"},"vehicle_type_id":"4","last_reported":1749719509,"current_range_meters":6000,"station_id":"ce4bhhp2rcd13ifvqfm0","pricing_plan_id":"cebpf4jnsgd1na2vs0mg"},{"bike_id":"1e20f032-0f6a-40b2-ad29-e4d2225496fa","system_id":"levelo_inurba_marseille","lat":43.30291,"lon":5.37046,"is_reserved":false,"is_disabled":false,"rental_uris":{"android":"levelo://app?vid=1e20f032-0f6a-40b2-ad29-e4d2225496fa","ios":"levelo://app?vid=1e20f032-0f6a-40b2-ad29-e4d2225496fa"},"vehicle_type_id":"4","last_reported":1749719509,"current_range_meters":6400,"station_id":"","pricing_plan_id":"cebpf4jnsgd1na2vs0mg"},{"bike_id":"f6893e7e-7c6b-42da-abad-cad85afd1a67","system_id":"levelo_inurba_marseille","lat":43.31112,"lon":5.37788,"is_reserved":false,"is_disabled":false,"rental_uris":{"android":"levelo://app?vid=f6893e7e-7c6b-42da-abad-cad85afd1a67","ios":"levelo://app?vid=f6893e7e-7c6b-42da-abad-cad85afd1a67"},"vehicle_type_id":"4","last_reported":1749719509,"current_range_meters":6400,"station_id":"ce4bgt92rcd13ifvqcg0","pricing_plan_id":"cebpf4jnsgd1na2vs0mg"},{"bike_id":"7bdaf71b-c48a-467d-ba87-33812ae4f1af","system_id":"levelo_inurba_marseille","lat":43.24996,"lon":5.38934,"is_reserved":false,"is_disabled":false,"rental_uris":{"android":"levelo://app?vid=7bdaf71b-c48a-467d-ba87-33812ae4f1af","ios":"levelo://app?vid=7bdaf71b-c48a-467d-ba87-33812ae4f1af"},"vehicle_type_id":"4","last_reported":1749719509,"current_range_meters":6400,"station_id":"ce4bhgp2rcd13ifvqfd0","pricing_plan_id":"cebpf4jnsgd1na2vs0mg"},{"bike_id":"66314ca9-30a7-4c0a-8507-6f89f4c9b4e1","system_id":"levelo_inurba_marseille","lat":43.26233,"lon":5.37099,"is_reserved":false,"is_disabled":false,"rental_uris":{"android":"levelo://app?vid=66314ca9-30a7-4c0a-8507-6f89f4c9b4e1","ios":"levelo://app?vid=66314ca9-30a7-4c0a-8507-6f89f4c9b4e1"},"vehicle_type_id":"4","last_reported":1749719509,"current_range_meters":6800,"station_id":"","pricing_plan_id":"cebpf4jnsgd1na2vs0mg"},{"bike_id":"f1cacce5-8ccd-427f-8b77-5612b5eadc43","system_id":"levelo_inurba_marseille","lat":43.30946,"lon":5.39044,"is_reserved":false,"is_disabled":false,"rental_uris":{"android":"levelo://app?vid=f1cacce5-8ccd-427f-8b77-5612b5eadc43","ios":"levelo://app?vid=f1cacce5-8ccd-427f-8b77-5612b5eadc43"},"vehicle_type_id":"4","last_reported":1749719509,"current_range_meters":6800,"station_id":"ce4bgup2rcd13ifvqco0","pricing_plan_id":"cebpf4jnsgd1na2vs0mg"},{"bike_id":"97a0224a-1473-4acf-aa33-9d8ebfffe500","system_id":"levelo_inurba_marseille","lat":43.29517,"lon":5.39016,"is_reserved":false,"is_disabled":false,"rental_uris":{"android":"levelo://app?vid=97a0224a-1473-4acf-aa33-9d8ebfffe500","ios":"levelo://app?vid=97a0224a-1473-4acf-aa33-9d8ebfffe500"},"vehicle_type_id":"4","last_reported":1749719509,"current_range_meters":6800,"station_id":"ce4bh3p2rcd13ifvqdp0","pricing_plan_id":"cebpf4jnsgd1na2vs0mg"},{"bike_id":"4a37066b-1a4b-48be-b8bf-4b2b8ca8dfbc","system_id":"levelo_inurba_marseille","lat":43.29002,"lon":5.3561,"is_reserved":false,"is_disabled":false,"rental_uris":{"android":"levelo://app?vid=4a37066b-1a4b-48be-b8bf-4b2b8ca8dfbc","ios":"levelo://app?vid=4a37066b-1a4b-48be-b8bf-4b2b8ca8dfbc"},"vehicle_type_id":"4","last_reported":1749719509,"current_range_meters":6800,"station_id":"ce4bhb92rcd13ifvqen0","pricing_plan_id":"cebpf4jnsgd1na2vs0mg"},{"bike_id":"b8ce70f8-c2ed-4370-a897-a55200d19168","system_id":"levelo_inurba_marseille","lat":43.27714,"lon":5.37554,"is_reserved":false,"is_disabled":false,"rental_uris":{"android":"levelo://app?vid=b8ce70f8-c2ed-4370-a897-a55200d19168","ios":"levelo://app?vid=b8ce70f8-c2ed-4370-a897-a55200d19168"},"vehicle_type_id":"4","last_reported":1749719509,"current_range_meters":7200,"station_id":"","pricing_plan_id":"cebpf4jnsgd1na2vs0mg"},{"bike_id":"9871e313-bdbb-49cb-aa76-c723142caab3","system_id":"levelo_inurba_marseille","lat":43.27315,"lon":5.39095,"is_reserved":false,"is_disabled":false,"rental_uris":{"android":"levelo://app?vid=9871e313-bdbb-49cb-aa76-c723142caab3","ios":"levelo://app?vid=9871e313-bdbb-49cb-aa76-c723142caab3"},"vehicle_type_id":"4","last_reported":1749719509,"current_range_meters":7200,"station_id":"ce4bhgp2rcd13ifvqfe0","pricing_plan_id":"cebpf4jnsgd1na2vs0mg"},{"bike_id":"0ebd10ca-1136-4a04-aac8-bab7ee3d3df8","system_id":"levelo_inurba_marseille","lat":43.313643,"lon":5.366887,"is_reserved":false,"is_disabled":false,"rental_uris":{"android":"levelo://app?vid=0ebd10ca-1136-4a04-aac8-bab7ee3d3df8","ios":"levelo://app?vid=0ebd10ca-1136-4a04-aac8-bab7ee3d3df8"},"vehicle_type_id":"4","last_reported":1749719509,"current_range_meters":8000,"station_id":"ce4bgr92rcd13ifvqc6g","pricing_plan_id":"cebpf4jnsgd1na2vs0mg"},{"bike_id":"97dc5270-5cce-4633-a37a-261f05231e50","system_id":"levelo_inurba_marseille","lat":43.30794,"lon":5.38169,"is_reserved":false,"is_disabled":false,"rental_uris":{"android":"levelo://app?vid=97dc5270-5cce-4633-a37a-261f05231e50","ios":"levelo://app?vid=97dc5270-5cce-4633-a37a-261f05231e50"},"vehicle_type_id":"4","last_reported":1749719509,"current_range_meters":8000,"station_id":"ce4bgt12rcd13ifvqce0","pricing_plan_id":"cebpf4jnsgd1na2vs0mg"},{"bike_id":"09cae5ed-0ddb-4ea3-8f49-88fa67589138","system_id":"levelo_inurba_marseille","lat":43.23144,"lon":5.43723,"is_reserved":false,"is_disabled":false,"rental_uris":{"android":"levelo://app?vid=09cae5ed-0ddb-4ea3-8f49-88fa67589138","ios":"levelo://app?vid=09cae5ed-0ddb-4ea3-8f49-88fa67589138"},"vehicle_type_id":"4","last_reported":1749719509,"current_range_meters":8000,"station_id":"ce4bhmp2rcd13ifvqgog","pricing_plan_id":"cebpf4jnsgd1na2vs0mg"},{"bike_id":"fdf1e88a-7c80-4805-b5e7-5e32a5da1b90","system_id":"levelo_inurba_marseille","lat":43.2314,"lon":5.43716,"is_reserved":false,"is_disabled":false,"rental_uris":{"android":"levelo://app?vid=fdf1e88a-7c80-4805-b5e7-5e32a5da1b90","ios":"levelo://app?vid=fdf1e88a-7c80-4805-b5e7-5e32a5da1b90"},"vehicle_type_id":"4","last_reported":1749719509,"current_range_meters":8400,"station_id":"ce4bhmp2rcd13ifvqgog","pricing_plan_id":"cebpf4jnsgd1na2vs0mg"},{"bike_id":"2fc6faea-9432-496f-93d5-74572026f44d","system_id":"levelo_inurba_marseille","lat":43.2961,"lon":5.37712,"is_reserved":false,"is_disabled":false,"rental_uris":{"android":"levelo://app?vid=2fc6faea-9432-496f-93d5-74572026f44d","ios":"levelo://app?vid=2fc6faea-9432-496f-93d5-74572026f44d"},"vehicle_type_id":"4","last_reported":1749719509,"current_range_meters":8800,"station_id":"ce4bgi92rcd13ifvqb90","pricing_plan_id":"cebpf4jnsgd1na2vs0mg"},{"bike_id":"848f28f3-0b58-4525-8640-9c19cb0ebba1","system_id":"levelo_inurba_marseille","lat":43.29531,"lon":5.38529,"is_reserved":false,"is_disabled":false,"rental_uris":{"android":"levelo://app?vid=848f28f3-0b58-4525-8640-9c19cb0ebba1","ios":"levelo://app?vid=848f28f3-0b58-4525-8640-9c19cb0ebba1"},"vehicle_type_id":"4","last_reported":1749719509,"current_range_meters":8800,"station_id":"ce4bgih2rcd13ifvqba0","pricing_plan_id":"cebpf4jnsgd1na2vs0mg"},{"bike_id":"438f2c20-932d-4325-a2bd-db5d45abf5e6","system_id":"levelo_inurba_marseille","lat":43.313365,"lon":5.367175,"is_reserved":false,"is_disabled":false,"rental_uris":{"android":"levelo://app?vid=438f2c20-932d-4325-a2bd-db5d45abf5e6","ios":"levelo://app?vid=438f2c20-932d-4325-a2bd-db5d45abf5e6"},"vehicle_type_id":"4","last_reported":1749719509,"current_range_meters":8800,"station_id":"ce4bgr92rcd13ifvqc6g","pricing_plan_id":"cebpf4jnsgd1na2vs0mg"},{"bike_id":"84f5a926-1dd6-4535-b647-2764ce0ca103","system_id":"levelo_inurba_marseille","lat":43.32119,"lon":5.36768,"is_reserved":false,"is_disabled":false,"rental_uris":{"android":"levelo://app?vid=84f5a926-1dd6-4535-b647-2764ce0ca103","ios":"levelo://app?vid=84f5a926-1dd6-4535-b647-2764ce0ca103"},"vehicle_type_id":"4","last_reported":1749719509,"current_range_meters":8800,"station_id":"ce4bhrh2rcd13ifvqhug","pricing_plan_id":"cebpf4jnsgd1na2vs0mg"},{"bike_id":"8105426e-eb6c-4b79-bfaa-254c1b037d55","system_id":"levelo_inurba_marseille","lat":43.3234,"lon":5.36723,"is_reserved":false,"is_disabled":false,"rental_uris":{"android":"levelo://app?vid=8105426e-eb6c-4b79-bfaa-254c1b037d55","ios":"levelo://app?vid=8105426e-eb6c-4b79-bfaa-254c1b037d55"},"vehicle_type_id":"4","last_reported":1749719509,"current_range_meters":8800,"station_id":"ce4bhsh2rcd13ifvqi2g","pricing_plan_id":"cebpf4jnsgd1na2vs0mg"},{"bike_id":"af8801d7-a9e9-4e95-80e5-bd78e967defd","system_id":"levelo_inurba_marseille","lat":43.31353,"lon":5.36728,"is_reserved":false,"is_disabled":false,"rental_uris":{"android":"levelo://app?vid=af8801d7-a9e9-4e95-80e5-bd78e967defd","ios":"levelo://app?vid=af8801d7-a9e9-4e95-80e5-bd78e967defd"},"vehicle_type_id":"4","last_reported":1749719509,"current_range_meters":9200,"station_id":"ce4bgr92rcd13ifvqc6g","pricing_plan_id":"cebpf4jnsgd1na2vs0mg"},{"bike_id":"1272cd5b-61ec-4d2c-b945-c42d1d7c200f","system_id":"levelo_inurba_marseille","lat":43.31117,"lon":5.37771,"is_reserved":false,"is_disabled":false,"rental_uris":{"android":"levelo://app?vid=1272cd5b-61ec-4d2c-b945-c42d1d7c200f","ios":"levelo://app?vid=1272cd5b-61ec-4d2c-b945-c42d1d7c200f"},"vehicle_type_id":"4","last_reported":1749719509,"current_range_meters":9200,"station_id":"ce4bgt92rcd13ifvqcg0","pricing_plan_id":"cebpf4jnsgd1na2vs0mg"},{"bike_id":"ecca293e-aa7b-4298-a43c-5f1d51ac9edc","system_id":"levelo_inurba_marseille","lat":43.30458,"lon":5.37915,"is_reserved":false,"is_disabled":false,"rental_uris":{"android":"levelo://app?vid=ecca293e-aa7b-4298-a43c-5f1d51ac9edc","ios":"levelo://app?vid=ecca293e-aa7b-4298-a43c-5f1d51ac9edc"},"vehicle_type_id":"4","last_reported":1749719509,"current_range_meters":9200,"station_id":"ce4bgup2rcd13ifvqcn0","pricing_plan_id":"cebpf4jnsgd1na2vs0mg"},{"bike_id":"f783566d-893e-408a-85eb-5dd777a7c85a","system_id":"levelo_inurba_marseille","lat":43.30204,"lon":5.39459,"is_reserved":false,"is_disabled":false,"rental_uris":{"android":"levelo://app?vid=f783566d-893e-408a-85eb-5dd777a7c85a","ios":"levelo://app?vid=f783566d-893e-408a-85eb-5dd777a7c85a"},"vehicle_type_id":"4","last_reported":1749719509,"current_range_meters":9200,"station_id":"ce4bh0p2rcd13ifvqd70","pricing_plan_id":"cebpf4jnsgd1na2vs0mg"},{"bike_id":"f9d97158-2e58-4d1f-b9f5-d7fad7fca90f","system_id":"levelo_inurba_marseille","lat":43.24654,"lon":5.38895,"is_reserved":false,"is_disabled":false,"rental_uris":{"android":"levelo://app?vid=f9d97158-2e58-4d1f-b9f5-d7fad7fca90f","ios":"levelo://app?vid=f9d97158-2e58-4d1f-b9f5-d7fad7fca90f"},"vehicle_type_id":"4","last_reported":1749719509,"current_range_meters":9200,"station_id":"ce4bhg12rcd13ifvqf60","pricing_plan_id":"cebpf4jnsgd1na2vs0mg"},{"bike_id":"569700db-d3bf-44e2-8dc7-54279c37f634","system_id":"levelo_inurba_marseille","lat":43.26801,"lon":5.40263,"is_reserved":false,"is_disabled":false,"rental_uris":{"android":"levelo://app?vid=569700db-d3bf-44e2-8dc7-54279c37f634","ios":"levelo://app?vid=569700db-d3bf-44e2-8dc7-54279c37f634"},"vehicle_type_id":"4","last_reported":1749719509,"current_range_meters":9200,"station_id":"ce501612rcd8frsf0b60","pricing_plan_id":"cebpf4jnsgd1na2vs0mg"},{"bike_id":"e1b33f45-0d43-4c05-b68e-b8408d77222f","system_id":"levelo_inurba_marseille","lat":43.29373,"lon":5.37846,"is_reserved":false,"is_disabled":false,"rental_uris":{"android":"levelo://app?vid=e1b33f45-0d43-4c05-b68e-b8408d77222f","ios":"levelo://app?vid=e1b33f45-0d43-4c05-b68e-b8408d77222f"},"vehicle_type_id":"4","last_reported":1749719509,"current_range_meters":9600,"station_id":"ce4bgjh2rcd13ifvqbf0","pricing_plan_id":"cebpf4jnsgd1na2vs0mg"},{"bike_id":"3c9d6b75-e7f2-4d81-9005-d2c50d4bac22","system_id":"levelo_inurba_marseille","lat":43.30144,"lon":5.38078,"is_reserved":false,"is_disabled":false,"rental_uris":{"android":"levelo://app?vid=3c9d6b75-e7f2-4d81-9005-d2c50d4bac22","ios":"levelo://app?vid=3c9d6b75-e7f2-4d81-9005-d2c50d4bac22"},"vehicle_type_id":"4","last_reported":1749719509,"current_range_meters":9600,"station_id":"ce4bgjp2rcd13ifvqbh0","pricing_plan_id":"cebpf4jnsgd1na2vs0mg"},{"bike_id":"1976b227-b2b1-4179-9179-89f59a228f59","system_id":"levelo_inurba_marseille","lat":43.28027,"lon":5.36946,"is_reserved":false,"is_disabled":false,"rental_uris":{"android":"levelo://app?vid=1976b227-b2b1-4179-9179-89f59a228f59","ios":"levelo://app?vid=1976b227-b2b1-4179-9179-89f59a228f59"},"vehicle_type_id":"4","last_reported":1749719509,"current_range_meters":9600,"station_id":"ce4bha12rcd13ifvqef0","pricing_plan_id":"cebpf4jnsgd1na2vs0mg"},{"bike_id":"fdfee453-8c1f-483f-b253-5efd57dcc2b1","system_id":"levelo_inurba_marseille","lat":43.28268,"lon":5.35054,"is_reserved":false,"is_disabled":false,"rental_uris":{"android":"levelo://app?vid=fdfee453-8c1f-483f-b253-5efd57dcc2b1","ios":"levelo://app?vid=fdfee453-8c1f-483f-b253-5efd57dcc2b1"},"vehicle_type_id":"4","last_reported":1749719509,"current_range_meters":9600,"station_id":"ce4bhbp2rcd13ifvqerg","pricing_plan_id":"cebpf4jnsgd1na2vs0mg"},{"bike_id":"840f8b33-0723-4225-b7ba-0fc46b3ae739","system_id":"levelo_inurba_marseille","lat":43.24061,"lon":5.37755,"is_reserved":false,"is_disabled":false,"rental_uris":{"android":"levelo://app?vid=840f8b33-0723-4225-b7ba-0fc46b3ae739","ios":"levelo://app?vid=840f8b33-0723-4225-b7ba-0fc46b3ae739"},"vehicle_type_id":"4","last_reported":1749719509,"current_range_meters":9600,"station_id":"ce4bhnp2rcd13ifvqgvg","pricing_plan_id":"cebpf4jnsgd1na2vs0mg"},{"bike_id":"06894864-ef44-45c7-b38a-9e654b60f033","system_id":"levelo_inurba_marseille","lat":43.30561,"lon":5.38939,"is_reserved":false,"is_disabled":false,"rental_uris":{"android":"levelo://app?vid=06894864-ef44-45c7-b38a-9e654b60f033","ios":"levelo://app?vid=06894864-ef44-45c7-b38a-9e654b60f033"},"vehicle_type_id":"4","last_reported":1749719509,"current_range_meters":10000,"station_id":"","pricing_plan_id":"cebpf4jnsgd1na2vs0mg"},{"bike_id":"308cbf69-b866-4a48-b377-e4f7d5e7c70b","system_id":"levelo_inurba_marseille","lat":43.32923,"lon":5.38981,"is_reserved":false,"is_disabled":false,"rental_uris":{"android":"levelo://app?vid=308cbf69-b866-4a48-b377-e4f7d5e7c70b","ios":"levelo://app?vid=308cbf69-b866-4a48-b377-e4f7d5e7c70b"},"vehicle_type_id":"4","last_reported":1749719509,"current_range_meters":10000,"station_id":"","pricing_plan_id":"cebpf4jnsgd1na2vs0mg"},{"bike_id":"ca40aa0a-1965-4be2-a6b7-1fd193ec5e53","system_id":"levelo_inurba_marseille","lat":43.30152,"lon":5.38098,"is_reserved":false,"is_disabled":false,"rental_uris":{"android":"levelo://app?vid=ca40aa0a-1965-4be2-a6b7-1fd193ec5e53","ios":"levelo://app?vid=ca40aa0a-1965-4be2-a6b7-1fd193ec5e53"},"vehicle_type_id":"4","last_reported":1749719509,"current_range_meters":10000,"station_id":"ce4bgjp2rcd13ifvqbh0","pricing_plan_id":"cebpf4jnsgd1na2vs0mg"},{"bike_id":"26b1a76c-df25-468d-8098-b639ae7ea2da","system_id":"levelo_inurba_marseille","lat":43.25905,"lon":5.40885,"is_reserved":false,"is_disabled":false,"rental_uris":{"android":"levelo://app?vid=26b1a76c-df25-468d-8098-b639ae7ea2da","ios":"levelo://app?vid=26b1a76c-df25-468d-8098-b639ae7ea2da"},"vehicle_type_id":"4","last_reported":1749719509,"current_range_meters":10000,"station_id":"ce4bhm92rcd13ifvqglg","pricing_plan_id":"cebpf4jnsgd1na2vs0mg"},{"bike_id":"e5ff82fd-cc37-4e1f-aade-050998fb0f61","system_id":"levelo_inurba_marseille","lat":43.26247,"lon":5.37103,"is_reserved":false,"is_disabled":false,"rental_uris":{"android":"levelo://app?vid=e5ff82fd-cc37-4e1f-aade-050998fb0f61","ios":"levelo://app?vid=e5ff82fd-cc37-4e1f-aade-050998fb0f61"},"vehicle_type_id":"4","last_reported":1749719509,"current_range_meters":10800,"station_id":"","pricing_plan_id":"cebpf4jnsgd1na2vs0mg"},{"bike_id":"219ddff9-988e-43dd-a7ec-c914a6edd98d","system_id":"levelo_inurba_marseille","lat":43.30201,"lon":5.39475,"is_reserved":false,"is_disabled":false,"rental_uris":{"android":"levelo://app?vid=219ddff9-988e-43dd-a7ec-c914a6edd98d","ios":"levelo://app?vid=219ddff9-988e-43dd-a7ec-c914a6edd98d"},"vehicle_type_id":"4","last_reported":1749719509,"current_range_meters":10800,"station_id":"ce4bh0p2rcd13ifvqd70","pricing_plan_id":"cebpf4jnsgd1na2vs0mg"},{"bike_id":"640c2017-86dc-487c-a9f4-f3964a220af0","system_id":"levelo_inurba_marseille","lat":43.24074,"lon":5.37748,"is_reserved":false,"is_disabled":false,"rental_uris":{"android":"levelo://app?vid=640c2017-86dc-487c-a9f4-f3964a220af0","ios":"levelo://app?vid=640c2017-86dc-487c-a9f4-f3964a220af0"},"vehicle_type_id":"4","last_reported":1749719509,"current_range_meters":10800,"station_id":"ce4bhnp2rcd13ifvqgvg","pricing_plan_id":"cebpf4jnsgd1na2vs0mg"},{"bike_id":"a2421370-e442-436f-a98a-844d44299694","system_id":"levelo_inurba_marseille","lat":43.323576,"lon":5.367586,"is_reserved":false,"is_disabled":false,"rental_uris":{"android":"levelo://app?vid=a2421370-e442-436f-a98a-844d44299694","ios":"levelo://app?vid=a2421370-e442-436f-a98a-844d44299694"},"vehicle_type_id":"4","last_reported":1749719509,"current_range_meters":10800,"station_id":"ce4bhsh2rcd13ifvqi2g","pricing_plan_id":"cebpf4jnsgd1na2vs0mg"},{"bike_id":"0923e79e-3960-4eec-9027-38089346fe3a","system_id":"levelo_inurba_marseille","lat":43.231912,"lon":5.355625,"is_reserved":false,"is_disabled":false,"rental_uris":{"android":"levelo://app?vid=0923e79e-3960-4eec-9027-38089346fe3a","ios":"levelo://app?vid=0923e79e-3960-4eec-9027-38089346fe3a"},"vehicle_type_id":"4","last_reported":1749719509,"current_range_meters":10800,"station_id":"ce4bhu92rcd13ifvqi70","pricing_plan_id":"cebpf4jnsgd1na2vs0mg"},{"bike_id":"e8d1c5bb-de92-4e6e-81e7-65c09aadd7ca","system_id":"levelo_inurba_marseille","lat":43.21759,"lon":5.541343,"is_reserved":false,"is_disabled":false,"rental_uris":{"android":"levelo://app?vid=e8d1c5bb-de92-4e6e-81e7-65c09aadd7ca","ios":"levelo://app?vid=e8d1c5bb-de92-4e6e-81e7-65c09aadd7ca"},"vehicle_type_id":"4","last_reported":1749719509,"current_range_meters":10800,"station_id":"st_cvj6sg6p6f1abm77japg","pricing_plan_id":"cebpf4jnsgd1na2vs0mg"},{"bike_id":"3c46dfd8-1268-4dc6-93ef-945a88430c37","system_id":"levelo_inurba_marseille","lat":43.29088,"lon":5.38153,"is_reserved":false,"is_disabled":false,"rental_uris":{"android":"levelo://app?vid=3c46dfd8-1268-4dc6-93ef-945a88430c37","ios":"levelo://app?vid=3c46dfd8-1268-4dc6-93ef-945a88430c37"},"vehicle_type_id":"4","last_reported":1749719509,"current_range_meters":11200,"station_id":"ce4bh512rcd13ifvqe2g","pricing_plan_id":"cebpf4jnsgd1na2vs0mg"},{"bike_id":"6dfd5595-654e-42ee-8e58-2a5c3df13ff8","system_id":"levelo_inurba_marseille","lat":43.30955,"lon":5.3724,"is_reserved":false,"is_disabled":false,"rental_uris":{"android":"levelo://app?vid=6dfd5595-654e-42ee-8e58-2a5c3df13ff8","ios":"levelo://app?vid=6dfd5595-654e-42ee-8e58-2a5c3df13ff8"},"vehicle_type_id":"4","last_reported":1749719509,"current_range_meters":11600,"station_id":"","pricing_plan_id":"cebpf4jnsgd1na2vs0mg"},{"bike_id":"91252cb4-db98-4cff-ba49-0337a6eacf8f","system_id":"levelo_inurba_marseille","lat":43.319896,"lon":5.387876,"is_reserved":false,"is_disabled":false,"rental_uris":{"android":"levelo://app?vid=91252cb4-db98-4cff-ba49-0337a6eacf8f","ios":"levelo://app?vid=91252cb4-db98-4cff-ba49-0337a6eacf8f"},"vehicle_type_id":"4","last_reported":1749719509,"current_range_meters":11600,"station_id":"","pricing_plan_id":"cebpf4jnsgd1na2vs0mg"},{"bike_id":"1ccbee63-a471-470d-8d64-93fc2b338593","system_id":"levelo_inurba_marseille","lat":43.30906,"lon":5.36841,"is_reserved":false,"is_disabled":false,"rental_uris":{"android":"levelo://app?vid=1ccbee63-a471-470d-8d64-93fc2b338593","ios":"levelo://app?vid=1ccbee63-a471-470d-8d64-93fc2b338593"},"vehicle_type_id":"4","last_reported":1749719509,"current_range_meters":11600,"station_id":"ce4bgn92rcd13ifvqbvg","pricing_plan_id":"cebpf4jnsgd1na2vs0mg"},{"bike_id":"99bee632-82c5-4636-830c-793912764340","system_id":"levelo_inurba_marseille","lat":43.29026,"lon":5.37558,"is_reserved":false,"is_disabled":false,"rental_uris":{"android":"levelo://app?vid=99bee632-82c5-4636-830c-793912764340","ios":"levelo://app?vid=99bee632-82c5-4636-830c-793912764340"},"vehicle_type_id":"4","last_reported":1749719509,"current_range_meters":11600,"station_id":"ce4bh692rcd13ifvqe90","pricing_plan_id":"cebpf4jnsgd1na2vs0mg"},{"bike_id":"817268b1-f4bb-494a-83f9-3608e567b20a","system_id":"levelo_inurba_marseille","lat":43.273745,"lon":5.362429,"is_reserved":false,"is_disabled":false,"rental_uris":{"android":"levelo://app?vid=817268b1-f4bb-494a-83f9-3608e567b20a","ios":"levelo://app?vid=817268b1-f4bb-494a-83f9-3608e567b20a"},"vehicle_type_id":"4","last_reported":1749719509,"current_range_meters":11600,"station_id":"ce4bhbh2rcd13ifvqeo0","pricing_plan_id":"cebpf4jnsgd1na2vs0mg"},{"bike_id":"608dbf53-4bd7-4842-92d3-6444e235738b","system_id":"levelo_inurba_marseille","lat":43.26682,"lon":5.38271,"is_reserved":false,"is_disabled":false,"rental_uris":{"android":"levelo://app?vid=608dbf53-4bd7-4842-92d3-6444e235738b","ios":"levelo://app?vid=608dbf53-4bd7-4842-92d3-6444e235738b"},"vehicle_type_id":"4","last_reported":1749719509,"current_range_meters":12000,"station_id":"ce4bhg92rcd13ifvqf90","pricing_plan_id":"cebpf4jnsgd1na2vs0mg"},{"bike_id":"465c73c2-3979-477f-aaf9-ae5b18d95927","system_id":"levelo_inurba_marseille","lat":43.31368,"lon":5.38498,"is_reserved":false,"is_disabled":false,"rental_uris":{"android":"levelo://app?vid=465c73c2-3979-477f-aaf9-ae5b18d95927","ios":"levelo://app?vid=465c73c2-3979-477f-aaf9-ae5b18d95927"},"vehicle_type_id":"4","last_reported":1749719509,"current_range_meters":12400,"station_id":"ce4bgt92rcd13ifvqcf0","pricing_plan_id":"cebpf4jnsgd1na2vs0mg"},{"bike_id":"743245d4-5457-49b9-9efc-d95c90d69b8e","system_id":"levelo_inurba_marseille","lat":43.314873,"lon":5.373081,"is_reserved":false,"is_disabled":false,"rental_uris":{"android":"levelo://app?vid=743245d4-5457-49b9-9efc-d95c90d69b8e","ios":"levelo://app?vid=743245d4-5457-49b9-9efc-d95c90d69b8e"},"vehicle_type_id":"4","last_reported":1749719509,"current_range_meters":12400,"station_id":"ce4bhip2rcd13ifvqft0","pricing_plan_id":"cebpf4jnsgd1na2vs0mg"},{"bike_id":"51c9c3d1-050f-47d1-8726-c1814cd19d79","system_id":"levelo_inurba_marseille","lat":43.31266,"lon":5.38922,"is_reserved":false,"is_disabled":false,"rental_uris":{"android":"levelo://app?vid=51c9c3d1-050f-47d1-8726-c1814cd19d79","ios":"levelo://app?vid=51c9c3d1-050f-47d1-8726-c1814cd19d79"},"vehicle_type_id":"4","last_reported":1749719509,"current_range_meters":12800,"station_id":"","pricing_plan_id":"cebpf4jnsgd1na2vs0mg"},{"bike_id":"6d6a7ee5-eb4e-486a-a199-1c67f7b7ed5f","system_id":"levelo_inurba_marseille","lat":43.26006,"lon":5.37581,"is_reserved":false,"is_disabled":false,"rental_uris":{"android":"levelo://app?vid=6d6a7ee5-eb4e-486a-a199-1c67f7b7ed5f","ios":"levelo://app?vid=6d6a7ee5-eb4e-486a-a199-1c67f7b7ed5f"},"vehicle_type_id":"4","last_reported":1749719509,"current_range_meters":12800,"station_id":"ce4bhgh2rcd13ifvqfa0","pricing_plan_id":"cebpf4jnsgd1na2vs0mg"},{"bike_id":"fc65fabe-108c-4ed8-bd37-d00e08474a36","system_id":"levelo_inurba_marseille","lat":43.33611,"lon":5.41034,"is_reserved":false,"is_disabled":false,"rental_uris":{"android":"levelo://app?vid=fc65fabe-108c-4ed8-bd37-d00e08474a36","ios":"levelo://app?vid=fc65fabe-108c-4ed8-bd37-d00e08474a36"},"vehicle_type_id":"4","last_reported":1749719509,"current_range_meters":12800,"station_id":"ce4bhqh2rcd13ifvqhmg","pricing_plan_id":"cebpf4jnsgd1na2vs0mg"},{"bike_id":"f57da1de-1821-4d0c-a34e-6999c5262ffc","system_id":"levelo_inurba_marseille","lat":43.32359,"lon":5.36738,"is_reserved":false,"is_disabled":false,"rental_uris":{"android":"levelo://app?vid=f57da1de-1821-4d0c-a34e-6999c5262ffc","ios":"levelo://app?vid=f57da1de-1821-4d0c-a34e-6999c5262ffc"},"vehicle_type_id":"4","last_reported":1749719509,"current_range_meters":12800,"station_id":"ce4bhsh2rcd13ifvqi2g","pricing_plan_id":"cebpf4jnsgd1na2vs0mg"},{"bike_id":"500320f2-e4bb-4906-a414-ca67470055ab","system_id":"levelo_inurba_marseille","lat":43.25637,"lon":5.38586,"is_reserved":false,"is_disabled":false,"rental_uris":{"android":"levelo://app?vid=500320f2-e4bb-4906-a414-ca67470055ab","ios":"levelo://app?vid=500320f2-e4bb-4906-a414-ca67470055ab"},"vehicle_type_id":"4","last_reported":1749719509,"current_range_meters":13600,"station_id":"","pricing_plan_id":"cebpf4jnsgd1na2vs0mg"},{"bike_id":"501fe5cc-ec9f-4031-8e12-9c9a87dfd25d","system_id":"levelo_inurba_marseille","lat":43.317897,"lon":5.40611,"is_reserved":false,"is_disabled":false,"rental_uris":{"android":"levelo://app?vid=501fe5cc-ec9f-4031-8e12-9c9a87dfd25d","ios":"levelo://app?vid=501fe5cc-ec9f-4031-8e12-9c9a87dfd25d"},"vehicle_type_id":"4","last_reported":1749719509,"current_range_meters":13600,"station_id":"","pricing_plan_id":"cebpf4jnsgd1na2vs0mg"},{"bike_id":"e2048b0d-f581-4f10-82a2-45b7cafa38dd","system_id":"levelo_inurba_marseille","lat":43.27619,"lon":5.36118,"is_reserved":false,"is_disabled":false,"rental_uris":{"android":"levelo://app?vid=e2048b0d-f581-4f10-82a2-45b7cafa38dd","ios":"levelo://app?vid=e2048b0d-f581-4f10-82a2-45b7cafa38dd"},"vehicle_type_id":"4","last_reported":1749719509,"current_range_meters":13600,"station_id":"ce4bgj92rcd13ifvqbe0","pricing_plan_id":"cebpf4jnsgd1na2vs0mg"},{"bike_id":"8e9b5859-5d23-44bc-b9a5-4e9830eaa420","system_id":"levelo_inurba_marseille","lat":43.31356,"lon":5.36731,"is_reserved":false,"is_disabled":false,"rental_uris":{"android":"levelo://app?vid=8e9b5859-5d23-44bc-b9a5-4e9830eaa420","ios":"levelo://app?vid=8e9b5859-5d23-44bc-b9a5-4e9830eaa420"},"vehicle_type_id":"4","last_reported":1749719509,"current_range_meters":14000,"station_id":"ce4bgr92rcd13ifvqc6g","pricing_plan_id":"cebpf4jnsgd1na2vs0mg"},{"bike_id":"dd24f524-1514-4491-83d8-b083d7303df2","system_id":"levelo_inurba_marseille","lat":43.27315,"lon":5.39096,"is_reserved":false,"is_disabled":false,"rental_uris":{"android":"levelo://app?vid=dd24f524-1514-4491-83d8-b083d7303df2","ios":"levelo://app?vid=dd24f524-1514-4491-83d8-b083d7303df2"},"vehicle_type_id":"4","last_reported":1749719509,"current_range_meters":14000,"station_id":"ce4bhgp2rcd13ifvqfe0","pricing_plan_id":"cebpf4jnsgd1na2vs0mg"},{"bike_id":"ae63b235-31ce-4ea8-8b81-037d3bb93563","system_id":"levelo_inurba_marseille","lat":43.31884,"lon":5.40731,"is_reserved":false,"is_disabled":false,"rental_uris":{"android":"levelo://app?vid=ae63b235-31ce-4ea8-8b81-037d3bb93563","ios":"levelo://app?vid=ae63b235-31ce-4ea8-8b81-037d3bb93563"},"vehicle_type_id":"4","last_reported":1749719509,"current_range_meters":14000,"station_id":"ce4bhq12rcd13ifvqhig","pricing_plan_id":"cebpf4jnsgd1na2vs0mg"},{"bike_id":"eae3ab20-3192-4ad3-a30b-44296ea2bb7c","system_id":"levelo_inurba_marseille","lat":43.29606,"lon":5.37727,"is_reserved":false,"is_disabled":false,"rental_uris":{"android":"levelo://app?vid=eae3ab20-3192-4ad3-a30b-44296ea2bb7c","ios":"levelo://app?vid=eae3ab20-3192-4ad3-a30b-44296ea2bb7c"},"vehicle_type_id":"4","last_reported":1749719509,"current_range_meters":14400,"station_id":"ce4bgi92rcd13ifvqb90","pricing_plan_id":"cebpf4jnsgd1na2vs0mg"},{"bike_id":"101f26e8-b40a-4a96-8b59-5bb6bf07ec2e","system_id":"levelo_inurba_marseille","lat":43.31241,"lon":5.36849,"is_reserved":false,"is_disabled":false,"rental_uris":{"android":"levelo://app?vid=101f26e8-b40a-4a96-8b59-5bb6bf07ec2e","ios":"levelo://app?vid=101f26e8-b40a-4a96-8b59-5bb6bf07ec2e"},"vehicle_type_id":"4","last_reported":1749719509,"current_range_meters":14400,"station_id":"ce4bgl92rcd13ifvqbq0","pricing_plan_id":"cebpf4jnsgd1na2vs0mg"},{"bike_id":"a637f4d1-5130-43e1-a1c9-dd8e801795db","system_id":"levelo_inurba_marseille","lat":43.30554,"lon":5.36527,"is_reserved":false,"is_disabled":false,"rental_uris":{"android":"levelo://app?vid=a637f4d1-5130-43e1-a1c9-dd8e801795db","ios":"levelo://app?vid=a637f4d1-5130-43e1-a1c9-dd8e801795db"},"vehicle_type_id":"4","last_reported":1749719509,"current_range_meters":14400,"station_id":"ce4bgs12rcd13ifvqcag","pricing_plan_id":"cebpf4jnsgd1na2vs0mg"},{"bike_id":"99c6bb78-fe6f-4ef4-810b-1ef6c1a1b6cc","system_id":"levelo_inurba_marseille","lat":43.290733,"lon":5.37165,"is_reserved":false,"is_disabled":false,"rental_uris":{"android":"levelo://app?vid=99c6bb78-fe6f-4ef4-810b-1ef6c1a1b6cc","ios":"levelo://app?vid=99c6bb78-fe6f-4ef4-810b-1ef6c1a1b6cc"},"vehicle_type_id":"4","last_reported":1749719509,"current_range_meters":14400,"station_id":"ce4bh5p2rcd13ifvqe4g","pricing_plan_id":"cebpf4jnsgd1na2vs0mg"},{"bike_id":"b49560cb-77a4-45c6-8293-d64552d7c846","system_id":"levelo_inurba_marseille","lat":43.24647,"lon":5.38886,"is_reserved":false,"is_disabled":false,"rental_uris":{"android":"levelo://app?vid=b49560cb-77a4-45c6-8293-d64552d7c846","ios":"levelo://app?vid=b49560cb-77a4-45c6-8293-d64552d7c846"},"vehicle_type_id":"4","last_reported":1749719509,"current_range_meters":14400,"station_id":"ce4bhg12rcd13ifvqf60","pricing_plan_id":"cebpf4jnsgd1na2vs0mg"},{"bike_id":"ce81f804-a274-484f-a641-28706f036e77","system_id":"levelo_inurba_marseille","lat":43.31883,"lon":5.40799,"is_reserved":false,"is_disabled":false,"rental_uris":{"android":"levelo://app?vid=ce81f804-a274-484f-a641-28706f036e77","ios":"levelo://app?vid=ce81f804-a274-484f-a641-28706f036e77"},"vehicle_type_id":"4","last_reported":1749719509,"current_range_meters":14400,"station_id":"ce4bhq12rcd13ifvqhig","pricing_plan_id":"cebpf4jnsgd1na2vs0mg"},{"bike_id":"45cb9171-bb7e-418e-bf45-5916b7d21e5e","system_id":"levelo_inurba_marseille","lat":43.32102,"lon":5.36772,"is_reserved":false,"is_disabled":false,"rental_uris":{"android":"levelo://app?vid=45cb9171-bb7e-418e-bf45-5916b7d21e5e","ios":"levelo://app?vid=45cb9171-bb7e-418e-bf45-5916b7d21e5e"},"vehicle_type_id":"4","last_reported":1749719509,"current_range_meters":14400,"station_id":"ce4bhrh2rcd13ifvqhug","pricing_plan_id":"cebpf4jnsgd1na2vs0mg"},{"bike_id":"a63a44e1-3691-4845-8be6-9085725b266d","system_id":"levelo_inurba_marseille","lat":43.31294,"lon":5.37523,"is_reserved":false,"is_disabled":false,"rental_uris":{"android":"levelo://app?vid=a63a44e1-3691-4845-8be6-9085725b266d","ios":"levelo://app?vid=a63a44e1-3691-4845-8be6-9085725b266d"},"vehicle_type_id":"4","last_reported":1749719509,"current_range_meters":14800,"station_id":"","pricing_plan_id":"cebpf4jnsgd1na2vs0mg"},{"bike_id":"cbfc987b-811d-4d24-a994-edc7b02a8766","system_id":"levelo_inurba_marseille","lat":43.30458,"lon":5.37908,"is_reserved":false,"is_disabled":false,"rental_uris":{"android":"levelo://app?vid=cbfc987b-811d-4d24-a994-edc7b02a8766","ios":"levelo://app?vid=cbfc987b-811d-4d24-a994-edc7b02a8766"},"vehicle_type_id":"4","last_reported":1749719509,"current_range_meters":14800,"station_id":"ce4bgup2rcd13ifvqcn0","pricing_plan_id":"cebpf4jnsgd1na2vs0mg"},{"bike_id":"4b53aa4c-49f5-467f-9fe6-6102c7436586","system_id":"levelo_inurba_marseille","lat":43.29273,"lon":5.36836,"is_reserved":false,"is_disabled":false,"rental_uris":{"android":"levelo://app?vid=4b53aa4c-49f5-467f-9fe6-6102c7436586","ios":"levelo://app?vid=4b53aa4c-49f5-467f-9fe6-6102c7436586"},"vehicle_type_id":"4","last_reported":1749719509,"current_range_meters":14800,"station_id":"ce4bhbp2rcd13ifvqesg","pricing_plan_id":"cebpf4jnsgd1na2vs0mg"},{"bike_id":"e1259bdc-2fca-4f0a-8c39-8cf9d1a28f2e","system_id":"levelo_inurba_marseille","lat":43.26677,"lon":5.38265,"is_reserved":false,"is_disabled":false,"rental_uris":{"android":"levelo://app?vid=e1259bdc-2fca-4f0a-8c39-8cf9d1a28f2e","ios":"levelo://app?vid=e1259bdc-2fca-4f0a-8c39-8cf9d1a28f2e"},"vehicle_type_id":"4","last_reported":1749719509,"current_range_meters":14800,"station_id":"ce4bhg92rcd13ifvqf90","pricing_plan_id":"cebpf4jnsgd1na2vs0mg"},{"bike_id":"b125c7ae-5715-4ac5-8120-130332be2353","system_id":"levelo_inurba_marseille","lat":43.24385,"lon":5.37067,"is_reserved":false,"is_disabled":false,"rental_uris":{"android":"levelo://app?vid=b125c7ae-5715-4ac5-8120-130332be2353","ios":"levelo://app?vid=b125c7ae-5715-4ac5-8120-130332be2353"},"vehicle_type_id":"4","last_reported":1749719509,"current_range_meters":14800,"station_id":"ce4bhhh2rcd13ifvqfk0","pricing_plan_id":"cebpf4jnsgd1na2vs0mg"},{"bike_id":"41139f0c-97ed-4029-a82d-4dfedeb3902c","system_id":"levelo_inurba_marseille","lat":43.25827,"lon":5.39436,"is_reserved":false,"is_disabled":false,"rental_uris":{"android":"levelo://app?vid=41139f0c-97ed-4029-a82d-4dfedeb3902c","ios":"levelo://app?vid=41139f0c-97ed-4029-a82d-4dfedeb3902c"},"vehicle_type_id":"4","last_reported":1749719509,"current_range_meters":14800,"station_id":"ce4bhip2rcd13ifvqft0","pricing_plan_id":"cebpf4jnsgd1na2vs0mg"},{"bike_id":"ded7f693-52fb-4dd0-83f9-4e9eccfc01fc","system_id":"levelo_inurba_marseille","lat":43.23177,"lon":5.39993,"is_reserved":false,"is_disabled":false,"rental_uris":{"android":"levelo://app?vid=ded7f693-52fb-4dd0-83f9-4e9eccfc01fc","ios":"levelo://app?vid=ded7f693-52fb-4dd0-83f9-4e9eccfc01fc"},"vehicle_type_id":"4","last_reported":1749719509,"current_range_meters":14800,"station_id":"ce4bhn12rcd13ifvqgqg","pricing_plan_id":"cebpf4jnsgd1na2vs0mg"},{"bike_id":"908a75f8-5355-4ce9-948d-59afe9bc1d12","system_id":"levelo_inurba_marseille","lat":43.30126,"lon":5.39855,"is_reserved":false,"is_disabled":false,"rental_uris":{"android":"levelo://app?vid=908a75f8-5355-4ce9-948d-59afe9bc1d12","ios":"levelo://app?vid=908a75f8-5355-4ce9-948d-59afe9bc1d12"},"vehicle_type_id":"4","last_reported":1749719509,"current_range_meters":15200,"station_id":"ce4bh0h2rcd13ifvqd40","pricing_plan_id":"cebpf4jnsgd1na2vs0mg"},{"bike_id":"0154179a-e2a2-4420-8265-b03966e08852","system_id":"levelo_inurba_marseille","lat":43.30966,"lon":5.3903,"is_reserved":false,"is_disabled":false,"rental_uris":{"android":"levelo://app?vid=0154179a-e2a2-4420-8265-b03966e08852","ios":"levelo://app?vid=0154179a-e2a2-4420-8265-b03966e08852"},"vehicle_type_id":"4","last_reported":1749719509,"current_range_meters":15200,"station_id":"ce4bh3p2rcd13ifvqdp0","pricing_plan_id":"cebpf4jnsgd1na2vs0mg"},{"bike_id":"7868f4e5-4e66-4d75-b6bd-59f57cd21795","system_id":"levelo_inurba_marseille","lat":43.28606,"lon":5.35114,"is_reserved":false,"is_disabled":false,"rental_uris":{"android":"levelo://app?vid=7868f4e5-4e66-4d75-b6bd-59f57cd21795","ios":"levelo://app?vid=7868f4e5-4e66-4d75-b6bd-59f57cd21795"},"vehicle_type_id":"4","last_reported":1749719509,"current_range_meters":15200,"station_id":"ce4bhch2rcd13ifvqeug","pricing_plan_id":"cebpf4jnsgd1na2vs0mg"},{"bike_id":"2274dd8f-dde4-4c1d-942f-9147ab43556b","system_id":"levelo_inurba_marseille","lat":43.25931,"lon":5.40891,"is_reserved":false,"is_disabled":false,"rental_uris":{"android":"levelo://app?vid=2274dd8f-dde4-4c1d-942f-9147ab43556b","ios":"levelo://app?vid=2274dd8f-dde4-4c1d-942f-9147ab43556b"},"vehicle_type_id":"4","last_reported":1749719509,"current_range_meters":15200,"station_id":"ce4bhm92rcd13ifvqglg","pricing_plan_id":"cebpf4jnsgd1na2vs0mg"},{"bike_id":"e5ef7447-82af-477b-846f-d44631249354","system_id":"levelo_inurba_marseille","lat":43.325098,"lon":5.388308,"is_reserved":false,"is_disabled":false,"rental_uris":{"android":"levelo://app?vid=e5ef7447-82af-477b-846f-d44631249354","ios":"levelo://app?vid=e5ef7447-82af-477b-846f-d44631249354"},"vehicle_type_id":"4","last_reported":1749719509,"current_range_meters":16000,"station_id":"","pricing_plan_id":"cebpf4jnsgd1na2vs0mg"},{"bike_id":"afe5024d-c348-4a43-99d6-7a019a1ad8ba","system_id":"levelo_inurba_marseille","lat":43.276208,"lon":5.361159,"is_reserved":false,"is_disabled":false,"rental_uris":{"android":"levelo://app?vid=afe5024d-c348-4a43-99d6-7a019a1ad8ba","ios":"levelo://app?vid=afe5024d-c348-4a43-99d6-7a019a1ad8ba"},"vehicle_type_id":"4","last_reported":1749719509,"current_range_meters":16000,"station_id":"ce4bgj92rcd13ifvqbe0","pricing_plan_id":"cebpf4jnsgd1na2vs0mg"},{"bike_id":"77540d59-87af-42f1-bc40-2b6302a296ac","system_id":"levelo_inurba_marseille","lat":43.29371,"lon":5.37835,"is_reserved":false,"is_disabled":false,"rental_uris":{"android":"levelo://app?vid=77540d59-87af-42f1-bc40-2b6302a296ac","ios":"levelo://app?vid=77540d59-87af-42f1-bc40-2b6302a296ac"},"vehicle_type_id":"4","last_reported":1749719509,"current_range_meters":16000,"station_id":"ce4bgjh2rcd13ifvqbf0","pricing_plan_id":"cebpf4jnsgd1na2vs0mg"},{"bike_id":"28bd68f4-cc8c-42c7-a7b6-31e32bdcb1d3","system_id":"levelo_inurba_marseille","lat":43.25899,"lon":5.4086,"is_reserved":false,"is_disabled":false,"rental_uris":{"android":"levelo://app?vid=28bd68f4-cc8c-42c7-a7b6-31e32bdcb1d3","ios":"levelo://app?vid=28bd68f4-cc8c-42c7-a7b6-31e32bdcb1d3"},"vehicle_type_id":"4","last_reported":1749719509,"current_range_meters":16000,"station_id":"ce4bhm92rcd13ifvqglg","pricing_plan_id":"cebpf4jnsgd1na2vs0mg"},{"bike_id":"8c31f4a5-033f-4dc1-acaa-6b626b1b7f90","system_id":"levelo_inurba_marseille","lat":43.231645,"lon":5.437117,"is_reserved":false,"is_disabled":false,"rental_uris":{"android":"levelo://app?vid=8c31f4a5-033f-4dc1-acaa-6b626b1b7f90","ios":"levelo://app?vid=8c31f4a5-033f-4dc1-acaa-6b626b1b7f90"},"vehicle_type_id":"4","last_reported":1749719509,"current_range_meters":16000,"station_id":"ce4bhmp2rcd13ifvqgog","pricing_plan_id":"cebpf4jnsgd1na2vs0mg"},{"bike_id":"1268e070-f02d-4537-93df-0bfd5c4daa05","system_id":"levelo_inurba_marseille","lat":43.32684,"lon":5.37666,"is_reserved":false,"is_disabled":false,"rental_uris":{"android":"levelo://app?vid=1268e070-f02d-4537-93df-0bfd5c4daa05","ios":"levelo://app?vid=1268e070-f02d-4537-93df-0bfd5c4daa05"},"vehicle_type_id":"4","last_reported":1749719509,"current_range_meters":16400,"station_id":"","pricing_plan_id":"cebpf4jnsgd1na2vs0mg"},{"bike_id":"1989215c-378c-442b-a262-e4741c2e9de7","system_id":"levelo_inurba_marseille","lat":43.302276,"lon":5.403705,"is_reserved":false,"is_disabled":false,"rental_uris":{"android":"levelo://app?vid=1989215c-378c-442b-a262-e4741c2e9de7","ios":"levelo://app?vid=1989215c-378c-442b-a262-e4741c2e9de7"},"vehicle_type_id":"4","last_reported":1749719509,"current_range_meters":16400,"station_id":"","pricing_plan_id":"cebpf4jnsgd1na2vs0mg"},{"bike_id":"7d7170dd-d55e-43db-a9c2-1ed74c433fd7","system_id":"levelo_inurba_marseille","lat":43.310253,"lon":5.41977,"is_reserved":false,"is_disabled":false,"rental_uris":{"android":"levelo://app?vid=7d7170dd-d55e-43db-a9c2-1ed74c433fd7","ios":"levelo://app?vid=7d7170dd-d55e-43db-a9c2-1ed74c433fd7"},"vehicle_type_id":"4","last_reported":1749719509,"current_range_meters":16400,"station_id":"","pricing_plan_id":"cebpf4jnsgd1na2vs0mg"},{"bike_id":"6e464720-93b0-4699-80fe-881649eb71cd","system_id":"levelo_inurba_marseille","lat":43.232289,"lon":5.355962,"is_reserved":false,"is_disabled":false,"rental_uris":{"android":"levelo://app?vid=6e464720-93b0-4699-80fe-881649eb71cd","ios":"levelo://app?vid=6e464720-93b0-4699-80fe-881649eb71cd"},"vehicle_type_id":"4","last_reported":1749719509,"current_range_meters":16400,"station_id":"","pricing_plan_id":"cebpf4jnsgd1na2vs0mg"},{"bike_id":"d24133ff-b3b7-4bc8-975b-6c012903b7dd","system_id":"levelo_inurba_marseille","lat":43.312256,"lon":5.368599,"is_reserved":false,"is_disabled":false,"rental_uris":{"android":"levelo://app?vid=d24133ff-b3b7-4bc8-975b-6c012903b7dd","ios":"levelo://app?vid=d24133ff-b3b7-4bc8-975b-6c012903b7dd"},"vehicle_type_id":"4","last_reported":1749719509,"current_range_meters":16400,"station_id":"ce4bgl92rcd13ifvqbq0","pricing_plan_id":"cebpf4jnsgd1na2vs0mg"},{"bike_id":"7624f930-8a29-453f-876b-d242de2c99f9","system_id":"levelo_inurba_marseille","lat":43.31232,"lon":5.36861,"is_reserved":false,"is_disabled":false,"rental_uris":{"android":"levelo://app?vid=7624f930-8a29-453f-876b-d242de2c99f9","ios":"levelo://app?vid=7624f930-8a29-453f-876b-d242de2c99f9"},"vehicle_type_id":"4","last_reported":1749719509,"current_range_meters":16400,"station_id":"ce4bgl92rcd13ifvqbq0","pricing_plan_id":"cebpf4jnsgd1na2vs0mg"},{"bike_id":"8bde8361-9307-4cd6-b8c7-d6f328e08863","system_id":"levelo_inurba_marseille","lat":43.28612,"lon":5.3511,"is_reserved":false,"is_disabled":false,"rental_uris":{"android":"levelo://app?vid=8bde8361-9307-4cd6-b8c7-d6f328e08863","ios":"levelo://app?vid=8bde8361-9307-4cd6-b8c7-d6f328e08863"},"vehicle_type_id":"4","last_reported":1749719509,"current_range_meters":16400,"station_id":"ce4bhch2rcd13ifvqeug","pricing_plan_id":"cebpf4jnsgd1na2vs0mg"},{"bike_id":"140f8881-b9ea-4027-8e62-5cfd57e1a44b","system_id":"levelo_inurba_marseille","lat":43.27943,"lon":5.41049,"is_reserved":false,"is_disabled":false,"rental_uris":{"android":"levelo://app?vid=140f8881-b9ea-4027-8e62-5cfd57e1a44b","ios":"levelo://app?vid=140f8881-b9ea-4027-8e62-5cfd57e1a44b"},"vehicle_type_id":"4","last_reported":1749719509,"current_range_meters":16400,"station_id":"ce4bhnp2rcd13ifvqh0g","pricing_plan_id":"cebpf4jnsgd1na2vs0mg"},{"bike_id":"7003b93c-725d-412e-9127-fbade718cbc3","system_id":"levelo_inurba_marseille","lat":43.21204,"lon":5.3507,"is_reserved":false,"is_disabled":false,"rental_uris":{"android":"levelo://app?vid=7003b93c-725d-412e-9127-fbade718cbc3","ios":"levelo://app?vid=7003b93c-725d-412e-9127-fbade718cbc3"},"vehicle_type_id":"4","last_reported":1749719509,"current_range_meters":16400,"station_id":"st_cvj6sg6p6f1abm77japg","pricing_plan_id":"cebpf4jnsgd1na2vs0mg"},{"bike_id":"c0bd4251-d527-48a7-9378-e4e80c1c274f","system_id":"levelo_inurba_marseille","lat":43.31815,"lon":5.37368,"is_reserved":false,"is_disabled":false,"rental_uris":{"android":"levelo://app?vid=c0bd4251-d527-48a7-9378-e4e80c1c274f","ios":"levelo://app?vid=c0bd4251-d527-48a7-9378-e4e80c1c274f"},"vehicle_type_id":"4","last_reported":1749719509,"current_range_meters":16800,"station_id":"","pricing_plan_id":"cebpf4jnsgd1na2vs0mg"},{"bike_id":"d29b68da-c5e6-447f-8dcb-1ab2cc9e6f96","system_id":"levelo_inurba_marseille","lat":43.26362,"lon":5.39633,"is_reserved":false,"is_disabled":false,"rental_uris":{"android":"levelo://app?vid=d29b68da-c5e6-447f-8dcb-1ab2cc9e6f96","ios":"levelo://app?vid=d29b68da-c5e6-447f-8dcb-1ab2cc9e6f96"},"vehicle_type_id":"4","last_reported":1749719509,"current_range_meters":16800,"station_id":"","pricing_plan_id":"cebpf4jnsgd1na2vs0mg"},{"bike_id":"7feaf55e-71aa-4ca1-bf3f-2723a9ca840f","system_id":"levelo_inurba_marseille","lat":43.29567,"lon":5.37513,"is_reserved":false,"is_disabled":false,"rental_uris":{"android":"levelo://app?vid=7feaf55e-71aa-4ca1-bf3f-2723a9ca840f","ios":"levelo://app?vid=7feaf55e-71aa-4ca1-bf3f-2723a9ca840f"},"vehicle_type_id":"4","last_reported":1749719509,"current_range_meters":16800,"station_id":"ce4bgh92rcd13ifvqb50","pricing_plan_id":"cebpf4jnsgd1na2vs0mg"},{"bike_id":"55fb2bcf-75e6-49f7-99bb-1814654cacdf","system_id":"levelo_inurba_marseille","lat":43.24655,"lon":5.38887,"is_reserved":false,"is_disabled":false,"rental_uris":{"android":"levelo://app?vid=55fb2bcf-75e6-49f7-99bb-1814654cacdf","ios":"levelo://app?vid=55fb2bcf-75e6-49f7-99bb-1814654cacdf"},"vehicle_type_id":"4","last_reported":1749719509,"current_range_meters":16800,"station_id":"ce4bhg12rcd13ifvqf60","pricing_plan_id":"cebpf4jnsgd1na2vs0mg"},{"bike_id":"6b946a7d-9737-4a9e-9d63-fb0a608f6a7f","system_id":"levelo_inurba_marseille","lat":43.2587,"lon":5.40837,"is_reserved":false,"is_disabled":false,"rental_uris":{"android":"levelo://app?vid=6b946a7d-9737-4a9e-9d63-fb0a608f6a7f","ios":"levelo://app?vid=6b946a7d-9737-4a9e-9d63-fb0a608f6a7f"},"vehicle_type_id":"4","last_reported":1749719509,"current_range_meters":16800,"station_id":"ce4bhm92rcd13ifvqglg","pricing_plan_id":"cebpf4jnsgd1na2vs0mg"},{"bike_id":"eaee356d-cf9d-4e92-996d-602cb52ef627","system_id":"levelo_inurba_marseille","lat":43.30352,"lon":5.41878,"is_reserved":false,"is_disabled":false,"rental_uris":{"android":"levelo://app?vid=eaee356d-cf9d-4e92-996d-602cb52ef627","ios":"levelo://app?vid=eaee356d-cf9d-4e92-996d-602cb52ef627"},"vehicle_type_id":"4","last_reported":1749719509,"current_range_meters":16800,"station_id":"ce4bhop2rcd13ifvqh7g","pricing_plan_id":"cebpf4jnsgd1na2vs0mg"},{"bike_id":"78e4331f-c67f-4812-a1cf-4af0acc5e2d6","system_id":"levelo_inurba_marseille","lat":43.32348,"lon":5.36735,"is_reserved":false,"is_disabled":false,"rental_uris":{"android":"levelo://app?vid=78e4331f-c67f-4812-a1cf-4af0acc5e2d6","ios":"levelo://app?vid=78e4331f-c67f-4812-a1cf-4af0acc5e2d6"},"vehicle_type_id":"4","last_reported":1749719509,"current_range_meters":16800,"station_id":"ce4bhsh2rcd13ifvqi2g","pricing_plan_id":"cebpf4jnsgd1na2vs0mg"},{"bike_id":"eb033ce6-a585-4e6e-b61e-8ddb3c04724d","system_id":"levelo_inurba_marseille","lat":43.287868,"lon":5.352293,"is_reserved":false,"is_disabled":false,"rental_uris":{"android":"levelo://app?vid=eb033ce6-a585-4e6e-b61e-8ddb3c04724d","ios":"levelo://app?vid=eb033ce6-a585-4e6e-b61e-8ddb3c04724d"},"vehicle_type_id":"4","last_reported":1749719509,"current_range_meters":17200,"station_id":"","pricing_plan_id":"cebpf4jnsgd1na2vs0mg"},{"bike_id":"fb8efe6b-a3ee-4969-be10-6eabeac34652","system_id":"levelo_inurba_marseille","lat":43.30549,"lon":5.36709,"is_reserved":false,"is_disabled":false,"rental_uris":{"android":"levelo://app?vid=fb8efe6b-a3ee-4969-be10-6eabeac34652","ios":"levelo://app?vid=fb8efe6b-a3ee-4969-be10-6eabeac34652"},"vehicle_type_id":"4","last_reported":1749719509,"current_range_meters":17200,"station_id":"ce4bgrp2rcd13ifvqc9g","pricing_plan_id":"cebpf4jnsgd1na2vs0mg"},{"bike_id":"71cf971e-e5fc-4a03-8792-af62112ad003","system_id":"levelo_inurba_marseille","lat":43.30545,"lon":5.36556,"is_reserved":false,"is_disabled":false,"rental_uris":{"android":"levelo://app?vid=71cf971e-e5fc-4a03-8792-af62112ad003","ios":"levelo://app?vid=71cf971e-e5fc-4a03-8792-af62112ad003"},"vehicle_type_id":"4","last_reported":1749719509,"current_range_meters":17200,"station_id":"ce4bgs12rcd13ifvqcag","pricing_plan_id":"cebpf4jnsgd1na2vs0mg"},{"bike_id":"0d03004d-7795-473e-b03f-f113bb65965d","system_id":"levelo_inurba_marseille","lat":43.25903,"lon":5.40853,"is_reserved":false,"is_disabled":false,"rental_uris":{"android":"levelo://app?vid=0d03004d-7795-473e-b03f-f113bb65965d","ios":"levelo://app?vid=0d03004d-7795-473e-b03f-f113bb65965d"},"vehicle_type_id":"4","last_reported":1749719509,"current_range_meters":17200,"station_id":"ce4bhm92rcd13ifvqglg","pricing_plan_id":"cebpf4jnsgd1na2vs0mg"},{"bike_id":"35733ac5-1a87-435f-bdd3-fb5ec7a34be5","system_id":"levelo_inurba_marseille","lat":43.2955,"lon":5.42281,"is_reserved":false,"is_disabled":false,"rental_uris":{"android":"levelo://app?vid=35733ac5-1a87-435f-bdd3-fb5ec7a34be5","ios":"levelo://app?vid=35733ac5-1a87-435f-bdd3-fb5ec7a34be5"},"vehicle_type_id":"4","last_reported":1749719509,"current_range_meters":17200,"station_id":"ce4bhph2rcd13ifvqhdg","pricing_plan_id":"cebpf4jnsgd1na2vs0mg"},{"bike_id":"41902e46-3363-402b-89a9-77321257c96b","system_id":"levelo_inurba_marseille","lat":43.32352,"lon":5.36734,"is_reserved":false,"is_disabled":false,"rental_uris":{"android":"levelo://app?vid=41902e46-3363-402b-89a9-77321257c96b","ios":"levelo://app?vid=41902e46-3363-402b-89a9-77321257c96b"},"vehicle_type_id":"4","last_reported":1749719509,"current_range_meters":17200,"station_id":"ce4bhsh2rcd13ifvqi2g","pricing_plan_id":"cebpf4jnsgd1na2vs0mg"},{"bike_id":"346f3f80-6b15-4406-b905-bb78596f5bac","system_id":"levelo_inurba_marseille","lat":43.32363,"lon":5.36766,"is_reserved":false,"is_disabled":false,"rental_uris":{"android":"levelo://app?vid=346f3f80-6b15-4406-b905-bb78596f5bac","ios":"levelo://app?vid=346f3f80-6b15-4406-b905-bb78596f5bac"},"vehicle_type_id":"4","last_reported":1749719509,"current_range_meters":17200,"station_id":"ce4bhsh2rcd13ifvqi2g","pricing_plan_id":"cebpf4jnsgd1na2vs0mg"},{"bike_id":"15ec95c3-df0e-4f06-8bab-cb2ed3aac4fe","system_id":"levelo_inurba_marseille","lat":43.31217,"lon":5.36874,"is_reserved":false,"is_disabled":false,"rental_uris":{"android":"levelo://app?vid=15ec95c3-df0e-4f06-8bab-cb2ed3aac4fe","ios":"levelo://app?vid=15ec95c3-df0e-4f06-8bab-cb2ed3aac4fe"},"vehicle_type_id":"4","last_reported":1749719509,"current_range_meters":17600,"station_id":"ce4bgl92rcd13ifvqbq0","pricing_plan_id":"cebpf4jnsgd1na2vs0mg"},{"bike_id":"e3d2f8f4-c8d1-4af7-a951-bd5f93cf49ec","system_id":"levelo_inurba_marseille","lat":43.3054,"lon":5.36695,"is_reserved":false,"is_disabled":false,"rental_uris":{"android":"levelo://app?vid=e3d2f8f4-c8d1-4af7-a951-bd5f93cf49ec","ios":"levelo://app?vid=e3d2f8f4-c8d1-4af7-a951-bd5f93cf49ec"},"vehicle_type_id":"4","last_reported":1749719509,"current_range_meters":17600,"station_id":"ce4bgrp2rcd13ifvqc9g","pricing_plan_id":"cebpf4jnsgd1na2vs0mg"},{"bike_id":"ba59e0b8-189f-4820-9b92-9008231c663d","system_id":"levelo_inurba_marseille","lat":43.29077,"lon":5.38147,"is_reserved":false,"is_disabled":false,"rental_uris":{"android":"levelo://app?vid=ba59e0b8-189f-4820-9b92-9008231c663d","ios":"levelo://app?vid=ba59e0b8-189f-4820-9b92-9008231c663d"},"vehicle_type_id":"4","last_reported":1749719509,"current_range_meters":17600,"station_id":"ce4bh512rcd13ifvqe2g","pricing_plan_id":"cebpf4jnsgd1na2vs0mg"},{"bike_id":"731b80d5-ec73-44aa-b0e9-c0bafa4f7c3c","system_id":"levelo_inurba_marseille","lat":43.28419,"lon":5.34976,"is_reserved":false,"is_disabled":false,"rental_uris":{"android":"levelo://app?vid=731b80d5-ec73-44aa-b0e9-c0bafa4f7c3c","ios":"levelo://app?vid=731b80d5-ec73-44aa-b0e9-c0bafa4f7c3c"},"vehicle_type_id":"4","last_reported":1749719509,"current_range_meters":17600,"station_id":"ce4bhbh2rcd13ifvqepg","pricing_plan_id":"cebpf4jnsgd1na2vs0mg"},{"bike_id":"5915c624-f941-4648-a47d-f68c158b921a","system_id":"levelo_inurba_marseille","lat":43.28153,"lon":5.42642,"is_reserved":false,"is_disabled":false,"rental_uris":{"android":"levelo://app?vid=5915c624-f941-4648-a47d-f68c158b921a","ios":"levelo://app?vid=5915c624-f941-4648-a47d-f68c158b921a"},"vehicle_type_id":"4","last_reported":1749719509,"current_range_meters":17600,"station_id":"ce4bhnh2rcd13ifvqgug","pricing_plan_id":"cebpf4jnsgd1na2vs0mg"},{"bike_id":"33e27815-ce4d-41af-854b-89d5e2b5d099","system_id":"levelo_inurba_marseille","lat":43.29002,"lon":5.35611,"is_reserved":false,"is_disabled":false,"rental_uris":{"android":"levelo://app?vid=33e27815-ce4d-41af-854b-89d5e2b5d099","ios":"levelo://app?vid=33e27815-ce4d-41af-854b-89d5e2b5d099"},"vehicle_type_id":"4","last_reported":1749719509,"current_range_meters":18000,"station_id":"ce4bhb92rcd13ifvqen0","pricing_plan_id":"cebpf4jnsgd1na2vs0mg"},{"bike_id":"6eac2101-bb0c-4a5f-9265-48a883b25661","system_id":"levelo_inurba_marseille","lat":43.26803,"lon":5.40256,"is_reserved":false,"is_disabled":false,"rental_uris":{"android":"levelo://app?vid=6eac2101-bb0c-4a5f-9265-48a883b25661","ios":"levelo://app?vid=6eac2101-bb0c-4a5f-9265-48a883b25661"},"vehicle_type_id":"4","last_reported":1749719509,"current_range_meters":18000,"station_id":"ce501612rcd8frsf0b60","pricing_plan_id":"cebpf4jnsgd1na2vs0mg"},{"bike_id":"11a7710f-084d-413d-abc1-c587a947a05e","system_id":"levelo_inurba_marseille","lat":43.268245,"lon":5.39074,"is_reserved":false,"is_disabled":false,"rental_uris":{"android":"levelo://app?vid=11a7710f-084d-413d-abc1-c587a947a05e","ios":"levelo://app?vid=11a7710f-084d-413d-abc1-c587a947a05e"},"vehicle_type_id":"4","last_reported":1749719509,"current_range_meters":18800,"station_id":"","pricing_plan_id":"cebpf4jnsgd1na2vs0mg"},{"bike_id":"713f94e3-c67e-4836-bdd5-cfe7bb1b1281","system_id":"levelo_inurba_marseille","lat":43.22496,"lon":5.34779,"is_reserved":false,"is_disabled":false,"rental_uris":{"android":"levelo://app?vid=713f94e3-c67e-4836-bdd5-cfe7bb1b1281","ios":"levelo://app?vid=713f94e3-c67e-4836-bdd5-cfe7bb1b1281"},"vehicle_type_id":"4","last_reported":1749719509,"current_range_meters":18800,"station_id":"","pricing_plan_id":"cebpf4jnsgd1na2vs0mg"},{"bike_id":"b4f25243-bf44-4f4a-9f5e-0cfd4cc5a3d1","system_id":"levelo_inurba_marseille","lat":43.29291,"lon":5.37469,"is_reserved":false,"is_disabled":false,"rental_uris":{"android":"levelo://app?vid=b4f25243-bf44-4f4a-9f5e-0cfd4cc5a3d1","ios":"levelo://app?vid=b4f25243-bf44-4f4a-9f5e-0cfd4cc5a3d1"},"vehicle_type_id":"4","last_reported":1749719509,"current_range_meters":18800,"station_id":"ce4bgi12rcd13ifvqb70","pricing_plan_id":"cebpf4jnsgd1na2vs0mg"},{"bike_id":"72dea20e-10ac-4a59-bc30-23b3f4550495","system_id":"levelo_inurba_marseille","lat":43.31357,"lon":5.36694,"is_reserved":false,"is_disabled":false,"rental_uris":{"android":"levelo://app?vid=72dea20e-10ac-4a59-bc30-23b3f4550495","ios":"levelo://app?vid=72dea20e-10ac-4a59-bc30-23b3f4550495"},"vehicle_type_id":"4","last_reported":1749719509,"current_range_meters":18800,"station_id":"ce4bgr92rcd13ifvqc6g","pricing_plan_id":"cebpf4jnsgd1na2vs0mg"},{"bike_id":"55b9232f-6ac7-4abc-b7bf-7470f5c4381c","system_id":"levelo_inurba_marseille","lat":43.30143,"lon":5.37418,"is_reserved":false,"is_disabled":false,"rental_uris":{"android":"levelo://app?vid=55b9232f-6ac7-4abc-b7bf-7470f5c4381c","ios":"levelo://app?vid=55b9232f-6ac7-4abc-b7bf-7470f5c4381c"},"vehicle_type_id":"4","last_reported":1749719509,"current_range_meters":18800,"station_id":"ce4bgs92rcd13ifvqcc0","pricing_plan_id":"cebpf4jnsgd1na2vs0mg"},{"bike_id":"a08a87b5-a6d9-4b1f-b82c-9e82557bcf67","system_id":"levelo_inurba_marseille","lat":43.31128,"lon":5.37759,"is_reserved":false,"is_disabled":false,"rental_uris":{"android":"levelo://app?vid=a08a87b5-a6d9-4b1f-b82c-9e82557bcf67","ios":"levelo://app?vid=a08a87b5-a6d9-4b1f-b82c-9e82557bcf67"},"vehicle_type_id":"4","last_reported":1749719509,"current_range_meters":18800,"station_id":"ce4bgt92rcd13ifvqcg0","pricing_plan_id":"cebpf4jnsgd1na2vs0mg"},{"bike_id":"3057921d-9351-4ef7-ac43-aaec417c0c7c","system_id":"levelo_inurba_marseille","lat":43.26197,"lon":5.3745,"is_reserved":false,"is_disabled":false,"rental_uris":{"android":"levelo://app?vid=3057921d-9351-4ef7-ac43-aaec417c0c7c","ios":"levelo://app?vid=3057921d-9351-4ef7-ac43-aaec417c0c7c"},"vehicle_type_id":"4","last_reported":1749719509,"current_range_meters":18800,"station_id":"ce4bhgp2rcd13ifvqfc0","pricing_plan_id":"cebpf4jnsgd1na2vs0mg"},{"bike_id":"1d630d68-97b9-49ca-a8b4-aedb42ade82c","system_id":"levelo_inurba_marseille","lat":43.28152,"lon":5.42637,"is_reserved":false,"is_disabled":false,"rental_uris":{"android":"levelo://app?vid=1d630d68-97b9-49ca-a8b4-aedb42ade82c","ios":"levelo://app?vid=1d630d68-97b9-49ca-a8b4-aedb42ade82c"},"vehicle_type_id":"4","last_reported":1749719509,"current_range_meters":18800,"station_id":"ce4bhnh2rcd13ifvqgug","pricing_plan_id":"cebpf4jnsgd1na2vs0mg"},{"bike_id":"48a591c7-da68-4a88-8adc-1631f60a4b36","system_id":"levelo_inurba_marseille","lat":43.29554,"lon":5.42269,"is_reserved":false,"is_disabled":false,"rental_uris":{"android":"levelo://app?vid=48a591c7-da68-4a88-8adc-1631f60a4b36","ios":"levelo://app?vid=48a591c7-da68-4a88-8adc-1631f60a4b36"},"vehicle_type_id":"4","last_reported":1749719509,"current_range_meters":18800,"station_id":"ce4bhph2rcd13ifvqhdg","pricing_plan_id":"cebpf4jnsgd1na2vs0mg"},{"bike_id":"91fda4be-eb88-43ea-b46e-ad64d03c1cd4","system_id":"levelo_inurba_marseille","lat":43.26943,"lon":5.40256,"is_reserved":false,"is_disabled":false,"rental_uris":{"android":"levelo://app?vid=91fda4be-eb88-43ea-b46e-ad64d03c1cd4","ios":"levelo://app?vid=91fda4be-eb88-43ea-b46e-ad64d03c1cd4"},"vehicle_type_id":"4","last_reported":1749719509,"current_range_meters":18800,"station_id":"cjm6bp8fraef2m0cb0m0","pricing_plan_id":"cebpf4jnsgd1na2vs0mg"},{"bike_id":"62c0da7f-aff9-4ffa-86b8-6966d8f0e555","system_id":"levelo_inurba_marseille","lat":43.21173,"lon":5.35052,"is_reserved":false,"is_disabled":false,"rental_uris":{"android":"levelo://app?vid=62c0da7f-aff9-4ffa-86b8-6966d8f0e555","ios":"levelo://app?vid=62c0da7f-aff9-4ffa-86b8-6966d8f0e555"},"vehicle_type_id":"4","last_reported":1749719509,"current_range_meters":18800,"station_id":"st_cvj6sg6p6f1abm77japg","pricing_plan_id":"cebpf4jnsgd1na2vs0mg"},{"bike_id":"600da287-0374-4ee0-bea4-ba6902340b5e","system_id":"levelo_inurba_marseille","lat":43.27466,"lon":5.36012,"is_reserved":false,"is_disabled":false,"rental_uris":{"android":"levelo://app?vid=600da287-0374-4ee0-bea4-ba6902340b5e","ios":"levelo://app?vid=600da287-0374-4ee0-bea4-ba6902340b5e"},"vehicle_type_id":"4","last_reported":1749719509,"current_range_meters":19200,"station_id":"","pricing_plan_id":"cebpf4jnsgd1na2vs0mg"},{"bike_id":"2bae304d-06f7-450f-9c20-63d800e700e2","system_id":"levelo_inurba_marseille","lat":43.31659,"lon":5.38233,"is_reserved":false,"is_disabled":false,"rental_uris":{"android":"levelo://app?vid=2bae304d-06f7-450f-9c20-63d800e700e2","ios":"levelo://app?vid=2bae304d-06f7-450f-9c20-63d800e700e2"},"vehicle_type_id":"4","last_reported":1749719509,"current_range_meters":19200,"station_id":"","pricing_plan_id":"cebpf4jnsgd1na2vs0mg"},{"bike_id":"79f9970c-554e-41fb-9c0a-fdcb7477b8e0","system_id":"levelo_inurba_marseille","lat":43.304793,"lon":5.379373,"is_reserved":false,"is_disabled":false,"rental_uris":{"android":"levelo://app?vid=79f9970c-554e-41fb-9c0a-fdcb7477b8e0","ios":"levelo://app?vid=79f9970c-554e-41fb-9c0a-fdcb7477b8e0"},"vehicle_type_id":"4","last_reported":1749719509,"current_range_meters":19200,"station_id":"","pricing_plan_id":"cebpf4jnsgd1na2vs0mg"},{"bike_id":"6facbc0d-f1b5-4dc3-86d4-5c1204834925","system_id":"levelo_inurba_marseille","lat":43.28051,"lon":5.3481,"is_reserved":false,"is_disabled":false,"rental_uris":{"android":"levelo://app?vid=6facbc0d-f1b5-4dc3-86d4-5c1204834925","ios":"levelo://app?vid=6facbc0d-f1b5-4dc3-86d4-5c1204834925"},"vehicle_type_id":"4","last_reported":1749719509,"current_range_meters":19200,"station_id":"","pricing_plan_id":"cebpf4jnsgd1na2vs0mg"},{"bike_id":"cf2c9e61-4698-4859-8b55-a3ce10dc928a","system_id":"levelo_inurba_marseille","lat":43.29254,"lon":5.37624,"is_reserved":false,"is_disabled":false,"rental_uris":{"android":"levelo://app?vid=cf2c9e61-4698-4859-8b55-a3ce10dc928a","ios":"levelo://app?vid=cf2c9e61-4698-4859-8b55-a3ce10dc928a"},"vehicle_type_id":"4","last_reported":1749719509,"current_range_meters":19200,"station_id":"ce4bgi12rcd13ifvqb80","pricing_plan_id":"cebpf4jnsgd1na2vs0mg"},{"bike_id":"87c85332-cde4-4b02-94f8-45472191bb77","system_id":"levelo_inurba_marseille","lat":43.29608,"lon":5.37732,"is_reserved":false,"is_disabled":false,"rental_uris":{"android":"levelo://app?vid=87c85332-cde4-4b02-94f8-45472191bb77","ios":"levelo://app?vid=87c85332-cde4-4b02-94f8-45472191bb77"},"vehicle_type_id":"4","last_reported":1749719509,"current_range_meters":19200,"station_id":"ce4bgi92rcd13ifvqb90","pricing_plan_id":"cebpf4jnsgd1na2vs0mg"},{"bike_id":"a2e9d20d-a78e-42e0-b2bf-7985db8e262e","system_id":"levelo_inurba_marseille","lat":43.2984,"lon":5.36265,"is_reserved":false,"is_disabled":false,"rental_uris":{"android":"levelo://app?vid=a2e9d20d-a78e-42e0-b2bf-7985db8e262e","ios":"levelo://app?vid=a2e9d20d-a78e-42e0-b2bf-7985db8e262e"},"vehicle_type_id":"4","last_reported":1749719509,"current_range_meters":19200,"station_id":"ce4bgpp2rcd13ifvqc3g","pricing_plan_id":"cebpf4jnsgd1na2vs0mg"},{"bike_id":"87d60d2d-5bf3-4cc1-a91b-f7455d0f309b","system_id":"levelo_inurba_marseille","lat":43.31699,"lon":5.37739,"is_reserved":false,"is_disabled":false,"rental_uris":{"android":"levelo://app?vid=87d60d2d-5bf3-4cc1-a91b-f7455d0f309b","ios":"levelo://app?vid=87d60d2d-5bf3-4cc1-a91b-f7455d0f309b"},"vehicle_type_id":"4","last_reported":1749719509,"current_range_meters":19200,"station_id":"ce4bgth2rcd13ifvqch0","pricing_plan_id":"cebpf4jnsgd1na2vs0mg"},{"bike_id":"09f63c8a-a282-4cbe-8836-96dd728b16fa","system_id":"levelo_inurba_marseille","lat":43.24177,"lon":5.39719,"is_reserved":false,"is_disabled":false,"rental_uris":{"android":"levelo://app?vid=09f63c8a-a282-4cbe-8836-96dd728b16fa","ios":"levelo://app?vid=09f63c8a-a282-4cbe-8836-96dd728b16fa"},"vehicle_type_id":"4","last_reported":1749719509,"current_range_meters":19200,"station_id":"ce4bhn12rcd13ifvqgpg","pricing_plan_id":"cebpf4jnsgd1na2vs0mg"},{"bike_id":"326cc913-bdbc-48c2-9a88-414846f09512","system_id":"levelo_inurba_marseille","lat":43.323565,"lon":5.367557,"is_reserved":false,"is_disabled":false,"rental_uris":{"android":"levelo://app?vid=326cc913-bdbc-48c2-9a88-414846f09512","ios":"levelo://app?vid=326cc913-bdbc-48c2-9a88-414846f09512"},"vehicle_type_id":"4","last_reported":1749719509,"current_range_meters":19200,"station_id":"ce4bhsh2rcd13ifvqi2g","pricing_plan_id":"cebpf4jnsgd1na2vs0mg"},{"bike_id":"801a6199-fbbb-4f7d-b02d-e55aa1828a2b","system_id":"levelo_inurba_marseille","lat":43.27664,"lon":5.36978,"is_reserved":false,"is_disabled":false,"rental_uris":{"android":"levelo://app?vid=801a6199-fbbb-4f7d-b02d-e55aa1828a2b","ios":"levelo://app?vid=801a6199-fbbb-4f7d-b02d-e55aa1828a2b"},"vehicle_type_id":"4","last_reported":1749719509,"current_range_meters":19600,"station_id":"","pricing_plan_id":"cebpf4jnsgd1na2vs0mg"},{"bike_id":"075c05ec-b3c9-44c3-b57f-1083abf2ca61","system_id":"levelo_inurba_marseille","lat":43.2712,"lon":5.4262,"is_reserved":false,"is_disabled":false,"rental_uris":{"android":"levelo://app?vid=075c05ec-b3c9-44c3-b57f-1083abf2ca61","ios":"levelo://app?vid=075c05ec-b3c9-44c3-b57f-1083abf2ca61"},"vehicle_type_id":"4","last_reported":1749719509,"current_range_meters":19600,"station_id":"","pricing_plan_id":"cebpf4jnsgd1na2vs0mg"},{"bike_id":"d2c9cebc-a49b-4280-a040-8b6bd89be3ca","system_id":"levelo_inurba_marseille","lat":43.33763,"lon":5.37435,"is_reserved":false,"is_disabled":false,"rental_uris":{"android":"levelo://app?vid=d2c9cebc-a49b-4280-a040-8b6bd89be3ca","ios":"levelo://app?vid=d2c9cebc-a49b-4280-a040-8b6bd89be3ca"},"vehicle_type_id":"4","last_reported":1749719509,"current_range_meters":19600,"station_id":"","pricing_plan_id":"cebpf4jnsgd1na2vs0mg"},{"bike_id":"7be27785-0656-410b-9678-1271ab71babb","system_id":"levelo_inurba_marseille","lat":43.27735,"lon":5.37522,"is_reserved":false,"is_disabled":false,"rental_uris":{"android":"levelo://app?vid=7be27785-0656-410b-9678-1271ab71babb","ios":"levelo://app?vid=7be27785-0656-410b-9678-1271ab71babb"},"vehicle_type_id":"4","last_reported":1749719509,"current_range_meters":19600,"station_id":"","pricing_plan_id":"cebpf4jnsgd1na2vs0mg"},{"bike_id":"20413cee-8e17-43e0-b84c-715d82ebb74d","system_id":"levelo_inurba_marseille","lat":43.30533,"lon":5.36511,"is_reserved":false,"is_disabled":false,"rental_uris":{"android":"levelo://app?vid=20413cee-8e17-43e0-b84c-715d82ebb74d","ios":"levelo://app?vid=20413cee-8e17-43e0-b84c-715d82ebb74d"},"vehicle_type_id":"4","last_reported":1749719509,"current_range_meters":19600,"station_id":"ce4bgs12rcd13ifvqcag","pricing_plan_id":"cebpf4jnsgd1na2vs0mg"},{"bike_id":"9548430e-3321-454c-884b-b34ae5606226","system_id":"levelo_inurba_marseille","lat":43.27322,"lon":5.39104,"is_reserved":false,"is_disabled":false,"rental_uris":{"android":"levelo://app?vid=9548430e-3321-454c-884b-b34ae5606226","ios":"levelo://app?vid=9548430e-3321-454c-884b-b34ae5606226"},"vehicle_type_id":"4","last_reported":1749719509,"current_range_meters":19600,"station_id":"ce4bhgp2rcd13ifvqfe0","pricing_plan_id":"cebpf4jnsgd1na2vs0mg"},{"bike_id":"d3bee0a5-0928-4672-86fb-2efc39437bd3","system_id":"levelo_inurba_marseille","lat":43.27315,"lon":5.39125,"is_reserved":false,"is_disabled":false,"rental_uris":{"android":"levelo://app?vid=d3bee0a5-0928-4672-86fb-2efc39437bd3","ios":"levelo://app?vid=d3bee0a5-0928-4672-86fb-2efc39437bd3"},"vehicle_type_id":"4","last_reported":1749719509,"current_range_meters":19600,"station_id":"ce4bhgp2rcd13ifvqfe0","pricing_plan_id":"cebpf4jnsgd1na2vs0mg"},{"bike_id":"d790712a-6afd-43ed-bf99-b723a59b9400","system_id":"levelo_inurba_marseille","lat":43.25933,"lon":5.40887,"is_reserved":false,"is_disabled":false,"rental_uris":{"android":"levelo://app?vid=d790712a-6afd-43ed-bf99-b723a59b9400","ios":"levelo://app?vid=d790712a-6afd-43ed-bf99-b723a59b9400"},"vehicle_type_id":"4","last_reported":1749719509,"current_range_meters":19600,"station_id":"ce4bhm92rcd13ifvqglg","pricing_plan_id":"cebpf4jnsgd1na2vs0mg"},{"bike_id":"837aa402-3224-4655-ac3b-d50e9077b0c1","system_id":"levelo_inurba_marseille","lat":43.30377,"lon":5.42492,"is_reserved":false,"is_disabled":false,"rental_uris":{"android":"levelo://app?vid=837aa402-3224-4655-ac3b-d50e9077b0c1","ios":"levelo://app?vid=837aa402-3224-4655-ac3b-d50e9077b0c1"},"vehicle_type_id":"4","last_reported":1749719509,"current_range_meters":19600,"station_id":"ce4bhoh2rcd13ifvqh6g","pricing_plan_id":"cebpf4jnsgd1na2vs0mg"},{"bike_id":"3d243e1c-a883-4bc3-9c15-b8da6e60785b","system_id":"levelo_inurba_marseille","lat":43.26832,"lon":5.42849,"is_reserved":false,"is_disabled":false,"rental_uris":{"android":"levelo://app?vid=3d243e1c-a883-4bc3-9c15-b8da6e60785b","ios":"levelo://app?vid=3d243e1c-a883-4bc3-9c15-b8da6e60785b"},"vehicle_type_id":"4","last_reported":1749719509,"current_range_meters":20000,"station_id":"","pricing_plan_id":"cebpf4jnsgd1na2vs0mg"},{"bike_id":"37989d50-bfb1-4abc-900f-9cc09fbd8f46","system_id":"levelo_inurba_marseille","lat":43.27727,"lon":5.37533,"is_reserved":false,"is_disabled":false,"rental_uris":{"android":"levelo://app?vid=37989d50-bfb1-4abc-900f-9cc09fbd8f46","ios":"levelo://app?vid=37989d50-bfb1-4abc-900f-9cc09fbd8f46"},"vehicle_type_id":"4","last_reported":1749719509,"current_range_meters":20000,"station_id":"","pricing_plan_id":"cebpf4jnsgd1na2vs0mg"},{"bike_id":"113d2198-6af0-4bf2-9b8b-31e698083d53","system_id":"levelo_inurba_marseille","lat":43.30534,"lon":5.36534,"is_reserved":false,"is_disabled":false,"rental_uris":{"android":"levelo://app?vid=113d2198-6af0-4bf2-9b8b-31e698083d53","ios":"levelo://app?vid=113d2198-6af0-4bf2-9b8b-31e698083d53"},"vehicle_type_id":"4","last_reported":1749719509,"current_range_meters":20000,"station_id":"ce4bgs12rcd13ifvqcag","pricing_plan_id":"cebpf4jnsgd1na2vs0mg"},{"bike_id":"36f77ba9-c9f1-4dab-b199-404e7b975dfd","system_id":"levelo_inurba_marseille","lat":43.30273,"lon":5.37716,"is_reserved":false,"is_disabled":false,"rental_uris":{"android":"levelo://app?vid=36f77ba9-c9f1-4dab-b199-404e7b975dfd","ios":"levelo://app?vid=36f77ba9-c9f1-4dab-b199-404e7b975dfd"},"vehicle_type_id":"4","last_reported":1749719509,"current_range_meters":20000,"station_id":"ce4bguh2rcd13ifvqcj0","pricing_plan_id":"cebpf4jnsgd1na2vs0mg"},{"bike_id":"9ac9e3de-c70a-4251-be83-f50b7fb1cc9d","system_id":"levelo_inurba_marseille","lat":43.26683,"lon":5.38272,"is_reserved":false,"is_disabled":false,"rental_uris":{"android":"levelo://app?vid=9ac9e3de-c70a-4251-be83-f50b7fb1cc9d","ios":"levelo://app?vid=9ac9e3de-c70a-4251-be83-f50b7fb1cc9d"},"vehicle_type_id":"4","last_reported":1749719509,"current_range_meters":20000,"station_id":"ce4bhg92rcd13ifvqf90","pricing_plan_id":"cebpf4jnsgd1na2vs0mg"},{"bike_id":"3f3b1453-3ca0-4f12-ac37-ae92cfebdb0e","system_id":"levelo_inurba_marseille","lat":43.261924,"lon":5.379278,"is_reserved":false,"is_disabled":false,"rental_uris":{"android":"levelo://app?vid=3f3b1453-3ca0-4f12-ac37-ae92cfebdb0e","ios":"levelo://app?vid=3f3b1453-3ca0-4f12-ac37-ae92cfebdb0e"},"vehicle_type_id":"4","last_reported":1749719509,"current_range_meters":20000,"station_id":"ce4bhjp2rcd13ifvqg90","pricing_plan_id":"cebpf4jnsgd1na2vs0mg"},{"bike_id":"b346433e-468f-49dc-877b-116611434705","system_id":"levelo_inurba_marseille","lat":43.269373,"lon":5.402527,"is_reserved":false,"is_disabled":false,"rental_uris":{"android":"levelo://app?vid=b346433e-468f-49dc-877b-116611434705","ios":"levelo://app?vid=b346433e-468f-49dc-877b-116611434705"},"vehicle_type_id":"4","last_reported":1749719509,"current_range_meters":20000,"station_id":"cjm6bp8fraef2m0cb0m0","pricing_plan_id":"cebpf4jnsgd1na2vs0mg"},{"bike_id":"b7be686b-da9b-4227-af9f-7aa6076cd809","system_id":"levelo_inurba_marseille","lat":43.29758,"lon":5.37726,"is_reserved":false,"is_disabled":false,"rental_uris":{"android":"levelo://app?vid=b7be686b-da9b-4227-af9f-7aa6076cd809","ios":"levelo://app?vid=b7be686b-da9b-4227-af9f-7aa6076cd809"},"vehicle_type_id":"4","last_reported":1749719509,"current_range_meters":20400,"station_id":"ce4bgkh2rcd13ifvqbl0","pricing_plan_id":"cebpf4jnsgd1na2vs0mg"},{"bike_id":"f1a80073-25bb-4c65-9663-f46c30f9c145","system_id":"levelo_inurba_marseille","lat":43.30899,"lon":5.36838,"is_reserved":false,"is_disabled":false,"rental_uris":{"android":"levelo://app?vid=f1a80073-25bb-4c65-9663-f46c30f9c145","ios":"levelo://app?vid=f1a80073-25bb-4c65-9663-f46c30f9c145"},"vehicle_type_id":"4","last_reported":1749719509,"current_range_meters":20400,"station_id":"ce4bgn92rcd13ifvqbvg","pricing_plan_id":"cebpf4jnsgd1na2vs0mg"},{"bike_id":"3cae12fd-6565-468c-8f95-bedceccbf525","system_id":"levelo_inurba_marseille","lat":43.26191,"lon":5.37929,"is_reserved":false,"is_disabled":false,"rental_uris":{"android":"levelo://app?vid=3cae12fd-6565-468c-8f95-bedceccbf525","ios":"levelo://app?vid=3cae12fd-6565-468c-8f95-bedceccbf525"},"vehicle_type_id":"4","last_reported":1749719509,"current_range_meters":20400,"station_id":"ce4bhjp2rcd13ifvqg90","pricing_plan_id":"cebpf4jnsgd1na2vs0mg"},{"bike_id":"e9481e50-5ac9-45d4-bd77-6c7925a40080","system_id":"levelo_inurba_marseille","lat":43.26225,"lon":5.40461,"is_reserved":false,"is_disabled":false,"rental_uris":{"android":"levelo://app?vid=e9481e50-5ac9-45d4-bd77-6c7925a40080","ios":"levelo://app?vid=e9481e50-5ac9-45d4-bd77-6c7925a40080"},"vehicle_type_id":"4","last_reported":1749719509,"current_range_meters":20400,"station_id":"ce4bhmh2rcd13ifvqgmg","pricing_plan_id":"cebpf4jnsgd1na2vs0mg"},{"bike_id":"6f654530-369e-4814-9b68-09cd588dc2e2","system_id":"levelo_inurba_marseille","lat":43.29553,"lon":5.42292,"is_reserved":false,"is_disabled":false,"rental_uris":{"android":"levelo://app?vid=6f654530-369e-4814-9b68-09cd588dc2e2","ios":"levelo://app?vid=6f654530-369e-4814-9b68-09cd588dc2e2"},"vehicle_type_id":"4","last_reported":1749719509,"current_range_meters":20400,"station_id":"ce4bhph2rcd13ifvqhdg","pricing_plan_id":"cebpf4jnsgd1na2vs0mg"},{"bike_id":"ebde0757-a94a-4915-8c86-60ad7ee049c4","system_id":"levelo_inurba_marseille","lat":43.23196,"lon":5.35556,"is_reserved":false,"is_disabled":false,"rental_uris":{"android":"levelo://app?vid=ebde0757-a94a-4915-8c86-60ad7ee049c4","ios":"levelo://app?vid=ebde0757-a94a-4915-8c86-60ad7ee049c4"},"vehicle_type_id":"4","last_reported":1749719509,"current_range_meters":20400,"station_id":"ce4bhu92rcd13ifvqi70","pricing_plan_id":"cebpf4jnsgd1na2vs0mg"},{"bike_id":"07794fe5-ebb6-47fa-9fa3-c9126fd6a124","system_id":"levelo_inurba_marseille","lat":43.24167,"lon":5.36396,"is_reserved":false,"is_disabled":false,"rental_uris":{"android":"levelo://app?vid=07794fe5-ebb6-47fa-9fa3-c9126fd6a124","ios":"levelo://app?vid=07794fe5-ebb6-47fa-9fa3-c9126fd6a124"},"vehicle_type_id":"4","last_reported":1749719509,"current_range_meters":20400,"station_id":"cpo36qri1sfpv3e86is0","pricing_plan_id":"cebpf4jnsgd1na2vs0mg"},{"bike_id":"2d9eb491-ef60-4c87-8fa5-c0a977f848da","system_id":"levelo_inurba_marseille","lat":43.21195,"lon":5.35051,"is_reserved":false,"is_disabled":false,"rental_uris":{"android":"levelo://app?vid=2d9eb491-ef60-4c87-8fa5-c0a977f848da","ios":"levelo://app?vid=2d9eb491-ef60-4c87-8fa5-c0a977f848da"},"vehicle_type_id":"4","last_reported":1749719509,"current_range_meters":20400,"station_id":"st_cvj6sg6p6f1abm77japg","pricing_plan_id":"cebpf4jnsgd1na2vs0mg"},{"bike_id":"3b2851dc-cdc3-4c74-bb7a-6b50ea5674bc","system_id":"levelo_inurba_marseille","lat":43.316,"lon":5.3841,"is_reserved":false,"is_disabled":false,"rental_uris":{"android":"levelo://app?vid=3b2851dc-cdc3-4c74-bb7a-6b50ea5674bc","ios":"levelo://app?vid=3b2851dc-cdc3-4c74-bb7a-6b50ea5674bc"},"vehicle_type_id":"4","last_reported":1749719509,"current_range_meters":20800,"station_id":"","pricing_plan_id":"cebpf4jnsgd1na2vs0mg"},{"bike_id":"55bf84f1-6b64-4dd2-961d-22b7ac29cb9c","system_id":"levelo_inurba_marseille","lat":43.289767,"lon":5.378343,"is_reserved":false,"is_disabled":false,"rental_uris":{"android":"levelo://app?vid=55bf84f1-6b64-4dd2-961d-22b7ac29cb9c","ios":"levelo://app?vid=55bf84f1-6b64-4dd2-961d-22b7ac29cb9c"},"vehicle_type_id":"4","last_reported":1749719509,"current_range_meters":20800,"station_id":"ce4bh9p2rcd13ifvqed0","pricing_plan_id":"cebpf4jnsgd1na2vs0mg"},{"bike_id":"1fbbb8b0-6a51-4f2d-9274-7446b56cb5eb","system_id":"levelo_inurba_marseille","lat":43.29276,"lon":5.36825,"is_reserved":false,"is_disabled":false,"rental_uris":{"android":"levelo://app?vid=1fbbb8b0-6a51-4f2d-9274-7446b56cb5eb","ios":"levelo://app?vid=1fbbb8b0-6a51-4f2d-9274-7446b56cb5eb"},"vehicle_type_id":"4","last_reported":1749719509,"current_range_meters":20800,"station_id":"ce4bhbp2rcd13ifvqesg","pricing_plan_id":"cebpf4jnsgd1na2vs0mg"},{"bike_id":"a2b894b8-59d7-4014-990a-e7e9e07fd3a3","system_id":"levelo_inurba_marseille","lat":43.26683,"lon":5.38262,"is_reserved":false,"is_disabled":false,"rental_uris":{"android":"levelo://app?vid=a2b894b8-59d7-4014-990a-e7e9e07fd3a3","ios":"levelo://app?vid=a2b894b8-59d7-4014-990a-e7e9e07fd3a3"},"vehicle_type_id":"4","last_reported":1749719509,"current_range_meters":20800,"station_id":"ce4bhg92rcd13ifvqf90","pricing_plan_id":"cebpf4jnsgd1na2vs0mg"},{"bike_id":"425a8eb8-00ca-49e7-99e3-f3af7973da4b","system_id":"levelo_inurba_marseille","lat":43.2591,"lon":5.40902,"is_reserved":false,"is_disabled":false,"rental_uris":{"android":"levelo://app?vid=425a8eb8-00ca-49e7-99e3-f3af7973da4b","ios":"levelo://app?vid=425a8eb8-00ca-49e7-99e3-f3af7973da4b"},"vehicle_type_id":"4","last_reported":1749719509,"current_range_meters":20800,"station_id":"ce4bhm92rcd13ifvqglg","pricing_plan_id":"cebpf4jnsgd1na2vs0mg"},{"bike_id":"ce975baf-0203-4cf6-bf49-7eaec3a3fea9","system_id":"levelo_inurba_marseille","lat":43.27491,"lon":5.4245,"is_reserved":false,"is_disabled":false,"rental_uris":{"android":"levelo://app?vid=ce975baf-0203-4cf6-bf49-7eaec3a3fea9","ios":"levelo://app?vid=ce975baf-0203-4cf6-bf49-7eaec3a3fea9"},"vehicle_type_id":"4","last_reported":1749719509,"current_range_meters":20800,"station_id":"ce4bhn92rcd13ifvqgrg","pricing_plan_id":"cebpf4jnsgd1na2vs0mg"},{"bike_id":"5461a303-4f86-430f-908a-acec47a658ac","system_id":"levelo_inurba_marseille","lat":43.29777,"lon":5.39328,"is_reserved":false,"is_disabled":false,"rental_uris":{"android":"levelo://app?vid=5461a303-4f86-430f-908a-acec47a658ac","ios":"levelo://app?vid=5461a303-4f86-430f-908a-acec47a658ac"},"vehicle_type_id":"4","last_reported":1749719509,"current_range_meters":20800,"station_id":"chh1huq6cuj3fo74tm60","pricing_plan_id":"cebpf4jnsgd1na2vs0mg"},{"bike_id":"75d057da-7cde-413f-b40a-ee7fee45594d","system_id":"levelo_inurba_marseille","lat":43.21745,"lon":5.34599,"is_reserved":false,"is_disabled":false,"rental_uris":{"android":"levelo://app?vid=75d057da-7cde-413f-b40a-ee7fee45594d","ios":"levelo://app?vid=75d057da-7cde-413f-b40a-ee7fee45594d"},"vehicle_type_id":"4","last_reported":1749719509,"current_range_meters":21600,"station_id":"","pricing_plan_id":"cebpf4jnsgd1na2vs0mg"},{"bike_id":"210fbd33-5430-4eca-bda4-5313ef77dd80","system_id":"levelo_inurba_marseille","lat":43.3131,"lon":5.39727,"is_reserved":false,"is_disabled":false,"rental_uris":{"android":"levelo://app?vid=210fbd33-5430-4eca-bda4-5313ef77dd80","ios":"levelo://app?vid=210fbd33-5430-4eca-bda4-5313ef77dd80"},"vehicle_type_id":"4","last_reported":1749719509,"current_range_meters":21600,"station_id":"ce4bgvp2rcd13ifvqcu0","pricing_plan_id":"cebpf4jnsgd1na2vs0mg"},{"bike_id":"5142170f-1cbf-4030-ae24-ce631f6d21fc","system_id":"levelo_inurba_marseille","lat":43.30637,"lon":5.40092,"is_reserved":false,"is_disabled":false,"rental_uris":{"android":"levelo://app?vid=5142170f-1cbf-4030-ae24-ce631f6d21fc","ios":"levelo://app?vid=5142170f-1cbf-4030-ae24-ce631f6d21fc"},"vehicle_type_id":"4","last_reported":1749719509,"current_range_meters":21600,"station_id":"ce4bh112rcd13ifvqda0","pricing_plan_id":"cebpf4jnsgd1na2vs0mg"},{"bike_id":"ca9bcfa3-f012-4181-b0a5-33583e63509b","system_id":"levelo_inurba_marseille","lat":43.28038,"lon":5.3695,"is_reserved":false,"is_disabled":false,"rental_uris":{"android":"levelo://app?vid=ca9bcfa3-f012-4181-b0a5-33583e63509b","ios":"levelo://app?vid=ca9bcfa3-f012-4181-b0a5-33583e63509b"},"vehicle_type_id":"4","last_reported":1749719509,"current_range_meters":21600,"station_id":"ce4bha12rcd13ifvqef0","pricing_plan_id":"cebpf4jnsgd1na2vs0mg"},{"bike_id":"758e7696-61b1-4a3d-96b0-3a8ce80d786c","system_id":"levelo_inurba_marseille","lat":43.291931,"lon":5.357997,"is_reserved":false,"is_disabled":false,"rental_uris":{"android":"levelo://app?vid=758e7696-61b1-4a3d-96b0-3a8ce80d786c","ios":"levelo://app?vid=758e7696-61b1-4a3d-96b0-3a8ce80d786c"},"vehicle_type_id":"4","last_reported":1749719509,"current_range_meters":21600,"station_id":"ce4bhb12rcd13ifvqel0","pricing_plan_id":"cebpf4jnsgd1na2vs0mg"},{"bike_id":"247c68d2-bc60-4ebe-a172-a91bfc5e4e36","system_id":"levelo_inurba_marseille","lat":43.319936,"lon":5.381549,"is_reserved":false,"is_disabled":false,"rental_uris":{"android":"levelo://app?vid=247c68d2-bc60-4ebe-a172-a91bfc5e4e36","ios":"levelo://app?vid=247c68d2-bc60-4ebe-a172-a91bfc5e4e36"},"vehicle_type_id":"4","last_reported":1749719509,"current_range_meters":21600,"station_id":"ce4bhr12rcd13ifvqhpg","pricing_plan_id":"cebpf4jnsgd1na2vs0mg"},{"bike_id":"455527f7-d11a-459e-8dee-7288219a6dcc","system_id":"levelo_inurba_marseille","lat":43.29308,"lon":5.37176,"is_reserved":false,"is_disabled":false,"rental_uris":{"android":"levelo://app?vid=455527f7-d11a-459e-8dee-7288219a6dcc","ios":"levelo://app?vid=455527f7-d11a-459e-8dee-7288219a6dcc"},"vehicle_type_id":"4","last_reported":1749719509,"current_range_meters":22000,"station_id":"ce4bgh92rcd13ifvqb40","pricing_plan_id":"cebpf4jnsgd1na2vs0mg"},{"bike_id":"d8e70f2a-618b-4b8e-8099-079551a848a7","system_id":"levelo_inurba_marseille","lat":43.31225,"lon":5.36863,"is_reserved":false,"is_disabled":false,"rental_uris":{"android":"levelo://app?vid=d8e70f2a-618b-4b8e-8099-079551a848a7","ios":"levelo://app?vid=d8e70f2a-618b-4b8e-8099-079551a848a7"},"vehicle_type_id":"4","last_reported":1749719509,"current_range_meters":22000,"station_id":"ce4bgl92rcd13ifvqbq0","pricing_plan_id":"cebpf4jnsgd1na2vs0mg"},