{"last_updated":1736514937,"ttl":60,"version":"2.2","data":{"bikes":[{"bike_id":"0f76e212-d4d6-4f0a-af8c-988bfb1f7f0e","system_id":"levelo_inurba_marseille","lat":43.29221,"lon":5.3932,"is_reserved":false,"is_disabled":false,"rental_uris":{"android":"levelo://app?vid=0f76e212-d4d6-4f0a-af8c-988bfb1f7f0e","ios":"levelo://app?vid=0f76e212-d4d6-4f0a-af8c-988bfb1f7f0e"},"vehicle_type_id":"4","last_reported":1736514937,"current_range_meters":39200,"station_id":"ce4bh192rcd13ifvqdd0","pricing_plan_id":"cebpf4jnsgd1na2vs0mg"},{"bike_id":"e2b3fd38-d142-4ce0-be92-a15441af280b","system_id":"levelo_inurba_marseille","lat":43.28341,"lon":5.38103,"is_reserved":false,"is_disabled":true,"rental_uris":{"android":"levelo://app?vid=e2b3fd38-d142-4ce0-be92-a15441af280b","ios":"levelo://app?vid=e2b3fd38-d142-4ce0-be92-a15441af280b"},"vehicle_type_id":"4","last_reported":1736514937,"current_range_meters":1200,"station_id":"ce4bh412rcd13ifvqdr0","pricing_plan_id":"cebpf4jnsgd1na2vs0mg"},{"bike_id":"9ff24b9e-60a3-48d4-8cde-0ae6dfde2dc8","system_id":"levelo_inurba_marseille","lat":43.330273,"lon":5.39035,"is_reserved":false,"is_disabled":false,"rental_uris":{"android":"levelo://app?vid=9ff24b9e-60a3-48d4-8cde-0ae6dfde2dc8","ios":"levelo://app?vid=9ff24b9e-60a3-48d4-8cde-0ae6dfde2dc8"},"vehicle_type_id":"4","last_reported":1736514937,"current_range_meters":34000,"station_id":"ce4bhr92rcd13ifvqhrg","pricing_plan_id":"cebpf4jnsgd1na2vs0mg"},{"bike_id":"bbabd9f4-0056-40a8-881b-b14292dbcb52","system_id":"levelo_inurba_marseille","lat":43.29248,"lon":5.40918,"is_reserved":false,"is_disabled":false,"rental_uris":{"android":"levelo://app?vid=bbabd9f4-0056-40a8-881b-b14292dbcb52","ios":"levelo://app?vid=bbabd9f4-0056-40a8-881b-b14292dbcb52"},"vehicle_type_id":"4","last_reported":1736514937,"current_range_meters":39200,"station_id":"ce4bh192rcd13ifvqdc0","pricing_plan_id":"cebpf4jnsgd1na2vs0mg"},{"bike_id":"6369c140-3323-465a-a3e4-b9f4b2637437","system_id":"levelo_inurba_marseille","lat":43.25926,"lon":5.40909,"is_reserved":false,"is_disabled":false,"rental_uris":{"android":"levelo://app?vid=6369c140-3323-465a-a3e4-b9f4b2637437","ios":"levelo://app?vid=6369c140-3323-465a-a3e4-b9f4b2637437"},"vehicle_type_id":"4","last_reported":1736514937,"current_range_meters":30000,"station_id":"ce4bhm92rcd13ifvqglg","pricing_plan_id":"cebpf4jnsgd1na2vs0mg"},{"bike_id":"2d6c236c-6962-4db0-8c1c-2f479db973ca","system_id":"levelo_inurba_marseille","lat":43.25825,"lon":5.3944,"is_reserved":false,"is_disabled":false,"rental_uris":{"android":"levelo://app?vid=2d6c236c-6962-4db0-8c1c-2f479db973ca","ios":"levelo://app?vid=2d6c236c-6962-4db0-8c1c-2f479db973ca"},"vehicle_type_id":"4","last_reported":1736514937,"current_range_meters":36800,"station_id":"ce4bhip2rcd13ifvqft0","pricing_plan_id":"cebpf4jnsgd1na2vs0mg"},{"bike_id":"5f54f5aa-f30f-4b3f-860d-3aafa44ee543","system_id":"levelo_inurba_marseille","lat":43.24068,"lon":5.37771,"is_reserved":false,"is_disabled":false,"rental_uris":{"android":"levelo://app?vid=5f54f5aa-f30f-4b3f-860d-3aafa44ee543","ios":"levelo://app?vid=5f54f5aa-f30f-4b3f-860d-3aafa44ee543"},"vehicle_type_id":"4","last_reported":1736514937,"current_range_meters":38800,"station_id":"ce4bhnp2rcd13ifvqgvg","pricing_plan_id":"cebpf4jnsgd1na2vs0mg"},{"bike_id":"c4a7fdf7-5d27-45c1-9206-cbc2c13a640e","system_id":"levelo_inurba_marseille","lat":43.29067,"lon":5.37154,"is_reserved":false,"is_disabled":false,"rental_uris":{"android":"levelo://app?vid=c4a7fdf7-5d27-45c1-9206-cbc2c13a640e","ios":"levelo://app?vid=c4a7fdf7-5d27-45c1-9206-cbc2c13a640e"},"vehicle_type_id":"4","last_reported":1736514937,"current_range_meters":37600,"station_id":"ce4bh5p2rcd13ifvqe4g","pricing_plan_id":"cebpf4jnsgd1na2vs0mg"},{"bike_id":"3db0d231-5ae3-43f1-bf83-bda0d7bf8dc0","system_id":"levelo_inurba_marseille","lat":43.29756,"lon":5.37082,"is_reserved":false,"is_disabled":false,"rental_uris":{"android":"levelo://app?vid=3db0d231-5ae3-43f1-bf83-bda0d7bf8dc0","ios":"levelo://app?vid=3db0d231-5ae3-43f1-bf83-bda0d7bf8dc0"},"vehicle_type_id":"4","last_reported":1736514937,"current_range_meters":37600,"station_id":"ce4bgop2rcd13ifvqc1g","pricing_plan_id":"cebpf4jnsgd1na2vs0mg"},{"bike_id":"6997943a-025f-4730-9c4b-a22ad05a6557","system_id":"levelo_inurba_marseille","lat":43.28272,"lon":5.35094,"is_reserved":false,"is_disabled":false,"rental_uris":{"android":"levelo://app?vid=6997943a-025f-4730-9c4b-a22ad05a6557","ios":"levelo://app?vid=6997943a-025f-4730-9c4b-a22ad05a6557"},"vehicle_type_id":"4","last_reported":1736514937,"current_range_meters":39200,"station_id":"ce4bhbp2rcd13ifvqerg","pricing_plan_id":"cebpf4jnsgd1na2vs0mg"},{"bike_id":"5c8ac476-a788-4ec5-99c0-22a788ce864a","system_id":"levelo_inurba_marseille","lat":43.29524,"lon":5.38547,"is_reserved":false,"is_disabled":false,"rental_uris":{"android":"levelo://app?vid=5c8ac476-a788-4ec5-99c0-22a788ce864a","ios":"levelo://app?vid=5c8ac476-a788-4ec5-99c0-22a788ce864a"},"vehicle_type_id":"4","last_reported":1736514937,"current_range_meters":27200,"station_id":"ce4bgih2rcd13ifvqba0","pricing_plan_id":"cebpf4jnsgd1na2vs0mg"},{"bike_id":"9b9f7a00-78fa-4c6e-9a55-5c7cdd99b601","system_id":"levelo_inurba_marseille","lat":43.28028,"lon":5.36944,"is_reserved":false,"is_disabled":false,"rental_uris":{"android":"levelo://app?vid=9b9f7a00-78fa-4c6e-9a55-5c7cdd99b601","ios":"levelo://app?vid=9b9f7a00-78fa-4c6e-9a55-5c7cdd99b601"},"vehicle_type_id":"4","last_reported":1736514937,"current_range_meters":33200,"station_id":"ce4bha12rcd13ifvqef0","pricing_plan_id":"cebpf4jnsgd1na2vs0mg"},{"bike_id":"eed92d9c-51b1-48f5-9186-3610b66c50c4","system_id":"levelo_inurba_marseille","lat":43.29254,"lon":5.40896,"is_reserved":false,"is_disabled":false,"rental_uris":{"android":"levelo://app?vid=eed92d9c-51b1-48f5-9186-3610b66c50c4","ios":"levelo://app?vid=eed92d9c-51b1-48f5-9186-3610b66c50c4"},"vehicle_type_id":"4","last_reported":1736514937,"current_range_meters":28000,"station_id":"ce4bh192rcd13ifvqdc0","pricing_plan_id":"cebpf4jnsgd1na2vs0mg"},{"bike_id":"4264f285-5e2d-4fba-973d-d50121b8728c","system_id":"levelo_inurba_marseille","lat":43.29273,"lon":5.40119,"is_reserved":false,"is_disabled":false,"rental_uris":{"android":"levelo://app?vid=4264f285-5e2d-4fba-973d-d50121b8728c","ios":"levelo://app?vid=4264f285-5e2d-4fba-973d-d50121b8728c"},"vehicle_type_id":"4","last_reported":1736514937,"current_range_meters":4000,"station_id":"ce4bh312rcd13ifvqdk0","pricing_plan_id":"cebpf4jnsgd1na2vs0mg"},{"bike_id":"38cdaa98-c0b1-49c7-979d-de4768f275b1","system_id":"levelo_inurba_marseille","lat":43.287187,"lon":5.379437,"is_reserved":false,"is_disabled":false,"rental_uris":{"android":"levelo://app?vid=38cdaa98-c0b1-49c7-979d-de4768f275b1","ios":"levelo://app?vid=38cdaa98-c0b1-49c7-979d-de4768f275b1"},"vehicle_type_id":"4","last_reported":1736514937,"current_range_meters":8400,"station_id":"ce4bh9p2rcd13ifvqec0","pricing_plan_id":"cebpf4jnsgd1na2vs0mg"},{"bike_id":"04745ce5-c863-4d05-a4b1-70a293af40c0","system_id":"levelo_inurba_marseille","lat":43.2925,"lon":5.40908,"is_reserved":false,"is_disabled":false,"rental_uris":{"android":"levelo://app?vid=04745ce5-c863-4d05-a4b1-70a293af40c0","ios":"levelo://app?vid=04745ce5-c863-4d05-a4b1-70a293af40c0"},"vehicle_type_id":"4","last_reported":1736514937,"current_range_meters":9600,"station_id":"ce4bh192rcd13ifvqdc0","pricing_plan_id":"cebpf4jnsgd1na2vs0mg"},{"bike_id":"004c2ac5-7f25-4e48-8a80-9a02537f6ba6","system_id":"levelo_inurba_marseille","lat":43.32091,"lon":5.36788,"is_reserved":false,"is_disabled":false,"rental_uris":{"android":"levelo://app?vid=004c2ac5-7f25-4e48-8a80-9a02537f6ba6","ios":"levelo://app?vid=004c2ac5-7f25-4e48-8a80-9a02537f6ba6"},"vehicle_type_id":"4","last_reported":1736514937,"current_range_meters":36000,"station_id":"ce4bhrh2rcd13ifvqhug","pricing_plan_id":"cebpf4jnsgd1na2vs0mg"},{"bike_id":"44c06cf5-53b4-4d6c-a76e-d21df06ce45b","system_id":"levelo_inurba_marseille","lat":43.26235,"lon":5.3745,"is_reserved":false,"is_disabled":false,"rental_uris":{"android":"levelo://app?vid=44c06cf5-53b4-4d6c-a76e-d21df06ce45b","ios":"levelo://app?vid=44c06cf5-53b4-4d6c-a76e-d21df06ce45b"},"vehicle_type_id":"4","last_reported":1736514937,"current_range_meters":29600,"station_id":"","pricing_plan_id":"cebpf4jnsgd1na2vs0mg"},{"bike_id":"49d154ab-b066-4a04-b00a-22a27742a39e","system_id":"levelo_inurba_marseille","lat":43.24175,"lon":5.39733,"is_reserved":false,"is_disabled":false,"rental_uris":{"android":"levelo://app?vid=49d154ab-b066-4a04-b00a-22a27742a39e","ios":"levelo://app?vid=49d154ab-b066-4a04-b00a-22a27742a39e"},"vehicle_type_id":"4","last_reported":1736514937,"current_range_meters":38800,"station_id":"ce4bhn12rcd13ifvqgpg","pricing_plan_id":"cebpf4jnsgd1na2vs0mg"},{"bike_id":"72ecc5ed-b1d8-4329-b672-c35e91ae155c","system_id":"levelo_inurba_marseille","lat":43.30258,"lon":5.37734,"is_reserved":false,"is_disabled":false,"rental_uris":{"android":"levelo://app?vid=72ecc5ed-b1d8-4329-b672-c35e91ae155c","ios":"levelo://app?vid=72ecc5ed-b1d8-4329-b672-c35e91ae155c"},"vehicle_type_id":"4","last_reported":1736514937,"current_range_meters":13600,"station_id":"ce4bguh2rcd13ifvqcj0","pricing_plan_id":"cebpf4jnsgd1na2vs0mg"},{"bike_id":"9ba9b015-c1d3-4202-9813-5166f411a487","system_id":"levelo_inurba_marseille","lat":43.29269,"lon":5.36849,"is_reserved":false,"is_disabled":false,"rental_uris":{"android":"levelo://app?vid=9ba9b015-c1d3-4202-9813-5166f411a487","ios":"levelo://app?vid=9ba9b015-c1d3-4202-9813-5166f411a487"},"vehicle_type_id":"4","last_reported":1736514937,"current_range_meters":19200,"station_id":"ce4bhbp2rcd13ifvqesg","pricing_plan_id":"cebpf4jnsgd1na2vs0mg"},{"bike_id":"9f35e75c-ba6d-4f8b-b521-eefbbebfb95e","system_id":"levelo_inurba_marseille","lat":43.24663,"lon":5.38153,"is_reserved":false,"is_disabled":false,"rental_uris":{"android":"levelo://app?vid=9f35e75c-ba6d-4f8b-b521-eefbbebfb95e","ios":"levelo://app?vid=9f35e75c-ba6d-4f8b-b521-eefbbebfb95e"},"vehicle_type_id":"4","last_reported":1736514937,"current_range_meters":16400,"station_id":"ce4bhih2rcd13ifvqfr0","pricing_plan_id":"cebpf4jnsgd1na2vs0mg"},{"bike_id":"988b7cb0-259d-4e88-aa5a-215b510674ff","system_id":"levelo_inurba_marseille","lat":43.28834,"lon":5.35843,"is_reserved":false,"is_disabled":false,"rental_uris":{"android":"levelo://app?vid=988b7cb0-259d-4e88-aa5a-215b510674ff","ios":"levelo://app?vid=988b7cb0-259d-4e88-aa5a-215b510674ff"},"vehicle_type_id":"4","last_reported":1736514937,"current_range_meters":16800,"station_id":"ce4bhb12rcd13ifvqem0","pricing_plan_id":"cebpf4jnsgd1na2vs0mg"},{"bike_id":"bd23ba2f-bea5-46b2-ac92-163ad121c7de","system_id":"levelo_inurba_marseille","lat":43.28944,"lon":5.36618,"is_reserved":false,"is_disabled":false,"rental_uris":{"android":"levelo://app?vid=bd23ba2f-bea5-46b2-ac92-163ad121c7de","ios":"levelo://app?vid=bd23ba2f-bea5-46b2-ac92-163ad121c7de"},"vehicle_type_id":"4","last_reported":1736514937,"current_range_meters":16400,"station_id":"ce4bhap2rcd13ifvqek0","pricing_plan_id":"cebpf4jnsgd1na2vs0mg"},{"bike_id":"b696ba41-b5d2-4648-9e5a-4e638929fba0","system_id":"levelo_inurba_marseille","lat":43.24072,"lon":5.37764,"is_reserved":false,"is_disabled":false,"rental_uris":{"android":"levelo://app?vid=b696ba41-b5d2-4648-9e5a-4e638929fba0","ios":"levelo://app?vid=b696ba41-b5d2-4648-9e5a-4e638929fba0"},"vehicle_type_id":"4","last_reported":1736514937,"current_range_meters":24000,"station_id":"ce4bhnp2rcd13ifvqgvg","pricing_plan_id":"cebpf4jnsgd1na2vs0mg"},{"bike_id":"cdcdb287-81f9-4597-9351-d772c617e558","system_id":"levelo_inurba_marseille","lat":43.31374,"lon":5.36722,"is_reserved":false,"is_disabled":false,"rental_uris":{"android":"levelo://app?vid=cdcdb287-81f9-4597-9351-d772c617e558","ios":"levelo://app?vid=cdcdb287-81f9-4597-9351-d772c617e558"},"vehicle_type_id":"4","last_reported":1736514937,"current_range_meters":38000,"station_id":"ce4bgr92rcd13ifvqc6g","pricing_plan_id":"cebpf4jnsgd1na2vs0mg"},{"bike_id":"dc6f076d-fe55-4e1d-b50b-4ffd6cd21346","system_id":"levelo_inurba_marseille","lat":43.30905,"lon":5.36846,"is_reserved":false,"is_disabled":false,"rental_uris":{"android":"levelo://app?vid=dc6f076d-fe55-4e1d-b50b-4ffd6cd21346","ios":"levelo://app?vid=dc6f076d-fe55-4e1d-b50b-4ffd6cd21346"},"vehicle_type_id":"4","last_reported":1736514937,"current_range_meters":39200,"station_id":"ce4bgn92rcd13ifvqbvg","pricing_plan_id":"cebpf4jnsgd1na2vs0mg"},{"bike_id":"9d5535df-7edb-47f9-ac14-54793dd626e0","system_id":"levelo_inurba_marseille","lat":43.22938,"lon":5.35384,"is_reserved":false,"is_disabled":false,"rental_uris":{"android":"levelo://app?vid=9d5535df-7edb-47f9-ac14-54793dd626e0","ios":"levelo://app?vid=9d5535df-7edb-47f9-ac14-54793dd626e0"},"vehicle_type_id":"4","last_reported":1736514937,"current_range_meters":24800,"station_id":"cpo3532slgdg3j2ikp40","pricing_plan_id":"cebpf4jnsgd1na2vs0mg"},{"bike_id":"6ada457e-3b8a-40a0-b08a-325f7cea186f","system_id":"levelo_inurba_marseille","lat":43.27495,"lon":5.42451,"is_reserved":false,"is_disabled":false,"rental_uris":{"android":"levelo://app?vid=6ada457e-3b8a-40a0-b08a-325f7cea186f","ios":"levelo://app?vid=6ada457e-3b8a-40a0-b08a-325f7cea186f"},"vehicle_type_id":"4","last_reported":1736514937,"current_range_meters":30400,"station_id":"ce4bhn92rcd13ifvqgrg","pricing_plan_id":"cebpf4jnsgd1na2vs0mg"},{"bike_id":"6b750947-fb43-40e2-9931-495446cc2b3f","system_id":"levelo_inurba_marseille","lat":43.22924,"lon":5.35376,"is_reserved":false,"is_disabled":true,"rental_uris":{"android":"levelo://app?vid=6b750947-fb43-40e2-9931-495446cc2b3f","ios":"levelo://app?vid=6b750947-fb43-40e2-9931-495446cc2b3f"},"vehicle_type_id":"4","last_reported":1736514937,"current_range_meters":0,"station_id":"cpo3532slgdg3j2ikp40","pricing_plan_id":"cebpf4jnsgd1na2vs0mg"},{"bike_id":"79195621-a3d8-4750-bafe-68914d6ba656","system_id":"levelo_inurba_marseille","lat":43.30536,"lon":5.36546,"is_reserved":false,"is_disabled":false,"rental_uris":{"android":"levelo://app?vid=79195621-a3d8-4750-bafe-68914d6ba656","ios":"levelo://app?vid=79195621-a3d8-4750-bafe-68914d6ba656"},"vehicle_type_id":"4","last_reported":1736514937,"current_range_meters":33200,"station_id":"ce4bgs12rcd13ifvqcag","pricing_plan_id":"cebpf4jnsgd1na2vs0mg"},{"bike_id":"a695196c-79fc-477c-ba43-5e8d0411f6ec","system_id":"levelo_inurba_marseille","lat":43.30212,"lon":5.39473,"is_reserved":false,"is_disabled":false,"rental_uris":{"android":"levelo://app?vid=a695196c-79fc-477c-ba43-5e8d0411f6ec","ios":"levelo://app?vid=a695196c-79fc-477c-ba43-5e8d0411f6ec"},"vehicle_type_id":"4","last_reported":1736514937,"current_range_meters":38000,"station_id":"ce4bh0p2rcd13ifvqd70","pricing_plan_id":"cebpf4jnsgd1na2vs0mg"},{"bike_id":"5b79b006-d7c3-4b04-9541-c9d77e2d63cb","system_id":"levelo_inurba_marseille","lat":43.31703,"lon":5.40466,"is_reserved":false,"is_disabled":true,"rental_uris":{"android":"levelo://app?vid=5b79b006-d7c3-4b04-9541-c9d77e2d63cb","ios":"levelo://app?vid=5b79b006-d7c3-4b04-9541-c9d77e2d63cb"},"vehicle_type_id":"4","last_reported":1736514937,"current_range_meters":17200,"station_id":"ce4bh012rcd13ifvqd00","pricing_plan_id":"cebpf4jnsgd1na2vs0mg"},{"bike_id":"d0eaaac0-f629-4cc0-bfb0-914c5628a3a9","system_id":"levelo_inurba_marseille","lat":43.27491,"lon":5.42451,"is_reserved":false,"is_disabled":false,"rental_uris":{"android":"levelo://app?vid=d0eaaac0-f629-4cc0-bfb0-914c5628a3a9","ios":"levelo://app?vid=d0eaaac0-f629-4cc0-bfb0-914c5628a3a9"},"vehicle_type_id":"4","last_reported":1736514937,"current_range_meters":24800,"station_id":"ce4bhn92rcd13ifvqgrg","pricing_plan_id":"cebpf4jnsgd1na2vs0mg"},{"bike_id":"dbe4d7d2-95f9-4a28-b000-f9ac7c3f52eb","system_id":"levelo_inurba_marseille","lat":43.29192,"lon":5.39323,"is_reserved":false,"is_disabled":true,"rental_uris":{"android":"levelo://app?vid=dbe4d7d2-95f9-4a28-b000-f9ac7c3f52eb","ios":"levelo://app?vid=dbe4d7d2-95f9-4a28-b000-f9ac7c3f52eb"},"vehicle_type_id":"4","last_reported":1736514937,"current_range_meters":0,"station_id":"ce4bh192rcd13ifvqdd0","pricing_plan_id":"cebpf4jnsgd1na2vs0mg"},{"bike_id":"4af16076-0c4c-4b77-bf13-a9dfad761f4a","system_id":"levelo_inurba_marseille","lat":43.260284,"lon":5.37557,"is_reserved":false,"is_disabled":false,"rental_uris":{"android":"levelo://app?vid=4af16076-0c4c-4b77-bf13-a9dfad761f4a","ios":"levelo://app?vid=4af16076-0c4c-4b77-bf13-a9dfad761f4a"},"vehicle_type_id":"4","last_reported":1736514937,"current_range_meters":35200,"station_id":"ce4bhgh2rcd13ifvqfa0","pricing_plan_id":"cebpf4jnsgd1na2vs0mg"},{"bike_id":"632e1042-ceea-4f8e-8e30-863377ea6a06","system_id":"levelo_inurba_marseille","lat":43.29269,"lon":5.40142,"is_reserved":false,"is_disabled":false,"rental_uris":{"android":"levelo://app?vid=632e1042-ceea-4f8e-8e30-863377ea6a06","ios":"levelo://app?vid=632e1042-ceea-4f8e-8e30-863377ea6a06"},"vehicle_type_id":"4","last_reported":1736514937,"current_range_meters":26800,"station_id":"ce4bh312rcd13ifvqdk0","pricing_plan_id":"cebpf4jnsgd1na2vs0mg"},{"bike_id":"6d907632-b7a4-409f-98d5-031bae93ab87","system_id":"levelo_inurba_marseille","lat":43.23962,"lon":5.36629,"is_reserved":false,"is_disabled":false,"rental_uris":{"android":"levelo://app?vid=6d907632-b7a4-409f-98d5-031bae93ab87","ios":"levelo://app?vid=6d907632-b7a4-409f-98d5-031bae93ab87"},"vehicle_type_id":"4","last_reported":1736514937,"current_range_meters":38800,"station_id":"ce4bhi12rcd13ifvqfp0","pricing_plan_id":"cebpf4jnsgd1na2vs0mg"},{"bike_id":"7a2a77eb-5ba6-4047-9c60-3361f54b1786","system_id":"levelo_inurba_marseille","lat":43.28992,"lon":5.37832,"is_reserved":false,"is_disabled":false,"rental_uris":{"android":"levelo://app?vid=7a2a77eb-5ba6-4047-9c60-3361f54b1786","ios":"levelo://app?vid=7a2a77eb-5ba6-4047-9c60-3361f54b1786"},"vehicle_type_id":"4","last_reported":1736514937,"current_range_meters":16400,"station_id":"ce4bh9p2rcd13ifvqed0","pricing_plan_id":"cebpf4jnsgd1na2vs0mg"},{"bike_id":"237b367f-69c6-422c-b184-44b6091e4d4e","system_id":"levelo_inurba_marseille","lat":43.2396,"lon":5.36633,"is_reserved":false,"is_disabled":false,"rental_uris":{"android":"levelo://app?vid=237b367f-69c6-422c-b184-44b6091e4d4e","ios":"levelo://app?vid=237b367f-69c6-422c-b184-44b6091e4d4e"},"vehicle_type_id":"4","last_reported":1736514937,"current_range_meters":28000,"station_id":"ce4bhi12rcd13ifvqfp0","pricing_plan_id":"cebpf4jnsgd1na2vs0mg"},{"bike_id":"e317371f-3cb8-4455-a218-71b01dcac120","system_id":"levelo_inurba_marseille","lat":43.29546,"lon":5.37502,"is_reserved":false,"is_disabled":false,"rental_uris":{"android":"levelo://app?vid=e317371f-3cb8-4455-a218-71b01dcac120","ios":"levelo://app?vid=e317371f-3cb8-4455-a218-71b01dcac120"},"vehicle_type_id":"4","last_reported":1736514937,"current_range_meters":33600,"station_id":"ce4bgkp2rcd13ifvqbmg","pricing_plan_id":"cebpf4jnsgd1na2vs0mg"},{"bike_id":"1300a8a3-fb17-4b4a-84c2-63bc6fc5df1f","system_id":"levelo_inurba_marseille","lat":43.24544,"lon":5.39527,"is_reserved":false,"is_disabled":false,"rental_uris":{"android":"levelo://app?vid=1300a8a3-fb17-4b4a-84c2-63bc6fc5df1f","ios":"levelo://app?vid=1300a8a3-fb17-4b4a-84c2-63bc6fc5df1f"},"vehicle_type_id":"4","last_reported":1736514937,"current_range_meters":38800,"station_id":"ce4bhlp2rcd13ifvqgjg","pricing_plan_id":"cebpf4jnsgd1na2vs0mg"},{"bike_id":"60c97533-95bd-4324-a21f-a804a4e55da7","system_id":"levelo_inurba_marseille","lat":43.2668,"lon":5.38275,"is_reserved":false,"is_disabled":false,"rental_uris":{"android":"levelo://app?vid=60c97533-95bd-4324-a21f-a804a4e55da7","ios":"levelo://app?vid=60c97533-95bd-4324-a21f-a804a4e55da7"},"vehicle_type_id":"4","last_reported":1736514937,"current_range_meters":32800,"station_id":"ce4bhg92rcd13ifvqf90","pricing_plan_id":"cebpf4jnsgd1na2vs0mg"},{"bike_id":"3f694d6d-b605-4a3c-b425-a2d6fd911706","system_id":"levelo_inurba_marseille","lat":43.28142,"lon":5.42648,"is_reserved":false,"is_disabled":false,"rental_uris":{"android":"levelo://app?vid=3f694d6d-b605-4a3c-b425-a2d6fd911706","ios":"levelo://app?vid=3f694d6d-b605-4a3c-b425-a2d6fd911706"},"vehicle_type_id":"4","last_reported":1736514937,"current_range_meters":35600,"station_id":"ce4bhnh2rcd13ifvqgug","pricing_plan_id":"cebpf4jnsgd1na2vs0mg"},{"bike_id":"2a6e77ec-3b63-4f3f-bd7d-50c949059e82","system_id":"levelo_inurba_marseille","lat":43.27416,"lon":5.39413,"is_reserved":false,"is_disabled":false,"rental_uris":{"android":"levelo://app?vid=2a6e77ec-3b63-4f3f-bd7d-50c949059e82","ios":"levelo://app?vid=2a6e77ec-3b63-4f3f-bd7d-50c949059e82"},"vehicle_type_id":"4","last_reported":1736514937,"current_range_meters":38400,"station_id":"ce4bhdp2rcd13ifvqf20","pricing_plan_id":"cebpf4jnsgd1na2vs0mg"},{"bike_id":"dc7c3254-8743-46e0-83e6-a66225f60699","system_id":"levelo_inurba_marseille","lat":43.31241,"lon":5.36885,"is_reserved":false,"is_disabled":false,"rental_uris":{"android":"levelo://app?vid=dc7c3254-8743-46e0-83e6-a66225f60699","ios":"levelo://app?vid=dc7c3254-8743-46e0-83e6-a66225f60699"},"vehicle_type_id":"4","last_reported":1736514937,"current_range_meters":26800,"station_id":"ce4bgl92rcd13ifvqbq0","pricing_plan_id":"cebpf4jnsgd1na2vs0mg"},{"bike_id":"426ee80e-06b0-4d0f-86a5-ea8ad64aaa11","system_id":"levelo_inurba_marseille","lat":43.289178,"lon":5.437805,"is_reserved":false,"is_disabled":false,"rental_uris":{"android":"levelo://app?vid=426ee80e-06b0-4d0f-86a5-ea8ad64aaa11","ios":"levelo://app?vid=426ee80e-06b0-4d0f-86a5-ea8ad64aaa11"},"vehicle_type_id":"4","last_reported":1736514937,"current_range_meters":21600,"station_id":"","pricing_plan_id":"cebpf4jnsgd1na2vs0mg"},{"bike_id":"26e99618-7509-4292-89a6-e22bb8ba9da0","system_id":"levelo_inurba_marseille","lat":43.33772,"lon":5.37438,"is_reserved":false,"is_disabled":false,"rental_uris":{"android":"levelo://app?vid=26e99618-7509-4292-89a6-e22bb8ba9da0","ios":"levelo://app?vid=26e99618-7509-4292-89a6-e22bb8ba9da0"},"vehicle_type_id":"4","last_reported":1736514937,"current_range_meters":38400,"station_id":"","pricing_plan_id":"cebpf4jnsgd1na2vs0mg"},{"bike_id":"2977bbcd-113d-43a7-9780-de2fb14de1e7","system_id":"levelo_inurba_marseille","lat":43.29288,"lon":5.37445,"is_reserved":false,"is_disabled":false,"rental_uris":{"android":"levelo://app?vid=2977bbcd-113d-43a7-9780-de2fb14de1e7","ios":"levelo://app?vid=2977bbcd-113d-43a7-9780-de2fb14de1e7"},"vehicle_type_id":"4","last_reported":1736514937,"current_range_meters":38400,"station_id":"ce4bgi12rcd13ifvqb70","pricing_plan_id":"cebpf4jnsgd1na2vs0mg"},{"bike_id":"a4ffdd65-efc3-4db8-9327-ded15e19a698","system_id":"levelo_inurba_marseille","lat":43.30439,"lon":5.39749,"is_reserved":false,"is_disabled":false,"rental_uris":{"android":"levelo://app?vid=a4ffdd65-efc3-4db8-9327-ded15e19a698","ios":"levelo://app?vid=a4ffdd65-efc3-4db8-9327-ded15e19a698"},"vehicle_type_id":"4","last_reported":1736514937,"current_range_meters":20400,"station_id":"ce4bh092rcd13ifvqd20","pricing_plan_id":"cebpf4jnsgd1na2vs0mg"},{"bike_id":"4b63a2de-fb6d-4d99-a67a-7732200ce7d3","system_id":"levelo_inurba_marseille","lat":43.29935,"lon":5.36527,"is_reserved":false,"is_disabled":false,"rental_uris":{"android":"levelo://app?vid=4b63a2de-fb6d-4d99-a67a-7732200ce7d3","ios":"levelo://app?vid=4b63a2de-fb6d-4d99-a67a-7732200ce7d3"},"vehicle_type_id":"4","last_reported":1736514937,"current_range_meters":33600,"station_id":"ce4bgm92rcd13ifvqbr0","pricing_plan_id":"cebpf4jnsgd1na2vs0mg"},{"bike_id":"a573ac9a-0de4-4805-8363-d95a44e8e1d1","system_id":"levelo_inurba_marseille","lat":43.28484,"lon":5.38167,"is_reserved":false,"is_disabled":false,"rental_uris":{"android":"levelo://app?vid=a573ac9a-0de4-4805-8363-d95a44e8e1d1","ios":"levelo://app?vid=a573ac9a-0de4-4805-8363-d95a44e8e1d1"},"vehicle_type_id":"4","last_reported":1736514937,"current_range_meters":38000,"station_id":"ce4bgl12rcd13ifvqbo0","pricing_plan_id":"cebpf4jnsgd1na2vs0mg"},{"bike_id":"2ff4e172-01b2-4ce7-ac46-4fbccfd6169d","system_id":"levelo_inurba_marseille","lat":43.29189,"lon":5.39307,"is_reserved":false,"is_disabled":false,"rental_uris":{"android":"levelo://app?vid=2ff4e172-01b2-4ce7-ac46-4fbccfd6169d","ios":"levelo://app?vid=2ff4e172-01b2-4ce7-ac46-4fbccfd6169d"},"vehicle_type_id":"4","last_reported":1736514937,"current_range_meters":38800,"station_id":"ce4bh192rcd13ifvqdd0","pricing_plan_id":"cebpf4jnsgd1na2vs0mg"},{"bike_id":"ce1cbfca-a1ba-4987-834e-2bac6c97e5ff","system_id":"levelo_inurba_marseille","lat":43.26961,"lon":5.38647,"is_reserved":false,"is_disabled":false,"rental_uris":{"android":"levelo://app?vid=ce1cbfca-a1ba-4987-834e-2bac6c97e5ff","ios":"levelo://app?vid=ce1cbfca-a1ba-4987-834e-2bac6c97e5ff"},"vehicle_type_id":"4","last_reported":1736514937,"current_range_meters":25200,"station_id":"ce4bhh92rcd13ifvqfh0","pricing_plan_id":"cebpf4jnsgd1na2vs0mg"},{"bike_id":"2837a76e-1964-41aa-834f-ffc821525c0d","system_id":"levelo_inurba_marseille","lat":43.31279,"lon":5.36856,"is_reserved":false,"is_disabled":false,"rental_uris":{"android":"levelo://app?vid=2837a76e-1964-41aa-834f-ffc821525c0d","ios":"levelo://app?vid=2837a76e-1964-41aa-834f-ffc821525c0d"},"vehicle_type_id":"4","last_reported":1736514937,"current_range_meters":38800,"station_id":"","pricing_plan_id":"cebpf4jnsgd1na2vs0mg"},{"bike_id":"f0b359f5-9665-428e-82a8-60c464a70a9c","system_id":"levelo_inurba_marseille","lat":43.26942,"lon":5.4024,"is_reserved":false,"is_disabled":false,"rental_uris":{"android":"levelo://app?vid=f0b359f5-9665-428e-82a8-60c464a70a9c","ios":"levelo://app?vid=f0b359f5-9665-428e-82a8-60c464a70a9c"},"vehicle_type_id":"4","last_reported":1736514937,"current_range_meters":38800,"station_id":"cjm6bp8fraef2m0cb0m0","pricing_plan_id":"cebpf4jnsgd1na2vs0mg"},{"bike_id":"88472096-b5e0-4d06-a84a-d349a2857239","system_id":"levelo_inurba_marseille","lat":43.31095,"lon":5.40083,"is_reserved":false,"is_disabled":false,"rental_uris":{"android":"levelo://app?vid=88472096-b5e0-4d06-a84a-d349a2857239","ios":"levelo://app?vid=88472096-b5e0-4d06-a84a-d349a2857239"},"vehicle_type_id":"4","last_reported":1736514937,"current_range_meters":28800,"station_id":"","pricing_plan_id":"cebpf4jnsgd1na2vs0mg"},{"bike_id":"e662f410-002e-4ddd-a73b-d91d78e1c666","system_id":"levelo_inurba_marseille","lat":43.31255,"lon":5.36869,"is_reserved":false,"is_disabled":false,"rental_uris":{"android":"levelo://app?vid=e662f410-002e-4ddd-a73b-d91d78e1c666","ios":"levelo://app?vid=e662f410-002e-4ddd-a73b-d91d78e1c666"},"vehicle_type_id":"4","last_reported":1736514937,"current_range_meters":23200,"station_id":"ce4bgl92rcd13ifvqbq0","pricing_plan_id":"cebpf4jnsgd1na2vs0mg"},{"bike_id":"56a96758-d8b3-4676-af64-436e0eee318d","system_id":"levelo_inurba_marseille","lat":43.28986,"lon":5.37831,"is_reserved":false,"is_disabled":false,"rental_uris":{"android":"levelo://app?vid=56a96758-d8b3-4676-af64-436e0eee318d","ios":"levelo://app?vid=56a96758-d8b3-4676-af64-436e0eee318d"},"vehicle_type_id":"4","last_reported":1736514937,"current_range_meters":21600,"station_id":"ce4bh9p2rcd13ifvqed0","pricing_plan_id":"cebpf4jnsgd1na2vs0mg"},{"bike_id":"afe1dfde-0d60-4886-b6a1-cd2ad9b42bf7","system_id":"levelo_inurba_marseille","lat":43.31507,"lon":5.38951,"is_reserved":false,"is_disabled":false,"rental_uris":{"android":"levelo://app?vid=afe1dfde-0d60-4886-b6a1-cd2ad9b42bf7","ios":"levelo://app?vid=afe1dfde-0d60-4886-b6a1-cd2ad9b42bf7"},"vehicle_type_id":"4","last_reported":1736514937,"current_range_meters":29600,"station_id":"","pricing_plan_id":"cebpf4jnsgd1na2vs0mg"},{"bike_id":"6b9aab4d-6f68-4915-9384-3068df5758a7","system_id":"levelo_inurba_marseille","lat":43.26776,"lon":5.3942,"is_reserved":false,"is_disabled":false,"rental_uris":{"android":"levelo://app?vid=6b9aab4d-6f68-4915-9384-3068df5758a7","ios":"levelo://app?vid=6b9aab4d-6f68-4915-9384-3068df5758a7"},"vehicle_type_id":"4","last_reported":1736514937,"current_range_meters":20800,"station_id":"ce4bhh12rcd13ifvqfg0","pricing_plan_id":"cebpf4jnsgd1na2vs0mg"},{"bike_id":"43bc90f5-c805-4d4b-8897-6568d7ddd388","system_id":"levelo_inurba_marseille","lat":43.29307,"lon":5.37183,"is_reserved":false,"is_disabled":false,"rental_uris":{"android":"levelo://app?vid=43bc90f5-c805-4d4b-8897-6568d7ddd388","ios":"levelo://app?vid=43bc90f5-c805-4d4b-8897-6568d7ddd388"},"vehicle_type_id":"4","last_reported":1736514937,"current_range_meters":28000,"station_id":"ce4bgh92rcd13ifvqb40","pricing_plan_id":"cebpf4jnsgd1na2vs0mg"},{"bike_id":"20af3b90-c398-42e7-b965-6b12fdd17dbc","system_id":"levelo_inurba_marseille","lat":43.23147,"lon":5.43721,"is_reserved":false,"is_disabled":false,"rental_uris":{"android":"levelo://app?vid=20af3b90-c398-42e7-b965-6b12fdd17dbc","ios":"levelo://app?vid=20af3b90-c398-42e7-b965-6b12fdd17dbc"},"vehicle_type_id":"4","last_reported":1736514937,"current_range_meters":26000,"station_id":"ce4bhmp2rcd13ifvqgog","pricing_plan_id":"cebpf4jnsgd1na2vs0mg"},{"bike_id":"ba52cb2b-e7d4-4aa5-bffb-8e2d468bfeae","system_id":"levelo_inurba_marseille","lat":43.28481,"lon":5.38545,"is_reserved":false,"is_disabled":false,"rental_uris":{"android":"levelo://app?vid=ba52cb2b-e7d4-4aa5-bffb-8e2d468bfeae","ios":"levelo://app?vid=ba52cb2b-e7d4-4aa5-bffb-8e2d468bfeae"},"vehicle_type_id":"4","last_reported":1736514937,"current_range_meters":24800,"station_id":"ce4bh8p2rcd13ifvqeb0","pricing_plan_id":"cebpf4jnsgd1na2vs0mg"},{"bike_id":"05fc5a6b-940e-41da-82a1-7012bc0365ac","system_id":"levelo_inurba_marseille","lat":43.3055,"lon":5.38432,"is_reserved":false,"is_disabled":false,"rental_uris":{"android":"levelo://app?vid=05fc5a6b-940e-41da-82a1-7012bc0365ac","ios":"levelo://app?vid=05fc5a6b-940e-41da-82a1-7012bc0365ac"},"vehicle_type_id":"4","last_reported":1736514937,"current_range_meters":14800,"station_id":"ce4bgg92rcd13ifvqb30","pricing_plan_id":"cebpf4jnsgd1na2vs0mg"},{"bike_id":"eccda36e-f31d-4d01-b219-d2103b9a6ede","system_id":"levelo_inurba_marseille","lat":43.276,"lon":5.36132,"is_reserved":false,"is_disabled":false,"rental_uris":{"android":"levelo://app?vid=eccda36e-f31d-4d01-b219-d2103b9a6ede","ios":"levelo://app?vid=eccda36e-f31d-4d01-b219-d2103b9a6ede"},"vehicle_type_id":"4","last_reported":1736514937,"current_range_meters":39200,"station_id":"ce4bgj92rcd13ifvqbe0","pricing_plan_id":"cebpf4jnsgd1na2vs0mg"},{"bike_id":"6c16b955-c13c-49a6-a5bb-29559922d02c","system_id":"levelo_inurba_marseille","lat":43.23961,"lon":5.36625,"is_reserved":false,"is_disabled":false,"rental_uris":{"android":"levelo://app?vid=6c16b955-c13c-49a6-a5bb-29559922d02c","ios":"levelo://app?vid=6c16b955-c13c-49a6-a5bb-29559922d02c"},"vehicle_type_id":"4","last_reported":1736514937,"current_range_meters":25200,"station_id":"ce4bhi12rcd13ifvqfp0","pricing_plan_id":"cebpf4jnsgd1na2vs0mg"},{"bike_id":"e5b661c0-5639-40a4-90a1-dcef1f99f698","system_id":"levelo_inurba_marseille","lat":43.30455,"lon":5.37893,"is_reserved":false,"is_disabled":false,"rental_uris":{"android":"levelo://app?vid=e5b661c0-5639-40a4-90a1-dcef1f99f698","ios":"levelo://app?vid=e5b661c0-5639-40a4-90a1-dcef1f99f698"},"vehicle_type_id":"4","last_reported":1736514937,"current_range_meters":33600,"station_id":"ce4bgup2rcd13ifvqcn0","pricing_plan_id":"cebpf4jnsgd1na2vs0mg"},{"bike_id":"dd95b172-24fd-4056-9bb1-1ba37d74b460","system_id":"levelo_inurba_marseille","lat":43.25565,"lon":5.38228,"is_reserved":false,"is_disabled":false,"rental_uris":{"android":"levelo://app?vid=dd95b172-24fd-4056-9bb1-1ba37d74b460","ios":"levelo://app?vid=dd95b172-24fd-4056-9bb1-1ba37d74b460"},"vehicle_type_id":"4","last_reported":1736514937,"current_range_meters":16400,"station_id":"ce4bhih2rcd13ifvqfs0","pricing_plan_id":"cebpf4jnsgd1na2vs0mg"},{"bike_id":"f855b3c7-bb28-49f6-9220-1d3a28048c8b","system_id":"levelo_inurba_marseille","lat":43.23169,"lon":5.39932,"is_reserved":false,"is_disabled":false,"rental_uris":{"android":"levelo://app?vid=f855b3c7-bb28-49f6-9220-1d3a28048c8b","ios":"levelo://app?vid=f855b3c7-bb28-49f6-9220-1d3a28048c8b"},"vehicle_type_id":"4","last_reported":1736514937,"current_range_meters":19600,"station_id":"","pricing_plan_id":"cebpf4jnsgd1na2vs0mg"},{"bike_id":"aee1fd51-a7d9-405d-aab1-354cf70caa77","system_id":"levelo_inurba_marseille","lat":43.28939,"lon":5.39635,"is_reserved":false,"is_disabled":false,"rental_uris":{"android":"levelo://app?vid=aee1fd51-a7d9-405d-aab1-354cf70caa77","ios":"levelo://app?vid=aee1fd51-a7d9-405d-aab1-354cf70caa77"},"vehicle_type_id":"4","last_reported":1736514937,"current_range_meters":35200,"station_id":"ce4bh3h2rcd13ifvqdn0","pricing_plan_id":"cebpf4jnsgd1na2vs0mg"},{"bike_id":"e247b89a-68d3-4787-a893-22107163a77e","system_id":"levelo_inurba_marseille","lat":43.23188,"lon":5.39982,"is_reserved":false,"is_disabled":false,"rental_uris":{"android":"levelo://app?vid=e247b89a-68d3-4787-a893-22107163a77e","ios":"levelo://app?vid=e247b89a-68d3-4787-a893-22107163a77e"},"vehicle_type_id":"4","last_reported":1736514937,"current_range_meters":31200,"station_id":"ce4bhn12rcd13ifvqgqg","pricing_plan_id":"cebpf4jnsgd1na2vs0mg"},{"bike_id":"a1a982e7-e625-4dfa-991a-019bb63c806f","system_id":"levelo_inurba_marseille","lat":43.23951,"lon":5.36639,"is_reserved":false,"is_disabled":false,"rental_uris":{"android":"levelo://app?vid=a1a982e7-e625-4dfa-991a-019bb63c806f","ios":"levelo://app?vid=a1a982e7-e625-4dfa-991a-019bb63c806f"},"vehicle_type_id":"4","last_reported":1736514937,"current_range_meters":23200,"station_id":"ce4bhi12rcd13ifvqfp0","pricing_plan_id":"cebpf4jnsgd1na2vs0mg"},{"bike_id":"757321d2-fa5c-43dc-a0a3-d06f01a345d6","system_id":"levelo_inurba_marseille","lat":43.24069,"lon":5.37764,"is_reserved":false,"is_disabled":false,"rental_uris":{"android":"levelo://app?vid=757321d2-fa5c-43dc-a0a3-d06f01a345d6","ios":"levelo://app?vid=757321d2-fa5c-43dc-a0a3-d06f01a345d6"},"vehicle_type_id":"4","last_reported":1736514937,"current_range_meters":28000,"station_id":"ce4bhnp2rcd13ifvqgvg","pricing_plan_id":"cebpf4jnsgd1na2vs0mg"},{"bike_id":"e71db8cf-7b3c-485e-a8dd-487e8221434b","system_id":"levelo_inurba_marseille","lat":43.30531,"lon":5.36727,"is_reserved":false,"is_disabled":false,"rental_uris":{"android":"levelo://app?vid=e71db8cf-7b3c-485e-a8dd-487e8221434b","ios":"levelo://app?vid=e71db8cf-7b3c-485e-a8dd-487e8221434b"},"vehicle_type_id":"4","last_reported":1736514937,"current_range_meters":38800,"station_id":"ce4bgrp2rcd13ifvqc9g","pricing_plan_id":"cebpf4jnsgd1na2vs0mg"},{"bike_id":"db2bb327-84ca-49b3-a980-9c69d6ef41a2","system_id":"levelo_inurba_marseille","lat":43.23198,"lon":5.35558,"is_reserved":false,"is_disabled":false,"rental_uris":{"android":"levelo://app?vid=db2bb327-84ca-49b3-a980-9c69d6ef41a2","ios":"levelo://app?vid=db2bb327-84ca-49b3-a980-9c69d6ef41a2"},"vehicle_type_id":"4","last_reported":1736514937,"current_range_meters":38000,"station_id":"ce4bhu92rcd13ifvqi70","pricing_plan_id":"cebpf4jnsgd1na2vs0mg"},{"bike_id":"b1cd05bd-cc6d-452b-8b8c-f24ee7fb627f","system_id":"levelo_inurba_marseille","lat":43.25822,"lon":5.3943,"is_reserved":false,"is_disabled":false,"rental_uris":{"android":"levelo://app?vid=b1cd05bd-cc6d-452b-8b8c-f24ee7fb627f","ios":"levelo://app?vid=b1cd05bd-cc6d-452b-8b8c-f24ee7fb627f"},"vehicle_type_id":"4","last_reported":1736514937,"current_range_meters":36800,"station_id":"ce4bhip2rcd13ifvqft0","pricing_plan_id":"cebpf4jnsgd1na2vs0mg"},{"bike_id":"8ee157cc-0d96-4ba8-a394-86a9797d28c5","system_id":"levelo_inurba_marseille","lat":43.32546,"lon":5.41442,"is_reserved":false,"is_disabled":false,"rental_uris":{"android":"levelo://app?vid=8ee157cc-0d96-4ba8-a394-86a9797d28c5","ios":"levelo://app?vid=8ee157cc-0d96-4ba8-a394-86a9797d28c5"},"vehicle_type_id":"4","last_reported":1736514937,"current_range_meters":36000,"station_id":"ce4bhq12rcd13ifvqhhg","pricing_plan_id":"cebpf4jnsgd1na2vs0mg"},{"bike_id":"9d27d288-9638-4ffa-a41f-98c9e72676c0","system_id":"levelo_inurba_marseille","lat":43.23197,"lon":5.35559,"is_reserved":false,"is_disabled":false,"rental_uris":{"android":"levelo://app?vid=9d27d288-9638-4ffa-a41f-98c9e72676c0","ios":"levelo://app?vid=9d27d288-9638-4ffa-a41f-98c9e72676c0"},"vehicle_type_id":"4","last_reported":1736514937,"current_range_meters":8400,"station_id":"ce4bhu92rcd13ifvqi70","pricing_plan_id":"cebpf4jnsgd1na2vs0mg"},{"bike_id":"5aee579e-4d1a-4cdd-b13b-286ee35e83d9","system_id":"levelo_inurba_marseille","lat":43.25927,"lon":5.40909,"is_reserved":false,"is_disabled":false,"rental_uris":{"android":"levelo://app?vid=5aee579e-4d1a-4cdd-b13b-286ee35e83d9","ios":"levelo://app?vid=5aee579e-4d1a-4cdd-b13b-286ee35e83d9"},"vehicle_type_id":"4","last_reported":1736514937,"current_range_meters":36800,"station_id":"ce4bhm92rcd13ifvqglg","pricing_plan_id":"cebpf4jnsgd1na2vs0mg"},{"bike_id":"b9976952-4a08-4451-ad5d-1dcdb3e3ca97","system_id":"levelo_inurba_marseille","lat":43.29978,"lon":5.38519,"is_reserved":false,"is_disabled":true,"rental_uris":{"android":"levelo://app?vid=b9976952-4a08-4451-ad5d-1dcdb3e3ca97","ios":"levelo://app?vid=b9976952-4a08-4451-ad5d-1dcdb3e3ca97"},"vehicle_type_id":"4","last_reported":1736514937,"current_range_meters":26800,"station_id":"ce4bgj92rcd13ifvqbd0","pricing_plan_id":"cebpf4jnsgd1na2vs0mg"},{"bike_id":"11585661-9606-4540-9904-4049c3c3dbe3","system_id":"levelo_inurba_marseille","lat":43.29598,"lon":5.37182,"is_reserved":false,"is_disabled":false,"rental_uris":{"android":"levelo://app?vid=11585661-9606-4540-9904-4049c3c3dbe3","ios":"levelo://app?vid=11585661-9606-4540-9904-4049c3c3dbe3"},"vehicle_type_id":"4","last_reported":1736514937,"current_range_meters":13600,"station_id":"ce4bgnh2rcd13ifvqc0g","pricing_plan_id":"cebpf4jnsgd1na2vs0mg"},{"bike_id":"4a0c0673-179a-4f2d-8d08-d5aba8097f7a","system_id":"levelo_inurba_marseille","lat":43.30109,"lon":5.398655,"is_reserved":false,"is_disabled":false,"rental_uris":{"android":"levelo://app?vid=4a0c0673-179a-4f2d-8d08-d5aba8097f7a","ios":"levelo://app?vid=4a0c0673-179a-4f2d-8d08-d5aba8097f7a"},"vehicle_type_id":"4","last_reported":1736514937,"current_range_meters":35600,"station_id":"ce4bh0h2rcd13ifvqd40","pricing_plan_id":"cebpf4jnsgd1na2vs0mg"},{"bike_id":"af9b5cb3-fb99-43dc-b90b-3dfba9b8350f","system_id":"levelo_inurba_marseille","lat":43.28136,"lon":5.42642,"is_reserved":false,"is_disabled":false,"rental_uris":{"android":"levelo://app?vid=af9b5cb3-fb99-43dc-b90b-3dfba9b8350f","ios":"levelo://app?vid=af9b5cb3-fb99-43dc-b90b-3dfba9b8350f"},"vehicle_type_id":"4","last_reported":1736514937,"current_range_meters":28000,"station_id":"ce4bhnh2rcd13ifvqgug","pricing_plan_id":"cebpf4jnsgd1na2vs0mg"},{"bike_id":"2c56569d-ff0b-4284-ba64-74611e7006a4","system_id":"levelo_inurba_marseille","lat":43.25003,"lon":5.38935,"is_reserved":false,"is_disabled":false,"rental_uris":{"android":"levelo://app?vid=2c56569d-ff0b-4284-ba64-74611e7006a4","ios":"levelo://app?vid=2c56569d-ff0b-4284-ba64-74611e7006a4"},"vehicle_type_id":"4","last_reported":1736514937,"current_range_meters":20000,"station_id":"ce4bhgp2rcd13ifvqfd0","pricing_plan_id":"cebpf4jnsgd1na2vs0mg"},{"bike_id":"bc72b692-fa80-4572-afe8-0e7949eae868","system_id":"levelo_inurba_marseille","lat":43.33739,"lon":5.37436,"is_reserved":false,"is_disabled":false,"rental_uris":{"android":"levelo://app?vid=bc72b692-fa80-4572-afe8-0e7949eae868","ios":"levelo://app?vid=bc72b692-fa80-4572-afe8-0e7949eae868"},"vehicle_type_id":"4","last_reported":1736514937,"current_range_meters":27200,"station_id":"","pricing_plan_id":"cebpf4jnsgd1na2vs0mg"},{"bike_id":"b7a9af4a-f050-47c0-8298-26fae1024e10","system_id":"levelo_inurba_marseille","lat":43.26669,"lon":5.38275,"is_reserved":false,"is_disabled":false,"rental_uris":{"android":"levelo://app?vid=b7a9af4a-f050-47c0-8298-26fae1024e10","ios":"levelo://app?vid=b7a9af4a-f050-47c0-8298-26fae1024e10"},"vehicle_type_id":"4","last_reported":1736514937,"current_range_meters":39200,"station_id":"ce4bhg92rcd13ifvqf90","pricing_plan_id":"cebpf4jnsgd1na2vs0mg"},{"bike_id":"8c8645f7-db44-4c99-ae0c-0617340f021e","system_id":"levelo_inurba_marseille","lat":43.27494,"lon":5.42451,"is_reserved":false,"is_disabled":false,"rental_uris":{"android":"levelo://app?vid=8c8645f7-db44-4c99-ae0c-0617340f021e","ios":"levelo://app?vid=8c8645f7-db44-4c99-ae0c-0617340f021e"},"vehicle_type_id":"4","last_reported":1736514937,"current_range_meters":9600,"station_id":"ce4bhn92rcd13ifvqgrg","pricing_plan_id":"cebpf4jnsgd1na2vs0mg"},{"bike_id":"29a696da-688e-4491-990d-975870c6f8d2","system_id":"levelo_inurba_marseille","lat":43.28255,"lon":5.35087,"is_reserved":false,"is_disabled":false,"rental_uris":{"android":"levelo://app?vid=29a696da-688e-4491-990d-975870c6f8d2","ios":"levelo://app?vid=29a696da-688e-4491-990d-975870c6f8d2"},"vehicle_type_id":"4","last_reported":1736514937,"current_range_meters":16400,"station_id":"ce4bhbp2rcd13ifvqerg","pricing_plan_id":"cebpf4jnsgd1na2vs0mg"},{"bike_id":"9ed1c0a7-5035-4dde-954f-378a0451f32a","system_id":"levelo_inurba_marseille","lat":43.239626,"lon":5.366396,"is_reserved":false,"is_disabled":false,"rental_uris":{"android":"levelo://app?vid=9ed1c0a7-5035-4dde-954f-378a0451f32a","ios":"levelo://app?vid=9ed1c0a7-5035-4dde-954f-378a0451f32a"},"vehicle_type_id":"4","last_reported":1736514937,"current_range_meters":38800,"station_id":"ce4bhi12rcd13ifvqfp0","pricing_plan_id":"cebpf4jnsgd1na2vs0mg"},{"bike_id":"147b7553-34f7-4e8b-a337-b51baf3b47e1","system_id":"levelo_inurba_marseille","lat":43.29869,"lon":5.38905,"is_reserved":false,"is_disabled":true,"rental_uris":{"android":"levelo://app?vid=147b7553-34f7-4e8b-a337-b51baf3b47e1","ios":"levelo://app?vid=147b7553-34f7-4e8b-a337-b51baf3b47e1"},"vehicle_type_id":"4","last_reported":1736514937,"current_range_meters":38800,"station_id":"ce4bh392rcd13ifvqdl0","pricing_plan_id":"cebpf4jnsgd1na2vs0mg"},{"bike_id":"1ec0180e-bc71-48d1-9f43-013c847c9be4","system_id":"levelo_inurba_marseille","lat":43.265625,"lon":5.372816,"is_reserved":false,"is_disabled":false,"rental_uris":{"android":"levelo://app?vid=1ec0180e-bc71-48d1-9f43-013c847c9be4","ios":"levelo://app?vid=1ec0180e-bc71-48d1-9f43-013c847c9be4"},"vehicle_type_id":"4","last_reported":1736514937,"current_range_meters":36000,"station_id":"ce4bhg12rcd13ifvqf70","pricing_plan_id":"cebpf4jnsgd1na2vs0mg"},{"bike_id":"ce698391-360f-48cf-bafb-5da536e90928","system_id":"levelo_inurba_marseille","lat":43.32532,"lon":5.41456,"is_reserved":false,"is_disabled":false,"rental_uris":{"android":"levelo://app?vid=ce698391-360f-48cf-bafb-5da536e90928","ios":"levelo://app?vid=ce698391-360f-48cf-bafb-5da536e90928"},"vehicle_type_id":"4","last_reported":1736514937,"current_range_meters":39200,"station_id":"ce4bhq12rcd13ifvqhhg","pricing_plan_id":"cebpf4jnsgd1na2vs0mg"},{"bike_id":"3499c2e3-a89c-4eb9-b8bb-035633a0657e","system_id":"levelo_inurba_marseille","lat":43.28943,"lon":5.39623,"is_reserved":false,"is_disabled":false,"rental_uris":{"android":"levelo://app?vid=3499c2e3-a89c-4eb9-b8bb-035633a0657e","ios":"levelo://app?vid=3499c2e3-a89c-4eb9-b8bb-035633a0657e"},"vehicle_type_id":"4","last_reported":1736514937,"current_range_meters":39200,"station_id":"ce4bh3h2rcd13ifvqdn0","pricing_plan_id":"cebpf4jnsgd1na2vs0mg"},{"bike_id":"af1d8654-7f66-4539-8667-313d56746f24","system_id":"levelo_inurba_marseille","lat":43.25079,"lon":5.39534,"is_reserved":false,"is_disabled":false,"rental_uris":{"android":"levelo://app?vid=af1d8654-7f66-4539-8667-313d56746f24","ios":"levelo://app?vid=af1d8654-7f66-4539-8667-313d56746f24"},"vehicle_type_id":"4","last_reported":1736514937,"current_range_meters":39200,"station_id":"ce4bhm12rcd13ifvqgkg","pricing_plan_id":"cebpf4jnsgd1na2vs0mg"},{"bike_id":"60271d0f-3a77-4626-8905-d712a41f6304","system_id":"levelo_inurba_marseille","lat":43.2845,"lon":5.35899,"is_reserved":false,"is_disabled":false,"rental_uris":{"android":"levelo://app?vid=60271d0f-3a77-4626-8905-d712a41f6304","ios":"levelo://app?vid=60271d0f-3a77-4626-8905-d712a41f6304"},"vehicle_type_id":"4","last_reported":1736514937,"current_range_meters":37600,"station_id":"ce4bhah2rcd13ifvqei0","pricing_plan_id":"cebpf4jnsgd1na2vs0mg"},{"bike_id":"c384f5cf-364d-410c-a04d-6178ce4f4b7e","system_id":"levelo_inurba_marseille","lat":43.33607,"lon":5.40997,"is_reserved":false,"is_disabled":false,"rental_uris":{"android":"levelo://app?vid=c384f5cf-364d-410c-a04d-6178ce4f4b7e","ios":"levelo://app?vid=c384f5cf-364d-410c-a04d-6178ce4f4b7e"},"vehicle_type_id":"4","last_reported":1736514937,"current_range_meters":22800,"station_id":"ce4bhqh2rcd13ifvqhmg","pricing_plan_id":"cebpf4jnsgd1na2vs0mg"},{"bike_id":"2c0c1541-14a8-4bd0-bc83-5430249abf48","system_id":"levelo_inurba_marseille","lat":43.23148,"lon":5.43707,"is_reserved":false,"is_disabled":false,"rental_uris":{"android":"levelo://app?vid=2c0c1541-14a8-4bd0-bc83-5430249abf48","ios":"levelo://app?vid=2c0c1541-14a8-4bd0-bc83-5430249abf48"},"vehicle_type_id":"4","last_reported":1736514937,"current_range_meters":10800,"station_id":"ce4bhmp2rcd13ifvqgog","pricing_plan_id":"cebpf4jnsgd1na2vs0mg"},{"bike_id":"17703eda-3439-4bb5-9efb-85fe8fc1c987","system_id":"levelo_inurba_marseille","lat":43.2921,"lon":5.38024,"is_reserved":false,"is_disabled":false,"rental_uris":{"android":"levelo://app?vid=17703eda-3439-4bb5-9efb-85fe8fc1c987","ios":"levelo://app?vid=17703eda-3439-4bb5-9efb-85fe8fc1c987"},"vehicle_type_id":"4","last_reported":1736514937,"current_range_meters":39200,"station_id":"ce4bgjh2rcd13ifvqbf0","pricing_plan_id":"cebpf4jnsgd1na2vs0mg"},{"bike_id":"7a0a8a69-615c-43f3-a001-073b74f4a57b","system_id":"levelo_inurba_marseille","lat":43.25569,"lon":5.38248,"is_reserved":false,"is_disabled":false,"rental_uris":{"android":"levelo://app?vid=7a0a8a69-615c-43f3-a001-073b74f4a57b","ios":"levelo://app?vid=7a0a8a69-615c-43f3-a001-073b74f4a57b"},"vehicle_type_id":"4","last_reported":1736514937,"current_range_meters":27200,"station_id":"ce4bhih2rcd13ifvqfs0","pricing_plan_id":"cebpf4jnsgd1na2vs0mg"},{"bike_id":"29353373-88cc-4dc4-8a0b-c37c80a42a36","system_id":"levelo_inurba_marseille","lat":43.29902,"lon":5.38144,"is_reserved":false,"is_disabled":false,"rental_uris":{"android":"levelo://app?vid=29353373-88cc-4dc4-8a0b-c37c80a42a36","ios":"levelo://app?vid=29353373-88cc-4dc4-8a0b-c37c80a42a36"},"vehicle_type_id":"4","last_reported":1736514937,"current_range_meters":38800,"station_id":"ce4bgj12rcd13ifvqbc0","pricing_plan_id":"cebpf4jnsgd1na2vs0mg"},{"bike_id":"04b99ebe-7927-40e6-9554-a7aa6d8ff5da","system_id":"levelo_inurba_marseille","lat":43.33021,"lon":5.39038,"is_reserved":false,"is_disabled":false,"rental_uris":{"android":"levelo://app?vid=04b99ebe-7927-40e6-9554-a7aa6d8ff5da","ios":"levelo://app?vid=04b99ebe-7927-40e6-9554-a7aa6d8ff5da"},"vehicle_type_id":"4","last_reported":1736514937,"current_range_meters":38800,"station_id":"ce4bhr92rcd13ifvqhrg","pricing_plan_id":"cebpf4jnsgd1na2vs0mg"},{"bike_id":"284e1831-9922-4f3c-809c-0f802c9ef2e6","system_id":"levelo_inurba_marseille","lat":43.29566,"lon":5.42293,"is_reserved":false,"is_disabled":false,"rental_uris":{"android":"levelo://app?vid=284e1831-9922-4f3c-809c-0f802c9ef2e6","ios":"levelo://app?vid=284e1831-9922-4f3c-809c-0f802c9ef2e6"},"vehicle_type_id":"4","last_reported":1736514937,"current_range_meters":14800,"station_id":"ce4bhph2rcd13ifvqhdg","pricing_plan_id":"cebpf4jnsgd1na2vs0mg"},{"bike_id":"ad744619-fbc5-4026-9541-81b1adebd4d3","system_id":"levelo_inurba_marseille","lat":43.26029,"lon":5.37549,"is_reserved":false,"is_disabled":true,"rental_uris":{"android":"levelo://app?vid=ad744619-fbc5-4026-9541-81b1adebd4d3","ios":"levelo://app?vid=ad744619-fbc5-4026-9541-81b1adebd4d3"},"vehicle_type_id":"4","last_reported":1736514937,"current_range_meters":38800,"station_id":"ce4bhgh2rcd13ifvqfa0","pricing_plan_id":"cebpf4jnsgd1na2vs0mg"},{"bike_id":"2b68127b-8c99-46f9-b65f-98bf288dc9b7","system_id":"levelo_inurba_marseille","lat":43.25579,"lon":5.38244,"is_reserved":false,"is_disabled":false,"rental_uris":{"android":"levelo://app?vid=2b68127b-8c99-46f9-b65f-98bf288dc9b7","ios":"levelo://app?vid=2b68127b-8c99-46f9-b65f-98bf288dc9b7"},"vehicle_type_id":"4","last_reported":1736514937,"current_range_meters":6800,"station_id":"ce4bhih2rcd13ifvqfs0","pricing_plan_id":"cebpf4jnsgd1na2vs0mg"},{"bike_id":"335f0570-8036-483a-8e77-9691fdec9d7c","system_id":"levelo_inurba_marseille","lat":43.30526,"lon":5.3671,"is_reserved":false,"is_disabled":false,"rental_uris":{"android":"levelo://app?vid=335f0570-8036-483a-8e77-9691fdec9d7c","ios":"levelo://app?vid=335f0570-8036-483a-8e77-9691fdec9d7c"},"vehicle_type_id":"4","last_reported":1736514937,"current_range_meters":16400,"station_id":"ce4bgrp2rcd13ifvqc9g","pricing_plan_id":"cebpf4jnsgd1na2vs0mg"},{"bike_id":"61887126-fdb3-4684-971d-b9bd718ff60a","system_id":"levelo_inurba_marseille","lat":43.30582,"lon":5.39337,"is_reserved":false,"is_disabled":false,"rental_uris":{"android":"levelo://app?vid=61887126-fdb3-4684-971d-b9bd718ff60a","ios":"levelo://app?vid=61887126-fdb3-4684-971d-b9bd718ff60a"},"vehicle_type_id":"4","last_reported":1736514937,"current_range_meters":38800,"station_id":"ce4bh0p2rcd13ifvqd80","pricing_plan_id":"cebpf4jnsgd1na2vs0mg"},{"bike_id":"54471564-bd33-4455-b850-4f293cdf3987","system_id":"levelo_inurba_marseille","lat":43.23061,"lon":5.35506,"is_reserved":false,"is_disabled":false,"rental_uris":{"android":"levelo://app?vid=54471564-bd33-4455-b850-4f293cdf3987","ios":"levelo://app?vid=54471564-bd33-4455-b850-4f293cdf3987"},"vehicle_type_id":"4","last_reported":1736514937,"current_range_meters":12800,"station_id":"cpo3342slgdg3j2ifvpg","pricing_plan_id":"cebpf4jnsgd1na2vs0mg"},{"bike_id":"4b9b7cfa-4216-454e-b211-65e4ceca9037","system_id":"levelo_inurba_marseille","lat":43.32037,"lon":5.41568,"is_reserved":false,"is_disabled":false,"rental_uris":{"android":"levelo://app?vid=4b9b7cfa-4216-454e-b211-65e4ceca9037","ios":"levelo://app?vid=4b9b7cfa-4216-454e-b211-65e4ceca9037"},"vehicle_type_id":"4","last_reported":1736514937,"current_range_meters":6800,"station_id":"ce4bhq92rcd13ifvqhkg","pricing_plan_id":"cebpf4jnsgd1na2vs0mg"},{"bike_id":"5ecc8615-e1bd-4d04-8ab0-d6ffe1e2ef8c","system_id":"levelo_inurba_marseille","lat":43.27517,"lon":5.42454,"is_reserved":false,"is_disabled":false,"rental_uris":{"android":"levelo://app?vid=5ecc8615-e1bd-4d04-8ab0-d6ffe1e2ef8c","ios":"levelo://app?vid=5ecc8615-e1bd-4d04-8ab0-d6ffe1e2ef8c"},"vehicle_type_id":"4","last_reported":1736514937,"current_range_meters":16800,"station_id":"ce4bhn92rcd13ifvqgrg","pricing_plan_id":"cebpf4jnsgd1na2vs0mg"},{"bike_id":"ceb92aec-d98c-4169-9bda-16d3f42a8ac3","system_id":"levelo_inurba_marseille","lat":43.31081,"lon":5.42429,"is_reserved":false,"is_disabled":false,"rental_uris":{"android":"levelo://app?vid=ceb92aec-d98c-4169-9bda-16d3f42a8ac3","ios":"levelo://app?vid=ceb92aec-d98c-4169-9bda-16d3f42a8ac3"},"vehicle_type_id":"4","last_reported":1736514937,"current_range_meters":25600,"station_id":"ce4bhp92rcd13ifvqhag","pricing_plan_id":"cebpf4jnsgd1na2vs0mg"},{"bike_id":"c0428676-c11a-41ec-a23f-5a5988828fcb","system_id":"levelo_inurba_marseille","lat":43.26549,"lon":5.39029,"is_reserved":false,"is_disabled":false,"rental_uris":{"android":"levelo://app?vid=c0428676-c11a-41ec-a23f-5a5988828fcb","ios":"levelo://app?vid=c0428676-c11a-41ec-a23f-5a5988828fcb"},"vehicle_type_id":"4","last_reported":1736514937,"current_range_meters":36400,"station_id":"ce4bhe12rcd13ifvqf30","pricing_plan_id":"cebpf4jnsgd1na2vs0mg"},{"bike_id":"a691aa66-9067-4070-bfbe-d54fbe1dfab7","system_id":"levelo_inurba_marseille","lat":43.30584,"lon":5.39354,"is_reserved":false,"is_disabled":false,"rental_uris":{"android":"levelo://app?vid=a691aa66-9067-4070-bfbe-d54fbe1dfab7","ios":"levelo://app?vid=a691aa66-9067-4070-bfbe-d54fbe1dfab7"},"vehicle_type_id":"4","last_reported":1736514937,"current_range_meters":24000,"station_id":"ce4bh0p2rcd13ifvqd80","pricing_plan_id":"cebpf4jnsgd1na2vs0mg"},{"bike_id":"f9ea6889-59c6-46ed-bb2a-bca790484e25","system_id":"levelo_inurba_marseille","lat":43.3033,"lon":5.40433,"is_reserved":false,"is_disabled":false,"rental_uris":{"android":"levelo://app?vid=f9ea6889-59c6-46ed-bb2a-bca790484e25","ios":"levelo://app?vid=f9ea6889-59c6-46ed-bb2a-bca790484e25"},"vehicle_type_id":"4","last_reported":1736514937,"current_range_meters":6400,"station_id":"ce4bh012rcd13ifvqd10","pricing_plan_id":"cebpf4jnsgd1na2vs0mg"},{"bike_id":"2e414a70-54b3-420b-bc06-3746b6491a4b","system_id":"levelo_inurba_marseille","lat":43.24551,"lon":5.39519,"is_reserved":false,"is_disabled":false,"rental_uris":{"android":"levelo://app?vid=2e414a70-54b3-420b-bc06-3746b6491a4b","ios":"levelo://app?vid=2e414a70-54b3-420b-bc06-3746b6491a4b"},"vehicle_type_id":"4","last_reported":1736514937,"current_range_meters":32800,"station_id":"ce4bhlp2rcd13ifvqgjg","pricing_plan_id":"cebpf4jnsgd1na2vs0mg"},{"bike_id":"5297b66f-0e55-4ec8-88f8-4daa23208aa8","system_id":"levelo_inurba_marseille","lat":43.29845,"lon":5.36267,"is_reserved":false,"is_disabled":false,"rental_uris":{"android":"levelo://app?vid=5297b66f-0e55-4ec8-88f8-4daa23208aa8","ios":"levelo://app?vid=5297b66f-0e55-4ec8-88f8-4daa23208aa8"},"vehicle_type_id":"4","last_reported":1736514937,"current_range_meters":39200,"station_id":"ce4bgpp2rcd13ifvqc3g","pricing_plan_id":"cebpf4jnsgd1na2vs0mg"},{"bike_id":"d01b9e46-be62-4506-a7fc-663b960b8b9e","system_id":"levelo_inurba_marseille","lat":43.26492,"lon":5.39539,"is_reserved":false,"is_disabled":false,"rental_uris":{"android":"levelo://app?vid=d01b9e46-be62-4506-a7fc-663b960b8b9e","ios":"levelo://app?vid=d01b9e46-be62-4506-a7fc-663b960b8b9e"},"vehicle_type_id":"4","last_reported":1736514937,"current_range_meters":19600,"station_id":"ce4bhi12rcd13ifvqfq0","pricing_plan_id":"cebpf4jnsgd1na2vs0mg"},{"bike_id":"c984ff84-2a52-4420-9f94-dab758fc76eb","system_id":"levelo_inurba_marseille","lat":43.29784,"lon":5.39349,"is_reserved":false,"is_disabled":false,"rental_uris":{"android":"levelo://app?vid=c984ff84-2a52-4420-9f94-dab758fc76eb","ios":"levelo://app?vid=c984ff84-2a52-4420-9f94-dab758fc76eb"},"vehicle_type_id":"4","last_reported":1736514937,"current_range_meters":14800,"station_id":"chh1huq6cuj3fo74tm60","pricing_plan_id":"cebpf4jnsgd1na2vs0mg"},{"bike_id":"c34e19f0-36fc-4674-ae98-a68d7486a63a","system_id":"levelo_inurba_marseille","lat":43.27054,"lon":5.4026,"is_reserved":false,"is_disabled":false,"rental_uris":{"android":"levelo://app?vid=c34e19f0-36fc-4674-ae98-a68d7486a63a","ios":"levelo://app?vid=c34e19f0-36fc-4674-ae98-a68d7486a63a"},"vehicle_type_id":"4","last_reported":1736514937,"current_range_meters":38800,"station_id":"ce4bhk92rcd13ifvqgc0","pricing_plan_id":"cebpf4jnsgd1na2vs0mg"},{"bike_id":"315b0a81-0cdc-4bde-b4a3-0c4d420190bc","system_id":"levelo_inurba_marseille","lat":43.27614,"lon":5.36101,"is_reserved":false,"is_disabled":false,"rental_uris":{"android":"levelo://app?vid=315b0a81-0cdc-4bde-b4a3-0c4d420190bc","ios":"levelo://app?vid=315b0a81-0cdc-4bde-b4a3-0c4d420190bc"},"vehicle_type_id":"4","last_reported":1736514937,"current_range_meters":39200,"station_id":"ce4bgj92rcd13ifvqbe0","pricing_plan_id":"cebpf4jnsgd1na2vs0mg"},{"bike_id":"31016978-d0b0-4386-b4de-c93290de99e5","system_id":"levelo_inurba_marseille","lat":43.30541,"lon":5.38436,"is_reserved":false,"is_disabled":false,"rental_uris":{"android":"levelo://app?vid=31016978-d0b0-4386-b4de-c93290de99e5","ios":"levelo://app?vid=31016978-d0b0-4386-b4de-c93290de99e5"},"vehicle_type_id":"4","last_reported":1736514937,"current_range_meters":37600,"station_id":"ce4bgg92rcd13ifvqb30","pricing_plan_id":"cebpf4jnsgd1na2vs0mg"},{"bike_id":"bb300ea3-b9c1-4be6-85fe-5e843d78d10d","system_id":"levelo_inurba_marseille","lat":43.299664,"lon":5.384951,"is_reserved":false,"is_disabled":false,"rental_uris":{"android":"levelo://app?vid=bb300ea3-b9c1-4be6-85fe-5e843d78d10d","ios":"levelo://app?vid=bb300ea3-b9c1-4be6-85fe-5e843d78d10d"},"vehicle_type_id":"4","last_reported":1736514937,"current_range_meters":31200,"station_id":"ce4bgj92rcd13ifvqbd0","pricing_plan_id":"cebpf4jnsgd1na2vs0mg"},{"bike_id":"dab217a0-b2df-4ca9-a812-c80195b1fbf4","system_id":"levelo_inurba_marseille","lat":43.31383,"lon":5.36767,"is_reserved":false,"is_disabled":false,"rental_uris":{"android":"levelo://app?vid=dab217a0-b2df-4ca9-a812-c80195b1fbf4","ios":"levelo://app?vid=dab217a0-b2df-4ca9-a812-c80195b1fbf4"},"vehicle_type_id":"4","last_reported":1736514937,"current_range_meters":39200,"station_id":"ce4bgr92rcd13ifvqc6g","pricing_plan_id":"cebpf4jnsgd1na2vs0mg"},{"bike_id":"d4b9ec52-492e-41b6-8dae-be3aec56cf81","system_id":"levelo_inurba_marseille","lat":43.286146,"lon":5.351299,"is_reserved":false,"is_disabled":false,"rental_uris":{"android":"levelo://app?vid=d4b9ec52-492e-41b6-8dae-be3aec56cf81","ios":"levelo://app?vid=d4b9ec52-492e-41b6-8dae-be3aec56cf81"},"vehicle_type_id":"4","last_reported":1736514937,"current_range_meters":10000,"station_id":"ce4bhch2rcd13ifvqeug","pricing_plan_id":"cebpf4jnsgd1na2vs0mg"},{"bike_id":"458c3d58-e6a5-4d1a-8df2-05d9cb3e0072","system_id":"levelo_inurba_marseille","lat":43.25578,"lon":5.38237,"is_reserved":false,"is_disabled":false,"rental_uris":{"android":"levelo://app?vid=458c3d58-e6a5-4d1a-8df2-05d9cb3e0072","ios":"levelo://app?vid=458c3d58-e6a5-4d1a-8df2-05d9cb3e0072"},"vehicle_type_id":"4","last_reported":1736514937,"current_range_meters":16800,"station_id":"ce4bhih2rcd13ifvqfs0","pricing_plan_id":"cebpf4jnsgd1na2vs0mg"},{"bike_id":"10f7d31a-ef8d-4e8a-acbf-8aa9a8c72143","system_id":"levelo_inurba_marseille","lat":43.24388,"lon":5.37059,"is_reserved":false,"is_disabled":false,"rental_uris":{"android":"levelo://app?vid=10f7d31a-ef8d-4e8a-acbf-8aa9a8c72143","ios":"levelo://app?vid=10f7d31a-ef8d-4e8a-acbf-8aa9a8c72143"},"vehicle_type_id":"4","last_reported":1736514937,"current_range_meters":24000,"station_id":"ce4bhhh2rcd13ifvqfk0","pricing_plan_id":"cebpf4jnsgd1na2vs0mg"},{"bike_id":"34ea12f1-bb52-4fde-9d2c-e17a9dbd9144","system_id":"levelo_inurba_marseille","lat":43.30634,"lon":5.4009,"is_reserved":false,"is_disabled":false,"rental_uris":{"android":"levelo://app?vid=34ea12f1-bb52-4fde-9d2c-e17a9dbd9144","ios":"levelo://app?vid=34ea12f1-bb52-4fde-9d2c-e17a9dbd9144"},"vehicle_type_id":"4","last_reported":1736514937,"current_range_meters":38400,"station_id":"ce4bh112rcd13ifvqda0","pricing_plan_id":"cebpf4jnsgd1na2vs0mg"},{"bike_id":"3c675e30-0401-45ee-9809-14d647d71439","system_id":"levelo_inurba_marseille","lat":43.28471,"lon":5.38415,"is_reserved":false,"is_disabled":false,"rental_uris":{"android":"levelo://app?vid=3c675e30-0401-45ee-9809-14d647d71439","ios":"levelo://app?vid=3c675e30-0401-45ee-9809-14d647d71439"},"vehicle_type_id":"4","last_reported":1736514937,"current_range_meters":36000,"station_id":"ce4bh512rcd13ifvqe3g","pricing_plan_id":"cebpf4jnsgd1na2vs0mg"},{"bike_id":"a2b8733f-18d3-4c7f-a699-4ad1eee082fe","system_id":"levelo_inurba_marseille","lat":43.31732,"lon":5.42409,"is_reserved":false,"is_disabled":false,"rental_uris":{"android":"levelo://app?vid=a2b8733f-18d3-4c7f-a699-4ad1eee082fe","ios":"levelo://app?vid=a2b8733f-18d3-4c7f-a699-4ad1eee082fe"},"vehicle_type_id":"4","last_reported":1736514937,"current_range_meters":38400,"station_id":"ce4bhp92rcd13ifvqhbg","pricing_plan_id":"cebpf4jnsgd1na2vs0mg"},{"bike_id":"96f09216-8806-4f0e-908d-6ebe96172e03","system_id":"levelo_inurba_marseille","lat":43.27986,"lon":5.41653,"is_reserved":false,"is_disabled":false,"rental_uris":{"android":"levelo://app?vid=96f09216-8806-4f0e-908d-6ebe96172e03","ios":"levelo://app?vid=96f09216-8806-4f0e-908d-6ebe96172e03"},"vehicle_type_id":"4","last_reported":1736514937,"current_range_meters":6000,"station_id":"ce4bho12rcd13ifvqh1g","pricing_plan_id":"cebpf4jnsgd1na2vs0mg"},{"bike_id":"a7bc95ca-7675-4abc-af32-806270d67639","system_id":"levelo_inurba_marseille","lat":43.29307,"lon":5.37186,"is_reserved":false,"is_disabled":false,"rental_uris":{"android":"levelo://app?vid=a7bc95ca-7675-4abc-af32-806270d67639","ios":"levelo://app?vid=a7bc95ca-7675-4abc-af32-806270d67639"},"vehicle_type_id":"4","last_reported":1736514937,"current_range_meters":30400,"station_id":"ce4bgh92rcd13ifvqb40","pricing_plan_id":"cebpf4jnsgd1na2vs0mg"},{"bike_id":"e4213be5-0431-420b-9564-62db5c27c380","system_id":"levelo_inurba_marseille","lat":43.30871,"lon":5.37201,"is_reserved":false,"is_disabled":false,"rental_uris":{"android":"levelo://app?vid=e4213be5-0431-420b-9564-62db5c27c380","ios":"levelo://app?vid=e4213be5-0431-420b-9564-62db5c27c380"},"vehicle_type_id":"4","last_reported":1736514937,"current_range_meters":28400,"station_id":"ce4bguh2rcd13ifvqckg","pricing_plan_id":"cebpf4jnsgd1na2vs0mg"},{"bike_id":"c150f8af-fc8f-4eb5-ac98-0b06dadf4ce0","system_id":"levelo_inurba_marseille","lat":43.25573,"lon":5.38236,"is_reserved":false,"is_disabled":false,"rental_uris":{"android":"levelo://app?vid=c150f8af-fc8f-4eb5-ac98-0b06dadf4ce0","ios":"levelo://app?vid=c150f8af-fc8f-4eb5-ac98-0b06dadf4ce0"},"vehicle_type_id":"4","last_reported":1736514937,"current_range_meters":33600,"station_id":"ce4bhih2rcd13ifvqfs0","pricing_plan_id":"cebpf4jnsgd1na2vs0mg"},{"bike_id":"fab49d65-1149-4350-bcee-2119296a3172","system_id":"levelo_inurba_marseille","lat":43.23197,"lon":5.35553,"is_reserved":false,"is_disabled":false,"rental_uris":{"android":"levelo://app?vid=fab49d65-1149-4350-bcee-2119296a3172","ios":"levelo://app?vid=fab49d65-1149-4350-bcee-2119296a3172"},"vehicle_type_id":"4","last_reported":1736514937,"current_range_meters":3600,"station_id":"ce4bhu92rcd13ifvqi70","pricing_plan_id":"cebpf4jnsgd1na2vs0mg"},{"bike_id":"ff45e7b0-f7ac-4438-a41c-45b74df8aef7","system_id":"levelo_inurba_marseille","lat":43.28855,"lon":5.39328,"is_reserved":false,"is_disabled":false,"rental_uris":{"android":"levelo://app?vid=ff45e7b0-f7ac-4438-a41c-45b74df8aef7","ios":"levelo://app?vid=ff45e7b0-f7ac-4438-a41c-45b74df8aef7"},"vehicle_type_id":"4","last_reported":1736514937,"current_range_meters":22400,"station_id":"ce4bh2p2rcd13ifvqdi0","pricing_plan_id":"cebpf4jnsgd1na2vs0mg"},{"bike_id":"80e6d864-209b-44fb-bebb-aeae347160a6","system_id":"levelo_inurba_marseille","lat":43.24071,"lon":5.37764,"is_reserved":false,"is_disabled":false,"rental_uris":{"android":"levelo://app?vid=80e6d864-209b-44fb-bebb-aeae347160a6","ios":"levelo://app?vid=80e6d864-209b-44fb-bebb-aeae347160a6"},"vehicle_type_id":"4","last_reported":1736514937,"current_range_meters":23200,"station_id":"ce4bhnp2rcd13ifvqgvg","pricing_plan_id":"cebpf4jnsgd1na2vs0mg"},{"bike_id":"b9eae0bb-8010-4eb9-90f8-e9011b9a4c76","system_id":"levelo_inurba_marseille","lat":43.33702,"lon":5.37467,"is_reserved":false,"is_disabled":false,"rental_uris":{"android":"levelo://app?vid=b9eae0bb-8010-4eb9-90f8-e9011b9a4c76","ios":"levelo://app?vid=b9eae0bb-8010-4eb9-90f8-e9011b9a4c76"},"vehicle_type_id":"4","last_reported":1736514937,"current_range_meters":38800,"station_id":"","pricing_plan_id":"cebpf4jnsgd1na2vs0mg"},{"bike_id":"2054ef6b-8b90-4aee-ad09-cd0ae8b708c7","system_id":"levelo_inurba_marseille","lat":43.31705,"lon":5.43708,"is_reserved":false,"is_disabled":false,"rental_uris":{"android":"levelo://app?vid=2054ef6b-8b90-4aee-ad09-cd0ae8b708c7","ios":"levelo://app?vid=2054ef6b-8b90-4aee-ad09-cd0ae8b708c7"},"vehicle_type_id":"4","last_reported":1736514937,"current_range_meters":18000,"station_id":"ce4bhp92rcd13ifvqhcg","pricing_plan_id":"cebpf4jnsgd1na2vs0mg"},{"bike_id":"30e9f014-0a6e-4b5f-a4b7-873d8aefd349","system_id":"levelo_inurba_marseille","lat":43.31113,"lon":5.37764,"is_reserved":false,"is_disabled":false,"rental_uris":{"android":"levelo://app?vid=30e9f014-0a6e-4b5f-a4b7-873d8aefd349","ios":"levelo://app?vid=30e9f014-0a6e-4b5f-a4b7-873d8aefd349"},"vehicle_type_id":"4","last_reported":1736514937,"current_range_meters":3600,"station_id":"ce4bgt92rcd13ifvqcg0","pricing_plan_id":"cebpf4jnsgd1na2vs0mg"},{"bike_id":"60ce1b70-e47d-4caf-abee-52e7d5bfe299","system_id":"levelo_inurba_marseille","lat":43.24641,"lon":5.38893,"is_reserved":false,"is_disabled":false,"rental_uris":{"android":"levelo://app?vid=60ce1b70-e47d-4caf-abee-52e7d5bfe299","ios":"levelo://app?vid=60ce1b70-e47d-4caf-abee-52e7d5bfe299"},"vehicle_type_id":"4","last_reported":1736514937,"current_range_meters":34800,"station_id":"ce4bhg12rcd13ifvqf60","pricing_plan_id":"cebpf4jnsgd1na2vs0mg"},{"bike_id":"d3e10827-29dc-456a-95f9-479f74aa36f6","system_id":"levelo_inurba_marseille","lat":43.29842,"lon":5.36266,"is_reserved":false,"is_disabled":false,"rental_uris":{"android":"levelo://app?vid=d3e10827-29dc-456a-95f9-479f74aa36f6","ios":"levelo://app?vid=d3e10827-29dc-456a-95f9-479f74aa36f6"},"vehicle_type_id":"4","last_reported":1736514937,"current_range_meters":39200,"station_id":"ce4bgpp2rcd13ifvqc3g","pricing_plan_id":"cebpf4jnsgd1na2vs0mg"},{"bike_id":"2f8ad459-3412-488c-8718-46949f130497","system_id":"levelo_inurba_marseille","lat":43.24386,"lon":5.37062,"is_reserved":false,"is_disabled":false,"rental_uris":{"android":"levelo://app?vid=2f8ad459-3412-488c-8718-46949f130497","ios":"levelo://app?vid=2f8ad459-3412-488c-8718-46949f130497"},"vehicle_type_id":"4","last_reported":1736514937,"current_range_meters":32000,"station_id":"ce4bhhh2rcd13ifvqfk0","pricing_plan_id":"cebpf4jnsgd1na2vs0mg"},{"bike_id":"408554f9-e938-4c8d-b712-51774be7b111","system_id":"levelo_inurba_marseille","lat":43.30554,"lon":5.36522,"is_reserved":false,"is_disabled":false,"rental_uris":{"android":"levelo://app?vid=408554f9-e938-4c8d-b712-51774be7b111","ios":"levelo://app?vid=408554f9-e938-4c8d-b712-51774be7b111"},"vehicle_type_id":"4","last_reported":1736514937,"current_range_meters":39200,"station_id":"ce4bgs12rcd13ifvqcag","pricing_plan_id":"cebpf4jnsgd1na2vs0mg"},{"bike_id":"3607acd2-34b3-465b-ae97-191747e34093","system_id":"levelo_inurba_marseille","lat":43.27497,"lon":5.42451,"is_reserved":false,"is_disabled":false,"rental_uris":{"android":"levelo://app?vid=3607acd2-34b3-465b-ae97-191747e34093","ios":"levelo://app?vid=3607acd2-34b3-465b-ae97-191747e34093"},"vehicle_type_id":"4","last_reported":1736514937,"current_range_meters":24400,"station_id":"ce4bhn92rcd13ifvqgrg","pricing_plan_id":"cebpf4jnsgd1na2vs0mg"},{"bike_id":"c7f56a86-ef75-45f8-8134-46d816d7f56e","system_id":"levelo_inurba_marseille","lat":43.28346,"lon":5.38111,"is_reserved":false,"is_disabled":false,"rental_uris":{"android":"levelo://app?vid=c7f56a86-ef75-45f8-8134-46d816d7f56e","ios":"levelo://app?vid=c7f56a86-ef75-45f8-8134-46d816d7f56e"},"vehicle_type_id":"4","last_reported":1736514937,"current_range_meters":33200,"station_id":"ce4bh412rcd13ifvqdr0","pricing_plan_id":"cebpf4jnsgd1na2vs0mg"},{"bike_id":"48998462-e2fe-4046-8dbf-a3db091ad704","system_id":"levelo_inurba_marseille","lat":43.25582,"lon":5.38233,"is_reserved":false,"is_disabled":false,"rental_uris":{"android":"levelo://app?vid=48998462-e2fe-4046-8dbf-a3db091ad704","ios":"levelo://app?vid=48998462-e2fe-4046-8dbf-a3db091ad704"},"vehicle_type_id":"4","last_reported":1736514937,"current_range_meters":24000,"station_id":"ce4bhih2rcd13ifvqfs0","pricing_plan_id":"cebpf4jnsgd1na2vs0mg"},{"bike_id":"cad4a6a5-5208-47dd-a17d-ca38efa63f22","system_id":"levelo_inurba_marseille","lat":43.31071,"lon":5.38352,"is_reserved":false,"is_disabled":true,"rental_uris":{"android":"levelo://app?vid=cad4a6a5-5208-47dd-a17d-ca38efa63f22","ios":"levelo://app?vid=cad4a6a5-5208-47dd-a17d-ca38efa63f22"},"vehicle_type_id":"4","last_reported":1736514937,"current_range_meters":25600,"station_id":"ce4bgv92rcd13ifvqcr0","pricing_plan_id":"cebpf4jnsgd1na2vs0mg"},{"bike_id":"59680959-993e-49d5-827b-d5b17bfefc71","system_id":"levelo_inurba_marseille","lat":43.27835,"lon":5.392,"is_reserved":false,"is_disabled":true,"rental_uris":{"android":"levelo://app?vid=59680959-993e-49d5-827b-d5b17bfefc71","ios":"levelo://app?vid=59680959-993e-49d5-827b-d5b17bfefc71"},"vehicle_type_id":"4","last_reported":1736514937,"current_range_meters":0,"station_id":"ce4bhjp2rcd13ifvqga0","pricing_plan_id":"cebpf4jnsgd1na2vs0mg"},{"bike_id":"7b521ce6-875a-4cbb-9fae-a6ba6a0ba13b","system_id":"levelo_inurba_marseille","lat":43.28153,"lon":5.42642,"is_reserved":false,"is_disabled":false,"rental_uris":{"android":"levelo://app?vid=7b521ce6-875a-4cbb-9fae-a6ba6a0ba13b","ios":"levelo://app?vid=7b521ce6-875a-4cbb-9fae-a6ba6a0ba13b"},"vehicle_type_id":"4","last_reported":1736514937,"current_range_meters":36800,"station_id":"ce4bhnh2rcd13ifvqgug","pricing_plan_id":"cebpf4jnsgd1na2vs0mg"},{"bike_id":"04c144bb-885d-4367-8bc8-e2ccfca26ca3","system_id":"levelo_inurba_marseille","lat":43.31334,"lon":5.39703,"is_reserved":false,"is_disabled":true,"rental_uris":{"android":"levelo://app?vid=04c144bb-885d-4367-8bc8-e2ccfca26ca3","ios":"levelo://app?vid=04c144bb-885d-4367-8bc8-e2ccfca26ca3"},"vehicle_type_id":"4","last_reported":1736514937,"current_range_meters":25600,"station_id":"ce4bgvp2rcd13ifvqcu0","pricing_plan_id":"cebpf4jnsgd1na2vs0mg"},{"bike_id":"fc1057d4-90a1-4917-8219-50abd6b84da3","system_id":"levelo_inurba_marseille","lat":43.32115,"lon":5.36765,"is_reserved":false,"is_disabled":false,"rental_uris":{"android":"levelo://app?vid=fc1057d4-90a1-4917-8219-50abd6b84da3","ios":"levelo://app?vid=fc1057d4-90a1-4917-8219-50abd6b84da3"},"vehicle_type_id":"4","last_reported":1736514937,"current_range_meters":22800,"station_id":"ce4bhrh2rcd13ifvqhug","pricing_plan_id":"cebpf4jnsgd1na2vs0mg"},{"bike_id":"f03ff58f-d6d7-49cd-85c4-5e481c7878fa","system_id":"levelo_inurba_marseille","lat":43.28466,"lon":5.38416,"is_reserved":false,"is_disabled":true,"rental_uris":{"android":"levelo://app?vid=f03ff58f-d6d7-49cd-85c4-5e481c7878fa","ios":"levelo://app?vid=f03ff58f-d6d7-49cd-85c4-5e481c7878fa"},"vehicle_type_id":"4","last_reported":1736514937,"current_range_meters":38800,"station_id":"ce4bh512rcd13ifvqe3g","pricing_plan_id":"cebpf4jnsgd1na2vs0mg"},{"bike_id":"aa637afa-5dab-4e4f-a5b1-a846e41a59b6","system_id":"levelo_inurba_marseille","lat":43.24079,"lon":5.37744,"is_reserved":false,"is_disabled":false,"rental_uris":{"android":"levelo://app?vid=aa637afa-5dab-4e4f-a5b1-a846e41a59b6","ios":"levelo://app?vid=aa637afa-5dab-4e4f-a5b1-a846e41a59b6"},"vehicle_type_id":"4","last_reported":1736514937,"current_range_meters":38800,"station_id":"ce4bhnp2rcd13ifvqgvg","pricing_plan_id":"cebpf4jnsgd1na2vs0mg"},{"bike_id":"b148d226-02d1-4383-bb81-4d7fffc148ba","system_id":"levelo_inurba_marseille","lat":43.29966,"lon":5.38499,"is_reserved":false,"is_disabled":false,"rental_uris":{"android":"levelo://app?vid=b148d226-02d1-4383-bb81-4d7fffc148ba","ios":"levelo://app?vid=b148d226-02d1-4383-bb81-4d7fffc148ba"},"vehicle_type_id":"4","last_reported":1736514937,"current_range_meters":24800,"station_id":"ce4bgj92rcd13ifvqbd0","pricing_plan_id":"cebpf4jnsgd1na2vs0mg"},{"bike_id":"7475f743-fa68-4b23-ab37-60e01b01184f","system_id":"levelo_inurba_marseille","lat":43.32108,"lon":5.36794,"is_reserved":false,"is_disabled":false,"rental_uris":{"android":"levelo://app?vid=7475f743-fa68-4b23-ab37-60e01b01184f","ios":"levelo://app?vid=7475f743-fa68-4b23-ab37-60e01b01184f"},"vehicle_type_id":"4","last_reported":1736514937,"current_range_meters":32000,"station_id":"ce4bhrh2rcd13ifvqhug","pricing_plan_id":"cebpf4jnsgd1na2vs0mg"},{"bike_id":"39e8b8db-a45b-47ac-924f-708d2b3bef9a","system_id":"levelo_inurba_marseille","lat":43.28615,"lon":5.35103,"is_reserved":false,"is_disabled":false,"rental_uris":{"android":"levelo://app?vid=39e8b8db-a45b-47ac-924f-708d2b3bef9a","ios":"levelo://app?vid=39e8b8db-a45b-47ac-924f-708d2b3bef9a"},"vehicle_type_id":"4","last_reported":1736514937,"current_range_meters":18800,"station_id":"ce4bhch2rcd13ifvqeug","pricing_plan_id":"cebpf4jnsgd1na2vs0mg"},{"bike_id":"5a00c802-8909-4e8b-8659-581f801b47a2","system_id":"levelo_inurba_marseille","lat":43.29256,"lon":5.40911,"is_reserved":false,"is_disabled":false,"rental_uris":{"android":"levelo://app?vid=5a00c802-8909-4e8b-8659-581f801b47a2","ios":"levelo://app?vid=5a00c802-8909-4e8b-8659-581f801b47a2"},"vehicle_type_id":"4","last_reported":1736514937,"current_range_meters":30400,"station_id":"ce4bh192rcd13ifvqdc0","pricing_plan_id":"cebpf4jnsgd1na2vs0mg"},{"bike_id":"8f990608-0474-44ea-9268-3927c4344f2f","system_id":"levelo_inurba_marseille","lat":43.26788,"lon":5.39412,"is_reserved":false,"is_disabled":false,"rental_uris":{"android":"levelo://app?vid=8f990608-0474-44ea-9268-3927c4344f2f","ios":"levelo://app?vid=8f990608-0474-44ea-9268-3927c4344f2f"},"vehicle_type_id":"4","last_reported":1736514937,"current_range_meters":31200,"station_id":"ce4bhh12rcd13ifvqfg0","pricing_plan_id":"cebpf4jnsgd1na2vs0mg"},{"bike_id":"d8b37533-1e4f-475e-837e-47479c1d586f","system_id":"levelo_inurba_marseille","lat":43.23158,"lon":5.43694,"is_reserved":false,"is_disabled":false,"rental_uris":{"android":"levelo://app?vid=d8b37533-1e4f-475e-837e-47479c1d586f","ios":"levelo://app?vid=d8b37533-1e4f-475e-837e-47479c1d586f"},"vehicle_type_id":"4","last_reported":1736514937,"current_range_meters":33200,"station_id":"ce4bhmp2rcd13ifvqgog","pricing_plan_id":"cebpf4jnsgd1na2vs0mg"},{"bike_id":"729943bc-9877-4e71-a7a6-e8f3bbacbaa0","system_id":"levelo_inurba_marseille","lat":43.25556,"lon":5.40695,"is_reserved":false,"is_disabled":false,"rental_uris":{"android":"levelo://app?vid=729943bc-9877-4e71-a7a6-e8f3bbacbaa0","ios":"levelo://app?vid=729943bc-9877-4e71-a7a6-e8f3bbacbaa0"},"vehicle_type_id":"4","last_reported":1736514937,"current_range_meters":36000,"station_id":"ce4bhkp2rcd13ifvqgd0","pricing_plan_id":"cebpf4jnsgd1na2vs0mg"},{"bike_id":"e2544aba-a350-44bf-ba9f-d261b2f4eb98","system_id":"levelo_inurba_marseille","lat":43.27933,"lon":5.41031,"is_reserved":false,"is_disabled":true,"rental_uris":{"android":"levelo://app?vid=e2544aba-a350-44bf-ba9f-d261b2f4eb98","ios":"levelo://app?vid=e2544aba-a350-44bf-ba9f-d261b2f4eb98"},"vehicle_type_id":"4","last_reported":1736514937,"current_range_meters":2000,"station_id":"ce4bhnp2rcd13ifvqh0g","pricing_plan_id":"cebpf4jnsgd1na2vs0mg"},{"bike_id":"d680e422-77b0-4b31-b495-73fa10f59858","system_id":"levelo_inurba_marseille","lat":43.28707,"lon":5.379307,"is_reserved":false,"is_disabled":false,"rental_uris":{"android":"levelo://app?vid=d680e422-77b0-4b31-b495-73fa10f59858","ios":"levelo://app?vid=d680e422-77b0-4b31-b495-73fa10f59858"},"vehicle_type_id":"4","last_reported":1736514937,"current_range_meters":26000,"station_id":"ce4bh9p2rcd13ifvqec0","pricing_plan_id":"cebpf4jnsgd1na2vs0mg"},{"bike_id":"2eb264c8-1e8d-4f17-a831-3cda07857865","system_id":"levelo_inurba_marseille","lat":43.32109,"lon":5.36793,"is_reserved":false,"is_disabled":false,"rental_uris":{"android":"levelo://app?vid=2eb264c8-1e8d-4f17-a831-3cda07857865","ios":"levelo://app?vid=2eb264c8-1e8d-4f17-a831-3cda07857865"},"vehicle_type_id":"4","last_reported":1736514937,"current_range_meters":34800,"station_id":"ce4bhrh2rcd13ifvqhug","pricing_plan_id":"cebpf4jnsgd1na2vs0mg"},{"bike_id":"ffabf844-d4c3-4be8-8e5f-9e7eeaa1ee93","system_id":"levelo_inurba_marseille","lat":43.27497,"lon":5.42448,"is_reserved":false,"is_disabled":false,"rental_uris":{"android":"levelo://app?vid=ffabf844-d4c3-4be8-8e5f-9e7eeaa1ee93","ios":"levelo://app?vid=ffabf844-d4c3-4be8-8e5f-9e7eeaa1ee93"},"vehicle_type_id":"4","last_reported":1736514937,"current_range_meters":31200,"station_id":"ce4bhn92rcd13ifvqgrg","pricing_plan_id":"cebpf4jnsgd1na2vs0mg"},{"bike_id":"1e2223a2-c032-49e7-8dbf-982df86a0520","system_id":"levelo_inurba_marseille","lat":43.22924,"lon":5.35379,"is_reserved":false,"is_disabled":false,"rental_uris":{"android":"levelo://app?vid=1e2223a2-c032-49e7-8dbf-982df86a0520","ios":"levelo://app?vid=1e2223a2-c032-49e7-8dbf-982df86a0520"},"vehicle_type_id":"4","last_reported":1736514937,"current_range_meters":32400,"station_id":"cpo3532slgdg3j2ikp40","pricing_plan_id":"cebpf4jnsgd1na2vs0mg"},{"bike_id":"027a053a-b7bd-4a0d-8309-e9ee15ccbeae","system_id":"levelo_inurba_marseille","lat":43.28424,"lon":5.39186,"is_reserved":false,"is_disabled":false,"rental_uris":{"android":"levelo://app?vid=027a053a-b7bd-4a0d-8309-e9ee15ccbeae","ios":"levelo://app?vid=027a053a-b7bd-4a0d-8309-e9ee15ccbeae"},"vehicle_type_id":"4","last_reported":1736514937,"current_range_meters":36400,"station_id":"ce4bhoh2rcd13ifvqh5g","pricing_plan_id":"cebpf4jnsgd1na2vs0mg"},{"bike_id":"145cfbb0-a64d-4e6e-9f48-a8948b305dc3","system_id":"levelo_inurba_marseille","lat":43.30553,"lon":5.36519,"is_reserved":false,"is_disabled":false,"rental_uris":{"android":"levelo://app?vid=145cfbb0-a64d-4e6e-9f48-a8948b305dc3","ios":"levelo://app?vid=145cfbb0-a64d-4e6e-9f48-a8948b305dc3"},"vehicle_type_id":"4","last_reported":1736514937,"current_range_meters":30000,"station_id":"ce4bgs12rcd13ifvqcag","pricing_plan_id":"cebpf4jnsgd1na2vs0mg"},{"bike_id":"816c2567-570f-4dea-94a5-cee630be949a","system_id":"levelo_inurba_marseille","lat":43.25576,"lon":5.38232,"is_reserved":false,"is_disabled":true,"rental_uris":{"android":"levelo://app?vid=816c2567-570f-4dea-94a5-cee630be949a","ios":"levelo://app?vid=816c2567-570f-4dea-94a5-cee630be949a"},"vehicle_type_id":"4","last_reported":1736514937,"current_range_meters":37600,"station_id":"ce4bhih2rcd13ifvqfs0","pricing_plan_id":"cebpf4jnsgd1na2vs0mg"},{"bike_id":"be8a233f-ad85-41b2-af03-bfa1e3033438","system_id":"levelo_inurba_marseille","lat":43.23198,"lon":5.35556,"is_reserved":false,"is_disabled":false,"rental_uris":{"android":"levelo://app?vid=be8a233f-ad85-41b2-af03-bfa1e3033438","ios":"levelo://app?vid=be8a233f-ad85-41b2-af03-bfa1e3033438"},"vehicle_type_id":"4","last_reported":1736514937,"current_range_meters":24400,"station_id":"ce4bhu92rcd13ifvqi70","pricing_plan_id":"cebpf4jnsgd1na2vs0mg"},{"bike_id":"d7284d59-0fa0-4e55-88c3-9102035d8a99","system_id":"levelo_inurba_marseille","lat":43.30239,"lon":5.40097,"is_reserved":false,"is_disabled":true,"rental_uris":{"android":"levelo://app?vid=d7284d59-0fa0-4e55-88c3-9102035d8a99","ios":"levelo://app?vid=d7284d59-0fa0-4e55-88c3-9102035d8a99"},"vehicle_type_id":"4","last_reported":1736514937,"current_range_meters":14800,"station_id":"ce4bgvh2rcd13ifvqcs0","pricing_plan_id":"cebpf4jnsgd1na2vs0mg"},{"bike_id":"0bdeb971-ad4a-4345-aca1-ced646282b0d","system_id":"levelo_inurba_marseille","lat":43.3136,"lon":5.3849,"is_reserved":false,"is_disabled":false,"rental_uris":{"android":"levelo://app?vid=0bdeb971-ad4a-4345-aca1-ced646282b0d","ios":"levelo://app?vid=0bdeb971-ad4a-4345-aca1-ced646282b0d"},"vehicle_type_id":"4","last_reported":1736514937,"current_range_meters":36400,"station_id":"ce4bgt92rcd13ifvqcf0","pricing_plan_id":"cebpf4jnsgd1na2vs0mg"},{"bike_id":"e5854bd3-0b92-4cbe-b4aa-3e77ea72a10b","system_id":"levelo_inurba_marseille","lat":43.31063,"lon":5.38341,"is_reserved":false,"is_disabled":false,"rental_uris":{"android":"levelo://app?vid=e5854bd3-0b92-4cbe-b4aa-3e77ea72a10b","ios":"levelo://app?vid=e5854bd3-0b92-4cbe-b4aa-3e77ea72a10b"},"vehicle_type_id":"4","last_reported":1736514937,"current_range_meters":36400,"station_id":"ce4bgv92rcd13ifvqcr0","pricing_plan_id":"cebpf4jnsgd1na2vs0mg"},{"bike_id":"401ff55f-764c-4de4-a59d-3b941aac169a","system_id":"levelo_inurba_marseille","lat":43.26069,"lon":5.39394,"is_reserved":false,"is_disabled":false,"rental_uris":{"android":"levelo://app?vid=401ff55f-764c-4de4-a59d-3b941aac169a","ios":"levelo://app?vid=401ff55f-764c-4de4-a59d-3b941aac169a"},"vehicle_type_id":"4","last_reported":1736514937,"current_range_meters":9600,"station_id":"ce4bhh92rcd13ifvqfj0","pricing_plan_id":"cebpf4jnsgd1na2vs0mg"},{"bike_id":"3d457ffa-1e9f-48b9-93db-22215008928f","system_id":"levelo_inurba_marseille","lat":43.31343,"lon":5.37057,"is_reserved":false,"is_disabled":true,"rental_uris":{"android":"levelo://app?vid=3d457ffa-1e9f-48b9-93db-22215008928f","ios":"levelo://app?vid=3d457ffa-1e9f-48b9-93db-22215008928f"},"vehicle_type_id":"4","last_reported":1736514937,"current_range_meters":32000,"station_id":"","pricing_plan_id":"cebpf4jnsgd1na2vs0mg"},{"bike_id":"7c6b4ab8-094c-4fb3-b826-f64ede01dc18","system_id":"levelo_inurba_marseille","lat":43.29309,"lon":5.37141,"is_reserved":false,"is_disabled":false,"rental_uris":{"android":"levelo://app?vid=7c6b4ab8-094c-4fb3-b826-f64ede01dc18","ios":"levelo://app?vid=7c6b4ab8-094c-4fb3-b826-f64ede01dc18"},"vehicle_type_id":"4","last_reported":1736514937,"current_range_meters":30000,"station_id":"ce4bgh92rcd13ifvqb40","pricing_plan_id":"cebpf4jnsgd1na2vs0mg"},{"bike_id":"4420f604-31b1-4342-852b-728b56ca993d","system_id":"levelo_inurba_marseille","lat":43.27494,"lon":5.42465,"is_reserved":false,"is_disabled":false,"rental_uris":{"android":"levelo://app?vid=4420f604-31b1-4342-852b-728b56ca993d","ios":"levelo://app?vid=4420f604-31b1-4342-852b-728b56ca993d"},"vehicle_type_id":"4","last_reported":1736514937,"current_range_meters":12000,"station_id":"ce4bhn92rcd13ifvqgrg","pricing_plan_id":"cebpf4jnsgd1na2vs0mg"},{"bike_id":"0751221b-37bf-4486-a78f-e3467767c553","system_id":"levelo_inurba_marseille","lat":43.25585,"lon":5.38248,"is_reserved":false,"is_disabled":false,"rental_uris":{"android":"levelo://app?vid=0751221b-37bf-4486-a78f-e3467767c553","ios":"levelo://app?vid=0751221b-37bf-4486-a78f-e3467767c553"},"vehicle_type_id":"4","last_reported":1736514937,"current_range_meters":38000,"station_id":"ce4bhih2rcd13ifvqfs0","pricing_plan_id":"cebpf4jnsgd1na2vs0mg"},{"bike_id":"ce2cca2d-f10c-4078-a6c6-e3331fe38940","system_id":"levelo_inurba_marseille","lat":43.30136,"lon":5.38779,"is_reserved":false,"is_disabled":false,"rental_uris":{"android":"levelo://app?vid=ce2cca2d-f10c-4078-a6c6-e3331fe38940","ios":"levelo://app?vid=ce2cca2d-f10c-4078-a6c6-e3331fe38940"},"vehicle_type_id":"4","last_reported":1736514937,"current_range_meters":38000,"station_id":"ce4bghh2rcd13ifvqb60","pricing_plan_id":"cebpf4jnsgd1na2vs0mg"},{"bike_id":"58dd46b8-d6be-435b-b0a2-f5003f4697ba","system_id":"levelo_inurba_marseille","lat":43.26195,"lon":5.37446,"is_reserved":false,"is_disabled":false,"rental_uris":{"android":"levelo://app?vid=58dd46b8-d6be-435b-b0a2-f5003f4697ba","ios":"levelo://app?vid=58dd46b8-d6be-435b-b0a2-f5003f4697ba"},"vehicle_type_id":"4","last_reported":1736514937,"current_range_meters":36800,"station_id":"ce4bhgp2rcd13ifvqfc0","pricing_plan_id":"cebpf4jnsgd1na2vs0mg"},{"bike_id":"fc9288ed-9da0-4c7f-9aba-d64070cdbf51","system_id":"levelo_inurba_marseille","lat":43.23153,"lon":5.43729,"is_reserved":false,"is_disabled":false,"rental_uris":{"android":"levelo://app?vid=fc9288ed-9da0-4c7f-9aba-d64070cdbf51","ios":"levelo://app?vid=fc9288ed-9da0-4c7f-9aba-d64070cdbf51"},"vehicle_type_id":"4","last_reported":1736514937,"current_range_meters":37600,"station_id":"ce4bhmp2rcd13ifvqgog","pricing_plan_id":"cebpf4jnsgd1na2vs0mg"},{"bike_id":"950b9615-1315-406c-b0f7-3ddb461b09c3","system_id":"levelo_inurba_marseille","lat":43.26562,"lon":5.37285,"is_reserved":false,"is_disabled":false,"rental_uris":{"android":"levelo://app?vid=950b9615-1315-406c-b0f7-3ddb461b09c3","ios":"levelo://app?vid=950b9615-1315-406c-b0f7-3ddb461b09c3"},"vehicle_type_id":"4","last_reported":1736514937,"current_range_meters":18000,"station_id":"ce4bhg12rcd13ifvqf70","pricing_plan_id":"cebpf4jnsgd1na2vs0mg"},{"bike_id":"ad28bd53-1c8c-44ea-9a1c-1e5a5b2498fe","system_id":"levelo_inurba_marseille","lat":43.24168,"lon":5.36416,"is_reserved":false,"is_disabled":false,"rental_uris":{"android":"levelo://app?vid=ad28bd53-1c8c-44ea-9a1c-1e5a5b2498fe","ios":"levelo://app?vid=ad28bd53-1c8c-44ea-9a1c-1e5a5b2498fe"},"vehicle_type_id":"4","last_reported":1736514937,"current_range_meters":10000,"station_id":"cpo36qri1sfpv3e86is0","pricing_plan_id":"cebpf4jnsgd1na2vs0mg"},{"bike_id":"36e63bb0-e819-4f2e-b051-513a78efe4e5","system_id":"levelo_inurba_marseille","lat":43.28148,"lon":5.42643,"is_reserved":false,"is_disabled":false,"rental_uris":{"android":"levelo://app?vid=36e63bb0-e819-4f2e-b051-513a78efe4e5","ios":"levelo://app?vid=36e63bb0-e819-4f2e-b051-513a78efe4e5"},"vehicle_type_id":"4","last_reported":1736514937,"current_range_meters":38000,"station_id":"ce4bhnh2rcd13ifvqgug","pricing_plan_id":"cebpf4jnsgd1na2vs0mg"},{"bike_id":"ed5f8f9c-24db-4495-ba73-b7cea4b154a2","system_id":"levelo_inurba_marseille","lat":43.24072,"lon":5.37757,"is_reserved":false,"is_disabled":false,"rental_uris":{"android":"levelo://app?vid=ed5f8f9c-24db-4495-ba73-b7cea4b154a2","ios":"levelo://app?vid=ed5f8f9c-24db-4495-ba73-b7cea4b154a2"},"vehicle_type_id":"4","last_reported":1736514937,"current_range_meters":38800,"station_id":"ce4bhnp2rcd13ifvqgvg","pricing_plan_id":"cebpf4jnsgd1na2vs0mg"},{"bike_id":"a25ca04d-6d9e-4ed1-bda3-27eb64313b13","system_id":"levelo_inurba_marseille","lat":43.30885,"lon":5.37198,"is_reserved":false,"is_disabled":false,"rental_uris":{"android":"levelo://app?vid=a25ca04d-6d9e-4ed1-bda3-27eb64313b13","ios":"levelo://app?vid=a25ca04d-6d9e-4ed1-bda3-27eb64313b13"},"vehicle_type_id":"4","last_reported":1736514937,"current_range_meters":38800,"station_id":"ce4bguh2rcd13ifvqckg","pricing_plan_id":"cebpf4jnsgd1na2vs0mg"},{"bike_id":"e3dc1723-c304-42fb-b1ea-ebc3611aa765","system_id":"levelo_inurba_marseille","lat":43.25919,"lon":5.40962,"is_reserved":false,"is_disabled":false,"rental_uris":{"android":"levelo://app?vid=e3dc1723-c304-42fb-b1ea-ebc3611aa765","ios":"levelo://app?vid=e3dc1723-c304-42fb-b1ea-ebc3611aa765"},"vehicle_type_id":"4","last_reported":1736514937,"current_range_meters":38000,"station_id":"ce4bhm92rcd13ifvqglg","pricing_plan_id":"cebpf4jnsgd1na2vs0mg"},{"bike_id":"773431f8-dd0e-4883-bb1d-27127804067c","system_id":"levelo_inurba_marseille","lat":43.29274,"lon":5.40129,"is_reserved":false,"is_disabled":false,"rental_uris":{"android":"levelo://app?vid=773431f8-dd0e-4883-bb1d-27127804067c","ios":"levelo://app?vid=773431f8-dd0e-4883-bb1d-27127804067c"},"vehicle_type_id":"4","last_reported":1736514937,"current_range_meters":36000,"station_id":"ce4bh312rcd13ifvqdk0","pricing_plan_id":"cebpf4jnsgd1na2vs0mg"},{"bike_id":"16d606e7-ce06-47ca-912a-578cc2dd10d1","system_id":"levelo_inurba_marseille","lat":43.32539,"lon":5.4144,"is_reserved":false,"is_disabled":false,"rental_uris":{"android":"levelo://app?vid=16d606e7-ce06-47ca-912a-578cc2dd10d1","ios":"levelo://app?vid=16d606e7-ce06-47ca-912a-578cc2dd10d1"},"vehicle_type_id":"4","last_reported":1736514937,"current_range_meters":18800,"station_id":"ce4bhq12rcd13ifvqhhg","pricing_plan_id":"cebpf4jnsgd1na2vs0mg"},{"bike_id":"c68e5b75-cfe5-431d-bab6-a21cd9971bcd","system_id":"levelo_inurba_marseille","lat":43.2872,"lon":5.37933,"is_reserved":false,"is_disabled":false,"rental_uris":{"android":"levelo://app?vid=c68e5b75-cfe5-431d-bab6-a21cd9971bcd","ios":"levelo://app?vid=c68e5b75-cfe5-431d-bab6-a21cd9971bcd"},"vehicle_type_id":"4","last_reported":1736514937,"current_range_meters":35600,"station_id":"ce4bh9p2rcd13ifvqec0","pricing_plan_id":"cebpf4jnsgd1na2vs0mg"},{"bike_id":"b8acbba0-a715-4ced-a2aa-0517db10ac9d","system_id":"levelo_inurba_marseille","lat":43.22918,"lon":5.35386,"is_reserved":false,"is_disabled":true,"rental_uris":{"android":"levelo://app?vid=b8acbba0-a715-4ced-a2aa-0517db10ac9d","ios":"levelo://app?vid=b8acbba0-a715-4ced-a2aa-0517db10ac9d"},"vehicle_type_id":"4","last_reported":1736514937,"current_range_meters":8000,"station_id":"cpo3532slgdg3j2ikp40","pricing_plan_id":"cebpf4jnsgd1na2vs0mg"},{"bike_id":"60746ec5-f322-442a-a951-a6a7ef203d24","system_id":"levelo_inurba_marseille","lat":43.24995,"lon":5.38932,"is_reserved":false,"is_disabled":false,"rental_uris":{"android":"levelo://app?vid=60746ec5-f322-442a-a951-a6a7ef203d24","ios":"levelo://app?vid=60746ec5-f322-442a-a951-a6a7ef203d24"},"vehicle_type_id":"4","last_reported":1736514937,"current_range_meters":22000,"station_id":"ce4bhgp2rcd13ifvqfd0","pricing_plan_id":"cebpf4jnsgd1na2vs0mg"},{"bike_id":"7e645727-bb54-4055-89fb-277ec407cf5d","system_id":"levelo_inurba_marseille","lat":43.24079,"lon":5.37756,"is_reserved":false,"is_disabled":false,"rental_uris":{"android":"levelo://app?vid=7e645727-bb54-4055-89fb-277ec407cf5d","ios":"levelo://app?vid=7e645727-bb54-4055-89fb-277ec407cf5d"},"vehicle_type_id":"4","last_reported":1736514937,"current_range_meters":14800,"station_id":"ce4bhnp2rcd13ifvqgvg","pricing_plan_id":"cebpf4jnsgd1na2vs0mg"},{"bike_id":"2e50db59-a5ae-405d-a3a7-5df8dfe377a2","system_id":"levelo_inurba_marseille","lat":43.29622,"lon":5.37168,"is_reserved":false,"is_disabled":false,"rental_uris":{"android":"levelo://app?vid=2e50db59-a5ae-405d-a3a7-5df8dfe377a2","ios":"levelo://app?vid=2e50db59-a5ae-405d-a3a7-5df8dfe377a2"},"vehicle_type_id":"4","last_reported":1736514937,"current_range_meters":12400,"station_id":"ce4bgnh2rcd13ifvqc0g","pricing_plan_id":"cebpf4jnsgd1na2vs0mg"},{"bike_id":"62f87a94-556e-4521-8c9a-cb113eefc874","system_id":"levelo_inurba_marseille","lat":43.28921,"lon":5.38399,"is_reserved":false,"is_disabled":true,"rental_uris":{"android":"levelo://app?vid=62f87a94-556e-4521-8c9a-cb113eefc874","ios":"levelo://app?vid=62f87a94-556e-4521-8c9a-cb113eefc874"},"vehicle_type_id":"4","last_reported":1736514937,"current_range_meters":2000,"station_id":"ce4bh612rcd13ifvqe6g","pricing_plan_id":"cebpf4jnsgd1na2vs0mg"},{"bike_id":"ad113f76-a766-497a-90be-d1902352af36","system_id":"levelo_inurba_marseille","lat":43.32095,"lon":5.36787,"is_reserved":false,"is_disabled":false,"rental_uris":{"android":"levelo://app?vid=ad113f76-a766-497a-90be-d1902352af36","ios":"levelo://app?vid=ad113f76-a766-497a-90be-d1902352af36"},"vehicle_type_id":"4","last_reported":1736514937,"current_range_meters":38400,"station_id":"ce4bhrh2rcd13ifvqhug","pricing_plan_id":"cebpf4jnsgd1na2vs0mg"},{"bike_id":"9f45806b-0439-44e8-9147-35b59088d5f3","system_id":"levelo_inurba_marseille","lat":43.24168,"lon":5.3643,"is_reserved":false,"is_disabled":false,"rental_uris":{"android":"levelo://app?vid=9f45806b-0439-44e8-9147-35b59088d5f3","ios":"levelo://app?vid=9f45806b-0439-44e8-9147-35b59088d5f3"},"vehicle_type_id":"4","last_reported":1736514937,"current_range_meters":14000,"station_id":"cpo36qri1sfpv3e86is0","pricing_plan_id":"cebpf4jnsgd1na2vs0mg"},{"bike_id":"da5e617c-b0b4-4a0f-988d-1036e5f8b0ce","system_id":"levelo_inurba_marseille","lat":43.30502,"lon":5.3652,"is_reserved":false,"is_disabled":false,"rental_uris":{"android":"levelo://app?vid=da5e617c-b0b4-4a0f-988d-1036e5f8b0ce","ios":"levelo://app?vid=da5e617c-b0b4-4a0f-988d-1036e5f8b0ce"},"vehicle_type_id":"4","last_reported":1736514937,"current_range_meters":38400,"station_id":"ce4bgs12rcd13ifvqcag","pricing_plan_id":"cebpf4jnsgd1na2vs0mg"},{"bike_id":"58263753-068c-479f-9fbe-9617f0cd32de","system_id":"levelo_inurba_marseille","lat":43.29039,"lon":5.39962,"is_reserved":false,"is_disabled":false,"rental_uris":{"android":"levelo://app?vid=58263753-068c-479f-9fbe-9617f0cd32de","ios":"levelo://app?vid=58263753-068c-479f-9fbe-9617f0cd32de"},"vehicle_type_id":"4","last_reported":1736514937,"current_range_meters":8000,"station_id":"ce4bh392rcd13ifvqdm0","pricing_plan_id":"cebpf4jnsgd1na2vs0mg"},{"bike_id":"c90d1336-07f9-4b85-a89b-f0513cdd170d","system_id":"levelo_inurba_marseille","lat":43.30528,"lon":5.36543,"is_reserved":false,"is_disabled":false,"rental_uris":{"android":"levelo://app?vid=c90d1336-07f9-4b85-a89b-f0513cdd170d","ios":"levelo://app?vid=c90d1336-07f9-4b85-a89b-f0513cdd170d"},"vehicle_type_id":"4","last_reported":1736514937,"current_range_meters":29600,"station_id":"ce4bgs12rcd13ifvqcag","pricing_plan_id":"cebpf4jnsgd1na2vs0mg"},{"bike_id":"69689a84-aa34-48e6-8abf-e56354e3d93c","system_id":"levelo_inurba_marseille","lat":43.29523,"lon":5.375,"is_reserved":false,"is_disabled":true,"rental_uris":{"android":"levelo://app?vid=69689a84-aa34-48e6-8abf-e56354e3d93c","ios":"levelo://app?vid=69689a84-aa34-48e6-8abf-e56354e3d93c"},"vehicle_type_id":"4","last_reported":1736514937,"current_range_meters":34800,"station_id":"ce4bgkp2rcd13ifvqbmg","pricing_plan_id":"cebpf4jnsgd1na2vs0mg"},{"bike_id":"07ccab10-cdda-4c0b-bba3-cb0e1013117c","system_id":"levelo_inurba_marseille","lat":43.29766,"lon":5.39343,"is_reserved":false,"is_disabled":false,"rental_uris":{"android":"levelo://app?vid=07ccab10-cdda-4c0b-bba3-cb0e1013117c","ios":"levelo://app?vid=07ccab10-cdda-4c0b-bba3-cb0e1013117c"},"vehicle_type_id":"4","last_reported":1736514937,"current_range_meters":16400,"station_id":"chh1huq6cuj3fo74tm60","pricing_plan_id":"cebpf4jnsgd1na2vs0mg"},{"bike_id":"a134ed48-3d04-4fb3-80af-23b5de8a4aef","system_id":"levelo_inurba_marseille","lat":43.31891,"lon":5.40738,"is_reserved":false,"is_disabled":false,"rental_uris":{"android":"levelo://app?vid=a134ed48-3d04-4fb3-80af-23b5de8a4aef","ios":"levelo://app?vid=a134ed48-3d04-4fb3-80af-23b5de8a4aef"},"vehicle_type_id":"4","last_reported":1736514937,"current_range_meters":8000,"station_id":"ce4bhq12rcd13ifvqhig","pricing_plan_id":"cebpf4jnsgd1na2vs0mg"},{"bike_id":"65ddbdec-8fb0-4476-b841-bb2985286249","system_id":"levelo_inurba_marseille","lat":43.26543,"lon":5.37288,"is_reserved":false,"is_disabled":false,"rental_uris":{"android":"levelo://app?vid=65ddbdec-8fb0-4476-b841-bb2985286249","ios":"levelo://app?vid=65ddbdec-8fb0-4476-b841-bb2985286249"},"vehicle_type_id":"4","last_reported":1736514937,"current_range_meters":31200,"station_id":"ce4bhg12rcd13ifvqf70","pricing_plan_id":"cebpf4jnsgd1na2vs0mg"},{"bike_id":"f770107d-eade-41af-8731-54a41a9041bd","system_id":"levelo_inurba_marseille","lat":43.27813,"lon":5.40721,"is_reserved":false,"is_disabled":false,"rental_uris":{"android":"levelo://app?vid=f770107d-eade-41af-8731-54a41a9041bd","ios":"levelo://app?vid=f770107d-eade-41af-8731-54a41a9041bd"},"vehicle_type_id":"4","last_reported":1736514937,"current_range_meters":9600,"station_id":"ce4bhnh2rcd13ifvqgtg","pricing_plan_id":"cebpf4jnsgd1na2vs0mg"},{"bike_id":"4d87590b-ba47-4365-a1a6-ec01d34e46c5","system_id":"levelo_inurba_marseille","lat":43.28928,"lon":5.36381,"is_reserved":false,"is_disabled":false,"rental_uris":{"android":"levelo://app?vid=4d87590b-ba47-4365-a1a6-ec01d34e46c5","ios":"levelo://app?vid=4d87590b-ba47-4365-a1a6-ec01d34e46c5"},"vehicle_type_id":"4","last_reported":1736514937,"current_range_meters":14000,"station_id":"ce4bhc92rcd13ifvqetg","pricing_plan_id":"cebpf4jnsgd1na2vs0mg"},{"bike_id":"79d4d31b-e814-4db1-9d24-013e65778338","system_id":"levelo_inurba_marseille","lat":43.26192,"lon":5.37449,"is_reserved":false,"is_disabled":false,"rental_uris":{"android":"levelo://app?vid=79d4d31b-e814-4db1-9d24-013e65778338","ios":"levelo://app?vid=79d4d31b-e814-4db1-9d24-013e65778338"},"vehicle_type_id":"4","last_reported":1736514937,"current_range_meters":20800,"station_id":"ce4bhgp2rcd13ifvqfc0","pricing_plan_id":"cebpf4jnsgd1na2vs0mg"},{"bike_id":"13e212b8-5740-4590-8c47-c11f63d4d407","system_id":"levelo_inurba_marseille","lat":43.28266,"lon":5.35074,"is_reserved":false,"is_disabled":false,"rental_uris":{"android":"levelo://app?vid=13e212b8-5740-4590-8c47-c11f63d4d407","ios":"levelo://app?vid=13e212b8-5740-4590-8c47-c11f63d4d407"},"vehicle_type_id":"4","last_reported":1736514937,"current_range_meters":30400,"station_id":"ce4bhbp2rcd13ifvqerg","pricing_plan_id":"cebpf4jnsgd1na2vs0mg"},{"bike_id":"68187e5c-8a2e-467b-94cb-f5bf1ea6d290","system_id":"levelo_inurba_marseille","lat":43.29817,"lon":5.40409,"is_reserved":false,"is_disabled":false,"rental_uris":{"android":"levelo://app?vid=68187e5c-8a2e-467b-94cb-f5bf1ea6d290","ios":"levelo://app?vid=68187e5c-8a2e-467b-94cb-f5bf1ea6d290"},"vehicle_type_id":"4","last_reported":1736514937,"current_range_meters":28400,"station_id":"ce4bh112rcd13ifvqd90","pricing_plan_id":"cebpf4jnsgd1na2vs0mg"},{"bike_id":"ae54dad7-c469-4240-857f-4e11b87544b0","system_id":"levelo_inurba_marseille","lat":43.28984,"lon":5.37828,"is_reserved":false,"is_disabled":false,"rental_uris":{"android":"levelo://app?vid=ae54dad7-c469-4240-857f-4e11b87544b0","ios":"levelo://app?vid=ae54dad7-c469-4240-857f-4e11b87544b0"},"vehicle_type_id":"4","last_reported":1736514937,"current_range_meters":36800,"station_id":"ce4bh9p2rcd13ifvqed0","pricing_plan_id":"cebpf4jnsgd1na2vs0mg"},{"bike_id":"f95a3f6e-e375-4dc4-9d6e-2ae8c5602a90","system_id":"levelo_inurba_marseille","lat":43.286078,"lon":5.351409,"is_reserved":false,"is_disabled":false,"rental_uris":{"android":"levelo://app?vid=f95a3f6e-e375-4dc4-9d6e-2ae8c5602a90","ios":"levelo://app?vid=f95a3f6e-e375-4dc4-9d6e-2ae8c5602a90"},"vehicle_type_id":"4","last_reported":1736514937,"current_range_meters":24800,"station_id":"ce4bhch2rcd13ifvqeug","pricing_plan_id":"cebpf4jnsgd1na2vs0mg"},{"bike_id":"bceda76b-7eb8-491f-a170-13b4ba74011a","system_id":"levelo_inurba_marseille","lat":43.29598,"lon":5.38093,"is_reserved":false,"is_disabled":false,"rental_uris":{"android":"levelo://app?vid=bceda76b-7eb8-491f-a170-13b4ba74011a","ios":"levelo://app?vid=bceda76b-7eb8-491f-a170-13b4ba74011a"},"vehicle_type_id":"4","last_reported":1736514937,"current_range_meters":26000,"station_id":"ce4bgl12rcd13ifvqbo0","pricing_plan_id":"cebpf4jnsgd1na2vs0mg"},{"bike_id":"b3087262-1d90-47d2-b171-9187fb306b43","system_id":"levelo_inurba_marseille","lat":43.30313,"lon":5.39208,"is_reserved":false,"is_disabled":true,"rental_uris":{"android":"levelo://app?vid=b3087262-1d90-47d2-b171-9187fb306b43","ios":"levelo://app?vid=b3087262-1d90-47d2-b171-9187fb306b43"},"vehicle_type_id":"4","last_reported":1736514937,"current_range_meters":38400,"station_id":"ce4bgkh2rcd13ifvqbk0","pricing_plan_id":"cebpf4jnsgd1na2vs0mg"},{"bike_id":"9206c95e-2310-4379-baae-87ddcc0a5d46","system_id":"levelo_inurba_marseille","lat":43.2931,"lon":5.37461,"is_reserved":false,"is_disabled":false,"rental_uris":{"android":"levelo://app?vid=9206c95e-2310-4379-baae-87ddcc0a5d46","ios":"levelo://app?vid=9206c95e-2310-4379-baae-87ddcc0a5d46"},"vehicle_type_id":"4","last_reported":1736514937,"current_range_meters":18800,"station_id":"ce4bgi12rcd13ifvqb70","pricing_plan_id":"cebpf4jnsgd1na2vs0mg"},{"bike_id":"10837590-8cff-4e9e-a42f-5348f2c9d3bc","system_id":"levelo_inurba_marseille","lat":43.26877,"lon":5.38893,"is_reserved":false,"is_disabled":true,"rental_uris":{"android":"levelo://app?vid=10837590-8cff-4e9e-a42f-5348f2c9d3bc","ios":"levelo://app?vid=10837590-8cff-4e9e-a42f-5348f2c9d3bc"},"vehicle_type_id":"4","last_reported":1736514937,"current_range_meters":0,"station_id":"","pricing_plan_id":"cebpf4jnsgd1na2vs0mg"},{"bike_id":"20da52c2-5716-4721-a89a-754faa622293","system_id":"levelo_inurba_marseille","lat":43.31624,"lon":5.41569,"is_reserved":false,"is_disabled":false,"rental_uris":{"android":"levelo://app?vid=20da52c2-5716-4721-a89a-754faa622293","ios":"levelo://app?vid=20da52c2-5716-4721-a89a-754faa622293"},"vehicle_type_id":"4","last_reported":1736514937,"current_range_meters":8800,"station_id":"ce4bhp92rcd13ifvqhbg","pricing_plan_id":"cebpf4jnsgd1na2vs0mg"},{"bike_id":"3f634efe-3b14-4125-a67b-79cfacf8d0eb","system_id":"levelo_inurba_marseille","lat":43.24546,"lon":5.39524,"is_reserved":false,"is_disabled":false,"rental_uris":{"android":"levelo://app?vid=3f634efe-3b14-4125-a67b-79cfacf8d0eb","ios":"levelo://app?vid=3f634efe-3b14-4125-a67b-79cfacf8d0eb"},"vehicle_type_id":"4","last_reported":1736514937,"current_range_meters":36400,"station_id":"ce4bhlp2rcd13ifvqgjg","pricing_plan_id":"cebpf4jnsgd1na2vs0mg"},{"bike_id":"fa13c2ee-7838-41d7-9228-ae3f8138ebea","system_id":"levelo_inurba_marseille","lat":43.26933,"lon":5.38917,"is_reserved":false,"is_disabled":false,"rental_uris":{"android":"levelo://app?vid=fa13c2ee-7838-41d7-9228-ae3f8138ebea","ios":"levelo://app?vid=fa13c2ee-7838-41d7-9228-ae3f8138ebea"},"vehicle_type_id":"4","last_reported":1736514937,"current_range_meters":38000,"station_id":"ce4bhhh2rcd13ifvqfl0","pricing_plan_id":"cebpf4jnsgd1na2vs0mg"},{"bike_id":"77cf3074-a2d1-4cc7-ab76-83cd53c98874","system_id":"levelo_inurba_marseille","lat":43.3044,"lon":5.3974,"is_reserved":false,"is_disabled":false,"rental_uris":{"android":"levelo://app?vid=77cf3074-a2d1-4cc7-ab76-83cd53c98874","ios":"levelo://app?vid=77cf3074-a2d1-4cc7-ab76-83cd53c98874"},"vehicle_type_id":"4","last_reported":1736514937,"current_range_meters":22400,"station_id":"ce4bh092rcd13ifvqd20","pricing_plan_id":"cebpf4jnsgd1na2vs0mg"},{"bike_id":"c12bbde8-1e18-48f6-bc42-f5bbc01f7670","system_id":"levelo_inurba_marseille","lat":43.29582,"lon":5.36744,"is_reserved":false,"is_disabled":false,"rental_uris":{"android":"levelo://app?vid=c12bbde8-1e18-48f6-bc42-f5bbc01f7670","ios":"levelo://app?vid=c12bbde8-1e18-48f6-bc42-f5bbc01f7670"},"vehicle_type_id":"4","last_reported":1736514937,"current_range_meters":22400,"station_id":"ce4bgph2rcd13ifvqc2g","pricing_plan_id":"cebpf4jnsgd1na2vs0mg"},