{"last_updated":1747815293,"ttl":60,"version":"2.2","data":{"bikes":[{"bike_id":"c0b9fd4f-e181-46ce-b0bf-f5119973334f","system_id":"levelo_inurba_marseille","lat":43.33771,"lon":5.37424,"is_reserved":false,"is_disabled":true,"rental_uris":{"android":"levelo://app?vid=c0b9fd4f-e181-46ce-b0bf-f5119973334f","ios":"levelo://app?vid=c0b9fd4f-e181-46ce-b0bf-f5119973334f"},"vehicle_type_id":"4","last_reported":1747815293,"current_range_meters":0,"station_id":"","pricing_plan_id":"cebpf4jnsgd1na2vs0mg"},{"bike_id":"1dec17c8-cbde-4354-8b6c-219f98c89710","system_id":"levelo_inurba_marseille","lat":43.291827,"lon":5.422652,"is_reserved":false,"is_disabled":true,"rental_uris":{"android":"levelo://app?vid=1dec17c8-cbde-4354-8b6c-219f98c89710","ios":"levelo://app?vid=1dec17c8-cbde-4354-8b6c-219f98c89710"},"vehicle_type_id":"4","last_reported":1747815293,"current_range_meters":0,"station_id":"","pricing_plan_id":"cebpf4jnsgd1na2vs0mg"},{"bike_id":"399c41cd-ce0f-41ec-852e-8ace5217f7e1","system_id":"levelo_inurba_marseille","lat":43.29039,"lon":5.42478,"is_reserved":false,"is_disabled":true,"rental_uris":{"android":"levelo://app?vid=399c41cd-ce0f-41ec-852e-8ace5217f7e1","ios":"levelo://app?vid=399c41cd-ce0f-41ec-852e-8ace5217f7e1"},"vehicle_type_id":"4","last_reported":1747815293,"current_range_meters":0,"station_id":"","pricing_plan_id":"cebpf4jnsgd1na2vs0mg"},{"bike_id":"cd8c0c41-250b-4a0f-a5ba-6b810eeda305","system_id":"levelo_inurba_marseille","lat":43.29872,"lon":5.39745,"is_reserved":false,"is_disabled":true,"rental_uris":{"android":"levelo://app?vid=cd8c0c41-250b-4a0f-a5ba-6b810eeda305","ios":"levelo://app?vid=cd8c0c41-250b-4a0f-a5ba-6b810eeda305"},"vehicle_type_id":"4","last_reported":1747815293,"current_range_meters":0,"station_id":"","pricing_plan_id":"cebpf4jnsgd1na2vs0mg"},{"bike_id":"e9dd3aa4-b5e7-4480-926d-d7f537719bfa","system_id":"levelo_inurba_marseille","lat":43.230331,"lon":5.401847,"is_reserved":false,"is_disabled":true,"rental_uris":{"android":"levelo://app?vid=e9dd3aa4-b5e7-4480-926d-d7f537719bfa","ios":"levelo://app?vid=e9dd3aa4-b5e7-4480-926d-d7f537719bfa"},"vehicle_type_id":"4","last_reported":1747815293,"current_range_meters":0,"station_id":"","pricing_plan_id":"cebpf4jnsgd1na2vs0mg"},{"bike_id":"14603e41-b2dd-4757-a53c-2e366aa4f983","system_id":"levelo_inurba_marseille","lat":43.26997,"lon":5.42825,"is_reserved":false,"is_disabled":true,"rental_uris":{"android":"levelo://app?vid=14603e41-b2dd-4757-a53c-2e366aa4f983","ios":"levelo://app?vid=14603e41-b2dd-4757-a53c-2e366aa4f983"},"vehicle_type_id":"4","last_reported":1747815293,"current_range_meters":0,"station_id":"","pricing_plan_id":"cebpf4jnsgd1na2vs0mg"},{"bike_id":"0ee4ff2e-95ae-4437-afcf-882d7ee14218","system_id":"levelo_inurba_marseille","lat":43.29778,"lon":5.371,"is_reserved":false,"is_disabled":true,"rental_uris":{"android":"levelo://app?vid=0ee4ff2e-95ae-4437-afcf-882d7ee14218","ios":"levelo://app?vid=0ee4ff2e-95ae-4437-afcf-882d7ee14218"},"vehicle_type_id":"4","last_reported":1747815293,"current_range_meters":0,"station_id":"ce4bgop2rcd13ifvqc1g","pricing_plan_id":"cebpf4jnsgd1na2vs0mg"},{"bike_id":"73bbede7-3033-44c9-a3b1-c75a25f405ae","system_id":"levelo_inurba_marseille","lat":43.31683,"lon":5.40466,"is_reserved":false,"is_disabled":true,"rental_uris":{"android":"levelo://app?vid=73bbede7-3033-44c9-a3b1-c75a25f405ae","ios":"levelo://app?vid=73bbede7-3033-44c9-a3b1-c75a25f405ae"},"vehicle_type_id":"4","last_reported":1747815293,"current_range_meters":0,"station_id":"ce4bh012rcd13ifvqd00","pricing_plan_id":"cebpf4jnsgd1na2vs0mg"},{"bike_id":"ae61d5a4-5e6f-40bf-98d9-7fd9c03f9302","system_id":"levelo_inurba_marseille","lat":43.29037,"lon":5.399523,"is_reserved":false,"is_disabled":true,"rental_uris":{"android":"levelo://app?vid=ae61d5a4-5e6f-40bf-98d9-7fd9c03f9302","ios":"levelo://app?vid=ae61d5a4-5e6f-40bf-98d9-7fd9c03f9302"},"vehicle_type_id":"4","last_reported":1747815293,"current_range_meters":0,"station_id":"ce4bh392rcd13ifvqdm0","pricing_plan_id":"cebpf4jnsgd1na2vs0mg"},{"bike_id":"310cda0d-5244-4405-81a7-d648bc1b6eb9","system_id":"levelo_inurba_marseille","lat":43.28665,"lon":5.36353,"is_reserved":false,"is_disabled":true,"rental_uris":{"android":"levelo://app?vid=310cda0d-5244-4405-81a7-d648bc1b6eb9","ios":"levelo://app?vid=310cda0d-5244-4405-81a7-d648bc1b6eb9"},"vehicle_type_id":"4","last_reported":1747815293,"current_range_meters":0,"station_id":"ce4bhah2rcd13ifvqej0","pricing_plan_id":"cebpf4jnsgd1na2vs0mg"},{"bike_id":"59e56d49-c57d-4ae9-a933-715a357f14c1","system_id":"levelo_inurba_marseille","lat":43.27918,"lon":5.39572,"is_reserved":false,"is_disabled":true,"rental_uris":{"android":"levelo://app?vid=59e56d49-c57d-4ae9-a933-715a357f14c1","ios":"levelo://app?vid=59e56d49-c57d-4ae9-a933-715a357f14c1"},"vehicle_type_id":"4","last_reported":1747815293,"current_range_meters":0,"station_id":"ce4bhf92rcd13ifvqf40","pricing_plan_id":"cebpf4jnsgd1na2vs0mg"},{"bike_id":"b7ce9f06-2d34-4591-84a7-0042f0a4bb53","system_id":"levelo_inurba_marseille","lat":43.27925,"lon":5.41039,"is_reserved":false,"is_disabled":true,"rental_uris":{"android":"levelo://app?vid=b7ce9f06-2d34-4591-84a7-0042f0a4bb53","ios":"levelo://app?vid=b7ce9f06-2d34-4591-84a7-0042f0a4bb53"},"vehicle_type_id":"4","last_reported":1747815293,"current_range_meters":0,"station_id":"ce4bhnp2rcd13ifvqh0g","pricing_plan_id":"cebpf4jnsgd1na2vs0mg"},{"bike_id":"db433c89-7a5c-4402-a4b7-f24f8fac02de","system_id":"levelo_inurba_marseille","lat":43.29873,"lon":5.38898,"is_reserved":false,"is_disabled":true,"rental_uris":{"android":"levelo://app?vid=db433c89-7a5c-4402-a4b7-f24f8fac02de","ios":"levelo://app?vid=db433c89-7a5c-4402-a4b7-f24f8fac02de"},"vehicle_type_id":"4","last_reported":1747815293,"current_range_meters":400,"station_id":"ce4bh392rcd13ifvqdl0","pricing_plan_id":"cebpf4jnsgd1na2vs0mg"},{"bike_id":"943132e7-de58-4794-a346-3471ab2f86ad","system_id":"levelo_inurba_marseille","lat":43.26944,"lon":5.38626,"is_reserved":false,"is_disabled":true,"rental_uris":{"android":"levelo://app?vid=943132e7-de58-4794-a346-3471ab2f86ad","ios":"levelo://app?vid=943132e7-de58-4794-a346-3471ab2f86ad"},"vehicle_type_id":"4","last_reported":1747815293,"current_range_meters":400,"station_id":"ce4bhh92rcd13ifvqfh0","pricing_plan_id":"cebpf4jnsgd1na2vs0mg"},{"bike_id":"2bdc3e2e-592d-4696-877b-38d9a83a4ef0","system_id":"levelo_inurba_marseille","lat":43.2749,"lon":5.42452,"is_reserved":false,"is_disabled":true,"rental_uris":{"android":"levelo://app?vid=2bdc3e2e-592d-4696-877b-38d9a83a4ef0","ios":"levelo://app?vid=2bdc3e2e-592d-4696-877b-38d9a83a4ef0"},"vehicle_type_id":"4","last_reported":1747815293,"current_range_meters":400,"station_id":"ce4bhn92rcd13ifvqgrg","pricing_plan_id":"cebpf4jnsgd1na2vs0mg"},{"bike_id":"b012970f-3bbb-43d4-8f5c-e2da7cac849b","system_id":"levelo_inurba_marseille","lat":43.24073,"lon":5.37758,"is_reserved":false,"is_disabled":true,"rental_uris":{"android":"levelo://app?vid=b012970f-3bbb-43d4-8f5c-e2da7cac849b","ios":"levelo://app?vid=b012970f-3bbb-43d4-8f5c-e2da7cac849b"},"vehicle_type_id":"4","last_reported":1747815293,"current_range_meters":400,"station_id":"ce4bhnp2rcd13ifvqgvg","pricing_plan_id":"cebpf4jnsgd1na2vs0mg"},{"bike_id":"1564514d-cc8e-42ef-8372-aa83ad864c8e","system_id":"levelo_inurba_marseille","lat":43.281172,"lon":5.406043,"is_reserved":false,"is_disabled":true,"rental_uris":{"android":"levelo://app?vid=1564514d-cc8e-42ef-8372-aa83ad864c8e","ios":"levelo://app?vid=1564514d-cc8e-42ef-8372-aa83ad864c8e"},"vehicle_type_id":"4","last_reported":1747815293,"current_range_meters":800,"station_id":"","pricing_plan_id":"cebpf4jnsgd1na2vs0mg"},{"bike_id":"07a3bb82-a6c4-4095-8518-91082cb3a680","system_id":"levelo_inurba_marseille","lat":43.29931,"lon":5.36547,"is_reserved":false,"is_disabled":true,"rental_uris":{"android":"levelo://app?vid=07a3bb82-a6c4-4095-8518-91082cb3a680","ios":"levelo://app?vid=07a3bb82-a6c4-4095-8518-91082cb3a680"},"vehicle_type_id":"4","last_reported":1747815293,"current_range_meters":800,"station_id":"ce4bgm92rcd13ifvqbr0","pricing_plan_id":"cebpf4jnsgd1na2vs0mg"},{"bike_id":"7e870e2d-bdbd-4f7b-8921-c10f374d0578","system_id":"levelo_inurba_marseille","lat":43.309308,"lon":5.40149,"is_reserved":false,"is_disabled":true,"rental_uris":{"android":"levelo://app?vid=7e870e2d-bdbd-4f7b-8921-c10f374d0578","ios":"levelo://app?vid=7e870e2d-bdbd-4f7b-8921-c10f374d0578"},"vehicle_type_id":"4","last_reported":1747815293,"current_range_meters":800,"station_id":"ce4bgvp2rcd13ifvqct0","pricing_plan_id":"cebpf4jnsgd1na2vs0mg"},{"bike_id":"6284dde3-6a32-40f9-a447-a5ccc35ccfed","system_id":"levelo_inurba_marseille","lat":43.28615,"lon":5.35107,"is_reserved":false,"is_disabled":true,"rental_uris":{"android":"levelo://app?vid=6284dde3-6a32-40f9-a447-a5ccc35ccfed","ios":"levelo://app?vid=6284dde3-6a32-40f9-a447-a5ccc35ccfed"},"vehicle_type_id":"4","last_reported":1747815293,"current_range_meters":800,"station_id":"ce4bhch2rcd13ifvqeug","pricing_plan_id":"cebpf4jnsgd1na2vs0mg"},{"bike_id":"43298e93-1783-4df4-9a72-940844aef1f0","system_id":"levelo_inurba_marseille","lat":43.23965,"lon":5.36633,"is_reserved":false,"is_disabled":true,"rental_uris":{"android":"levelo://app?vid=43298e93-1783-4df4-9a72-940844aef1f0","ios":"levelo://app?vid=43298e93-1783-4df4-9a72-940844aef1f0"},"vehicle_type_id":"4","last_reported":1747815293,"current_range_meters":800,"station_id":"ce4bhi12rcd13ifvqfp0","pricing_plan_id":"cebpf4jnsgd1na2vs0mg"},{"bike_id":"96b0c81b-78a7-4c8a-be63-94b173bb2dd8","system_id":"levelo_inurba_marseille","lat":43.23967,"lon":5.36626,"is_reserved":false,"is_disabled":true,"rental_uris":{"android":"levelo://app?vid=96b0c81b-78a7-4c8a-be63-94b173bb2dd8","ios":"levelo://app?vid=96b0c81b-78a7-4c8a-be63-94b173bb2dd8"},"vehicle_type_id":"4","last_reported":1747815293,"current_range_meters":800,"station_id":"ce4bhi12rcd13ifvqfp0","pricing_plan_id":"cebpf4jnsgd1na2vs0mg"},{"bike_id":"4cb0121c-6b98-4d3b-b73d-d989f7a16b87","system_id":"levelo_inurba_marseille","lat":43.29688,"lon":5.37299,"is_reserved":false,"is_disabled":true,"rental_uris":{"android":"levelo://app?vid=4cb0121c-6b98-4d3b-b73d-d989f7a16b87","ios":"levelo://app?vid=4cb0121c-6b98-4d3b-b73d-d989f7a16b87"},"vehicle_type_id":"4","last_reported":1747815293,"current_range_meters":1200,"station_id":"ce4bgk12rcd13ifvqbj0","pricing_plan_id":"cebpf4jnsgd1na2vs0mg"},{"bike_id":"2150c90f-31d5-49fd-89de-399fa134a212","system_id":"levelo_inurba_marseille","lat":43.32335,"lon":5.40614,"is_reserved":false,"is_disabled":true,"rental_uris":{"android":"levelo://app?vid=2150c90f-31d5-49fd-89de-399fa134a212","ios":"levelo://app?vid=2150c90f-31d5-49fd-89de-399fa134a212"},"vehicle_type_id":"4","last_reported":1747815293,"current_range_meters":1200,"station_id":"ce4bhq92rcd13ifvqhjg","pricing_plan_id":"cebpf4jnsgd1na2vs0mg"},{"bike_id":"84c5433a-dbcb-4188-85ee-7650bc58c8e1","system_id":"levelo_inurba_marseille","lat":43.2417,"lon":5.36387,"is_reserved":false,"is_disabled":true,"rental_uris":{"android":"levelo://app?vid=84c5433a-dbcb-4188-85ee-7650bc58c8e1","ios":"levelo://app?vid=84c5433a-dbcb-4188-85ee-7650bc58c8e1"},"vehicle_type_id":"4","last_reported":1747815293,"current_range_meters":1200,"station_id":"cpo36qri1sfpv3e86is0","pricing_plan_id":"cebpf4jnsgd1na2vs0mg"},{"bike_id":"20bee342-4a3f-4f34-940d-bb6cf00d52ae","system_id":"levelo_inurba_marseille","lat":43.2667,"lon":5.38566,"is_reserved":false,"is_disabled":true,"rental_uris":{"android":"levelo://app?vid=20bee342-4a3f-4f34-940d-bb6cf00d52ae","ios":"levelo://app?vid=20bee342-4a3f-4f34-940d-bb6cf00d52ae"},"vehicle_type_id":"4","last_reported":1747815293,"current_range_meters":1600,"station_id":"","pricing_plan_id":"cebpf4jnsgd1na2vs0mg"},{"bike_id":"11bc7c17-7490-4625-9570-e05f3a7088b0","system_id":"levelo_inurba_marseille","lat":43.27206,"lon":5.39179,"is_reserved":false,"is_disabled":true,"rental_uris":{"android":"levelo://app?vid=11bc7c17-7490-4625-9570-e05f3a7088b0","ios":"levelo://app?vid=11bc7c17-7490-4625-9570-e05f3a7088b0"},"vehicle_type_id":"4","last_reported":1747815293,"current_range_meters":1600,"station_id":"ce4bhhp2rcd13ifvqfm0","pricing_plan_id":"cebpf4jnsgd1na2vs0mg"},{"bike_id":"210a970d-9cfd-4148-a449-b0f550e170ca","system_id":"levelo_inurba_marseille","lat":43.28441,"lon":5.39186,"is_reserved":false,"is_disabled":true,"rental_uris":{"android":"levelo://app?vid=210a970d-9cfd-4148-a449-b0f550e170ca","ios":"levelo://app?vid=210a970d-9cfd-4148-a449-b0f550e170ca"},"vehicle_type_id":"4","last_reported":1747815293,"current_range_meters":1600,"station_id":"ce4bhoh2rcd13ifvqh5g","pricing_plan_id":"cebpf4jnsgd1na2vs0mg"},{"bike_id":"06f61d0a-80e1-4ed2-9f20-f2a6e95a6399","system_id":"levelo_inurba_marseille","lat":43.33611,"lon":5.40992,"is_reserved":false,"is_disabled":true,"rental_uris":{"android":"levelo://app?vid=06f61d0a-80e1-4ed2-9f20-f2a6e95a6399","ios":"levelo://app?vid=06f61d0a-80e1-4ed2-9f20-f2a6e95a6399"},"vehicle_type_id":"4","last_reported":1747815293,"current_range_meters":1600,"station_id":"ce4bhqh2rcd13ifvqhmg","pricing_plan_id":"cebpf4jnsgd1na2vs0mg"},{"bike_id":"1c741986-0876-4520-ac61-e47cc5d5b1d3","system_id":"levelo_inurba_marseille","lat":43.3211,"lon":5.36787,"is_reserved":false,"is_disabled":true,"rental_uris":{"android":"levelo://app?vid=1c741986-0876-4520-ac61-e47cc5d5b1d3","ios":"levelo://app?vid=1c741986-0876-4520-ac61-e47cc5d5b1d3"},"vehicle_type_id":"4","last_reported":1747815293,"current_range_meters":1600,"station_id":"ce4bhrh2rcd13ifvqhug","pricing_plan_id":"cebpf4jnsgd1na2vs0mg"},{"bike_id":"0aabd4b7-f48e-49b9-a78f-68bb8e6c4142","system_id":"levelo_inurba_marseille","lat":43.2962,"lon":5.37713,"is_reserved":false,"is_disabled":true,"rental_uris":{"android":"levelo://app?vid=0aabd4b7-f48e-49b9-a78f-68bb8e6c4142","ios":"levelo://app?vid=0aabd4b7-f48e-49b9-a78f-68bb8e6c4142"},"vehicle_type_id":"4","last_reported":1747815293,"current_range_meters":2000,"station_id":"ce4bgi92rcd13ifvqb90","pricing_plan_id":"cebpf4jnsgd1na2vs0mg"},{"bike_id":"33d3bbc7-12de-4e0f-8a1a-6ea61f51c09d","system_id":"levelo_inurba_marseille","lat":43.280327,"lon":5.369428,"is_reserved":false,"is_disabled":true,"rental_uris":{"android":"levelo://app?vid=33d3bbc7-12de-4e0f-8a1a-6ea61f51c09d","ios":"levelo://app?vid=33d3bbc7-12de-4e0f-8a1a-6ea61f51c09d"},"vehicle_type_id":"4","last_reported":1747815293,"current_range_meters":2000,"station_id":"ce4bha12rcd13ifvqef0","pricing_plan_id":"cebpf4jnsgd1na2vs0mg"},{"bike_id":"a36a2fb0-36a7-4824-a67d-5a8bc99e3fd6","system_id":"levelo_inurba_marseille","lat":43.25109,"lon":5.40322,"is_reserved":false,"is_disabled":true,"rental_uris":{"android":"levelo://app?vid=a36a2fb0-36a7-4824-a67d-5a8bc99e3fd6","ios":"levelo://app?vid=a36a2fb0-36a7-4824-a67d-5a8bc99e3fd6"},"vehicle_type_id":"4","last_reported":1747815293,"current_range_meters":2000,"station_id":"ce4bhlh2rcd13ifvqgig","pricing_plan_id":"cebpf4jnsgd1na2vs0mg"},{"bike_id":"75b0a358-213a-4d8a-a462-c41a2b39fb92","system_id":"levelo_inurba_marseille","lat":43.25583,"lon":5.38222,"is_reserved":false,"is_disabled":false,"rental_uris":{"android":"levelo://app?vid=75b0a358-213a-4d8a-a462-c41a2b39fb92","ios":"levelo://app?vid=75b0a358-213a-4d8a-a462-c41a2b39fb92"},"vehicle_type_id":"4","last_reported":1747815293,"current_range_meters":2800,"station_id":"ce4bhih2rcd13ifvqfs0","pricing_plan_id":"cebpf4jnsgd1na2vs0mg"},{"bike_id":"61ce11c8-fc58-4174-bf6f-153ca80e08d2","system_id":"levelo_inurba_marseille","lat":43.24076,"lon":5.37739,"is_reserved":false,"is_disabled":false,"rental_uris":{"android":"levelo://app?vid=61ce11c8-fc58-4174-bf6f-153ca80e08d2","ios":"levelo://app?vid=61ce11c8-fc58-4174-bf6f-153ca80e08d2"},"vehicle_type_id":"4","last_reported":1747815293,"current_range_meters":2800,"station_id":"ce4bhnp2rcd13ifvqgvg","pricing_plan_id":"cebpf4jnsgd1na2vs0mg"},{"bike_id":"abb6e147-8b3c-4a68-b04d-bdd5033dc31b","system_id":"levelo_inurba_marseille","lat":43.279358,"lon":5.410506,"is_reserved":false,"is_disabled":false,"rental_uris":{"android":"levelo://app?vid=abb6e147-8b3c-4a68-b04d-bdd5033dc31b","ios":"levelo://app?vid=abb6e147-8b3c-4a68-b04d-bdd5033dc31b"},"vehicle_type_id":"4","last_reported":1747815293,"current_range_meters":2800,"station_id":"ce4bhnp2rcd13ifvqh0g","pricing_plan_id":"cebpf4jnsgd1na2vs0mg"},{"bike_id":"786214a7-8604-4d8e-ba3b-e8046f72b102","system_id":"levelo_inurba_marseille","lat":43.31718,"lon":5.4239,"is_reserved":false,"is_disabled":true,"rental_uris":{"android":"levelo://app?vid=786214a7-8604-4d8e-ba3b-e8046f72b102","ios":"levelo://app?vid=786214a7-8604-4d8e-ba3b-e8046f72b102"},"vehicle_type_id":"4","last_reported":1747815293,"current_range_meters":2800,"station_id":"ce4bhp92rcd13ifvqhbg","pricing_plan_id":"cebpf4jnsgd1na2vs0mg"},{"bike_id":"ba59102a-6c47-4600-bcb9-76e5920c2815","system_id":"levelo_inurba_marseille","lat":43.31351,"lon":5.37196,"is_reserved":false,"is_disabled":false,"rental_uris":{"android":"levelo://app?vid=ba59102a-6c47-4600-bcb9-76e5920c2815","ios":"levelo://app?vid=ba59102a-6c47-4600-bcb9-76e5920c2815"},"vehicle_type_id":"4","last_reported":1747815293,"current_range_meters":3200,"station_id":"","pricing_plan_id":"cebpf4jnsgd1na2vs0mg"},{"bike_id":"e8766741-ea6b-4ad7-90cf-1be7a7317f85","system_id":"levelo_inurba_marseille","lat":43.21751,"lon":5.34601,"is_reserved":false,"is_disabled":false,"rental_uris":{"android":"levelo://app?vid=e8766741-ea6b-4ad7-90cf-1be7a7317f85","ios":"levelo://app?vid=e8766741-ea6b-4ad7-90cf-1be7a7317f85"},"vehicle_type_id":"4","last_reported":1747815293,"current_range_meters":3200,"station_id":"","pricing_plan_id":"cebpf4jnsgd1na2vs0mg"},{"bike_id":"8625b236-8156-48f9-a54b-ebc9612bdfd6","system_id":"levelo_inurba_marseille","lat":43.30316,"lon":5.39219,"is_reserved":false,"is_disabled":true,"rental_uris":{"android":"levelo://app?vid=8625b236-8156-48f9-a54b-ebc9612bdfd6","ios":"levelo://app?vid=8625b236-8156-48f9-a54b-ebc9612bdfd6"},"vehicle_type_id":"4","last_reported":1747815293,"current_range_meters":3200,"station_id":"ce4bgkh2rcd13ifvqbk0","pricing_plan_id":"cebpf4jnsgd1na2vs0mg"},{"bike_id":"80c43c25-e522-488f-9986-b7e90417753f","system_id":"levelo_inurba_marseille","lat":43.29265,"lon":5.36848,"is_reserved":false,"is_disabled":false,"rental_uris":{"android":"levelo://app?vid=80c43c25-e522-488f-9986-b7e90417753f","ios":"levelo://app?vid=80c43c25-e522-488f-9986-b7e90417753f"},"vehicle_type_id":"4","last_reported":1747815293,"current_range_meters":3200,"station_id":"ce4bhbp2rcd13ifvqesg","pricing_plan_id":"cebpf4jnsgd1na2vs0mg"},{"bike_id":"e1086c94-a06e-41fc-88fe-76b5c06cb4b0","system_id":"levelo_inurba_marseille","lat":43.26932,"lon":5.38923,"is_reserved":false,"is_disabled":false,"rental_uris":{"android":"levelo://app?vid=e1086c94-a06e-41fc-88fe-76b5c06cb4b0","ios":"levelo://app?vid=e1086c94-a06e-41fc-88fe-76b5c06cb4b0"},"vehicle_type_id":"4","last_reported":1747815293,"current_range_meters":3200,"station_id":"ce4bhhh2rcd13ifvqfl0","pricing_plan_id":"cebpf4jnsgd1na2vs0mg"},{"bike_id":"b41301cd-8577-4348-858b-0dcd3f7865f9","system_id":"levelo_inurba_marseille","lat":43.26492,"lon":5.39547,"is_reserved":false,"is_disabled":false,"rental_uris":{"android":"levelo://app?vid=b41301cd-8577-4348-858b-0dcd3f7865f9","ios":"levelo://app?vid=b41301cd-8577-4348-858b-0dcd3f7865f9"},"vehicle_type_id":"4","last_reported":1747815293,"current_range_meters":3200,"station_id":"ce4bhi12rcd13ifvqfq0","pricing_plan_id":"cebpf4jnsgd1na2vs0mg"},{"bike_id":"913ffe41-9e00-4f91-b95c-fa12c59adf68","system_id":"levelo_inurba_marseille","lat":43.25934,"lon":5.40908,"is_reserved":false,"is_disabled":false,"rental_uris":{"android":"levelo://app?vid=913ffe41-9e00-4f91-b95c-fa12c59adf68","ios":"levelo://app?vid=913ffe41-9e00-4f91-b95c-fa12c59adf68"},"vehicle_type_id":"4","last_reported":1747815293,"current_range_meters":3200,"station_id":"ce4bhm92rcd13ifvqglg","pricing_plan_id":"cebpf4jnsgd1na2vs0mg"},{"bike_id":"fd14c408-34b5-4e0c-9d07-3cfbc7370a81","system_id":"levelo_inurba_marseille","lat":43.25727,"lon":5.41109,"is_reserved":false,"is_disabled":false,"rental_uris":{"android":"levelo://app?vid=fd14c408-34b5-4e0c-9d07-3cfbc7370a81","ios":"levelo://app?vid=fd14c408-34b5-4e0c-9d07-3cfbc7370a81"},"vehicle_type_id":"4","last_reported":1747815293,"current_range_meters":3600,"station_id":"ce4bhkp2rcd13ifvqgd0","pricing_plan_id":"cebpf4jnsgd1na2vs0mg"},{"bike_id":"5e5f020a-6028-406d-8f08-b5dcf3d63f76","system_id":"levelo_inurba_marseille","lat":43.2407,"lon":5.37758,"is_reserved":false,"is_disabled":false,"rental_uris":{"android":"levelo://app?vid=5e5f020a-6028-406d-8f08-b5dcf3d63f76","ios":"levelo://app?vid=5e5f020a-6028-406d-8f08-b5dcf3d63f76"},"vehicle_type_id":"4","last_reported":1747815293,"current_range_meters":3600,"station_id":"ce4bhnp2rcd13ifvqgvg","pricing_plan_id":"cebpf4jnsgd1na2vs0mg"},{"bike_id":"d7f995fb-640d-402e-8d40-b7b0813d8869","system_id":"levelo_inurba_marseille","lat":43.21189,"lon":5.35072,"is_reserved":false,"is_disabled":false,"rental_uris":{"android":"levelo://app?vid=d7f995fb-640d-402e-8d40-b7b0813d8869","ios":"levelo://app?vid=d7f995fb-640d-402e-8d40-b7b0813d8869"},"vehicle_type_id":"4","last_reported":1747815293,"current_range_meters":3600,"station_id":"st_cvj6sg6p6f1abm77japg","pricing_plan_id":"cebpf4jnsgd1na2vs0mg"},{"bike_id":"8f0f531d-6a65-4647-8a6f-baa3d982f42f","system_id":"levelo_inurba_marseille","lat":43.28142,"lon":5.42541,"is_reserved":false,"is_disabled":false,"rental_uris":{"android":"levelo://app?vid=8f0f531d-6a65-4647-8a6f-baa3d982f42f","ios":"levelo://app?vid=8f0f531d-6a65-4647-8a6f-baa3d982f42f"},"vehicle_type_id":"4","last_reported":1747815293,"current_range_meters":4000,"station_id":"","pricing_plan_id":"cebpf4jnsgd1na2vs0mg"},{"bike_id":"25384866-7326-432e-bf99-1dee9fd7f8a7","system_id":"levelo_inurba_marseille","lat":43.241784,"lon":5.397295,"is_reserved":false,"is_disabled":false,"rental_uris":{"android":"levelo://app?vid=25384866-7326-432e-bf99-1dee9fd7f8a7","ios":"levelo://app?vid=25384866-7326-432e-bf99-1dee9fd7f8a7"},"vehicle_type_id":"4","last_reported":1747815293,"current_range_meters":4000,"station_id":"ce4bhn12rcd13ifvqgpg","pricing_plan_id":"cebpf4jnsgd1na2vs0mg"},{"bike_id":"5163f51f-3ed7-4643-bc09-95659c803301","system_id":"levelo_inurba_marseille","lat":43.27499,"lon":5.42443,"is_reserved":false,"is_disabled":false,"rental_uris":{"android":"levelo://app?vid=5163f51f-3ed7-4643-bc09-95659c803301","ios":"levelo://app?vid=5163f51f-3ed7-4643-bc09-95659c803301"},"vehicle_type_id":"4","last_reported":1747815293,"current_range_meters":4000,"station_id":"ce4bhn92rcd13ifvqgrg","pricing_plan_id":"cebpf4jnsgd1na2vs0mg"},{"bike_id":"c781ad9b-f056-42a1-97da-43a40b1b92e7","system_id":"levelo_inurba_marseille","lat":43.2318,"lon":5.35604,"is_reserved":false,"is_disabled":false,"rental_uris":{"android":"levelo://app?vid=c781ad9b-f056-42a1-97da-43a40b1b92e7","ios":"levelo://app?vid=c781ad9b-f056-42a1-97da-43a40b1b92e7"},"vehicle_type_id":"4","last_reported":1747815293,"current_range_meters":4000,"station_id":"ce4bhu92rcd13ifvqi70","pricing_plan_id":"cebpf4jnsgd1na2vs0mg"},{"bike_id":"a5bcf3ab-5daa-4dec-898b-27b2e944e103","system_id":"levelo_inurba_marseille","lat":43.27297,"lon":5.41028,"is_reserved":false,"is_disabled":false,"rental_uris":{"android":"levelo://app?vid=a5bcf3ab-5daa-4dec-898b-27b2e944e103","ios":"levelo://app?vid=a5bcf3ab-5daa-4dec-898b-27b2e944e103"},"vehicle_type_id":"4","last_reported":1747815293,"current_range_meters":4400,"station_id":"","pricing_plan_id":"cebpf4jnsgd1na2vs0mg"},{"bike_id":"66231a58-2293-48f3-b6c5-c3c2cbcbfcd3","system_id":"levelo_inurba_marseille","lat":43.29599,"lon":5.38093,"is_reserved":false,"is_disabled":false,"rental_uris":{"android":"levelo://app?vid=66231a58-2293-48f3-b6c5-c3c2cbcbfcd3","ios":"levelo://app?vid=66231a58-2293-48f3-b6c5-c3c2cbcbfcd3"},"vehicle_type_id":"4","last_reported":1747815293,"current_range_meters":4400,"station_id":"ce4bgl12rcd13ifvqbo0","pricing_plan_id":"cebpf4jnsgd1na2vs0mg"},{"bike_id":"c0e29b78-5ef8-450c-9879-72f4a478f9e5","system_id":"levelo_inurba_marseille","lat":43.23707,"lon":5.36337,"is_reserved":false,"is_disabled":false,"rental_uris":{"android":"levelo://app?vid=c0e29b78-5ef8-450c-9879-72f4a478f9e5","ios":"levelo://app?vid=c0e29b78-5ef8-450c-9879-72f4a478f9e5"},"vehicle_type_id":"4","last_reported":1747815293,"current_range_meters":4800,"station_id":"","pricing_plan_id":"cebpf4jnsgd1na2vs0mg"},{"bike_id":"731a2bce-8dbf-4ef8-8095-8ee365fa718a","system_id":"levelo_inurba_marseille","lat":43.30309,"lon":5.36909,"is_reserved":false,"is_disabled":false,"rental_uris":{"android":"levelo://app?vid=731a2bce-8dbf-4ef8-8095-8ee365fa718a","ios":"levelo://app?vid=731a2bce-8dbf-4ef8-8095-8ee365fa718a"},"vehicle_type_id":"4","last_reported":1747815293,"current_range_meters":4800,"station_id":"ce4bgqh2rcd13ifvqc5g","pricing_plan_id":"cebpf4jnsgd1na2vs0mg"},{"bike_id":"a4d86568-5f55-48db-a5c5-4e9d4194ff3f","system_id":"levelo_inurba_marseille","lat":43.30588,"lon":5.3936,"is_reserved":false,"is_disabled":false,"rental_uris":{"android":"levelo://app?vid=a4d86568-5f55-48db-a5c5-4e9d4194ff3f","ios":"levelo://app?vid=a4d86568-5f55-48db-a5c5-4e9d4194ff3f"},"vehicle_type_id":"4","last_reported":1747815293,"current_range_meters":4800,"station_id":"ce4bh0p2rcd13ifvqd80","pricing_plan_id":"cebpf4jnsgd1na2vs0mg"},{"bike_id":"1addcad7-d488-4e1c-b76c-777e91802e42","system_id":"levelo_inurba_marseille","lat":43.25091,"lon":5.39502,"is_reserved":false,"is_disabled":false,"rental_uris":{"android":"levelo://app?vid=1addcad7-d488-4e1c-b76c-777e91802e42","ios":"levelo://app?vid=1addcad7-d488-4e1c-b76c-777e91802e42"},"vehicle_type_id":"4","last_reported":1747815293,"current_range_meters":4800,"station_id":"ce4bhm12rcd13ifvqgkg","pricing_plan_id":"cebpf4jnsgd1na2vs0mg"},{"bike_id":"a6a79777-8e26-46b0-be40-2e589b0e5a0f","system_id":"levelo_inurba_marseille","lat":43.21185,"lon":5.35073,"is_reserved":false,"is_disabled":false,"rental_uris":{"android":"levelo://app?vid=a6a79777-8e26-46b0-be40-2e589b0e5a0f","ios":"levelo://app?vid=a6a79777-8e26-46b0-be40-2e589b0e5a0f"},"vehicle_type_id":"4","last_reported":1747815293,"current_range_meters":4800,"station_id":"st_cvj6sg6p6f1abm77japg","pricing_plan_id":"cebpf4jnsgd1na2vs0mg"},{"bike_id":"85eaca89-9437-48d0-9bca-a254337b88db","system_id":"levelo_inurba_marseille","lat":43.27454,"lon":5.40974,"is_reserved":false,"is_disabled":false,"rental_uris":{"android":"levelo://app?vid=85eaca89-9437-48d0-9bca-a254337b88db","ios":"levelo://app?vid=85eaca89-9437-48d0-9bca-a254337b88db"},"vehicle_type_id":"4","last_reported":1747815293,"current_range_meters":5600,"station_id":"","pricing_plan_id":"cebpf4jnsgd1na2vs0mg"},{"bike_id":"ae4321c3-eb73-4a6d-af65-9762a1d98ce7","system_id":"levelo_inurba_marseille","lat":43.29025,"lon":5.38642,"is_reserved":false,"is_disabled":false,"rental_uris":{"android":"levelo://app?vid=ae4321c3-eb73-4a6d-af65-9762a1d98ce7","ios":"levelo://app?vid=ae4321c3-eb73-4a6d-af65-9762a1d98ce7"},"vehicle_type_id":"4","last_reported":1747815293,"current_range_meters":5600,"station_id":"ce4bh4p2rcd13ifvqe0g","pricing_plan_id":"cebpf4jnsgd1na2vs0mg"},{"bike_id":"5a4cd7eb-3f0c-45d6-aa7c-800c0193f214","system_id":"levelo_inurba_marseille","lat":43.24648,"lon":5.38887,"is_reserved":false,"is_disabled":false,"rental_uris":{"android":"levelo://app?vid=5a4cd7eb-3f0c-45d6-aa7c-800c0193f214","ios":"levelo://app?vid=5a4cd7eb-3f0c-45d6-aa7c-800c0193f214"},"vehicle_type_id":"4","last_reported":1747815293,"current_range_meters":5600,"station_id":"ce4bhg12rcd13ifvqf60","pricing_plan_id":"cebpf4jnsgd1na2vs0mg"},{"bike_id":"2691747d-15ef-498c-b5c2-e5efa1517c66","system_id":"levelo_inurba_marseille","lat":43.260567,"lon":5.3939,"is_reserved":false,"is_disabled":false,"rental_uris":{"android":"levelo://app?vid=2691747d-15ef-498c-b5c2-e5efa1517c66","ios":"levelo://app?vid=2691747d-15ef-498c-b5c2-e5efa1517c66"},"vehicle_type_id":"4","last_reported":1747815293,"current_range_meters":5600,"station_id":"ce4bhh92rcd13ifvqfj0","pricing_plan_id":"cebpf4jnsgd1na2vs0mg"},{"bike_id":"8a77c670-a7af-4ac0-9918-4e6c1c91e962","system_id":"levelo_inurba_marseille","lat":43.25091,"lon":5.3949,"is_reserved":false,"is_disabled":false,"rental_uris":{"android":"levelo://app?vid=8a77c670-a7af-4ac0-9918-4e6c1c91e962","ios":"levelo://app?vid=8a77c670-a7af-4ac0-9918-4e6c1c91e962"},"vehicle_type_id":"4","last_reported":1747815293,"current_range_meters":5600,"station_id":"ce4bhm12rcd13ifvqgkg","pricing_plan_id":"cebpf4jnsgd1na2vs0mg"},{"bike_id":"aecbf68f-68e0-4fb7-a621-951fcbe7dd21","system_id":"levelo_inurba_marseille","lat":43.27495,"lon":5.42452,"is_reserved":false,"is_disabled":false,"rental_uris":{"android":"levelo://app?vid=aecbf68f-68e0-4fb7-a621-951fcbe7dd21","ios":"levelo://app?vid=aecbf68f-68e0-4fb7-a621-951fcbe7dd21"},"vehicle_type_id":"4","last_reported":1747815293,"current_range_meters":5600,"station_id":"ce4bhn92rcd13ifvqgrg","pricing_plan_id":"cebpf4jnsgd1na2vs0mg"},{"bike_id":"bcc938d8-2314-431f-89b0-e089a0362855","system_id":"levelo_inurba_marseille","lat":43.31703,"lon":5.40409,"is_reserved":false,"is_disabled":false,"rental_uris":{"android":"levelo://app?vid=bcc938d8-2314-431f-89b0-e089a0362855","ios":"levelo://app?vid=bcc938d8-2314-431f-89b0-e089a0362855"},"vehicle_type_id":"4","last_reported":1747815293,"current_range_meters":6000,"station_id":"","pricing_plan_id":"cebpf4jnsgd1na2vs0mg"},{"bike_id":"f649b615-f35d-4b4f-9ea5-01b1cab16378","system_id":"levelo_inurba_marseille","lat":43.25924,"lon":5.40879,"is_reserved":false,"is_disabled":false,"rental_uris":{"android":"levelo://app?vid=f649b615-f35d-4b4f-9ea5-01b1cab16378","ios":"levelo://app?vid=f649b615-f35d-4b4f-9ea5-01b1cab16378"},"vehicle_type_id":"4","last_reported":1747815293,"current_range_meters":6000,"station_id":"ce4bhm92rcd13ifvqglg","pricing_plan_id":"cebpf4jnsgd1na2vs0mg"},{"bike_id":"b0b13eab-cdc7-4116-928e-e27c9077d04d","system_id":"levelo_inurba_marseille","lat":43.24072,"lon":5.3776,"is_reserved":false,"is_disabled":false,"rental_uris":{"android":"levelo://app?vid=b0b13eab-cdc7-4116-928e-e27c9077d04d","ios":"levelo://app?vid=b0b13eab-cdc7-4116-928e-e27c9077d04d"},"vehicle_type_id":"4","last_reported":1747815293,"current_range_meters":6000,"station_id":"ce4bhnp2rcd13ifvqgvg","pricing_plan_id":"cebpf4jnsgd1na2vs0mg"},{"bike_id":"7c8527a3-ecde-4770-90f8-c2fd342302cc","system_id":"levelo_inurba_marseille","lat":43.28576,"lon":5.396596,"is_reserved":false,"is_disabled":false,"rental_uris":{"android":"levelo://app?vid=7c8527a3-ecde-4770-90f8-c2fd342302cc","ios":"levelo://app?vid=7c8527a3-ecde-4770-90f8-c2fd342302cc"},"vehicle_type_id":"4","last_reported":1747815293,"current_range_meters":6400,"station_id":"ce4bh292rcd13ifvqdg0","pricing_plan_id":"cebpf4jnsgd1na2vs0mg"},{"bike_id":"25237339-253a-44e5-ab01-1cb4797f99d2","system_id":"levelo_inurba_marseille","lat":43.23146,"lon":5.43721,"is_reserved":false,"is_disabled":false,"rental_uris":{"android":"levelo://app?vid=25237339-253a-44e5-ab01-1cb4797f99d2","ios":"levelo://app?vid=25237339-253a-44e5-ab01-1cb4797f99d2"},"vehicle_type_id":"4","last_reported":1747815293,"current_range_meters":6400,"station_id":"ce4bhmp2rcd13ifvqgog","pricing_plan_id":"cebpf4jnsgd1na2vs0mg"},{"bike_id":"1782d190-9282-40bf-b08b-3144c2bebdff","system_id":"levelo_inurba_marseille","lat":43.29168,"lon":5.37169,"is_reserved":false,"is_disabled":false,"rental_uris":{"android":"levelo://app?vid=1782d190-9282-40bf-b08b-3144c2bebdff","ios":"levelo://app?vid=1782d190-9282-40bf-b08b-3144c2bebdff"},"vehicle_type_id":"4","last_reported":1747815293,"current_range_meters":6800,"station_id":"ce4bha92rcd13ifvqeh0","pricing_plan_id":"cebpf4jnsgd1na2vs0mg"},{"bike_id":"62629b61-160a-4cbc-aada-79bc709a4b8d","system_id":"levelo_inurba_marseille","lat":43.2893,"lon":5.36636,"is_reserved":false,"is_disabled":false,"rental_uris":{"android":"levelo://app?vid=62629b61-160a-4cbc-aada-79bc709a4b8d","ios":"levelo://app?vid=62629b61-160a-4cbc-aada-79bc709a4b8d"},"vehicle_type_id":"4","last_reported":1747815293,"current_range_meters":6800,"station_id":"ce4bhap2rcd13ifvqek0","pricing_plan_id":"cebpf4jnsgd1na2vs0mg"},{"bike_id":"8dc284c9-fd38-4823-bc98-90f15f3d9cde","system_id":"levelo_inurba_marseille","lat":43.26931,"lon":5.38919,"is_reserved":false,"is_disabled":false,"rental_uris":{"android":"levelo://app?vid=8dc284c9-fd38-4823-bc98-90f15f3d9cde","ios":"levelo://app?vid=8dc284c9-fd38-4823-bc98-90f15f3d9cde"},"vehicle_type_id":"4","last_reported":1747815293,"current_range_meters":6800,"station_id":"ce4bhhh2rcd13ifvqfl0","pricing_plan_id":"cebpf4jnsgd1na2vs0mg"},{"bike_id":"165d67e7-7820-413e-9335-5112e6b2d1ca","system_id":"levelo_inurba_marseille","lat":43.32651,"lon":5.41001,"is_reserved":false,"is_disabled":false,"rental_uris":{"android":"levelo://app?vid=165d67e7-7820-413e-9335-5112e6b2d1ca","ios":"levelo://app?vid=165d67e7-7820-413e-9335-5112e6b2d1ca"},"vehicle_type_id":"4","last_reported":1747815293,"current_range_meters":6800,"station_id":"ce4bhpp2rcd13ifvqhgg","pricing_plan_id":"cebpf4jnsgd1na2vs0mg"},{"bike_id":"bffbaf88-357a-4e87-a68c-a9a27a6e01e6","system_id":"levelo_inurba_marseille","lat":43.262277,"lon":5.42129,"is_reserved":false,"is_disabled":false,"rental_uris":{"android":"levelo://app?vid=bffbaf88-357a-4e87-a68c-a9a27a6e01e6","ios":"levelo://app?vid=bffbaf88-357a-4e87-a68c-a9a27a6e01e6"},"vehicle_type_id":"4","last_reported":1747815293,"current_range_meters":7200,"station_id":"","pricing_plan_id":"cebpf4jnsgd1na2vs0mg"},{"bike_id":"f399188c-fd6a-4150-a0b1-d27dcf429701","system_id":"levelo_inurba_marseille","lat":43.29849,"lon":5.36284,"is_reserved":false,"is_disabled":false,"rental_uris":{"android":"levelo://app?vid=f399188c-fd6a-4150-a0b1-d27dcf429701","ios":"levelo://app?vid=f399188c-fd6a-4150-a0b1-d27dcf429701"},"vehicle_type_id":"4","last_reported":1747815293,"current_range_meters":7200,"station_id":"ce4bgpp2rcd13ifvqc3g","pricing_plan_id":"cebpf4jnsgd1na2vs0mg"},{"bike_id":"cc45d3f7-e83d-421f-ae6c-2b29004d8f96","system_id":"levelo_inurba_marseille","lat":43.30952,"lon":5.39032,"is_reserved":false,"is_disabled":false,"rental_uris":{"android":"levelo://app?vid=cc45d3f7-e83d-421f-ae6c-2b29004d8f96","ios":"levelo://app?vid=cc45d3f7-e83d-421f-ae6c-2b29004d8f96"},"vehicle_type_id":"4","last_reported":1747815293,"current_range_meters":7200,"station_id":"ce4bgup2rcd13ifvqco0","pricing_plan_id":"cebpf4jnsgd1na2vs0mg"},{"bike_id":"b3f9a53b-df53-4e2c-b2ac-3f3817e9932e","system_id":"levelo_inurba_marseille","lat":43.3094,"lon":5.39028,"is_reserved":false,"is_disabled":false,"rental_uris":{"android":"levelo://app?vid=b3f9a53b-df53-4e2c-b2ac-3f3817e9932e","ios":"levelo://app?vid=b3f9a53b-df53-4e2c-b2ac-3f3817e9932e"},"vehicle_type_id":"4","last_reported":1747815293,"current_range_meters":7200,"station_id":"ce4bgup2rcd13ifvqco0","pricing_plan_id":"cebpf4jnsgd1na2vs0mg"},{"bike_id":"f894fe62-be5c-43a2-a25a-2852d0ec4275","system_id":"levelo_inurba_marseille","lat":43.31683,"lon":5.40472,"is_reserved":false,"is_disabled":false,"rental_uris":{"android":"levelo://app?vid=f894fe62-be5c-43a2-a25a-2852d0ec4275","ios":"levelo://app?vid=f894fe62-be5c-43a2-a25a-2852d0ec4275"},"vehicle_type_id":"4","last_reported":1747815293,"current_range_meters":7200,"station_id":"ce4bh012rcd13ifvqd00","pricing_plan_id":"cebpf4jnsgd1na2vs0mg"},{"bike_id":"a2495313-b00b-460f-9a5e-fd1c9046249f","system_id":"levelo_inurba_marseille","lat":43.25581,"lon":5.38227,"is_reserved":false,"is_disabled":false,"rental_uris":{"android":"levelo://app?vid=a2495313-b00b-460f-9a5e-fd1c9046249f","ios":"levelo://app?vid=a2495313-b00b-460f-9a5e-fd1c9046249f"},"vehicle_type_id":"4","last_reported":1747815293,"current_range_meters":7200,"station_id":"ce4bhih2rcd13ifvqfs0","pricing_plan_id":"cebpf4jnsgd1na2vs0mg"},{"bike_id":"1c0d4498-0de9-4c0e-b11f-6f5a085faac8","system_id":"levelo_inurba_marseille","lat":43.27061,"lon":5.40257,"is_reserved":false,"is_disabled":false,"rental_uris":{"android":"levelo://app?vid=1c0d4498-0de9-4c0e-b11f-6f5a085faac8","ios":"levelo://app?vid=1c0d4498-0de9-4c0e-b11f-6f5a085faac8"},"vehicle_type_id":"4","last_reported":1747815293,"current_range_meters":7200,"station_id":"ce4bhk92rcd13ifvqgc0","pricing_plan_id":"cebpf4jnsgd1na2vs0mg"},{"bike_id":"aaed6d56-8e6c-4be8-b9ea-1de555c2f33c","system_id":"levelo_inurba_marseille","lat":43.23151,"lon":5.43718,"is_reserved":false,"is_disabled":false,"rental_uris":{"android":"levelo://app?vid=aaed6d56-8e6c-4be8-b9ea-1de555c2f33c","ios":"levelo://app?vid=aaed6d56-8e6c-4be8-b9ea-1de555c2f33c"},"vehicle_type_id":"4","last_reported":1747815293,"current_range_meters":7200,"station_id":"ce4bhmp2rcd13ifvqgog","pricing_plan_id":"cebpf4jnsgd1na2vs0mg"},{"bike_id":"72eb077a-513a-45f8-ae11-1b71c89030b6","system_id":"levelo_inurba_marseille","lat":43.24072,"lon":5.37759,"is_reserved":false,"is_disabled":false,"rental_uris":{"android":"levelo://app?vid=72eb077a-513a-45f8-ae11-1b71c89030b6","ios":"levelo://app?vid=72eb077a-513a-45f8-ae11-1b71c89030b6"},"vehicle_type_id":"4","last_reported":1747815293,"current_range_meters":7200,"station_id":"ce4bhnp2rcd13ifvqgvg","pricing_plan_id":"cebpf4jnsgd1na2vs0mg"},{"bike_id":"9323060c-6344-4f71-846a-bfd34d688146","system_id":"levelo_inurba_marseille","lat":43.32484,"lon":5.36552,"is_reserved":false,"is_disabled":false,"rental_uris":{"android":"levelo://app?vid=9323060c-6344-4f71-846a-bfd34d688146","ios":"levelo://app?vid=9323060c-6344-4f71-846a-bfd34d688146"},"vehicle_type_id":"4","last_reported":1747815293,"current_range_meters":7200,"station_id":"ce4bhs12rcd13ifvqhvg","pricing_plan_id":"cebpf4jnsgd1na2vs0mg"},{"bike_id":"d643e84a-e714-4b22-9ac9-d49c4ab34f53","system_id":"levelo_inurba_marseille","lat":43.29967,"lon":5.37167,"is_reserved":false,"is_disabled":false,"rental_uris":{"android":"levelo://app?vid=d643e84a-e714-4b22-9ac9-d49c4ab34f53","ios":"levelo://app?vid=d643e84a-e714-4b22-9ac9-d49c4ab34f53"},"vehicle_type_id":"4","last_reported":1747815293,"current_range_meters":8000,"station_id":"ce4bgr92rcd13ifvqc7g","pricing_plan_id":"cebpf4jnsgd1na2vs0mg"},{"bike_id":"1df3f93f-9c1e-4c12-9cfb-26e715a1e0d6","system_id":"levelo_inurba_marseille","lat":43.24177,"lon":5.397307,"is_reserved":false,"is_disabled":false,"rental_uris":{"android":"levelo://app?vid=1df3f93f-9c1e-4c12-9cfb-26e715a1e0d6","ios":"levelo://app?vid=1df3f93f-9c1e-4c12-9cfb-26e715a1e0d6"},"vehicle_type_id":"4","last_reported":1747815293,"current_range_meters":8000,"station_id":"ce4bhn12rcd13ifvqgpg","pricing_plan_id":"cebpf4jnsgd1na2vs0mg"},{"bike_id":"7681ba77-e995-4409-a7d7-a799c9b09cd0","system_id":"levelo_inurba_marseille","lat":43.27496,"lon":5.42442,"is_reserved":false,"is_disabled":false,"rental_uris":{"android":"levelo://app?vid=7681ba77-e995-4409-a7d7-a799c9b09cd0","ios":"levelo://app?vid=7681ba77-e995-4409-a7d7-a799c9b09cd0"},"vehicle_type_id":"4","last_reported":1747815293,"current_range_meters":8000,"station_id":"ce4bhn92rcd13ifvqgrg","pricing_plan_id":"cebpf4jnsgd1na2vs0mg"},{"bike_id":"dee8e977-ac68-4025-9d10-7481bdf7629a","system_id":"levelo_inurba_marseille","lat":43.29616,"lon":5.3771,"is_reserved":false,"is_disabled":false,"rental_uris":{"android":"levelo://app?vid=dee8e977-ac68-4025-9d10-7481bdf7629a","ios":"levelo://app?vid=dee8e977-ac68-4025-9d10-7481bdf7629a"},"vehicle_type_id":"4","last_reported":1747815293,"current_range_meters":8400,"station_id":"ce4bgi92rcd13ifvqb90","pricing_plan_id":"cebpf4jnsgd1na2vs0mg"},{"bike_id":"86d514a0-ff58-4474-84e1-a82b978bc92d","system_id":"levelo_inurba_marseille","lat":43.30531,"lon":5.36724,"is_reserved":false,"is_disabled":false,"rental_uris":{"android":"levelo://app?vid=86d514a0-ff58-4474-84e1-a82b978bc92d","ios":"levelo://app?vid=86d514a0-ff58-4474-84e1-a82b978bc92d"},"vehicle_type_id":"4","last_reported":1747815293,"current_range_meters":8400,"station_id":"ce4bgrp2rcd13ifvqc9g","pricing_plan_id":"cebpf4jnsgd1na2vs0mg"},{"bike_id":"b82fbec0-1ad5-4953-b26b-e732a274d2ba","system_id":"levelo_inurba_marseille","lat":43.28858,"lon":5.358326,"is_reserved":false,"is_disabled":false,"rental_uris":{"android":"levelo://app?vid=b82fbec0-1ad5-4953-b26b-e732a274d2ba","ios":"levelo://app?vid=b82fbec0-1ad5-4953-b26b-e732a274d2ba"},"vehicle_type_id":"4","last_reported":1747815293,"current_range_meters":8400,"station_id":"ce4bhb12rcd13ifvqem0","pricing_plan_id":"cebpf4jnsgd1na2vs0mg"},{"bike_id":"33eeb9d6-406c-4e8b-ba6e-cd351bd20dae","system_id":"levelo_inurba_marseille","lat":43.23966,"lon":5.36631,"is_reserved":false,"is_disabled":false,"rental_uris":{"android":"levelo://app?vid=33eeb9d6-406c-4e8b-ba6e-cd351bd20dae","ios":"levelo://app?vid=33eeb9d6-406c-4e8b-ba6e-cd351bd20dae"},"vehicle_type_id":"4","last_reported":1747815293,"current_range_meters":8400,"station_id":"ce4bhi12rcd13ifvqfp0","pricing_plan_id":"cebpf4jnsgd1na2vs0mg"},{"bike_id":"1863ca76-057d-492f-9993-5b920922590e","system_id":"levelo_inurba_marseille","lat":43.25578,"lon":5.38241,"is_reserved":false,"is_disabled":false,"rental_uris":{"android":"levelo://app?vid=1863ca76-057d-492f-9993-5b920922590e","ios":"levelo://app?vid=1863ca76-057d-492f-9993-5b920922590e"},"vehicle_type_id":"4","last_reported":1747815293,"current_range_meters":8400,"station_id":"ce4bhih2rcd13ifvqfs0","pricing_plan_id":"cebpf4jnsgd1na2vs0mg"},{"bike_id":"cc0fb06d-3123-4c4a-a92a-ea0e657a9677","system_id":"levelo_inurba_marseille","lat":43.2749,"lon":5.42457,"is_reserved":false,"is_disabled":false,"rental_uris":{"android":"levelo://app?vid=cc0fb06d-3123-4c4a-a92a-ea0e657a9677","ios":"levelo://app?vid=cc0fb06d-3123-4c4a-a92a-ea0e657a9677"},"vehicle_type_id":"4","last_reported":1747815293,"current_range_meters":8400,"station_id":"ce4bhn92rcd13ifvqgrg","pricing_plan_id":"cebpf4jnsgd1na2vs0mg"},{"bike_id":"119414dd-a64a-482e-b0a3-d8cde5e6007d","system_id":"levelo_inurba_marseille","lat":43.27808,"lon":5.40709,"is_reserved":false,"is_disabled":false,"rental_uris":{"android":"levelo://app?vid=119414dd-a64a-482e-b0a3-d8cde5e6007d","ios":"levelo://app?vid=119414dd-a64a-482e-b0a3-d8cde5e6007d"},"vehicle_type_id":"4","last_reported":1747815293,"current_range_meters":8400,"station_id":"ce4bhnh2rcd13ifvqgtg","pricing_plan_id":"cebpf4jnsgd1na2vs0mg"},{"bike_id":"253f9976-5316-4f0d-9d27-54b933bfbcb0","system_id":"levelo_inurba_marseille","lat":43.24078,"lon":5.37752,"is_reserved":false,"is_disabled":false,"rental_uris":{"android":"levelo://app?vid=253f9976-5316-4f0d-9d27-54b933bfbcb0","ios":"levelo://app?vid=253f9976-5316-4f0d-9d27-54b933bfbcb0"},"vehicle_type_id":"4","last_reported":1747815293,"current_range_meters":8400,"station_id":"ce4bhnp2rcd13ifvqgvg","pricing_plan_id":"cebpf4jnsgd1na2vs0mg"},{"bike_id":"767c3d8c-6eb5-4eb2-8c3c-08e3b0670195","system_id":"levelo_inurba_marseille","lat":43.31723,"lon":5.42393,"is_reserved":false,"is_disabled":false,"rental_uris":{"android":"levelo://app?vid=767c3d8c-6eb5-4eb2-8c3c-08e3b0670195","ios":"levelo://app?vid=767c3d8c-6eb5-4eb2-8c3c-08e3b0670195"},"vehicle_type_id":"4","last_reported":1747815293,"current_range_meters":8400,"station_id":"ce4bhp92rcd13ifvqhbg","pricing_plan_id":"cebpf4jnsgd1na2vs0mg"},{"bike_id":"e8162579-a5ad-485f-ad83-fec8a2ebe7e1","system_id":"levelo_inurba_marseille","lat":43.26826,"lon":5.39099,"is_reserved":false,"is_disabled":false,"rental_uris":{"android":"levelo://app?vid=e8162579-a5ad-485f-ad83-fec8a2ebe7e1","ios":"levelo://app?vid=e8162579-a5ad-485f-ad83-fec8a2ebe7e1"},"vehicle_type_id":"4","last_reported":1747815293,"current_range_meters":8800,"station_id":"","pricing_plan_id":"cebpf4jnsgd1na2vs0mg"},{"bike_id":"71e146ad-5169-4dc5-a288-c7c746aad618","system_id":"levelo_inurba_marseille","lat":43.23185,"lon":5.39989,"is_reserved":false,"is_disabled":false,"rental_uris":{"android":"levelo://app?vid=71e146ad-5169-4dc5-a288-c7c746aad618","ios":"levelo://app?vid=71e146ad-5169-4dc5-a288-c7c746aad618"},"vehicle_type_id":"4","last_reported":1747815293,"current_range_meters":8800,"station_id":"","pricing_plan_id":"cebpf4jnsgd1na2vs0mg"},{"bike_id":"8ca18dff-499b-4dae-96fb-172672c1db3c","system_id":"levelo_inurba_marseille","lat":43.2997,"lon":5.37167,"is_reserved":false,"is_disabled":false,"rental_uris":{"android":"levelo://app?vid=8ca18dff-499b-4dae-96fb-172672c1db3c","ios":"levelo://app?vid=8ca18dff-499b-4dae-96fb-172672c1db3c"},"vehicle_type_id":"4","last_reported":1747815293,"current_range_meters":8800,"station_id":"ce4bgr92rcd13ifvqc7g","pricing_plan_id":"cebpf4jnsgd1na2vs0mg"},{"bike_id":"6d6c8d37-df18-455a-b1fc-e98fa5d24ef8","system_id":"levelo_inurba_marseille","lat":43.2872,"lon":5.37937,"is_reserved":false,"is_disabled":false,"rental_uris":{"android":"levelo://app?vid=6d6c8d37-df18-455a-b1fc-e98fa5d24ef8","ios":"levelo://app?vid=6d6c8d37-df18-455a-b1fc-e98fa5d24ef8"},"vehicle_type_id":"4","last_reported":1747815293,"current_range_meters":8800,"station_id":"ce4bh9p2rcd13ifvqec0","pricing_plan_id":"cebpf4jnsgd1na2vs0mg"},{"bike_id":"856a9d65-204b-4e54-8904-a72bb6c09718","system_id":"levelo_inurba_marseille","lat":43.25932,"lon":5.40913,"is_reserved":false,"is_disabled":false,"rental_uris":{"android":"levelo://app?vid=856a9d65-204b-4e54-8904-a72bb6c09718","ios":"levelo://app?vid=856a9d65-204b-4e54-8904-a72bb6c09718"},"vehicle_type_id":"4","last_reported":1747815293,"current_range_meters":8800,"station_id":"ce4bhm92rcd13ifvqglg","pricing_plan_id":"cebpf4jnsgd1na2vs0mg"},{"bike_id":"39dce2d6-d9f2-4fd9-9c24-6f8c5b8e68b4","system_id":"levelo_inurba_marseille","lat":43.25922,"lon":5.40914,"is_reserved":false,"is_disabled":false,"rental_uris":{"android":"levelo://app?vid=39dce2d6-d9f2-4fd9-9c24-6f8c5b8e68b4","ios":"levelo://app?vid=39dce2d6-d9f2-4fd9-9c24-6f8c5b8e68b4"},"vehicle_type_id":"4","last_reported":1747815293,"current_range_meters":8800,"station_id":"ce4bhm92rcd13ifvqglg","pricing_plan_id":"cebpf4jnsgd1na2vs0mg"},{"bike_id":"b7dd41aa-2ef7-4ede-8a12-15dad72683ae","system_id":"levelo_inurba_marseille","lat":43.29555,"lon":5.42282,"is_reserved":false,"is_disabled":false,"rental_uris":{"android":"levelo://app?vid=b7dd41aa-2ef7-4ede-8a12-15dad72683ae","ios":"levelo://app?vid=b7dd41aa-2ef7-4ede-8a12-15dad72683ae"},"vehicle_type_id":"4","last_reported":1747815293,"current_range_meters":8800,"station_id":"ce4bhph2rcd13ifvqhdg","pricing_plan_id":"cebpf4jnsgd1na2vs0mg"},{"bike_id":"ab34b9eb-959a-4a26-aadf-a43f7fbc960c","system_id":"levelo_inurba_marseille","lat":43.3361,"lon":5.41034,"is_reserved":false,"is_disabled":false,"rental_uris":{"android":"levelo://app?vid=ab34b9eb-959a-4a26-aadf-a43f7fbc960c","ios":"levelo://app?vid=ab34b9eb-959a-4a26-aadf-a43f7fbc960c"},"vehicle_type_id":"4","last_reported":1747815293,"current_range_meters":8800,"station_id":"ce4bhqh2rcd13ifvqhmg","pricing_plan_id":"cebpf4jnsgd1na2vs0mg"},{"bike_id":"a0aabdb9-5fa2-40e6-8b72-83f513b3ace8","system_id":"levelo_inurba_marseille","lat":43.23198,"lon":5.35571,"is_reserved":false,"is_disabled":false,"rental_uris":{"android":"levelo://app?vid=a0aabdb9-5fa2-40e6-8b72-83f513b3ace8","ios":"levelo://app?vid=a0aabdb9-5fa2-40e6-8b72-83f513b3ace8"},"vehicle_type_id":"4","last_reported":1747815293,"current_range_meters":8800,"station_id":"ce4bhu92rcd13ifvqi70","pricing_plan_id":"cebpf4jnsgd1na2vs0mg"},{"bike_id":"48f27f29-5850-4f4f-b193-450032ac8cf8","system_id":"levelo_inurba_marseille","lat":43.26807,"lon":5.40259,"is_reserved":false,"is_disabled":false,"rental_uris":{"android":"levelo://app?vid=48f27f29-5850-4f4f-b193-450032ac8cf8","ios":"levelo://app?vid=48f27f29-5850-4f4f-b193-450032ac8cf8"},"vehicle_type_id":"4","last_reported":1747815293,"current_range_meters":8800,"station_id":"ce501612rcd8frsf0b60","pricing_plan_id":"cebpf4jnsgd1na2vs0mg"},{"bike_id":"3552fbf2-b43a-446f-93f5-d695fc251b73","system_id":"levelo_inurba_marseille","lat":43.25182,"lon":5.37513,"is_reserved":false,"is_disabled":false,"rental_uris":{"android":"levelo://app?vid=3552fbf2-b43a-446f-93f5-d695fc251b73","ios":"levelo://app?vid=3552fbf2-b43a-446f-93f5-d695fc251b73"},"vehicle_type_id":"4","last_reported":1747815293,"current_range_meters":9200,"station_id":"","pricing_plan_id":"cebpf4jnsgd1na2vs0mg"},{"bike_id":"5868eac8-b144-4c28-acfd-eb1f74f1f8c0","system_id":"levelo_inurba_marseille","lat":43.29367,"lon":5.37836,"is_reserved":false,"is_disabled":false,"rental_uris":{"android":"levelo://app?vid=5868eac8-b144-4c28-acfd-eb1f74f1f8c0","ios":"levelo://app?vid=5868eac8-b144-4c28-acfd-eb1f74f1f8c0"},"vehicle_type_id":"4","last_reported":1747815293,"current_range_meters":9200,"station_id":"ce4bgjh2rcd13ifvqbf0","pricing_plan_id":"cebpf4jnsgd1na2vs0mg"},{"bike_id":"ce0468e6-3943-4f07-93f3-eec75268a1d0","system_id":"levelo_inurba_marseille","lat":43.2985,"lon":5.36286,"is_reserved":false,"is_disabled":false,"rental_uris":{"android":"levelo://app?vid=ce0468e6-3943-4f07-93f3-eec75268a1d0","ios":"levelo://app?vid=ce0468e6-3943-4f07-93f3-eec75268a1d0"},"vehicle_type_id":"4","last_reported":1747815293,"current_range_meters":9200,"station_id":"ce4bgpp2rcd13ifvqc3g","pricing_plan_id":"cebpf4jnsgd1na2vs0mg"},{"bike_id":"c65a791a-5e5c-4c9b-939f-ea06ef898429","system_id":"levelo_inurba_marseille","lat":43.31358,"lon":5.3672,"is_reserved":false,"is_disabled":false,"rental_uris":{"android":"levelo://app?vid=c65a791a-5e5c-4c9b-939f-ea06ef898429","ios":"levelo://app?vid=c65a791a-5e5c-4c9b-939f-ea06ef898429"},"vehicle_type_id":"4","last_reported":1747815293,"current_range_meters":9200,"station_id":"ce4bgr92rcd13ifvqc6g","pricing_plan_id":"cebpf4jnsgd1na2vs0mg"},{"bike_id":"5d70566b-38ec-4494-b254-63b30c65efa7","system_id":"levelo_inurba_marseille","lat":43.23149,"lon":5.43722,"is_reserved":false,"is_disabled":false,"rental_uris":{"android":"levelo://app?vid=5d70566b-38ec-4494-b254-63b30c65efa7","ios":"levelo://app?vid=5d70566b-38ec-4494-b254-63b30c65efa7"},"vehicle_type_id":"4","last_reported":1747815293,"current_range_meters":9200,"station_id":"ce4bhmp2rcd13ifvqgog","pricing_plan_id":"cebpf4jnsgd1na2vs0mg"},{"bike_id":"784ad1c1-b34b-454b-997a-ab8d53348ab6","system_id":"levelo_inurba_marseille","lat":43.27489,"lon":5.42463,"is_reserved":false,"is_disabled":false,"rental_uris":{"android":"levelo://app?vid=784ad1c1-b34b-454b-997a-ab8d53348ab6","ios":"levelo://app?vid=784ad1c1-b34b-454b-997a-ab8d53348ab6"},"vehicle_type_id":"4","last_reported":1747815293,"current_range_meters":9200,"station_id":"ce4bhn92rcd13ifvqgrg","pricing_plan_id":"cebpf4jnsgd1na2vs0mg"},{"bike_id":"36979a39-1da2-46e3-9bfe-5146d77f83df","system_id":"levelo_inurba_marseille","lat":43.275,"lon":5.42445,"is_reserved":false,"is_disabled":false,"rental_uris":{"android":"levelo://app?vid=36979a39-1da2-46e3-9bfe-5146d77f83df","ios":"levelo://app?vid=36979a39-1da2-46e3-9bfe-5146d77f83df"},"vehicle_type_id":"4","last_reported":1747815293,"current_range_meters":9200,"station_id":"ce4bhn92rcd13ifvqgrg","pricing_plan_id":"cebpf4jnsgd1na2vs0mg"},{"bike_id":"1ff4dd87-bf56-4ab1-8365-aad71fcb827c","system_id":"levelo_inurba_marseille","lat":43.316076,"lon":5.423906,"is_reserved":false,"is_disabled":false,"rental_uris":{"android":"levelo://app?vid=1ff4dd87-bf56-4ab1-8365-aad71fcb827c","ios":"levelo://app?vid=1ff4dd87-bf56-4ab1-8365-aad71fcb827c"},"vehicle_type_id":"4","last_reported":1747815293,"current_range_meters":9200,"station_id":"ce4bhp92rcd13ifvqhbg","pricing_plan_id":"cebpf4jnsgd1na2vs0mg"},{"bike_id":"0c59289b-fdb3-4fcd-a580-bc617f9eb9a0","system_id":"levelo_inurba_marseille","lat":43.33609,"lon":5.41039,"is_reserved":false,"is_disabled":false,"rental_uris":{"android":"levelo://app?vid=0c59289b-fdb3-4fcd-a580-bc617f9eb9a0","ios":"levelo://app?vid=0c59289b-fdb3-4fcd-a580-bc617f9eb9a0"},"vehicle_type_id":"4","last_reported":1747815293,"current_range_meters":9200,"station_id":"ce4bhqh2rcd13ifvqhmg","pricing_plan_id":"cebpf4jnsgd1na2vs0mg"},{"bike_id":"dc80936a-51b4-4ef9-b71e-e259b58f2ac3","system_id":"levelo_inurba_marseille","lat":43.231846,"lon":5.399895,"is_reserved":false,"is_disabled":false,"rental_uris":{"android":"levelo://app?vid=dc80936a-51b4-4ef9-b71e-e259b58f2ac3","ios":"levelo://app?vid=dc80936a-51b4-4ef9-b71e-e259b58f2ac3"},"vehicle_type_id":"4","last_reported":1747815293,"current_range_meters":9600,"station_id":"","pricing_plan_id":"cebpf4jnsgd1na2vs0mg"},{"bike_id":"c57398d2-bf6d-4ce5-bc66-a5ee00825c54","system_id":"levelo_inurba_marseille","lat":43.27313,"lon":5.3907,"is_reserved":false,"is_disabled":false,"rental_uris":{"android":"levelo://app?vid=c57398d2-bf6d-4ce5-bc66-a5ee00825c54","ios":"levelo://app?vid=c57398d2-bf6d-4ce5-bc66-a5ee00825c54"},"vehicle_type_id":"4","last_reported":1747815293,"current_range_meters":9600,"station_id":"ce4bhgp2rcd13ifvqfe0","pricing_plan_id":"cebpf4jnsgd1na2vs0mg"},{"bike_id":"c9a2a918-38e8-469c-a279-ac2f20a3c737","system_id":"levelo_inurba_marseille","lat":43.23151,"lon":5.43714,"is_reserved":false,"is_disabled":false,"rental_uris":{"android":"levelo://app?vid=c9a2a918-38e8-469c-a279-ac2f20a3c737","ios":"levelo://app?vid=c9a2a918-38e8-469c-a279-ac2f20a3c737"},"vehicle_type_id":"4","last_reported":1747815293,"current_range_meters":9600,"station_id":"ce4bhmp2rcd13ifvqgog","pricing_plan_id":"cebpf4jnsgd1na2vs0mg"},{"bike_id":"c3c11b11-8507-45b4-bd48-1e3bdd46fbbe","system_id":"levelo_inurba_marseille","lat":43.23186,"lon":5.40023,"is_reserved":false,"is_disabled":false,"rental_uris":{"android":"levelo://app?vid=c3c11b11-8507-45b4-bd48-1e3bdd46fbbe","ios":"levelo://app?vid=c3c11b11-8507-45b4-bd48-1e3bdd46fbbe"},"vehicle_type_id":"4","last_reported":1747815293,"current_range_meters":9600,"station_id":"ce4bhn12rcd13ifvqgqg","pricing_plan_id":"cebpf4jnsgd1na2vs0mg"},{"bike_id":"360b0756-bb1f-49c9-9b44-5ad1edee7b38","system_id":"levelo_inurba_marseille","lat":43.27493,"lon":5.42449,"is_reserved":false,"is_disabled":false,"rental_uris":{"android":"levelo://app?vid=360b0756-bb1f-49c9-9b44-5ad1edee7b38","ios":"levelo://app?vid=360b0756-bb1f-49c9-9b44-5ad1edee7b38"},"vehicle_type_id":"4","last_reported":1747815293,"current_range_meters":9600,"station_id":"ce4bhn92rcd13ifvqgrg","pricing_plan_id":"cebpf4jnsgd1na2vs0mg"},{"bike_id":"97d8aba5-125a-44b3-bb06-d4df14f00079","system_id":"levelo_inurba_marseille","lat":43.31711,"lon":5.43707,"is_reserved":false,"is_disabled":false,"rental_uris":{"android":"levelo://app?vid=97d8aba5-125a-44b3-bb06-d4df14f00079","ios":"levelo://app?vid=97d8aba5-125a-44b3-bb06-d4df14f00079"},"vehicle_type_id":"4","last_reported":1747815293,"current_range_meters":9600,"station_id":"ce4bhp92rcd13ifvqhcg","pricing_plan_id":"cebpf4jnsgd1na2vs0mg"},{"bike_id":"51682766-5f2e-4860-8226-efbdd3f310e2","system_id":"levelo_inurba_marseille","lat":43.29692,"lon":5.37289,"is_reserved":false,"is_disabled":false,"rental_uris":{"android":"levelo://app?vid=51682766-5f2e-4860-8226-efbdd3f310e2","ios":"levelo://app?vid=51682766-5f2e-4860-8226-efbdd3f310e2"},"vehicle_type_id":"4","last_reported":1747815293,"current_range_meters":10000,"station_id":"ce4bgk12rcd13ifvqbj0","pricing_plan_id":"cebpf4jnsgd1na2vs0mg"},{"bike_id":"1ec365b0-6c48-4dc0-866d-cebacaea120b","system_id":"levelo_inurba_marseille","lat":43.29624,"lon":5.3716,"is_reserved":false,"is_disabled":false,"rental_uris":{"android":"levelo://app?vid=1ec365b0-6c48-4dc0-866d-cebacaea120b","ios":"levelo://app?vid=1ec365b0-6c48-4dc0-866d-cebacaea120b"},"vehicle_type_id":"4","last_reported":1747815293,"current_range_meters":10000,"station_id":"ce4bgnh2rcd13ifvqc0g","pricing_plan_id":"cebpf4jnsgd1na2vs0mg"},{"bike_id":"a760b60a-4ef8-4547-a161-3b8a8b36c025","system_id":"levelo_inurba_marseille","lat":43.30939,"lon":5.39054,"is_reserved":false,"is_disabled":false,"rental_uris":{"android":"levelo://app?vid=a760b60a-4ef8-4547-a161-3b8a8b36c025","ios":"levelo://app?vid=a760b60a-4ef8-4547-a161-3b8a8b36c025"},"vehicle_type_id":"4","last_reported":1747815293,"current_range_meters":10000,"station_id":"ce4bgup2rcd13ifvqco0","pricing_plan_id":"cebpf4jnsgd1na2vs0mg"},{"bike_id":"25356c2a-ac95-4de6-a841-70990647f7ee","system_id":"levelo_inurba_marseille","lat":43.28853,"lon":5.3586,"is_reserved":false,"is_disabled":false,"rental_uris":{"android":"levelo://app?vid=25356c2a-ac95-4de6-a841-70990647f7ee","ios":"levelo://app?vid=25356c2a-ac95-4de6-a841-70990647f7ee"},"vehicle_type_id":"4","last_reported":1747815293,"current_range_meters":10000,"station_id":"ce4bhb12rcd13ifvqem0","pricing_plan_id":"cebpf4jnsgd1na2vs0mg"},{"bike_id":"cd3b5a07-fbf0-488a-988f-2ff6d14ade8a","system_id":"levelo_inurba_marseille","lat":43.24545,"lon":5.39521,"is_reserved":false,"is_disabled":false,"rental_uris":{"android":"levelo://app?vid=cd3b5a07-fbf0-488a-988f-2ff6d14ade8a","ios":"levelo://app?vid=cd3b5a07-fbf0-488a-988f-2ff6d14ade8a"},"vehicle_type_id":"4","last_reported":1747815293,"current_range_meters":10000,"station_id":"ce4bhlp2rcd13ifvqgjg","pricing_plan_id":"cebpf4jnsgd1na2vs0mg"},{"bike_id":"2f34c329-54fe-438b-a307-b47c6ac8481c","system_id":"levelo_inurba_marseille","lat":43.29894,"lon":5.43666,"is_reserved":false,"is_disabled":false,"rental_uris":{"android":"levelo://app?vid=2f34c329-54fe-438b-a307-b47c6ac8481c","ios":"levelo://app?vid=2f34c329-54fe-438b-a307-b47c6ac8481c"},"vehicle_type_id":"4","last_reported":1747815293,"current_range_meters":10000,"station_id":"ce4bhpp2rcd13ifvqhfg","pricing_plan_id":"cebpf4jnsgd1na2vs0mg"},{"bike_id":"1a289acd-baa6-4633-a4c2-c0204020cceb","system_id":"levelo_inurba_marseille","lat":43.29781,"lon":5.37089,"is_reserved":false,"is_disabled":false,"rental_uris":{"android":"levelo://app?vid=1a289acd-baa6-4633-a4c2-c0204020cceb","ios":"levelo://app?vid=1a289acd-baa6-4633-a4c2-c0204020cceb"},"vehicle_type_id":"4","last_reported":1747815293,"current_range_meters":10800,"station_id":"ce4bgop2rcd13ifvqc1g","pricing_plan_id":"cebpf4jnsgd1na2vs0mg"},{"bike_id":"880e9c14-7f08-4a43-8eb9-dd6aa2bc8df1","system_id":"levelo_inurba_marseille","lat":43.30595,"lon":5.36551,"is_reserved":false,"is_disabled":false,"rental_uris":{"android":"levelo://app?vid=880e9c14-7f08-4a43-8eb9-dd6aa2bc8df1","ios":"levelo://app?vid=880e9c14-7f08-4a43-8eb9-dd6aa2bc8df1"},"vehicle_type_id":"4","last_reported":1747815293,"current_range_meters":10800,"station_id":"ce4bgs12rcd13ifvqcag","pricing_plan_id":"cebpf4jnsgd1na2vs0mg"},{"bike_id":"48bac3a4-2f7f-4290-aef8-f9bd3760a566","system_id":"levelo_inurba_marseille","lat":43.25087,"lon":5.39479,"is_reserved":false,"is_disabled":false,"rental_uris":{"android":"levelo://app?vid=48bac3a4-2f7f-4290-aef8-f9bd3760a566","ios":"levelo://app?vid=48bac3a4-2f7f-4290-aef8-f9bd3760a566"},"vehicle_type_id":"4","last_reported":1747815293,"current_range_meters":10800,"station_id":"ce4bhm12rcd13ifvqgkg","pricing_plan_id":"cebpf4jnsgd1na2vs0mg"},{"bike_id":"e3310929-24a8-48de-8a1b-e51ab1768147","system_id":"levelo_inurba_marseille","lat":43.24072,"lon":5.37765,"is_reserved":false,"is_disabled":false,"rental_uris":{"android":"levelo://app?vid=e3310929-24a8-48de-8a1b-e51ab1768147","ios":"levelo://app?vid=e3310929-24a8-48de-8a1b-e51ab1768147"},"vehicle_type_id":"4","last_reported":1747815293,"current_range_meters":10800,"station_id":"ce4bhnp2rcd13ifvqgvg","pricing_plan_id":"cebpf4jnsgd1na2vs0mg"},{"bike_id":"cf207b9a-8807-4c1e-a631-4af4b5768e9a","system_id":"levelo_inurba_marseille","lat":43.32282,"lon":5.38273,"is_reserved":false,"is_disabled":false,"rental_uris":{"android":"levelo://app?vid=cf207b9a-8807-4c1e-a631-4af4b5768e9a","ios":"levelo://app?vid=cf207b9a-8807-4c1e-a631-4af4b5768e9a"},"vehicle_type_id":"4","last_reported":1747815293,"current_range_meters":10800,"station_id":"ce4bhr12rcd13ifvqhqg","pricing_plan_id":"cebpf4jnsgd1na2vs0mg"},{"bike_id":"c06c87aa-99e3-4b89-97dc-fd6edd7b18f0","system_id":"levelo_inurba_marseille","lat":43.32102,"lon":5.3679,"is_reserved":false,"is_disabled":false,"rental_uris":{"android":"levelo://app?vid=c06c87aa-99e3-4b89-97dc-fd6edd7b18f0","ios":"levelo://app?vid=c06c87aa-99e3-4b89-97dc-fd6edd7b18f0"},"vehicle_type_id":"4","last_reported":1747815293,"current_range_meters":10800,"station_id":"ce4bhrh2rcd13ifvqhug","pricing_plan_id":"cebpf4jnsgd1na2vs0mg"},{"bike_id":"50ba9260-1714-4b83-849f-285830e000bd","system_id":"levelo_inurba_marseille","lat":43.313643,"lon":5.384885,"is_reserved":false,"is_disabled":false,"rental_uris":{"android":"levelo://app?vid=50ba9260-1714-4b83-849f-285830e000bd","ios":"levelo://app?vid=50ba9260-1714-4b83-849f-285830e000bd"},"vehicle_type_id":"4","last_reported":1747815293,"current_range_meters":11200,"station_id":"ce4bgt92rcd13ifvqcf0","pricing_plan_id":"cebpf4jnsgd1na2vs0mg"},{"bike_id":"105639c6-6faa-4049-a9df-a30a44a69d04","system_id":"levelo_inurba_marseille","lat":43.30952,"lon":5.3903,"is_reserved":false,"is_disabled":false,"rental_uris":{"android":"levelo://app?vid=105639c6-6faa-4049-a9df-a30a44a69d04","ios":"levelo://app?vid=105639c6-6faa-4049-a9df-a30a44a69d04"},"vehicle_type_id":"4","last_reported":1747815293,"current_range_meters":11200,"station_id":"ce4bgup2rcd13ifvqco0","pricing_plan_id":"cebpf4jnsgd1na2vs0mg"},{"bike_id":"d9d1e3ab-5261-4fa4-bea5-e5ee0a75e07c","system_id":"levelo_inurba_marseille","lat":43.28406,"lon":5.37507,"is_reserved":false,"is_disabled":false,"rental_uris":{"android":"levelo://app?vid=d9d1e3ab-5261-4fa4-bea5-e5ee0a75e07c","ios":"levelo://app?vid=d9d1e3ab-5261-4fa4-bea5-e5ee0a75e07c"},"vehicle_type_id":"4","last_reported":1747815293,"current_range_meters":11200,"station_id":"ce4bh412rcd13ifvqds0","pricing_plan_id":"cebpf4jnsgd1na2vs0mg"},{"bike_id":"9f06cfee-b9c3-41ed-8b4b-62aa8d9b4dda","system_id":"levelo_inurba_marseille","lat":43.28931,"lon":5.38404,"is_reserved":false,"is_disabled":false,"rental_uris":{"android":"levelo://app?vid=9f06cfee-b9c3-41ed-8b4b-62aa8d9b4dda","ios":"levelo://app?vid=9f06cfee-b9c3-41ed-8b4b-62aa8d9b4dda"},"vehicle_type_id":"4","last_reported":1747815293,"current_range_meters":11200,"station_id":"ce4bh612rcd13ifvqe6g","pricing_plan_id":"cebpf4jnsgd1na2vs0mg"},{"bike_id":"e81f3367-2957-4e41-a328-bb8794520d1e","system_id":"levelo_inurba_marseille","lat":43.24389,"lon":5.3705,"is_reserved":false,"is_disabled":false,"rental_uris":{"android":"levelo://app?vid=e81f3367-2957-4e41-a328-bb8794520d1e","ios":"levelo://app?vid=e81f3367-2957-4e41-a328-bb8794520d1e"},"vehicle_type_id":"4","last_reported":1747815293,"current_range_meters":11200,"station_id":"ce4bhhh2rcd13ifvqfk0","pricing_plan_id":"cebpf4jnsgd1na2vs0mg"},{"bike_id":"500509b9-37ab-40f0-b1b0-5d544066ded5","system_id":"levelo_inurba_marseille","lat":43.25908,"lon":5.40929,"is_reserved":false,"is_disabled":false,"rental_uris":{"android":"levelo://app?vid=500509b9-37ab-40f0-b1b0-5d544066ded5","ios":"levelo://app?vid=500509b9-37ab-40f0-b1b0-5d544066ded5"},"vehicle_type_id":"4","last_reported":1747815293,"current_range_meters":11200,"station_id":"ce4bhm92rcd13ifvqglg","pricing_plan_id":"cebpf4jnsgd1na2vs0mg"},{"bike_id":"a0fb3912-5723-4163-8ae8-5dc104ad463b","system_id":"levelo_inurba_marseille","lat":43.33724,"lon":5.39188,"is_reserved":false,"is_disabled":false,"rental_uris":{"android":"levelo://app?vid=a0fb3912-5723-4163-8ae8-5dc104ad463b","ios":"levelo://app?vid=a0fb3912-5723-4163-8ae8-5dc104ad463b"},"vehicle_type_id":"4","last_reported":1747815293,"current_range_meters":11200,"station_id":"ce4bhr92rcd13ifvqhsg","pricing_plan_id":"cebpf4jnsgd1na2vs0mg"},{"bike_id":"d22b0fd0-78a6-46fc-aad8-ce2ca2a629e3","system_id":"levelo_inurba_marseille","lat":43.21193,"lon":5.35063,"is_reserved":false,"is_disabled":false,"rental_uris":{"android":"levelo://app?vid=d22b0fd0-78a6-46fc-aad8-ce2ca2a629e3","ios":"levelo://app?vid=d22b0fd0-78a6-46fc-aad8-ce2ca2a629e3"},"vehicle_type_id":"4","last_reported":1747815293,"current_range_meters":11200,"station_id":"st_cvj6sg6p6f1abm77japg","pricing_plan_id":"cebpf4jnsgd1na2vs0mg"},{"bike_id":"b19eb02c-cf63-49ab-9e88-e6de1c057c7d","system_id":"levelo_inurba_marseille","lat":43.303544,"lon":5.418838,"is_reserved":false,"is_disabled":false,"rental_uris":{"android":"levelo://app?vid=b19eb02c-cf63-49ab-9e88-e6de1c057c7d","ios":"levelo://app?vid=b19eb02c-cf63-49ab-9e88-e6de1c057c7d"},"vehicle_type_id":"4","last_reported":1747815293,"current_range_meters":11600,"station_id":"","pricing_plan_id":"cebpf4jnsgd1na2vs0mg"},{"bike_id":"324231ab-033b-40ae-97d2-7b70e0442b0c","system_id":"levelo_inurba_marseille","lat":43.3123,"lon":5.3684,"is_reserved":false,"is_disabled":false,"rental_uris":{"android":"levelo://app?vid=324231ab-033b-40ae-97d2-7b70e0442b0c","ios":"levelo://app?vid=324231ab-033b-40ae-97d2-7b70e0442b0c"},"vehicle_type_id":"4","last_reported":1747815293,"current_range_meters":11600,"station_id":"ce4bgl92rcd13ifvqbq0","pricing_plan_id":"cebpf4jnsgd1na2vs0mg"},{"bike_id":"5765434c-77b5-41b5-8b14-b978e4d6dd10","system_id":"levelo_inurba_marseille","lat":43.21205,"lon":5.35046,"is_reserved":false,"is_disabled":false,"rental_uris":{"android":"levelo://app?vid=5765434c-77b5-41b5-8b14-b978e4d6dd10","ios":"levelo://app?vid=5765434c-77b5-41b5-8b14-b978e4d6dd10"},"vehicle_type_id":"4","last_reported":1747815293,"current_range_meters":11600,"station_id":"st_cvj6sg6p6f1abm77japg","pricing_plan_id":"cebpf4jnsgd1na2vs0mg"},{"bike_id":"821f7a89-4cca-47b9-8d33-5c8159b39c38","system_id":"levelo_inurba_marseille","lat":43.30782,"lon":5.37647,"is_reserved":false,"is_disabled":false,"rental_uris":{"android":"levelo://app?vid=821f7a89-4cca-47b9-8d33-5c8159b39c38","ios":"levelo://app?vid=821f7a89-4cca-47b9-8d33-5c8159b39c38"},"vehicle_type_id":"4","last_reported":1747815293,"current_range_meters":12000,"station_id":"ce4bgv92rcd13ifvqcq0","pricing_plan_id":"cebpf4jnsgd1na2vs0mg"},{"bike_id":"9310c1b8-3ea9-4b00-a1e1-2b01ec5b1d22","system_id":"levelo_inurba_marseille","lat":43.24075,"lon":5.37749,"is_reserved":false,"is_disabled":false,"rental_uris":{"android":"levelo://app?vid=9310c1b8-3ea9-4b00-a1e1-2b01ec5b1d22","ios":"levelo://app?vid=9310c1b8-3ea9-4b00-a1e1-2b01ec5b1d22"},"vehicle_type_id":"4","last_reported":1747815293,"current_range_meters":12000,"station_id":"ce4bhnp2rcd13ifvqgvg","pricing_plan_id":"cebpf4jnsgd1na2vs0mg"},{"bike_id":"0172ade4-8274-4e96-a8ca-b91565bf112b","system_id":"levelo_inurba_marseille","lat":43.240934,"lon":5.377474,"is_reserved":false,"is_disabled":false,"rental_uris":{"android":"levelo://app?vid=0172ade4-8274-4e96-a8ca-b91565bf112b","ios":"levelo://app?vid=0172ade4-8274-4e96-a8ca-b91565bf112b"},"vehicle_type_id":"4","last_reported":1747815293,"current_range_meters":12000,"station_id":"ce4bhnp2rcd13ifvqgvg","pricing_plan_id":"cebpf4jnsgd1na2vs0mg"},{"bike_id":"5f6cc707-1971-44cb-8ca3-c1e1f07e9821","system_id":"levelo_inurba_marseille","lat":43.25934,"lon":5.40906,"is_reserved":false,"is_disabled":false,"rental_uris":{"android":"levelo://app?vid=5f6cc707-1971-44cb-8ca3-c1e1f07e9821","ios":"levelo://app?vid=5f6cc707-1971-44cb-8ca3-c1e1f07e9821"},"vehicle_type_id":"4","last_reported":1747815293,"current_range_meters":12400,"station_id":"","pricing_plan_id":"cebpf4jnsgd1na2vs0mg"},{"bike_id":"6d4e2386-50e7-4b9b-b117-dc6ec6dff373","system_id":"levelo_inurba_marseille","lat":43.30949,"lon":5.39017,"is_reserved":false,"is_disabled":false,"rental_uris":{"android":"levelo://app?vid=6d4e2386-50e7-4b9b-b117-dc6ec6dff373","ios":"levelo://app?vid=6d4e2386-50e7-4b9b-b117-dc6ec6dff373"},"vehicle_type_id":"4","last_reported":1747815293,"current_range_meters":12400,"station_id":"ce4bgup2rcd13ifvqco0","pricing_plan_id":"cebpf4jnsgd1na2vs0mg"},{"bike_id":"a060ebc4-920f-4c67-91e3-79d8e1395a26","system_id":"levelo_inurba_marseille","lat":43.30949,"lon":5.39026,"is_reserved":false,"is_disabled":false,"rental_uris":{"android":"levelo://app?vid=a060ebc4-920f-4c67-91e3-79d8e1395a26","ios":"levelo://app?vid=a060ebc4-920f-4c67-91e3-79d8e1395a26"},"vehicle_type_id":"4","last_reported":1747815293,"current_range_meters":12400,"station_id":"ce4bgup2rcd13ifvqco0","pricing_plan_id":"cebpf4jnsgd1na2vs0mg"},{"bike_id":"d3794132-a70f-416f-8f79-15d73a23ca4b","system_id":"levelo_inurba_marseille","lat":43.246488,"lon":5.388901,"is_reserved":false,"is_disabled":false,"rental_uris":{"android":"levelo://app?vid=d3794132-a70f-416f-8f79-15d73a23ca4b","ios":"levelo://app?vid=d3794132-a70f-416f-8f79-15d73a23ca4b"},"vehicle_type_id":"4","last_reported":1747815293,"current_range_meters":12400,"station_id":"ce4bhg12rcd13ifvqf60","pricing_plan_id":"cebpf4jnsgd1na2vs0mg"},{"bike_id":"0ad35d1d-8526-4847-9ed9-cf53534aaeef","system_id":"levelo_inurba_marseille","lat":43.23157,"lon":5.43716,"is_reserved":false,"is_disabled":false,"rental_uris":{"android":"levelo://app?vid=0ad35d1d-8526-4847-9ed9-cf53534aaeef","ios":"levelo://app?vid=0ad35d1d-8526-4847-9ed9-cf53534aaeef"},"vehicle_type_id":"4","last_reported":1747815293,"current_range_meters":12400,"station_id":"ce4bhmp2rcd13ifvqgog","pricing_plan_id":"cebpf4jnsgd1na2vs0mg"},{"bike_id":"83f95caa-69cb-4072-b84f-2d560b7846ad","system_id":"levelo_inurba_marseille","lat":43.23152,"lon":5.43709,"is_reserved":false,"is_disabled":false,"rental_uris":{"android":"levelo://app?vid=83f95caa-69cb-4072-b84f-2d560b7846ad","ios":"levelo://app?vid=83f95caa-69cb-4072-b84f-2d560b7846ad"},"vehicle_type_id":"4","last_reported":1747815293,"current_range_meters":12400,"station_id":"ce4bhmp2rcd13ifvqgog","pricing_plan_id":"cebpf4jnsgd1na2vs0mg"},{"bike_id":"56cf80a0-6e20-4517-b7ab-ff4ac3730a84","system_id":"levelo_inurba_marseille","lat":43.23163,"lon":5.4,"is_reserved":false,"is_disabled":false,"rental_uris":{"android":"levelo://app?vid=56cf80a0-6e20-4517-b7ab-ff4ac3730a84","ios":"levelo://app?vid=56cf80a0-6e20-4517-b7ab-ff4ac3730a84"},"vehicle_type_id":"4","last_reported":1747815293,"current_range_meters":12400,"station_id":"ce4bhn12rcd13ifvqgqg","pricing_plan_id":"cebpf4jnsgd1na2vs0mg"},{"bike_id":"1a340bac-8012-4c7c-b50a-247d19f083a9","system_id":"levelo_inurba_marseille","lat":43.21193,"lon":5.35074,"is_reserved":false,"is_disabled":false,"rental_uris":{"android":"levelo://app?vid=1a340bac-8012-4c7c-b50a-247d19f083a9","ios":"levelo://app?vid=1a340bac-8012-4c7c-b50a-247d19f083a9"},"vehicle_type_id":"4","last_reported":1747815293,"current_range_meters":12400,"station_id":"st_cvj6sg6p6f1abm77japg","pricing_plan_id":"cebpf4jnsgd1na2vs0mg"},{"bike_id":"904d0e61-2be8-4c00-aeee-3bdd4657e6b4","system_id":"levelo_inurba_marseille","lat":43.30136,"lon":5.37411,"is_reserved":false,"is_disabled":false,"rental_uris":{"android":"levelo://app?vid=904d0e61-2be8-4c00-aeee-3bdd4657e6b4","ios":"levelo://app?vid=904d0e61-2be8-4c00-aeee-3bdd4657e6b4"},"vehicle_type_id":"4","last_reported":1747815293,"current_range_meters":12800,"station_id":"ce4bgs92rcd13ifvqcc0","pricing_plan_id":"cebpf4jnsgd1na2vs0mg"},{"bike_id":"c62823f8-95ea-440d-af74-d0a00ace1416","system_id":"levelo_inurba_marseille","lat":43.3014,"lon":5.37417,"is_reserved":false,"is_disabled":false,"rental_uris":{"android":"levelo://app?vid=c62823f8-95ea-440d-af74-d0a00ace1416","ios":"levelo://app?vid=c62823f8-95ea-440d-af74-d0a00ace1416"},"vehicle_type_id":"4","last_reported":1747815293,"current_range_meters":12800,"station_id":"ce4bgs92rcd13ifvqcc0","pricing_plan_id":"cebpf4jnsgd1na2vs0mg"},{"bike_id":"8e9792ab-772c-4e06-afe4-17f19f8ca288","system_id":"levelo_inurba_marseille","lat":43.26689,"lon":5.38272,"is_reserved":false,"is_disabled":false,"rental_uris":{"android":"levelo://app?vid=8e9792ab-772c-4e06-afe4-17f19f8ca288","ios":"levelo://app?vid=8e9792ab-772c-4e06-afe4-17f19f8ca288"},"vehicle_type_id":"4","last_reported":1747815293,"current_range_meters":12800,"station_id":"ce4bhg92rcd13ifvqf90","pricing_plan_id":"cebpf4jnsgd1na2vs0mg"},{"bike_id":"bdc34a52-5db2-4781-ab28-f431531f1c99","system_id":"levelo_inurba_marseille","lat":43.25724,"lon":5.41111,"is_reserved":false,"is_disabled":false,"rental_uris":{"android":"levelo://app?vid=bdc34a52-5db2-4781-ab28-f431531f1c99","ios":"levelo://app?vid=bdc34a52-5db2-4781-ab28-f431531f1c99"},"vehicle_type_id":"4","last_reported":1747815293,"current_range_meters":12800,"station_id":"ce4bhkp2rcd13ifvqgd0","pricing_plan_id":"cebpf4jnsgd1na2vs0mg"},{"bike_id":"120c77ac-e603-404f-94d2-094850d09f86","system_id":"levelo_inurba_marseille","lat":43.25945,"lon":5.40896,"is_reserved":false,"is_disabled":false,"rental_uris":{"android":"levelo://app?vid=120c77ac-e603-404f-94d2-094850d09f86","ios":"levelo://app?vid=120c77ac-e603-404f-94d2-094850d09f86"},"vehicle_type_id":"4","last_reported":1747815293,"current_range_meters":12800,"station_id":"ce4bhm92rcd13ifvqglg","pricing_plan_id":"cebpf4jnsgd1na2vs0mg"},{"bike_id":"3cd6782e-7b49-4bdb-8d08-dbba1a127364","system_id":"levelo_inurba_marseille","lat":43.32474,"lon":5.36568,"is_reserved":false,"is_disabled":false,"rental_uris":{"android":"levelo://app?vid=3cd6782e-7b49-4bdb-8d08-dbba1a127364","ios":"levelo://app?vid=3cd6782e-7b49-4bdb-8d08-dbba1a127364"},"vehicle_type_id":"4","last_reported":1747815293,"current_range_meters":12800,"station_id":"ce4bhs12rcd13ifvqhvg","pricing_plan_id":"cebpf4jnsgd1na2vs0mg"},{"bike_id":"e04ae8b5-c2b3-4839-adcc-0a8e6b55655c","system_id":"levelo_inurba_marseille","lat":43.30953,"lon":5.39045,"is_reserved":false,"is_disabled":false,"rental_uris":{"android":"levelo://app?vid=e04ae8b5-c2b3-4839-adcc-0a8e6b55655c","ios":"levelo://app?vid=e04ae8b5-c2b3-4839-adcc-0a8e6b55655c"},"vehicle_type_id":"4","last_reported":1747815293,"current_range_meters":13600,"station_id":"ce4bgup2rcd13ifvqco0","pricing_plan_id":"cebpf4jnsgd1na2vs0mg"},{"bike_id":"022165e4-8050-4756-a332-fb5eff338790","system_id":"levelo_inurba_marseille","lat":43.25711,"lon":5.41104,"is_reserved":false,"is_disabled":false,"rental_uris":{"android":"levelo://app?vid=022165e4-8050-4756-a332-fb5eff338790","ios":"levelo://app?vid=022165e4-8050-4756-a332-fb5eff338790"},"vehicle_type_id":"4","last_reported":1747815293,"current_range_meters":13600,"station_id":"ce4bhkp2rcd13ifvqgd0","pricing_plan_id":"cebpf4jnsgd1na2vs0mg"},{"bike_id":"0cc58957-c5b7-42c1-abec-33957dbb5986","system_id":"levelo_inurba_marseille","lat":43.29267,"lon":5.37617,"is_reserved":false,"is_disabled":false,"rental_uris":{"android":"levelo://app?vid=0cc58957-c5b7-42c1-abec-33957dbb5986","ios":"levelo://app?vid=0cc58957-c5b7-42c1-abec-33957dbb5986"},"vehicle_type_id":"4","last_reported":1747815293,"current_range_meters":14000,"station_id":"ce4bgi12rcd13ifvqb80","pricing_plan_id":"cebpf4jnsgd1na2vs0mg"},{"bike_id":"be66e549-7681-42d3-bf54-097229e510cb","system_id":"levelo_inurba_marseille","lat":43.25579,"lon":5.38225,"is_reserved":false,"is_disabled":false,"rental_uris":{"android":"levelo://app?vid=be66e549-7681-42d3-bf54-097229e510cb","ios":"levelo://app?vid=be66e549-7681-42d3-bf54-097229e510cb"},"vehicle_type_id":"4","last_reported":1747815293,"current_range_meters":14000,"station_id":"ce4bhih2rcd13ifvqfs0","pricing_plan_id":"cebpf4jnsgd1na2vs0mg"},{"bike_id":"60bd9881-5084-43e2-bd51-bf012147f24a","system_id":"levelo_inurba_marseille","lat":43.27059,"lon":5.42302,"is_reserved":false,"is_disabled":false,"rental_uris":{"android":"levelo://app?vid=60bd9881-5084-43e2-bd51-bf012147f24a","ios":"levelo://app?vid=60bd9881-5084-43e2-bd51-bf012147f24a"},"vehicle_type_id":"4","last_reported":1747815293,"current_range_meters":14000,"station_id":"ce4bhk92rcd13ifvqgb0","pricing_plan_id":"cebpf4jnsgd1na2vs0mg"},{"bike_id":"80cc8d0a-aff2-4229-a8c9-f052ff247232","system_id":"levelo_inurba_marseille","lat":43.240753,"lon":5.377625,"is_reserved":false,"is_disabled":false,"rental_uris":{"android":"levelo://app?vid=80cc8d0a-aff2-4229-a8c9-f052ff247232","ios":"levelo://app?vid=80cc8d0a-aff2-4229-a8c9-f052ff247232"},"vehicle_type_id":"4","last_reported":1747815293,"current_range_meters":14000,"station_id":"ce4bhnp2rcd13ifvqgvg","pricing_plan_id":"cebpf4jnsgd1na2vs0mg"},{"bike_id":"0c91c7a8-de12-4150-9b92-0e4951d17101","system_id":"levelo_inurba_marseille","lat":43.279989,"lon":5.400045,"is_reserved":false,"is_disabled":false,"rental_uris":{"android":"levelo://app?vid=0c91c7a8-de12-4150-9b92-0e4951d17101","ios":"levelo://app?vid=0c91c7a8-de12-4150-9b92-0e4951d17101"},"vehicle_type_id":"4","last_reported":1747815293,"current_range_meters":14000,"station_id":"ce4bho92rcd13ifvqh4g","pricing_plan_id":"cebpf4jnsgd1na2vs0mg"},{"bike_id":"5efcc125-7c3b-4b1e-8dc7-87a85c5476b7","system_id":"levelo_inurba_marseille","lat":43.29557,"lon":5.42282,"is_reserved":false,"is_disabled":false,"rental_uris":{"android":"levelo://app?vid=5efcc125-7c3b-4b1e-8dc7-87a85c5476b7","ios":"levelo://app?vid=5efcc125-7c3b-4b1e-8dc7-87a85c5476b7"},"vehicle_type_id":"4","last_reported":1747815293,"current_range_meters":14000,"station_id":"ce4bhph2rcd13ifvqhdg","pricing_plan_id":"cebpf4jnsgd1na2vs0mg"},{"bike_id":"fa63cb63-99d7-41db-990c-f34e4d32ca64","system_id":"levelo_inurba_marseille","lat":43.337195,"lon":5.39183,"is_reserved":false,"is_disabled":false,"rental_uris":{"android":"levelo://app?vid=fa63cb63-99d7-41db-990c-f34e4d32ca64","ios":"levelo://app?vid=fa63cb63-99d7-41db-990c-f34e4d32ca64"},"vehicle_type_id":"4","last_reported":1747815293,"current_range_meters":14000,"station_id":"ce4bhr92rcd13ifvqhsg","pricing_plan_id":"cebpf4jnsgd1na2vs0mg"},{"bike_id":"41a63ad7-5271-4c92-a07b-12a7b1d342de","system_id":"levelo_inurba_marseille","lat":43.21212,"lon":5.35073,"is_reserved":false,"is_disabled":false,"rental_uris":{"android":"levelo://app?vid=41a63ad7-5271-4c92-a07b-12a7b1d342de","ios":"levelo://app?vid=41a63ad7-5271-4c92-a07b-12a7b1d342de"},"vehicle_type_id":"4","last_reported":1747815293,"current_range_meters":14000,"station_id":"st_cvj6sg6p6f1abm77japg","pricing_plan_id":"cebpf4jnsgd1na2vs0mg"},{"bike_id":"324b2636-bbf0-403a-895c-99127ca049b3","system_id":"levelo_inurba_marseille","lat":43.29873,"lon":5.36285,"is_reserved":false,"is_disabled":false,"rental_uris":{"android":"levelo://app?vid=324b2636-bbf0-403a-895c-99127ca049b3","ios":"levelo://app?vid=324b2636-bbf0-403a-895c-99127ca049b3"},"vehicle_type_id":"4","last_reported":1747815293,"current_range_meters":14400,"station_id":"ce4bgpp2rcd13ifvqc3g","pricing_plan_id":"cebpf4jnsgd1na2vs0mg"},{"bike_id":"1223b735-add8-4f9a-8eba-0f5d78f29c83","system_id":"levelo_inurba_marseille","lat":43.3088,"lon":5.37194,"is_reserved":false,"is_disabled":false,"rental_uris":{"android":"levelo://app?vid=1223b735-add8-4f9a-8eba-0f5d78f29c83","ios":"levelo://app?vid=1223b735-add8-4f9a-8eba-0f5d78f29c83"},"vehicle_type_id":"4","last_reported":1747815293,"current_range_meters":14400,"station_id":"ce4bguh2rcd13ifvqckg","pricing_plan_id":"cebpf4jnsgd1na2vs0mg"},{"bike_id":"2c1f786e-6b34-43be-b84d-92b98b9dd7f2","system_id":"levelo_inurba_marseille","lat":43.2907,"lon":5.37142,"is_reserved":false,"is_disabled":false,"rental_uris":{"android":"levelo://app?vid=2c1f786e-6b34-43be-b84d-92b98b9dd7f2","ios":"levelo://app?vid=2c1f786e-6b34-43be-b84d-92b98b9dd7f2"},"vehicle_type_id":"4","last_reported":1747815293,"current_range_meters":14400,"station_id":"ce4bh5p2rcd13ifvqe4g","pricing_plan_id":"cebpf4jnsgd1na2vs0mg"},{"bike_id":"7fb9f143-5494-4e2f-b5ce-68bf89f3e157","system_id":"levelo_inurba_marseille","lat":43.25007,"lon":5.38926,"is_reserved":false,"is_disabled":false,"rental_uris":{"android":"levelo://app?vid=7fb9f143-5494-4e2f-b5ce-68bf89f3e157","ios":"levelo://app?vid=7fb9f143-5494-4e2f-b5ce-68bf89f3e157"},"vehicle_type_id":"4","last_reported":1747815293,"current_range_meters":14400,"station_id":"ce4bhgp2rcd13ifvqfd0","pricing_plan_id":"cebpf4jnsgd1na2vs0mg"},{"bike_id":"30386b20-4cd4-4a6d-9080-fc55bd356c06","system_id":"levelo_inurba_marseille","lat":43.24386,"lon":5.37055,"is_reserved":false,"is_disabled":false,"rental_uris":{"android":"levelo://app?vid=30386b20-4cd4-4a6d-9080-fc55bd356c06","ios":"levelo://app?vid=30386b20-4cd4-4a6d-9080-fc55bd356c06"},"vehicle_type_id":"4","last_reported":1747815293,"current_range_meters":14400,"station_id":"ce4bhhh2rcd13ifvqfk0","pricing_plan_id":"cebpf4jnsgd1na2vs0mg"},{"bike_id":"e107c324-8974-4d5f-8f30-172a610af824","system_id":"levelo_inurba_marseille","lat":43.27492,"lon":5.42454,"is_reserved":false,"is_disabled":false,"rental_uris":{"android":"levelo://app?vid=e107c324-8974-4d5f-8f30-172a610af824","ios":"levelo://app?vid=e107c324-8974-4d5f-8f30-172a610af824"},"vehicle_type_id":"4","last_reported":1747815293,"current_range_meters":14400,"station_id":"ce4bhn92rcd13ifvqgrg","pricing_plan_id":"cebpf4jnsgd1na2vs0mg"},{"bike_id":"22c16602-8f86-477a-9c84-09f8dca851a6","system_id":"levelo_inurba_marseille","lat":43.24073,"lon":5.37753,"is_reserved":false,"is_disabled":false,"rental_uris":{"android":"levelo://app?vid=22c16602-8f86-477a-9c84-09f8dca851a6","ios":"levelo://app?vid=22c16602-8f86-477a-9c84-09f8dca851a6"},"vehicle_type_id":"4","last_reported":1747815293,"current_range_meters":14400,"station_id":"ce4bhnp2rcd13ifvqgvg","pricing_plan_id":"cebpf4jnsgd1na2vs0mg"},{"bike_id":"09b092f7-73a2-4306-8179-0264b487a722","system_id":"levelo_inurba_marseille","lat":43.27946,"lon":5.41037,"is_reserved":false,"is_disabled":false,"rental_uris":{"android":"levelo://app?vid=09b092f7-73a2-4306-8179-0264b487a722","ios":"levelo://app?vid=09b092f7-73a2-4306-8179-0264b487a722"},"vehicle_type_id":"4","last_reported":1747815293,"current_range_meters":14400,"station_id":"ce4bhnp2rcd13ifvqh0g","pricing_plan_id":"cebpf4jnsgd1na2vs0mg"},{"bike_id":"d222c036-c02a-40db-bb80-83d7b7358871","system_id":"levelo_inurba_marseille","lat":43.33709,"lon":5.39205,"is_reserved":false,"is_disabled":false,"rental_uris":{"android":"levelo://app?vid=d222c036-c02a-40db-bb80-83d7b7358871","ios":"levelo://app?vid=d222c036-c02a-40db-bb80-83d7b7358871"},"vehicle_type_id":"4","last_reported":1747815293,"current_range_meters":14400,"station_id":"ce4bhr92rcd13ifvqhsg","pricing_plan_id":"cebpf4jnsgd1na2vs0mg"},{"bike_id":"6ee253bc-22b3-4104-814f-2618455eaaeb","system_id":"levelo_inurba_marseille","lat":43.3054,"lon":5.3671,"is_reserved":false,"is_disabled":false,"rental_uris":{"android":"levelo://app?vid=6ee253bc-22b3-4104-814f-2618455eaaeb","ios":"levelo://app?vid=6ee253bc-22b3-4104-814f-2618455eaaeb"},"vehicle_type_id":"4","last_reported":1747815293,"current_range_meters":14800,"station_id":"ce4bgrp2rcd13ifvqc9g","pricing_plan_id":"cebpf4jnsgd1na2vs0mg"},{"bike_id":"87f00d56-2fe9-4879-98d2-d113f6da5abb","system_id":"levelo_inurba_marseille","lat":43.24675,"lon":5.38869,"is_reserved":false,"is_disabled":false,"rental_uris":{"android":"levelo://app?vid=87f00d56-2fe9-4879-98d2-d113f6da5abb","ios":"levelo://app?vid=87f00d56-2fe9-4879-98d2-d113f6da5abb"},"vehicle_type_id":"4","last_reported":1747815293,"current_range_meters":14800,"station_id":"ce4bhg12rcd13ifvqf60","pricing_plan_id":"cebpf4jnsgd1na2vs0mg"},{"bike_id":"b3ad5739-aaf3-48a6-876b-8747a07c8b86","system_id":"levelo_inurba_marseille","lat":43.24543,"lon":5.39522,"is_reserved":false,"is_disabled":false,"rental_uris":{"android":"levelo://app?vid=b3ad5739-aaf3-48a6-876b-8747a07c8b86","ios":"levelo://app?vid=b3ad5739-aaf3-48a6-876b-8747a07c8b86"},"vehicle_type_id":"4","last_reported":1747815293,"current_range_meters":14800,"station_id":"ce4bhlp2rcd13ifvqgjg","pricing_plan_id":"cebpf4jnsgd1na2vs0mg"},{"bike_id":"71099866-2aa5-45a2-88c8-31a946b74d21","system_id":"levelo_inurba_marseille","lat":43.2592,"lon":5.40885,"is_reserved":false,"is_disabled":false,"rental_uris":{"android":"levelo://app?vid=71099866-2aa5-45a2-88c8-31a946b74d21","ios":"levelo://app?vid=71099866-2aa5-45a2-88c8-31a946b74d21"},"vehicle_type_id":"4","last_reported":1747815293,"current_range_meters":14800,"station_id":"ce4bhm92rcd13ifvqglg","pricing_plan_id":"cebpf4jnsgd1na2vs0mg"},{"bike_id":"886aa11b-d92b-4c0b-ac9e-b60705f8aa91","system_id":"levelo_inurba_marseille","lat":43.25926,"lon":5.40904,"is_reserved":false,"is_disabled":false,"rental_uris":{"android":"levelo://app?vid=886aa11b-d92b-4c0b-ac9e-b60705f8aa91","ios":"levelo://app?vid=886aa11b-d92b-4c0b-ac9e-b60705f8aa91"},"vehicle_type_id":"4","last_reported":1747815293,"current_range_meters":14800,"station_id":"ce4bhm92rcd13ifvqglg","pricing_plan_id":"cebpf4jnsgd1na2vs0mg"},{"bike_id":"367001af-20e0-499c-b98c-752a74b4fbcf","system_id":"levelo_inurba_marseille","lat":43.2315,"lon":5.43718,"is_reserved":false,"is_disabled":false,"rental_uris":{"android":"levelo://app?vid=367001af-20e0-499c-b98c-752a74b4fbcf","ios":"levelo://app?vid=367001af-20e0-499c-b98c-752a74b4fbcf"},"vehicle_type_id":"4","last_reported":1747815293,"current_range_meters":14800,"station_id":"ce4bhmp2rcd13ifvqgog","pricing_plan_id":"cebpf4jnsgd1na2vs0mg"},{"bike_id":"d2243da5-46a4-4675-a166-c5959f727fa3","system_id":"levelo_inurba_marseille","lat":43.279384,"lon":5.410435,"is_reserved":false,"is_disabled":false,"rental_uris":{"android":"levelo://app?vid=d2243da5-46a4-4675-a166-c5959f727fa3","ios":"levelo://app?vid=d2243da5-46a4-4675-a166-c5959f727fa3"},"vehicle_type_id":"4","last_reported":1747815293,"current_range_meters":14800,"station_id":"ce4bhnp2rcd13ifvqh0g","pricing_plan_id":"cebpf4jnsgd1na2vs0mg"},{"bike_id":"9ab9a453-c610-4ee6-bfe9-c53b25fc7671","system_id":"levelo_inurba_marseille","lat":43.26664,"lon":5.39565,"is_reserved":false,"is_disabled":false,"rental_uris":{"android":"levelo://app?vid=9ab9a453-c610-4ee6-bfe9-c53b25fc7671","ios":"levelo://app?vid=9ab9a453-c610-4ee6-bfe9-c53b25fc7671"},"vehicle_type_id":"4","last_reported":1747815293,"current_range_meters":15200,"station_id":"","pricing_plan_id":"cebpf4jnsgd1na2vs0mg"},{"bike_id":"f9fb40c0-1fcd-48cb-8e26-3f2dc0fb2451","system_id":"levelo_inurba_marseille","lat":43.33751,"lon":5.37509,"is_reserved":false,"is_disabled":false,"rental_uris":{"android":"levelo://app?vid=f9fb40c0-1fcd-48cb-8e26-3f2dc0fb2451","ios":"levelo://app?vid=f9fb40c0-1fcd-48cb-8e26-3f2dc0fb2451"},"vehicle_type_id":"4","last_reported":1747815293,"current_range_meters":15200,"station_id":"","pricing_plan_id":"cebpf4jnsgd1na2vs0mg"},{"bike_id":"74ec681e-9b8c-4555-b20c-a94568b59828","system_id":"levelo_inurba_marseille","lat":43.30147,"lon":5.3808,"is_reserved":false,"is_disabled":false,"rental_uris":{"android":"levelo://app?vid=74ec681e-9b8c-4555-b20c-a94568b59828","ios":"levelo://app?vid=74ec681e-9b8c-4555-b20c-a94568b59828"},"vehicle_type_id":"4","last_reported":1747815293,"current_range_meters":15200,"station_id":"ce4bgjp2rcd13ifvqbh0","pricing_plan_id":"cebpf4jnsgd1na2vs0mg"},{"bike_id":"87987afe-4534-47e9-920e-2df9e4427a38","system_id":"levelo_inurba_marseille","lat":43.30549,"lon":5.3652,"is_reserved":false,"is_disabled":false,"rental_uris":{"android":"levelo://app?vid=87987afe-4534-47e9-920e-2df9e4427a38","ios":"levelo://app?vid=87987afe-4534-47e9-920e-2df9e4427a38"},"vehicle_type_id":"4","last_reported":1747815293,"current_range_meters":15200,"station_id":"ce4bgs12rcd13ifvqcag","pricing_plan_id":"cebpf4jnsgd1na2vs0mg"},{"bike_id":"a8415131-0dcb-4510-bba0-555778338705","system_id":"levelo_inurba_marseille","lat":43.31499,"lon":5.37268,"is_reserved":false,"is_disabled":false,"rental_uris":{"android":"levelo://app?vid=a8415131-0dcb-4510-bba0-555778338705","ios":"levelo://app?vid=a8415131-0dcb-4510-bba0-555778338705"},"vehicle_type_id":"4","last_reported":1747815293,"current_range_meters":15200,"station_id":"ce4bgt12rcd13ifvqcd0","pricing_plan_id":"cebpf4jnsgd1na2vs0mg"},{"bike_id":"9ed5c227-bca3-473d-82dc-3083fbc2c61d","system_id":"levelo_inurba_marseille","lat":43.30876,"lon":5.39637,"is_reserved":false,"is_disabled":false,"rental_uris":{"android":"levelo://app?vid=9ed5c227-bca3-473d-82dc-3083fbc2c61d","ios":"levelo://app?vid=9ed5c227-bca3-473d-82dc-3083fbc2c61d"},"vehicle_type_id":"4","last_reported":1747815293,"current_range_meters":15200,"station_id":"ce4bh012rcd13ifvqcv0","pricing_plan_id":"cebpf4jnsgd1na2vs0mg"},{"bike_id":"c046e1da-d3e4-4073-b125-cae5ea948313","system_id":"levelo_inurba_marseille","lat":43.261635,"lon":5.375148,"is_reserved":false,"is_disabled":false,"rental_uris":{"android":"levelo://app?vid=c046e1da-d3e4-4073-b125-cae5ea948313","ios":"levelo://app?vid=c046e1da-d3e4-4073-b125-cae5ea948313"},"vehicle_type_id":"4","last_reported":1747815293,"current_range_meters":15200,"station_id":"ce4bhbh2rcd13ifvqeo0","pricing_plan_id":"cebpf4jnsgd1na2vs0mg"},{"bike_id":"f693b179-d4c4-4ee0-8a73-552a9c1888ff","system_id":"levelo_inurba_marseille","lat":43.25932,"lon":5.40913,"is_reserved":false,"is_disabled":false,"rental_uris":{"android":"levelo://app?vid=f693b179-d4c4-4ee0-8a73-552a9c1888ff","ios":"levelo://app?vid=f693b179-d4c4-4ee0-8a73-552a9c1888ff"},"vehicle_type_id":"4","last_reported":1747815293,"current_range_meters":15200,"station_id":"ce4bhm92rcd13ifvqglg","pricing_plan_id":"cebpf4jnsgd1na2vs0mg"},{"bike_id":"1b06c297-b620-4baa-8469-7fc93984e230","system_id":"levelo_inurba_marseille","lat":43.24171,"lon":5.39722,"is_reserved":false,"is_disabled":false,"rental_uris":{"android":"levelo://app?vid=1b06c297-b620-4baa-8469-7fc93984e230","ios":"levelo://app?vid=1b06c297-b620-4baa-8469-7fc93984e230"},"vehicle_type_id":"4","last_reported":1747815293,"current_range_meters":15200,"station_id":"ce4bhn12rcd13ifvqgpg","pricing_plan_id":"cebpf4jnsgd1na2vs0mg"},{"bike_id":"1396a1e4-a7a4-45f6-aea9-62380bf2972a","system_id":"levelo_inurba_marseille","lat":43.31392,"lon":5.36684,"is_reserved":false,"is_disabled":false,"rental_uris":{"android":"levelo://app?vid=1396a1e4-a7a4-45f6-aea9-62380bf2972a","ios":"levelo://app?vid=1396a1e4-a7a4-45f6-aea9-62380bf2972a"},"vehicle_type_id":"4","last_reported":1747815293,"current_range_meters":16000,"station_id":"","pricing_plan_id":"cebpf4jnsgd1na2vs0mg"},{"bike_id":"824a86f4-99ca-47bd-ae65-1ed008ec6a72","system_id":"levelo_inurba_marseille","lat":43.27871,"lon":5.39541,"is_reserved":false,"is_disabled":false,"rental_uris":{"android":"levelo://app?vid=824a86f4-99ca-47bd-ae65-1ed008ec6a72","ios":"levelo://app?vid=824a86f4-99ca-47bd-ae65-1ed008ec6a72"},"vehicle_type_id":"4","last_reported":1747815293,"current_range_meters":16000,"station_id":"","pricing_plan_id":"cebpf4jnsgd1na2vs0mg"},{"bike_id":"26f7fb37-fe13-47bd-bc32-8bb1df144be9","system_id":"levelo_inurba_marseille","lat":43.292633,"lon":5.376363,"is_reserved":false,"is_disabled":false,"rental_uris":{"android":"levelo://app?vid=26f7fb37-fe13-47bd-bc32-8bb1df144be9","ios":"levelo://app?vid=26f7fb37-fe13-47bd-bc32-8bb1df144be9"},"vehicle_type_id":"4","last_reported":1747815293,"current_range_meters":16000,"station_id":"ce4bgi12rcd13ifvqb80","pricing_plan_id":"cebpf4jnsgd1na2vs0mg"},{"bike_id":"f5667c52-8d8a-4771-a94a-90427e35a890","system_id":"levelo_inurba_marseille","lat":43.29612,"lon":5.37722,"is_reserved":false,"is_disabled":false,"rental_uris":{"android":"levelo://app?vid=f5667c52-8d8a-4771-a94a-90427e35a890","ios":"levelo://app?vid=f5667c52-8d8a-4771-a94a-90427e35a890"},"vehicle_type_id":"4","last_reported":1747815293,"current_range_meters":16000,"station_id":"ce4bgi92rcd13ifvqb90","pricing_plan_id":"cebpf4jnsgd1na2vs0mg"},{"bike_id":"1c6b2cc5-0117-4eb4-91c7-bd68d0b2ec05","system_id":"levelo_inurba_marseille","lat":43.31378,"lon":5.36725,"is_reserved":false,"is_disabled":false,"rental_uris":{"android":"levelo://app?vid=1c6b2cc5-0117-4eb4-91c7-bd68d0b2ec05","ios":"levelo://app?vid=1c6b2cc5-0117-4eb4-91c7-bd68d0b2ec05"},"vehicle_type_id":"4","last_reported":1747815293,"current_range_meters":16000,"station_id":"ce4bgr92rcd13ifvqc6g","pricing_plan_id":"cebpf4jnsgd1na2vs0mg"},{"bike_id":"2bf79468-317d-4b18-99c5-99fee254136d","system_id":"levelo_inurba_marseille","lat":43.29279,"lon":5.3685,"is_reserved":false,"is_disabled":false,"rental_uris":{"android":"levelo://app?vid=2bf79468-317d-4b18-99c5-99fee254136d","ios":"levelo://app?vid=2bf79468-317d-4b18-99c5-99fee254136d"},"vehicle_type_id":"4","last_reported":1747815293,"current_range_meters":16000,"station_id":"ce4bhbp2rcd13ifvqesg","pricing_plan_id":"cebpf4jnsgd1na2vs0mg"},{"bike_id":"be6d768a-e5a2-4755-b418-4b492528224c","system_id":"levelo_inurba_marseille","lat":43.29271,"lon":5.36843,"is_reserved":false,"is_disabled":false,"rental_uris":{"android":"levelo://app?vid=be6d768a-e5a2-4755-b418-4b492528224c","ios":"levelo://app?vid=be6d768a-e5a2-4755-b418-4b492528224c"},"vehicle_type_id":"4","last_reported":1747815293,"current_range_meters":16000,"station_id":"ce4bhbp2rcd13ifvqesg","pricing_plan_id":"cebpf4jnsgd1na2vs0mg"},{"bike_id":"dbd701ce-b74f-4507-88cf-7d2b64f801da","system_id":"levelo_inurba_marseille","lat":43.25952,"lon":5.40904,"is_reserved":false,"is_disabled":false,"rental_uris":{"android":"levelo://app?vid=dbd701ce-b74f-4507-88cf-7d2b64f801da","ios":"levelo://app?vid=dbd701ce-b74f-4507-88cf-7d2b64f801da"},"vehicle_type_id":"4","last_reported":1747815293,"current_range_meters":16000,"station_id":"ce4bhm92rcd13ifvqglg","pricing_plan_id":"cebpf4jnsgd1na2vs0mg"},{"bike_id":"e745ebc6-8f69-4d0b-a4e7-594822ba8625","system_id":"levelo_inurba_marseille","lat":43.24091,"lon":5.37753,"is_reserved":false,"is_disabled":false,"rental_uris":{"android":"levelo://app?vid=e745ebc6-8f69-4d0b-a4e7-594822ba8625","ios":"levelo://app?vid=e745ebc6-8f69-4d0b-a4e7-594822ba8625"},"vehicle_type_id":"4","last_reported":1747815293,"current_range_meters":16000,"station_id":"ce4bhnp2rcd13ifvqgvg","pricing_plan_id":"cebpf4jnsgd1na2vs0mg"},{"bike_id":"ec1e5af5-a2c9-40c7-8196-abeddc2c4e77","system_id":"levelo_inurba_marseille","lat":43.33601,"lon":5.40997,"is_reserved":false,"is_disabled":false,"rental_uris":{"android":"levelo://app?vid=ec1e5af5-a2c9-40c7-8196-abeddc2c4e77","ios":"levelo://app?vid=ec1e5af5-a2c9-40c7-8196-abeddc2c4e77"},"vehicle_type_id":"4","last_reported":1747815293,"current_range_meters":16000,"station_id":"ce4bhqh2rcd13ifvqhmg","pricing_plan_id":"cebpf4jnsgd1na2vs0mg"},{"bike_id":"628c52ae-b897-4dca-953c-8475bb2941d3","system_id":"levelo_inurba_marseille","lat":43.21191,"lon":5.35031,"is_reserved":false,"is_disabled":false,"rental_uris":{"android":"levelo://app?vid=628c52ae-b897-4dca-953c-8475bb2941d3","ios":"levelo://app?vid=628c52ae-b897-4dca-953c-8475bb2941d3"},"vehicle_type_id":"4","last_reported":1747815293,"current_range_meters":16000,"station_id":"st_cvj6sg6p6f1abm77japg","pricing_plan_id":"cebpf4jnsgd1na2vs0mg"},{"bike_id":"509a7bc5-3ed4-44a0-83b3-6bbf477b3a61","system_id":"levelo_inurba_marseille","lat":43.21199,"lon":5.35063,"is_reserved":false,"is_disabled":false,"rental_uris":{"android":"levelo://app?vid=509a7bc5-3ed4-44a0-83b3-6bbf477b3a61","ios":"levelo://app?vid=509a7bc5-3ed4-44a0-83b3-6bbf477b3a61"},"vehicle_type_id":"4","last_reported":1747815293,"current_range_meters":16000,"station_id":"st_cvj6sg6p6f1abm77japg","pricing_plan_id":"cebpf4jnsgd1na2vs0mg"},{"bike_id":"5eda19dd-2117-416f-86ae-20e22a7cf9c6","system_id":"levelo_inurba_marseille","lat":43.30315,"lon":5.36912,"is_reserved":false,"is_disabled":false,"rental_uris":{"android":"levelo://app?vid=5eda19dd-2117-416f-86ae-20e22a7cf9c6","ios":"levelo://app?vid=5eda19dd-2117-416f-86ae-20e22a7cf9c6"},"vehicle_type_id":"4","last_reported":1747815293,"current_range_meters":16400,"station_id":"ce4bgqh2rcd13ifvqc5g","pricing_plan_id":"cebpf4jnsgd1na2vs0mg"},{"bike_id":"52c03c9e-9d97-4cdb-93c5-a1b2a538c657","system_id":"levelo_inurba_marseille","lat":43.30956,"lon":5.39028,"is_reserved":false,"is_disabled":false,"rental_uris":{"android":"levelo://app?vid=52c03c9e-9d97-4cdb-93c5-a1b2a538c657","ios":"levelo://app?vid=52c03c9e-9d97-4cdb-93c5-a1b2a538c657"},"vehicle_type_id":"4","last_reported":1747815293,"current_range_meters":16400,"station_id":"ce4bgup2rcd13ifvqco0","pricing_plan_id":"cebpf4jnsgd1na2vs0mg"},{"bike_id":"74c1d8f2-eb66-4740-ba2f-bfc86ff18be9","system_id":"levelo_inurba_marseille","lat":43.3095,"lon":5.39045,"is_reserved":false,"is_disabled":false,"rental_uris":{"android":"levelo://app?vid=74c1d8f2-eb66-4740-ba2f-bfc86ff18be9","ios":"levelo://app?vid=74c1d8f2-eb66-4740-ba2f-bfc86ff18be9"},"vehicle_type_id":"4","last_reported":1747815293,"current_range_meters":16400,"station_id":"ce4bgup2rcd13ifvqco0","pricing_plan_id":"cebpf4jnsgd1na2vs0mg"},{"bike_id":"3e06a18e-0d24-41b8-9b17-1e1a8342041e","system_id":"levelo_inurba_marseille","lat":43.26946,"lon":5.38624,"is_reserved":false,"is_disabled":false,"rental_uris":{"android":"levelo://app?vid=3e06a18e-0d24-41b8-9b17-1e1a8342041e","ios":"levelo://app?vid=3e06a18e-0d24-41b8-9b17-1e1a8342041e"},"vehicle_type_id":"4","last_reported":1747815293,"current_range_meters":16400,"station_id":"ce4bhh92rcd13ifvqfh0","pricing_plan_id":"cebpf4jnsgd1na2vs0mg"},{"bike_id":"e384a851-8a83-49f3-8856-dc02278bbbd5","system_id":"levelo_inurba_marseille","lat":43.245442,"lon":5.395208,"is_reserved":false,"is_disabled":false,"rental_uris":{"android":"levelo://app?vid=e384a851-8a83-49f3-8856-dc02278bbbd5","ios":"levelo://app?vid=e384a851-8a83-49f3-8856-dc02278bbbd5"},"vehicle_type_id":"4","last_reported":1747815293,"current_range_meters":16400,"station_id":"ce4bhlp2rcd13ifvqgjg","pricing_plan_id":"cebpf4jnsgd1na2vs0mg"},{"bike_id":"80806757-a470-47e2-bf3d-d59d2d696062","system_id":"levelo_inurba_marseille","lat":43.24085,"lon":5.37731,"is_reserved":false,"is_disabled":false,"rental_uris":{"android":"levelo://app?vid=80806757-a470-47e2-bf3d-d59d2d696062","ios":"levelo://app?vid=80806757-a470-47e2-bf3d-d59d2d696062"},"vehicle_type_id":"4","last_reported":1747815293,"current_range_meters":16400,"station_id":"ce4bhnp2rcd13ifvqgvg","pricing_plan_id":"cebpf4jnsgd1na2vs0mg"},{"bike_id":"0552706d-7ee7-4fee-97ae-ee5ed92102cb","system_id":"levelo_inurba_marseille","lat":43.336,"lon":5.40983,"is_reserved":false,"is_disabled":false,"rental_uris":{"android":"levelo://app?vid=0552706d-7ee7-4fee-97ae-ee5ed92102cb","ios":"levelo://app?vid=0552706d-7ee7-4fee-97ae-ee5ed92102cb"},"vehicle_type_id":"4","last_reported":1747815293,"current_range_meters":16400,"station_id":"ce4bhqh2rcd13ifvqhmg","pricing_plan_id":"cebpf4jnsgd1na2vs0mg"},{"bike_id":"c9a00e74-029a-454e-8e85-1b3d994b9d78","system_id":"levelo_inurba_marseille","lat":43.211922,"lon":5.350832,"is_reserved":false,"is_disabled":false,"rental_uris":{"android":"levelo://app?vid=c9a00e74-029a-454e-8e85-1b3d994b9d78","ios":"levelo://app?vid=c9a00e74-029a-454e-8e85-1b3d994b9d78"},"vehicle_type_id":"4","last_reported":1747815293,"current_range_meters":16400,"station_id":"st_cvj6sg6p6f1abm77japg","pricing_plan_id":"cebpf4jnsgd1na2vs0mg"},{"bike_id":"ba1c8fec-dbd0-4dc8-8c1e-74ae74cb6986","system_id":"levelo_inurba_marseille","lat":43.31225,"lon":5.36861,"is_reserved":false,"is_disabled":false,"rental_uris":{"android":"levelo://app?vid=ba1c8fec-dbd0-4dc8-8c1e-74ae74cb6986","ios":"levelo://app?vid=ba1c8fec-dbd0-4dc8-8c1e-74ae74cb6986"},"vehicle_type_id":"4","last_reported":1747815293,"current_range_meters":16800,"station_id":"ce4bgl92rcd13ifvqbq0","pricing_plan_id":"cebpf4jnsgd1na2vs0mg"},{"bike_id":"d6d25aa4-0973-4ce0-ab2d-13f905bac964","system_id":"levelo_inurba_marseille","lat":43.2962,"lon":5.37165,"is_reserved":false,"is_disabled":false,"rental_uris":{"android":"levelo://app?vid=d6d25aa4-0973-4ce0-ab2d-13f905bac964","ios":"levelo://app?vid=d6d25aa4-0973-4ce0-ab2d-13f905bac964"},"vehicle_type_id":"4","last_reported":1747815293,"current_range_meters":16800,"station_id":"ce4bgnh2rcd13ifvqc0g","pricing_plan_id":"cebpf4jnsgd1na2vs0mg"},{"bike_id":"5a5a45ac-bd12-4fac-8302-0dd8e23888b8","system_id":"levelo_inurba_marseille","lat":43.30555,"lon":5.3652,"is_reserved":false,"is_disabled":false,"rental_uris":{"android":"levelo://app?vid=5a5a45ac-bd12-4fac-8302-0dd8e23888b8","ios":"levelo://app?vid=5a5a45ac-bd12-4fac-8302-0dd8e23888b8"},"vehicle_type_id":"4","last_reported":1747815293,"current_range_meters":16800,"station_id":"ce4bgs12rcd13ifvqcag","pricing_plan_id":"cebpf4jnsgd1na2vs0mg"},{"bike_id":"0bca3a96-52b1-4120-b7a6-0908c010f8f0","system_id":"levelo_inurba_marseille","lat":43.31494,"lon":5.37304,"is_reserved":false,"is_disabled":false,"rental_uris":{"android":"levelo://app?vid=0bca3a96-52b1-4120-b7a6-0908c010f8f0","ios":"levelo://app?vid=0bca3a96-52b1-4120-b7a6-0908c010f8f0"},"vehicle_type_id":"4","last_reported":1747815293,"current_range_meters":16800,"station_id":"ce4bgt12rcd13ifvqcd0","pricing_plan_id":"cebpf4jnsgd1na2vs0mg"},{"bike_id":"66ddb88b-8514-4e11-a3df-a87d2ce2acda","system_id":"levelo_inurba_marseille","lat":43.2857,"lon":5.39491,"is_reserved":false,"is_disabled":false,"rental_uris":{"android":"levelo://app?vid=66ddb88b-8514-4e11-a3df-a87d2ce2acda","ios":"levelo://app?vid=66ddb88b-8514-4e11-a3df-a87d2ce2acda"},"vehicle_type_id":"4","last_reported":1747815293,"current_range_meters":16800,"station_id":"ce4bh292rcd13ifvqdg0","pricing_plan_id":"cebpf4jnsgd1na2vs0mg"},