{"last_updated":1700968032,"ttl":30,"version":"2.2","data":{"bikes":[{"bike_id":"a3208e15-00ce-4b8b-924f-13de341e42e5","system_id":"levelo_inurba_marseille","lat":43.31341,"lon":5.367098,"is_reserved":false,"is_disabled":false,"rental_uris":{"android":"levelo://app?vid=a3208e15-00ce-4b8b-924f-13de341e42e5","ios":"levelo://app?vid=a3208e15-00ce-4b8b-924f-13de341e42e5"},"vehicle_type_id":"4","last_reported":1700968033,"current_range_meters":8000,"station_id":"ce4bgr92rcd13ifvqc6g","pricing_plan_id":"free"},{"bike_id":"1be7a314-267b-4c36-b676-668997f729fc","system_id":"levelo_inurba_marseille","lat":43.31341,"lon":5.367098,"is_reserved":false,"is_disabled":false,"rental_uris":{"android":"levelo://app?vid=1be7a314-267b-4c36-b676-668997f729fc","ios":"levelo://app?vid=1be7a314-267b-4c36-b676-668997f729fc"},"vehicle_type_id":"4","last_reported":1700968033,"current_range_meters":31600,"station_id":"ce4bgr92rcd13ifvqc6g","pricing_plan_id":"free"},{"bike_id":"8db63d30-eb05-40f5-8307-666cac807b82","system_id":"levelo_inurba_marseille","lat":43.312239,"lon":5.368562,"is_reserved":false,"is_disabled":false,"rental_uris":{"android":"levelo://app?vid=8db63d30-eb05-40f5-8307-666cac807b82","ios":"levelo://app?vid=8db63d30-eb05-40f5-8307-666cac807b82"},"vehicle_type_id":"4","last_reported":1700968033,"current_range_meters":17600,"station_id":"ce4bgl92rcd13ifvqbq0","pricing_plan_id":"free"},{"bike_id":"f4f9df94-0768-49f6-8b51-9dbccf4a14f5","system_id":"levelo_inurba_marseille","lat":43.31341,"lon":5.367098,"is_reserved":false,"is_disabled":false,"rental_uris":{"android":"levelo://app?vid=f4f9df94-0768-49f6-8b51-9dbccf4a14f5","ios":"levelo://app?vid=f4f9df94-0768-49f6-8b51-9dbccf4a14f5"},"vehicle_type_id":"4","last_reported":1700968033,"current_range_meters":18800,"station_id":"ce4bgr92rcd13ifvqc6g","pricing_plan_id":"free"},{"bike_id":"cbe29c9e-283f-47bd-8cd9-51d997e39b08","system_id":"levelo_inurba_marseille","lat":43.312239,"lon":5.368562,"is_reserved":false,"is_disabled":false,"rental_uris":{"android":"levelo://app?vid=cbe29c9e-283f-47bd-8cd9-51d997e39b08","ios":"levelo://app?vid=cbe29c9e-283f-47bd-8cd9-51d997e39b08"},"vehicle_type_id":"4","last_reported":1700968033,"current_range_meters":18800,"station_id":"ce4bgl92rcd13ifvqbq0","pricing_plan_id":"free"},{"bike_id":"64397241-cb65-428d-85c0-8e88c0a0c255","system_id":"levelo_inurba_marseille","lat":43.312239,"lon":5.368562,"is_reserved":false,"is_disabled":false,"rental_uris":{"android":"levelo://app?vid=64397241-cb65-428d-85c0-8e88c0a0c255","ios":"levelo://app?vid=64397241-cb65-428d-85c0-8e88c0a0c255"},"vehicle_type_id":"4","last_reported":1700968033,"current_range_meters":23200,"station_id":"ce4bgl92rcd13ifvqbq0","pricing_plan_id":"free"},{"bike_id":"52b6b2fa-401d-458d-91c6-810a2b1b2a63","system_id":"levelo_inurba_marseille","lat":43.314811,"lon":5.373103,"is_reserved":false,"is_disabled":false,"rental_uris":{"android":"levelo://app?vid=52b6b2fa-401d-458d-91c6-810a2b1b2a63","ios":"levelo://app?vid=52b6b2fa-401d-458d-91c6-810a2b1b2a63"},"vehicle_type_id":"4","last_reported":1700968033,"current_range_meters":22800,"station_id":"ce4bgt12rcd13ifvqcd0","pricing_plan_id":"free"},{"bike_id":"f8d66826-a8ce-49da-aa57-6915e8c058b1","system_id":"levelo_inurba_marseille","lat":43.30895,"lon":5.37203,"is_reserved":false,"is_disabled":false,"rental_uris":{"android":"levelo://app?vid=f8d66826-a8ce-49da-aa57-6915e8c058b1","ios":"levelo://app?vid=f8d66826-a8ce-49da-aa57-6915e8c058b1"},"vehicle_type_id":"4","last_reported":1700968033,"current_range_meters":19200,"station_id":"","pricing_plan_id":"free"},{"bike_id":"2c4e2ab4-2bc9-4e71-8e28-b7f9c78b7444","system_id":"levelo_inurba_marseille","lat":43.30579,"lon":5.36576,"is_reserved":false,"is_disabled":false,"rental_uris":{"android":"levelo://app?vid=2c4e2ab4-2bc9-4e71-8e28-b7f9c78b7444","ios":"levelo://app?vid=2c4e2ab4-2bc9-4e71-8e28-b7f9c78b7444"},"vehicle_type_id":"4","last_reported":1700968033,"current_range_meters":1600,"station_id":"","pricing_plan_id":"free"},{"bike_id":"4d239960-e6ab-4548-b8ea-9e4fee9362f5","system_id":"levelo_inurba_marseille","lat":43.305368,"lon":5.367343,"is_reserved":false,"is_disabled":false,"rental_uris":{"android":"levelo://app?vid=4d239960-e6ab-4548-b8ea-9e4fee9362f5","ios":"levelo://app?vid=4d239960-e6ab-4548-b8ea-9e4fee9362f5"},"vehicle_type_id":"4","last_reported":1700968033,"current_range_meters":12000,"station_id":"ce4bgrp2rcd13ifvqc9g","pricing_plan_id":"free"},{"bike_id":"b9a5474b-0366-4a43-a11d-e156af590692","system_id":"levelo_inurba_marseille","lat":43.305207,"lon":5.367112,"is_reserved":false,"is_disabled":false,"rental_uris":{"android":"levelo://app?vid=b9a5474b-0366-4a43-a11d-e156af590692","ios":"levelo://app?vid=b9a5474b-0366-4a43-a11d-e156af590692"},"vehicle_type_id":"4","last_reported":1700968033,"current_range_meters":29200,"station_id":"ce4bgrp2rcd13ifvqc9g","pricing_plan_id":"free"},{"bike_id":"5af7f09e-3516-43cc-a6a4-77e59e863b14","system_id":"levelo_inurba_marseille","lat":43.305181,"lon":5.367075,"is_reserved":false,"is_disabled":false,"rental_uris":{"android":"levelo://app?vid=5af7f09e-3516-43cc-a6a4-77e59e863b14","ios":"levelo://app?vid=5af7f09e-3516-43cc-a6a4-77e59e863b14"},"vehicle_type_id":"4","last_reported":1700968033,"current_range_meters":29200,"station_id":"ce4bgrp2rcd13ifvqc9g","pricing_plan_id":"free"},{"bike_id":"be07dfbb-aab2-418f-bbc8-efe97c62d91b","system_id":"levelo_inurba_marseille","lat":43.305989,"lon":5.37225,"is_reserved":false,"is_disabled":false,"rental_uris":{"android":"levelo://app?vid=be07dfbb-aab2-418f-bbc8-efe97c62d91b","ios":"levelo://app?vid=be07dfbb-aab2-418f-bbc8-efe97c62d91b"},"vehicle_type_id":"4","last_reported":1700968033,"current_range_meters":23200,"station_id":"ce4bgqh2rcd13ifvqc4g","pricing_plan_id":"free"},{"bike_id":"441d47dd-d4fd-4b8f-b78f-b8c7c423436d","system_id":"levelo_inurba_marseille","lat":43.311125,"lon":5.377624,"is_reserved":false,"is_disabled":false,"rental_uris":{"android":"levelo://app?vid=441d47dd-d4fd-4b8f-b78f-b8c7c423436d","ios":"levelo://app?vid=441d47dd-d4fd-4b8f-b78f-b8c7c423436d"},"vehicle_type_id":"4","last_reported":1700968033,"current_range_meters":800,"station_id":"ce4bgt92rcd13ifvqcg0","pricing_plan_id":"free"},{"bike_id":"5bc8bafc-7ec0-4cca-a3a2-21dbcbe6d760","system_id":"levelo_inurba_marseille","lat":43.311172,"lon":5.37766,"is_reserved":false,"is_disabled":false,"rental_uris":{"android":"levelo://app?vid=5bc8bafc-7ec0-4cca-a3a2-21dbcbe6d760","ios":"levelo://app?vid=5bc8bafc-7ec0-4cca-a3a2-21dbcbe6d760"},"vehicle_type_id":"4","last_reported":1700968033,"current_range_meters":3200,"station_id":"ce4bgt92rcd13ifvqcg0","pricing_plan_id":"free"},{"bike_id":"573a870a-b6c4-429d-8587-8103772b84bc","system_id":"levelo_inurba_marseille","lat":43.308166,"lon":5.376679,"is_reserved":false,"is_disabled":false,"rental_uris":{"android":"levelo://app?vid=573a870a-b6c4-429d-8587-8103772b84bc","ios":"levelo://app?vid=573a870a-b6c4-429d-8587-8103772b84bc"},"vehicle_type_id":"4","last_reported":1700968033,"current_range_meters":3200,"station_id":"ce4bgv92rcd13ifvqcq0","pricing_plan_id":"free"},{"bike_id":"f427a2c3-6e4a-446b-ae2f-9be8aa7f4122","system_id":"levelo_inurba_marseille","lat":43.31719,"lon":5.376813,"is_reserved":false,"is_disabled":false,"rental_uris":{"android":"levelo://app?vid=f427a2c3-6e4a-446b-ae2f-9be8aa7f4122","ios":"levelo://app?vid=f427a2c3-6e4a-446b-ae2f-9be8aa7f4122"},"vehicle_type_id":"4","last_reported":1700968033,"current_range_meters":22800,"station_id":"ce4bgth2rcd13ifvqch0","pricing_plan_id":"free"},{"bike_id":"b898b018-f57d-4901-bab2-fdd15d391de9","system_id":"levelo_inurba_marseille","lat":43.317168,"lon":5.376883,"is_reserved":false,"is_disabled":false,"rental_uris":{"android":"levelo://app?vid=b898b018-f57d-4901-bab2-fdd15d391de9","ios":"levelo://app?vid=b898b018-f57d-4901-bab2-fdd15d391de9"},"vehicle_type_id":"4","last_reported":1700968033,"current_range_meters":24800,"station_id":"ce4bgth2rcd13ifvqch0","pricing_plan_id":"free"},{"bike_id":"feabf240-300e-4dde-9bed-c475a4b39eec","system_id":"levelo_inurba_marseille","lat":43.307945,"lon":5.376487,"is_reserved":false,"is_disabled":false,"rental_uris":{"android":"levelo://app?vid=feabf240-300e-4dde-9bed-c475a4b39eec","ios":"levelo://app?vid=feabf240-300e-4dde-9bed-c475a4b39eec"},"vehicle_type_id":"4","last_reported":1700968033,"current_range_meters":28400,"station_id":"ce4bgv92rcd13ifvqcq0","pricing_plan_id":"free"},{"bike_id":"a20c7cfc-9f36-4fab-a1cf-f846b630340f","system_id":"levelo_inurba_marseille","lat":43.317075,"lon":5.377367,"is_reserved":false,"is_disabled":false,"rental_uris":{"android":"levelo://app?vid=a20c7cfc-9f36-4fab-a1cf-f846b630340f","ios":"levelo://app?vid=a20c7cfc-9f36-4fab-a1cf-f846b630340f"},"vehicle_type_id":"4","last_reported":1700968033,"current_range_meters":27600,"station_id":"ce4bgth2rcd13ifvqch0","pricing_plan_id":"free"},{"bike_id":"08db3c7f-c42c-4b60-b1cc-3dc67d08d464","system_id":"levelo_inurba_marseille","lat":43.315315,"lon":5.380253,"is_reserved":false,"is_disabled":false,"rental_uris":{"android":"levelo://app?vid=08db3c7f-c42c-4b60-b1cc-3dc67d08d464","ios":"levelo://app?vid=08db3c7f-c42c-4b60-b1cc-3dc67d08d464"},"vehicle_type_id":"4","last_reported":1700968033,"current_range_meters":24400,"station_id":"ce4bhsp2rcd13ifvqi50","pricing_plan_id":"free"},{"bike_id":"3dd1bd93-5287-4ffc-94aa-addf69396612","system_id":"levelo_inurba_marseille","lat":43.315317,"lon":5.380351,"is_reserved":false,"is_disabled":false,"rental_uris":{"android":"levelo://app?vid=3dd1bd93-5287-4ffc-94aa-addf69396612","ios":"levelo://app?vid=3dd1bd93-5287-4ffc-94aa-addf69396612"},"vehicle_type_id":"4","last_reported":1700968033,"current_range_meters":10400,"station_id":"ce4bhsp2rcd13ifvqi50","pricing_plan_id":"free"},{"bike_id":"0d319648-1060-4c58-b3bb-33c7bf523d37","system_id":"levelo_inurba_marseille","lat":43.301939,"lon":5.366286,"is_reserved":false,"is_disabled":false,"rental_uris":{"android":"levelo://app?vid=0d319648-1060-4c58-b3bb-33c7bf523d37","ios":"levelo://app?vid=0d319648-1060-4c58-b3bb-33c7bf523d37"},"vehicle_type_id":"4","last_reported":1700968033,"current_range_meters":4400,"station_id":"ce4bgrh2rcd13ifvqc8g","pricing_plan_id":"free"},{"bike_id":"17531208-bd07-4eb6-bf1c-ab937c5ca51c","system_id":"levelo_inurba_marseille","lat":43.308012,"lon":5.381511,"is_reserved":false,"is_disabled":false,"rental_uris":{"android":"levelo://app?vid=17531208-bd07-4eb6-bf1c-ab937c5ca51c","ios":"levelo://app?vid=17531208-bd07-4eb6-bf1c-ab937c5ca51c"},"vehicle_type_id":"4","last_reported":1700968033,"current_range_meters":6000,"station_id":"ce4bgt12rcd13ifvqce0","pricing_plan_id":"free"},{"bike_id":"b16c9a63-80f8-4403-944c-c6856aad0c57","system_id":"levelo_inurba_marseille","lat":43.308012,"lon":5.381511,"is_reserved":false,"is_disabled":false,"rental_uris":{"android":"levelo://app?vid=b16c9a63-80f8-4403-944c-c6856aad0c57","ios":"levelo://app?vid=b16c9a63-80f8-4403-944c-c6856aad0c57"},"vehicle_type_id":"4","last_reported":1700968033,"current_range_meters":31200,"station_id":"ce4bgt12rcd13ifvqce0","pricing_plan_id":"free"},{"bike_id":"88e997ac-67ed-4b29-b6ae-5b4e1b0ab96c","system_id":"levelo_inurba_marseille","lat":43.304606,"lon":5.379026,"is_reserved":false,"is_disabled":false,"rental_uris":{"android":"levelo://app?vid=88e997ac-67ed-4b29-b6ae-5b4e1b0ab96c","ios":"levelo://app?vid=88e997ac-67ed-4b29-b6ae-5b4e1b0ab96c"},"vehicle_type_id":"4","last_reported":1700968033,"current_range_meters":4000,"station_id":"ce4bgup2rcd13ifvqcn0","pricing_plan_id":"free"},{"bike_id":"607b455d-a459-42cb-824b-aec2a9b677eb","system_id":"levelo_inurba_marseille","lat":43.301429,"lon":5.37413,"is_reserved":false,"is_disabled":false,"rental_uris":{"android":"levelo://app?vid=607b455d-a459-42cb-824b-aec2a9b677eb","ios":"levelo://app?vid=607b455d-a459-42cb-824b-aec2a9b677eb"},"vehicle_type_id":"4","last_reported":1700968033,"current_range_meters":10400,"station_id":"ce4bgs92rcd13ifvqcc0","pricing_plan_id":"free"},{"bike_id":"2c0cfbc9-8aed-4ab2-9052-67d693991efd","system_id":"levelo_inurba_marseille","lat":43.319931,"lon":5.381502,"is_reserved":false,"is_disabled":false,"rental_uris":{"android":"levelo://app?vid=2c0cfbc9-8aed-4ab2-9052-67d693991efd","ios":"levelo://app?vid=2c0cfbc9-8aed-4ab2-9052-67d693991efd"},"vehicle_type_id":"4","last_reported":1700968033,"current_range_meters":3600,"station_id":"ce4bhr12rcd13ifvqhpg","pricing_plan_id":"free"},{"bike_id":"ba1d35bd-de05-4a1c-9a5c-38c0b1ece694","system_id":"levelo_inurba_marseille","lat":43.319901,"lon":5.38154,"is_reserved":false,"is_disabled":false,"rental_uris":{"android":"levelo://app?vid=ba1d35bd-de05-4a1c-9a5c-38c0b1ece694","ios":"levelo://app?vid=ba1d35bd-de05-4a1c-9a5c-38c0b1ece694"},"vehicle_type_id":"4","last_reported":1700968033,"current_range_meters":0,"station_id":"ce4bhr12rcd13ifvqhpg","pricing_plan_id":"free"},{"bike_id":"9adda1c0-69b0-4cd2-8a9b-3388a2b807a8","system_id":"levelo_inurba_marseille","lat":43.319946,"lon":5.381587,"is_reserved":false,"is_disabled":false,"rental_uris":{"android":"levelo://app?vid=9adda1c0-69b0-4cd2-8a9b-3388a2b807a8","ios":"levelo://app?vid=9adda1c0-69b0-4cd2-8a9b-3388a2b807a8"},"vehicle_type_id":"4","last_reported":1700968033,"current_range_meters":18400,"station_id":"ce4bhr12rcd13ifvqhpg","pricing_plan_id":"free"},{"bike_id":"6a26d0ec-e476-4178-b7a4-38d9d3eba74c","system_id":"levelo_inurba_marseille","lat":43.31998,"lon":5.38156,"is_reserved":false,"is_disabled":false,"rental_uris":{"android":"levelo://app?vid=6a26d0ec-e476-4178-b7a4-38d9d3eba74c","ios":"levelo://app?vid=6a26d0ec-e476-4178-b7a4-38d9d3eba74c"},"vehicle_type_id":"4","last_reported":1700968033,"current_range_meters":16800,"station_id":"ce4bhr12rcd13ifvqhpg","pricing_plan_id":"free"},{"bike_id":"f020304f-1893-4321-be05-e98cf596dc9f","system_id":"levelo_inurba_marseille","lat":43.320003,"lon":5.381554,"is_reserved":false,"is_disabled":false,"rental_uris":{"android":"levelo://app?vid=f020304f-1893-4321-be05-e98cf596dc9f","ios":"levelo://app?vid=f020304f-1893-4321-be05-e98cf596dc9f"},"vehicle_type_id":"4","last_reported":1700968033,"current_range_meters":22000,"station_id":"ce4bhr12rcd13ifvqhpg","pricing_plan_id":"free"},{"bike_id":"85a1b2e7-1092-41dc-8fea-b07cb6175595","system_id":"levelo_inurba_marseille","lat":43.320013,"lon":5.381569,"is_reserved":false,"is_disabled":false,"rental_uris":{"android":"levelo://app?vid=85a1b2e7-1092-41dc-8fea-b07cb6175595","ios":"levelo://app?vid=85a1b2e7-1092-41dc-8fea-b07cb6175595"},"vehicle_type_id":"4","last_reported":1700968033,"current_range_meters":19200,"station_id":"ce4bhr12rcd13ifvqhpg","pricing_plan_id":"free"},{"bike_id":"37b33645-89d7-4706-ad67-8561aeaa3082","system_id":"levelo_inurba_marseille","lat":43.313582,"lon":5.384993,"is_reserved":false,"is_disabled":false,"rental_uris":{"android":"levelo://app?vid=37b33645-89d7-4706-ad67-8561aeaa3082","ios":"levelo://app?vid=37b33645-89d7-4706-ad67-8561aeaa3082"},"vehicle_type_id":"4","last_reported":1700968033,"current_range_meters":0,"station_id":"ce4bgt92rcd13ifvqcf0","pricing_plan_id":"free"},{"bike_id":"06edb671-d374-4643-a0e3-15afd58beca2","system_id":"levelo_inurba_marseille","lat":43.299724,"lon":5.371829,"is_reserved":false,"is_disabled":false,"rental_uris":{"android":"levelo://app?vid=06edb671-d374-4643-a0e3-15afd58beca2","ios":"levelo://app?vid=06edb671-d374-4643-a0e3-15afd58beca2"},"vehicle_type_id":"4","last_reported":1700968033,"current_range_meters":29200,"station_id":"ce4bgr92rcd13ifvqc7g","pricing_plan_id":"free"},{"bike_id":"9b84aeb4-2366-46f3-bb1c-af6ede82ef14","system_id":"levelo_inurba_marseille","lat":43.299294,"lon":5.365456,"is_reserved":false,"is_disabled":false,"rental_uris":{"android":"levelo://app?vid=9b84aeb4-2366-46f3-bb1c-af6ede82ef14","ios":"levelo://app?vid=9b84aeb4-2366-46f3-bb1c-af6ede82ef14"},"vehicle_type_id":"4","last_reported":1700968033,"current_range_meters":18800,"station_id":"ce4bgm92rcd13ifvqbr0","pricing_plan_id":"free"},{"bike_id":"2512e5d9-2293-4ef3-ad8d-62a3ad2e3891","system_id":"levelo_inurba_marseille","lat":43.311722,"lon":5.387247,"is_reserved":false,"is_disabled":false,"rental_uris":{"android":"levelo://app?vid=2512e5d9-2293-4ef3-ad8d-62a3ad2e3891","ios":"levelo://app?vid=2512e5d9-2293-4ef3-ad8d-62a3ad2e3891"},"vehicle_type_id":"4","last_reported":1700968033,"current_range_meters":28800,"station_id":"ce4bgv12rcd13ifvqcp0","pricing_plan_id":"free"},{"bike_id":"54f1ae3c-a0bb-4bd3-b567-1dfe34eab1dd","system_id":"levelo_inurba_marseille","lat":43.311722,"lon":5.387247,"is_reserved":false,"is_disabled":false,"rental_uris":{"android":"levelo://app?vid=54f1ae3c-a0bb-4bd3-b567-1dfe34eab1dd","ios":"levelo://app?vid=54f1ae3c-a0bb-4bd3-b567-1dfe34eab1dd"},"vehicle_type_id":"4","last_reported":1700968033,"current_range_meters":29200,"station_id":"ce4bgv12rcd13ifvqcp0","pricing_plan_id":"free"},{"bike_id":"a0d57a4b-877d-4534-bcb9-d08b5c2c704d","system_id":"levelo_inurba_marseille","lat":43.297794,"lon":5.370888,"is_reserved":false,"is_disabled":false,"rental_uris":{"android":"levelo://app?vid=a0d57a4b-877d-4534-bcb9-d08b5c2c704d","ios":"levelo://app?vid=a0d57a4b-877d-4534-bcb9-d08b5c2c704d"},"vehicle_type_id":"4","last_reported":1700968033,"current_range_meters":17600,"station_id":"ce4bgop2rcd13ifvqc1g","pricing_plan_id":"free"},{"bike_id":"7978f84c-da26-4e19-b091-64762db35a88","system_id":"levelo_inurba_marseille","lat":43.297684,"lon":5.369968,"is_reserved":false,"is_disabled":false,"rental_uris":{"android":"levelo://app?vid=7978f84c-da26-4e19-b091-64762db35a88","ios":"levelo://app?vid=7978f84c-da26-4e19-b091-64762db35a88"},"vehicle_type_id":"4","last_reported":1700968033,"current_range_meters":30800,"station_id":"","pricing_plan_id":"free"},{"bike_id":"0b85aafd-2d06-4b3d-bf23-17256839d1de","system_id":"levelo_inurba_marseille","lat":43.322872,"lon":5.382756,"is_reserved":false,"is_disabled":false,"rental_uris":{"android":"levelo://app?vid=0b85aafd-2d06-4b3d-bf23-17256839d1de","ios":"levelo://app?vid=0b85aafd-2d06-4b3d-bf23-17256839d1de"},"vehicle_type_id":"4","last_reported":1700968033,"current_range_meters":8000,"station_id":"ce4bhr12rcd13ifvqhqg","pricing_plan_id":"free"},{"bike_id":"b93b6f8d-67a8-4500-afbb-e8d2d1b655cf","system_id":"levelo_inurba_marseille","lat":43.32287,"lon":5.38268,"is_reserved":false,"is_disabled":false,"rental_uris":{"android":"levelo://app?vid=b93b6f8d-67a8-4500-afbb-e8d2d1b655cf","ios":"levelo://app?vid=b93b6f8d-67a8-4500-afbb-e8d2d1b655cf"},"vehicle_type_id":"4","last_reported":1700968033,"current_range_meters":4000,"station_id":"ce4bhr12rcd13ifvqhqg","pricing_plan_id":"free"},{"bike_id":"5a1baf68-f9af-496c-ab26-e428d44bc382","system_id":"levelo_inurba_marseille","lat":43.322872,"lon":5.382756,"is_reserved":false,"is_disabled":false,"rental_uris":{"android":"levelo://app?vid=5a1baf68-f9af-496c-ab26-e428d44bc382","ios":"levelo://app?vid=5a1baf68-f9af-496c-ab26-e428d44bc382"},"vehicle_type_id":"4","last_reported":1700968033,"current_range_meters":30400,"station_id":"ce4bhr12rcd13ifvqhqg","pricing_plan_id":"free"},{"bike_id":"f9fce30d-0cf4-4e60-9d5e-3e6280524e9e","system_id":"levelo_inurba_marseille","lat":43.322872,"lon":5.382756,"is_reserved":false,"is_disabled":false,"rental_uris":{"android":"levelo://app?vid=f9fce30d-0cf4-4e60-9d5e-3e6280524e9e","ios":"levelo://app?vid=f9fce30d-0cf4-4e60-9d5e-3e6280524e9e"},"vehicle_type_id":"4","last_reported":1700968033,"current_range_meters":30000,"station_id":"ce4bhr12rcd13ifvqhqg","pricing_plan_id":"free"},{"bike_id":"d4ce39f9-7fa1-46e3-a433-f250b4fdb796","system_id":"levelo_inurba_marseille","lat":43.322872,"lon":5.382756,"is_reserved":false,"is_disabled":false,"rental_uris":{"android":"levelo://app?vid=d4ce39f9-7fa1-46e3-a433-f250b4fdb796","ios":"levelo://app?vid=d4ce39f9-7fa1-46e3-a433-f250b4fdb796"},"vehicle_type_id":"4","last_reported":1700968033,"current_range_meters":28000,"station_id":"ce4bhr12rcd13ifvqhqg","pricing_plan_id":"free"},{"bike_id":"95825c38-6c59-4753-b43e-2f944bdb26b9","system_id":"levelo_inurba_marseille","lat":43.32822,"lon":5.36694,"is_reserved":false,"is_disabled":false,"rental_uris":{"android":"levelo://app?vid=95825c38-6c59-4753-b43e-2f944bdb26b9","ios":"levelo://app?vid=95825c38-6c59-4753-b43e-2f944bdb26b9"},"vehicle_type_id":"4","last_reported":1700968033,"current_range_meters":13200,"station_id":"ce4bhs92rcd13ifvqi0g","pricing_plan_id":"free"},{"bike_id":"ac671732-020d-4c1e-843a-8c56d8aa92b7","system_id":"levelo_inurba_marseille","lat":43.297163,"lon":5.365866,"is_reserved":false,"is_disabled":false,"rental_uris":{"android":"levelo://app?vid=ac671732-020d-4c1e-843a-8c56d8aa92b7","ios":"levelo://app?vid=ac671732-020d-4c1e-843a-8c56d8aa92b7"},"vehicle_type_id":"4","last_reported":1700968033,"current_range_meters":20400,"station_id":"ce4bgn12rcd13ifvqbt0","pricing_plan_id":"free"},{"bike_id":"d668ebbd-fbf9-4371-8e68-10518b1f421d","system_id":"levelo_inurba_marseille","lat":43.297163,"lon":5.365866,"is_reserved":false,"is_disabled":false,"rental_uris":{"android":"levelo://app?vid=d668ebbd-fbf9-4371-8e68-10518b1f421d","ios":"levelo://app?vid=d668ebbd-fbf9-4371-8e68-10518b1f421d"},"vehicle_type_id":"4","last_reported":1700968033,"current_range_meters":24800,"station_id":"ce4bgn12rcd13ifvqbt0","pricing_plan_id":"free"},{"bike_id":"58034286-d764-400c-92dc-17f57034801c","system_id":"levelo_inurba_marseille","lat":43.29573,"lon":5.367355,"is_reserved":false,"is_disabled":false,"rental_uris":{"android":"levelo://app?vid=58034286-d764-400c-92dc-17f57034801c","ios":"levelo://app?vid=58034286-d764-400c-92dc-17f57034801c"},"vehicle_type_id":"4","last_reported":1700968033,"current_range_meters":30800,"station_id":"ce4bgph2rcd13ifvqc2g","pricing_plan_id":"free"},{"bike_id":"b1e22c6c-5113-4ef3-a28e-b67cbfef7a27","system_id":"levelo_inurba_marseille","lat":43.29573,"lon":5.367355,"is_reserved":false,"is_disabled":false,"rental_uris":{"android":"levelo://app?vid=b1e22c6c-5113-4ef3-a28e-b67cbfef7a27","ios":"levelo://app?vid=b1e22c6c-5113-4ef3-a28e-b67cbfef7a27"},"vehicle_type_id":"4","last_reported":1700968033,"current_range_meters":24000,"station_id":"ce4bgph2rcd13ifvqc2g","pricing_plan_id":"free"},{"bike_id":"b8f8084c-3862-4d7e-96dd-7313cbf34a87","system_id":"levelo_inurba_marseille","lat":43.296131,"lon":5.370791,"is_reserved":false,"is_disabled":false,"rental_uris":{"android":"levelo://app?vid=b8f8084c-3862-4d7e-96dd-7313cbf34a87","ios":"levelo://app?vid=b8f8084c-3862-4d7e-96dd-7313cbf34a87"},"vehicle_type_id":"4","last_reported":1700968033,"current_range_meters":19600,"station_id":"ce4bgnh2rcd13ifvqc0g","pricing_plan_id":"free"},{"bike_id":"c18f7da1-30f0-424b-965b-da778ba68510","system_id":"levelo_inurba_marseille","lat":43.296131,"lon":5.370791,"is_reserved":false,"is_disabled":false,"rental_uris":{"android":"levelo://app?vid=c18f7da1-30f0-424b-965b-da778ba68510","ios":"levelo://app?vid=c18f7da1-30f0-424b-965b-da778ba68510"},"vehicle_type_id":"4","last_reported":1700968033,"current_range_meters":30800,"station_id":"ce4bgnh2rcd13ifvqc0g","pricing_plan_id":"free"},{"bike_id":"74a6eadd-de0a-4852-9bfa-c9dd403c0892","system_id":"levelo_inurba_marseille","lat":43.29573,"lon":5.367355,"is_reserved":false,"is_disabled":false,"rental_uris":{"android":"levelo://app?vid=74a6eadd-de0a-4852-9bfa-c9dd403c0892","ios":"levelo://app?vid=74a6eadd-de0a-4852-9bfa-c9dd403c0892"},"vehicle_type_id":"4","last_reported":1700968033,"current_range_meters":31200,"station_id":"ce4bgph2rcd13ifvqc2g","pricing_plan_id":"free"},{"bike_id":"995d6062-015c-48cc-ba4f-7e0f5ccd6bcf","system_id":"levelo_inurba_marseille","lat":43.296131,"lon":5.370791,"is_reserved":false,"is_disabled":false,"rental_uris":{"android":"levelo://app?vid=995d6062-015c-48cc-ba4f-7e0f5ccd6bcf","ios":"levelo://app?vid=995d6062-015c-48cc-ba4f-7e0f5ccd6bcf"},"vehicle_type_id":"4","last_reported":1700968033,"current_range_meters":23600,"station_id":"ce4bgnh2rcd13ifvqc0g","pricing_plan_id":"free"},{"bike_id":"c662922b-aa93-4e71-a75b-a6a82c83893a","system_id":"levelo_inurba_marseille","lat":43.296131,"lon":5.370791,"is_reserved":false,"is_disabled":false,"rental_uris":{"android":"levelo://app?vid=c662922b-aa93-4e71-a75b-a6a82c83893a","ios":"levelo://app?vid=c662922b-aa93-4e71-a75b-a6a82c83893a"},"vehicle_type_id":"4","last_reported":1700968033,"current_range_meters":30000,"station_id":"ce4bgnh2rcd13ifvqc0g","pricing_plan_id":"free"},{"bike_id":"2ed359b4-f75c-48f2-a0c8-62dcf4c5ade5","system_id":"levelo_inurba_marseille","lat":43.29573,"lon":5.367355,"is_reserved":false,"is_disabled":false,"rental_uris":{"android":"levelo://app?vid=2ed359b4-f75c-48f2-a0c8-62dcf4c5ade5","ios":"levelo://app?vid=2ed359b4-f75c-48f2-a0c8-62dcf4c5ade5"},"vehicle_type_id":"4","last_reported":1700968033,"current_range_meters":30400,"station_id":"ce4bgph2rcd13ifvqc2g","pricing_plan_id":"free"},{"bike_id":"6e00c2e6-34a3-49c8-9519-5fcc8881755d","system_id":"levelo_inurba_marseille","lat":43.296131,"lon":5.370791,"is_reserved":false,"is_disabled":false,"rental_uris":{"android":"levelo://app?vid=6e00c2e6-34a3-49c8-9519-5fcc8881755d","ios":"levelo://app?vid=6e00c2e6-34a3-49c8-9519-5fcc8881755d"},"vehicle_type_id":"4","last_reported":1700968033,"current_range_meters":31200,"station_id":"ce4bgnh2rcd13ifvqc0g","pricing_plan_id":"free"},{"bike_id":"663d21e8-2e74-4084-92c9-81d38f995fd9","system_id":"levelo_inurba_marseille","lat":43.29573,"lon":5.367355,"is_reserved":false,"is_disabled":false,"rental_uris":{"android":"levelo://app?vid=663d21e8-2e74-4084-92c9-81d38f995fd9","ios":"levelo://app?vid=663d21e8-2e74-4084-92c9-81d38f995fd9"},"vehicle_type_id":"4","last_reported":1700968033,"current_range_meters":6800,"station_id":"ce4bgph2rcd13ifvqc2g","pricing_plan_id":"free"},{"bike_id":"3b339994-3557-4ddd-b662-012dc9114e7e","system_id":"levelo_inurba_marseille","lat":43.31753,"lon":5.39023,"is_reserved":false,"is_disabled":false,"rental_uris":{"android":"levelo://app?vid=3b339994-3557-4ddd-b662-012dc9114e7e","ios":"levelo://app?vid=3b339994-3557-4ddd-b662-012dc9114e7e"},"vehicle_type_id":"4","last_reported":1700968033,"current_range_meters":16800,"station_id":"ce4bhqp2rcd13ifvqhng","pricing_plan_id":"free"},{"bike_id":"4cb0dc34-a8c9-4d4b-bd54-60d71e7a43ce","system_id":"levelo_inurba_marseille","lat":43.295697,"lon":5.375276,"is_reserved":false,"is_disabled":false,"rental_uris":{"android":"levelo://app?vid=4cb0dc34-a8c9-4d4b-bd54-60d71e7a43ce","ios":"levelo://app?vid=4cb0dc34-a8c9-4d4b-bd54-60d71e7a43ce"},"vehicle_type_id":"4","last_reported":1700968033,"current_range_meters":24000,"station_id":"ce4bgj92rcd13ifvqbd0","pricing_plan_id":"free"},{"bike_id":"6b621983-5e9e-42f7-990d-ad5a093820d2","system_id":"levelo_inurba_marseille","lat":43.293801,"lon":5.363066,"is_reserved":false,"is_disabled":false,"rental_uris":{"android":"levelo://app?vid=6b621983-5e9e-42f7-990d-ad5a093820d2","ios":"levelo://app?vid=6b621983-5e9e-42f7-990d-ad5a093820d2"},"vehicle_type_id":"4","last_reported":1700968033,"current_range_meters":0,"station_id":"","pricing_plan_id":"free"},{"bike_id":"7f1ae957-6804-43ca-81a3-5ffd55a14ea8","system_id":"levelo_inurba_marseille","lat":43.2936,"lon":5.37835,"is_reserved":false,"is_disabled":false,"rental_uris":{"android":"levelo://app?vid=7f1ae957-6804-43ca-81a3-5ffd55a14ea8","ios":"levelo://app?vid=7f1ae957-6804-43ca-81a3-5ffd55a14ea8"},"vehicle_type_id":"4","last_reported":1700968033,"current_range_meters":20800,"station_id":"ce4bgjh2rcd13ifvqbf0","pricing_plan_id":"free"},{"bike_id":"7742942f-34c8-4d11-ae3a-e53237bc3742","system_id":"levelo_inurba_marseille","lat":43.292311,"lon":5.360731,"is_reserved":false,"is_disabled":false,"rental_uris":{"android":"levelo://app?vid=7742942f-34c8-4d11-ae3a-e53237bc3742","ios":"levelo://app?vid=7742942f-34c8-4d11-ae3a-e53237bc3742"},"vehicle_type_id":"4","last_reported":1700968033,"current_range_meters":28400,"station_id":"ce4bhbh2rcd13ifvqeqg","pricing_plan_id":"free"},{"bike_id":"118eb32a-3cd8-43d5-aa47-764836971e68","system_id":"levelo_inurba_marseille","lat":43.309047,"lon":5.396551,"is_reserved":false,"is_disabled":false,"rental_uris":{"android":"levelo://app?vid=118eb32a-3cd8-43d5-aa47-764836971e68","ios":"levelo://app?vid=118eb32a-3cd8-43d5-aa47-764836971e68"},"vehicle_type_id":"4","last_reported":1700968033,"current_range_meters":4000,"station_id":"ce4bh012rcd13ifvqcv0","pricing_plan_id":"free"},{"bike_id":"d004a540-b451-4f1f-a4b2-16e4213cc9bc","system_id":"levelo_inurba_marseille","lat":43.29199,"lon":5.35787,"is_reserved":false,"is_disabled":false,"rental_uris":{"android":"levelo://app?vid=d004a540-b451-4f1f-a4b2-16e4213cc9bc","ios":"levelo://app?vid=d004a540-b451-4f1f-a4b2-16e4213cc9bc"},"vehicle_type_id":"4","last_reported":1700968033,"current_range_meters":30400,"station_id":"ce4bhb12rcd13ifvqel0","pricing_plan_id":"free"},{"bike_id":"d177aafc-f287-453d-b26b-f21e44785f15","system_id":"levelo_inurba_marseille","lat":43.309038,"lon":5.396546,"is_reserved":false,"is_disabled":false,"rental_uris":{"android":"levelo://app?vid=d177aafc-f287-453d-b26b-f21e44785f15","ios":"levelo://app?vid=d177aafc-f287-453d-b26b-f21e44785f15"},"vehicle_type_id":"4","last_reported":1700968033,"current_range_meters":11600,"station_id":"ce4bh012rcd13ifvqcv0","pricing_plan_id":"free"},{"bike_id":"7b76bbb3-eb0d-45f1-b220-a0998cbc136b","system_id":"levelo_inurba_marseille","lat":43.291994,"lon":5.357886,"is_reserved":false,"is_disabled":false,"rental_uris":{"android":"levelo://app?vid=7b76bbb3-eb0d-45f1-b220-a0998cbc136b","ios":"levelo://app?vid=7b76bbb3-eb0d-45f1-b220-a0998cbc136b"},"vehicle_type_id":"4","last_reported":1700968033,"current_range_meters":30000,"station_id":"ce4bhb12rcd13ifvqel0","pricing_plan_id":"free"},{"bike_id":"be8beb00-f4e4-4b3a-b021-d3c5ca72c974","system_id":"levelo_inurba_marseille","lat":43.308858,"lon":5.396411,"is_reserved":false,"is_disabled":false,"rental_uris":{"android":"levelo://app?vid=be8beb00-f4e4-4b3a-b021-d3c5ca72c974","ios":"levelo://app?vid=be8beb00-f4e4-4b3a-b021-d3c5ca72c974"},"vehicle_type_id":"4","last_reported":1700968033,"current_range_meters":15200,"station_id":"ce4bh012rcd13ifvqcv0","pricing_plan_id":"free"},{"bike_id":"7fb0e822-f802-4eee-9fe8-dc6679eaff76","system_id":"levelo_inurba_marseille","lat":43.308806,"lon":5.396401,"is_reserved":false,"is_disabled":false,"rental_uris":{"android":"levelo://app?vid=7fb0e822-f802-4eee-9fe8-dc6679eaff76","ios":"levelo://app?vid=7fb0e822-f802-4eee-9fe8-dc6679eaff76"},"vehicle_type_id":"4","last_reported":1700968033,"current_range_meters":3600,"station_id":"ce4bh012rcd13ifvqcv0","pricing_plan_id":"free"},{"bike_id":"d50accdd-0958-4344-a7b1-99d6174e896a","system_id":"levelo_inurba_marseille","lat":43.309047,"lon":5.396551,"is_reserved":false,"is_disabled":false,"rental_uris":{"android":"levelo://app?vid=d50accdd-0958-4344-a7b1-99d6174e896a","ios":"levelo://app?vid=d50accdd-0958-4344-a7b1-99d6174e896a"},"vehicle_type_id":"4","last_reported":1700968033,"current_range_meters":22800,"station_id":"ce4bh012rcd13ifvqcv0","pricing_plan_id":"free"},{"bike_id":"978d5753-9802-4cde-bcfc-55fed039c785","system_id":"levelo_inurba_marseille","lat":43.313291,"lon":5.396838,"is_reserved":false,"is_disabled":false,"rental_uris":{"android":"levelo://app?vid=978d5753-9802-4cde-bcfc-55fed039c785","ios":"levelo://app?vid=978d5753-9802-4cde-bcfc-55fed039c785"},"vehicle_type_id":"4","last_reported":1700968033,"current_range_meters":20800,"station_id":"ce4bgvp2rcd13ifvqcu0","pricing_plan_id":"free"},{"bike_id":"d69dd1c4-961a-438a-ae98-0822e8cbfc7d","system_id":"levelo_inurba_marseille","lat":43.290624,"lon":5.359245,"is_reserved":false,"is_disabled":false,"rental_uris":{"android":"levelo://app?vid=d69dd1c4-961a-438a-ae98-0822e8cbfc7d","ios":"levelo://app?vid=d69dd1c4-961a-438a-ae98-0822e8cbfc7d"},"vehicle_type_id":"4","last_reported":1700968033,"current_range_meters":30400,"station_id":"ce4bha92rcd13ifvqeg0","pricing_plan_id":"free"},{"bike_id":"e100b2da-acd7-442a-996c-32ec66579328","system_id":"levelo_inurba_marseille","lat":43.289539,"lon":5.367121,"is_reserved":false,"is_disabled":false,"rental_uris":{"android":"levelo://app?vid=e100b2da-acd7-442a-996c-32ec66579328","ios":"levelo://app?vid=e100b2da-acd7-442a-996c-32ec66579328"},"vehicle_type_id":"4","last_reported":1700968033,"current_range_meters":31200,"station_id":"ce4bhbh2rcd13ifvqeqg","pricing_plan_id":"free"},{"bike_id":"1b7a1ee8-78ae-4d99-8bc0-d1bc4a92bec3","system_id":"levelo_inurba_marseille","lat":43.290327,"lon":5.375711,"is_reserved":false,"is_disabled":false,"rental_uris":{"android":"levelo://app?vid=1b7a1ee8-78ae-4d99-8bc0-d1bc4a92bec3","ios":"levelo://app?vid=1b7a1ee8-78ae-4d99-8bc0-d1bc4a92bec3"},"vehicle_type_id":"4","last_reported":1700968033,"current_range_meters":14000,"station_id":"ce4bh692rcd13ifvqe90","pricing_plan_id":"free"},{"bike_id":"9e765fa3-aa80-4fdd-9cf9-869a8aeafb97","system_id":"levelo_inurba_marseille","lat":43.290104,"lon":5.356111,"is_reserved":false,"is_disabled":false,"rental_uris":{"android":"levelo://app?vid=9e765fa3-aa80-4fdd-9cf9-869a8aeafb97","ios":"levelo://app?vid=9e765fa3-aa80-4fdd-9cf9-869a8aeafb97"},"vehicle_type_id":"4","last_reported":1700968033,"current_range_meters":30000,"station_id":"ce4bhb92rcd13ifvqen0","pricing_plan_id":"free"},{"bike_id":"db4d85a6-639b-474b-9c5a-c831ec32c8a8","system_id":"levelo_inurba_marseille","lat":43.297868,"lon":5.393403,"is_reserved":false,"is_disabled":false,"rental_uris":{"android":"levelo://app?vid=db4d85a6-639b-474b-9c5a-c831ec32c8a8","ios":"levelo://app?vid=db4d85a6-639b-474b-9c5a-c831ec32c8a8"},"vehicle_type_id":"4","last_reported":1700968033,"current_range_meters":30400,"station_id":"chh1huq6cuj3fo74tm60","pricing_plan_id":"free"},{"bike_id":"f43536ec-63ba-445e-beb3-d68ce1acc8c1","system_id":"levelo_inurba_marseille","lat":43.29792,"lon":5.39346,"is_reserved":false,"is_disabled":false,"rental_uris":{"android":"levelo://app?vid=f43536ec-63ba-445e-beb3-d68ce1acc8c1","ios":"levelo://app?vid=f43536ec-63ba-445e-beb3-d68ce1acc8c1"},"vehicle_type_id":"4","last_reported":1700968033,"current_range_meters":30000,"station_id":"chh1huq6cuj3fo74tm60","pricing_plan_id":"free"},{"bike_id":"30e08084-f896-41c8-a3e1-a58957b6d2d8","system_id":"levelo_inurba_marseille","lat":43.295169,"lon":5.390426,"is_reserved":false,"is_disabled":false,"rental_uris":{"android":"levelo://app?vid=30e08084-f896-41c8-a3e1-a58957b6d2d8","ios":"levelo://app?vid=30e08084-f896-41c8-a3e1-a58957b6d2d8"},"vehicle_type_id":"4","last_reported":1700968033,"current_range_meters":27600,"station_id":"ce4bh3p2rcd13ifvqdp0","pricing_plan_id":"free"},{"bike_id":"852f1e61-91fd-4180-8c9a-7f38985fd290","system_id":"levelo_inurba_marseille","lat":43.28972,"lon":5.37835,"is_reserved":false,"is_disabled":false,"rental_uris":{"android":"levelo://app?vid=852f1e61-91fd-4180-8c9a-7f38985fd290","ios":"levelo://app?vid=852f1e61-91fd-4180-8c9a-7f38985fd290"},"vehicle_type_id":"4","last_reported":1700968033,"current_range_meters":31200,"station_id":"ce4bh9p2rcd13ifvqed0","pricing_plan_id":"free"},{"bike_id":"a4bae51b-399e-4aca-ab8e-764d50b61bfb","system_id":"levelo_inurba_marseille","lat":43.29021,"lon":5.38133,"is_reserved":false,"is_disabled":false,"rental_uris":{"android":"levelo://app?vid=a4bae51b-399e-4aca-ab8e-764d50b61bfb","ios":"levelo://app?vid=a4bae51b-399e-4aca-ab8e-764d50b61bfb"},"vehicle_type_id":"4","last_reported":1700968033,"current_range_meters":4800,"station_id":"ce4bh4p2rcd13ifvqe1g","pricing_plan_id":"free"},{"bike_id":"d5f67cb2-1ff9-4039-bb56-465d734ff2cf","system_id":"levelo_inurba_marseille","lat":43.28856,"lon":5.358371,"is_reserved":false,"is_disabled":false,"rental_uris":{"android":"levelo://app?vid=d5f67cb2-1ff9-4039-bb56-465d734ff2cf","ios":"levelo://app?vid=d5f67cb2-1ff9-4039-bb56-465d734ff2cf"},"vehicle_type_id":"4","last_reported":1700968033,"current_range_meters":30400,"station_id":"ce4bhb12rcd13ifvqem0","pricing_plan_id":"free"},{"bike_id":"2fc178d8-10d2-4260-ac69-296ecdb3bba1","system_id":"levelo_inurba_marseille","lat":43.28856,"lon":5.358371,"is_reserved":false,"is_disabled":false,"rental_uris":{"android":"levelo://app?vid=2fc178d8-10d2-4260-ac69-296ecdb3bba1","ios":"levelo://app?vid=2fc178d8-10d2-4260-ac69-296ecdb3bba1"},"vehicle_type_id":"4","last_reported":1700968033,"current_range_meters":28000,"station_id":"ce4bhb12rcd13ifvqem0","pricing_plan_id":"free"},{"bike_id":"4cfb73db-1a53-44a8-a6f7-075abe2c6b84","system_id":"levelo_inurba_marseille","lat":43.28856,"lon":5.358371,"is_reserved":false,"is_disabled":false,"rental_uris":{"android":"levelo://app?vid=4cfb73db-1a53-44a8-a6f7-075abe2c6b84","ios":"levelo://app?vid=4cfb73db-1a53-44a8-a6f7-075abe2c6b84"},"vehicle_type_id":"4","last_reported":1700968033,"current_range_meters":28000,"station_id":"ce4bhb12rcd13ifvqem0","pricing_plan_id":"free"},{"bike_id":"63da820b-725a-4d6c-80ae-ab645cfa1f75","system_id":"levelo_inurba_marseille","lat":43.306412,"lon":5.401035,"is_reserved":false,"is_disabled":false,"rental_uris":{"android":"levelo://app?vid=63da820b-725a-4d6c-80ae-ab645cfa1f75","ios":"levelo://app?vid=63da820b-725a-4d6c-80ae-ab645cfa1f75"},"vehicle_type_id":"4","last_reported":1700968033,"current_range_meters":1200,"station_id":"ce4bh112rcd13ifvqda0","pricing_plan_id":"free"},{"bike_id":"c7e67411-b593-4262-9bce-191379d23e08","system_id":"levelo_inurba_marseille","lat":43.30931,"lon":5.401394,"is_reserved":false,"is_disabled":false,"rental_uris":{"android":"levelo://app?vid=c7e67411-b593-4262-9bce-191379d23e08","ios":"levelo://app?vid=c7e67411-b593-4262-9bce-191379d23e08"},"vehicle_type_id":"4","last_reported":1700968033,"current_range_meters":5600,"station_id":"ce4bgvp2rcd13ifvqct0","pricing_plan_id":"free"},{"bike_id":"24a16b2d-2fc6-4c08-b01b-e656d45f59ba","system_id":"levelo_inurba_marseille","lat":43.31273,"lon":5.40172,"is_reserved":false,"is_disabled":false,"rental_uris":{"android":"levelo://app?vid=24a16b2d-2fc6-4c08-b01b-e656d45f59ba","ios":"levelo://app?vid=24a16b2d-2fc6-4c08-b01b-e656d45f59ba"},"vehicle_type_id":"4","last_reported":1700968033,"current_range_meters":7600,"station_id":"ce4bh092rcd13ifvqd30","pricing_plan_id":"free"},{"bike_id":"614fccdf-20a1-4c56-b5bf-cb244badc185","system_id":"levelo_inurba_marseille","lat":43.312609,"lon":5.401662,"is_reserved":false,"is_disabled":false,"rental_uris":{"android":"levelo://app?vid=614fccdf-20a1-4c56-b5bf-cb244badc185","ios":"levelo://app?vid=614fccdf-20a1-4c56-b5bf-cb244badc185"},"vehicle_type_id":"4","last_reported":1700968033,"current_range_meters":16400,"station_id":"ce4bh092rcd13ifvqd30","pricing_plan_id":"free"},{"bike_id":"7ff87943-907a-4a39-851d-ddd2553586ff","system_id":"levelo_inurba_marseille","lat":43.306412,"lon":5.401035,"is_reserved":false,"is_disabled":false,"rental_uris":{"android":"levelo://app?vid=7ff87943-907a-4a39-851d-ddd2553586ff","ios":"levelo://app?vid=7ff87943-907a-4a39-851d-ddd2553586ff"},"vehicle_type_id":"4","last_reported":1700968033,"current_range_meters":29600,"station_id":"ce4bh112rcd13ifvqda0","pricing_plan_id":"free"},{"bike_id":"451f4a21-49b3-4338-bd7a-e1e96a70754e","system_id":"levelo_inurba_marseille","lat":43.30642,"lon":5.401031,"is_reserved":false,"is_disabled":false,"rental_uris":{"android":"levelo://app?vid=451f4a21-49b3-4338-bd7a-e1e96a70754e","ios":"levelo://app?vid=451f4a21-49b3-4338-bd7a-e1e96a70754e"},"vehicle_type_id":"4","last_reported":1700968033,"current_range_meters":23200,"station_id":"ce4bh112rcd13ifvqda0","pricing_plan_id":"free"},{"bike_id":"3f1f2dd6-5e9a-47c5-9dd0-ef382d9d6e38","system_id":"levelo_inurba_marseille","lat":43.30642,"lon":5.401031,"is_reserved":false,"is_disabled":false,"rental_uris":{"android":"levelo://app?vid=3f1f2dd6-5e9a-47c5-9dd0-ef382d9d6e38","ios":"levelo://app?vid=3f1f2dd6-5e9a-47c5-9dd0-ef382d9d6e38"},"vehicle_type_id":"4","last_reported":1700968033,"current_range_meters":29200,"station_id":"ce4bh112rcd13ifvqda0","pricing_plan_id":"free"},{"bike_id":"a24e63fd-e638-4727-926b-15ee6a9c4fe8","system_id":"levelo_inurba_marseille","lat":43.301117,"lon":5.398795,"is_reserved":false,"is_disabled":false,"rental_uris":{"android":"levelo://app?vid=a24e63fd-e638-4727-926b-15ee6a9c4fe8","ios":"levelo://app?vid=a24e63fd-e638-4727-926b-15ee6a9c4fe8"},"vehicle_type_id":"4","last_reported":1700968033,"current_range_meters":21200,"station_id":"ce4bh0h2rcd13ifvqd40","pricing_plan_id":"free"},{"bike_id":"f8ab89b7-0da9-432a-94c0-db28906edad9","system_id":"levelo_inurba_marseille","lat":43.28727,"lon":5.36078,"is_reserved":false,"is_disabled":false,"rental_uris":{"android":"levelo://app?vid=f8ab89b7-0da9-432a-94c0-db28906edad9","ios":"levelo://app?vid=f8ab89b7-0da9-432a-94c0-db28906edad9"},"vehicle_type_id":"4","last_reported":1700968033,"current_range_meters":26000,"station_id":"cki0cbj6b192h4jlfktg","pricing_plan_id":"free"},{"bike_id":"019dcbb8-0b7e-47da-887b-8172a0662d79","system_id":"levelo_inurba_marseille","lat":43.286591,"lon":5.363346,"is_reserved":false,"is_disabled":false,"rental_uris":{"android":"levelo://app?vid=019dcbb8-0b7e-47da-887b-8172a0662d79","ios":"levelo://app?vid=019dcbb8-0b7e-47da-887b-8172a0662d79"},"vehicle_type_id":"4","last_reported":1700968033,"current_range_meters":30400,"station_id":"ce4bhah2rcd13ifvqej0","pricing_plan_id":"free"},{"bike_id":"7ca84d4c-8dcd-4fa4-b4c4-599a692c4b72","system_id":"levelo_inurba_marseille","lat":43.286961,"lon":5.373785,"is_reserved":false,"is_disabled":false,"rental_uris":{"android":"levelo://app?vid=7ca84d4c-8dcd-4fa4-b4c4-599a692c4b72","ios":"levelo://app?vid=7ca84d4c-8dcd-4fa4-b4c4-599a692c4b72"},"vehicle_type_id":"4","last_reported":1700968033,"current_range_meters":30000,"station_id":"ce4bh3p2rcd13ifvqdq0","pricing_plan_id":"free"},{"bike_id":"16274025-3ee6-4991-b15b-e7c5b667a19e","system_id":"levelo_inurba_marseille","lat":43.286593,"lon":5.363346,"is_reserved":false,"is_disabled":false,"rental_uris":{"android":"levelo://app?vid=16274025-3ee6-4991-b15b-e7c5b667a19e","ios":"levelo://app?vid=16274025-3ee6-4991-b15b-e7c5b667a19e"},"vehicle_type_id":"4","last_reported":1700968033,"current_range_meters":21600,"station_id":"ce4bhah2rcd13ifvqej0","pricing_plan_id":"free"},{"bike_id":"41b0ec20-81ba-48be-9ba3-a585baba0749","system_id":"levelo_inurba_marseille","lat":43.286593,"lon":5.363346,"is_reserved":false,"is_disabled":false,"rental_uris":{"android":"levelo://app?vid=41b0ec20-81ba-48be-9ba3-a585baba0749","ios":"levelo://app?vid=41b0ec20-81ba-48be-9ba3-a585baba0749"},"vehicle_type_id":"4","last_reported":1700968033,"current_range_meters":30400,"station_id":"ce4bhah2rcd13ifvqej0","pricing_plan_id":"free"},{"bike_id":"96337055-cd22-4f66-a54d-664d186e1de2","system_id":"levelo_inurba_marseille","lat":43.295196,"lon":5.39397,"is_reserved":false,"is_disabled":false,"rental_uris":{"android":"levelo://app?vid=96337055-cd22-4f66-a54d-664d186e1de2","ios":"levelo://app?vid=96337055-cd22-4f66-a54d-664d186e1de2"},"vehicle_type_id":"4","last_reported":1700968033,"current_range_meters":20400,"station_id":"ce4bh292rcd13ifvqdf0","pricing_plan_id":"free"},{"bike_id":"ff5c1df6-078a-4912-b0bc-d0d41242aaea","system_id":"levelo_inurba_marseille","lat":43.29033,"lon":5.38645,"is_reserved":false,"is_disabled":false,"rental_uris":{"android":"levelo://app?vid=ff5c1df6-078a-4912-b0bc-d0d41242aaea","ios":"levelo://app?vid=ff5c1df6-078a-4912-b0bc-d0d41242aaea"},"vehicle_type_id":"4","last_reported":1700968033,"current_range_meters":16800,"station_id":"ce4bh4p2rcd13ifvqe0g","pricing_plan_id":"free"},{"bike_id":"fc4dde56-dd31-47b3-a23d-ebaf06400252","system_id":"levelo_inurba_marseille","lat":43.302759,"lon":5.400793,"is_reserved":false,"is_disabled":false,"rental_uris":{"android":"levelo://app?vid=fc4dde56-dd31-47b3-a23d-ebaf06400252","ios":"levelo://app?vid=fc4dde56-dd31-47b3-a23d-ebaf06400252"},"vehicle_type_id":"4","last_reported":1700968033,"current_range_meters":23200,"station_id":"ce4bgvh2rcd13ifvqcs0","pricing_plan_id":"free"},{"bike_id":"2967e580-4075-40a5-b4e3-f6c0225f647b","system_id":"levelo_inurba_marseille","lat":43.316517,"lon":5.404375,"is_reserved":false,"is_disabled":false,"rental_uris":{"android":"levelo://app?vid=2967e580-4075-40a5-b4e3-f6c0225f647b","ios":"levelo://app?vid=2967e580-4075-40a5-b4e3-f6c0225f647b"},"vehicle_type_id":"4","last_reported":1700968033,"current_range_meters":8800,"station_id":"ce4bh012rcd13ifvqd00","pricing_plan_id":"free"},{"bike_id":"53b953d4-c732-433d-b491-cbeff89b89ee","system_id":"levelo_inurba_marseille","lat":43.316517,"lon":5.404375,"is_reserved":false,"is_disabled":false,"rental_uris":{"android":"levelo://app?vid=53b953d4-c732-433d-b491-cbeff89b89ee","ios":"levelo://app?vid=53b953d4-c732-433d-b491-cbeff89b89ee"},"vehicle_type_id":"4","last_reported":1700968033,"current_range_meters":20800,"station_id":"ce4bh012rcd13ifvqd00","pricing_plan_id":"free"},{"bike_id":"e32be0ad-6d7a-4c13-9696-6120e6c4293c","system_id":"levelo_inurba_marseille","lat":43.284538,"lon":5.358657,"is_reserved":false,"is_disabled":false,"rental_uris":{"android":"levelo://app?vid=e32be0ad-6d7a-4c13-9696-6120e6c4293c","ios":"levelo://app?vid=e32be0ad-6d7a-4c13-9696-6120e6c4293c"},"vehicle_type_id":"4","last_reported":1700968033,"current_range_meters":23200,"station_id":"ce4bhah2rcd13ifvqei0","pricing_plan_id":"free"},{"bike_id":"98e6d063-1b99-454e-93d1-826b7fd86d05","system_id":"levelo_inurba_marseille","lat":43.284538,"lon":5.358657,"is_reserved":false,"is_disabled":false,"rental_uris":{"android":"levelo://app?vid=98e6d063-1b99-454e-93d1-826b7fd86d05","ios":"levelo://app?vid=98e6d063-1b99-454e-93d1-826b7fd86d05"},"vehicle_type_id":"4","last_reported":1700968033,"current_range_meters":12000,"station_id":"ce4bhah2rcd13ifvqei0","pricing_plan_id":"free"},{"bike_id":"99613ebb-315e-4eff-8fea-3dbbf7149a60","system_id":"levelo_inurba_marseille","lat":43.284538,"lon":5.358657,"is_reserved":false,"is_disabled":false,"rental_uris":{"android":"levelo://app?vid=99613ebb-315e-4eff-8fea-3dbbf7149a60","ios":"levelo://app?vid=99613ebb-315e-4eff-8fea-3dbbf7149a60"},"vehicle_type_id":"4","last_reported":1700968033,"current_range_meters":19200,"station_id":"ce4bhah2rcd13ifvqei0","pricing_plan_id":"free"},{"bike_id":"0f076a98-8cce-45b9-9bdb-c50dddff293e","system_id":"levelo_inurba_marseille","lat":43.284538,"lon":5.358657,"is_reserved":false,"is_disabled":false,"rental_uris":{"android":"levelo://app?vid=0f076a98-8cce-45b9-9bdb-c50dddff293e","ios":"levelo://app?vid=0f076a98-8cce-45b9-9bdb-c50dddff293e"},"vehicle_type_id":"4","last_reported":1700968033,"current_range_meters":19600,"station_id":"ce4bhah2rcd13ifvqei0","pricing_plan_id":"free"},{"bike_id":"1dfc6947-4c95-4bb3-8a30-f5e60025ff57","system_id":"levelo_inurba_marseille","lat":43.284538,"lon":5.358657,"is_reserved":false,"is_disabled":false,"rental_uris":{"android":"levelo://app?vid=1dfc6947-4c95-4bb3-8a30-f5e60025ff57","ios":"levelo://app?vid=1dfc6947-4c95-4bb3-8a30-f5e60025ff57"},"vehicle_type_id":"4","last_reported":1700968033,"current_range_meters":9600,"station_id":"ce4bhah2rcd13ifvqei0","pricing_plan_id":"free"},{"bike_id":"7de591ad-735a-49cd-beed-f19e855f2d56","system_id":"levelo_inurba_marseille","lat":43.284538,"lon":5.358657,"is_reserved":false,"is_disabled":false,"rental_uris":{"android":"levelo://app?vid=7de591ad-735a-49cd-beed-f19e855f2d56","ios":"levelo://app?vid=7de591ad-735a-49cd-beed-f19e855f2d56"},"vehicle_type_id":"4","last_reported":1700968033,"current_range_meters":22000,"station_id":"ce4bhah2rcd13ifvqei0","pricing_plan_id":"free"},{"bike_id":"4971dcfa-613e-4e3d-aa49-70e956debcbb","system_id":"levelo_inurba_marseille","lat":43.28616,"lon":5.3511,"is_reserved":false,"is_disabled":false,"rental_uris":{"android":"levelo://app?vid=4971dcfa-613e-4e3d-aa49-70e956debcbb","ios":"levelo://app?vid=4971dcfa-613e-4e3d-aa49-70e956debcbb"},"vehicle_type_id":"4","last_reported":1700968033,"current_range_meters":8800,"station_id":"ce4bhch2rcd13ifvqeug","pricing_plan_id":"free"},{"bike_id":"d714be27-90ef-44cd-babe-81cbeb41d708","system_id":"levelo_inurba_marseille","lat":43.28616,"lon":5.35103,"is_reserved":false,"is_disabled":false,"rental_uris":{"android":"levelo://app?vid=d714be27-90ef-44cd-babe-81cbeb41d708","ios":"levelo://app?vid=d714be27-90ef-44cd-babe-81cbeb41d708"},"vehicle_type_id":"4","last_reported":1700968033,"current_range_meters":11200,"station_id":"ce4bhch2rcd13ifvqeug","pricing_plan_id":"free"},{"bike_id":"82879760-d9ab-4a21-989b-752874465ced","system_id":"levelo_inurba_marseille","lat":43.286164,"lon":5.351003,"is_reserved":false,"is_disabled":false,"rental_uris":{"android":"levelo://app?vid=82879760-d9ab-4a21-989b-752874465ced","ios":"levelo://app?vid=82879760-d9ab-4a21-989b-752874465ced"},"vehicle_type_id":"4","last_reported":1700968033,"current_range_meters":17600,"station_id":"ce4bhch2rcd13ifvqeug","pricing_plan_id":"free"},{"bike_id":"f4651b6c-86f9-422d-9955-b350afe9044b","system_id":"levelo_inurba_marseille","lat":43.286122,"lon":5.351077,"is_reserved":false,"is_disabled":false,"rental_uris":{"android":"levelo://app?vid=f4651b6c-86f9-422d-9955-b350afe9044b","ios":"levelo://app?vid=f4651b6c-86f9-422d-9955-b350afe9044b"},"vehicle_type_id":"4","last_reported":1700968033,"current_range_meters":28400,"station_id":"ce4bhch2rcd13ifvqeug","pricing_plan_id":"free"},{"bike_id":"6c75e270-e87d-4fc7-a1c6-e4b3d5c451ba","system_id":"levelo_inurba_marseille","lat":43.283998,"lon":5.375062,"is_reserved":false,"is_disabled":false,"rental_uris":{"android":"levelo://app?vid=6c75e270-e87d-4fc7-a1c6-e4b3d5c451ba","ios":"levelo://app?vid=6c75e270-e87d-4fc7-a1c6-e4b3d5c451ba"},"vehicle_type_id":"4","last_reported":1700968033,"current_range_meters":24000,"station_id":"ce4bh412rcd13ifvqds0","pricing_plan_id":"free"},{"bike_id":"e5d7a276-6bd8-49a0-a556-2c03f79d2290","system_id":"levelo_inurba_marseille","lat":43.283998,"lon":5.375062,"is_reserved":false,"is_disabled":false,"rental_uris":{"android":"levelo://app?vid=e5d7a276-6bd8-49a0-a556-2c03f79d2290","ios":"levelo://app?vid=e5d7a276-6bd8-49a0-a556-2c03f79d2290"},"vehicle_type_id":"4","last_reported":1700968033,"current_range_meters":26000,"station_id":"ce4bh412rcd13ifvqds0","pricing_plan_id":"free"},{"bike_id":"2dbd9885-a55e-4b32-8723-854d669cbcbd","system_id":"levelo_inurba_marseille","lat":43.283998,"lon":5.375062,"is_reserved":false,"is_disabled":false,"rental_uris":{"android":"levelo://app?vid=2dbd9885-a55e-4b32-8723-854d669cbcbd","ios":"levelo://app?vid=2dbd9885-a55e-4b32-8723-854d669cbcbd"},"vehicle_type_id":"4","last_reported":1700968033,"current_range_meters":31200,"station_id":"ce4bh412rcd13ifvqds0","pricing_plan_id":"free"},{"bike_id":"f0d5657c-208c-48b6-b3c3-8488c01b3171","system_id":"levelo_inurba_marseille","lat":43.29572,"lon":5.39974,"is_reserved":false,"is_disabled":false,"rental_uris":{"android":"levelo://app?vid=f0d5657c-208c-48b6-b3c3-8488c01b3171","ios":"levelo://app?vid=f0d5657c-208c-48b6-b3c3-8488c01b3171"},"vehicle_type_id":"4","last_reported":1700968033,"current_range_meters":22400,"station_id":"ce4bh312rcd13ifvqdj0","pricing_plan_id":"free"},{"bike_id":"7cf52dea-e37a-4390-8809-d493c9f02c97","system_id":"levelo_inurba_marseille","lat":43.319179,"lon":5.407725,"is_reserved":false,"is_disabled":false,"rental_uris":{"android":"levelo://app?vid=7cf52dea-e37a-4390-8809-d493c9f02c97","ios":"levelo://app?vid=7cf52dea-e37a-4390-8809-d493c9f02c97"},"vehicle_type_id":"4","last_reported":1700968033,"current_range_meters":25600,"station_id":"ce4bhq12rcd13ifvqhig","pricing_plan_id":"free"},{"bike_id":"a3c897cd-3fcc-4045-93e6-4c5a72149642","system_id":"levelo_inurba_marseille","lat":43.33717,"lon":5.391857,"is_reserved":false,"is_disabled":false,"rental_uris":{"android":"levelo://app?vid=a3c897cd-3fcc-4045-93e6-4c5a72149642","ios":"levelo://app?vid=a3c897cd-3fcc-4045-93e6-4c5a72149642"},"vehicle_type_id":"4","last_reported":1700968033,"current_range_meters":26800,"station_id":"ce4bhr92rcd13ifvqhsg","pricing_plan_id":"free"},{"bike_id":"baaa30f2-3ad6-4c81-b5b0-56a3692cab5d","system_id":"levelo_inurba_marseille","lat":43.323464,"lon":5.406297,"is_reserved":false,"is_disabled":false,"rental_uris":{"android":"levelo://app?vid=baaa30f2-3ad6-4c81-b5b0-56a3692cab5d","ios":"levelo://app?vid=baaa30f2-3ad6-4c81-b5b0-56a3692cab5d"},"vehicle_type_id":"4","last_reported":1700968033,"current_range_meters":30000,"station_id":"ce4bhq92rcd13ifvqhjg","pricing_plan_id":"free"},{"bike_id":"bf8242ed-eae2-4435-9f5f-25a66fd5e97f","system_id":"levelo_inurba_marseille","lat":43.337168,"lon":5.391825,"is_reserved":false,"is_disabled":false,"rental_uris":{"android":"levelo://app?vid=bf8242ed-eae2-4435-9f5f-25a66fd5e97f","ios":"levelo://app?vid=bf8242ed-eae2-4435-9f5f-25a66fd5e97f"},"vehicle_type_id":"4","last_reported":1700968033,"current_range_meters":28000,"station_id":"ce4bhr92rcd13ifvqhsg","pricing_plan_id":"free"},{"bike_id":"78744c7e-ea4e-4906-a6c3-63d725f4c0e6","system_id":"levelo_inurba_marseille","lat":43.337372,"lon":5.39188,"is_reserved":false,"is_disabled":false,"rental_uris":{"android":"levelo://app?vid=78744c7e-ea4e-4906-a6c3-63d725f4c0e6","ios":"levelo://app?vid=78744c7e-ea4e-4906-a6c3-63d725f4c0e6"},"vehicle_type_id":"4","last_reported":1700968033,"current_range_meters":5200,"station_id":"ce4bhr92rcd13ifvqhsg","pricing_plan_id":"free"},{"bike_id":"ec787e1e-db2a-4cf0-b872-f832c429e8ac","system_id":"levelo_inurba_marseille","lat":43.297946,"lon":5.404063,"is_reserved":false,"is_disabled":false,"rental_uris":{"android":"levelo://app?vid=ec787e1e-db2a-4cf0-b872-f832c429e8ac","ios":"levelo://app?vid=ec787e1e-db2a-4cf0-b872-f832c429e8ac"},"vehicle_type_id":"4","last_reported":1700968033,"current_range_meters":31200,"station_id":"ce4bh112rcd13ifvqd90","pricing_plan_id":"free"},{"bike_id":"5bf33191-5154-4db2-b837-dba3fca49230","system_id":"levelo_inurba_marseille","lat":43.297946,"lon":5.404063,"is_reserved":false,"is_disabled":false,"rental_uris":{"android":"levelo://app?vid=5bf33191-5154-4db2-b837-dba3fca49230","ios":"levelo://app?vid=5bf33191-5154-4db2-b837-dba3fca49230"},"vehicle_type_id":"4","last_reported":1700968033,"current_range_meters":24000,"station_id":"ce4bh112rcd13ifvqd90","pricing_plan_id":"free"},{"bike_id":"dae4b89f-4ac0-4fe7-8bb6-417fea8f2466","system_id":"levelo_inurba_marseille","lat":43.283494,"lon":5.380945,"is_reserved":false,"is_disabled":false,"rental_uris":{"android":"levelo://app?vid=dae4b89f-4ac0-4fe7-8bb6-417fea8f2466","ios":"levelo://app?vid=dae4b89f-4ac0-4fe7-8bb6-417fea8f2466"},"vehicle_type_id":"4","last_reported":1700968033,"current_range_meters":20800,"station_id":"ce4bh412rcd13ifvqdr0","pricing_plan_id":"free"},{"bike_id":"caa4821c-02ca-44ca-9394-925a8bd619ea","system_id":"levelo_inurba_marseille","lat":43.28343,"lon":5.38113,"is_reserved":false,"is_disabled":false,"rental_uris":{"android":"levelo://app?vid=caa4821c-02ca-44ca-9394-925a8bd619ea","ios":"levelo://app?vid=caa4821c-02ca-44ca-9394-925a8bd619ea"},"vehicle_type_id":"4","last_reported":1700968033,"current_range_meters":30400,"station_id":"ce4bh412rcd13ifvqdr0","pricing_plan_id":"free"},{"bike_id":"f408f100-cbfd-46da-b1cb-87a2552665e3","system_id":"levelo_inurba_marseille","lat":43.28339,"lon":5.38101,"is_reserved":false,"is_disabled":false,"rental_uris":{"android":"levelo://app?vid=f408f100-cbfd-46da-b1cb-87a2552665e3","ios":"levelo://app?vid=f408f100-cbfd-46da-b1cb-87a2552665e3"},"vehicle_type_id":"4","last_reported":1700968033,"current_range_meters":30400,"station_id":"ce4bh412rcd13ifvqdr0","pricing_plan_id":"free"},{"bike_id":"2d63a72b-63ea-4b7b-896b-59b42244e41c","system_id":"levelo_inurba_marseille","lat":43.284217,"lon":5.349697,"is_reserved":false,"is_disabled":false,"rental_uris":{"android":"levelo://app?vid=2d63a72b-63ea-4b7b-896b-59b42244e41c","ios":"levelo://app?vid=2d63a72b-63ea-4b7b-896b-59b42244e41c"},"vehicle_type_id":"4","last_reported":1700968033,"current_range_meters":29200,"station_id":"ce4bhbh2rcd13ifvqepg","pricing_plan_id":"free"},{"bike_id":"e2284003-4e46-4e0a-93e7-73d05c3666d9","system_id":"levelo_inurba_marseille","lat":43.33508,"lon":5.397755,"is_reserved":false,"is_disabled":false,"rental_uris":{"android":"levelo://app?vid=e2284003-4e46-4e0a-93e7-73d05c3666d9","ios":"levelo://app?vid=e2284003-4e46-4e0a-93e7-73d05c3666d9"},"vehicle_type_id":"4","last_reported":1700968033,"current_range_meters":20400,"station_id":"","pricing_plan_id":"free"},{"bike_id":"0c7eb93b-7594-4cfd-824e-8214e64d3486","system_id":"levelo_inurba_marseille","lat":43.289363,"lon":5.396322,"is_reserved":false,"is_disabled":false,"rental_uris":{"android":"levelo://app?vid=0c7eb93b-7594-4cfd-824e-8214e64d3486","ios":"levelo://app?vid=0c7eb93b-7594-4cfd-824e-8214e64d3486"},"vehicle_type_id":"4","last_reported":1700968033,"current_range_meters":22800,"station_id":"ce4bh3h2rcd13ifvqdn0","pricing_plan_id":"free"},{"bike_id":"bf1da870-8e26-4b9d-8147-93f2f27f9e50","system_id":"levelo_inurba_marseille","lat":43.292724,"lon":5.401131,"is_reserved":false,"is_disabled":false,"rental_uris":{"android":"levelo://app?vid=bf1da870-8e26-4b9d-8147-93f2f27f9e50","ios":"levelo://app?vid=bf1da870-8e26-4b9d-8147-93f2f27f9e50"},"vehicle_type_id":"4","last_reported":1700968033,"current_range_meters":16000,"station_id":"ce4bh312rcd13ifvqdk0","pricing_plan_id":"free"},{"bike_id":"57ae1c4e-3134-4051-8a20-577d938684d7","system_id":"levelo_inurba_marseille","lat":43.28039,"lon":5.369297,"is_reserved":false,"is_disabled":false,"rental_uris":{"android":"levelo://app?vid=57ae1c4e-3134-4051-8a20-577d938684d7","ios":"levelo://app?vid=57ae1c4e-3134-4051-8a20-577d938684d7"},"vehicle_type_id":"4","last_reported":1700968033,"current_range_meters":19600,"station_id":"ce4bha12rcd13ifvqef0","pricing_plan_id":"free"},{"bike_id":"db9334a0-0093-411c-aac9-d2c04233863c","system_id":"levelo_inurba_marseille","lat":43.28039,"lon":5.369297,"is_reserved":false,"is_disabled":false,"rental_uris":{"android":"levelo://app?vid=db9334a0-0093-411c-aac9-d2c04233863c","ios":"levelo://app?vid=db9334a0-0093-411c-aac9-d2c04233863c"},"vehicle_type_id":"4","last_reported":1700968033,"current_range_meters":30000,"station_id":"ce4bha12rcd13ifvqef0","pricing_plan_id":"free"},{"bike_id":"ec3b3fd1-5bfc-4d6f-bc0e-3062bce32f53","system_id":"levelo_inurba_marseille","lat":43.28039,"lon":5.369297,"is_reserved":false,"is_disabled":false,"rental_uris":{"android":"levelo://app?vid=ec3b3fd1-5bfc-4d6f-bc0e-3062bce32f53","ios":"levelo://app?vid=ec3b3fd1-5bfc-4d6f-bc0e-3062bce32f53"},"vehicle_type_id":"4","last_reported":1700968033,"current_range_meters":31200,"station_id":"ce4bha12rcd13ifvqef0","pricing_plan_id":"free"},{"bike_id":"6ac7559d-766f-424e-98d9-2ad5998281b0","system_id":"levelo_inurba_marseille","lat":43.28039,"lon":5.369297,"is_reserved":false,"is_disabled":false,"rental_uris":{"android":"levelo://app?vid=6ac7559d-766f-424e-98d9-2ad5998281b0","ios":"levelo://app?vid=6ac7559d-766f-424e-98d9-2ad5998281b0"},"vehicle_type_id":"4","last_reported":1700968033,"current_range_meters":25600,"station_id":"ce4bha12rcd13ifvqef0","pricing_plan_id":"free"},{"bike_id":"29c477c3-ec16-4965-a1ed-e23bc6cf7946","system_id":"levelo_inurba_marseille","lat":43.290412,"lon":5.399633,"is_reserved":false,"is_disabled":false,"rental_uris":{"android":"levelo://app?vid=29c477c3-ec16-4965-a1ed-e23bc6cf7946","ios":"levelo://app?vid=29c477c3-ec16-4965-a1ed-e23bc6cf7946"},"vehicle_type_id":"4","last_reported":1700968033,"current_range_meters":27600,"station_id":"ce4bh392rcd13ifvqdm0","pricing_plan_id":"free"},{"bike_id":"7b0f93e1-58c4-43d6-a0cf-7d2931f47a6b","system_id":"levelo_inurba_marseille","lat":43.290412,"lon":5.399633,"is_reserved":false,"is_disabled":false,"rental_uris":{"android":"levelo://app?vid=7b0f93e1-58c4-43d6-a0cf-7d2931f47a6b","ios":"levelo://app?vid=7b0f93e1-58c4-43d6-a0cf-7d2931f47a6b"},"vehicle_type_id":"4","last_reported":1700968033,"current_range_meters":27200,"station_id":"ce4bh392rcd13ifvqdm0","pricing_plan_id":"free"},{"bike_id":"deb61259-c7dd-40c9-bc15-498d7b981251","system_id":"levelo_inurba_marseille","lat":43.29041,"lon":5.399634,"is_reserved":false,"is_disabled":false,"rental_uris":{"android":"levelo://app?vid=deb61259-c7dd-40c9-bc15-498d7b981251","ios":"levelo://app?vid=deb61259-c7dd-40c9-bc15-498d7b981251"},"vehicle_type_id":"4","last_reported":1700968033,"current_range_meters":22400,"station_id":"ce4bh392rcd13ifvqdm0","pricing_plan_id":"free"},{"bike_id":"4bd7762b-53b7-486b-a38b-46745f268e74","system_id":"levelo_inurba_marseille","lat":43.281044,"lon":5.378308,"is_reserved":false,"is_disabled":false,"rental_uris":{"android":"levelo://app?vid=4bd7762b-53b7-486b-a38b-46745f268e74","ios":"levelo://app?vid=4bd7762b-53b7-486b-a38b-46745f268e74"},"vehicle_type_id":"4","last_reported":1700968033,"current_range_meters":28000,"station_id":"ce4bha12rcd13ifvqee0","pricing_plan_id":"free"},{"bike_id":"8b5fa9aa-33b2-4d3d-8022-678cb5275d9a","system_id":"levelo_inurba_marseille","lat":43.281044,"lon":5.378308,"is_reserved":false,"is_disabled":false,"rental_uris":{"android":"levelo://app?vid=8b5fa9aa-33b2-4d3d-8022-678cb5275d9a","ios":"levelo://app?vid=8b5fa9aa-33b2-4d3d-8022-678cb5275d9a"},"vehicle_type_id":"4","last_reported":1700968033,"current_range_meters":20000,"station_id":"ce4bha12rcd13ifvqee0","pricing_plan_id":"free"},{"bike_id":"9d3f5624-b3d7-43b2-9f84-615004750da7","system_id":"levelo_inurba_marseille","lat":43.281044,"lon":5.378308,"is_reserved":false,"is_disabled":false,"rental_uris":{"android":"levelo://app?vid=9d3f5624-b3d7-43b2-9f84-615004750da7","ios":"levelo://app?vid=9d3f5624-b3d7-43b2-9f84-615004750da7"},"vehicle_type_id":"4","last_reported":1700968033,"current_range_meters":30400,"station_id":"ce4bha12rcd13ifvqee0","pricing_plan_id":"free"},{"bike_id":"207a51fd-a244-45c0-814a-36db849d3a06","system_id":"levelo_inurba_marseille","lat":43.296263,"lon":5.40601,"is_reserved":false,"is_disabled":false,"rental_uris":{"android":"levelo://app?vid=207a51fd-a244-45c0-814a-36db849d3a06","ios":"levelo://app?vid=207a51fd-a244-45c0-814a-36db849d3a06"},"vehicle_type_id":"4","last_reported":1700968033,"current_range_meters":26400,"station_id":"ce4bh0h2rcd13ifvqd60","pricing_plan_id":"free"},{"bike_id":"9f82135b-52f2-48b0-bb7c-d289fdaab813","system_id":"levelo_inurba_marseille","lat":43.296263,"lon":5.40601,"is_reserved":false,"is_disabled":false,"rental_uris":{"android":"levelo://app?vid=9f82135b-52f2-48b0-bb7c-d289fdaab813","ios":"levelo://app?vid=9f82135b-52f2-48b0-bb7c-d289fdaab813"},"vehicle_type_id":"4","last_reported":1700968033,"current_range_meters":31200,"station_id":"ce4bh0h2rcd13ifvqd60","pricing_plan_id":"free"},{"bike_id":"aa3b3f0f-bd29-4d57-acad-6c02ba7eee93","system_id":"levelo_inurba_marseille","lat":43.296263,"lon":5.40601,"is_reserved":false,"is_disabled":false,"rental_uris":{"android":"levelo://app?vid=aa3b3f0f-bd29-4d57-acad-6c02ba7eee93","ios":"levelo://app?vid=aa3b3f0f-bd29-4d57-acad-6c02ba7eee93"},"vehicle_type_id":"4","last_reported":1700968033,"current_range_meters":17600,"station_id":"ce4bh0h2rcd13ifvqd60","pricing_plan_id":"free"},{"bike_id":"b4d252d7-dd0d-49f0-b821-e09609c914fd","system_id":"levelo_inurba_marseille","lat":43.281008,"lon":5.378466,"is_reserved":false,"is_disabled":false,"rental_uris":{"android":"levelo://app?vid=b4d252d7-dd0d-49f0-b821-e09609c914fd","ios":"levelo://app?vid=b4d252d7-dd0d-49f0-b821-e09609c914fd"},"vehicle_type_id":"4","last_reported":1700968033,"current_range_meters":30000,"station_id":"ce4bha12rcd13ifvqee0","pricing_plan_id":"free"},{"bike_id":"b4e83d2a-e61f-4f0a-9c38-3bdd82a71c10","system_id":"levelo_inurba_marseille","lat":43.296263,"lon":5.40601,"is_reserved":false,"is_disabled":false,"rental_uris":{"android":"levelo://app?vid=b4e83d2a-e61f-4f0a-9c38-3bdd82a71c10","ios":"levelo://app?vid=b4e83d2a-e61f-4f0a-9c38-3bdd82a71c10"},"vehicle_type_id":"4","last_reported":1700968033,"current_range_meters":15200,"station_id":"ce4bh0h2rcd13ifvqd60","pricing_plan_id":"free"},{"bike_id":"20476fb2-3ba2-40b8-9da3-1ee98254bb43","system_id":"levelo_inurba_marseille","lat":43.296263,"lon":5.40601,"is_reserved":false,"is_disabled":false,"rental_uris":{"android":"levelo://app?vid=20476fb2-3ba2-40b8-9da3-1ee98254bb43","ios":"levelo://app?vid=20476fb2-3ba2-40b8-9da3-1ee98254bb43"},"vehicle_type_id":"4","last_reported":1700968033,"current_range_meters":20400,"station_id":"ce4bh0h2rcd13ifvqd60","pricing_plan_id":"free"},{"bike_id":"c5c39fa1-2a93-4700-b15b-bd80b5b55ee3","system_id":"levelo_inurba_marseille","lat":43.285742,"lon":5.395004,"is_reserved":false,"is_disabled":false,"rental_uris":{"android":"levelo://app?vid=c5c39fa1-2a93-4700-b15b-bd80b5b55ee3","ios":"levelo://app?vid=c5c39fa1-2a93-4700-b15b-bd80b5b55ee3"},"vehicle_type_id":"4","last_reported":1700968033,"current_range_meters":27200,"station_id":"ce4bh292rcd13ifvqdg0","pricing_plan_id":"free"},{"bike_id":"8d90e7d1-d40e-4142-89a4-47bbc1e9b6fb","system_id":"levelo_inurba_marseille","lat":43.32655,"lon":5.40989,"is_reserved":false,"is_disabled":false,"rental_uris":{"android":"levelo://app?vid=8d90e7d1-d40e-4142-89a4-47bbc1e9b6fb","ios":"levelo://app?vid=8d90e7d1-d40e-4142-89a4-47bbc1e9b6fb"},"vehicle_type_id":"4","last_reported":1700968033,"current_range_meters":18400,"station_id":"ce4bhpp2rcd13ifvqhgg","pricing_plan_id":"free"},{"bike_id":"4a7b3b19-145f-4afa-98af-4e2d69cf5477","system_id":"levelo_inurba_marseille","lat":43.32658,"lon":5.409917,"is_reserved":false,"is_disabled":false,"rental_uris":{"android":"levelo://app?vid=4a7b3b19-145f-4afa-98af-4e2d69cf5477","ios":"levelo://app?vid=4a7b3b19-145f-4afa-98af-4e2d69cf5477"},"vehicle_type_id":"4","last_reported":1700968033,"current_range_meters":22800,"station_id":"ce4bhpp2rcd13ifvqhgg","pricing_plan_id":"free"},{"bike_id":"f50a0bdb-19de-44d8-9611-df0a9af3c622","system_id":"levelo_inurba_marseille","lat":43.304188,"lon":5.412904,"is_reserved":false,"is_disabled":false,"rental_uris":{"android":"levelo://app?vid=f50a0bdb-19de-44d8-9611-df0a9af3c622","ios":"levelo://app?vid=f50a0bdb-19de-44d8-9611-df0a9af3c622"},"vehicle_type_id":"4","last_reported":1700968033,"current_range_meters":25200,"station_id":"ce4bhop2rcd13ifvqh8g","pricing_plan_id":"free"},{"bike_id":"278ed9b5-f90a-459f-a795-acd177e96612","system_id":"levelo_inurba_marseille","lat":43.279087,"lon":5.380114,"is_reserved":false,"is_disabled":false,"rental_uris":{"android":"levelo://app?vid=278ed9b5-f90a-459f-a795-acd177e96612","ios":"levelo://app?vid=278ed9b5-f90a-459f-a795-acd177e96612"},"vehicle_type_id":"4","last_reported":1700968033,"current_range_meters":29200,"station_id":"ce4bhf92rcd13ifvqf50","pricing_plan_id":"free"},{"bike_id":"8d0edc89-da88-4418-970a-d70f971e3b6e","system_id":"levelo_inurba_marseille","lat":43.287154,"lon":5.399979,"is_reserved":false,"is_disabled":false,"rental_uris":{"android":"levelo://app?vid=8d0edc89-da88-4418-970a-d70f971e3b6e","ios":"levelo://app?vid=8d0edc89-da88-4418-970a-d70f971e3b6e"},"vehicle_type_id":"4","last_reported":1700968033,"current_range_meters":30000,"station_id":"ce4bho92rcd13ifvqh3g","pricing_plan_id":"free"},{"bike_id":"abc44e98-ffe8-4d9b-a2f7-52313f1e8d5a","system_id":"levelo_inurba_marseille","lat":43.287,"lon":5.399777,"is_reserved":false,"is_disabled":false,"rental_uris":{"android":"levelo://app?vid=abc44e98-ffe8-4d9b-a2f7-52313f1e8d5a","ios":"levelo://app?vid=abc44e98-ffe8-4d9b-a2f7-52313f1e8d5a"},"vehicle_type_id":"4","last_reported":1700968033,"current_range_meters":13600,"station_id":"ce4bho92rcd13ifvqh3g","pricing_plan_id":"free"},{"bike_id":"f16b2a30-fdf8-4498-b123-427478e0d68a","system_id":"levelo_inurba_marseille","lat":43.28699,"lon":5.39979,"is_reserved":false,"is_disabled":false,"rental_uris":{"android":"levelo://app?vid=f16b2a30-fdf8-4498-b123-427478e0d68a","ios":"levelo://app?vid=f16b2a30-fdf8-4498-b123-427478e0d68a"},"vehicle_type_id":"4","last_reported":1700968033,"current_range_meters":11200,"station_id":"ce4bho92rcd13ifvqh3g","pricing_plan_id":"free"},{"bike_id":"41e88250-3c41-464a-a741-48144a7dd8ff","system_id":"levelo_inurba_marseille","lat":43.28698,"lon":5.39979,"is_reserved":false,"is_disabled":false,"rental_uris":{"android":"levelo://app?vid=41e88250-3c41-464a-a741-48144a7dd8ff","ios":"levelo://app?vid=41e88250-3c41-464a-a741-48144a7dd8ff"},"vehicle_type_id":"4","last_reported":1700968033,"current_range_meters":24000,"station_id":"ce4bho92rcd13ifvqh3g","pricing_plan_id":"free"},{"bike_id":"1fda43f9-d347-479e-9dcf-ca2518fd265e","system_id":"levelo_inurba_marseille","lat":43.320045,"lon":5.415046,"is_reserved":false,"is_disabled":false,"rental_uris":{"android":"levelo://app?vid=1fda43f9-d347-479e-9dcf-ca2518fd265e","ios":"levelo://app?vid=1fda43f9-d347-479e-9dcf-ca2518fd265e"},"vehicle_type_id":"4","last_reported":1700968033,"current_range_meters":2800,"station_id":"ce4bhq92rcd13ifvqhkg","pricing_plan_id":"free"},{"bike_id":"2ed5fb01-a37b-4786-a0a3-5c7b33c8aeda","system_id":"levelo_inurba_marseille","lat":43.279742,"lon":5.38744,"is_reserved":false,"is_disabled":false,"rental_uris":{"android":"levelo://app?vid=2ed5fb01-a37b-4786-a0a3-5c7b33c8aeda","ios":"levelo://app?vid=2ed5fb01-a37b-4786-a0a3-5c7b33c8aeda"},"vehicle_type_id":"4","last_reported":1700968033,"current_range_meters":1600,"station_id":"ce4bhg12rcd13ifvqf80","pricing_plan_id":"free"},{"bike_id":"6526cad1-2f4b-4db1-8d6b-ce04bc407b31","system_id":"levelo_inurba_marseille","lat":43.348828,"lon":5.375004,"is_reserved":false,"is_disabled":false,"rental_uris":{"android":"levelo://app?vid=6526cad1-2f4b-4db1-8d6b-ce04bc407b31","ios":"levelo://app?vid=6526cad1-2f4b-4db1-8d6b-ce04bc407b31"},"vehicle_type_id":"4","last_reported":1700968033,"current_range_meters":0,"station_id":"","pricing_plan_id":"free"},{"bike_id":"5efa189a-ff25-4305-9d36-b88ae9250556","system_id":"levelo_inurba_marseille","lat":43.2926,"lon":5.40911,"is_reserved":false,"is_disabled":false,"rental_uris":{"android":"levelo://app?vid=5efa189a-ff25-4305-9d36-b88ae9250556","ios":"levelo://app?vid=5efa189a-ff25-4305-9d36-b88ae9250556"},"vehicle_type_id":"4","last_reported":1700968033,"current_range_meters":1200,"station_id":"ce4bh192rcd13ifvqdc0","pricing_plan_id":"free"},{"bike_id":"caf9e590-7da1-4232-a093-ca2e890df38a","system_id":"levelo_inurba_marseille","lat":43.292571,"lon":5.409107,"is_reserved":false,"is_disabled":false,"rental_uris":{"android":"levelo://app?vid=caf9e590-7da1-4232-a093-ca2e890df38a","ios":"levelo://app?vid=caf9e590-7da1-4232-a093-ca2e890df38a"},"vehicle_type_id":"4","last_reported":1700968033,"current_range_meters":22800,"station_id":"ce4bh192rcd13ifvqdc0","pricing_plan_id":"free"},{"bike_id":"f03aff16-249b-4254-a789-6e0b1f9ee601","system_id":"levelo_inurba_marseille","lat":43.292557,"lon":5.40909,"is_reserved":false,"is_disabled":false,"rental_uris":{"android":"levelo://app?vid=f03aff16-249b-4254-a789-6e0b1f9ee601","ios":"levelo://app?vid=f03aff16-249b-4254-a789-6e0b1f9ee601"},"vehicle_type_id":"4","last_reported":1700968033,"current_range_meters":0,"station_id":"ce4bh192rcd13ifvqdc0","pricing_plan_id":"free"},{"bike_id":"7fc7be5d-8107-436c-964c-d096900cde0e","system_id":"levelo_inurba_marseille","lat":43.325233,"lon":5.414318,"is_reserved":false,"is_disabled":false,"rental_uris":{"android":"levelo://app?vid=7fc7be5d-8107-436c-964c-d096900cde0e","ios":"levelo://app?vid=7fc7be5d-8107-436c-964c-d096900cde0e"},"vehicle_type_id":"4","last_reported":1700968033,"current_range_meters":25600,"station_id":"ce4bhq12rcd13ifvqhhg","pricing_plan_id":"free"},{"bike_id":"e9333e17-ea63-4942-a642-cb0a1ba22a55","system_id":"levelo_inurba_marseille","lat":43.325243,"lon":5.414326,"is_reserved":false,"is_disabled":false,"rental_uris":{"android":"levelo://app?vid=e9333e17-ea63-4942-a642-cb0a1ba22a55","ios":"levelo://app?vid=e9333e17-ea63-4942-a642-cb0a1ba22a55"},"vehicle_type_id":"4","last_reported":1700968033,"current_range_meters":28400,"station_id":"ce4bhq12rcd13ifvqhhg","pricing_plan_id":"free"},{"bike_id":"c25ea147-e804-4786-9d25-91f61a8ed59a","system_id":"levelo_inurba_marseille","lat":43.293651,"lon":5.41268,"is_reserved":false,"is_disabled":false,"rental_uris":{"android":"levelo://app?vid=c25ea147-e804-4786-9d25-91f61a8ed59a","ios":"levelo://app?vid=c25ea147-e804-4786-9d25-91f61a8ed59a"},"vehicle_type_id":"4","last_reported":1700968033,"current_range_meters":0,"station_id":"","pricing_plan_id":"free"},{"bike_id":"1add7c48-b399-4796-915c-195e914a1857","system_id":"levelo_inurba_marseille","lat":43.278399,"lon":5.392139,"is_reserved":false,"is_disabled":false,"rental_uris":{"android":"levelo://app?vid=1add7c48-b399-4796-915c-195e914a1857","ios":"levelo://app?vid=1add7c48-b399-4796-915c-195e914a1857"},"vehicle_type_id":"4","last_reported":1700968033,"current_range_meters":14800,"station_id":"ce4bhjp2rcd13ifvqga0","pricing_plan_id":"free"},{"bike_id":"1a41ba2d-126a-45a0-9786-3a69c6425282","system_id":"levelo_inurba_marseille","lat":43.273613,"lon":5.362705,"is_reserved":false,"is_disabled":false,"rental_uris":{"android":"levelo://app?vid=1a41ba2d-126a-45a0-9786-3a69c6425282","ios":"levelo://app?vid=1a41ba2d-126a-45a0-9786-3a69c6425282"},"vehicle_type_id":"4","last_reported":1700968033,"current_range_meters":30400,"station_id":"ce4bhbh2rcd13ifvqeo0","pricing_plan_id":"free"},{"bike_id":"3d25cc63-3df8-4d66-bc20-6d257254f455","system_id":"levelo_inurba_marseille","lat":43.336134,"lon":5.410341,"is_reserved":false,"is_disabled":false,"rental_uris":{"android":"levelo://app?vid=3d25cc63-3df8-4d66-bc20-6d257254f455","ios":"levelo://app?vid=3d25cc63-3df8-4d66-bc20-6d257254f455"},"vehicle_type_id":"4","last_reported":1700968033,"current_range_meters":16000,"station_id":"ce4bhqh2rcd13ifvqhmg","pricing_plan_id":"free"},{"bike_id":"1283cee1-794d-43ad-b494-016d481a09d2","system_id":"levelo_inurba_marseille","lat":43.33612,"lon":5.410321,"is_reserved":false,"is_disabled":false,"rental_uris":{"android":"levelo://app?vid=1283cee1-794d-43ad-b494-016d481a09d2","ios":"levelo://app?vid=1283cee1-794d-43ad-b494-016d481a09d2"},"vehicle_type_id":"4","last_reported":1700968033,"current_range_meters":31200,"station_id":"ce4bhqh2rcd13ifvqhmg","pricing_plan_id":"free"},{"bike_id":"3309b9b4-8631-43cb-b850-81cfe13f3b20","system_id":"levelo_inurba_marseille","lat":43.33612,"lon":5.410321,"is_reserved":false,"is_disabled":false,"rental_uris":{"android":"levelo://app?vid=3309b9b4-8631-43cb-b850-81cfe13f3b20","ios":"levelo://app?vid=3309b9b4-8631-43cb-b850-81cfe13f3b20"},"vehicle_type_id":"4","last_reported":1700968033,"current_range_meters":31200,"station_id":"ce4bhqh2rcd13ifvqhmg","pricing_plan_id":"free"},{"bike_id":"815ed55d-2ef5-446d-851b-8a9e38f5e13e","system_id":"levelo_inurba_marseille","lat":43.336134,"lon":5.410341,"is_reserved":false,"is_disabled":false,"rental_uris":{"android":"levelo://app?vid=815ed55d-2ef5-446d-851b-8a9e38f5e13e","ios":"levelo://app?vid=815ed55d-2ef5-446d-851b-8a9e38f5e13e"},"vehicle_type_id":"4","last_reported":1700968033,"current_range_meters":26400,"station_id":"ce4bhqh2rcd13ifvqhmg","pricing_plan_id":"free"},{"bike_id":"aad13955-9ce9-4ec5-be9e-f89c8cc375cd","system_id":"levelo_inurba_marseille","lat":43.33612,"lon":5.410321,"is_reserved":false,"is_disabled":false,"rental_uris":{"android":"levelo://app?vid=aad13955-9ce9-4ec5-be9e-f89c8cc375cd","ios":"levelo://app?vid=aad13955-9ce9-4ec5-be9e-f89c8cc375cd"},"vehicle_type_id":"4","last_reported":1700968033,"current_range_meters":27200,"station_id":"ce4bhqh2rcd13ifvqhmg","pricing_plan_id":"free"},{"bike_id":"20e9a620-5f6b-48f9-afd8-34a77c939b15","system_id":"levelo_inurba_marseille","lat":43.275625,"lon":5.384392,"is_reserved":false,"is_disabled":false,"rental_uris":{"android":"levelo://app?vid=20e9a620-5f6b-48f9-afd8-34a77c939b15","ios":"levelo://app?vid=20e9a620-5f6b-48f9-afd8-34a77c939b15"},"vehicle_type_id":"4","last_reported":1700968033,"current_range_meters":26400,"station_id":"ce4bhh92rcd13ifvqfi0","pricing_plan_id":"free"},{"bike_id":"eecdfcd2-18fa-4c52-b945-314b7349e17d","system_id":"levelo_inurba_marseille","lat":43.276769,"lon":5.388787,"is_reserved":false,"is_disabled":false,"rental_uris":{"android":"levelo://app?vid=eecdfcd2-18fa-4c52-b945-314b7349e17d","ios":"levelo://app?vid=eecdfcd2-18fa-4c52-b945-314b7349e17d"},"vehicle_type_id":"4","last_reported":1700968033,"current_range_meters":25200,"station_id":"ce4bhi12rcd13ifvqfo0","pricing_plan_id":"free"},{"bike_id":"2bac63be-2248-4f83-9913-6fa6e719b914","system_id":"levelo_inurba_marseille","lat":43.310797,"lon":5.424273,"is_reserved":false,"is_disabled":false,"rental_uris":{"android":"levelo://app?vid=2bac63be-2248-4f83-9913-6fa6e719b914","ios":"levelo://app?vid=2bac63be-2248-4f83-9913-6fa6e719b914"},"vehicle_type_id":"4","last_reported":1700968033,"current_range_meters":14800,"station_id":"ce4bhp92rcd13ifvqhag","pricing_plan_id":"free"},{"bike_id":"60395232-e532-4f5a-ae3e-52a22da3b50f","system_id":"levelo_inurba_marseille","lat":43.31081,"lon":5.4243,"is_reserved":false,"is_disabled":false,"rental_uris":{"android":"levelo://app?vid=60395232-e532-4f5a-ae3e-52a22da3b50f","ios":"levelo://app?vid=60395232-e532-4f5a-ae3e-52a22da3b50f"},"vehicle_type_id":"4","last_reported":1700968033,"current_range_meters":5600,"station_id":"ce4bhp92rcd13ifvqhag","pricing_plan_id":"free"},{"bike_id":"2de05027-7797-4106-81c1-0fbaf060e0d4","system_id":"levelo_inurba_marseille","lat":43.3172,"lon":5.42406,"is_reserved":false,"is_disabled":false,"rental_uris":{"android":"levelo://app?vid=2de05027-7797-4106-81c1-0fbaf060e0d4","ios":"levelo://app?vid=2de05027-7797-4106-81c1-0fbaf060e0d4"},"vehicle_type_id":"4","last_reported":1700968033,"current_range_meters":14400,"station_id":"ce4bhp92rcd13ifvqhbg","pricing_plan_id":"free"},{"bike_id":"8eb5bdb0-5c9b-4999-93c3-a1a499ccf536","system_id":"levelo_inurba_marseille","lat":43.31081,"lon":5.42438,"is_reserved":false,"is_disabled":false,"rental_uris":{"android":"levelo://app?vid=8eb5bdb0-5c9b-4999-93c3-a1a499ccf536","ios":"levelo://app?vid=8eb5bdb0-5c9b-4999-93c3-a1a499ccf536"},"vehicle_type_id":"4","last_reported":1700968033,"current_range_meters":6800,"station_id":"ce4bhp92rcd13ifvqhag","pricing_plan_id":"free"},{"bike_id":"97e3b868-516a-4717-91d1-15212899daab","system_id":"levelo_inurba_marseille","lat":43.340804,"lon":5.410219,"is_reserved":false,"is_disabled":false,"rental_uris":{"android":"levelo://app?vid=97e3b868-516a-4717-91d1-15212899daab","ios":"levelo://app?vid=97e3b868-516a-4717-91d1-15212899daab"},"vehicle_type_id":"4","last_reported":1700968033,"current_range_meters":28800,"station_id":"ce4bhqh2rcd13ifvqhlg","pricing_plan_id":"free"},{"bike_id":"204dc7a8-2128-4a6e-aad3-04f673f35cbb","system_id":"levelo_inurba_marseille","lat":43.340804,"lon":5.410219,"is_reserved":false,"is_disabled":false,"rental_uris":{"android":"levelo://app?vid=204dc7a8-2128-4a6e-aad3-04f673f35cbb","ios":"levelo://app?vid=204dc7a8-2128-4a6e-aad3-04f673f35cbb"},"vehicle_type_id":"4","last_reported":1700968033,"current_range_meters":17600,"station_id":"ce4bhqh2rcd13ifvqhlg","pricing_plan_id":"free"},{"bike_id":"3f7a559c-008d-463f-b6a5-5b652928b168","system_id":"levelo_inurba_marseille","lat":43.340804,"lon":5.410219,"is_reserved":false,"is_disabled":false,"rental_uris":{"android":"levelo://app?vid=3f7a559c-008d-463f-b6a5-5b652928b168","ios":"levelo://app?vid=3f7a559c-008d-463f-b6a5-5b652928b168"},"vehicle_type_id":"4","last_reported":1700968033,"current_range_meters":4800,"station_id":"ce4bhqh2rcd13ifvqhlg","pricing_plan_id":"free"},{"bike_id":"4ee479cd-a160-40d8-9650-68d450f33729","system_id":"levelo_inurba_marseille","lat":43.304096,"lon":5.425385,"is_reserved":false,"is_disabled":false,"rental_uris":{"android":"levelo://app?vid=4ee479cd-a160-40d8-9650-68d450f33729","ios":"levelo://app?vid=4ee479cd-a160-40d8-9650-68d450f33729"},"vehicle_type_id":"4","last_reported":1700968033,"current_range_meters":5600,"station_id":"ce4bhoh2rcd13ifvqh6g","pricing_plan_id":"free"},{"bike_id":"a47ef0e3-338f-4543-8e63-8e0132c5e349","system_id":"levelo_inurba_marseille","lat":43.278128,"lon":5.407195,"is_reserved":false,"is_disabled":false,"rental_uris":{"android":"levelo://app?vid=a47ef0e3-338f-4543-8e63-8e0132c5e349","ios":"levelo://app?vid=a47ef0e3-338f-4543-8e63-8e0132c5e349"},"vehicle_type_id":"4","last_reported":1700968033,"current_range_meters":30000,"station_id":"ce4bhnh2rcd13ifvqgtg","pricing_plan_id":"free"},{"bike_id":"18238bc1-a7d6-4bf1-97ad-06f73ddaa374","system_id":"levelo_inurba_marseille","lat":43.278128,"lon":5.407195,"is_reserved":false,"is_disabled":false,"rental_uris":{"android":"levelo://app?vid=18238bc1-a7d6-4bf1-97ad-06f73ddaa374","ios":"levelo://app?vid=18238bc1-a7d6-4bf1-97ad-06f73ddaa374"},"vehicle_type_id":"4","last_reported":1700968033,"current_range_meters":28800,"station_id":"ce4bhnh2rcd13ifvqgtg","pricing_plan_id":"free"},{"bike_id":"b263c360-06c8-4f3d-8e06-07bbbf3b8544","system_id":"levelo_inurba_marseille","lat":43.278128,"lon":5.407195,"is_reserved":false,"is_disabled":false,"rental_uris":{"android":"levelo://app?vid=b263c360-06c8-4f3d-8e06-07bbbf3b8544","ios":"levelo://app?vid=b263c360-06c8-4f3d-8e06-07bbbf3b8544"},"vehicle_type_id":"4","last_reported":1700968033,"current_range_meters":15200,"station_id":"ce4bhnh2rcd13ifvqgtg","pricing_plan_id":"free"},{"bike_id":"05be6ded-122b-4146-939b-97fc11f22a43","system_id":"levelo_inurba_marseille","lat":43.279432,"lon":5.410398,"is_reserved":false,"is_disabled":false,"rental_uris":{"android":"levelo://app?vid=05be6ded-122b-4146-939b-97fc11f22a43","ios":"levelo://app?vid=05be6ded-122b-4146-939b-97fc11f22a43"},"vehicle_type_id":"4","last_reported":1700968033,"current_range_meters":0,"station_id":"ce4bhnp2rcd13ifvqh0g","pricing_plan_id":"free"},{"bike_id":"552b9570-5876-4717-a59e-c90d5a6c1b1a","system_id":"levelo_inurba_marseille","lat":43.26681,"lon":5.382694,"is_reserved":false,"is_disabled":false,"rental_uris":{"android":"levelo://app?vid=552b9570-5876-4717-a59e-c90d5a6c1b1a","ios":"levelo://app?vid=552b9570-5876-4717-a59e-c90d5a6c1b1a"},"vehicle_type_id":"4","last_reported":1700968033,"current_range_meters":25200,"station_id":"ce4bhg92rcd13ifvqf90","pricing_plan_id":"free"},{"bike_id":"5c6ff074-752b-4e7b-b426-7201d9c547af","system_id":"levelo_inurba_marseille","lat":43.26556,"lon":5.37281,"is_reserved":false,"is_disabled":false,"rental_uris":{"android":"levelo://app?vid=5c6ff074-752b-4e7b-b426-7201d9c547af","ios":"levelo://app?vid=5c6ff074-752b-4e7b-b426-7201d9c547af"},"vehicle_type_id":"4","last_reported":1700968033,"current_range_meters":19200,"station_id":"ce4bhg12rcd13ifvqf70","pricing_plan_id":"free"},{"bike_id":"f23d8119-b478-4639-98c5-6883279f9f84","system_id":"levelo_inurba_marseille","lat":43.32592,"lon":5.43067,"is_reserved":false,"is_disabled":false,"rental_uris":{"android":"levelo://app?vid=f23d8119-b478-4639-98c5-6883279f9f84","ios":"levelo://app?vid=f23d8119-b478-4639-98c5-6883279f9f84"},"vehicle_type_id":"4","last_reported":1700968033,"current_range_meters":24400,"station_id":"","pricing_plan_id":"free"},{"bike_id":"e7b368e8-9edf-4ac8-acef-7e9558d427aa","system_id":"levelo_inurba_marseille","lat":43.32591,"lon":5.430713,"is_reserved":false,"is_disabled":false,"rental_uris":{"android":"levelo://app?vid=e7b368e8-9edf-4ac8-acef-7e9558d427aa","ios":"levelo://app?vid=e7b368e8-9edf-4ac8-acef-7e9558d427aa"},"vehicle_type_id":"4","last_reported":1700968033,"current_range_meters":0,"station_id":"","pricing_plan_id":"free"},{"bike_id":"ed30d6a1-b23a-49e5-9c83-5546be72a734","system_id":"levelo_inurba_marseille","lat":43.3259,"lon":5.43075,"is_reserved":false,"is_disabled":false,"rental_uris":{"android":"levelo://app?vid=ed30d6a1-b23a-49e5-9c83-5546be72a734","ios":"levelo://app?vid=ed30d6a1-b23a-49e5-9c83-5546be72a734"},"vehicle_type_id":"4","last_reported":1700968033,"current_range_meters":19200,"station_id":"","pricing_plan_id":"free"},{"bike_id":"d67469ee-5362-4610-a163-fe05ae3cf4f7","system_id":"levelo_inurba_marseille","lat":43.32604,"lon":5.430817,"is_reserved":false,"is_disabled":false,"rental_uris":{"android":"levelo://app?vid=d67469ee-5362-4610-a163-fe05ae3cf4f7","ios":"levelo://app?vid=d67469ee-5362-4610-a163-fe05ae3cf4f7"},"vehicle_type_id":"4","last_reported":1700968033,"current_range_meters":7600,"station_id":"","pricing_plan_id":"free"},{"bike_id":"97e80021-871f-43cf-ad8e-99b17a254f61","system_id":"levelo_inurba_marseille","lat":43.27996,"lon":5.416624,"is_reserved":false,"is_disabled":false,"rental_uris":{"android":"levelo://app?vid=97e80021-871f-43cf-ad8e-99b17a254f61","ios":"levelo://app?vid=97e80021-871f-43cf-ad8e-99b17a254f61"},"vehicle_type_id":"4","last_reported":1700968033,"current_range_meters":0,"station_id":"ce4bho12rcd13ifvqh1g","pricing_plan_id":"free"},{"bike_id":"4b3ab186-20ab-4cf4-9733-792e6c3fb7df","system_id":"levelo_inurba_marseille","lat":43.26781,"lon":5.39422,"is_reserved":false,"is_disabled":false,"rental_uris":{"android":"levelo://app?vid=4b3ab186-20ab-4cf4-9733-792e6c3fb7df","ios":"levelo://app?vid=4b3ab186-20ab-4cf4-9733-792e6c3fb7df"},"vehicle_type_id":"4","last_reported":1700968033,"current_range_meters":0,"station_id":"ce4bhh12rcd13ifvqfg0","pricing_plan_id":"free"},{"bike_id":"f17f5be1-2a1f-4f2d-9e09-dc20202f6ad8","system_id":"levelo_inurba_marseille","lat":43.267966,"lon":5.393976,"is_reserved":false,"is_disabled":false,"rental_uris":{"android":"levelo://app?vid=f17f5be1-2a1f-4f2d-9e09-dc20202f6ad8","ios":"levelo://app?vid=f17f5be1-2a1f-4f2d-9e09-dc20202f6ad8"},"vehicle_type_id":"4","last_reported":1700968033,"current_range_meters":20400,"station_id":"ce4bhh12rcd13ifvqfg0","pricing_plan_id":"free"},{"bike_id":"2b5f0b27-ae58-4e9e-bd76-c585f78e8a73","system_id":"levelo_inurba_marseille","lat":43.26386,"lon":5.37454,"is_reserved":false,"is_disabled":false,"rental_uris":{"android":"levelo://app?vid=2b5f0b27-ae58-4e9e-bd76-c585f78e8a73","ios":"levelo://app?vid=2b5f0b27-ae58-4e9e-bd76-c585f78e8a73"},"vehicle_type_id":"4","last_reported":1700968033,"current_range_meters":8400,"station_id":"","pricing_plan_id":"free"},{"bike_id":"9ae2cda8-ba30-4f57-9aaa-5721cc4b2b5a","system_id":"levelo_inurba_marseille","lat":43.308051,"lon":5.43527,"is_reserved":false,"is_disabled":false,"rental_uris":{"android":"levelo://app?vid=9ae2cda8-ba30-4f57-9aaa-5721cc4b2b5a","ios":"levelo://app?vid=9ae2cda8-ba30-4f57-9aaa-5721cc4b2b5a"},"vehicle_type_id":"4","last_reported":1700968033,"current_range_meters":29600,"station_id":"ce4bhph2rcd13ifvqheg","pricing_plan_id":"free"},{"bike_id":"a4f9a8b2-f5b8-407d-a376-36701a142a74","system_id":"levelo_inurba_marseille","lat":43.265569,"lon":5.390047,"is_reserved":false,"is_disabled":false,"rental_uris":{"android":"levelo://app?vid=a4f9a8b2-f5b8-407d-a376-36701a142a74","ios":"levelo://app?vid=a4f9a8b2-f5b8-407d-a376-36701a142a74"},"vehicle_type_id":"4","last_reported":1700968033,"current_range_meters":4800,"station_id":"ce4bhe12rcd13ifvqf30","pricing_plan_id":"free"},{"bike_id":"7eb84224-ddd2-4ee3-9ea9-0c75c393e799","system_id":"levelo_inurba_marseille","lat":43.269335,"lon":5.402588,"is_reserved":false,"is_disabled":false,"rental_uris":{"android":"levelo://app?vid=7eb84224-ddd2-4ee3-9ea9-0c75c393e799","ios":"levelo://app?vid=7eb84224-ddd2-4ee3-9ea9-0c75c393e799"},"vehicle_type_id":"4","last_reported":1700968033,"current_range_meters":18400,"station_id":"cjm6bp8fraef2m0cb0m0","pricing_plan_id":"free"},{"bike_id":"ec593df7-85d2-4a7c-a892-75fec147bf75","system_id":"levelo_inurba_marseille","lat":43.317104,"lon":5.436818,"is_reserved":false,"is_disabled":false,"rental_uris":{"android":"levelo://app?vid=ec593df7-85d2-4a7c-a892-75fec147bf75","ios":"levelo://app?vid=ec593df7-85d2-4a7c-a892-75fec147bf75"},"vehicle_type_id":"4","last_reported":1700968033,"current_range_meters":8400,"station_id":"ce4bhp92rcd13ifvqhcg","pricing_plan_id":"free"},{"bike_id":"149de16b-7aa0-4c51-98d0-fc74b233cb43","system_id":"levelo_inurba_marseille","lat":43.317104,"lon":5.436818,"is_reserved":false,"is_disabled":false,"rental_uris":{"android":"levelo://app?vid=149de16b-7aa0-4c51-98d0-fc74b233cb43","ios":"levelo://app?vid=149de16b-7aa0-4c51-98d0-fc74b233cb43"},"vehicle_type_id":"4","last_reported":1700968033,"current_range_meters":14000,"station_id":"ce4bhp92rcd13ifvqhcg","pricing_plan_id":"free"},{"bike_id":"e6ae5fa6-9435-4ad0-836c-d6e0a81870ce","system_id":"levelo_inurba_marseille","lat":43.317104,"lon":5.436818,"is_reserved":false,"is_disabled":false,"rental_uris":{"android":"levelo://app?vid=e6ae5fa6-9435-4ad0-836c-d6e0a81870ce","ios":"levelo://app?vid=e6ae5fa6-9435-4ad0-836c-d6e0a81870ce"},"vehicle_type_id":"4","last_reported":1700968033,"current_range_meters":15600,"station_id":"ce4bhp92rcd13ifvqhcg","pricing_plan_id":"free"},{"bike_id":"9e593d08-8c96-44ca-b16e-7bf16e9cac2f","system_id":"levelo_inurba_marseille","lat":43.271368,"lon":5.40928,"is_reserved":false,"is_disabled":false,"rental_uris":{"android":"levelo://app?vid=9e593d08-8c96-44ca-b16e-7bf16e9cac2f","ios":"levelo://app?vid=9e593d08-8c96-44ca-b16e-7bf16e9cac2f"},"vehicle_type_id":"4","last_reported":1700968033,"current_range_meters":31200,"station_id":"ce4bhl12rcd13ifvqgf0","pricing_plan_id":"free"},{"bike_id":"3ebbbbf8-0d1e-4343-910b-5aa8c2d3fc91","system_id":"levelo_inurba_marseille","lat":43.271368,"lon":5.40928,"is_reserved":false,"is_disabled":false,"rental_uris":{"android":"levelo://app?vid=3ebbbbf8-0d1e-4343-910b-5aa8c2d3fc91","ios":"levelo://app?vid=3ebbbbf8-0d1e-4343-910b-5aa8c2d3fc91"},"vehicle_type_id":"4","last_reported":1700968033,"current_range_meters":26800,"station_id":"ce4bhl12rcd13ifvqgf0","pricing_plan_id":"free"},{"bike_id":"dbf62bfb-d43b-46dc-b301-0e9e00d707fe","system_id":"levelo_inurba_marseille","lat":43.26175,"lon":5.379005,"is_reserved":false,"is_disabled":false,"rental_uris":{"android":"levelo://app?vid=dbf62bfb-d43b-46dc-b301-0e9e00d707fe","ios":"levelo://app?vid=dbf62bfb-d43b-46dc-b301-0e9e00d707fe"},"vehicle_type_id":"4","last_reported":1700968033,"current_range_meters":26000,"station_id":"ce4bhjp2rcd13ifvqg90","pricing_plan_id":"free"},{"bike_id":"d24921c1-8c61-4b91-941a-2e11a6ed2b73","system_id":"levelo_inurba_marseille","lat":43.29893,"lon":5.43657,"is_reserved":false,"is_disabled":false,"rental_uris":{"android":"levelo://app?vid=d24921c1-8c61-4b91-941a-2e11a6ed2b73","ios":"levelo://app?vid=d24921c1-8c61-4b91-941a-2e11a6ed2b73"},"vehicle_type_id":"4","last_reported":1700968033,"current_range_meters":8000,"station_id":"ce4bhpp2rcd13ifvqhfg","pricing_plan_id":"free"},{"bike_id":"1abe3e2c-431e-436d-ba02-88693e47ad74","system_id":"levelo_inurba_marseille","lat":43.298768,"lon":5.43643,"is_reserved":false,"is_disabled":false,"rental_uris":{"android":"levelo://app?vid=1abe3e2c-431e-436d-ba02-88693e47ad74","ios":"levelo://app?vid=1abe3e2c-431e-436d-ba02-88693e47ad74"},"vehicle_type_id":"4","last_reported":1700968033,"current_range_meters":29600,"station_id":"ce4bhpp2rcd13ifvqhfg","pricing_plan_id":"free"},{"bike_id":"3d594fb7-50a2-4810-ab82-7b60d7bb8bbf","system_id":"levelo_inurba_marseille","lat":43.298768,"lon":5.43643,"is_reserved":false,"is_disabled":false,"rental_uris":{"android":"levelo://app?vid=3d594fb7-50a2-4810-ab82-7b60d7bb8bbf","ios":"levelo://app?vid=3d594fb7-50a2-4810-ab82-7b60d7bb8bbf"},"vehicle_type_id":"4","last_reported":1700968033,"current_range_meters":24000,"station_id":"ce4bhpp2rcd13ifvqhfg","pricing_plan_id":"free"},{"bike_id":"f4f2e1d5-dafa-412d-9b3a-3611814786ce","system_id":"levelo_inurba_marseille","lat":43.298768,"lon":5.43643,"is_reserved":false,"is_disabled":false,"rental_uris":{"android":"levelo://app?vid=f4f2e1d5-dafa-412d-9b3a-3611814786ce","ios":"levelo://app?vid=f4f2e1d5-dafa-412d-9b3a-3611814786ce"},"vehicle_type_id":"4","last_reported":1700968033,"current_range_meters":31200,"station_id":"ce4bhpp2rcd13ifvqhfg","pricing_plan_id":"free"},{"bike_id":"7c5a83ac-336c-4b91-a5ea-82b3c6d6127d","system_id":"levelo_inurba_marseille","lat":43.298768,"lon":5.43643,"is_reserved":false,"is_disabled":false,"rental_uris":{"android":"levelo://app?vid=7c5a83ac-336c-4b91-a5ea-82b3c6d6127d","ios":"levelo://app?vid=7c5a83ac-336c-4b91-a5ea-82b3c6d6127d"},"vehicle_type_id":"4","last_reported":1700968033,"current_range_meters":31200,"station_id":"ce4bhpp2rcd13ifvqhfg","pricing_plan_id":"free"},{"bike_id":"8af0d2ed-93d1-485d-9803-40c71e52d0d9","system_id":"levelo_inurba_marseille","lat":43.29902,"lon":5.43676,"is_reserved":false,"is_disabled":false,"rental_uris":{"android":"levelo://app?vid=8af0d2ed-93d1-485d-9803-40c71e52d0d9","ios":"levelo://app?vid=8af0d2ed-93d1-485d-9803-40c71e52d0d9"},"vehicle_type_id":"4","last_reported":1700968033,"current_range_meters":10800,"station_id":"ce4bhpp2rcd13ifvqhfg","pricing_plan_id":"free"},{"bike_id":"dc0c3350-5dd6-44a3-9302-c3102229fc54","system_id":"levelo_inurba_marseille","lat":43.281548,"lon":5.42643,"is_reserved":false,"is_disabled":false,"rental_uris":{"android":"levelo://app?vid=dc0c3350-5dd6-44a3-9302-c3102229fc54","ios":"levelo://app?vid=dc0c3350-5dd6-44a3-9302-c3102229fc54"},"vehicle_type_id":"4","last_reported":1700968033,"current_range_meters":20800,"station_id":"ce4bhnh2rcd13ifvqgug","pricing_plan_id":"free"},{"bike_id":"91b404f7-dd69-4e65-9cf1-9f90fef0012e","system_id":"levelo_inurba_marseille","lat":43.28153,"lon":5.4264,"is_reserved":false,"is_disabled":false,"rental_uris":{"android":"levelo://app?vid=91b404f7-dd69-4e65-9cf1-9f90fef0012e","ios":"levelo://app?vid=91b404f7-dd69-4e65-9cf1-9f90fef0012e"},"vehicle_type_id":"4","last_reported":1700968033,"current_range_meters":4000,"station_id":"ce4bhnh2rcd13ifvqgug","pricing_plan_id":"free"},{"bike_id":"1c8d74f7-5570-450a-a3f0-692cd9a40004","system_id":"levelo_inurba_marseille","lat":43.281548,"lon":5.42643,"is_reserved":false,"is_disabled":false,"rental_uris":{"android":"levelo://app?vid=1c8d74f7-5570-450a-a3f0-692cd9a40004","ios":"levelo://app?vid=1c8d74f7-5570-450a-a3f0-692cd9a40004"},"vehicle_type_id":"4","last_reported":1700968033,"current_range_meters":30000,"station_id":"ce4bhnh2rcd13ifvqgug","pricing_plan_id":"free"},{"bike_id":"367e8973-d4cf-45d7-86e6-c58ab5e369c7","system_id":"levelo_inurba_marseille","lat":43.2607,"lon":5.393983,"is_reserved":false,"is_disabled":false,"rental_uris":{"android":"levelo://app?vid=367e8973-d4cf-45d7-86e6-c58ab5e369c7","ios":"levelo://app?vid=367e8973-d4cf-45d7-86e6-c58ab5e369c7"},"vehicle_type_id":"4","last_reported":1700968033,"current_range_meters":11600,"station_id":"ce4bhh92rcd13ifvqfj0","pricing_plan_id":"free"},{"bike_id":"25f53fe9-442d-4a6b-bff7-b174c2430662","system_id":"levelo_inurba_marseille","lat":43.2607,"lon":5.393983,"is_reserved":false,"is_disabled":false,"rental_uris":{"android":"levelo://app?vid=25f53fe9-442d-4a6b-bff7-b174c2430662","ios":"levelo://app?vid=25f53fe9-442d-4a6b-bff7-b174c2430662"},"vehicle_type_id":"4","last_reported":1700968033,"current_range_meters":25600,"station_id":"ce4bhh92rcd13ifvqfj0","pricing_plan_id":"free"},{"bike_id":"8c98fc60-bfce-4622-8c56-f37c184197a6","system_id":"levelo_inurba_marseille","lat":43.260909,"lon":5.397591,"is_reserved":false,"is_disabled":false,"rental_uris":{"android":"levelo://app?vid=8c98fc60-bfce-4622-8c56-f37c184197a6","ios":"levelo://app?vid=8c98fc60-bfce-4622-8c56-f37c184197a6"},"vehicle_type_id":"4","last_reported":1700968033,"current_range_meters":4400,"station_id":"ce4bhi12rcd13ifvqfq0","pricing_plan_id":"free"},{"bike_id":"e2482bab-1eb4-4a6f-b7fd-75767a4a3271","system_id":"levelo_inurba_marseille","lat":43.275028,"lon":5.424534,"is_reserved":false,"is_disabled":false,"rental_uris":{"android":"levelo://app?vid=e2482bab-1eb4-4a6f-b7fd-75767a4a3271","ios":"levelo://app?vid=e2482bab-1eb4-4a6f-b7fd-75767a4a3271"},"vehicle_type_id":"4","last_reported":1700968033,"current_range_meters":28000,"station_id":"ce4bhn92rcd13ifvqgrg","pricing_plan_id":"free"},{"bike_id":"783e5a08-5c76-48d6-b5a2-4da09393953f","system_id":"levelo_inurba_marseille","lat":43.26089,"lon":5.39761,"is_reserved":false,"is_disabled":false,"rental_uris":{"android":"levelo://app?vid=783e5a08-5c76-48d6-b5a2-4da09393953f","ios":"levelo://app?vid=783e5a08-5c76-48d6-b5a2-4da09393953f"},"vehicle_type_id":"4","last_reported":1700968033,"current_range_meters":10000,"station_id":"ce4bhi12rcd13ifvqfq0","pricing_plan_id":"free"},{"bike_id":"c85f7616-3a9e-47a4-ae16-28a03e51ab4f","system_id":"levelo_inurba_marseille","lat":43.289285,"lon":5.438759,"is_reserved":false,"is_disabled":false,"rental_uris":{"android":"levelo://app?vid=c85f7616-3a9e-47a4-ae16-28a03e51ab4f","ios":"levelo://app?vid=c85f7616-3a9e-47a4-ae16-28a03e51ab4f"},"vehicle_type_id":"4","last_reported":1700968033,"current_range_meters":9200,"station_id":"","pricing_plan_id":"free"},{"bike_id":"53ae05c5-1664-4ddb-ae58-547f63e25710","system_id":"levelo_inurba_marseille","lat":43.25829,"lon":5.39427,"is_reserved":false,"is_disabled":false,"rental_uris":{"android":"levelo://app?vid=53ae05c5-1664-4ddb-ae58-547f63e25710","ios":"levelo://app?vid=53ae05c5-1664-4ddb-ae58-547f63e25710"},"vehicle_type_id":"4","last_reported":1700968033,"current_range_meters":28400,"station_id":"ce4bhip2rcd13ifvqft0","pricing_plan_id":"free"},{"bike_id":"50212635-4160-4083-b7f4-667edaba123a","system_id":"levelo_inurba_marseille","lat":43.25823,"lon":5.39442,"is_reserved":false,"is_disabled":false,"rental_uris":{"android":"levelo://app?vid=50212635-4160-4083-b7f4-667edaba123a","ios":"levelo://app?vid=50212635-4160-4083-b7f4-667edaba123a"},"vehicle_type_id":"4","last_reported":1700968033,"current_range_meters":12800,"station_id":"ce4bhip2rcd13ifvqft0","pricing_plan_id":"free"},{"bike_id":"53a2b5f6-8a7c-44f6-9c48-10e16f09123d","system_id":"levelo_inurba_marseille","lat":43.255085,"lon":5.376485,"is_reserved":false,"is_disabled":false,"rental_uris":{"android":"levelo://app?vid=53a2b5f6-8a7c-44f6-9c48-10e16f09123d","ios":"levelo://app?vid=53a2b5f6-8a7c-44f6-9c48-10e16f09123d"},"vehicle_type_id":"4","last_reported":1700968033,"current_range_meters":25200,"station_id":"ce4bhh12rcd13ifvqff0","pricing_plan_id":"free"},{"bike_id":"117768a1-b0ac-46a9-b40f-e30b20e5f56f","system_id":"levelo_inurba_marseille","lat":43.258224,"lon":5.394369,"is_reserved":false,"is_disabled":false,"rental_uris":{"android":"levelo://app?vid=117768a1-b0ac-46a9-b40f-e30b20e5f56f","ios":"levelo://app?vid=117768a1-b0ac-46a9-b40f-e30b20e5f56f"},"vehicle_type_id":"4","last_reported":1700968033,"current_range_meters":30400,"station_id":"ce4bhip2rcd13ifvqft0","pricing_plan_id":"free"},{"bike_id":"4b1a6838-7bca-4929-8376-58411a6bee6c","system_id":"levelo_inurba_marseille","lat":43.258224,"lon":5.394369,"is_reserved":false,"is_disabled":false,"rental_uris":{"android":"levelo://app?vid=4b1a6838-7bca-4929-8376-58411a6bee6c","ios":"levelo://app?vid=4b1a6838-7bca-4929-8376-58411a6bee6c"},"vehicle_type_id":"4","last_reported":1700968033,"current_range_meters":22800,"station_id":"ce4bhip2rcd13ifvqft0","pricing_plan_id":"free"},{"bike_id":"961bdb1a-b343-4d48-bf27-c6c6c83fed5b","system_id":"levelo_inurba_marseille","lat":43.25493,"lon":5.37648,"is_reserved":false,"is_disabled":false,"rental_uris":{"android":"levelo://app?vid=961bdb1a-b343-4d48-bf27-c6c6c83fed5b","ios":"levelo://app?vid=961bdb1a-b343-4d48-bf27-c6c6c83fed5b"},"vehicle_type_id":"4","last_reported":1700968033,"current_range_meters":23600,"station_id":"ce4bhh12rcd13ifvqff0","pricing_plan_id":"free"},{"bike_id":"f14e1efb-7f95-4b76-a1f3-3242ec7da903","system_id":"levelo_inurba_marseille","lat":43.2549,"lon":5.37646,"is_reserved":false,"is_disabled":false,"rental_uris":{"android":"levelo://app?vid=f14e1efb-7f95-4b76-a1f3-3242ec7da903","ios":"levelo://app?vid=f14e1efb-7f95-4b76-a1f3-3242ec7da903"},"vehicle_type_id":"4","last_reported":1700968033,"current_range_meters":30000,"station_id":"ce4bhh12rcd13ifvqff0","pricing_plan_id":"free"},{"bike_id":"66c4c4bb-d029-41d1-b91a-0c0922bc45c0","system_id":"levelo_inurba_marseille","lat":43.2549,"lon":5.3765,"is_reserved":false,"is_disabled":false,"rental_uris":{"android":"levelo://app?vid=66c4c4bb-d029-41d1-b91a-0c0922bc45c0","ios":"levelo://app?vid=66c4c4bb-d029-41d1-b91a-0c0922bc45c0"},"vehicle_type_id":"4","last_reported":1700968033,"current_range_meters":23600,"station_id":"ce4bhh12rcd13ifvqff0","pricing_plan_id":"free"},