{"last_updated":1740759126,"ttl":60,"version":"2.2","data":{"bikes":[{"bike_id":"4ee39fff-b27b-4743-8569-2cfb4bde637f","system_id":"levelo_inurba_marseille","lat":43.29526,"lon":5.39032,"is_reserved":false,"is_disabled":false,"rental_uris":{"android":"levelo://app?vid=4ee39fff-b27b-4743-8569-2cfb4bde637f","ios":"levelo://app?vid=4ee39fff-b27b-4743-8569-2cfb4bde637f"},"vehicle_type_id":"4","last_reported":1740759126,"current_range_meters":2800,"station_id":"ce4bh3p2rcd13ifvqdp0","pricing_plan_id":"cebpf4jnsgd1na2vs0mg"},{"bike_id":"2a96978a-b7da-42ea-a5c9-306cc325ca4a","system_id":"levelo_inurba_marseille","lat":43.27057,"lon":5.40262,"is_reserved":false,"is_disabled":false,"rental_uris":{"android":"levelo://app?vid=2a96978a-b7da-42ea-a5c9-306cc325ca4a","ios":"levelo://app?vid=2a96978a-b7da-42ea-a5c9-306cc325ca4a"},"vehicle_type_id":"4","last_reported":1740759126,"current_range_meters":3600,"station_id":"ce4bhk92rcd13ifvqgc0","pricing_plan_id":"cebpf4jnsgd1na2vs0mg"},{"bike_id":"052e7155-38b6-4fac-a2f3-8e4a9157e3a0","system_id":"levelo_inurba_marseille","lat":43.29848,"lon":5.36285,"is_reserved":false,"is_disabled":false,"rental_uris":{"android":"levelo://app?vid=052e7155-38b6-4fac-a2f3-8e4a9157e3a0","ios":"levelo://app?vid=052e7155-38b6-4fac-a2f3-8e4a9157e3a0"},"vehicle_type_id":"4","last_reported":1740759126,"current_range_meters":2800,"station_id":"ce4bgpp2rcd13ifvqc3g","pricing_plan_id":"cebpf4jnsgd1na2vs0mg"},{"bike_id":"37bea397-fa57-4def-a9b6-74deb349c456","system_id":"levelo_inurba_marseille","lat":43.28417,"lon":5.34981,"is_reserved":false,"is_disabled":false,"rental_uris":{"android":"levelo://app?vid=37bea397-fa57-4def-a9b6-74deb349c456","ios":"levelo://app?vid=37bea397-fa57-4def-a9b6-74deb349c456"},"vehicle_type_id":"4","last_reported":1740759126,"current_range_meters":3200,"station_id":"ce4bhbh2rcd13ifvqepg","pricing_plan_id":"cebpf4jnsgd1na2vs0mg"},{"bike_id":"b9d6b7df-0e4c-4e6a-94ef-2ff28d44d7d7","system_id":"levelo_inurba_marseille","lat":43.30547,"lon":5.36561,"is_reserved":false,"is_disabled":false,"rental_uris":{"android":"levelo://app?vid=b9d6b7df-0e4c-4e6a-94ef-2ff28d44d7d7","ios":"levelo://app?vid=b9d6b7df-0e4c-4e6a-94ef-2ff28d44d7d7"},"vehicle_type_id":"4","last_reported":1740759126,"current_range_meters":2800,"station_id":"ce4bgs12rcd13ifvqcag","pricing_plan_id":"cebpf4jnsgd1na2vs0mg"},{"bike_id":"acf603c1-74de-4092-849c-15e71d6205b7","system_id":"levelo_inurba_marseille","lat":43.30255,"lon":5.40069,"is_reserved":false,"is_disabled":false,"rental_uris":{"android":"levelo://app?vid=acf603c1-74de-4092-849c-15e71d6205b7","ios":"levelo://app?vid=acf603c1-74de-4092-849c-15e71d6205b7"},"vehicle_type_id":"4","last_reported":1740759126,"current_range_meters":3200,"station_id":"ce4bgvh2rcd13ifvqcs0","pricing_plan_id":"cebpf4jnsgd1na2vs0mg"},{"bike_id":"17635321-397b-4f8b-9d46-58a5891c7b21","system_id":"levelo_inurba_marseille","lat":43.28091,"lon":5.39663,"is_reserved":false,"is_disabled":false,"rental_uris":{"android":"levelo://app?vid=17635321-397b-4f8b-9d46-58a5891c7b21","ios":"levelo://app?vid=17635321-397b-4f8b-9d46-58a5891c7b21"},"vehicle_type_id":"4","last_reported":1740759126,"current_range_meters":3600,"station_id":"ce4bho12rcd13ifvqh2g","pricing_plan_id":"cebpf4jnsgd1na2vs0mg"},{"bike_id":"cfb5856f-4a64-4c06-bb85-c8ebb759201f","system_id":"levelo_inurba_marseille","lat":43.30133,"lon":5.39854,"is_reserved":false,"is_disabled":false,"rental_uris":{"android":"levelo://app?vid=cfb5856f-4a64-4c06-bb85-c8ebb759201f","ios":"levelo://app?vid=cfb5856f-4a64-4c06-bb85-c8ebb759201f"},"vehicle_type_id":"4","last_reported":1740759126,"current_range_meters":3200,"station_id":"ce4bh0h2rcd13ifvqd40","pricing_plan_id":"cebpf4jnsgd1na2vs0mg"},{"bike_id":"04c442cf-701c-4ad8-8ba5-10da13e974b0","system_id":"levelo_inurba_marseille","lat":43.25581,"lon":5.38237,"is_reserved":false,"is_disabled":false,"rental_uris":{"android":"levelo://app?vid=04c442cf-701c-4ad8-8ba5-10da13e974b0","ios":"levelo://app?vid=04c442cf-701c-4ad8-8ba5-10da13e974b0"},"vehicle_type_id":"4","last_reported":1740759126,"current_range_meters":1600,"station_id":"ce4bhih2rcd13ifvqfs0","pricing_plan_id":"cebpf4jnsgd1na2vs0mg"},{"bike_id":"9cb1fa66-fb96-40c1-85ed-480d914e4fc2","system_id":"levelo_inurba_marseille","lat":43.29965,"lon":5.38495,"is_reserved":false,"is_disabled":false,"rental_uris":{"android":"levelo://app?vid=9cb1fa66-fb96-40c1-85ed-480d914e4fc2","ios":"levelo://app?vid=9cb1fa66-fb96-40c1-85ed-480d914e4fc2"},"vehicle_type_id":"4","last_reported":1740759126,"current_range_meters":3600,"station_id":"ce4bgj92rcd13ifvqbd0","pricing_plan_id":"cebpf4jnsgd1na2vs0mg"},{"bike_id":"5d4443d1-53d6-4586-a359-0f5ad66293cd","system_id":"levelo_inurba_marseille","lat":43.33024,"lon":5.39039,"is_reserved":false,"is_disabled":false,"rental_uris":{"android":"levelo://app?vid=5d4443d1-53d6-4586-a359-0f5ad66293cd","ios":"levelo://app?vid=5d4443d1-53d6-4586-a359-0f5ad66293cd"},"vehicle_type_id":"4","last_reported":1740759126,"current_range_meters":3600,"station_id":"ce4bhr92rcd13ifvqhrg","pricing_plan_id":"cebpf4jnsgd1na2vs0mg"},{"bike_id":"3a0aa9aa-1964-453c-aebc-1c7c9b8d1cf4","system_id":"levelo_inurba_marseille","lat":43.27925,"lon":5.39585,"is_reserved":false,"is_disabled":false,"rental_uris":{"android":"levelo://app?vid=3a0aa9aa-1964-453c-aebc-1c7c9b8d1cf4","ios":"levelo://app?vid=3a0aa9aa-1964-453c-aebc-1c7c9b8d1cf4"},"vehicle_type_id":"4","last_reported":1740759126,"current_range_meters":4400,"station_id":"ce4bhf92rcd13ifvqf40","pricing_plan_id":"cebpf4jnsgd1na2vs0mg"},{"bike_id":"3c171416-652e-4f74-bf12-0004738d0aed","system_id":"levelo_inurba_marseille","lat":43.30546,"lon":5.36561,"is_reserved":false,"is_disabled":false,"rental_uris":{"android":"levelo://app?vid=3c171416-652e-4f74-bf12-0004738d0aed","ios":"levelo://app?vid=3c171416-652e-4f74-bf12-0004738d0aed"},"vehicle_type_id":"4","last_reported":1740759126,"current_range_meters":4400,"station_id":"ce4bgs12rcd13ifvqcag","pricing_plan_id":"cebpf4jnsgd1na2vs0mg"},{"bike_id":"80c7b970-6455-470a-89d9-c60746c3905f","system_id":"levelo_inurba_marseille","lat":43.25586,"lon":5.38237,"is_reserved":false,"is_disabled":false,"rental_uris":{"android":"levelo://app?vid=80c7b970-6455-470a-89d9-c60746c3905f","ios":"levelo://app?vid=80c7b970-6455-470a-89d9-c60746c3905f"},"vehicle_type_id":"4","last_reported":1740759126,"current_range_meters":4400,"station_id":"ce4bhih2rcd13ifvqfs0","pricing_plan_id":"cebpf4jnsgd1na2vs0mg"},{"bike_id":"ae97e652-e9d7-4a94-bf72-aaa7f8dc405a","system_id":"levelo_inurba_marseille","lat":43.26213,"lon":5.37441,"is_reserved":false,"is_disabled":false,"rental_uris":{"android":"levelo://app?vid=ae97e652-e9d7-4a94-bf72-aaa7f8dc405a","ios":"levelo://app?vid=ae97e652-e9d7-4a94-bf72-aaa7f8dc405a"},"vehicle_type_id":"4","last_reported":1740759126,"current_range_meters":4400,"station_id":"ce4bhgp2rcd13ifvqfc0","pricing_plan_id":"cebpf4jnsgd1na2vs0mg"},{"bike_id":"daa9d4a0-6bd8-4e04-b1cb-d79b0ecd62f6","system_id":"levelo_inurba_marseille","lat":43.30937,"lon":5.40142,"is_reserved":false,"is_disabled":false,"rental_uris":{"android":"levelo://app?vid=daa9d4a0-6bd8-4e04-b1cb-d79b0ecd62f6","ios":"levelo://app?vid=daa9d4a0-6bd8-4e04-b1cb-d79b0ecd62f6"},"vehicle_type_id":"4","last_reported":1740759126,"current_range_meters":4400,"station_id":"ce4bgvp2rcd13ifvqct0","pricing_plan_id":"cebpf4jnsgd1na2vs0mg"},{"bike_id":"1b101da6-3c00-40c0-b603-ed73fed001e4","system_id":"levelo_inurba_marseille","lat":43.28937,"lon":5.36403,"is_reserved":false,"is_disabled":false,"rental_uris":{"android":"levelo://app?vid=1b101da6-3c00-40c0-b603-ed73fed001e4","ios":"levelo://app?vid=1b101da6-3c00-40c0-b603-ed73fed001e4"},"vehicle_type_id":"4","last_reported":1740759126,"current_range_meters":4000,"station_id":"ce4bhc92rcd13ifvqetg","pricing_plan_id":"cebpf4jnsgd1na2vs0mg"},{"bike_id":"5b7dff33-3897-453e-8549-1a6e9c2dc1be","system_id":"levelo_inurba_marseille","lat":43.25578,"lon":5.38246,"is_reserved":false,"is_disabled":false,"rental_uris":{"android":"levelo://app?vid=5b7dff33-3897-453e-8549-1a6e9c2dc1be","ios":"levelo://app?vid=5b7dff33-3897-453e-8549-1a6e9c2dc1be"},"vehicle_type_id":"4","last_reported":1740759126,"current_range_meters":4400,"station_id":"ce4bhih2rcd13ifvqfs0","pricing_plan_id":"cebpf4jnsgd1na2vs0mg"},{"bike_id":"7ed8461b-5b28-429f-af19-da73f6f210d5","system_id":"levelo_inurba_marseille","lat":43.24068,"lon":5.37729,"is_reserved":false,"is_disabled":false,"rental_uris":{"android":"levelo://app?vid=7ed8461b-5b28-429f-af19-da73f6f210d5","ios":"levelo://app?vid=7ed8461b-5b28-429f-af19-da73f6f210d5"},"vehicle_type_id":"4","last_reported":1740759126,"current_range_meters":3200,"station_id":"ce4bhnp2rcd13ifvqgvg","pricing_plan_id":"cebpf4jnsgd1na2vs0mg"},{"bike_id":"a118fbfb-c944-47d8-9b97-a7c30d9e0ed0","system_id":"levelo_inurba_marseille","lat":43.29414,"lon":5.38638,"is_reserved":false,"is_disabled":false,"rental_uris":{"android":"levelo://app?vid=a118fbfb-c944-47d8-9b97-a7c30d9e0ed0","ios":"levelo://app?vid=a118fbfb-c944-47d8-9b97-a7c30d9e0ed0"},"vehicle_type_id":"4","last_reported":1740759126,"current_range_meters":4800,"station_id":"ce4bh2h2rcd13ifvqdh0","pricing_plan_id":"cebpf4jnsgd1na2vs0mg"},{"bike_id":"eaa05c80-3239-4a5a-a543-d6030765e912","system_id":"levelo_inurba_marseille","lat":43.27207,"lon":5.39173,"is_reserved":false,"is_disabled":false,"rental_uris":{"android":"levelo://app?vid=eaa05c80-3239-4a5a-a543-d6030765e912","ios":"levelo://app?vid=eaa05c80-3239-4a5a-a543-d6030765e912"},"vehicle_type_id":"4","last_reported":1740759126,"current_range_meters":4400,"station_id":"ce4bhhp2rcd13ifvqfm0","pricing_plan_id":"cebpf4jnsgd1na2vs0mg"},{"bike_id":"1c969825-c3bf-446b-b0c8-1ed557834a24","system_id":"levelo_inurba_marseille","lat":43.28458,"lon":5.359,"is_reserved":false,"is_disabled":false,"rental_uris":{"android":"levelo://app?vid=1c969825-c3bf-446b-b0c8-1ed557834a24","ios":"levelo://app?vid=1c969825-c3bf-446b-b0c8-1ed557834a24"},"vehicle_type_id":"4","last_reported":1740759126,"current_range_meters":3600,"station_id":"ce4bhah2rcd13ifvqei0","pricing_plan_id":"cebpf4jnsgd1na2vs0mg"},{"bike_id":"8a72fd36-7518-4e8b-90c3-294112d9307e","system_id":"levelo_inurba_marseille","lat":43.24732,"lon":5.41157,"is_reserved":false,"is_disabled":false,"rental_uris":{"android":"levelo://app?vid=8a72fd36-7518-4e8b-90c3-294112d9307e","ios":"levelo://app?vid=8a72fd36-7518-4e8b-90c3-294112d9307e"},"vehicle_type_id":"4","last_reported":1740759126,"current_range_meters":4800,"station_id":"","pricing_plan_id":"cebpf4jnsgd1na2vs0mg"},{"bike_id":"cb9b079b-11df-4735-9119-555bb7076b9c","system_id":"levelo_inurba_marseille","lat":43.25567,"lon":5.37667,"is_reserved":false,"is_disabled":false,"rental_uris":{"android":"levelo://app?vid=cb9b079b-11df-4735-9119-555bb7076b9c","ios":"levelo://app?vid=cb9b079b-11df-4735-9119-555bb7076b9c"},"vehicle_type_id":"4","last_reported":1740759126,"current_range_meters":4800,"station_id":"ce4bhh12rcd13ifvqff0","pricing_plan_id":"cebpf4jnsgd1na2vs0mg"},{"bike_id":"c484075f-ac43-4599-98bb-44d2467df493","system_id":"levelo_inurba_marseille","lat":43.25575,"lon":5.3825,"is_reserved":false,"is_disabled":false,"rental_uris":{"android":"levelo://app?vid=c484075f-ac43-4599-98bb-44d2467df493","ios":"levelo://app?vid=c484075f-ac43-4599-98bb-44d2467df493"},"vehicle_type_id":"4","last_reported":1740759126,"current_range_meters":4800,"station_id":"ce4bhih2rcd13ifvqfs0","pricing_plan_id":"cebpf4jnsgd1na2vs0mg"},{"bike_id":"370ecdde-0446-4381-b5a9-aecdb141fe4b","system_id":"levelo_inurba_marseille","lat":43.2583,"lon":5.39434,"is_reserved":false,"is_disabled":false,"rental_uris":{"android":"levelo://app?vid=370ecdde-0446-4381-b5a9-aecdb141fe4b","ios":"levelo://app?vid=370ecdde-0446-4381-b5a9-aecdb141fe4b"},"vehicle_type_id":"4","last_reported":1740759126,"current_range_meters":5600,"station_id":"ce4bhip2rcd13ifvqft0","pricing_plan_id":"cebpf4jnsgd1na2vs0mg"},{"bike_id":"509ca4f1-ebea-4eca-8d27-a259d10872b4","system_id":"levelo_inurba_marseille","lat":43.2857,"lon":5.39501,"is_reserved":false,"is_disabled":false,"rental_uris":{"android":"levelo://app?vid=509ca4f1-ebea-4eca-8d27-a259d10872b4","ios":"levelo://app?vid=509ca4f1-ebea-4eca-8d27-a259d10872b4"},"vehicle_type_id":"4","last_reported":1740759126,"current_range_meters":6000,"station_id":"ce4bh292rcd13ifvqdg0","pricing_plan_id":"cebpf4jnsgd1na2vs0mg"},{"bike_id":"4b7e929d-3f2c-431b-9339-e85d55368cd8","system_id":"levelo_inurba_marseille","lat":43.25003,"lon":5.38938,"is_reserved":false,"is_disabled":false,"rental_uris":{"android":"levelo://app?vid=4b7e929d-3f2c-431b-9339-e85d55368cd8","ios":"levelo://app?vid=4b7e929d-3f2c-431b-9339-e85d55368cd8"},"vehicle_type_id":"4","last_reported":1740759126,"current_range_meters":5600,"station_id":"ce4bhgp2rcd13ifvqfd0","pricing_plan_id":"cebpf4jnsgd1na2vs0mg"},{"bike_id":"3213d89e-51d9-44b4-9b5d-0d1fc0990b7d","system_id":"levelo_inurba_marseille","lat":43.27379,"lon":5.36248,"is_reserved":false,"is_disabled":false,"rental_uris":{"android":"levelo://app?vid=3213d89e-51d9-44b4-9b5d-0d1fc0990b7d","ios":"levelo://app?vid=3213d89e-51d9-44b4-9b5d-0d1fc0990b7d"},"vehicle_type_id":"4","last_reported":1740759126,"current_range_meters":6000,"station_id":"ce4bhbh2rcd13ifvqeo0","pricing_plan_id":"cebpf4jnsgd1na2vs0mg"},{"bike_id":"3085d7dd-37e8-452f-8724-1834265d4581","system_id":"levelo_inurba_marseille","lat":43.28158,"lon":5.42643,"is_reserved":false,"is_disabled":false,"rental_uris":{"android":"levelo://app?vid=3085d7dd-37e8-452f-8724-1834265d4581","ios":"levelo://app?vid=3085d7dd-37e8-452f-8724-1834265d4581"},"vehicle_type_id":"4","last_reported":1740759126,"current_range_meters":4000,"station_id":"ce4bhnh2rcd13ifvqgug","pricing_plan_id":"cebpf4jnsgd1na2vs0mg"},{"bike_id":"8dea0861-aa39-4e67-8048-48c592f4b141","system_id":"levelo_inurba_marseille","lat":43.279968,"lon":5.400172,"is_reserved":false,"is_disabled":false,"rental_uris":{"android":"levelo://app?vid=8dea0861-aa39-4e67-8048-48c592f4b141","ios":"levelo://app?vid=8dea0861-aa39-4e67-8048-48c592f4b141"},"vehicle_type_id":"4","last_reported":1740759126,"current_range_meters":6000,"station_id":"ce4bhmp2rcd13ifvqgog","pricing_plan_id":"cebpf4jnsgd1na2vs0mg"},{"bike_id":"1b364542-e2fa-4bd4-8564-b0ee373e71fe","system_id":"levelo_inurba_marseille","lat":43.23065,"lon":5.35502,"is_reserved":false,"is_disabled":false,"rental_uris":{"android":"levelo://app?vid=1b364542-e2fa-4bd4-8564-b0ee373e71fe","ios":"levelo://app?vid=1b364542-e2fa-4bd4-8564-b0ee373e71fe"},"vehicle_type_id":"4","last_reported":1740759126,"current_range_meters":6000,"station_id":"cpo3342slgdg3j2ifvpg","pricing_plan_id":"cebpf4jnsgd1na2vs0mg"},{"bike_id":"a402dcb0-63b6-4569-b9e8-ad825500c3f8","system_id":"levelo_inurba_marseille","lat":43.29,"lon":5.35907,"is_reserved":false,"is_disabled":false,"rental_uris":{"android":"levelo://app?vid=a402dcb0-63b6-4569-b9e8-ad825500c3f8","ios":"levelo://app?vid=a402dcb0-63b6-4569-b9e8-ad825500c3f8"},"vehicle_type_id":"4","last_reported":1740759126,"current_range_meters":6000,"station_id":"","pricing_plan_id":"cebpf4jnsgd1na2vs0mg"},{"bike_id":"5da99650-a88e-4303-8cfe-b7e0c287fc65","system_id":"levelo_inurba_marseille","lat":43.2783,"lon":5.39224,"is_reserved":false,"is_disabled":false,"rental_uris":{"android":"levelo://app?vid=5da99650-a88e-4303-8cfe-b7e0c287fc65","ios":"levelo://app?vid=5da99650-a88e-4303-8cfe-b7e0c287fc65"},"vehicle_type_id":"4","last_reported":1740759126,"current_range_meters":6000,"station_id":"ce4bhjp2rcd13ifvqga0","pricing_plan_id":"cebpf4jnsgd1na2vs0mg"},{"bike_id":"ab3ffa84-2f1b-4718-9ff6-8420facdb27d","system_id":"levelo_inurba_marseille","lat":43.307847,"lon":5.376564,"is_reserved":false,"is_disabled":false,"rental_uris":{"android":"levelo://app?vid=ab3ffa84-2f1b-4718-9ff6-8420facdb27d","ios":"levelo://app?vid=ab3ffa84-2f1b-4718-9ff6-8420facdb27d"},"vehicle_type_id":"4","last_reported":1740759126,"current_range_meters":6400,"station_id":"ce4bgv92rcd13ifvqcq0","pricing_plan_id":"cebpf4jnsgd1na2vs0mg"},{"bike_id":"07540a8d-158c-47ac-b175-2d77bc4bac62","system_id":"levelo_inurba_marseille","lat":43.26567,"lon":5.3901,"is_reserved":false,"is_disabled":false,"rental_uris":{"android":"levelo://app?vid=07540a8d-158c-47ac-b175-2d77bc4bac62","ios":"levelo://app?vid=07540a8d-158c-47ac-b175-2d77bc4bac62"},"vehicle_type_id":"4","last_reported":1740759126,"current_range_meters":6400,"station_id":"ce4bhe12rcd13ifvqf30","pricing_plan_id":"cebpf4jnsgd1na2vs0mg"},{"bike_id":"0a29f1c2-e01f-4196-a8c3-0753baf00312","system_id":"levelo_inurba_marseille","lat":43.297621,"lon":5.36347,"is_reserved":false,"is_disabled":false,"rental_uris":{"android":"levelo://app?vid=0a29f1c2-e01f-4196-a8c3-0753baf00312","ios":"levelo://app?vid=0a29f1c2-e01f-4196-a8c3-0753baf00312"},"vehicle_type_id":"4","last_reported":1740759126,"current_range_meters":6800,"station_id":"ce4bgpp2rcd13ifvqc3g","pricing_plan_id":"cebpf4jnsgd1na2vs0mg"},{"bike_id":"8ccf6d3b-ce56-46b6-b151-1899a577d8c3","system_id":"levelo_inurba_marseille","lat":43.28042,"lon":5.36939,"is_reserved":false,"is_disabled":false,"rental_uris":{"android":"levelo://app?vid=8ccf6d3b-ce56-46b6-b151-1899a577d8c3","ios":"levelo://app?vid=8ccf6d3b-ce56-46b6-b151-1899a577d8c3"},"vehicle_type_id":"4","last_reported":1740759126,"current_range_meters":5600,"station_id":"ce4bha12rcd13ifvqef0","pricing_plan_id":"cebpf4jnsgd1na2vs0mg"},{"bike_id":"e61c558e-70bf-4486-b29e-74b2bb22ec44","system_id":"levelo_inurba_marseille","lat":43.25584,"lon":5.38249,"is_reserved":false,"is_disabled":false,"rental_uris":{"android":"levelo://app?vid=e61c558e-70bf-4486-b29e-74b2bb22ec44","ios":"levelo://app?vid=e61c558e-70bf-4486-b29e-74b2bb22ec44"},"vehicle_type_id":"4","last_reported":1740759126,"current_range_meters":6800,"station_id":"ce4bhih2rcd13ifvqfs0","pricing_plan_id":"cebpf4jnsgd1na2vs0mg"},{"bike_id":"c8dafd56-b283-404b-99de-3005dd323af3","system_id":"levelo_inurba_marseille","lat":43.29636,"lon":5.40589,"is_reserved":false,"is_disabled":false,"rental_uris":{"android":"levelo://app?vid=c8dafd56-b283-404b-99de-3005dd323af3","ios":"levelo://app?vid=c8dafd56-b283-404b-99de-3005dd323af3"},"vehicle_type_id":"4","last_reported":1740759126,"current_range_meters":9600,"station_id":"ce4bh0h2rcd13ifvqd60","pricing_plan_id":"cebpf4jnsgd1na2vs0mg"},{"bike_id":"b67f3b2c-7c9b-4e08-a4d6-93f89a78ad66","system_id":"levelo_inurba_marseille","lat":43.30931,"lon":5.40138,"is_reserved":false,"is_disabled":false,"rental_uris":{"android":"levelo://app?vid=b67f3b2c-7c9b-4e08-a4d6-93f89a78ad66","ios":"levelo://app?vid=b67f3b2c-7c9b-4e08-a4d6-93f89a78ad66"},"vehicle_type_id":"4","last_reported":1740759126,"current_range_meters":6800,"station_id":"ce4bgvp2rcd13ifvqct0","pricing_plan_id":"cebpf4jnsgd1na2vs0mg"},{"bike_id":"b6f26fb6-03c3-45f3-b0c6-a0cb94cbb008","system_id":"levelo_inurba_marseille","lat":43.26057,"lon":5.3939,"is_reserved":false,"is_disabled":false,"rental_uris":{"android":"levelo://app?vid=b6f26fb6-03c3-45f3-b0c6-a0cb94cbb008","ios":"levelo://app?vid=b6f26fb6-03c3-45f3-b0c6-a0cb94cbb008"},"vehicle_type_id":"4","last_reported":1740759126,"current_range_meters":6800,"station_id":"ce4bhh92rcd13ifvqfj0","pricing_plan_id":"cebpf4jnsgd1na2vs0mg"},{"bike_id":"fe0022cc-bec7-444b-972e-331f46376022","system_id":"levelo_inurba_marseille","lat":43.24166,"lon":5.36389,"is_reserved":false,"is_disabled":false,"rental_uris":{"android":"levelo://app?vid=fe0022cc-bec7-444b-972e-331f46376022","ios":"levelo://app?vid=fe0022cc-bec7-444b-972e-331f46376022"},"vehicle_type_id":"4","last_reported":1740759126,"current_range_meters":8800,"station_id":"cpo36qri1sfpv3e86is0","pricing_plan_id":"cebpf4jnsgd1na2vs0mg"},{"bike_id":"d53c3dfe-e117-4e50-a88b-41a49e0720b9","system_id":"levelo_inurba_marseille","lat":43.270611,"lon":5.402575,"is_reserved":false,"is_disabled":false,"rental_uris":{"android":"levelo://app?vid=d53c3dfe-e117-4e50-a88b-41a49e0720b9","ios":"levelo://app?vid=d53c3dfe-e117-4e50-a88b-41a49e0720b9"},"vehicle_type_id":"4","last_reported":1740759126,"current_range_meters":6800,"station_id":"ce4bhnh2rcd13ifvqgug","pricing_plan_id":"cebpf4jnsgd1na2vs0mg"},{"bike_id":"c3b9d76e-ecb5-4f62-9ef6-02fa1d8cf1ad","system_id":"levelo_inurba_marseille","lat":43.29001,"lon":5.35617,"is_reserved":false,"is_disabled":true,"rental_uris":{"android":"levelo://app?vid=c3b9d76e-ecb5-4f62-9ef6-02fa1d8cf1ad","ios":"levelo://app?vid=c3b9d76e-ecb5-4f62-9ef6-02fa1d8cf1ad"},"vehicle_type_id":"4","last_reported":1740759126,"current_range_meters":6800,"station_id":"ce4bhb92rcd13ifvqen0","pricing_plan_id":"cebpf4jnsgd1na2vs0mg"},{"bike_id":"6d86835a-6926-467d-bc3b-bf7db2410582","system_id":"levelo_inurba_marseille","lat":43.27182,"lon":5.40998,"is_reserved":false,"is_disabled":false,"rental_uris":{"android":"levelo://app?vid=6d86835a-6926-467d-bc3b-bf7db2410582","ios":"levelo://app?vid=6d86835a-6926-467d-bc3b-bf7db2410582"},"vehicle_type_id":"4","last_reported":1740759126,"current_range_meters":6800,"station_id":"ce4bhl12rcd13ifvqgf0","pricing_plan_id":"cebpf4jnsgd1na2vs0mg"},{"bike_id":"435cc12b-60b2-4fef-b94c-59941ba4cebb","system_id":"levelo_inurba_marseille","lat":43.27373,"lon":5.36252,"is_reserved":false,"is_disabled":false,"rental_uris":{"android":"levelo://app?vid=435cc12b-60b2-4fef-b94c-59941ba4cebb","ios":"levelo://app?vid=435cc12b-60b2-4fef-b94c-59941ba4cebb"},"vehicle_type_id":"4","last_reported":1740759126,"current_range_meters":6800,"station_id":"ce4bhbh2rcd13ifvqeo0","pricing_plan_id":"cebpf4jnsgd1na2vs0mg"},{"bike_id":"716ca9e9-f948-4094-a6ab-ab925bd4b584","system_id":"levelo_inurba_marseille","lat":43.31359,"lon":5.38501,"is_reserved":false,"is_disabled":false,"rental_uris":{"android":"levelo://app?vid=716ca9e9-f948-4094-a6ab-ab925bd4b584","ios":"levelo://app?vid=716ca9e9-f948-4094-a6ab-ab925bd4b584"},"vehicle_type_id":"4","last_reported":1740759126,"current_range_meters":7200,"station_id":"ce4bgt92rcd13ifvqcf0","pricing_plan_id":"cebpf4jnsgd1na2vs0mg"},{"bike_id":"ec031855-2230-4775-a1f2-ae87900ca78d","system_id":"levelo_inurba_marseille","lat":43.26565,"lon":5.39012,"is_reserved":false,"is_disabled":false,"rental_uris":{"android":"levelo://app?vid=ec031855-2230-4775-a1f2-ae87900ca78d","ios":"levelo://app?vid=ec031855-2230-4775-a1f2-ae87900ca78d"},"vehicle_type_id":"4","last_reported":1740759126,"current_range_meters":7200,"station_id":"ce4bhe12rcd13ifvqf30","pricing_plan_id":"cebpf4jnsgd1na2vs0mg"},{"bike_id":"5e0e22b0-e973-48d0-8bed-a771273f721a","system_id":"levelo_inurba_marseille","lat":43.27373,"lon":5.36249,"is_reserved":false,"is_disabled":false,"rental_uris":{"android":"levelo://app?vid=5e0e22b0-e973-48d0-8bed-a771273f721a","ios":"levelo://app?vid=5e0e22b0-e973-48d0-8bed-a771273f721a"},"vehicle_type_id":"4","last_reported":1740759126,"current_range_meters":7200,"station_id":"ce4bhbh2rcd13ifvqeo0","pricing_plan_id":"cebpf4jnsgd1na2vs0mg"},{"bike_id":"80e238ea-7cb5-4400-94eb-76b2a7e639f0","system_id":"levelo_inurba_marseille","lat":43.295231,"lon":5.400409,"is_reserved":false,"is_disabled":false,"rental_uris":{"android":"levelo://app?vid=80e238ea-7cb5-4400-94eb-76b2a7e639f0","ios":"levelo://app?vid=80e238ea-7cb5-4400-94eb-76b2a7e639f0"},"vehicle_type_id":"4","last_reported":1740759126,"current_range_meters":6800,"station_id":"ce4bh392rcd13ifvqdm0","pricing_plan_id":"cebpf4jnsgd1na2vs0mg"},{"bike_id":"048889bf-861b-45fc-8e8b-55d474c3801a","system_id":"levelo_inurba_marseille","lat":43.28614,"lon":5.35107,"is_reserved":false,"is_disabled":false,"rental_uris":{"android":"levelo://app?vid=048889bf-861b-45fc-8e8b-55d474c3801a","ios":"levelo://app?vid=048889bf-861b-45fc-8e8b-55d474c3801a"},"vehicle_type_id":"4","last_reported":1740759126,"current_range_meters":7200,"station_id":"ce4bhch2rcd13ifvqeug","pricing_plan_id":"cebpf4jnsgd1na2vs0mg"},{"bike_id":"96ff6840-2b82-41fd-af47-41fa0821682a","system_id":"levelo_inurba_marseille","lat":43.28416,"lon":5.34988,"is_reserved":false,"is_disabled":false,"rental_uris":{"android":"levelo://app?vid=96ff6840-2b82-41fd-af47-41fa0821682a","ios":"levelo://app?vid=96ff6840-2b82-41fd-af47-41fa0821682a"},"vehicle_type_id":"4","last_reported":1740759126,"current_range_meters":7200,"station_id":"ce4bhbh2rcd13ifvqepg","pricing_plan_id":"cebpf4jnsgd1na2vs0mg"},{"bike_id":"ecb70d6e-8b09-49f8-96e8-80e062633b66","system_id":"levelo_inurba_marseille","lat":43.27058,"lon":5.40266,"is_reserved":false,"is_disabled":false,"rental_uris":{"android":"levelo://app?vid=ecb70d6e-8b09-49f8-96e8-80e062633b66","ios":"levelo://app?vid=ecb70d6e-8b09-49f8-96e8-80e062633b66"},"vehicle_type_id":"4","last_reported":1740759126,"current_range_meters":7200,"station_id":"ce4bhk92rcd13ifvqgc0","pricing_plan_id":"cebpf4jnsgd1na2vs0mg"},{"bike_id":"8a2d62dd-e39a-41a5-a850-a0e1b6791dbb","system_id":"levelo_inurba_marseille","lat":43.25501,"lon":5.37652,"is_reserved":false,"is_disabled":false,"rental_uris":{"android":"levelo://app?vid=8a2d62dd-e39a-41a5-a850-a0e1b6791dbb","ios":"levelo://app?vid=8a2d62dd-e39a-41a5-a850-a0e1b6791dbb"},"vehicle_type_id":"4","last_reported":1740759126,"current_range_meters":7200,"station_id":"ce4bhh12rcd13ifvqff0","pricing_plan_id":"cebpf4jnsgd1na2vs0mg"},{"bike_id":"b33c190a-fc49-4acb-8f25-877ed5243ae1","system_id":"levelo_inurba_marseille","lat":43.26205,"lon":5.37931,"is_reserved":false,"is_disabled":false,"rental_uris":{"android":"levelo://app?vid=b33c190a-fc49-4acb-8f25-877ed5243ae1","ios":"levelo://app?vid=b33c190a-fc49-4acb-8f25-877ed5243ae1"},"vehicle_type_id":"4","last_reported":1740759126,"current_range_meters":7200,"station_id":"ce4bhjp2rcd13ifvqg90","pricing_plan_id":"cebpf4jnsgd1na2vs0mg"},{"bike_id":"ff908fac-19bb-4459-a8e4-d6a9c350f024","system_id":"levelo_inurba_marseille","lat":43.3149,"lon":5.37313,"is_reserved":false,"is_disabled":false,"rental_uris":{"android":"levelo://app?vid=ff908fac-19bb-4459-a8e4-d6a9c350f024","ios":"levelo://app?vid=ff908fac-19bb-4459-a8e4-d6a9c350f024"},"vehicle_type_id":"4","last_reported":1740759126,"current_range_meters":8000,"station_id":"ce4bgt12rcd13ifvqcd0","pricing_plan_id":"cebpf4jnsgd1na2vs0mg"},{"bike_id":"78612a89-f0e3-455e-8a4c-754f0d0cb807","system_id":"levelo_inurba_marseille","lat":43.27922,"lon":5.39579,"is_reserved":false,"is_disabled":false,"rental_uris":{"android":"levelo://app?vid=78612a89-f0e3-455e-8a4c-754f0d0cb807","ios":"levelo://app?vid=78612a89-f0e3-455e-8a4c-754f0d0cb807"},"vehicle_type_id":"4","last_reported":1740759126,"current_range_meters":8000,"station_id":"ce4bhf92rcd13ifvqf40","pricing_plan_id":"cebpf4jnsgd1na2vs0mg"},{"bike_id":"a3f907e4-b29f-4d10-a72d-c21422379d0d","system_id":"levelo_inurba_marseille","lat":43.29299,"lon":5.37471,"is_reserved":false,"is_disabled":false,"rental_uris":{"android":"levelo://app?vid=a3f907e4-b29f-4d10-a72d-c21422379d0d","ios":"levelo://app?vid=a3f907e4-b29f-4d10-a72d-c21422379d0d"},"vehicle_type_id":"4","last_reported":1740759126,"current_range_meters":8000,"station_id":"ce4bgi12rcd13ifvqb70","pricing_plan_id":"cebpf4jnsgd1na2vs0mg"},{"bike_id":"5342f9db-de66-46e5-834c-bf2b1a4263ef","system_id":"levelo_inurba_marseille","lat":43.25501,"lon":5.37653,"is_reserved":false,"is_disabled":false,"rental_uris":{"android":"levelo://app?vid=5342f9db-de66-46e5-834c-bf2b1a4263ef","ios":"levelo://app?vid=5342f9db-de66-46e5-834c-bf2b1a4263ef"},"vehicle_type_id":"4","last_reported":1740759126,"current_range_meters":8000,"station_id":"ce4bhh12rcd13ifvqff0","pricing_plan_id":"cebpf4jnsgd1na2vs0mg"},{"bike_id":"ddf4c189-cdc7-4208-a0e3-f769f5b5d1c5","system_id":"levelo_inurba_marseille","lat":43.31996,"lon":5.38154,"is_reserved":false,"is_disabled":false,"rental_uris":{"android":"levelo://app?vid=ddf4c189-cdc7-4208-a0e3-f769f5b5d1c5","ios":"levelo://app?vid=ddf4c189-cdc7-4208-a0e3-f769f5b5d1c5"},"vehicle_type_id":"4","last_reported":1740759126,"current_range_meters":8000,"station_id":"ce4bhr12rcd13ifvqhpg","pricing_plan_id":"cebpf4jnsgd1na2vs0mg"},{"bike_id":"d11369e5-d9cc-4e15-beeb-7bd8796ba68e","system_id":"levelo_inurba_marseille","lat":43.26506,"lon":5.39538,"is_reserved":false,"is_disabled":false,"rental_uris":{"android":"levelo://app?vid=d11369e5-d9cc-4e15-beeb-7bd8796ba68e","ios":"levelo://app?vid=d11369e5-d9cc-4e15-beeb-7bd8796ba68e"},"vehicle_type_id":"4","last_reported":1740759126,"current_range_meters":11200,"station_id":"ce4bhi12rcd13ifvqfq0","pricing_plan_id":"cebpf4jnsgd1na2vs0mg"},{"bike_id":"17ddbbb5-11e9-4dea-8d48-8df35a23e77a","system_id":"levelo_inurba_marseille","lat":43.31755,"lon":5.39011,"is_reserved":false,"is_disabled":false,"rental_uris":{"android":"levelo://app?vid=17ddbbb5-11e9-4dea-8d48-8df35a23e77a","ios":"levelo://app?vid=17ddbbb5-11e9-4dea-8d48-8df35a23e77a"},"vehicle_type_id":"4","last_reported":1740759126,"current_range_meters":8000,"station_id":"ce4bhqp2rcd13ifvqhng","pricing_plan_id":"cebpf4jnsgd1na2vs0mg"},{"bike_id":"0e07936b-b5f4-4ce0-90ff-73c063994f1c","system_id":"levelo_inurba_marseille","lat":43.30483,"lon":5.37245,"is_reserved":false,"is_disabled":false,"rental_uris":{"android":"levelo://app?vid=0e07936b-b5f4-4ce0-90ff-73c063994f1c","ios":"levelo://app?vid=0e07936b-b5f4-4ce0-90ff-73c063994f1c"},"vehicle_type_id":"4","last_reported":1740759126,"current_range_meters":8000,"station_id":"","pricing_plan_id":"cebpf4jnsgd1na2vs0mg"},{"bike_id":"f903fd24-6696-43fd-9b6e-a49dd31530b7","system_id":"levelo_inurba_marseille","lat":43.30803,"lon":5.43525,"is_reserved":false,"is_disabled":false,"rental_uris":{"android":"levelo://app?vid=f903fd24-6696-43fd-9b6e-a49dd31530b7","ios":"levelo://app?vid=f903fd24-6696-43fd-9b6e-a49dd31530b7"},"vehicle_type_id":"4","last_reported":1740759126,"current_range_meters":8000,"station_id":"ce4bhph2rcd13ifvqheg","pricing_plan_id":"cebpf4jnsgd1na2vs0mg"},{"bike_id":"fdc26cf8-4c46-4dde-9276-1d94fe9b6965","system_id":"levelo_inurba_marseille","lat":43.28575,"lon":5.39501,"is_reserved":false,"is_disabled":false,"rental_uris":{"android":"levelo://app?vid=fdc26cf8-4c46-4dde-9276-1d94fe9b6965","ios":"levelo://app?vid=fdc26cf8-4c46-4dde-9276-1d94fe9b6965"},"vehicle_type_id":"4","last_reported":1740759126,"current_range_meters":8400,"station_id":"ce4bh292rcd13ifvqdg0","pricing_plan_id":"cebpf4jnsgd1na2vs0mg"},{"bike_id":"b27b5b64-b7b6-4f00-bdfc-f60892f9a58d","system_id":"levelo_inurba_marseille","lat":43.24164,"lon":5.36401,"is_reserved":false,"is_disabled":false,"rental_uris":{"android":"levelo://app?vid=b27b5b64-b7b6-4f00-bdfc-f60892f9a58d","ios":"levelo://app?vid=b27b5b64-b7b6-4f00-bdfc-f60892f9a58d"},"vehicle_type_id":"4","last_reported":1740759126,"current_range_meters":8400,"station_id":"cpo36qri1sfpv3e86is0","pricing_plan_id":"cebpf4jnsgd1na2vs0mg"},{"bike_id":"3b99d266-05ba-4a0f-8f45-aa0b1ce40697","system_id":"levelo_inurba_marseille","lat":43.3236,"lon":5.36757,"is_reserved":false,"is_disabled":false,"rental_uris":{"android":"levelo://app?vid=3b99d266-05ba-4a0f-8f45-aa0b1ce40697","ios":"levelo://app?vid=3b99d266-05ba-4a0f-8f45-aa0b1ce40697"},"vehicle_type_id":"4","last_reported":1740759126,"current_range_meters":8400,"station_id":"ce4bhsh2rcd13ifvqi2g","pricing_plan_id":"cebpf4jnsgd1na2vs0mg"},{"bike_id":"5c25469b-1631-4741-b1e1-dae9887684a2","system_id":"levelo_inurba_marseille","lat":43.26224,"lon":5.40469,"is_reserved":false,"is_disabled":false,"rental_uris":{"android":"levelo://app?vid=5c25469b-1631-4741-b1e1-dae9887684a2","ios":"levelo://app?vid=5c25469b-1631-4741-b1e1-dae9887684a2"},"vehicle_type_id":"4","last_reported":1740759126,"current_range_meters":8400,"station_id":"ce4bhmh2rcd13ifvqgmg","pricing_plan_id":"cebpf4jnsgd1na2vs0mg"},{"bike_id":"d6aadf7f-6be1-4d99-b70f-4a0d1c881904","system_id":"levelo_inurba_marseille","lat":43.30307,"lon":5.392173,"is_reserved":false,"is_disabled":false,"rental_uris":{"android":"levelo://app?vid=d6aadf7f-6be1-4d99-b70f-4a0d1c881904","ios":"levelo://app?vid=d6aadf7f-6be1-4d99-b70f-4a0d1c881904"},"vehicle_type_id":"4","last_reported":1740759126,"current_range_meters":8400,"station_id":"ce4bgkh2rcd13ifvqbk0","pricing_plan_id":"cebpf4jnsgd1na2vs0mg"},{"bike_id":"417993eb-f97d-4cee-8eda-3343c91e4f27","system_id":"levelo_inurba_marseille","lat":43.27169,"lon":5.41,"is_reserved":false,"is_disabled":false,"rental_uris":{"android":"levelo://app?vid=417993eb-f97d-4cee-8eda-3343c91e4f27","ios":"levelo://app?vid=417993eb-f97d-4cee-8eda-3343c91e4f27"},"vehicle_type_id":"4","last_reported":1740759126,"current_range_meters":8400,"station_id":"ce4bhl12rcd13ifvqgf0","pricing_plan_id":"cebpf4jnsgd1na2vs0mg"},{"bike_id":"7a432bd5-2da0-4add-b76a-ae5d84affe03","system_id":"levelo_inurba_marseille","lat":43.2481,"lon":5.37461,"is_reserved":false,"is_disabled":false,"rental_uris":{"android":"levelo://app?vid=7a432bd5-2da0-4add-b76a-ae5d84affe03","ios":"levelo://app?vid=7a432bd5-2da0-4add-b76a-ae5d84affe03"},"vehicle_type_id":"4","last_reported":1740759126,"current_range_meters":8000,"station_id":"ce4bhgh2rcd13ifvqfb0","pricing_plan_id":"cebpf4jnsgd1na2vs0mg"},{"bike_id":"619398ee-1fd0-46aa-952b-9b70fed45d5f","system_id":"levelo_inurba_marseille","lat":43.27051,"lon":5.40268,"is_reserved":false,"is_disabled":false,"rental_uris":{"android":"levelo://app?vid=619398ee-1fd0-46aa-952b-9b70fed45d5f","ios":"levelo://app?vid=619398ee-1fd0-46aa-952b-9b70fed45d5f"},"vehicle_type_id":"4","last_reported":1740759126,"current_range_meters":8800,"station_id":"ce4bhk92rcd13ifvqgc0","pricing_plan_id":"cebpf4jnsgd1na2vs0mg"},{"bike_id":"be2ca7b8-1311-4410-83d1-baa0d471d1d8","system_id":"levelo_inurba_marseille","lat":43.28271,"lon":5.35063,"is_reserved":false,"is_disabled":false,"rental_uris":{"android":"levelo://app?vid=be2ca7b8-1311-4410-83d1-baa0d471d1d8","ios":"levelo://app?vid=be2ca7b8-1311-4410-83d1-baa0d471d1d8"},"vehicle_type_id":"4","last_reported":1740759126,"current_range_meters":8800,"station_id":"ce4bhbp2rcd13ifvqerg","pricing_plan_id":"cebpf4jnsgd1na2vs0mg"},{"bike_id":"c378f726-37cf-4c4e-9b89-d4c24e05d0ac","system_id":"levelo_inurba_marseille","lat":43.28415,"lon":5.3495,"is_reserved":false,"is_disabled":false,"rental_uris":{"android":"levelo://app?vid=c378f726-37cf-4c4e-9b89-d4c24e05d0ac","ios":"levelo://app?vid=c378f726-37cf-4c4e-9b89-d4c24e05d0ac"},"vehicle_type_id":"4","last_reported":1740759126,"current_range_meters":8800,"station_id":"ce4bhbh2rcd13ifvqepg","pricing_plan_id":"cebpf4jnsgd1na2vs0mg"},{"bike_id":"3941a5e0-6f28-463f-8438-cd3883ba70b3","system_id":"levelo_inurba_marseille","lat":43.2866,"lon":5.38664,"is_reserved":false,"is_disabled":false,"rental_uris":{"android":"levelo://app?vid=3941a5e0-6f28-463f-8438-cd3883ba70b3","ios":"levelo://app?vid=3941a5e0-6f28-463f-8438-cd3883ba70b3"},"vehicle_type_id":"4","last_reported":1740759126,"current_range_meters":8400,"station_id":"ce4bh492rcd13ifvqdug","pricing_plan_id":"cebpf4jnsgd1na2vs0mg"},{"bike_id":"fadd3e26-6605-45b6-87d1-543673adaa29","system_id":"levelo_inurba_marseille","lat":43.33013,"lon":5.39036,"is_reserved":false,"is_disabled":false,"rental_uris":{"android":"levelo://app?vid=fadd3e26-6605-45b6-87d1-543673adaa29","ios":"levelo://app?vid=fadd3e26-6605-45b6-87d1-543673adaa29"},"vehicle_type_id":"4","last_reported":1740759126,"current_range_meters":8800,"station_id":"ce4bhr92rcd13ifvqhrg","pricing_plan_id":"cebpf4jnsgd1na2vs0mg"},{"bike_id":"3de9aeda-1f9a-4bbc-8b90-e02a49e56ca9","system_id":"levelo_inurba_marseille","lat":43.23197,"lon":5.35548,"is_reserved":false,"is_disabled":false,"rental_uris":{"android":"levelo://app?vid=3de9aeda-1f9a-4bbc-8b90-e02a49e56ca9","ios":"levelo://app?vid=3de9aeda-1f9a-4bbc-8b90-e02a49e56ca9"},"vehicle_type_id":"4","last_reported":1740759126,"current_range_meters":9200,"station_id":"ce4bhu92rcd13ifvqi70","pricing_plan_id":"cebpf4jnsgd1na2vs0mg"},{"bike_id":"47396da2-bf87-4fce-97c6-45f5db16ddbd","system_id":"levelo_inurba_marseille","lat":43.26943,"lon":5.40251,"is_reserved":false,"is_disabled":false,"rental_uris":{"android":"levelo://app?vid=47396da2-bf87-4fce-97c6-45f5db16ddbd","ios":"levelo://app?vid=47396da2-bf87-4fce-97c6-45f5db16ddbd"},"vehicle_type_id":"4","last_reported":1740759126,"current_range_meters":9200,"station_id":"cjm6bp8fraef2m0cb0m0","pricing_plan_id":"cebpf4jnsgd1na2vs0mg"},{"bike_id":"829c3453-2f50-4404-a7a5-29640a840e5b","system_id":"levelo_inurba_marseille","lat":43.31174,"lon":5.38705,"is_reserved":false,"is_disabled":false,"rental_uris":{"android":"levelo://app?vid=829c3453-2f50-4404-a7a5-29640a840e5b","ios":"levelo://app?vid=829c3453-2f50-4404-a7a5-29640a840e5b"},"vehicle_type_id":"4","last_reported":1740759126,"current_range_meters":9200,"station_id":"ce4bgv12rcd13ifvqcp0","pricing_plan_id":"cebpf4jnsgd1na2vs0mg"},{"bike_id":"ee217386-0946-47bd-9a43-f40386822b31","system_id":"levelo_inurba_marseille","lat":43.3093,"lon":5.40137,"is_reserved":false,"is_disabled":false,"rental_uris":{"android":"levelo://app?vid=ee217386-0946-47bd-9a43-f40386822b31","ios":"levelo://app?vid=ee217386-0946-47bd-9a43-f40386822b31"},"vehicle_type_id":"4","last_reported":1740759126,"current_range_meters":9200,"station_id":"ce4bgvp2rcd13ifvqct0","pricing_plan_id":"cebpf4jnsgd1na2vs0mg"},{"bike_id":"18f0bd67-87d6-42b2-bdb0-4e44f6e9d712","system_id":"levelo_inurba_marseille","lat":43.26551,"lon":5.37297,"is_reserved":false,"is_disabled":false,"rental_uris":{"android":"levelo://app?vid=18f0bd67-87d6-42b2-bdb0-4e44f6e9d712","ios":"levelo://app?vid=18f0bd67-87d6-42b2-bdb0-4e44f6e9d712"},"vehicle_type_id":"4","last_reported":1740759126,"current_range_meters":9200,"station_id":"ce4bhg12rcd13ifvqf70","pricing_plan_id":"cebpf4jnsgd1na2vs0mg"},{"bike_id":"1086c175-128e-4141-8561-404add4aa68c","system_id":"levelo_inurba_marseille","lat":43.26786,"lon":5.42015,"is_reserved":false,"is_disabled":false,"rental_uris":{"android":"levelo://app?vid=1086c175-128e-4141-8561-404add4aa68c","ios":"levelo://app?vid=1086c175-128e-4141-8561-404add4aa68c"},"vehicle_type_id":"4","last_reported":1740759126,"current_range_meters":9200,"station_id":"","pricing_plan_id":"cebpf4jnsgd1na2vs0mg"},{"bike_id":"46e7feee-cdb5-4f5e-b790-15cda11b2426","system_id":"levelo_inurba_marseille","lat":43.28454,"lon":5.35894,"is_reserved":false,"is_disabled":false,"rental_uris":{"android":"levelo://app?vid=46e7feee-cdb5-4f5e-b790-15cda11b2426","ios":"levelo://app?vid=46e7feee-cdb5-4f5e-b790-15cda11b2426"},"vehicle_type_id":"4","last_reported":1740759126,"current_range_meters":9200,"station_id":"ce4bhah2rcd13ifvqei0","pricing_plan_id":"cebpf4jnsgd1na2vs0mg"},{"bike_id":"20f315e4-d17e-4f42-a2c7-7ac2f1072860","system_id":"levelo_inurba_marseille","lat":43.29307,"lon":5.37175,"is_reserved":false,"is_disabled":false,"rental_uris":{"android":"levelo://app?vid=20f315e4-d17e-4f42-a2c7-7ac2f1072860","ios":"levelo://app?vid=20f315e4-d17e-4f42-a2c7-7ac2f1072860"},"vehicle_type_id":"4","last_reported":1740759126,"current_range_meters":9200,"station_id":"ce4bgh92rcd13ifvqb40","pricing_plan_id":"cebpf4jnsgd1na2vs0mg"},{"bike_id":"d4918d6a-5525-4be8-b0c4-7af64b54343d","system_id":"levelo_inurba_marseille","lat":43.24164,"lon":5.36411,"is_reserved":false,"is_disabled":false,"rental_uris":{"android":"levelo://app?vid=d4918d6a-5525-4be8-b0c4-7af64b54343d","ios":"levelo://app?vid=d4918d6a-5525-4be8-b0c4-7af64b54343d"},"vehicle_type_id":"4","last_reported":1740759126,"current_range_meters":9600,"station_id":"cpo36qri1sfpv3e86is0","pricing_plan_id":"cebpf4jnsgd1na2vs0mg"},{"bike_id":"a92f59e1-45f6-404d-bd08-f108dcf176dc","system_id":"levelo_inurba_marseille","lat":43.27173,"lon":5.40998,"is_reserved":false,"is_disabled":false,"rental_uris":{"android":"levelo://app?vid=a92f59e1-45f6-404d-bd08-f108dcf176dc","ios":"levelo://app?vid=a92f59e1-45f6-404d-bd08-f108dcf176dc"},"vehicle_type_id":"4","last_reported":1740759126,"current_range_meters":9600,"station_id":"ce4bhl12rcd13ifvqgf0","pricing_plan_id":"cebpf4jnsgd1na2vs0mg"},{"bike_id":"63a6395c-f77e-4ee1-bb43-de3c271e3c9f","system_id":"levelo_inurba_marseille","lat":43.30316,"lon":5.36901,"is_reserved":false,"is_disabled":false,"rental_uris":{"android":"levelo://app?vid=63a6395c-f77e-4ee1-bb43-de3c271e3c9f","ios":"levelo://app?vid=63a6395c-f77e-4ee1-bb43-de3c271e3c9f"},"vehicle_type_id":"4","last_reported":1740759126,"current_range_meters":9600,"station_id":"ce4bgqh2rcd13ifvqc5g","pricing_plan_id":"cebpf4jnsgd1na2vs0mg"},{"bike_id":"1c9d9cd0-c579-4931-8532-515f6e661e21","system_id":"levelo_inurba_marseille","lat":43.27208,"lon":5.39181,"is_reserved":false,"is_disabled":false,"rental_uris":{"android":"levelo://app?vid=1c9d9cd0-c579-4931-8532-515f6e661e21","ios":"levelo://app?vid=1c9d9cd0-c579-4931-8532-515f6e661e21"},"vehicle_type_id":"4","last_reported":1740759126,"current_range_meters":9600,"station_id":"ce4bhhp2rcd13ifvqfm0","pricing_plan_id":"cebpf4jnsgd1na2vs0mg"},{"bike_id":"08eead74-da0c-4ce9-9af8-c3212eb58cf9","system_id":"levelo_inurba_marseille","lat":43.23968,"lon":5.36624,"is_reserved":false,"is_disabled":false,"rental_uris":{"android":"levelo://app?vid=08eead74-da0c-4ce9-9af8-c3212eb58cf9","ios":"levelo://app?vid=08eead74-da0c-4ce9-9af8-c3212eb58cf9"},"vehicle_type_id":"4","last_reported":1740759126,"current_range_meters":9600,"station_id":"ce4bhi12rcd13ifvqfp0","pricing_plan_id":"cebpf4jnsgd1na2vs0mg"},{"bike_id":"384726d8-94f3-400e-9007-d73ed6732440","system_id":"levelo_inurba_marseille","lat":43.31505,"lon":5.37309,"is_reserved":false,"is_disabled":false,"rental_uris":{"android":"levelo://app?vid=384726d8-94f3-400e-9007-d73ed6732440","ios":"levelo://app?vid=384726d8-94f3-400e-9007-d73ed6732440"},"vehicle_type_id":"4","last_reported":1740759126,"current_range_meters":9200,"station_id":"ce4bgt12rcd13ifvqcd0","pricing_plan_id":"cebpf4jnsgd1na2vs0mg"},{"bike_id":"c4aaec2d-c2fd-442e-ab39-1c1382bfa4a2","system_id":"levelo_inurba_marseille","lat":43.28612,"lon":5.37054,"is_reserved":false,"is_disabled":false,"rental_uris":{"android":"levelo://app?vid=c4aaec2d-c2fd-442e-ab39-1c1382bfa4a2","ios":"levelo://app?vid=c4aaec2d-c2fd-442e-ab39-1c1382bfa4a2"},"vehicle_type_id":"4","last_reported":1740759126,"current_range_meters":9600,"station_id":"ce4bht12rcd13ifvqi60","pricing_plan_id":"cebpf4jnsgd1na2vs0mg"},{"bike_id":"9c15b9d1-d181-4ef2-9943-54834932c823","system_id":"levelo_inurba_marseille","lat":43.26214,"lon":5.3745,"is_reserved":false,"is_disabled":false,"rental_uris":{"android":"levelo://app?vid=9c15b9d1-d181-4ef2-9943-54834932c823","ios":"levelo://app?vid=9c15b9d1-d181-4ef2-9943-54834932c823"},"vehicle_type_id":"4","last_reported":1740759126,"current_range_meters":9600,"station_id":"ce4bhgp2rcd13ifvqfc0","pricing_plan_id":"cebpf4jnsgd1na2vs0mg"},{"bike_id":"543df84f-c798-4ce3-a67b-52dad8b148d9","system_id":"levelo_inurba_marseille","lat":43.29596,"lon":5.3811,"is_reserved":false,"is_disabled":false,"rental_uris":{"android":"levelo://app?vid=543df84f-c798-4ce3-a67b-52dad8b148d9","ios":"levelo://app?vid=543df84f-c798-4ce3-a67b-52dad8b148d9"},"vehicle_type_id":"4","last_reported":1740759126,"current_range_meters":10000,"station_id":"ce4bgl12rcd13ifvqbo0","pricing_plan_id":"cebpf4jnsgd1na2vs0mg"},{"bike_id":"10be055f-dd9f-4dc6-8d3f-7aba3762d29b","system_id":"levelo_inurba_marseille","lat":43.32103,"lon":5.36787,"is_reserved":false,"is_disabled":false,"rental_uris":{"android":"levelo://app?vid=10be055f-dd9f-4dc6-8d3f-7aba3762d29b","ios":"levelo://app?vid=10be055f-dd9f-4dc6-8d3f-7aba3762d29b"},"vehicle_type_id":"4","last_reported":1740759126,"current_range_meters":10000,"station_id":"ce4bhrh2rcd13ifvqhug","pricing_plan_id":"cebpf4jnsgd1na2vs0mg"},{"bike_id":"613c3bb4-1b54-48cf-9e5e-f1c8d39c8082","system_id":"levelo_inurba_marseille","lat":43.23966,"lon":5.3663,"is_reserved":false,"is_disabled":false,"rental_uris":{"android":"levelo://app?vid=613c3bb4-1b54-48cf-9e5e-f1c8d39c8082","ios":"levelo://app?vid=613c3bb4-1b54-48cf-9e5e-f1c8d39c8082"},"vehicle_type_id":"4","last_reported":1740759126,"current_range_meters":10800,"station_id":"ce4bhi12rcd13ifvqfp0","pricing_plan_id":"cebpf4jnsgd1na2vs0mg"},{"bike_id":"36aaff39-aaa8-465d-bd0a-3f671adb5484","system_id":"levelo_inurba_marseille","lat":43.29856,"lon":5.36291,"is_reserved":false,"is_disabled":false,"rental_uris":{"android":"levelo://app?vid=36aaff39-aaa8-465d-bd0a-3f671adb5484","ios":"levelo://app?vid=36aaff39-aaa8-465d-bd0a-3f671adb5484"},"vehicle_type_id":"4","last_reported":1740759126,"current_range_meters":10800,"station_id":"ce4bgpp2rcd13ifvqc3g","pricing_plan_id":"cebpf4jnsgd1na2vs0mg"},{"bike_id":"ad22c85f-4f10-4faa-abab-5b57d42441eb","system_id":"levelo_inurba_marseille","lat":43.27424,"lon":5.39425,"is_reserved":false,"is_disabled":false,"rental_uris":{"android":"levelo://app?vid=ad22c85f-4f10-4faa-abab-5b57d42441eb","ios":"levelo://app?vid=ad22c85f-4f10-4faa-abab-5b57d42441eb"},"vehicle_type_id":"4","last_reported":1740759126,"current_range_meters":10800,"station_id":"ce4bhdp2rcd13ifvqf20","pricing_plan_id":"cebpf4jnsgd1na2vs0mg"},{"bike_id":"c776e964-75a1-4343-b453-0b5fc1f76818","system_id":"levelo_inurba_marseille","lat":43.33478,"lon":5.38168,"is_reserved":false,"is_disabled":false,"rental_uris":{"android":"levelo://app?vid=c776e964-75a1-4343-b453-0b5fc1f76818","ios":"levelo://app?vid=c776e964-75a1-4343-b453-0b5fc1f76818"},"vehicle_type_id":"4","last_reported":1740759126,"current_range_meters":10800,"station_id":"","pricing_plan_id":"cebpf4jnsgd1na2vs0mg"},{"bike_id":"0154e458-0004-4941-b6d1-9290ab70c6a8","system_id":"levelo_inurba_marseille","lat":43.31168,"lon":5.38726,"is_reserved":false,"is_disabled":false,"rental_uris":{"android":"levelo://app?vid=0154e458-0004-4941-b6d1-9290ab70c6a8","ios":"levelo://app?vid=0154e458-0004-4941-b6d1-9290ab70c6a8"},"vehicle_type_id":"4","last_reported":1740759126,"current_range_meters":11200,"station_id":"ce4bgv12rcd13ifvqcp0","pricing_plan_id":"cebpf4jnsgd1na2vs0mg"},{"bike_id":"f91df6c6-b019-4e7f-9717-b82f183b4c87","system_id":"levelo_inurba_marseille","lat":43.2872,"lon":5.36073,"is_reserved":false,"is_disabled":false,"rental_uris":{"android":"levelo://app?vid=f91df6c6-b019-4e7f-9717-b82f183b4c87","ios":"levelo://app?vid=f91df6c6-b019-4e7f-9717-b82f183b4c87"},"vehicle_type_id":"4","last_reported":1740759126,"current_range_meters":10800,"station_id":"cki0cbj6b192h4jlfktg","pricing_plan_id":"cebpf4jnsgd1na2vs0mg"},{"bike_id":"a8491c1d-2364-406e-946f-98d58f145a67","system_id":"levelo_inurba_marseille","lat":43.32288,"lon":5.38281,"is_reserved":false,"is_disabled":false,"rental_uris":{"android":"levelo://app?vid=a8491c1d-2364-406e-946f-98d58f145a67","ios":"levelo://app?vid=a8491c1d-2364-406e-946f-98d58f145a67"},"vehicle_type_id":"4","last_reported":1740759126,"current_range_meters":10800,"station_id":"ce4bhr12rcd13ifvqhqg","pricing_plan_id":"cebpf4jnsgd1na2vs0mg"},{"bike_id":"79ccfa8f-43fb-42e9-8504-085d2bb7e252","system_id":"levelo_inurba_marseille","lat":43.30155,"lon":5.3808,"is_reserved":false,"is_disabled":false,"rental_uris":{"android":"levelo://app?vid=79ccfa8f-43fb-42e9-8504-085d2bb7e252","ios":"levelo://app?vid=79ccfa8f-43fb-42e9-8504-085d2bb7e252"},"vehicle_type_id":"4","last_reported":1740759126,"current_range_meters":10800,"station_id":"ce4bgjp2rcd13ifvqbh0","pricing_plan_id":"cebpf4jnsgd1na2vs0mg"},{"bike_id":"1a95b01e-896d-4994-9fd3-6841efe0da32","system_id":"levelo_inurba_marseille","lat":43.28104,"lon":5.37854,"is_reserved":false,"is_disabled":false,"rental_uris":{"android":"levelo://app?vid=1a95b01e-896d-4994-9fd3-6841efe0da32","ios":"levelo://app?vid=1a95b01e-896d-4994-9fd3-6841efe0da32"},"vehicle_type_id":"4","last_reported":1740759126,"current_range_meters":10000,"station_id":"ce4bha12rcd13ifvqee0","pricing_plan_id":"cebpf4jnsgd1na2vs0mg"},{"bike_id":"b3672aa5-6f36-4322-9f5f-0f785e72ff09","system_id":"levelo_inurba_marseille","lat":43.31285,"lon":5.40162,"is_reserved":false,"is_disabled":false,"rental_uris":{"android":"levelo://app?vid=b3672aa5-6f36-4322-9f5f-0f785e72ff09","ios":"levelo://app?vid=b3672aa5-6f36-4322-9f5f-0f785e72ff09"},"vehicle_type_id":"4","last_reported":1740759126,"current_range_meters":10800,"station_id":"ce4bh092rcd13ifvqd30","pricing_plan_id":"cebpf4jnsgd1na2vs0mg"},{"bike_id":"fe359adf-7241-4454-877a-88d2e91bf9c0","system_id":"levelo_inurba_marseille","lat":43.27065,"lon":5.40257,"is_reserved":false,"is_disabled":false,"rental_uris":{"android":"levelo://app?vid=fe359adf-7241-4454-877a-88d2e91bf9c0","ios":"levelo://app?vid=fe359adf-7241-4454-877a-88d2e91bf9c0"},"vehicle_type_id":"4","last_reported":1740759126,"current_range_meters":10800,"station_id":"ce4bhk92rcd13ifvqgc0","pricing_plan_id":"cebpf4jnsgd1na2vs0mg"},{"bike_id":"43d6aa6f-20c7-4a1b-bcb8-31b660876567","system_id":"levelo_inurba_marseille","lat":43.26557,"lon":5.3729,"is_reserved":false,"is_disabled":false,"rental_uris":{"android":"levelo://app?vid=43d6aa6f-20c7-4a1b-bcb8-31b660876567","ios":"levelo://app?vid=43d6aa6f-20c7-4a1b-bcb8-31b660876567"},"vehicle_type_id":"4","last_reported":1740759126,"current_range_meters":11600,"station_id":"ce4bhg12rcd13ifvqf70","pricing_plan_id":"cebpf4jnsgd1na2vs0mg"},{"bike_id":"dfc7d439-d001-4f7d-b155-790f1b3dc735","system_id":"levelo_inurba_marseille","lat":43.29006,"lon":5.35613,"is_reserved":false,"is_disabled":false,"rental_uris":{"android":"levelo://app?vid=dfc7d439-d001-4f7d-b155-790f1b3dc735","ios":"levelo://app?vid=dfc7d439-d001-4f7d-b155-790f1b3dc735"},"vehicle_type_id":"4","last_reported":1740759126,"current_range_meters":11200,"station_id":"ce4bhb92rcd13ifvqen0","pricing_plan_id":"cebpf4jnsgd1na2vs0mg"},{"bike_id":"568418d2-1808-47c2-b000-56536f4f7f95","system_id":"levelo_inurba_marseille","lat":43.3015,"lon":5.38088,"is_reserved":false,"is_disabled":false,"rental_uris":{"android":"levelo://app?vid=568418d2-1808-47c2-b000-56536f4f7f95","ios":"levelo://app?vid=568418d2-1808-47c2-b000-56536f4f7f95"},"vehicle_type_id":"4","last_reported":1740759126,"current_range_meters":11200,"station_id":"ce4bgjp2rcd13ifvqbh0","pricing_plan_id":"cebpf4jnsgd1na2vs0mg"},{"bike_id":"119bb6a1-fa2f-487c-b32f-b0094f53dcfa","system_id":"levelo_inurba_marseille","lat":43.24998,"lon":5.38934,"is_reserved":false,"is_disabled":false,"rental_uris":{"android":"levelo://app?vid=119bb6a1-fa2f-487c-b32f-b0094f53dcfa","ios":"levelo://app?vid=119bb6a1-fa2f-487c-b32f-b0094f53dcfa"},"vehicle_type_id":"4","last_reported":1740759126,"current_range_meters":11600,"station_id":"ce4bhgp2rcd13ifvqfd0","pricing_plan_id":"cebpf4jnsgd1na2vs0mg"},{"bike_id":"1fbb0f11-3935-4d09-93c3-ad3cee0d3c7b","system_id":"levelo_inurba_marseille","lat":43.30936,"lon":5.40145,"is_reserved":false,"is_disabled":false,"rental_uris":{"android":"levelo://app?vid=1fbb0f11-3935-4d09-93c3-ad3cee0d3c7b","ios":"levelo://app?vid=1fbb0f11-3935-4d09-93c3-ad3cee0d3c7b"},"vehicle_type_id":"4","last_reported":1740759126,"current_range_meters":12000,"station_id":"ce4bgvp2rcd13ifvqct0","pricing_plan_id":"cebpf4jnsgd1na2vs0mg"},{"bike_id":"fbb578c6-bc58-4f39-a675-f75212c7ad17","system_id":"levelo_inurba_marseille","lat":43.25579,"lon":5.38257,"is_reserved":false,"is_disabled":false,"rental_uris":{"android":"levelo://app?vid=fbb578c6-bc58-4f39-a675-f75212c7ad17","ios":"levelo://app?vid=fbb578c6-bc58-4f39-a675-f75212c7ad17"},"vehicle_type_id":"4","last_reported":1740759126,"current_range_meters":11200,"station_id":"ce4bhih2rcd13ifvqfs0","pricing_plan_id":"cebpf4jnsgd1na2vs0mg"},{"bike_id":"e539e494-fa17-4683-9bd7-83b731a11d93","system_id":"levelo_inurba_marseille","lat":43.24164,"lon":5.36396,"is_reserved":false,"is_disabled":false,"rental_uris":{"android":"levelo://app?vid=e539e494-fa17-4683-9bd7-83b731a11d93","ios":"levelo://app?vid=e539e494-fa17-4683-9bd7-83b731a11d93"},"vehicle_type_id":"4","last_reported":1740759126,"current_range_meters":11600,"station_id":"cpo36qri1sfpv3e86is0","pricing_plan_id":"cebpf4jnsgd1na2vs0mg"},{"bike_id":"5f0abd93-2ee3-41bd-b7f5-b0b518f83c76","system_id":"levelo_inurba_marseille","lat":43.2721,"lon":5.39179,"is_reserved":false,"is_disabled":false,"rental_uris":{"android":"levelo://app?vid=5f0abd93-2ee3-41bd-b7f5-b0b518f83c76","ios":"levelo://app?vid=5f0abd93-2ee3-41bd-b7f5-b0b518f83c76"},"vehicle_type_id":"4","last_reported":1740759126,"current_range_meters":12000,"station_id":"ce4bhhp2rcd13ifvqfm0","pricing_plan_id":"cebpf4jnsgd1na2vs0mg"},{"bike_id":"92151e43-236e-4006-978e-1626eb4f41f0","system_id":"levelo_inurba_marseille","lat":43.25582,"lon":5.38234,"is_reserved":false,"is_disabled":false,"rental_uris":{"android":"levelo://app?vid=92151e43-236e-4006-978e-1626eb4f41f0","ios":"levelo://app?vid=92151e43-236e-4006-978e-1626eb4f41f0"},"vehicle_type_id":"4","last_reported":1740759126,"current_range_meters":12000,"station_id":"ce4bhih2rcd13ifvqfs0","pricing_plan_id":"cebpf4jnsgd1na2vs0mg"},{"bike_id":"3f5e4c77-943b-4a46-b257-614bf13afec4","system_id":"levelo_inurba_marseille","lat":43.24164,"lon":5.36393,"is_reserved":false,"is_disabled":false,"rental_uris":{"android":"levelo://app?vid=3f5e4c77-943b-4a46-b257-614bf13afec4","ios":"levelo://app?vid=3f5e4c77-943b-4a46-b257-614bf13afec4"},"vehicle_type_id":"4","last_reported":1740759126,"current_range_meters":11600,"station_id":"cpo36qri1sfpv3e86is0","pricing_plan_id":"cebpf4jnsgd1na2vs0mg"},{"bike_id":"03f5870c-7439-42f1-bd0f-96e7ef30190e","system_id":"levelo_inurba_marseille","lat":43.29026,"lon":5.38131,"is_reserved":false,"is_disabled":false,"rental_uris":{"android":"levelo://app?vid=03f5870c-7439-42f1-bd0f-96e7ef30190e","ios":"levelo://app?vid=03f5870c-7439-42f1-bd0f-96e7ef30190e"},"vehicle_type_id":"4","last_reported":1740759126,"current_range_meters":11600,"station_id":"ce4bh4p2rcd13ifvqe1g","pricing_plan_id":"cebpf4jnsgd1na2vs0mg"},{"bike_id":"26ea3936-ca1a-4833-89ff-6ab4e1a1c8e3","system_id":"levelo_inurba_marseille","lat":43.2397,"lon":5.36631,"is_reserved":false,"is_disabled":false,"rental_uris":{"android":"levelo://app?vid=26ea3936-ca1a-4833-89ff-6ab4e1a1c8e3","ios":"levelo://app?vid=26ea3936-ca1a-4833-89ff-6ab4e1a1c8e3"},"vehicle_type_id":"4","last_reported":1740759126,"current_range_meters":11600,"station_id":"ce4bhi12rcd13ifvqfp0","pricing_plan_id":"cebpf4jnsgd1na2vs0mg"},{"bike_id":"f5414366-e460-4553-8442-c047fb7aaaaa","system_id":"levelo_inurba_marseille","lat":43.25499,"lon":5.3765,"is_reserved":false,"is_disabled":false,"rental_uris":{"android":"levelo://app?vid=f5414366-e460-4553-8442-c047fb7aaaaa","ios":"levelo://app?vid=f5414366-e460-4553-8442-c047fb7aaaaa"},"vehicle_type_id":"4","last_reported":1740759126,"current_range_meters":11200,"station_id":"ce4bhh12rcd13ifvqff0","pricing_plan_id":"cebpf4jnsgd1na2vs0mg"},{"bike_id":"44fa1307-e4f7-4ca4-84de-fc7907e3ee0c","system_id":"levelo_inurba_marseille","lat":43.28279,"lon":5.35059,"is_reserved":false,"is_disabled":false,"rental_uris":{"android":"levelo://app?vid=44fa1307-e4f7-4ca4-84de-fc7907e3ee0c","ios":"levelo://app?vid=44fa1307-e4f7-4ca4-84de-fc7907e3ee0c"},"vehicle_type_id":"4","last_reported":1740759126,"current_range_meters":12000,"station_id":"ce4bhbp2rcd13ifvqerg","pricing_plan_id":"cebpf4jnsgd1na2vs0mg"},{"bike_id":"d689d3e1-5ee9-4fd5-ac90-b361e845ce91","system_id":"levelo_inurba_marseille","lat":43.298347,"lon":5.362802,"is_reserved":false,"is_disabled":false,"rental_uris":{"android":"levelo://app?vid=d689d3e1-5ee9-4fd5-ac90-b361e845ce91","ios":"levelo://app?vid=d689d3e1-5ee9-4fd5-ac90-b361e845ce91"},"vehicle_type_id":"4","last_reported":1740759126,"current_range_meters":17600,"station_id":"ce4bgpp2rcd13ifvqc3g","pricing_plan_id":"cebpf4jnsgd1na2vs0mg"},{"bike_id":"babcc48e-32b9-4e97-891b-e394b8cd5c7b","system_id":"levelo_inurba_marseille","lat":43.30353,"lon":5.41885,"is_reserved":false,"is_disabled":false,"rental_uris":{"android":"levelo://app?vid=babcc48e-32b9-4e97-891b-e394b8cd5c7b","ios":"levelo://app?vid=babcc48e-32b9-4e97-891b-e394b8cd5c7b"},"vehicle_type_id":"4","last_reported":1740759126,"current_range_meters":12000,"station_id":"ce4bhop2rcd13ifvqh7g","pricing_plan_id":"cebpf4jnsgd1na2vs0mg"},{"bike_id":"6691d6a6-0500-4413-8d1a-283f729c6f82","system_id":"levelo_inurba_marseille","lat":43.25498,"lon":5.37654,"is_reserved":false,"is_disabled":false,"rental_uris":{"android":"levelo://app?vid=6691d6a6-0500-4413-8d1a-283f729c6f82","ios":"levelo://app?vid=6691d6a6-0500-4413-8d1a-283f729c6f82"},"vehicle_type_id":"4","last_reported":1740759126,"current_range_meters":11600,"station_id":"ce4bhh12rcd13ifvqff0","pricing_plan_id":"cebpf4jnsgd1na2vs0mg"},{"bike_id":"7053ed04-89cd-47b3-b66e-d28617ca8d79","system_id":"levelo_inurba_marseille","lat":43.31082,"lon":5.38355,"is_reserved":false,"is_disabled":false,"rental_uris":{"android":"levelo://app?vid=7053ed04-89cd-47b3-b66e-d28617ca8d79","ios":"levelo://app?vid=7053ed04-89cd-47b3-b66e-d28617ca8d79"},"vehicle_type_id":"4","last_reported":1740759126,"current_range_meters":12400,"station_id":"ce4bgv92rcd13ifvqcr0","pricing_plan_id":"cebpf4jnsgd1na2vs0mg"},{"bike_id":"eeeb3aa8-2d69-48fc-a1a8-ee4697a587f3","system_id":"levelo_inurba_marseille","lat":43.289283,"lon":5.384056,"is_reserved":false,"is_disabled":false,"rental_uris":{"android":"levelo://app?vid=eeeb3aa8-2d69-48fc-a1a8-ee4697a587f3","ios":"levelo://app?vid=eeeb3aa8-2d69-48fc-a1a8-ee4697a587f3"},"vehicle_type_id":"4","last_reported":1740759126,"current_range_meters":12400,"station_id":"ce4bh612rcd13ifvqe6g","pricing_plan_id":"cebpf4jnsgd1na2vs0mg"},{"bike_id":"9ce76923-f3d8-491d-8711-2173a5cd09ae","system_id":"levelo_inurba_marseille","lat":43.28421,"lon":5.34981,"is_reserved":false,"is_disabled":false,"rental_uris":{"android":"levelo://app?vid=9ce76923-f3d8-491d-8711-2173a5cd09ae","ios":"levelo://app?vid=9ce76923-f3d8-491d-8711-2173a5cd09ae"},"vehicle_type_id":"4","last_reported":1740759126,"current_range_meters":12800,"station_id":"ce4bhbh2rcd13ifvqepg","pricing_plan_id":"cebpf4jnsgd1na2vs0mg"},{"bike_id":"a5031275-a910-4459-8274-dcae80dc2489","system_id":"levelo_inurba_marseille","lat":43.28931,"lon":5.39619,"is_reserved":false,"is_disabled":false,"rental_uris":{"android":"levelo://app?vid=a5031275-a910-4459-8274-dcae80dc2489","ios":"levelo://app?vid=a5031275-a910-4459-8274-dcae80dc2489"},"vehicle_type_id":"4","last_reported":1740759126,"current_range_meters":12800,"station_id":"ce4bh3h2rcd13ifvqdn0","pricing_plan_id":"cebpf4jnsgd1na2vs0mg"},{"bike_id":"c2f2b3b4-d49c-4ec1-ba6e-6f1aa3318777","system_id":"levelo_inurba_marseille","lat":43.27918,"lon":5.39579,"is_reserved":false,"is_disabled":false,"rental_uris":{"android":"levelo://app?vid=c2f2b3b4-d49c-4ec1-ba6e-6f1aa3318777","ios":"levelo://app?vid=c2f2b3b4-d49c-4ec1-ba6e-6f1aa3318777"},"vehicle_type_id":"4","last_reported":1740759126,"current_range_meters":12800,"station_id":"ce4bhf92rcd13ifvqf40","pricing_plan_id":"cebpf4jnsgd1na2vs0mg"},{"bike_id":"bcf10ec7-0dc7-4b31-90db-9fddabad3e7a","system_id":"levelo_inurba_marseille","lat":43.30548,"lon":5.36715,"is_reserved":false,"is_disabled":true,"rental_uris":{"android":"levelo://app?vid=bcf10ec7-0dc7-4b31-90db-9fddabad3e7a","ios":"levelo://app?vid=bcf10ec7-0dc7-4b31-90db-9fddabad3e7a"},"vehicle_type_id":"4","last_reported":1740759126,"current_range_meters":12800,"station_id":"ce4bgrp2rcd13ifvqc9g","pricing_plan_id":"cebpf4jnsgd1na2vs0mg"},{"bike_id":"f357de8b-3e87-42c8-afc6-13b10ee50c1e","system_id":"levelo_inurba_marseille","lat":43.28734,"lon":5.37359,"is_reserved":false,"is_disabled":false,"rental_uris":{"android":"levelo://app?vid=f357de8b-3e87-42c8-afc6-13b10ee50c1e","ios":"levelo://app?vid=f357de8b-3e87-42c8-afc6-13b10ee50c1e"},"vehicle_type_id":"4","last_reported":1740759126,"current_range_meters":12800,"station_id":"","pricing_plan_id":"cebpf4jnsgd1na2vs0mg"},{"bike_id":"593edb3c-7add-4a3d-9dbe-95cef549de0d","system_id":"levelo_inurba_marseille","lat":43.23066,"lon":5.35498,"is_reserved":false,"is_disabled":false,"rental_uris":{"android":"levelo://app?vid=593edb3c-7add-4a3d-9dbe-95cef549de0d","ios":"levelo://app?vid=593edb3c-7add-4a3d-9dbe-95cef549de0d"},"vehicle_type_id":"4","last_reported":1740759126,"current_range_meters":12800,"station_id":"cpo3342slgdg3j2ifvpg","pricing_plan_id":"cebpf4jnsgd1na2vs0mg"},{"bike_id":"56fd48ea-c1d2-4f38-bf8e-16eb3f61656f","system_id":"levelo_inurba_marseille","lat":43.23196,"lon":5.35562,"is_reserved":false,"is_disabled":false,"rental_uris":{"android":"levelo://app?vid=56fd48ea-c1d2-4f38-bf8e-16eb3f61656f","ios":"levelo://app?vid=56fd48ea-c1d2-4f38-bf8e-16eb3f61656f"},"vehicle_type_id":"4","last_reported":1740759126,"current_range_meters":13600,"station_id":"ce4bhu92rcd13ifvqi70","pricing_plan_id":"cebpf4jnsgd1na2vs0mg"},{"bike_id":"c0dbd1cf-b82e-4451-828d-1d4a050c3a14","system_id":"levelo_inurba_marseille","lat":43.23969,"lon":5.36624,"is_reserved":false,"is_disabled":false,"rental_uris":{"android":"levelo://app?vid=c0dbd1cf-b82e-4451-828d-1d4a050c3a14","ios":"levelo://app?vid=c0dbd1cf-b82e-4451-828d-1d4a050c3a14"},"vehicle_type_id":"4","last_reported":1740759126,"current_range_meters":14000,"station_id":"ce4bhi12rcd13ifvqfp0","pricing_plan_id":"cebpf4jnsgd1na2vs0mg"},{"bike_id":"47a00ec9-1337-4b30-9e4f-22a16d827f88","system_id":"levelo_inurba_marseille","lat":43.29786,"lon":5.37092,"is_reserved":false,"is_disabled":false,"rental_uris":{"android":"levelo://app?vid=47a00ec9-1337-4b30-9e4f-22a16d827f88","ios":"levelo://app?vid=47a00ec9-1337-4b30-9e4f-22a16d827f88"},"vehicle_type_id":"4","last_reported":1740759126,"current_range_meters":12800,"station_id":"ce4bgop2rcd13ifvqc1g","pricing_plan_id":"cebpf4jnsgd1na2vs0mg"},{"bike_id":"1a87619f-b610-4f44-8e4c-5e9901590f76","system_id":"levelo_inurba_marseille","lat":43.27213,"lon":5.392,"is_reserved":false,"is_disabled":false,"rental_uris":{"android":"levelo://app?vid=1a87619f-b610-4f44-8e4c-5e9901590f76","ios":"levelo://app?vid=1a87619f-b610-4f44-8e4c-5e9901590f76"},"vehicle_type_id":"4","last_reported":1740759126,"current_range_meters":14000,"station_id":"ce4bhhp2rcd13ifvqfm0","pricing_plan_id":"cebpf4jnsgd1na2vs0mg"},{"bike_id":"f7a20cba-2399-49fd-8468-072e901dffab","system_id":"levelo_inurba_marseille","lat":43.29306,"lon":5.40921,"is_reserved":false,"is_disabled":false,"rental_uris":{"android":"levelo://app?vid=f7a20cba-2399-49fd-8468-072e901dffab","ios":"levelo://app?vid=f7a20cba-2399-49fd-8468-072e901dffab"},"vehicle_type_id":"4","last_reported":1740759126,"current_range_meters":13600,"station_id":"ce4bh192rcd13ifvqdc0","pricing_plan_id":"cebpf4jnsgd1na2vs0mg"},{"bike_id":"da507f34-7559-44bc-b4f0-cd2b3124e8a5","system_id":"levelo_inurba_marseille","lat":43.2926,"lon":5.40899,"is_reserved":false,"is_disabled":false,"rental_uris":{"android":"levelo://app?vid=da507f34-7559-44bc-b4f0-cd2b3124e8a5","ios":"levelo://app?vid=da507f34-7559-44bc-b4f0-cd2b3124e8a5"},"vehicle_type_id":"4","last_reported":1740759126,"current_range_meters":13600,"station_id":"ce4bh192rcd13ifvqdc0","pricing_plan_id":"cebpf4jnsgd1na2vs0mg"},{"bike_id":"364b209e-752e-45ea-b26c-06b2552c1833","system_id":"levelo_inurba_marseille","lat":43.23193,"lon":5.35546,"is_reserved":false,"is_disabled":false,"rental_uris":{"android":"levelo://app?vid=364b209e-752e-45ea-b26c-06b2552c1833","ios":"levelo://app?vid=364b209e-752e-45ea-b26c-06b2552c1833"},"vehicle_type_id":"4","last_reported":1740759126,"current_range_meters":14000,"station_id":"ce4bhu92rcd13ifvqi70","pricing_plan_id":"cebpf4jnsgd1na2vs0mg"},{"bike_id":"f5fe4361-1d3d-4314-a7e8-95ca49fcf6f9","system_id":"levelo_inurba_marseille","lat":43.32211,"lon":5.38764,"is_reserved":false,"is_disabled":false,"rental_uris":{"android":"levelo://app?vid=f5fe4361-1d3d-4314-a7e8-95ca49fcf6f9","ios":"levelo://app?vid=f5fe4361-1d3d-4314-a7e8-95ca49fcf6f9"},"vehicle_type_id":"4","last_reported":1740759126,"current_range_meters":13600,"station_id":"","pricing_plan_id":"cebpf4jnsgd1na2vs0mg"},{"bike_id":"685a0357-c8db-4a02-9a25-a9947b7c7c10","system_id":"levelo_inurba_marseille","lat":43.30147,"lon":5.38105,"is_reserved":false,"is_disabled":false,"rental_uris":{"android":"levelo://app?vid=685a0357-c8db-4a02-9a25-a9947b7c7c10","ios":"levelo://app?vid=685a0357-c8db-4a02-9a25-a9947b7c7c10"},"vehicle_type_id":"4","last_reported":1740759126,"current_range_meters":13600,"station_id":"ce4bgjp2rcd13ifvqbh0","pricing_plan_id":"cebpf4jnsgd1na2vs0mg"},{"bike_id":"0a18d4d6-4b7b-4abf-a098-88f84daa6f2e","system_id":"levelo_inurba_marseille","lat":43.28433,"lon":5.39207,"is_reserved":false,"is_disabled":false,"rental_uris":{"android":"levelo://app?vid=0a18d4d6-4b7b-4abf-a098-88f84daa6f2e","ios":"levelo://app?vid=0a18d4d6-4b7b-4abf-a098-88f84daa6f2e"},"vehicle_type_id":"4","last_reported":1740759126,"current_range_meters":14400,"station_id":"ce4bhoh2rcd13ifvqh5g","pricing_plan_id":"cebpf4jnsgd1na2vs0mg"},{"bike_id":"2ac3939c-2e0a-4e51-85d6-7c940691e23b","system_id":"levelo_inurba_marseille","lat":43.23179,"lon":5.4,"is_reserved":false,"is_disabled":false,"rental_uris":{"android":"levelo://app?vid=2ac3939c-2e0a-4e51-85d6-7c940691e23b","ios":"levelo://app?vid=2ac3939c-2e0a-4e51-85d6-7c940691e23b"},"vehicle_type_id":"4","last_reported":1740759126,"current_range_meters":16000,"station_id":"ce4bhn12rcd13ifvqgqg","pricing_plan_id":"cebpf4jnsgd1na2vs0mg"},{"bike_id":"672f4706-6b17-4c70-bc6d-d2f4dcd4c593","system_id":"levelo_inurba_marseille","lat":43.26562,"lon":5.39017,"is_reserved":false,"is_disabled":false,"rental_uris":{"android":"levelo://app?vid=672f4706-6b17-4c70-bc6d-d2f4dcd4c593","ios":"levelo://app?vid=672f4706-6b17-4c70-bc6d-d2f4dcd4c593"},"vehicle_type_id":"4","last_reported":1740759126,"current_range_meters":14000,"station_id":"ce4bhe12rcd13ifvqf30","pricing_plan_id":"cebpf4jnsgd1na2vs0mg"},{"bike_id":"49e9cdc7-76a5-4b66-ae2d-61c73beb73a8","system_id":"levelo_inurba_marseille","lat":43.24164,"lon":5.36402,"is_reserved":false,"is_disabled":false,"rental_uris":{"android":"levelo://app?vid=49e9cdc7-76a5-4b66-ae2d-61c73beb73a8","ios":"levelo://app?vid=49e9cdc7-76a5-4b66-ae2d-61c73beb73a8"},"vehicle_type_id":"4","last_reported":1740759126,"current_range_meters":14000,"station_id":"cpo36qri1sfpv3e86is0","pricing_plan_id":"cebpf4jnsgd1na2vs0mg"},{"bike_id":"3a08000a-7181-4ad2-8ab8-9bfc8e4598e0","system_id":"levelo_inurba_marseille","lat":43.310302,"lon":5.378957,"is_reserved":false,"is_disabled":false,"rental_uris":{"android":"levelo://app?vid=3a08000a-7181-4ad2-8ab8-9bfc8e4598e0","ios":"levelo://app?vid=3a08000a-7181-4ad2-8ab8-9bfc8e4598e0"},"vehicle_type_id":"4","last_reported":1740759126,"current_range_meters":13600,"station_id":"ce4bhr12rcd13ifvqhqg","pricing_plan_id":"cebpf4jnsgd1na2vs0mg"},{"bike_id":"79bb3a88-1ef3-49bb-a686-3c712a80715d","system_id":"levelo_inurba_marseille","lat":43.29257,"lon":5.40904,"is_reserved":false,"is_disabled":false,"rental_uris":{"android":"levelo://app?vid=79bb3a88-1ef3-49bb-a686-3c712a80715d","ios":"levelo://app?vid=79bb3a88-1ef3-49bb-a686-3c712a80715d"},"vehicle_type_id":"4","last_reported":1740759126,"current_range_meters":14400,"station_id":"ce4bh192rcd13ifvqdc0","pricing_plan_id":"cebpf4jnsgd1na2vs0mg"},{"bike_id":"49094804-430a-4fc6-8b13-1f83dad32003","system_id":"levelo_inurba_marseille","lat":43.33025,"lon":5.39043,"is_reserved":false,"is_disabled":false,"rental_uris":{"android":"levelo://app?vid=49094804-430a-4fc6-8b13-1f83dad32003","ios":"levelo://app?vid=49094804-430a-4fc6-8b13-1f83dad32003"},"vehicle_type_id":"4","last_reported":1740759126,"current_range_meters":14400,"station_id":"ce4bhr92rcd13ifvqhrg","pricing_plan_id":"cebpf4jnsgd1na2vs0mg"},{"bike_id":"b7f5c74f-2fc7-4888-9d9b-2e1b411385f5","system_id":"levelo_inurba_marseille","lat":43.30593,"lon":5.39369,"is_reserved":false,"is_disabled":false,"rental_uris":{"android":"levelo://app?vid=b7f5c74f-2fc7-4888-9d9b-2e1b411385f5","ios":"levelo://app?vid=b7f5c74f-2fc7-4888-9d9b-2e1b411385f5"},"vehicle_type_id":"4","last_reported":1740759126,"current_range_meters":14400,"station_id":"ce4bh0p2rcd13ifvqd80","pricing_plan_id":"cebpf4jnsgd1na2vs0mg"},{"bike_id":"eb8cb07e-72ab-41d8-94bf-80478cf843d2","system_id":"levelo_inurba_marseille","lat":43.2649,"lon":5.39541,"is_reserved":false,"is_disabled":false,"rental_uris":{"android":"levelo://app?vid=eb8cb07e-72ab-41d8-94bf-80478cf843d2","ios":"levelo://app?vid=eb8cb07e-72ab-41d8-94bf-80478cf843d2"},"vehicle_type_id":"4","last_reported":1740759126,"current_range_meters":14400,"station_id":"ce4bhi12rcd13ifvqfq0","pricing_plan_id":"cebpf4jnsgd1na2vs0mg"},{"bike_id":"750f4f21-efa0-483e-a913-034ce3ce2541","system_id":"levelo_inurba_marseille","lat":43.30597,"lon":5.37226,"is_reserved":false,"is_disabled":false,"rental_uris":{"android":"levelo://app?vid=750f4f21-efa0-483e-a913-034ce3ce2541","ios":"levelo://app?vid=750f4f21-efa0-483e-a913-034ce3ce2541"},"vehicle_type_id":"4","last_reported":1740759126,"current_range_meters":14800,"station_id":"ce4bgqh2rcd13ifvqc4g","pricing_plan_id":"cebpf4jnsgd1na2vs0mg"},{"bike_id":"24d91a00-a073-4256-b9c7-4e7e98b2e7c3","system_id":"levelo_inurba_marseille","lat":43.22928,"lon":5.35381,"is_reserved":false,"is_disabled":false,"rental_uris":{"android":"levelo://app?vid=24d91a00-a073-4256-b9c7-4e7e98b2e7c3","ios":"levelo://app?vid=24d91a00-a073-4256-b9c7-4e7e98b2e7c3"},"vehicle_type_id":"4","last_reported":1740759126,"current_range_meters":14400,"station_id":"cpo3532slgdg3j2ikp40","pricing_plan_id":"cebpf4jnsgd1na2vs0mg"},{"bike_id":"b9f237d1-3350-450b-8c3c-809b3b3e596c","system_id":"levelo_inurba_marseille","lat":43.2827,"lon":5.35078,"is_reserved":false,"is_disabled":false,"rental_uris":{"android":"levelo://app?vid=b9f237d1-3350-450b-8c3c-809b3b3e596c","ios":"levelo://app?vid=b9f237d1-3350-450b-8c3c-809b3b3e596c"},"vehicle_type_id":"4","last_reported":1740759126,"current_range_meters":14800,"station_id":"ce4bhbp2rcd13ifvqerg","pricing_plan_id":"cebpf4jnsgd1na2vs0mg"},{"bike_id":"09a79771-6bb3-4ab6-af0e-0a7eecfdfbca","system_id":"levelo_inurba_marseille","lat":43.28282,"lon":5.35074,"is_reserved":false,"is_disabled":false,"rental_uris":{"android":"levelo://app?vid=09a79771-6bb3-4ab6-af0e-0a7eecfdfbca","ios":"levelo://app?vid=09a79771-6bb3-4ab6-af0e-0a7eecfdfbca"},"vehicle_type_id":"4","last_reported":1740759126,"current_range_meters":15200,"station_id":"ce4bhbp2rcd13ifvqerg","pricing_plan_id":"cebpf4jnsgd1na2vs0mg"},{"bike_id":"597c78d8-1097-48db-b3be-fafc8754eab9","system_id":"levelo_inurba_marseille","lat":43.241702,"lon":5.363945,"is_reserved":false,"is_disabled":false,"rental_uris":{"android":"levelo://app?vid=597c78d8-1097-48db-b3be-fafc8754eab9","ios":"levelo://app?vid=597c78d8-1097-48db-b3be-fafc8754eab9"},"vehicle_type_id":"4","last_reported":1740759126,"current_range_meters":14800,"station_id":"cpo36qri1sfpv3e86is0","pricing_plan_id":"cebpf4jnsgd1na2vs0mg"},{"bike_id":"8b383fad-f10f-4d6c-aa72-edd1d8053e2b","system_id":"levelo_inurba_marseille","lat":43.29992,"lon":5.373732,"is_reserved":false,"is_disabled":false,"rental_uris":{"android":"levelo://app?vid=8b383fad-f10f-4d6c-aa72-edd1d8053e2b","ios":"levelo://app?vid=8b383fad-f10f-4d6c-aa72-edd1d8053e2b"},"vehicle_type_id":"4","last_reported":1740759126,"current_range_meters":15200,"station_id":"","pricing_plan_id":"cebpf4jnsgd1na2vs0mg"},{"bike_id":"c84f47e5-27b1-47a9-a2d2-ba104cc1f39a","system_id":"levelo_inurba_marseille","lat":43.323624,"lon":5.367591,"is_reserved":false,"is_disabled":false,"rental_uris":{"android":"levelo://app?vid=c84f47e5-27b1-47a9-a2d2-ba104cc1f39a","ios":"levelo://app?vid=c84f47e5-27b1-47a9-a2d2-ba104cc1f39a"},"vehicle_type_id":"4","last_reported":1740759126,"current_range_meters":16000,"station_id":"ce4bhsh2rcd13ifvqi2g","pricing_plan_id":"cebpf4jnsgd1na2vs0mg"},{"bike_id":"4e92c2c0-0aed-4a92-9959-ad7c9187bea9","system_id":"levelo_inurba_marseille","lat":43.29253,"lon":5.40902,"is_reserved":false,"is_disabled":false,"rental_uris":{"android":"levelo://app?vid=4e92c2c0-0aed-4a92-9959-ad7c9187bea9","ios":"levelo://app?vid=4e92c2c0-0aed-4a92-9959-ad7c9187bea9"},"vehicle_type_id":"4","last_reported":1740759126,"current_range_meters":15200,"station_id":"ce4bh192rcd13ifvqdc0","pricing_plan_id":"cebpf4jnsgd1na2vs0mg"},{"bike_id":"e644cea6-1467-4f0b-a1f0-96c6aec1743e","system_id":"levelo_inurba_marseille","lat":43.29023,"lon":5.38641,"is_reserved":false,"is_disabled":false,"rental_uris":{"android":"levelo://app?vid=e644cea6-1467-4f0b-a1f0-96c6aec1743e","ios":"levelo://app?vid=e644cea6-1467-4f0b-a1f0-96c6aec1743e"},"vehicle_type_id":"4","last_reported":1740759126,"current_range_meters":14800,"station_id":"ce4bh4p2rcd13ifvqe0g","pricing_plan_id":"cebpf4jnsgd1na2vs0mg"},{"bike_id":"c12942ae-263f-4f7e-b7c3-3f1f4a07ce17","system_id":"levelo_inurba_marseille","lat":43.31695,"lon":5.40428,"is_reserved":false,"is_disabled":false,"rental_uris":{"android":"levelo://app?vid=c12942ae-263f-4f7e-b7c3-3f1f4a07ce17","ios":"levelo://app?vid=c12942ae-263f-4f7e-b7c3-3f1f4a07ce17"},"vehicle_type_id":"4","last_reported":1740759126,"current_range_meters":15200,"station_id":"ce4bh012rcd13ifvqd00","pricing_plan_id":"cebpf4jnsgd1na2vs0mg"},{"bike_id":"06f742eb-6d91-45a8-a365-063003d80d8a","system_id":"levelo_inurba_marseille","lat":43.29616,"lon":5.39158,"is_reserved":false,"is_disabled":false,"rental_uris":{"android":"levelo://app?vid=06f742eb-6d91-45a8-a365-063003d80d8a","ios":"levelo://app?vid=06f742eb-6d91-45a8-a365-063003d80d8a"},"vehicle_type_id":"4","last_reported":1740759126,"current_range_meters":18000,"station_id":"ce4bh192rcd13ifvqdc0","pricing_plan_id":"cebpf4jnsgd1na2vs0mg"},{"bike_id":"d4310f17-43c8-40cc-8c65-b87db3b0c2d1","system_id":"levelo_inurba_marseille","lat":43.28273,"lon":5.35075,"is_reserved":false,"is_disabled":false,"rental_uris":{"android":"levelo://app?vid=d4310f17-43c8-40cc-8c65-b87db3b0c2d1","ios":"levelo://app?vid=d4310f17-43c8-40cc-8c65-b87db3b0c2d1"},"vehicle_type_id":"4","last_reported":1740759126,"current_range_meters":15200,"station_id":"ce4bhbp2rcd13ifvqerg","pricing_plan_id":"cebpf4jnsgd1na2vs0mg"},{"bike_id":"b6ad968e-6481-4795-8655-345e8b77e528","system_id":"levelo_inurba_marseille","lat":43.27814,"lon":5.40712,"is_reserved":false,"is_disabled":false,"rental_uris":{"android":"levelo://app?vid=b6ad968e-6481-4795-8655-345e8b77e528","ios":"levelo://app?vid=b6ad968e-6481-4795-8655-345e8b77e528"},"vehicle_type_id":"4","last_reported":1740759126,"current_range_meters":16000,"station_id":"ce4bhnh2rcd13ifvqgtg","pricing_plan_id":"cebpf4jnsgd1na2vs0mg"},{"bike_id":"64fc1650-f3a1-4993-be35-bbc0c55c0232","system_id":"levelo_inurba_marseille","lat":43.27807,"lon":5.36255,"is_reserved":false,"is_disabled":false,"rental_uris":{"android":"levelo://app?vid=64fc1650-f3a1-4993-be35-bbc0c55c0232","ios":"levelo://app?vid=64fc1650-f3a1-4993-be35-bbc0c55c0232"},"vehicle_type_id":"4","last_reported":1740759126,"current_range_meters":16400,"station_id":"","pricing_plan_id":"cebpf4jnsgd1na2vs0mg"},{"bike_id":"192adea5-a213-4231-85f9-987063f5c28a","system_id":"levelo_inurba_marseille","lat":43.23195,"lon":5.35558,"is_reserved":false,"is_disabled":false,"rental_uris":{"android":"levelo://app?vid=192adea5-a213-4231-85f9-987063f5c28a","ios":"levelo://app?vid=192adea5-a213-4231-85f9-987063f5c28a"},"vehicle_type_id":"4","last_reported":1740759126,"current_range_meters":16000,"station_id":"ce4bhu92rcd13ifvqi70","pricing_plan_id":"cebpf4jnsgd1na2vs0mg"},{"bike_id":"695e9a27-d903-4bbc-b050-bcc463be80aa","system_id":"levelo_inurba_marseille","lat":43.24213,"lon":5.36388,"is_reserved":false,"is_disabled":false,"rental_uris":{"android":"levelo://app?vid=695e9a27-d903-4bbc-b050-bcc463be80aa","ios":"levelo://app?vid=695e9a27-d903-4bbc-b050-bcc463be80aa"},"vehicle_type_id":"4","last_reported":1740759126,"current_range_meters":16000,"station_id":"","pricing_plan_id":"cebpf4jnsgd1na2vs0mg"},{"bike_id":"d1b82d91-b41d-4ef3-8273-950fa738a565","system_id":"levelo_inurba_marseille","lat":43.23196,"lon":5.35559,"is_reserved":false,"is_disabled":false,"rental_uris":{"android":"levelo://app?vid=d1b82d91-b41d-4ef3-8273-950fa738a565","ios":"levelo://app?vid=d1b82d91-b41d-4ef3-8273-950fa738a565"},"vehicle_type_id":"4","last_reported":1740759126,"current_range_meters":16800,"station_id":"ce4bhu92rcd13ifvqi70","pricing_plan_id":"cebpf4jnsgd1na2vs0mg"},{"bike_id":"9d0546b9-abb6-4ae3-9ed7-8d418444c7ba","system_id":"levelo_inurba_marseille","lat":43.23191,"lon":5.35545,"is_reserved":false,"is_disabled":false,"rental_uris":{"android":"levelo://app?vid=9d0546b9-abb6-4ae3-9ed7-8d418444c7ba","ios":"levelo://app?vid=9d0546b9-abb6-4ae3-9ed7-8d418444c7ba"},"vehicle_type_id":"4","last_reported":1740759126,"current_range_meters":15200,"station_id":"ce4bhu92rcd13ifvqi70","pricing_plan_id":"cebpf4jnsgd1na2vs0mg"},{"bike_id":"7fe3b8af-0b0a-40fb-9e8c-373c1d67a6e2","system_id":"levelo_inurba_marseille","lat":43.23196,"lon":5.39991,"is_reserved":false,"is_disabled":false,"rental_uris":{"android":"levelo://app?vid=7fe3b8af-0b0a-40fb-9e8c-373c1d67a6e2","ios":"levelo://app?vid=7fe3b8af-0b0a-40fb-9e8c-373c1d67a6e2"},"vehicle_type_id":"4","last_reported":1740759126,"current_range_meters":16000,"station_id":"ce4bhn12rcd13ifvqgqg","pricing_plan_id":"cebpf4jnsgd1na2vs0mg"},{"bike_id":"27f8d61f-de01-4772-8b8c-ceceaf4de61e","system_id":"levelo_inurba_marseille","lat":43.290611,"lon":5.371622,"is_reserved":false,"is_disabled":true,"rental_uris":{"android":"levelo://app?vid=27f8d61f-de01-4772-8b8c-ceceaf4de61e","ios":"levelo://app?vid=27f8d61f-de01-4772-8b8c-ceceaf4de61e"},"vehicle_type_id":"4","last_reported":1740759126,"current_range_meters":16000,"station_id":"ce4bh5p2rcd13ifvqe4g","pricing_plan_id":"cebpf4jnsgd1na2vs0mg"},{"bike_id":"2f743188-a425-4679-bce4-ece6af0b46bf","system_id":"levelo_inurba_marseille","lat":43.30593,"lon":5.39358,"is_reserved":false,"is_disabled":false,"rental_uris":{"android":"levelo://app?vid=2f743188-a425-4679-bce4-ece6af0b46bf","ios":"levelo://app?vid=2f743188-a425-4679-bce4-ece6af0b46bf"},"vehicle_type_id":"4","last_reported":1740759126,"current_range_meters":16000,"station_id":"ce4bh0p2rcd13ifvqd80","pricing_plan_id":"cebpf4jnsgd1na2vs0mg"},{"bike_id":"8c86cb21-5e53-44c8-a766-70640a93721c","system_id":"levelo_inurba_marseille","lat":43.291808,"lon":5.375548,"is_reserved":false,"is_disabled":false,"rental_uris":{"android":"levelo://app?vid=8c86cb21-5e53-44c8-a766-70640a93721c","ios":"levelo://app?vid=8c86cb21-5e53-44c8-a766-70640a93721c"},"vehicle_type_id":"4","last_reported":1740759126,"current_range_meters":16400,"station_id":"","pricing_plan_id":"cebpf4jnsgd1na2vs0mg"},{"bike_id":"2cb233c4-f741-4b76-9282-393c4197fc79","system_id":"levelo_inurba_marseille","lat":43.29847,"lon":5.36284,"is_reserved":false,"is_disabled":false,"rental_uris":{"android":"levelo://app?vid=2cb233c4-f741-4b76-9282-393c4197fc79","ios":"levelo://app?vid=2cb233c4-f741-4b76-9282-393c4197fc79"},"vehicle_type_id":"4","last_reported":1740759126,"current_range_meters":16400,"station_id":"ce4bgpp2rcd13ifvqc3g","pricing_plan_id":"cebpf4jnsgd1na2vs0mg"},{"bike_id":"a43d23d2-0d6e-4cf7-8691-8ab079a8ff69","system_id":"levelo_inurba_marseille","lat":43.29905,"lon":5.43662,"is_reserved":false,"is_disabled":false,"rental_uris":{"android":"levelo://app?vid=a43d23d2-0d6e-4cf7-8691-8ab079a8ff69","ios":"levelo://app?vid=a43d23d2-0d6e-4cf7-8691-8ab079a8ff69"},"vehicle_type_id":"4","last_reported":1740759126,"current_range_meters":16400,"station_id":"ce4bhpp2rcd13ifvqhfg","pricing_plan_id":"cebpf4jnsgd1na2vs0mg"},{"bike_id":"1c05c9eb-a923-464b-b8e2-a210bd9c428d","system_id":"levelo_inurba_marseille","lat":43.28414,"lon":5.34984,"is_reserved":false,"is_disabled":false,"rental_uris":{"android":"levelo://app?vid=1c05c9eb-a923-464b-b8e2-a210bd9c428d","ios":"levelo://app?vid=1c05c9eb-a923-464b-b8e2-a210bd9c428d"},"vehicle_type_id":"4","last_reported":1740759126,"current_range_meters":16800,"station_id":"ce4bhbh2rcd13ifvqepg","pricing_plan_id":"cebpf4jnsgd1na2vs0mg"},{"bike_id":"4015c440-7267-44b4-8be2-f4b87cb51aa9","system_id":"levelo_inurba_marseille","lat":43.25584,"lon":5.38229,"is_reserved":false,"is_disabled":false,"rental_uris":{"android":"levelo://app?vid=4015c440-7267-44b4-8be2-f4b87cb51aa9","ios":"levelo://app?vid=4015c440-7267-44b4-8be2-f4b87cb51aa9"},"vehicle_type_id":"4","last_reported":1740759126,"current_range_meters":16400,"station_id":"ce4bhih2rcd13ifvqfs0","pricing_plan_id":"cebpf4jnsgd1na2vs0mg"},{"bike_id":"13703d55-a008-47f6-b7dd-3e92fd10f4ec","system_id":"levelo_inurba_marseille","lat":43.29037,"lon":5.37577,"is_reserved":false,"is_disabled":false,"rental_uris":{"android":"levelo://app?vid=13703d55-a008-47f6-b7dd-3e92fd10f4ec","ios":"levelo://app?vid=13703d55-a008-47f6-b7dd-3e92fd10f4ec"},"vehicle_type_id":"4","last_reported":1740759126,"current_range_meters":16000,"station_id":"ce4bh692rcd13ifvqe90","pricing_plan_id":"cebpf4jnsgd1na2vs0mg"},{"bike_id":"fa22f63e-9872-4e51-9437-03dc31f137d0","system_id":"levelo_inurba_marseille","lat":43.28997,"lon":5.3558,"is_reserved":false,"is_disabled":false,"rental_uris":{"android":"levelo://app?vid=fa22f63e-9872-4e51-9437-03dc31f137d0","ios":"levelo://app?vid=fa22f63e-9872-4e51-9437-03dc31f137d0"},"vehicle_type_id":"4","last_reported":1740759126,"current_range_meters":36000,"station_id":"ce4bhb92rcd13ifvqen0","pricing_plan_id":"cebpf4jnsgd1na2vs0mg"},{"bike_id":"0833d888-90a5-4663-8bee-38476e161c63","system_id":"levelo_inurba_marseille","lat":43.31077,"lon":5.38349,"is_reserved":false,"is_disabled":false,"rental_uris":{"android":"levelo://app?vid=0833d888-90a5-4663-8bee-38476e161c63","ios":"levelo://app?vid=0833d888-90a5-4663-8bee-38476e161c63"},"vehicle_type_id":"4","last_reported":1740759126,"current_range_meters":16400,"station_id":"ce4bgv92rcd13ifvqcr0","pricing_plan_id":"cebpf4jnsgd1na2vs0mg"},{"bike_id":"6c00e2bd-c1a0-4878-ab7d-bb856a589cae","system_id":"levelo_inurba_marseille","lat":43.25577,"lon":5.38244,"is_reserved":false,"is_disabled":false,"rental_uris":{"android":"levelo://app?vid=6c00e2bd-c1a0-4878-ab7d-bb856a589cae","ios":"levelo://app?vid=6c00e2bd-c1a0-4878-ab7d-bb856a589cae"},"vehicle_type_id":"4","last_reported":1740759126,"current_range_meters":16800,"station_id":"ce4bhih2rcd13ifvqfs0","pricing_plan_id":"cebpf4jnsgd1na2vs0mg"},{"bike_id":"a2dd4692-b1bc-4bd1-9ce9-904b7891ee28","system_id":"levelo_inurba_marseille","lat":43.30798,"lon":5.38151,"is_reserved":false,"is_disabled":false,"rental_uris":{"android":"levelo://app?vid=a2dd4692-b1bc-4bd1-9ce9-904b7891ee28","ios":"levelo://app?vid=a2dd4692-b1bc-4bd1-9ce9-904b7891ee28"},"vehicle_type_id":"4","last_reported":1740759126,"current_range_meters":16400,"station_id":"ce4bgt12rcd13ifvqce0","pricing_plan_id":"cebpf4jnsgd1na2vs0mg"},{"bike_id":"b7f5579b-577f-43c4-9923-329c6f3a7c1e","system_id":"levelo_inurba_marseille","lat":43.23188,"lon":5.35565,"is_reserved":false,"is_disabled":false,"rental_uris":{"android":"levelo://app?vid=b7f5579b-577f-43c4-9923-329c6f3a7c1e","ios":"levelo://app?vid=b7f5579b-577f-43c4-9923-329c6f3a7c1e"},"vehicle_type_id":"4","last_reported":1740759126,"current_range_meters":16000,"station_id":"ce4bhu92rcd13ifvqi70","pricing_plan_id":"cebpf4jnsgd1na2vs0mg"},{"bike_id":"0693b9d6-4a9d-4e38-bfa2-80f934bcc2e3","system_id":"levelo_inurba_marseille","lat":43.2417,"lon":5.364114,"is_reserved":false,"is_disabled":false,"rental_uris":{"android":"levelo://app?vid=0693b9d6-4a9d-4e38-bfa2-80f934bcc2e3","ios":"levelo://app?vid=0693b9d6-4a9d-4e38-bfa2-80f934bcc2e3"},"vehicle_type_id":"4","last_reported":1740759126,"current_range_meters":16800,"station_id":"cpo36qri1sfpv3e86is0","pricing_plan_id":"cebpf4jnsgd1na2vs0mg"},{"bike_id":"f9f4593d-ec14-43c6-ac64-d227a2c444e7","system_id":"levelo_inurba_marseille","lat":43.29928,"lon":5.3853,"is_reserved":false,"is_disabled":true,"rental_uris":{"android":"levelo://app?vid=f9f4593d-ec14-43c6-ac64-d227a2c444e7","ios":"levelo://app?vid=f9f4593d-ec14-43c6-ac64-d227a2c444e7"},"vehicle_type_id":"4","last_reported":1740759126,"current_range_meters":16800,"station_id":"","pricing_plan_id":"cebpf4jnsgd1na2vs0mg"},{"bike_id":"47474fa3-9536-4420-9524-d42db5ba4395","system_id":"levelo_inurba_marseille","lat":43.30601,"lon":5.37224,"is_reserved":false,"is_disabled":false,"rental_uris":{"android":"levelo://app?vid=47474fa3-9536-4420-9524-d42db5ba4395","ios":"levelo://app?vid=47474fa3-9536-4420-9524-d42db5ba4395"},"vehicle_type_id":"4","last_reported":1740759126,"current_range_meters":17200,"station_id":"ce4bgqh2rcd13ifvqc4g","pricing_plan_id":"cebpf4jnsgd1na2vs0mg"},{"bike_id":"085d28c3-d678-460a-a2b0-03561e14272e","system_id":"levelo_inurba_marseille","lat":43.32106,"lon":5.36795,"is_reserved":false,"is_disabled":false,"rental_uris":{"android":"levelo://app?vid=085d28c3-d678-460a-a2b0-03561e14272e","ios":"levelo://app?vid=085d28c3-d678-460a-a2b0-03561e14272e"},"vehicle_type_id":"4","last_reported":1740759126,"current_range_meters":16800,"station_id":"ce4bhrh2rcd13ifvqhug","pricing_plan_id":"cebpf4jnsgd1na2vs0mg"},{"bike_id":"81134e18-1417-45d5-909d-c97c09174cab","system_id":"levelo_inurba_marseille","lat":43.25121,"lon":5.4032,"is_reserved":false,"is_disabled":false,"rental_uris":{"android":"levelo://app?vid=81134e18-1417-45d5-909d-c97c09174cab","ios":"levelo://app?vid=81134e18-1417-45d5-909d-c97c09174cab"},"vehicle_type_id":"4","last_reported":1740759126,"current_range_meters":16800,"station_id":"ce4bhlh2rcd13ifvqgig","pricing_plan_id":"cebpf4jnsgd1na2vs0mg"},{"bike_id":"199f6953-90bf-452d-a70b-9790e3c9500e","system_id":"levelo_inurba_marseille","lat":43.28412,"lon":5.34988,"is_reserved":false,"is_disabled":false,"rental_uris":{"android":"levelo://app?vid=199f6953-90bf-452d-a70b-9790e3c9500e","ios":"levelo://app?vid=199f6953-90bf-452d-a70b-9790e3c9500e"},"vehicle_type_id":"4","last_reported":1740759126,"current_range_meters":16800,"station_id":"ce4bhbh2rcd13ifvqepg","pricing_plan_id":"cebpf4jnsgd1na2vs0mg"},{"bike_id":"c27e9b1b-5c58-4a91-940a-4e7a971003d7","system_id":"levelo_inurba_marseille","lat":43.267883,"lon":5.394132,"is_reserved":false,"is_disabled":false,"rental_uris":{"android":"levelo://app?vid=c27e9b1b-5c58-4a91-940a-4e7a971003d7","ios":"levelo://app?vid=c27e9b1b-5c58-4a91-940a-4e7a971003d7"},"vehicle_type_id":"4","last_reported":1740759126,"current_range_meters":16800,"station_id":"ce4bhh12rcd13ifvqfg0","pricing_plan_id":"cebpf4jnsgd1na2vs0mg"},{"bike_id":"4f1d266a-9841-45ba-8fd6-25adaf2645fa","system_id":"levelo_inurba_marseille","lat":43.27073,"lon":5.42282,"is_reserved":false,"is_disabled":false,"rental_uris":{"android":"levelo://app?vid=4f1d266a-9841-45ba-8fd6-25adaf2645fa","ios":"levelo://app?vid=4f1d266a-9841-45ba-8fd6-25adaf2645fa"},"vehicle_type_id":"4","last_reported":1740759126,"current_range_meters":16800,"station_id":"ce4bhk92rcd13ifvqgb0","pricing_plan_id":"cebpf4jnsgd1na2vs0mg"},{"bike_id":"1d428bc3-c78b-4297-8b15-1b7ffa5460d7","system_id":"levelo_inurba_marseille","lat":43.26198,"lon":5.37446,"is_reserved":false,"is_disabled":false,"rental_uris":{"android":"levelo://app?vid=1d428bc3-c78b-4297-8b15-1b7ffa5460d7","ios":"levelo://app?vid=1d428bc3-c78b-4297-8b15-1b7ffa5460d7"},"vehicle_type_id":"4","last_reported":1740759126,"current_range_meters":16000,"station_id":"ce4bhgp2rcd13ifvqfc0","pricing_plan_id":"cebpf4jnsgd1na2vs0mg"},{"bike_id":"5afe3ca4-4293-472f-af4b-7206f75b5a44","system_id":"levelo_inurba_marseille","lat":43.29836,"lon":5.36266,"is_reserved":false,"is_disabled":false,"rental_uris":{"android":"levelo://app?vid=5afe3ca4-4293-472f-af4b-7206f75b5a44","ios":"levelo://app?vid=5afe3ca4-4293-472f-af4b-7206f75b5a44"},"vehicle_type_id":"4","last_reported":1740759126,"current_range_meters":16800,"station_id":"ce4bgpp2rcd13ifvqc3g","pricing_plan_id":"cebpf4jnsgd1na2vs0mg"},{"bike_id":"0edcb5f6-5d31-42a2-bfd6-392b10b8c6da","system_id":"levelo_inurba_marseille","lat":43.32055,"lon":5.4152,"is_reserved":false,"is_disabled":false,"rental_uris":{"android":"levelo://app?vid=0edcb5f6-5d31-42a2-bfd6-392b10b8c6da","ios":"levelo://app?vid=0edcb5f6-5d31-42a2-bfd6-392b10b8c6da"},"vehicle_type_id":"4","last_reported":1740759126,"current_range_meters":16800,"station_id":"ce4bhq92rcd13ifvqhkg","pricing_plan_id":"cebpf4jnsgd1na2vs0mg"},{"bike_id":"2db2542e-45d2-4fc9-b998-6b4b504e1c56","system_id":"levelo_inurba_marseille","lat":43.27624,"lon":5.36112,"is_reserved":false,"is_disabled":false,"rental_uris":{"android":"levelo://app?vid=2db2542e-45d2-4fc9-b998-6b4b504e1c56","ios":"levelo://app?vid=2db2542e-45d2-4fc9-b998-6b4b504e1c56"},"vehicle_type_id":"4","last_reported":1740759126,"current_range_meters":16800,"station_id":"ce4bgj92rcd13ifvqbe0","pricing_plan_id":"cebpf4jnsgd1na2vs0mg"},{"bike_id":"f4849e96-b596-4022-8cb5-44f20d46e8f4","system_id":"levelo_inurba_marseille","lat":43.2587,"lon":5.39899,"is_reserved":false,"is_disabled":false,"rental_uris":{"android":"levelo://app?vid=f4849e96-b596-4022-8cb5-44f20d46e8f4","ios":"levelo://app?vid=f4849e96-b596-4022-8cb5-44f20d46e8f4"},"vehicle_type_id":"4","last_reported":1740759126,"current_range_meters":17200,"station_id":"ce4bhl92rcd13ifvqghg","pricing_plan_id":"cebpf4jnsgd1na2vs0mg"},{"bike_id":"04d5518c-e111-4077-bbd8-386d546d52a3","system_id":"levelo_inurba_marseille","lat":43.31993,"lon":5.38141,"is_reserved":false,"is_disabled":false,"rental_uris":{"android":"levelo://app?vid=04d5518c-e111-4077-bbd8-386d546d52a3","ios":"levelo://app?vid=04d5518c-e111-4077-bbd8-386d546d52a3"},"vehicle_type_id":"4","last_reported":1740759126,"current_range_meters":17200,"station_id":"ce4bhr12rcd13ifvqhpg","pricing_plan_id":"cebpf4jnsgd1na2vs0mg"},{"bike_id":"9dbad41f-5b6e-4733-990b-e95cba213dca","system_id":"levelo_inurba_marseille","lat":43.31752,"lon":5.39001,"is_reserved":false,"is_disabled":false,"rental_uris":{"android":"levelo://app?vid=9dbad41f-5b6e-4733-990b-e95cba213dca","ios":"levelo://app?vid=9dbad41f-5b6e-4733-990b-e95cba213dca"},"vehicle_type_id":"4","last_reported":1740759126,"current_range_meters":17200,"station_id":"ce4bhqp2rcd13ifvqhng","pricing_plan_id":"cebpf4jnsgd1na2vs0mg"},{"bike_id":"e6aee71d-54fe-4bb5-9701-7fca573262c3","system_id":"levelo_inurba_marseille","lat":43.29006,"lon":5.35613,"is_reserved":false,"is_disabled":false,"rental_uris":{"android":"levelo://app?vid=e6aee71d-54fe-4bb5-9701-7fca573262c3","ios":"levelo://app?vid=e6aee71d-54fe-4bb5-9701-7fca573262c3"},"vehicle_type_id":"4","last_reported":1740759126,"current_range_meters":17200,"station_id":"ce4bhb92rcd13ifvqen0","pricing_plan_id":"cebpf4jnsgd1na2vs0mg"},{"bike_id":"91de09a9-c021-4256-9bb3-2279ff7564b3","system_id":"levelo_inurba_marseille","lat":43.2319,"lon":5.39978,"is_reserved":false,"is_disabled":false,"rental_uris":{"android":"levelo://app?vid=91de09a9-c021-4256-9bb3-2279ff7564b3","ios":"levelo://app?vid=91de09a9-c021-4256-9bb3-2279ff7564b3"},"vehicle_type_id":"4","last_reported":1740759126,"current_range_meters":17200,"station_id":"ce4bhn12rcd13ifvqgqg","pricing_plan_id":"cebpf4jnsgd1na2vs0mg"},{"bike_id":"9a01249f-a7e6-4d4c-af7a-0fae8942f0f3","system_id":"levelo_inurba_marseille","lat":43.23063,"lon":5.355,"is_reserved":false,"is_disabled":false,"rental_uris":{"android":"levelo://app?vid=9a01249f-a7e6-4d4c-af7a-0fae8942f0f3","ios":"levelo://app?vid=9a01249f-a7e6-4d4c-af7a-0fae8942f0f3"},"vehicle_type_id":"4","last_reported":1740759126,"current_range_meters":17200,"station_id":"cpo3342slgdg3j2ifvpg","pricing_plan_id":"cebpf4jnsgd1na2vs0mg"},{"bike_id":"b36f83c0-8a6a-4b67-b172-bf2885a9f12c","system_id":"levelo_inurba_marseille","lat":43.28676,"lon":5.38669,"is_reserved":false,"is_disabled":false,"rental_uris":{"android":"levelo://app?vid=b36f83c0-8a6a-4b67-b172-bf2885a9f12c","ios":"levelo://app?vid=b36f83c0-8a6a-4b67-b172-bf2885a9f12c"},"vehicle_type_id":"4","last_reported":1740759126,"current_range_meters":16800,"station_id":"ce4bh492rcd13ifvqdug","pricing_plan_id":"cebpf4jnsgd1na2vs0mg"},{"bike_id":"161d70e9-e213-4bf5-bde1-9c3d7296d89c","system_id":"levelo_inurba_marseille","lat":43.27826,"lon":5.39218,"is_reserved":false,"is_disabled":true,"rental_uris":{"android":"levelo://app?vid=161d70e9-e213-4bf5-bde1-9c3d7296d89c","ios":"levelo://app?vid=161d70e9-e213-4bf5-bde1-9c3d7296d89c"},"vehicle_type_id":"4","last_reported":1740759126,"current_range_meters":17200,"station_id":"ce4bhjp2rcd13ifvqga0","pricing_plan_id":"cebpf4jnsgd1na2vs0mg"},{"bike_id":"e8f020c4-f4d6-4647-b7a6-23c72c8d850d","system_id":"levelo_inurba_marseille","lat":43.30151,"lon":5.38068,"is_reserved":false,"is_disabled":false,"rental_uris":{"android":"levelo://app?vid=e8f020c4-f4d6-4647-b7a6-23c72c8d850d","ios":"levelo://app?vid=e8f020c4-f4d6-4647-b7a6-23c72c8d850d"},"vehicle_type_id":"4","last_reported":1740759126,"current_range_meters":17200,"station_id":"ce4bgjp2rcd13ifvqbh0","pricing_plan_id":"cebpf4jnsgd1na2vs0mg"},{"bike_id":"dfe47fcc-8bc5-496a-bbd1-f6df50ef4b11","system_id":"levelo_inurba_marseille","lat":43.28074,"lon":5.39641,"is_reserved":false,"is_disabled":false,"rental_uris":{"android":"levelo://app?vid=dfe47fcc-8bc5-496a-bbd1-f6df50ef4b11","ios":"levelo://app?vid=dfe47fcc-8bc5-496a-bbd1-f6df50ef4b11"},"vehicle_type_id":"4","last_reported":1740759126,"current_range_meters":16400,"station_id":"ce4bho12rcd13ifvqh2g","pricing_plan_id":"cebpf4jnsgd1na2vs0mg"},{"bike_id":"dea93fb4-64ac-4466-8729-4a9d6e29e3c9","system_id":"levelo_inurba_marseille","lat":43.30794,"lon":5.38159,"is_reserved":false,"is_disabled":false,"rental_uris":{"android":"levelo://app?vid=dea93fb4-64ac-4466-8729-4a9d6e29e3c9","ios":"levelo://app?vid=dea93fb4-64ac-4466-8729-4a9d6e29e3c9"},"vehicle_type_id":"4","last_reported":1740759126,"current_range_meters":18800,"station_id":"ce4bgt12rcd13ifvqce0","pricing_plan_id":"cebpf4jnsgd1na2vs0mg"},{"bike_id":"1c764184-86e4-406c-9daa-b4f3bd818c38","system_id":"levelo_inurba_marseille","lat":43.31085,"lon":5.42432,"is_reserved":false,"is_disabled":false,"rental_uris":{"android":"levelo://app?vid=1c764184-86e4-406c-9daa-b4f3bd818c38","ios":"levelo://app?vid=1c764184-86e4-406c-9daa-b4f3bd818c38"},"vehicle_type_id":"4","last_reported":1740759126,"current_range_meters":17600,"station_id":"ce4bhp92rcd13ifvqhag","pricing_plan_id":"cebpf4jnsgd1na2vs0mg"},{"bike_id":"04405367-f5b6-4fe3-8d8c-82eb937f1544","system_id":"levelo_inurba_marseille","lat":43.31274,"lon":5.40184,"is_reserved":false,"is_disabled":false,"rental_uris":{"android":"levelo://app?vid=04405367-f5b6-4fe3-8d8c-82eb937f1544","ios":"levelo://app?vid=04405367-f5b6-4fe3-8d8c-82eb937f1544"},"vehicle_type_id":"4","last_reported":1740759126,"current_range_meters":17200,"station_id":"ce4bh092rcd13ifvqd30","pricing_plan_id":"cebpf4jnsgd1na2vs0mg"},{"bike_id":"5fcd1678-e53a-4926-9dfc-4de28408a25a","system_id":"levelo_inurba_marseille","lat":43.27053,"lon":5.40275,"is_reserved":false,"is_disabled":false,"rental_uris":{"android":"levelo://app?vid=5fcd1678-e53a-4926-9dfc-4de28408a25a","ios":"levelo://app?vid=5fcd1678-e53a-4926-9dfc-4de28408a25a"},"vehicle_type_id":"4","last_reported":1740759126,"current_range_meters":17600,"station_id":"ce4bhk92rcd13ifvqgc0","pricing_plan_id":"cebpf4jnsgd1na2vs0mg"},{"bike_id":"3f203f23-4004-4cf3-8fd7-3c9839a0ab70","system_id":"levelo_inurba_marseille","lat":43.27174,"lon":5.40995,"is_reserved":false,"is_disabled":false,"rental_uris":{"android":"levelo://app?vid=3f203f23-4004-4cf3-8fd7-3c9839a0ab70","ios":"levelo://app?vid=3f203f23-4004-4cf3-8fd7-3c9839a0ab70"},"vehicle_type_id":"4","last_reported":1740759126,"current_range_meters":17600,"station_id":"ce4bhl12rcd13ifvqgf0","pricing_plan_id":"cebpf4jnsgd1na2vs0mg"},{"bike_id":"f4ad7c71-e496-484a-b37f-1245e0f53958","system_id":"levelo_inurba_marseille","lat":43.33017,"lon":5.39043,"is_reserved":false,"is_disabled":false,"rental_uris":{"android":"levelo://app?vid=f4ad7c71-e496-484a-b37f-1245e0f53958","ios":"levelo://app?vid=f4ad7c71-e496-484a-b37f-1245e0f53958"},"vehicle_type_id":"4","last_reported":1740759126,"current_range_meters":18000,"station_id":"ce4bhr92rcd13ifvqhrg","pricing_plan_id":"cebpf4jnsgd1na2vs0mg"},{"bike_id":"3937570b-381e-4daa-8c3f-097b6d2d1c3b","system_id":"levelo_inurba_marseille","lat":43.2511,"lon":5.40319,"is_reserved":false,"is_disabled":false,"rental_uris":{"android":"levelo://app?vid=3937570b-381e-4daa-8c3f-097b6d2d1c3b","ios":"levelo://app?vid=3937570b-381e-4daa-8c3f-097b6d2d1c3b"},"vehicle_type_id":"4","last_reported":1740759126,"current_range_meters":17600,"station_id":"ce4bhlh2rcd13ifvqgig","pricing_plan_id":"cebpf4jnsgd1na2vs0mg"},{"bike_id":"a9f29b8c-ca3d-49f2-b9f2-f8c13d3c33b5","system_id":"levelo_inurba_marseille","lat":43.309,"lon":5.39617,"is_reserved":false,"is_disabled":false,"rental_uris":{"android":"levelo://app?vid=a9f29b8c-ca3d-49f2-b9f2-f8c13d3c33b5","ios":"levelo://app?vid=a9f29b8c-ca3d-49f2-b9f2-f8c13d3c33b5"},"vehicle_type_id":"4","last_reported":1740759126,"current_range_meters":16800,"station_id":"ce4bh012rcd13ifvqcv0","pricing_plan_id":"cebpf4jnsgd1na2vs0mg"},{"bike_id":"aa8c14b4-325f-42a4-8333-0c46ec30c4cf","system_id":"levelo_inurba_marseille","lat":43.304657,"lon":5.37195,"is_reserved":false,"is_disabled":false,"rental_uris":{"android":"levelo://app?vid=aa8c14b4-325f-42a4-8333-0c46ec30c4cf","ios":"levelo://app?vid=aa8c14b4-325f-42a4-8333-0c46ec30c4cf"},"vehicle_type_id":"4","last_reported":1740759126,"current_range_meters":17600,"station_id":"ce4bgqh2rcd13ifvqc4g","pricing_plan_id":"cebpf4jnsgd1na2vs0mg"},{"bike_id":"e4d8aea3-ca93-43b3-b49c-2c9bc9cbc59f","system_id":"levelo_inurba_marseille","lat":43.27778,"lon":5.40727,"is_reserved":false,"is_disabled":false,"rental_uris":{"android":"levelo://app?vid=e4d8aea3-ca93-43b3-b49c-2c9bc9cbc59f","ios":"levelo://app?vid=e4d8aea3-ca93-43b3-b49c-2c9bc9cbc59f"},"vehicle_type_id":"4","last_reported":1740759126,"current_range_meters":18000,"station_id":"ce4bhnh2rcd13ifvqgtg","pricing_plan_id":"cebpf4jnsgd1na2vs0mg"},{"bike_id":"0fa9de02-d4e3-46a1-9135-52dc14e5e5d2","system_id":"levelo_inurba_marseille","lat":43.28416,"lon":5.34981,"is_reserved":false,"is_disabled":false,"rental_uris":{"android":"levelo://app?vid=0fa9de02-d4e3-46a1-9135-52dc14e5e5d2","ios":"levelo://app?vid=0fa9de02-d4e3-46a1-9135-52dc14e5e5d2"},"vehicle_type_id":"4","last_reported":1740759126,"current_range_meters":18000,"station_id":"ce4bhbh2rcd13ifvqepg","pricing_plan_id":"cebpf4jnsgd1na2vs0mg"},{"bike_id":"32ceb2c3-2f3b-4092-8d32-8ede67e0cd39","system_id":"levelo_inurba_marseille","lat":43.29902,"lon":5.43667,"is_reserved":false,"is_disabled":false,"rental_uris":{"android":"levelo://app?vid=32ceb2c3-2f3b-4092-8d32-8ede67e0cd39","ios":"levelo://app?vid=32ceb2c3-2f3b-4092-8d32-8ede67e0cd39"},"vehicle_type_id":"4","last_reported":1740759126,"current_range_meters":18000,"station_id":"ce4bhpp2rcd13ifvqhfg","pricing_plan_id":"cebpf4jnsgd1na2vs0mg"},{"bike_id":"2a88a5d5-485c-4d6b-8ae1-14a2e8299fd8","system_id":"levelo_inurba_marseille","lat":43.33781,"lon":5.37469,"is_reserved":false,"is_disabled":false,"rental_uris":{"android":"levelo://app?vid=2a88a5d5-485c-4d6b-8ae1-14a2e8299fd8","ios":"levelo://app?vid=2a88a5d5-485c-4d6b-8ae1-14a2e8299fd8"},"vehicle_type_id":"4","last_reported":1740759126,"current_range_meters":18000,"station_id":"","pricing_plan_id":"cebpf4jnsgd1na2vs0mg"},{"bike_id":"ee00a07c-bb63-4de8-a3ab-8d3403810524","system_id":"levelo_inurba_marseille","lat":43.28419,"lon":5.34985,"is_reserved":false,"is_disabled":false,"rental_uris":{"android":"levelo://app?vid=ee00a07c-bb63-4de8-a3ab-8d3403810524","ios":"levelo://app?vid=ee00a07c-bb63-4de8-a3ab-8d3403810524"},"vehicle_type_id":"4","last_reported":1740759126,"current_range_meters":18800,"station_id":"ce4bhbh2rcd13ifvqepg","pricing_plan_id":"cebpf4jnsgd1na2vs0mg"},{"bike_id":"40934b71-845e-4f3a-bef6-a23530397ee7","system_id":"levelo_inurba_marseille","lat":43.28275,"lon":5.3507,"is_reserved":false,"is_disabled":false,"rental_uris":{"android":"levelo://app?vid=40934b71-845e-4f3a-bef6-a23530397ee7","ios":"levelo://app?vid=40934b71-845e-4f3a-bef6-a23530397ee7"},"vehicle_type_id":"4","last_reported":1740759126,"current_range_meters":18000,"station_id":"ce4bhbp2rcd13ifvqerg","pricing_plan_id":"cebpf4jnsgd1na2vs0mg"},{"bike_id":"4b75b758-6e2c-4516-ab85-32d61cdf5c3d","system_id":"levelo_inurba_marseille","lat":43.23957,"lon":5.36639,"is_reserved":false,"is_disabled":false,"rental_uris":{"android":"levelo://app?vid=4b75b758-6e2c-4516-ab85-32d61cdf5c3d","ios":"levelo://app?vid=4b75b758-6e2c-4516-ab85-32d61cdf5c3d"},"vehicle_type_id":"4","last_reported":1740759126,"current_range_meters":18000,"station_id":"ce4bhi12rcd13ifvqfp0","pricing_plan_id":"cebpf4jnsgd1na2vs0mg"},