{"last_updated":1728126426,"ttl":60,"version":"2.2","data":{"bikes":[{"bike_id":"7b5918c9-286b-4a5d-8c11-f495ad5c7f7a","system_id":"levelo_inurba_marseille","lat":43.30796,"lon":5.43517,"is_reserved":false,"is_disabled":false,"rental_uris":{"android":"levelo://app?vid=7b5918c9-286b-4a5d-8c11-f495ad5c7f7a","ios":"levelo://app?vid=7b5918c9-286b-4a5d-8c11-f495ad5c7f7a"},"vehicle_type_id":"4","last_reported":1728126427,"current_range_meters":8400,"station_id":"ce4bhph2rcd13ifvqheg","pricing_plan_id":"cebpf4jnsgd1na2vs0mg"},{"bike_id":"e4b84675-a2ef-4a08-972b-c8ccf50cd9f9","system_id":"levelo_inurba_marseille","lat":43.23201,"lon":5.39964,"is_reserved":false,"is_disabled":false,"rental_uris":{"android":"levelo://app?vid=e4b84675-a2ef-4a08-972b-c8ccf50cd9f9","ios":"levelo://app?vid=e4b84675-a2ef-4a08-972b-c8ccf50cd9f9"},"vehicle_type_id":"4","last_reported":1728126427,"current_range_meters":38800,"station_id":"ce4bhn12rcd13ifvqgqg","pricing_plan_id":"cebpf4jnsgd1na2vs0mg"},{"bike_id":"2b5b4549-0eba-4483-92de-153c6baa26e0","system_id":"levelo_inurba_marseille","lat":43.23154,"lon":5.43701,"is_reserved":false,"is_disabled":false,"rental_uris":{"android":"levelo://app?vid=2b5b4549-0eba-4483-92de-153c6baa26e0","ios":"levelo://app?vid=2b5b4549-0eba-4483-92de-153c6baa26e0"},"vehicle_type_id":"4","last_reported":1728126427,"current_range_meters":12400,"station_id":"ce4bhmp2rcd13ifvqgog","pricing_plan_id":"cebpf4jnsgd1na2vs0mg"},{"bike_id":"93f26d88-3022-4aec-a738-73b701d30cfc","system_id":"levelo_inurba_marseille","lat":43.31497,"lon":5.37286,"is_reserved":false,"is_disabled":false,"rental_uris":{"android":"levelo://app?vid=93f26d88-3022-4aec-a738-73b701d30cfc","ios":"levelo://app?vid=93f26d88-3022-4aec-a738-73b701d30cfc"},"vehicle_type_id":"4","last_reported":1728126427,"current_range_meters":22800,"station_id":"ce4bgt12rcd13ifvqcd0","pricing_plan_id":"cebpf4jnsgd1na2vs0mg"},{"bike_id":"78ec4dbb-81e6-4a55-8ec4-29e46a1756ec","system_id":"levelo_inurba_marseille","lat":43.24392,"lon":5.37054,"is_reserved":false,"is_disabled":false,"rental_uris":{"android":"levelo://app?vid=78ec4dbb-81e6-4a55-8ec4-29e46a1756ec","ios":"levelo://app?vid=78ec4dbb-81e6-4a55-8ec4-29e46a1756ec"},"vehicle_type_id":"4","last_reported":1728126427,"current_range_meters":38000,"station_id":"ce4bhhh2rcd13ifvqfk0","pricing_plan_id":"cebpf4jnsgd1na2vs0mg"},{"bike_id":"181d0acb-edb6-4cd4-bda5-73651ee68f48","system_id":"levelo_inurba_marseille","lat":43.30796,"lon":5.38152,"is_reserved":false,"is_disabled":false,"rental_uris":{"android":"levelo://app?vid=181d0acb-edb6-4cd4-bda5-73651ee68f48","ios":"levelo://app?vid=181d0acb-edb6-4cd4-bda5-73651ee68f48"},"vehicle_type_id":"4","last_reported":1728126427,"current_range_meters":32800,"station_id":"ce4bgt12rcd13ifvqce0","pricing_plan_id":"cebpf4jnsgd1na2vs0mg"},{"bike_id":"3edccbad-c604-40df-acb2-6e9d91b67298","system_id":"levelo_inurba_marseille","lat":43.33747,"lon":5.37424,"is_reserved":false,"is_disabled":false,"rental_uris":{"android":"levelo://app?vid=3edccbad-c604-40df-acb2-6e9d91b67298","ios":"levelo://app?vid=3edccbad-c604-40df-acb2-6e9d91b67298"},"vehicle_type_id":"4","last_reported":1728126427,"current_range_meters":35600,"station_id":"","pricing_plan_id":"cebpf4jnsgd1na2vs0mg"},{"bike_id":"61de1765-6c4e-498b-ab39-fc3c7eca5023","system_id":"levelo_inurba_marseille","lat":43.2293,"lon":5.35376,"is_reserved":false,"is_disabled":false,"rental_uris":{"android":"levelo://app?vid=61de1765-6c4e-498b-ab39-fc3c7eca5023","ios":"levelo://app?vid=61de1765-6c4e-498b-ab39-fc3c7eca5023"},"vehicle_type_id":"4","last_reported":1728126427,"current_range_meters":8400,"station_id":"cpo3532slgdg3j2ikp40","pricing_plan_id":"cebpf4jnsgd1na2vs0mg"},{"bike_id":"469e4615-69fd-4f50-ab75-3a5649cbabf7","system_id":"levelo_inurba_marseille","lat":43.308,"lon":5.43524,"is_reserved":false,"is_disabled":false,"rental_uris":{"android":"levelo://app?vid=469e4615-69fd-4f50-ab75-3a5649cbabf7","ios":"levelo://app?vid=469e4615-69fd-4f50-ab75-3a5649cbabf7"},"vehicle_type_id":"4","last_reported":1728126427,"current_range_meters":12400,"station_id":"ce4bhph2rcd13ifvqheg","pricing_plan_id":"cebpf4jnsgd1na2vs0mg"},{"bike_id":"90abe724-3959-4b4e-8b53-62a762f5c121","system_id":"levelo_inurba_marseille","lat":43.31877,"lon":5.40742,"is_reserved":false,"is_disabled":false,"rental_uris":{"android":"levelo://app?vid=90abe724-3959-4b4e-8b53-62a762f5c121","ios":"levelo://app?vid=90abe724-3959-4b4e-8b53-62a762f5c121"},"vehicle_type_id":"4","last_reported":1728126427,"current_range_meters":38400,"station_id":"ce4bhq12rcd13ifvqhig","pricing_plan_id":"cebpf4jnsgd1na2vs0mg"},{"bike_id":"8d95258f-3102-451d-ad9a-25e959386858","system_id":"levelo_inurba_marseille","lat":43.30457,"lon":5.37899,"is_reserved":false,"is_disabled":false,"rental_uris":{"android":"levelo://app?vid=8d95258f-3102-451d-ad9a-25e959386858","ios":"levelo://app?vid=8d95258f-3102-451d-ad9a-25e959386858"},"vehicle_type_id":"4","last_reported":1728126427,"current_range_meters":37600,"station_id":"ce4bgup2rcd13ifvqcn0","pricing_plan_id":"cebpf4jnsgd1na2vs0mg"},{"bike_id":"4c44e4b8-d438-43b2-bdf4-053b26e6a112","system_id":"levelo_inurba_marseille","lat":43.24181,"lon":5.39726,"is_reserved":false,"is_disabled":false,"rental_uris":{"android":"levelo://app?vid=4c44e4b8-d438-43b2-bdf4-053b26e6a112","ios":"levelo://app?vid=4c44e4b8-d438-43b2-bdf4-053b26e6a112"},"vehicle_type_id":"4","last_reported":1728126427,"current_range_meters":30000,"station_id":"ce4bhn12rcd13ifvqgpg","pricing_plan_id":"cebpf4jnsgd1na2vs0mg"},{"bike_id":"c3672803-fc05-4da2-a6fb-1497db3d7f9f","system_id":"levelo_inurba_marseille","lat":43.29788,"lon":5.37097,"is_reserved":false,"is_disabled":false,"rental_uris":{"android":"levelo://app?vid=c3672803-fc05-4da2-a6fb-1497db3d7f9f","ios":"levelo://app?vid=c3672803-fc05-4da2-a6fb-1497db3d7f9f"},"vehicle_type_id":"4","last_reported":1728126427,"current_range_meters":36000,"station_id":"ce4bgop2rcd13ifvqc1g","pricing_plan_id":"cebpf4jnsgd1na2vs0mg"},{"bike_id":"37042c1b-99f0-4379-a7d0-0b6867cdb669","system_id":"levelo_inurba_marseille","lat":43.23164,"lon":5.3999,"is_reserved":false,"is_disabled":false,"rental_uris":{"android":"levelo://app?vid=37042c1b-99f0-4379-a7d0-0b6867cdb669","ios":"levelo://app?vid=37042c1b-99f0-4379-a7d0-0b6867cdb669"},"vehicle_type_id":"4","last_reported":1728126427,"current_range_meters":38800,"station_id":"ce4bhn12rcd13ifvqgqg","pricing_plan_id":"cebpf4jnsgd1na2vs0mg"},{"bike_id":"3fcd9509-291d-4e4c-8059-389700352c75","system_id":"levelo_inurba_marseille","lat":43.25722,"lon":5.41111,"is_reserved":false,"is_disabled":false,"rental_uris":{"android":"levelo://app?vid=3fcd9509-291d-4e4c-8059-389700352c75","ios":"levelo://app?vid=3fcd9509-291d-4e4c-8059-389700352c75"},"vehicle_type_id":"4","last_reported":1728126427,"current_range_meters":38400,"station_id":"ce4bhkp2rcd13ifvqgd0","pricing_plan_id":"cebpf4jnsgd1na2vs0mg"},{"bike_id":"45ad2c28-a8cd-47c1-b919-c410b05e8ed1","system_id":"levelo_inurba_marseille","lat":43.23197,"lon":5.35548,"is_reserved":false,"is_disabled":false,"rental_uris":{"android":"levelo://app?vid=45ad2c28-a8cd-47c1-b919-c410b05e8ed1","ios":"levelo://app?vid=45ad2c28-a8cd-47c1-b919-c410b05e8ed1"},"vehicle_type_id":"4","last_reported":1728126427,"current_range_meters":28800,"station_id":"ce4bhu92rcd13ifvqi70","pricing_plan_id":"cebpf4jnsgd1na2vs0mg"},{"bike_id":"d6cbae7d-ea5d-4866-91f6-639f7dc19f54","system_id":"levelo_inurba_marseille","lat":43.2796,"lon":5.38747,"is_reserved":false,"is_disabled":false,"rental_uris":{"android":"levelo://app?vid=d6cbae7d-ea5d-4866-91f6-639f7dc19f54","ios":"levelo://app?vid=d6cbae7d-ea5d-4866-91f6-639f7dc19f54"},"vehicle_type_id":"4","last_reported":1728126427,"current_range_meters":6800,"station_id":"ce4bhg12rcd13ifvqf80","pricing_plan_id":"cebpf4jnsgd1na2vs0mg"},{"bike_id":"f44ef408-f651-4fa4-aa7d-0d70f8af6a65","system_id":"levelo_inurba_marseille","lat":43.23193,"lon":5.35544,"is_reserved":false,"is_disabled":false,"rental_uris":{"android":"levelo://app?vid=f44ef408-f651-4fa4-aa7d-0d70f8af6a65","ios":"levelo://app?vid=f44ef408-f651-4fa4-aa7d-0d70f8af6a65"},"vehicle_type_id":"4","last_reported":1728126427,"current_range_meters":4400,"station_id":"ce4bhu92rcd13ifvqi70","pricing_plan_id":"cebpf4jnsgd1na2vs0mg"},{"bike_id":"4920a91b-45c3-4cc6-8c11-e9c0ce20f787","system_id":"levelo_inurba_marseille","lat":43.22932,"lon":5.35377,"is_reserved":false,"is_disabled":false,"rental_uris":{"android":"levelo://app?vid=4920a91b-45c3-4cc6-8c11-e9c0ce20f787","ios":"levelo://app?vid=4920a91b-45c3-4cc6-8c11-e9c0ce20f787"},"vehicle_type_id":"4","last_reported":1728126427,"current_range_meters":31200,"station_id":"cpo3532slgdg3j2ikp40","pricing_plan_id":"cebpf4jnsgd1na2vs0mg"},{"bike_id":"b70972c3-09e2-4583-8902-d33691ebdef9","system_id":"levelo_inurba_marseille","lat":43.295807,"lon":5.367361,"is_reserved":false,"is_disabled":false,"rental_uris":{"android":"levelo://app?vid=b70972c3-09e2-4583-8902-d33691ebdef9","ios":"levelo://app?vid=b70972c3-09e2-4583-8902-d33691ebdef9"},"vehicle_type_id":"4","last_reported":1728126427,"current_range_meters":35200,"station_id":"ce4bgph2rcd13ifvqc2g","pricing_plan_id":"cebpf4jnsgd1na2vs0mg"},{"bike_id":"69b2ab72-6eb7-403d-85c7-be72aa2ab82b","system_id":"levelo_inurba_marseille","lat":43.30098,"lon":5.40029,"is_reserved":false,"is_disabled":false,"rental_uris":{"android":"levelo://app?vid=69b2ab72-6eb7-403d-85c7-be72aa2ab82b","ios":"levelo://app?vid=69b2ab72-6eb7-403d-85c7-be72aa2ab82b"},"vehicle_type_id":"4","last_reported":1728126427,"current_range_meters":18000,"station_id":"","pricing_plan_id":"cebpf4jnsgd1na2vs0mg"},{"bike_id":"7d9609ca-0c84-4f46-a009-745b064e212b","system_id":"levelo_inurba_marseille","lat":43.27975,"lon":5.38752,"is_reserved":false,"is_disabled":false,"rental_uris":{"android":"levelo://app?vid=7d9609ca-0c84-4f46-a009-745b064e212b","ios":"levelo://app?vid=7d9609ca-0c84-4f46-a009-745b064e212b"},"vehicle_type_id":"4","last_reported":1728126427,"current_range_meters":37600,"station_id":"ce4bhg12rcd13ifvqf80","pricing_plan_id":"cebpf4jnsgd1na2vs0mg"},{"bike_id":"73a24e0e-e6db-43a8-bdc3-253983d48aa8","system_id":"levelo_inurba_marseille","lat":43.25581,"lon":5.38222,"is_reserved":false,"is_disabled":false,"rental_uris":{"android":"levelo://app?vid=73a24e0e-e6db-43a8-bdc3-253983d48aa8","ios":"levelo://app?vid=73a24e0e-e6db-43a8-bdc3-253983d48aa8"},"vehicle_type_id":"4","last_reported":1728126427,"current_range_meters":40000,"station_id":"ce4bhih2rcd13ifvqfs0","pricing_plan_id":"cebpf4jnsgd1na2vs0mg"},{"bike_id":"2ee470a2-f6fc-41c4-9ed0-be15e787887a","system_id":"levelo_inurba_marseille","lat":43.23967,"lon":5.36634,"is_reserved":false,"is_disabled":false,"rental_uris":{"android":"levelo://app?vid=2ee470a2-f6fc-41c4-9ed0-be15e787887a","ios":"levelo://app?vid=2ee470a2-f6fc-41c4-9ed0-be15e787887a"},"vehicle_type_id":"4","last_reported":1728126427,"current_range_meters":38800,"station_id":"ce4bhi12rcd13ifvqfp0","pricing_plan_id":"cebpf4jnsgd1na2vs0mg"},{"bike_id":"bc54aa5a-da10-4aea-b2d7-ad7518cc716d","system_id":"levelo_inurba_marseille","lat":43.28422,"lon":5.34986,"is_reserved":false,"is_disabled":false,"rental_uris":{"android":"levelo://app?vid=bc54aa5a-da10-4aea-b2d7-ad7518cc716d","ios":"levelo://app?vid=bc54aa5a-da10-4aea-b2d7-ad7518cc716d"},"vehicle_type_id":"4","last_reported":1728126427,"current_range_meters":31200,"station_id":"ce4bhbh2rcd13ifvqepg","pricing_plan_id":"cebpf4jnsgd1na2vs0mg"},{"bike_id":"e6b2df58-b4a0-4aec-933d-a62e42f34d34","system_id":"levelo_inurba_marseille","lat":43.33725,"lon":5.39192,"is_reserved":false,"is_disabled":false,"rental_uris":{"android":"levelo://app?vid=e6b2df58-b4a0-4aec-933d-a62e42f34d34","ios":"levelo://app?vid=e6b2df58-b4a0-4aec-933d-a62e42f34d34"},"vehicle_type_id":"4","last_reported":1728126427,"current_range_meters":13600,"station_id":"ce4bhr92rcd13ifvqhsg","pricing_plan_id":"cebpf4jnsgd1na2vs0mg"},{"bike_id":"a20defd8-4cf4-4093-aed2-596ba3be1d30","system_id":"levelo_inurba_marseille","lat":43.24074,"lon":5.37763,"is_reserved":false,"is_disabled":false,"rental_uris":{"android":"levelo://app?vid=a20defd8-4cf4-4093-aed2-596ba3be1d30","ios":"levelo://app?vid=a20defd8-4cf4-4093-aed2-596ba3be1d30"},"vehicle_type_id":"4","last_reported":1728126427,"current_range_meters":24400,"station_id":"ce4bhnp2rcd13ifvqgvg","pricing_plan_id":"cebpf4jnsgd1na2vs0mg"},{"bike_id":"1aaa510e-d668-4fbb-968e-d83532152ffc","system_id":"levelo_inurba_marseille","lat":43.31328,"lon":5.39684,"is_reserved":false,"is_disabled":false,"rental_uris":{"android":"levelo://app?vid=1aaa510e-d668-4fbb-968e-d83532152ffc","ios":"levelo://app?vid=1aaa510e-d668-4fbb-968e-d83532152ffc"},"vehicle_type_id":"4","last_reported":1728126427,"current_range_meters":4800,"station_id":"ce4bgvp2rcd13ifvqcu0","pricing_plan_id":"cebpf4jnsgd1na2vs0mg"},{"bike_id":"dee1eff5-25dc-4bd7-ae90-88eb14d74bf3","system_id":"levelo_inurba_marseille","lat":43.27208,"lon":5.39183,"is_reserved":false,"is_disabled":false,"rental_uris":{"android":"levelo://app?vid=dee1eff5-25dc-4bd7-ae90-88eb14d74bf3","ios":"levelo://app?vid=dee1eff5-25dc-4bd7-ae90-88eb14d74bf3"},"vehicle_type_id":"4","last_reported":1728126427,"current_range_meters":38800,"station_id":"ce4bhhp2rcd13ifvqfm0","pricing_plan_id":"cebpf4jnsgd1na2vs0mg"},{"bike_id":"d77938b7-ff1e-465c-a8b9-4b07085a5cc9","system_id":"levelo_inurba_marseille","lat":43.23062,"lon":5.35488,"is_reserved":false,"is_disabled":false,"rental_uris":{"android":"levelo://app?vid=d77938b7-ff1e-465c-a8b9-4b07085a5cc9","ios":"levelo://app?vid=d77938b7-ff1e-465c-a8b9-4b07085a5cc9"},"vehicle_type_id":"4","last_reported":1728126427,"current_range_meters":12800,"station_id":"cpo3342slgdg3j2ifvpg","pricing_plan_id":"cebpf4jnsgd1na2vs0mg"},{"bike_id":"852457a1-813f-46b8-bb13-232384e208e9","system_id":"levelo_inurba_marseille","lat":43.3377,"lon":5.37442,"is_reserved":false,"is_disabled":false,"rental_uris":{"android":"levelo://app?vid=852457a1-813f-46b8-bb13-232384e208e9","ios":"levelo://app?vid=852457a1-813f-46b8-bb13-232384e208e9"},"vehicle_type_id":"4","last_reported":1728126427,"current_range_meters":34000,"station_id":"","pricing_plan_id":"cebpf4jnsgd1na2vs0mg"},{"bike_id":"0d79ef91-e03a-4511-b960-a6f350f28d65","system_id":"levelo_inurba_marseille","lat":43.23062,"lon":5.35491,"is_reserved":false,"is_disabled":false,"rental_uris":{"android":"levelo://app?vid=0d79ef91-e03a-4511-b960-a6f350f28d65","ios":"levelo://app?vid=0d79ef91-e03a-4511-b960-a6f350f28d65"},"vehicle_type_id":"4","last_reported":1728126427,"current_range_meters":19600,"station_id":"cpo3342slgdg3j2ifvpg","pricing_plan_id":"cebpf4jnsgd1na2vs0mg"},{"bike_id":"a53b98f8-52a1-4fbf-9c54-5ce202cb9f71","system_id":"levelo_inurba_marseille","lat":43.27376,"lon":5.36259,"is_reserved":false,"is_disabled":false,"rental_uris":{"android":"levelo://app?vid=a53b98f8-52a1-4fbf-9c54-5ce202cb9f71","ios":"levelo://app?vid=a53b98f8-52a1-4fbf-9c54-5ce202cb9f71"},"vehicle_type_id":"4","last_reported":1728126427,"current_range_meters":38000,"station_id":"ce4bhbh2rcd13ifvqeo0","pricing_plan_id":"cebpf4jnsgd1na2vs0mg"},{"bike_id":"54d09a39-e79d-434c-8a05-a8f2660c6a94","system_id":"levelo_inurba_marseille","lat":43.29902,"lon":5.43673,"is_reserved":false,"is_disabled":false,"rental_uris":{"android":"levelo://app?vid=54d09a39-e79d-434c-8a05-a8f2660c6a94","ios":"levelo://app?vid=54d09a39-e79d-434c-8a05-a8f2660c6a94"},"vehicle_type_id":"4","last_reported":1728126427,"current_range_meters":11600,"station_id":"ce4bhpp2rcd13ifvqhfg","pricing_plan_id":"cebpf4jnsgd1na2vs0mg"},{"bike_id":"e88589c2-9daf-4f7c-9d5a-36ecf8f63f21","system_id":"levelo_inurba_marseille","lat":43.3266,"lon":5.40983,"is_reserved":false,"is_disabled":false,"rental_uris":{"android":"levelo://app?vid=e88589c2-9daf-4f7c-9d5a-36ecf8f63f21","ios":"levelo://app?vid=e88589c2-9daf-4f7c-9d5a-36ecf8f63f21"},"vehicle_type_id":"4","last_reported":1728126427,"current_range_meters":37600,"station_id":"ce4bhpp2rcd13ifvqhgg","pricing_plan_id":"cebpf4jnsgd1na2vs0mg"},{"bike_id":"f55aa566-1be1-4fd7-aeaa-34da213cbbd9","system_id":"levelo_inurba_marseille","lat":43.27202,"lon":5.39174,"is_reserved":false,"is_disabled":false,"rental_uris":{"android":"levelo://app?vid=f55aa566-1be1-4fd7-aeaa-34da213cbbd9","ios":"levelo://app?vid=f55aa566-1be1-4fd7-aeaa-34da213cbbd9"},"vehicle_type_id":"4","last_reported":1728126427,"current_range_meters":25200,"station_id":"ce4bhhp2rcd13ifvqfm0","pricing_plan_id":"cebpf4jnsgd1na2vs0mg"},{"bike_id":"2bd7e949-580a-4297-b427-4b62fa0e3480","system_id":"levelo_inurba_marseille","lat":43.23148,"lon":5.43706,"is_reserved":false,"is_disabled":false,"rental_uris":{"android":"levelo://app?vid=2bd7e949-580a-4297-b427-4b62fa0e3480","ios":"levelo://app?vid=2bd7e949-580a-4297-b427-4b62fa0e3480"},"vehicle_type_id":"4","last_reported":1728126427,"current_range_meters":35200,"station_id":"ce4bhmp2rcd13ifvqgog","pricing_plan_id":"cebpf4jnsgd1na2vs0mg"},{"bike_id":"308ae973-a71c-45c1-9a03-b73643f01e25","system_id":"levelo_inurba_marseille","lat":43.3171,"lon":5.43706,"is_reserved":false,"is_disabled":false,"rental_uris":{"android":"levelo://app?vid=308ae973-a71c-45c1-9a03-b73643f01e25","ios":"levelo://app?vid=308ae973-a71c-45c1-9a03-b73643f01e25"},"vehicle_type_id":"4","last_reported":1728126427,"current_range_meters":24000,"station_id":"ce4bhp92rcd13ifvqhcg","pricing_plan_id":"cebpf4jnsgd1na2vs0mg"},{"bike_id":"baba7691-81ff-4c7d-90d9-c89eba9696cb","system_id":"levelo_inurba_marseille","lat":43.25929,"lon":5.40912,"is_reserved":false,"is_disabled":false,"rental_uris":{"android":"levelo://app?vid=baba7691-81ff-4c7d-90d9-c89eba9696cb","ios":"levelo://app?vid=baba7691-81ff-4c7d-90d9-c89eba9696cb"},"vehicle_type_id":"4","last_reported":1728126427,"current_range_meters":36800,"station_id":"ce4bhm92rcd13ifvqglg","pricing_plan_id":"cebpf4jnsgd1na2vs0mg"},{"bike_id":"8398f01b-0c89-49cd-bea3-9feffbf7b091","system_id":"levelo_inurba_marseille","lat":43.307983,"lon":5.435275,"is_reserved":false,"is_disabled":false,"rental_uris":{"android":"levelo://app?vid=8398f01b-0c89-49cd-bea3-9feffbf7b091","ios":"levelo://app?vid=8398f01b-0c89-49cd-bea3-9feffbf7b091"},"vehicle_type_id":"4","last_reported":1728126427,"current_range_meters":38800,"station_id":"ce4bhph2rcd13ifvqheg","pricing_plan_id":"cebpf4jnsgd1na2vs0mg"},{"bike_id":"003f79fe-6d41-46f1-841e-89c95bada677","system_id":"levelo_inurba_marseille","lat":43.22933,"lon":5.35373,"is_reserved":false,"is_disabled":false,"rental_uris":{"android":"levelo://app?vid=003f79fe-6d41-46f1-841e-89c95bada677","ios":"levelo://app?vid=003f79fe-6d41-46f1-841e-89c95bada677"},"vehicle_type_id":"4","last_reported":1728126427,"current_range_meters":38800,"station_id":"cpo3532slgdg3j2ikp40","pricing_plan_id":"cebpf4jnsgd1na2vs0mg"},{"bike_id":"9b1fdaab-9762-4e5c-a65b-9b87bd108269","system_id":"levelo_inurba_marseille","lat":43.27678,"lon":5.38873,"is_reserved":false,"is_disabled":false,"rental_uris":{"android":"levelo://app?vid=9b1fdaab-9762-4e5c-a65b-9b87bd108269","ios":"levelo://app?vid=9b1fdaab-9762-4e5c-a65b-9b87bd108269"},"vehicle_type_id":"4","last_reported":1728126427,"current_range_meters":30400,"station_id":"ce4bhi12rcd13ifvqfo0","pricing_plan_id":"cebpf4jnsgd1na2vs0mg"},{"bike_id":"560cbcfd-dddb-4948-9f2b-ea57c785178f","system_id":"levelo_inurba_marseille","lat":43.25583,"lon":5.38225,"is_reserved":false,"is_disabled":false,"rental_uris":{"android":"levelo://app?vid=560cbcfd-dddb-4948-9f2b-ea57c785178f","ios":"levelo://app?vid=560cbcfd-dddb-4948-9f2b-ea57c785178f"},"vehicle_type_id":"4","last_reported":1728126427,"current_range_meters":23200,"station_id":"ce4bhih2rcd13ifvqfs0","pricing_plan_id":"cebpf4jnsgd1na2vs0mg"},{"bike_id":"e5e43828-a215-457d-9526-dc97b02d3d09","system_id":"levelo_inurba_marseille","lat":43.23967,"lon":5.36633,"is_reserved":false,"is_disabled":false,"rental_uris":{"android":"levelo://app?vid=e5e43828-a215-457d-9526-dc97b02d3d09","ios":"levelo://app?vid=e5e43828-a215-457d-9526-dc97b02d3d09"},"vehicle_type_id":"4","last_reported":1728126427,"current_range_meters":22000,"station_id":"ce4bhi12rcd13ifvqfp0","pricing_plan_id":"cebpf4jnsgd1na2vs0mg"},{"bike_id":"efc2d284-8655-4444-a01a-313fd31e0e69","system_id":"levelo_inurba_marseille","lat":43.29776,"lon":5.37095,"is_reserved":false,"is_disabled":false,"rental_uris":{"android":"levelo://app?vid=efc2d284-8655-4444-a01a-313fd31e0e69","ios":"levelo://app?vid=efc2d284-8655-4444-a01a-313fd31e0e69"},"vehicle_type_id":"4","last_reported":1728126427,"current_range_meters":19200,"station_id":"ce4bgop2rcd13ifvqc1g","pricing_plan_id":"cebpf4jnsgd1na2vs0mg"},{"bike_id":"4af55307-045f-4c66-a045-a91d88bb4c16","system_id":"levelo_inurba_marseille","lat":43.33766,"lon":5.37426,"is_reserved":false,"is_disabled":false,"rental_uris":{"android":"levelo://app?vid=4af55307-045f-4c66-a045-a91d88bb4c16","ios":"levelo://app?vid=4af55307-045f-4c66-a045-a91d88bb4c16"},"vehicle_type_id":"4","last_reported":1728126427,"current_range_meters":36000,"station_id":"","pricing_plan_id":"cebpf4jnsgd1na2vs0mg"},{"bike_id":"a3f87593-f91c-424c-8b11-f4aa40b65d37","system_id":"levelo_inurba_marseille","lat":43.29557,"lon":5.42293,"is_reserved":false,"is_disabled":false,"rental_uris":{"android":"levelo://app?vid=a3f87593-f91c-424c-8b11-f4aa40b65d37","ios":"levelo://app?vid=a3f87593-f91c-424c-8b11-f4aa40b65d37"},"vehicle_type_id":"4","last_reported":1728126427,"current_range_meters":38800,"station_id":"ce4bhph2rcd13ifvqhdg","pricing_plan_id":"cebpf4jnsgd1na2vs0mg"},{"bike_id":"048b48e2-fdf6-4f53-aa74-369aa9ffb52c","system_id":"levelo_inurba_marseille","lat":43.23148,"lon":5.43718,"is_reserved":false,"is_disabled":false,"rental_uris":{"android":"levelo://app?vid=048b48e2-fdf6-4f53-aa74-369aa9ffb52c","ios":"levelo://app?vid=048b48e2-fdf6-4f53-aa74-369aa9ffb52c"},"vehicle_type_id":"4","last_reported":1728126427,"current_range_meters":24400,"station_id":"ce4bhmp2rcd13ifvqgog","pricing_plan_id":"cebpf4jnsgd1na2vs0mg"},{"bike_id":"48ec74e3-f3af-47c6-8e6c-eab8a86edf9e","system_id":"levelo_inurba_marseille","lat":43.28947,"lon":5.36405,"is_reserved":false,"is_disabled":false,"rental_uris":{"android":"levelo://app?vid=48ec74e3-f3af-47c6-8e6c-eab8a86edf9e","ios":"levelo://app?vid=48ec74e3-f3af-47c6-8e6c-eab8a86edf9e"},"vehicle_type_id":"4","last_reported":1728126427,"current_range_meters":34800,"station_id":"ce4bhc92rcd13ifvqetg","pricing_plan_id":"cebpf4jnsgd1na2vs0mg"},{"bike_id":"7860ebf1-9768-4e5a-ade7-4594d867aa1a","system_id":"levelo_inurba_marseille","lat":43.28847,"lon":5.35869,"is_reserved":false,"is_disabled":false,"rental_uris":{"android":"levelo://app?vid=7860ebf1-9768-4e5a-ade7-4594d867aa1a","ios":"levelo://app?vid=7860ebf1-9768-4e5a-ade7-4594d867aa1a"},"vehicle_type_id":"4","last_reported":1728126427,"current_range_meters":37600,"station_id":"ce4bhb12rcd13ifvqem0","pricing_plan_id":"cebpf4jnsgd1na2vs0mg"},{"bike_id":"13a35d1a-1c21-4cdd-9282-17040c700716","system_id":"levelo_inurba_marseille","lat":43.32537,"lon":5.41446,"is_reserved":false,"is_disabled":false,"rental_uris":{"android":"levelo://app?vid=13a35d1a-1c21-4cdd-9282-17040c700716","ios":"levelo://app?vid=13a35d1a-1c21-4cdd-9282-17040c700716"},"vehicle_type_id":"4","last_reported":1728126427,"current_range_meters":38400,"station_id":"ce4bhq12rcd13ifvqhhg","pricing_plan_id":"cebpf4jnsgd1na2vs0mg"},{"bike_id":"8aa2ac51-ddb1-4718-9a74-6b9a94996e28","system_id":"levelo_inurba_marseille","lat":43.295297,"lon":5.367294,"is_reserved":false,"is_disabled":false,"rental_uris":{"android":"levelo://app?vid=8aa2ac51-ddb1-4718-9a74-6b9a94996e28","ios":"levelo://app?vid=8aa2ac51-ddb1-4718-9a74-6b9a94996e28"},"vehicle_type_id":"4","last_reported":1728126427,"current_range_meters":29600,"station_id":"ce4bgnh2rcd13ifvqc0g","pricing_plan_id":"cebpf4jnsgd1na2vs0mg"},{"bike_id":"b7323d7c-c4d1-4f85-bef5-d47e846dc565","system_id":"levelo_inurba_marseille","lat":43.23181,"lon":5.39991,"is_reserved":false,"is_disabled":false,"rental_uris":{"android":"levelo://app?vid=b7323d7c-c4d1-4f85-bef5-d47e846dc565","ios":"levelo://app?vid=b7323d7c-c4d1-4f85-bef5-d47e846dc565"},"vehicle_type_id":"4","last_reported":1728126427,"current_range_meters":25200,"station_id":"ce4bhn12rcd13ifvqgqg","pricing_plan_id":"cebpf4jnsgd1na2vs0mg"},{"bike_id":"696644f5-1423-4196-8c71-bccdf5f2a225","system_id":"levelo_inurba_marseille","lat":43.28419,"lon":5.34989,"is_reserved":false,"is_disabled":false,"rental_uris":{"android":"levelo://app?vid=696644f5-1423-4196-8c71-bccdf5f2a225","ios":"levelo://app?vid=696644f5-1423-4196-8c71-bccdf5f2a225"},"vehicle_type_id":"4","last_reported":1728126427,"current_range_meters":38400,"station_id":"ce4bhbh2rcd13ifvqepg","pricing_plan_id":"cebpf4jnsgd1na2vs0mg"},{"bike_id":"afb833f8-2a8f-416b-9edc-80e19206939a","system_id":"levelo_inurba_marseille","lat":43.22928,"lon":5.3537,"is_reserved":false,"is_disabled":false,"rental_uris":{"android":"levelo://app?vid=afb833f8-2a8f-416b-9edc-80e19206939a","ios":"levelo://app?vid=afb833f8-2a8f-416b-9edc-80e19206939a"},"vehicle_type_id":"4","last_reported":1728126427,"current_range_meters":26000,"station_id":"cpo3532slgdg3j2ikp40","pricing_plan_id":"cebpf4jnsgd1na2vs0mg"},{"bike_id":"3b331ddc-b6e0-4524-a213-681816e88962","system_id":"levelo_inurba_marseille","lat":43.32358,"lon":5.38884,"is_reserved":false,"is_disabled":false,"rental_uris":{"android":"levelo://app?vid=3b331ddc-b6e0-4524-a213-681816e88962","ios":"levelo://app?vid=3b331ddc-b6e0-4524-a213-681816e88962"},"vehicle_type_id":"4","last_reported":1728126427,"current_range_meters":22800,"station_id":"ce4bhqp2rcd13ifvqhog","pricing_plan_id":"cebpf4jnsgd1na2vs0mg"},{"bike_id":"9b7879c9-204a-45b0-95d9-84c09eccf781","system_id":"levelo_inurba_marseille","lat":43.27277,"lon":5.39105,"is_reserved":false,"is_disabled":false,"rental_uris":{"android":"levelo://app?vid=9b7879c9-204a-45b0-95d9-84c09eccf781","ios":"levelo://app?vid=9b7879c9-204a-45b0-95d9-84c09eccf781"},"vehicle_type_id":"4","last_reported":1728126427,"current_range_meters":30400,"station_id":"ce4bhkp2rcd13ifvqgd0","pricing_plan_id":"cebpf4jnsgd1na2vs0mg"},{"bike_id":"903fd9bf-3eb9-4d9a-9052-561a43b272c0","system_id":"levelo_inurba_marseille","lat":43.29168,"lon":5.3717,"is_reserved":false,"is_disabled":false,"rental_uris":{"android":"levelo://app?vid=903fd9bf-3eb9-4d9a-9052-561a43b272c0","ios":"levelo://app?vid=903fd9bf-3eb9-4d9a-9052-561a43b272c0"},"vehicle_type_id":"4","last_reported":1728126427,"current_range_meters":30000,"station_id":"ce4bha92rcd13ifvqeh0","pricing_plan_id":"cebpf4jnsgd1na2vs0mg"},{"bike_id":"2f337cc6-9141-49b7-8d58-9e3bdedc3f11","system_id":"levelo_inurba_marseille","lat":43.23195,"lon":5.35552,"is_reserved":false,"is_disabled":false,"rental_uris":{"android":"levelo://app?vid=2f337cc6-9141-49b7-8d58-9e3bdedc3f11","ios":"levelo://app?vid=2f337cc6-9141-49b7-8d58-9e3bdedc3f11"},"vehicle_type_id":"4","last_reported":1728126427,"current_range_meters":21600,"station_id":"ce4bhu92rcd13ifvqi70","pricing_plan_id":"cebpf4jnsgd1na2vs0mg"},{"bike_id":"767b5572-7a96-45fd-9ea6-1b05056115f2","system_id":"levelo_inurba_marseille","lat":43.33025,"lon":5.39039,"is_reserved":false,"is_disabled":false,"rental_uris":{"android":"levelo://app?vid=767b5572-7a96-45fd-9ea6-1b05056115f2","ios":"levelo://app?vid=767b5572-7a96-45fd-9ea6-1b05056115f2"},"vehicle_type_id":"4","last_reported":1728126427,"current_range_meters":32000,"station_id":"ce4bhr92rcd13ifvqhrg","pricing_plan_id":"cebpf4jnsgd1na2vs0mg"},{"bike_id":"19e5eea8-1b8a-4629-be8a-06087abeb4d6","system_id":"levelo_inurba_marseille","lat":43.28403,"lon":5.37502,"is_reserved":false,"is_disabled":false,"rental_uris":{"android":"levelo://app?vid=19e5eea8-1b8a-4629-be8a-06087abeb4d6","ios":"levelo://app?vid=19e5eea8-1b8a-4629-be8a-06087abeb4d6"},"vehicle_type_id":"4","last_reported":1728126427,"current_range_meters":38800,"station_id":"ce4bh412rcd13ifvqds0","pricing_plan_id":"cebpf4jnsgd1na2vs0mg"},{"bike_id":"111479af-5882-4150-805f-61f12bd8930d","system_id":"levelo_inurba_marseille","lat":43.23961,"lon":5.36629,"is_reserved":false,"is_disabled":false,"rental_uris":{"android":"levelo://app?vid=111479af-5882-4150-805f-61f12bd8930d","ios":"levelo://app?vid=111479af-5882-4150-805f-61f12bd8930d"},"vehicle_type_id":"4","last_reported":1728126427,"current_range_meters":20800,"station_id":"","pricing_plan_id":"cebpf4jnsgd1na2vs0mg"},{"bike_id":"72bbe761-9e6f-4875-967a-637883cd8459","system_id":"levelo_inurba_marseille","lat":43.24999,"lon":5.38931,"is_reserved":false,"is_disabled":false,"rental_uris":{"android":"levelo://app?vid=72bbe761-9e6f-4875-967a-637883cd8459","ios":"levelo://app?vid=72bbe761-9e6f-4875-967a-637883cd8459"},"vehicle_type_id":"4","last_reported":1728126427,"current_range_meters":38800,"station_id":"ce4bhgp2rcd13ifvqfd0","pricing_plan_id":"cebpf4jnsgd1na2vs0mg"},{"bike_id":"af4274e7-8917-4f38-82c3-5d5e85317a39","system_id":"levelo_inurba_marseille","lat":43.27055,"lon":5.40259,"is_reserved":false,"is_disabled":false,"rental_uris":{"android":"levelo://app?vid=af4274e7-8917-4f38-82c3-5d5e85317a39","ios":"levelo://app?vid=af4274e7-8917-4f38-82c3-5d5e85317a39"},"vehicle_type_id":"4","last_reported":1728126427,"current_range_meters":24000,"station_id":"ce4bhk92rcd13ifvqgc0","pricing_plan_id":"cebpf4jnsgd1na2vs0mg"},{"bike_id":"fcfb42de-cde1-4ec3-8e89-f197fdfcc1a8","system_id":"levelo_inurba_marseille","lat":43.23966,"lon":5.36638,"is_reserved":false,"is_disabled":false,"rental_uris":{"android":"levelo://app?vid=fcfb42de-cde1-4ec3-8e89-f197fdfcc1a8","ios":"levelo://app?vid=fcfb42de-cde1-4ec3-8e89-f197fdfcc1a8"},"vehicle_type_id":"4","last_reported":1728126427,"current_range_meters":38800,"station_id":"ce4bhi12rcd13ifvqfp0","pricing_plan_id":"cebpf4jnsgd1na2vs0mg"},{"bike_id":"7101b9db-d328-47cf-a085-f83e3e2a7f92","system_id":"levelo_inurba_marseille","lat":43.26812,"lon":5.40262,"is_reserved":false,"is_disabled":false,"rental_uris":{"android":"levelo://app?vid=7101b9db-d328-47cf-a085-f83e3e2a7f92","ios":"levelo://app?vid=7101b9db-d328-47cf-a085-f83e3e2a7f92"},"vehicle_type_id":"4","last_reported":1728126427,"current_range_meters":8400,"station_id":"ce501612rcd8frsf0b60","pricing_plan_id":"cebpf4jnsgd1na2vs0mg"},{"bike_id":"7e66880f-0900-49ff-af7a-be31fbfac82a","system_id":"levelo_inurba_marseille","lat":43.31318,"lon":5.36766,"is_reserved":false,"is_disabled":false,"rental_uris":{"android":"levelo://app?vid=7e66880f-0900-49ff-af7a-be31fbfac82a","ios":"levelo://app?vid=7e66880f-0900-49ff-af7a-be31fbfac82a"},"vehicle_type_id":"4","last_reported":1728126427,"current_range_meters":38800,"station_id":"ce4bgr92rcd13ifvqc6g","pricing_plan_id":"cebpf4jnsgd1na2vs0mg"},{"bike_id":"c00d56df-3d94-4378-a507-25fefbac731b","system_id":"levelo_inurba_marseille","lat":43.23151,"lon":5.43713,"is_reserved":false,"is_disabled":false,"rental_uris":{"android":"levelo://app?vid=c00d56df-3d94-4378-a507-25fefbac731b","ios":"levelo://app?vid=c00d56df-3d94-4378-a507-25fefbac731b"},"vehicle_type_id":"4","last_reported":1728126427,"current_range_meters":34800,"station_id":"ce4bhmp2rcd13ifvqgog","pricing_plan_id":"cebpf4jnsgd1na2vs0mg"},{"bike_id":"9b20213d-3b6d-4970-bbc8-1bdf51f25874","system_id":"levelo_inurba_marseille","lat":43.2318,"lon":5.39988,"is_reserved":false,"is_disabled":false,"rental_uris":{"android":"levelo://app?vid=9b20213d-3b6d-4970-bbc8-1bdf51f25874","ios":"levelo://app?vid=9b20213d-3b6d-4970-bbc8-1bdf51f25874"},"vehicle_type_id":"4","last_reported":1728126427,"current_range_meters":19200,"station_id":"ce4bhn12rcd13ifvqgqg","pricing_plan_id":"cebpf4jnsgd1na2vs0mg"},{"bike_id":"2b1af9ff-8172-4ee2-a5f5-6b23c25a6ae2","system_id":"levelo_inurba_marseille","lat":43.24385,"lon":5.37056,"is_reserved":false,"is_disabled":false,"rental_uris":{"android":"levelo://app?vid=2b1af9ff-8172-4ee2-a5f5-6b23c25a6ae2","ios":"levelo://app?vid=2b1af9ff-8172-4ee2-a5f5-6b23c25a6ae2"},"vehicle_type_id":"4","last_reported":1728126427,"current_range_meters":4400,"station_id":"ce4bhhh2rcd13ifvqfk0","pricing_plan_id":"cebpf4jnsgd1na2vs0mg"},{"bike_id":"32161012-57b2-493b-9339-55bd1d352a1a","system_id":"levelo_inurba_marseille","lat":43.2872,"lon":5.3794,"is_reserved":false,"is_disabled":false,"rental_uris":{"android":"levelo://app?vid=32161012-57b2-493b-9339-55bd1d352a1a","ios":"levelo://app?vid=32161012-57b2-493b-9339-55bd1d352a1a"},"vehicle_type_id":"4","last_reported":1728126427,"current_range_meters":32000,"station_id":"ce4bh9p2rcd13ifvqec0","pricing_plan_id":"cebpf4jnsgd1na2vs0mg"},{"bike_id":"50cbe535-0a7c-404c-a193-b39d3ad011e2","system_id":"levelo_inurba_marseille","lat":43.27562,"lon":5.3842,"is_reserved":false,"is_disabled":false,"rental_uris":{"android":"levelo://app?vid=50cbe535-0a7c-404c-a193-b39d3ad011e2","ios":"levelo://app?vid=50cbe535-0a7c-404c-a193-b39d3ad011e2"},"vehicle_type_id":"4","last_reported":1728126427,"current_range_meters":20400,"station_id":"ce4bhh92rcd13ifvqfi0","pricing_plan_id":"cebpf4jnsgd1na2vs0mg"},{"bike_id":"79b9780c-0672-46ff-af34-19be6dec4043","system_id":"levelo_inurba_marseille","lat":43.3171,"lon":5.43707,"is_reserved":false,"is_disabled":false,"rental_uris":{"android":"levelo://app?vid=79b9780c-0672-46ff-af34-19be6dec4043","ios":"levelo://app?vid=79b9780c-0672-46ff-af34-19be6dec4043"},"vehicle_type_id":"4","last_reported":1728126427,"current_range_meters":24800,"station_id":"ce4bhp92rcd13ifvqhcg","pricing_plan_id":"cebpf4jnsgd1na2vs0mg"},{"bike_id":"c834a83f-7cdd-4ee0-8a28-252d4b26a69b","system_id":"levelo_inurba_marseille","lat":43.31115,"lon":5.37773,"is_reserved":false,"is_disabled":false,"rental_uris":{"android":"levelo://app?vid=c834a83f-7cdd-4ee0-8a28-252d4b26a69b","ios":"levelo://app?vid=c834a83f-7cdd-4ee0-8a28-252d4b26a69b"},"vehicle_type_id":"4","last_reported":1728126427,"current_range_meters":2000,"station_id":"ce4bgt92rcd13ifvqcg0","pricing_plan_id":"cebpf4jnsgd1na2vs0mg"},{"bike_id":"b3490f81-990c-4d77-b92d-53dde7d596b3","system_id":"levelo_inurba_marseille","lat":43.29683,"lon":5.37281,"is_reserved":false,"is_disabled":false,"rental_uris":{"android":"levelo://app?vid=b3490f81-990c-4d77-b92d-53dde7d596b3","ios":"levelo://app?vid=b3490f81-990c-4d77-b92d-53dde7d596b3"},"vehicle_type_id":"4","last_reported":1728126427,"current_range_meters":38800,"station_id":"ce4bgk12rcd13ifvqbj0","pricing_plan_id":"cebpf4jnsgd1na2vs0mg"},{"bike_id":"e19b1534-7c99-4fb8-bf6a-8ba1bcc29923","system_id":"levelo_inurba_marseille","lat":43.23151,"lon":5.43708,"is_reserved":false,"is_disabled":false,"rental_uris":{"android":"levelo://app?vid=e19b1534-7c99-4fb8-bf6a-8ba1bcc29923","ios":"levelo://app?vid=e19b1534-7c99-4fb8-bf6a-8ba1bcc29923"},"vehicle_type_id":"4","last_reported":1728126427,"current_range_meters":28400,"station_id":"ce4bhmp2rcd13ifvqgog","pricing_plan_id":"cebpf4jnsgd1na2vs0mg"},{"bike_id":"ec9d09d9-6e9a-485b-815d-c95b780e73e5","system_id":"levelo_inurba_marseille","lat":43.32655,"lon":5.40991,"is_reserved":false,"is_disabled":false,"rental_uris":{"android":"levelo://app?vid=ec9d09d9-6e9a-485b-815d-c95b780e73e5","ios":"levelo://app?vid=ec9d09d9-6e9a-485b-815d-c95b780e73e5"},"vehicle_type_id":"4","last_reported":1728126427,"current_range_meters":10800,"station_id":"ce4bhpp2rcd13ifvqhgg","pricing_plan_id":"cebpf4jnsgd1na2vs0mg"},{"bike_id":"24e8665c-c387-4bce-a92a-51df3b36226c","system_id":"levelo_inurba_marseille","lat":43.23195,"lon":5.35546,"is_reserved":false,"is_disabled":false,"rental_uris":{"android":"levelo://app?vid=24e8665c-c387-4bce-a92a-51df3b36226c","ios":"levelo://app?vid=24e8665c-c387-4bce-a92a-51df3b36226c"},"vehicle_type_id":"4","last_reported":1728126427,"current_range_meters":8800,"station_id":"ce4bhu92rcd13ifvqi70","pricing_plan_id":"cebpf4jnsgd1na2vs0mg"},{"bike_id":"646bbcf4-1a58-46ae-bc1a-cd9ed1622d7f","system_id":"levelo_inurba_marseille","lat":43.31075,"lon":5.38353,"is_reserved":false,"is_disabled":false,"rental_uris":{"android":"levelo://app?vid=646bbcf4-1a58-46ae-bc1a-cd9ed1622d7f","ios":"levelo://app?vid=646bbcf4-1a58-46ae-bc1a-cd9ed1622d7f"},"vehicle_type_id":"4","last_reported":1728126427,"current_range_meters":21600,"station_id":"ce4bgv92rcd13ifvqcr0","pricing_plan_id":"cebpf4jnsgd1na2vs0mg"},{"bike_id":"63bf3959-1362-4643-a284-d2bd51bc05ff","system_id":"levelo_inurba_marseille","lat":43.30359,"lon":5.41877,"is_reserved":false,"is_disabled":false,"rental_uris":{"android":"levelo://app?vid=63bf3959-1362-4643-a284-d2bd51bc05ff","ios":"levelo://app?vid=63bf3959-1362-4643-a284-d2bd51bc05ff"},"vehicle_type_id":"4","last_reported":1728126427,"current_range_meters":37600,"station_id":"ce4bhop2rcd13ifvqh7g","pricing_plan_id":"cebpf4jnsgd1na2vs0mg"},{"bike_id":"fa15ebff-fd00-4ee3-9402-5ab331c2383b","system_id":"levelo_inurba_marseille","lat":43.290215,"lon":5.399778,"is_reserved":false,"is_disabled":false,"rental_uris":{"android":"levelo://app?vid=fa15ebff-fd00-4ee3-9402-5ab331c2383b","ios":"levelo://app?vid=fa15ebff-fd00-4ee3-9402-5ab331c2383b"},"vehicle_type_id":"4","last_reported":1728126427,"current_range_meters":35200,"station_id":"ce4bhdp2rcd13ifvqf20","pricing_plan_id":"cebpf4jnsgd1na2vs0mg"},{"bike_id":"2dfa250e-fa81-43be-b763-8f49843284b7","system_id":"levelo_inurba_marseille","lat":43.23182,"lon":5.39989,"is_reserved":false,"is_disabled":false,"rental_uris":{"android":"levelo://app?vid=2dfa250e-fa81-43be-b763-8f49843284b7","ios":"levelo://app?vid=2dfa250e-fa81-43be-b763-8f49843284b7"},"vehicle_type_id":"4","last_reported":1728126427,"current_range_meters":38000,"station_id":"ce4bhn12rcd13ifvqgqg","pricing_plan_id":"cebpf4jnsgd1na2vs0mg"},{"bike_id":"0fec0712-97cc-4a7f-9675-543861baf6c9","system_id":"levelo_inurba_marseille","lat":43.3047,"lon":5.37899,"is_reserved":false,"is_disabled":false,"rental_uris":{"android":"levelo://app?vid=0fec0712-97cc-4a7f-9675-543861baf6c9","ios":"levelo://app?vid=0fec0712-97cc-4a7f-9675-543861baf6c9"},"vehicle_type_id":"4","last_reported":1728126427,"current_range_meters":32400,"station_id":"ce4bgup2rcd13ifvqcn0","pricing_plan_id":"cebpf4jnsgd1na2vs0mg"},{"bike_id":"6331e1ec-cf9d-44e8-a534-547fad38181d","system_id":"levelo_inurba_marseille","lat":43.3266,"lon":5.40983,"is_reserved":false,"is_disabled":false,"rental_uris":{"android":"levelo://app?vid=6331e1ec-cf9d-44e8-a534-547fad38181d","ios":"levelo://app?vid=6331e1ec-cf9d-44e8-a534-547fad38181d"},"vehicle_type_id":"4","last_reported":1728126427,"current_range_meters":8400,"station_id":"ce4bhpp2rcd13ifvqhgg","pricing_plan_id":"cebpf4jnsgd1na2vs0mg"},{"bike_id":"fdb054c7-cdb7-4614-8089-4050ad53284e","system_id":"levelo_inurba_marseille","lat":43.31176,"lon":5.38709,"is_reserved":false,"is_disabled":false,"rental_uris":{"android":"levelo://app?vid=fdb054c7-cdb7-4614-8089-4050ad53284e","ios":"levelo://app?vid=fdb054c7-cdb7-4614-8089-4050ad53284e"},"vehicle_type_id":"4","last_reported":1728126427,"current_range_meters":23200,"station_id":"ce4bgv12rcd13ifvqcp0","pricing_plan_id":"cebpf4jnsgd1na2vs0mg"},{"bike_id":"82fb1d9b-f78d-4572-93cd-c097376a885d","system_id":"levelo_inurba_marseille","lat":43.23145,"lon":5.43728,"is_reserved":false,"is_disabled":false,"rental_uris":{"android":"levelo://app?vid=82fb1d9b-f78d-4572-93cd-c097376a885d","ios":"levelo://app?vid=82fb1d9b-f78d-4572-93cd-c097376a885d"},"vehicle_type_id":"4","last_reported":1728126427,"current_range_meters":12000,"station_id":"ce4bhmp2rcd13ifvqgog","pricing_plan_id":"cebpf4jnsgd1na2vs0mg"},{"bike_id":"e04e5431-207d-4263-8b72-762e4c4878e5","system_id":"levelo_inurba_marseille","lat":43.23064,"lon":5.35493,"is_reserved":false,"is_disabled":false,"rental_uris":{"android":"levelo://app?vid=e04e5431-207d-4263-8b72-762e4c4878e5","ios":"levelo://app?vid=e04e5431-207d-4263-8b72-762e4c4878e5"},"vehicle_type_id":"4","last_reported":1728126427,"current_range_meters":16400,"station_id":"cpo3342slgdg3j2ifvpg","pricing_plan_id":"cebpf4jnsgd1na2vs0mg"},{"bike_id":"50e6aeb8-7e25-4c09-9781-24c9f5d23dff","system_id":"levelo_inurba_marseille","lat":43.33753,"lon":5.37448,"is_reserved":false,"is_disabled":false,"rental_uris":{"android":"levelo://app?vid=50e6aeb8-7e25-4c09-9781-24c9f5d23dff","ios":"levelo://app?vid=50e6aeb8-7e25-4c09-9781-24c9f5d23dff"},"vehicle_type_id":"4","last_reported":1728126427,"current_range_meters":27200,"station_id":"","pricing_plan_id":"cebpf4jnsgd1na2vs0mg"},{"bike_id":"7e5a4ffa-6310-4511-a1dc-2dedfd26f1bc","system_id":"levelo_inurba_marseille","lat":43.29562,"lon":5.42282,"is_reserved":false,"is_disabled":false,"rental_uris":{"android":"levelo://app?vid=7e5a4ffa-6310-4511-a1dc-2dedfd26f1bc","ios":"levelo://app?vid=7e5a4ffa-6310-4511-a1dc-2dedfd26f1bc"},"vehicle_type_id":"4","last_reported":1728126427,"current_range_meters":2800,"station_id":"ce4bhph2rcd13ifvqhdg","pricing_plan_id":"cebpf4jnsgd1na2vs0mg"},{"bike_id":"581b3337-3c4e-4afa-9e1d-6950f5f48653","system_id":"levelo_inurba_marseille","lat":43.32335,"lon":5.40622,"is_reserved":false,"is_disabled":false,"rental_uris":{"android":"levelo://app?vid=581b3337-3c4e-4afa-9e1d-6950f5f48653","ios":"levelo://app?vid=581b3337-3c4e-4afa-9e1d-6950f5f48653"},"vehicle_type_id":"4","last_reported":1728126427,"current_range_meters":16400,"station_id":"ce4bhq92rcd13ifvqhjg","pricing_plan_id":"cebpf4jnsgd1na2vs0mg"},{"bike_id":"7e47a534-f742-42d2-b25e-3556dfad6e65","system_id":"levelo_inurba_marseille","lat":43.28619,"lon":5.35109,"is_reserved":false,"is_disabled":false,"rental_uris":{"android":"levelo://app?vid=7e47a534-f742-42d2-b25e-3556dfad6e65","ios":"levelo://app?vid=7e47a534-f742-42d2-b25e-3556dfad6e65"},"vehicle_type_id":"4","last_reported":1728126427,"current_range_meters":28000,"station_id":"ce4bhch2rcd13ifvqeug","pricing_plan_id":"cebpf4jnsgd1na2vs0mg"},{"bike_id":"cb4a5824-38ad-424d-95ce-813b0278583b","system_id":"levelo_inurba_marseille","lat":43.28943,"lon":5.36402,"is_reserved":false,"is_disabled":false,"rental_uris":{"android":"levelo://app?vid=cb4a5824-38ad-424d-95ce-813b0278583b","ios":"levelo://app?vid=cb4a5824-38ad-424d-95ce-813b0278583b"},"vehicle_type_id":"4","last_reported":1728126427,"current_range_meters":38800,"station_id":"ce4bhc92rcd13ifvqetg","pricing_plan_id":"cebpf4jnsgd1na2vs0mg"},{"bike_id":"be855d3f-aa37-4c69-9485-bcd30590fee9","system_id":"levelo_inurba_marseille","lat":43.31078,"lon":5.38352,"is_reserved":false,"is_disabled":false,"rental_uris":{"android":"levelo://app?vid=be855d3f-aa37-4c69-9485-bcd30590fee9","ios":"levelo://app?vid=be855d3f-aa37-4c69-9485-bcd30590fee9"},"vehicle_type_id":"4","last_reported":1728126427,"current_range_meters":37600,"station_id":"ce4bgv92rcd13ifvqcr0","pricing_plan_id":"cebpf4jnsgd1na2vs0mg"},{"bike_id":"c4be8076-51e7-4c60-bc4e-97fd86ff4340","system_id":"levelo_inurba_marseille","lat":43.229247,"lon":5.353739,"is_reserved":false,"is_disabled":false,"rental_uris":{"android":"levelo://app?vid=c4be8076-51e7-4c60-bc4e-97fd86ff4340","ios":"levelo://app?vid=c4be8076-51e7-4c60-bc4e-97fd86ff4340"},"vehicle_type_id":"4","last_reported":1728126427,"current_range_meters":18800,"station_id":"","pricing_plan_id":"cebpf4jnsgd1na2vs0mg"},{"bike_id":"416a767f-be3b-4320-ad5a-cd826bfef081","system_id":"levelo_inurba_marseille","lat":43.31488,"lon":5.37303,"is_reserved":false,"is_disabled":false,"rental_uris":{"android":"levelo://app?vid=416a767f-be3b-4320-ad5a-cd826bfef081","ios":"levelo://app?vid=416a767f-be3b-4320-ad5a-cd826bfef081"},"vehicle_type_id":"4","last_reported":1728126427,"current_range_meters":19200,"station_id":"ce4bgt12rcd13ifvqcd0","pricing_plan_id":"cebpf4jnsgd1na2vs0mg"},{"bike_id":"e2455afb-c7f2-4814-be90-e1617bd9805f","system_id":"levelo_inurba_marseille","lat":43.25,"lon":5.38928,"is_reserved":false,"is_disabled":false,"rental_uris":{"android":"levelo://app?vid=e2455afb-c7f2-4814-be90-e1617bd9805f","ios":"levelo://app?vid=e2455afb-c7f2-4814-be90-e1617bd9805f"},"vehicle_type_id":"4","last_reported":1728126427,"current_range_meters":8000,"station_id":"ce4bhgp2rcd13ifvqfd0","pricing_plan_id":"cebpf4jnsgd1na2vs0mg"},{"bike_id":"96eb4682-19b8-4675-bab3-3275719e76a8","system_id":"levelo_inurba_marseille","lat":43.34144,"lon":5.40897,"is_reserved":false,"is_disabled":false,"rental_uris":{"android":"levelo://app?vid=96eb4682-19b8-4675-bab3-3275719e76a8","ios":"levelo://app?vid=96eb4682-19b8-4675-bab3-3275719e76a8"},"vehicle_type_id":"4","last_reported":1728126427,"current_range_meters":28000,"station_id":"ce4bhqh2rcd13ifvqhlg","pricing_plan_id":"cebpf4jnsgd1na2vs0mg"},{"bike_id":"0d2121a5-e262-4a8d-8bb5-dd7144c5c5d0","system_id":"levelo_inurba_marseille","lat":43.30197,"lon":5.36602,"is_reserved":false,"is_disabled":false,"rental_uris":{"android":"levelo://app?vid=0d2121a5-e262-4a8d-8bb5-dd7144c5c5d0","ios":"levelo://app?vid=0d2121a5-e262-4a8d-8bb5-dd7144c5c5d0"},"vehicle_type_id":"4","last_reported":1728126427,"current_range_meters":38800,"station_id":"ce4bgrh2rcd13ifvqc8g","pricing_plan_id":"cebpf4jnsgd1na2vs0mg"},{"bike_id":"f804678f-f648-4841-9a62-5e8ad493f990","system_id":"levelo_inurba_marseille","lat":43.30947,"lon":5.39057,"is_reserved":false,"is_disabled":false,"rental_uris":{"android":"levelo://app?vid=f804678f-f648-4841-9a62-5e8ad493f990","ios":"levelo://app?vid=f804678f-f648-4841-9a62-5e8ad493f990"},"vehicle_type_id":"4","last_reported":1728126427,"current_range_meters":39200,"station_id":"ce4bgup2rcd13ifvqco0","pricing_plan_id":"cebpf4jnsgd1na2vs0mg"},{"bike_id":"b539cef5-a0ee-4eb9-af10-1c3a300ff81c","system_id":"levelo_inurba_marseille","lat":43.32102,"lon":5.36771,"is_reserved":false,"is_disabled":false,"rental_uris":{"android":"levelo://app?vid=b539cef5-a0ee-4eb9-af10-1c3a300ff81c","ios":"levelo://app?vid=b539cef5-a0ee-4eb9-af10-1c3a300ff81c"},"vehicle_type_id":"4","last_reported":1728126427,"current_range_meters":33200,"station_id":"ce4bhrh2rcd13ifvqhug","pricing_plan_id":"cebpf4jnsgd1na2vs0mg"},{"bike_id":"74838e5d-dc29-404b-808a-248bd12bf7c5","system_id":"levelo_inurba_marseille","lat":43.29619,"lon":5.37733,"is_reserved":false,"is_disabled":false,"rental_uris":{"android":"levelo://app?vid=74838e5d-dc29-404b-808a-248bd12bf7c5","ios":"levelo://app?vid=74838e5d-dc29-404b-808a-248bd12bf7c5"},"vehicle_type_id":"4","last_reported":1728126427,"current_range_meters":26800,"station_id":"ce4bhb12rcd13ifvqem0","pricing_plan_id":"cebpf4jnsgd1na2vs0mg"},{"bike_id":"07020909-b186-49e7-987f-87be5c28a423","system_id":"levelo_inurba_marseille","lat":43.28612,"lon":5.35103,"is_reserved":false,"is_disabled":false,"rental_uris":{"android":"levelo://app?vid=07020909-b186-49e7-987f-87be5c28a423","ios":"levelo://app?vid=07020909-b186-49e7-987f-87be5c28a423"},"vehicle_type_id":"4","last_reported":1728126427,"current_range_meters":16000,"station_id":"ce4bhch2rcd13ifvqeug","pricing_plan_id":"cebpf4jnsgd1na2vs0mg"},{"bike_id":"d711822a-cfec-4cd6-829a-9c1422288560","system_id":"levelo_inurba_marseille","lat":43.23056,"lon":5.35486,"is_reserved":false,"is_disabled":false,"rental_uris":{"android":"levelo://app?vid=d711822a-cfec-4cd6-829a-9c1422288560","ios":"levelo://app?vid=d711822a-cfec-4cd6-829a-9c1422288560"},"vehicle_type_id":"4","last_reported":1728126427,"current_range_meters":3200,"station_id":"cpo3342slgdg3j2ifvpg","pricing_plan_id":"cebpf4jnsgd1na2vs0mg"},{"bike_id":"cda50b7a-b287-4a48-a17c-dd269f4a07b7","system_id":"levelo_inurba_marseille","lat":43.30095,"lon":5.39106,"is_reserved":false,"is_disabled":false,"rental_uris":{"android":"levelo://app?vid=cda50b7a-b287-4a48-a17c-dd269f4a07b7","ios":"levelo://app?vid=cda50b7a-b287-4a48-a17c-dd269f4a07b7"},"vehicle_type_id":"4","last_reported":1728126427,"current_range_meters":36000,"station_id":"ce4bh192rcd13ifvqdb0","pricing_plan_id":"cebpf4jnsgd1na2vs0mg"},{"bike_id":"e32cbf62-9eb9-4e4c-bb8e-5c419d58a66f","system_id":"levelo_inurba_marseille","lat":43.30148,"lon":5.38087,"is_reserved":false,"is_disabled":false,"rental_uris":{"android":"levelo://app?vid=e32cbf62-9eb9-4e4c-bb8e-5c419d58a66f","ios":"levelo://app?vid=e32cbf62-9eb9-4e4c-bb8e-5c419d58a66f"},"vehicle_type_id":"4","last_reported":1728126427,"current_range_meters":35200,"station_id":"ce4bgjp2rcd13ifvqbh0","pricing_plan_id":"cebpf4jnsgd1na2vs0mg"},{"bike_id":"bb5f5452-4b9b-417d-b148-b396a874f3d9","system_id":"levelo_inurba_marseille","lat":43.33775,"lon":5.37428,"is_reserved":false,"is_disabled":false,"rental_uris":{"android":"levelo://app?vid=bb5f5452-4b9b-417d-b148-b396a874f3d9","ios":"levelo://app?vid=bb5f5452-4b9b-417d-b148-b396a874f3d9"},"vehicle_type_id":"4","last_reported":1728126427,"current_range_meters":32000,"station_id":"","pricing_plan_id":"cebpf4jnsgd1na2vs0mg"},{"bike_id":"cd6ff029-93cf-4804-8970-ef7c08473ae8","system_id":"levelo_inurba_marseille","lat":43.23962,"lon":5.36624,"is_reserved":false,"is_disabled":false,"rental_uris":{"android":"levelo://app?vid=cd6ff029-93cf-4804-8970-ef7c08473ae8","ios":"levelo://app?vid=cd6ff029-93cf-4804-8970-ef7c08473ae8"},"vehicle_type_id":"4","last_reported":1728126427,"current_range_meters":30400,"station_id":"ce4bhi12rcd13ifvqfp0","pricing_plan_id":"cebpf4jnsgd1na2vs0mg"},{"bike_id":"efa0a5fa-8d89-43a7-bb65-f8a93a1c3d9a","system_id":"levelo_inurba_marseille","lat":43.27311,"lon":5.39074,"is_reserved":false,"is_disabled":false,"rental_uris":{"android":"levelo://app?vid=efa0a5fa-8d89-43a7-bb65-f8a93a1c3d9a","ios":"levelo://app?vid=efa0a5fa-8d89-43a7-bb65-f8a93a1c3d9a"},"vehicle_type_id":"4","last_reported":1728126427,"current_range_meters":37600,"station_id":"ce4bhgp2rcd13ifvqfe0","pricing_plan_id":"cebpf4jnsgd1na2vs0mg"},{"bike_id":"aeed5b08-7402-42e0-8b40-cda1cd191675","system_id":"levelo_inurba_marseille","lat":43.24387,"lon":5.37056,"is_reserved":false,"is_disabled":false,"rental_uris":{"android":"levelo://app?vid=aeed5b08-7402-42e0-8b40-cda1cd191675","ios":"levelo://app?vid=aeed5b08-7402-42e0-8b40-cda1cd191675"},"vehicle_type_id":"4","last_reported":1728126427,"current_range_meters":28400,"station_id":"ce4bhhh2rcd13ifvqfk0","pricing_plan_id":"cebpf4jnsgd1na2vs0mg"},{"bike_id":"d7a0298f-5c2b-438d-ab05-5d6a7ac83160","system_id":"levelo_inurba_marseille","lat":43.30797,"lon":5.43522,"is_reserved":false,"is_disabled":false,"rental_uris":{"android":"levelo://app?vid=d7a0298f-5c2b-438d-ab05-5d6a7ac83160","ios":"levelo://app?vid=d7a0298f-5c2b-438d-ab05-5d6a7ac83160"},"vehicle_type_id":"4","last_reported":1728126427,"current_range_meters":36800,"station_id":"ce4bhph2rcd13ifvqheg","pricing_plan_id":"cebpf4jnsgd1na2vs0mg"},{"bike_id":"4200a602-b752-433d-b039-860f3efe0e28","system_id":"levelo_inurba_marseille","lat":43.31703,"lon":5.37748,"is_reserved":false,"is_disabled":false,"rental_uris":{"android":"levelo://app?vid=4200a602-b752-433d-b039-860f3efe0e28","ios":"levelo://app?vid=4200a602-b752-433d-b039-860f3efe0e28"},"vehicle_type_id":"4","last_reported":1728126427,"current_range_meters":38800,"station_id":"ce4bgth2rcd13ifvqch0","pricing_plan_id":"cebpf4jnsgd1na2vs0mg"},{"bike_id":"98fa8ed6-a954-492f-8886-e42d65363350","system_id":"levelo_inurba_marseille","lat":43.29579,"lon":5.37521,"is_reserved":false,"is_disabled":false,"rental_uris":{"android":"levelo://app?vid=98fa8ed6-a954-492f-8886-e42d65363350","ios":"levelo://app?vid=98fa8ed6-a954-492f-8886-e42d65363350"},"vehicle_type_id":"4","last_reported":1728126427,"current_range_meters":37600,"station_id":"ce4bgh92rcd13ifvqb50","pricing_plan_id":"cebpf4jnsgd1na2vs0mg"},{"bike_id":"27442616-e1a0-4140-a813-7a49a0d6abd0","system_id":"levelo_inurba_marseille","lat":43.23181,"lon":5.39986,"is_reserved":false,"is_disabled":false,"rental_uris":{"android":"levelo://app?vid=27442616-e1a0-4140-a813-7a49a0d6abd0","ios":"levelo://app?vid=27442616-e1a0-4140-a813-7a49a0d6abd0"},"vehicle_type_id":"4","last_reported":1728126427,"current_range_meters":38000,"station_id":"ce4bhn12rcd13ifvqgqg","pricing_plan_id":"cebpf4jnsgd1na2vs0mg"},{"bike_id":"8966e46b-3413-4f3a-b9bc-fc68715368ba","system_id":"levelo_inurba_marseille","lat":43.28153,"lon":5.42642,"is_reserved":false,"is_disabled":false,"rental_uris":{"android":"levelo://app?vid=8966e46b-3413-4f3a-b9bc-fc68715368ba","ios":"levelo://app?vid=8966e46b-3413-4f3a-b9bc-fc68715368ba"},"vehicle_type_id":"4","last_reported":1728126427,"current_range_meters":8800,"station_id":"ce4bhph2rcd13ifvqhdg","pricing_plan_id":"cebpf4jnsgd1na2vs0mg"},{"bike_id":"4285547c-3114-4b0d-9188-c3356374994b","system_id":"levelo_inurba_marseille","lat":43.32665,"lon":5.40985,"is_reserved":false,"is_disabled":false,"rental_uris":{"android":"levelo://app?vid=4285547c-3114-4b0d-9188-c3356374994b","ios":"levelo://app?vid=4285547c-3114-4b0d-9188-c3356374994b"},"vehicle_type_id":"4","last_reported":1728126427,"current_range_meters":38400,"station_id":"ce4bhpp2rcd13ifvqhgg","pricing_plan_id":"cebpf4jnsgd1na2vs0mg"},{"bike_id":"8f585cce-fe06-4e98-8ff9-31e37744c40f","system_id":"levelo_inurba_marseille","lat":43.25004,"lon":5.38925,"is_reserved":false,"is_disabled":false,"rental_uris":{"android":"levelo://app?vid=8f585cce-fe06-4e98-8ff9-31e37744c40f","ios":"levelo://app?vid=8f585cce-fe06-4e98-8ff9-31e37744c40f"},"vehicle_type_id":"4","last_reported":1728126427,"current_range_meters":36800,"station_id":"ce4bhgp2rcd13ifvqfd0","pricing_plan_id":"cebpf4jnsgd1na2vs0mg"},{"bike_id":"a45c5852-f993-434b-9e0e-aaf2278af56a","system_id":"levelo_inurba_marseille","lat":43.23195,"lon":5.35552,"is_reserved":false,"is_disabled":false,"rental_uris":{"android":"levelo://app?vid=a45c5852-f993-434b-9e0e-aaf2278af56a","ios":"levelo://app?vid=a45c5852-f993-434b-9e0e-aaf2278af56a"},"vehicle_type_id":"4","last_reported":1728126427,"current_range_meters":8000,"station_id":"ce4bhu92rcd13ifvqi70","pricing_plan_id":"cebpf4jnsgd1na2vs0mg"},{"bike_id":"57d7b7bf-9a1e-4c35-8388-96cc980f8410","system_id":"levelo_inurba_marseille","lat":43.22932,"lon":5.35372,"is_reserved":false,"is_disabled":false,"rental_uris":{"android":"levelo://app?vid=57d7b7bf-9a1e-4c35-8388-96cc980f8410","ios":"levelo://app?vid=57d7b7bf-9a1e-4c35-8388-96cc980f8410"},"vehicle_type_id":"4","last_reported":1728126427,"current_range_meters":15200,"station_id":"cpo3532slgdg3j2ikp40","pricing_plan_id":"cebpf4jnsgd1na2vs0mg"},{"bike_id":"ab5338bd-56e6-42a7-8f8b-2f74ca473fb8","system_id":"levelo_inurba_marseille","lat":43.305542,"lon":5.365602,"is_reserved":false,"is_disabled":false,"rental_uris":{"android":"levelo://app?vid=ab5338bd-56e6-42a7-8f8b-2f74ca473fb8","ios":"levelo://app?vid=ab5338bd-56e6-42a7-8f8b-2f74ca473fb8"},"vehicle_type_id":"4","last_reported":1728126427,"current_range_meters":38800,"station_id":"ce4bgpp2rcd13ifvqc3g","pricing_plan_id":"cebpf4jnsgd1na2vs0mg"},{"bike_id":"10bac622-2383-4384-92d6-ce5e4e8fdb28","system_id":"levelo_inurba_marseille","lat":43.29792,"lon":5.37099,"is_reserved":false,"is_disabled":false,"rental_uris":{"android":"levelo://app?vid=10bac622-2383-4384-92d6-ce5e4e8fdb28","ios":"levelo://app?vid=10bac622-2383-4384-92d6-ce5e4e8fdb28"},"vehicle_type_id":"4","last_reported":1728126427,"current_range_meters":39200,"station_id":"ce4bgop2rcd13ifvqc1g","pricing_plan_id":"cebpf4jnsgd1na2vs0mg"},{"bike_id":"05396170-a01b-4efc-9a1f-fc13de623850","system_id":"levelo_inurba_marseille","lat":43.29794,"lon":5.37099,"is_reserved":false,"is_disabled":false,"rental_uris":{"android":"levelo://app?vid=05396170-a01b-4efc-9a1f-fc13de623850","ios":"levelo://app?vid=05396170-a01b-4efc-9a1f-fc13de623850"},"vehicle_type_id":"4","last_reported":1728126427,"current_range_meters":39200,"station_id":"ce4bgop2rcd13ifvqc1g","pricing_plan_id":"cebpf4jnsgd1na2vs0mg"},{"bike_id":"ad37ae66-a721-4918-9ede-6a75fe94cc50","system_id":"levelo_inurba_marseille","lat":43.28349,"lon":5.38106,"is_reserved":false,"is_disabled":false,"rental_uris":{"android":"levelo://app?vid=ad37ae66-a721-4918-9ede-6a75fe94cc50","ios":"levelo://app?vid=ad37ae66-a721-4918-9ede-6a75fe94cc50"},"vehicle_type_id":"4","last_reported":1728126427,"current_range_meters":10000,"station_id":"ce4bh412rcd13ifvqdr0","pricing_plan_id":"cebpf4jnsgd1na2vs0mg"},{"bike_id":"77c59eab-5250-44c4-be86-099c0defe9c4","system_id":"levelo_inurba_marseille","lat":43.3375,"lon":5.37452,"is_reserved":false,"is_disabled":false,"rental_uris":{"android":"levelo://app?vid=77c59eab-5250-44c4-be86-099c0defe9c4","ios":"levelo://app?vid=77c59eab-5250-44c4-be86-099c0defe9c4"},"vehicle_type_id":"4","last_reported":1728126427,"current_range_meters":25600,"station_id":"","pricing_plan_id":"cebpf4jnsgd1na2vs0mg"},{"bike_id":"a9a4c99f-5568-4c5a-a427-47ffb2c72ee9","system_id":"levelo_inurba_marseille","lat":43.2894,"lon":5.36403,"is_reserved":false,"is_disabled":false,"rental_uris":{"android":"levelo://app?vid=a9a4c99f-5568-4c5a-a427-47ffb2c72ee9","ios":"levelo://app?vid=a9a4c99f-5568-4c5a-a427-47ffb2c72ee9"},"vehicle_type_id":"4","last_reported":1728126427,"current_range_meters":38800,"station_id":"ce4bhc92rcd13ifvqetg","pricing_plan_id":"cebpf4jnsgd1na2vs0mg"},{"bike_id":"b1f787de-6681-4f29-bf65-500cf005a08c","system_id":"levelo_inurba_marseille","lat":43.29568,"lon":5.37507,"is_reserved":false,"is_disabled":false,"rental_uris":{"android":"levelo://app?vid=b1f787de-6681-4f29-bf65-500cf005a08c","ios":"levelo://app?vid=b1f787de-6681-4f29-bf65-500cf005a08c"},"vehicle_type_id":"4","last_reported":1728126427,"current_range_meters":15200,"station_id":"ce4bgh92rcd13ifvqb50","pricing_plan_id":"cebpf4jnsgd1na2vs0mg"},{"bike_id":"3120d81f-ca70-4996-948a-0ac53667b7f0","system_id":"levelo_inurba_marseille","lat":43.30817,"lon":5.38147,"is_reserved":false,"is_disabled":false,"rental_uris":{"android":"levelo://app?vid=3120d81f-ca70-4996-948a-0ac53667b7f0","ios":"levelo://app?vid=3120d81f-ca70-4996-948a-0ac53667b7f0"},"vehicle_type_id":"4","last_reported":1728126427,"current_range_meters":38800,"station_id":"ce4bgt12rcd13ifvqce0","pricing_plan_id":"cebpf4jnsgd1na2vs0mg"},{"bike_id":"32ceac28-dacd-4d4c-9c55-d75f7e6d1aa1","system_id":"levelo_inurba_marseille","lat":43.307998,"lon":5.435297,"is_reserved":false,"is_disabled":false,"rental_uris":{"android":"levelo://app?vid=32ceac28-dacd-4d4c-9c55-d75f7e6d1aa1","ios":"levelo://app?vid=32ceac28-dacd-4d4c-9c55-d75f7e6d1aa1"},"vehicle_type_id":"4","last_reported":1728126427,"current_range_meters":10000,"station_id":"ce4bhph2rcd13ifvqheg","pricing_plan_id":"cebpf4jnsgd1na2vs0mg"},{"bike_id":"5cb581ec-dfa2-4a8e-aa21-0597b621637c","system_id":"levelo_inurba_marseille","lat":43.27425,"lon":5.39411,"is_reserved":false,"is_disabled":false,"rental_uris":{"android":"levelo://app?vid=5cb581ec-dfa2-4a8e-aa21-0597b621637c","ios":"levelo://app?vid=5cb581ec-dfa2-4a8e-aa21-0597b621637c"},"vehicle_type_id":"4","last_reported":1728126427,"current_range_meters":30000,"station_id":"ce4bhdp2rcd13ifvqf20","pricing_plan_id":"cebpf4jnsgd1na2vs0mg"},{"bike_id":"0965a543-53b5-4e53-9bbf-e83a3a5eabb1","system_id":"levelo_inurba_marseille","lat":43.30954,"lon":5.39045,"is_reserved":false,"is_disabled":false,"rental_uris":{"android":"levelo://app?vid=0965a543-53b5-4e53-9bbf-e83a3a5eabb1","ios":"levelo://app?vid=0965a543-53b5-4e53-9bbf-e83a3a5eabb1"},"vehicle_type_id":"4","last_reported":1728126427,"current_range_meters":25600,"station_id":"ce4bgup2rcd13ifvqco0","pricing_plan_id":"cebpf4jnsgd1na2vs0mg"},{"bike_id":"9f14aed0-90b7-4419-9c32-6a481207110f","system_id":"levelo_inurba_marseille","lat":43.23149,"lon":5.43715,"is_reserved":false,"is_disabled":false,"rental_uris":{"android":"levelo://app?vid=9f14aed0-90b7-4419-9c32-6a481207110f","ios":"levelo://app?vid=9f14aed0-90b7-4419-9c32-6a481207110f"},"vehicle_type_id":"4","last_reported":1728126427,"current_range_meters":22800,"station_id":"ce4bhmp2rcd13ifvqgog","pricing_plan_id":"cebpf4jnsgd1na2vs0mg"},{"bike_id":"43bc2f9c-b2da-473f-bd82-8aba821a6b6a","system_id":"levelo_inurba_marseille","lat":43.2867,"lon":5.3635,"is_reserved":false,"is_disabled":false,"rental_uris":{"android":"levelo://app?vid=43bc2f9c-b2da-473f-bd82-8aba821a6b6a","ios":"levelo://app?vid=43bc2f9c-b2da-473f-bd82-8aba821a6b6a"},"vehicle_type_id":"4","last_reported":1728126427,"current_range_meters":8400,"station_id":"ce4bhah2rcd13ifvqej0","pricing_plan_id":"cebpf4jnsgd1na2vs0mg"},{"bike_id":"b417a8d0-1fac-4a2b-9294-35cea48e57c1","system_id":"levelo_inurba_marseille","lat":43.33024,"lon":5.39044,"is_reserved":false,"is_disabled":false,"rental_uris":{"android":"levelo://app?vid=b417a8d0-1fac-4a2b-9294-35cea48e57c1","ios":"levelo://app?vid=b417a8d0-1fac-4a2b-9294-35cea48e57c1"},"vehicle_type_id":"4","last_reported":1728126427,"current_range_meters":27600,"station_id":"ce4bhr92rcd13ifvqhrg","pricing_plan_id":"cebpf4jnsgd1na2vs0mg"},{"bike_id":"d54b1158-ec6f-4dc3-a7e1-2d0b5958261d","system_id":"levelo_inurba_marseille","lat":43.2955,"lon":5.42294,"is_reserved":false,"is_disabled":false,"rental_uris":{"android":"levelo://app?vid=d54b1158-ec6f-4dc3-a7e1-2d0b5958261d","ios":"levelo://app?vid=d54b1158-ec6f-4dc3-a7e1-2d0b5958261d"},"vehicle_type_id":"4","last_reported":1728126427,"current_range_meters":38800,"station_id":"ce4bhph2rcd13ifvqhdg","pricing_plan_id":"cebpf4jnsgd1na2vs0mg"},{"bike_id":"d5c43e4f-ec76-4579-b5d4-6acbbae67566","system_id":"levelo_inurba_marseille","lat":43.22928,"lon":5.35376,"is_reserved":false,"is_disabled":false,"rental_uris":{"android":"levelo://app?vid=d5c43e4f-ec76-4579-b5d4-6acbbae67566","ios":"levelo://app?vid=d5c43e4f-ec76-4579-b5d4-6acbbae67566"},"vehicle_type_id":"4","last_reported":1728126427,"current_range_meters":20800,"station_id":"cpo3532slgdg3j2ikp40","pricing_plan_id":"cebpf4jnsgd1na2vs0mg"},{"bike_id":"75ce31e2-5f0d-4f06-9d38-6324d9daeecc","system_id":"levelo_inurba_marseille","lat":43.34142,"lon":5.40903,"is_reserved":false,"is_disabled":false,"rental_uris":{"android":"levelo://app?vid=75ce31e2-5f0d-4f06-9d38-6324d9daeecc","ios":"levelo://app?vid=75ce31e2-5f0d-4f06-9d38-6324d9daeecc"},"vehicle_type_id":"4","last_reported":1728126427,"current_range_meters":32000,"station_id":"ce4bhqh2rcd13ifvqhlg","pricing_plan_id":"cebpf4jnsgd1na2vs0mg"},{"bike_id":"4b678b6a-4f8a-4377-b05f-685138e35c3f","system_id":"levelo_inurba_marseille","lat":43.28608,"lon":5.37073,"is_reserved":false,"is_disabled":false,"rental_uris":{"android":"levelo://app?vid=4b678b6a-4f8a-4377-b05f-685138e35c3f","ios":"levelo://app?vid=4b678b6a-4f8a-4377-b05f-685138e35c3f"},"vehicle_type_id":"4","last_reported":1728126427,"current_range_meters":25600,"station_id":"ce4bht12rcd13ifvqi60","pricing_plan_id":"cebpf4jnsgd1na2vs0mg"},{"bike_id":"a8597e2b-11a4-41b1-af04-3d091354a1e4","system_id":"levelo_inurba_marseille","lat":43.320343,"lon":5.415648,"is_reserved":false,"is_disabled":false,"rental_uris":{"android":"levelo://app?vid=a8597e2b-11a4-41b1-af04-3d091354a1e4","ios":"levelo://app?vid=a8597e2b-11a4-41b1-af04-3d091354a1e4"},"vehicle_type_id":"4","last_reported":1728126427,"current_range_meters":28000,"station_id":"ce4bhq92rcd13ifvqhkg","pricing_plan_id":"cebpf4jnsgd1na2vs0mg"},{"bike_id":"34b55f85-4aac-4649-bf9d-e369ec7f717c","system_id":"levelo_inurba_marseille","lat":43.26944,"lon":5.40243,"is_reserved":false,"is_disabled":false,"rental_uris":{"android":"levelo://app?vid=34b55f85-4aac-4649-bf9d-e369ec7f717c","ios":"levelo://app?vid=34b55f85-4aac-4649-bf9d-e369ec7f717c"},"vehicle_type_id":"4","last_reported":1728126427,"current_range_meters":36000,"station_id":"cjm6bp8fraef2m0cb0m0","pricing_plan_id":"cebpf4jnsgd1na2vs0mg"},{"bike_id":"410a702f-9dff-4188-bef6-ad436f99f29a","system_id":"levelo_inurba_marseille","lat":43.32367,"lon":5.38877,"is_reserved":false,"is_disabled":false,"rental_uris":{"android":"levelo://app?vid=410a702f-9dff-4188-bef6-ad436f99f29a","ios":"levelo://app?vid=410a702f-9dff-4188-bef6-ad436f99f29a"},"vehicle_type_id":"4","last_reported":1728126427,"current_range_meters":24800,"station_id":"ce4bhqp2rcd13ifvqhog","pricing_plan_id":"cebpf4jnsgd1na2vs0mg"},{"bike_id":"996f311a-1052-4e93-bc99-a5db07024190","system_id":"levelo_inurba_marseille","lat":43.24167,"lon":5.364,"is_reserved":false,"is_disabled":false,"rental_uris":{"android":"levelo://app?vid=996f311a-1052-4e93-bc99-a5db07024190","ios":"levelo://app?vid=996f311a-1052-4e93-bc99-a5db07024190"},"vehicle_type_id":"4","last_reported":1728126427,"current_range_meters":19600,"station_id":"cpo36qri1sfpv3e86is0","pricing_plan_id":"cebpf4jnsgd1na2vs0mg"},{"bike_id":"ba1d4e73-ca39-4174-a14b-cca681d9682c","system_id":"levelo_inurba_marseille","lat":43.31758,"lon":5.39015,"is_reserved":false,"is_disabled":false,"rental_uris":{"android":"levelo://app?vid=ba1d4e73-ca39-4174-a14b-cca681d9682c","ios":"levelo://app?vid=ba1d4e73-ca39-4174-a14b-cca681d9682c"},"vehicle_type_id":"4","last_reported":1728126427,"current_range_meters":37600,"station_id":"ce4bhqp2rcd13ifvqhng","pricing_plan_id":"cebpf4jnsgd1na2vs0mg"},{"bike_id":"5fad1419-2ea4-4fe1-a7dd-0f43951c79aa","system_id":"levelo_inurba_marseille","lat":43.28418,"lon":5.34991,"is_reserved":false,"is_disabled":false,"rental_uris":{"android":"levelo://app?vid=5fad1419-2ea4-4fe1-a7dd-0f43951c79aa","ios":"levelo://app?vid=5fad1419-2ea4-4fe1-a7dd-0f43951c79aa"},"vehicle_type_id":"4","last_reported":1728126427,"current_range_meters":20000,"station_id":"ce4bhbh2rcd13ifvqepg","pricing_plan_id":"cebpf4jnsgd1na2vs0mg"},{"bike_id":"bd5b5fe0-634b-4724-9eb2-84566c0fbde2","system_id":"levelo_inurba_marseille","lat":43.27325,"lon":5.39072,"is_reserved":false,"is_disabled":false,"rental_uris":{"android":"levelo://app?vid=bd5b5fe0-634b-4724-9eb2-84566c0fbde2","ios":"levelo://app?vid=bd5b5fe0-634b-4724-9eb2-84566c0fbde2"},"vehicle_type_id":"4","last_reported":1728126427,"current_range_meters":30800,"station_id":"ce4bhgp2rcd13ifvqfe0","pricing_plan_id":"cebpf4jnsgd1na2vs0mg"},{"bike_id":"d9513a24-3235-43a7-b9a5-1c5cfe37603f","system_id":"levelo_inurba_marseille","lat":43.23052,"lon":5.35486,"is_reserved":false,"is_disabled":false,"rental_uris":{"android":"levelo://app?vid=d9513a24-3235-43a7-b9a5-1c5cfe37603f","ios":"levelo://app?vid=d9513a24-3235-43a7-b9a5-1c5cfe37603f"},"vehicle_type_id":"4","last_reported":1728126427,"current_range_meters":20000,"station_id":"cpo3342slgdg3j2ifvpg","pricing_plan_id":"cebpf4jnsgd1na2vs0mg"},{"bike_id":"61b8e147-1e03-48bd-b16d-2fe479ee3990","system_id":"levelo_inurba_marseille","lat":43.320465,"lon":5.415484,"is_reserved":false,"is_disabled":false,"rental_uris":{"android":"levelo://app?vid=61b8e147-1e03-48bd-b16d-2fe479ee3990","ios":"levelo://app?vid=61b8e147-1e03-48bd-b16d-2fe479ee3990"},"vehicle_type_id":"4","last_reported":1728126427,"current_range_meters":6800,"station_id":"ce4bhq92rcd13ifvqhkg","pricing_plan_id":"cebpf4jnsgd1na2vs0mg"},{"bike_id":"009d6d0e-c1a8-4ddc-b330-ebf04e9c45b9","system_id":"levelo_inurba_marseille","lat":43.29903,"lon":5.43679,"is_reserved":false,"is_disabled":false,"rental_uris":{"android":"levelo://app?vid=009d6d0e-c1a8-4ddc-b330-ebf04e9c45b9","ios":"levelo://app?vid=009d6d0e-c1a8-4ddc-b330-ebf04e9c45b9"},"vehicle_type_id":"4","last_reported":1728126427,"current_range_meters":20800,"station_id":"ce4bhpp2rcd13ifvqhfg","pricing_plan_id":"cebpf4jnsgd1na2vs0mg"},{"bike_id":"aad86208-43f3-40ab-b075-40209bf213ab","system_id":"levelo_inurba_marseille","lat":43.29849,"lon":5.36274,"is_reserved":false,"is_disabled":false,"rental_uris":{"android":"levelo://app?vid=aad86208-43f3-40ab-b075-40209bf213ab","ios":"levelo://app?vid=aad86208-43f3-40ab-b075-40209bf213ab"},"vehicle_type_id":"4","last_reported":1728126427,"current_range_meters":18800,"station_id":"ce4bgpp2rcd13ifvqc3g","pricing_plan_id":"cebpf4jnsgd1na2vs0mg"},{"bike_id":"e801b355-6ede-41f3-aa7c-a02edf287c12","system_id":"levelo_inurba_marseille","lat":43.231958,"lon":5.355471,"is_reserved":false,"is_disabled":false,"rental_uris":{"android":"levelo://app?vid=e801b355-6ede-41f3-aa7c-a02edf287c12","ios":"levelo://app?vid=e801b355-6ede-41f3-aa7c-a02edf287c12"},"vehicle_type_id":"4","last_reported":1728126427,"current_range_meters":18000,"station_id":"ce4bhu92rcd13ifvqi70","pricing_plan_id":"cebpf4jnsgd1na2vs0mg"},{"bike_id":"5c2cdfcc-c0e7-4fa5-9642-0b7355b5d596","system_id":"levelo_inurba_marseille","lat":43.28438,"lon":5.39207,"is_reserved":false,"is_disabled":false,"rental_uris":{"android":"levelo://app?vid=5c2cdfcc-c0e7-4fa5-9642-0b7355b5d596","ios":"levelo://app?vid=5c2cdfcc-c0e7-4fa5-9642-0b7355b5d596"},"vehicle_type_id":"4","last_reported":1728126427,"current_range_meters":18800,"station_id":"ce4bhoh2rcd13ifvqh5g","pricing_plan_id":"cebpf4jnsgd1na2vs0mg"},{"bike_id":"4e0c83a2-b0c3-4894-8559-e509681998d3","system_id":"levelo_inurba_marseille","lat":43.311244,"lon":5.383277,"is_reserved":false,"is_disabled":false,"rental_uris":{"android":"levelo://app?vid=4e0c83a2-b0c3-4894-8559-e509681998d3","ios":"levelo://app?vid=4e0c83a2-b0c3-4894-8559-e509681998d3"},"vehicle_type_id":"4","last_reported":1728126427,"current_range_meters":16800,"station_id":"","pricing_plan_id":"cebpf4jnsgd1na2vs0mg"},{"bike_id":"3c797729-0364-42b3-8e58-4709c41c4a3c","system_id":"levelo_inurba_marseille","lat":43.30805,"lon":5.43517,"is_reserved":false,"is_disabled":false,"rental_uris":{"android":"levelo://app?vid=3c797729-0364-42b3-8e58-4709c41c4a3c","ios":"levelo://app?vid=3c797729-0364-42b3-8e58-4709c41c4a3c"},"vehicle_type_id":"4","last_reported":1728126427,"current_range_meters":25600,"station_id":"ce4bhph2rcd13ifvqheg","pricing_plan_id":"cebpf4jnsgd1na2vs0mg"},{"bike_id":"c76830d2-2ed6-425d-83ad-7117befa5dc1","system_id":"levelo_inurba_marseille","lat":43.31119,"lon":5.37763,"is_reserved":false,"is_disabled":false,"rental_uris":{"android":"levelo://app?vid=c76830d2-2ed6-425d-83ad-7117befa5dc1","ios":"levelo://app?vid=c76830d2-2ed6-425d-83ad-7117befa5dc1"},"vehicle_type_id":"4","last_reported":1728126427,"current_range_meters":37600,"station_id":"ce4bgt92rcd13ifvqcg0","pricing_plan_id":"cebpf4jnsgd1na2vs0mg"},{"bike_id":"2e4a4a7a-0e31-4914-aa12-86d0b786ce54","system_id":"levelo_inurba_marseille","lat":43.30638,"lon":5.4009,"is_reserved":false,"is_disabled":false,"rental_uris":{"android":"levelo://app?vid=2e4a4a7a-0e31-4914-aa12-86d0b786ce54","ios":"levelo://app?vid=2e4a4a7a-0e31-4914-aa12-86d0b786ce54"},"vehicle_type_id":"4","last_reported":1728126427,"current_range_meters":36800,"station_id":"ce4bh112rcd13ifvqda0","pricing_plan_id":"cebpf4jnsgd1na2vs0mg"},{"bike_id":"abca409b-59c3-4153-9de6-0ce8ddff4a6b","system_id":"levelo_inurba_marseille","lat":43.28985,"lon":5.3783,"is_reserved":false,"is_disabled":false,"rental_uris":{"android":"levelo://app?vid=abca409b-59c3-4153-9de6-0ce8ddff4a6b","ios":"levelo://app?vid=abca409b-59c3-4153-9de6-0ce8ddff4a6b"},"vehicle_type_id":"4","last_reported":1728126427,"current_range_meters":28800,"station_id":"ce4bh9p2rcd13ifvqed0","pricing_plan_id":"cebpf4jnsgd1na2vs0mg"},{"bike_id":"0009391f-54d0-4c45-b56d-528adf48433f","system_id":"levelo_inurba_marseille","lat":43.30468,"lon":5.3792,"is_reserved":false,"is_disabled":false,"rental_uris":{"android":"levelo://app?vid=0009391f-54d0-4c45-b56d-528adf48433f","ios":"levelo://app?vid=0009391f-54d0-4c45-b56d-528adf48433f"},"vehicle_type_id":"4","last_reported":1728126427,"current_range_meters":34800,"station_id":"ce4bgup2rcd13ifvqcn0","pricing_plan_id":"cebpf4jnsgd1na2vs0mg"},{"bike_id":"2b656128-745d-4ab3-a53b-f9b69c649d8b","system_id":"levelo_inurba_marseille","lat":43.24551,"lon":5.39524,"is_reserved":false,"is_disabled":false,"rental_uris":{"android":"levelo://app?vid=2b656128-745d-4ab3-a53b-f9b69c649d8b","ios":"levelo://app?vid=2b656128-745d-4ab3-a53b-f9b69c649d8b"},"vehicle_type_id":"4","last_reported":1728126427,"current_range_meters":38800,"station_id":"ce4bhlp2rcd13ifvqgjg","pricing_plan_id":"cebpf4jnsgd1na2vs0mg"},{"bike_id":"355b232c-dc84-4931-a64c-6c10c688797f","system_id":"levelo_inurba_marseille","lat":43.29258,"lon":5.40896,"is_reserved":false,"is_disabled":false,"rental_uris":{"android":"levelo://app?vid=355b232c-dc84-4931-a64c-6c10c688797f","ios":"levelo://app?vid=355b232c-dc84-4931-a64c-6c10c688797f"},"vehicle_type_id":"4","last_reported":1728126427,"current_range_meters":24000,"station_id":"ce4bh192rcd13ifvqdc0","pricing_plan_id":"cebpf4jnsgd1na2vs0mg"},{"bike_id":"7a8a084f-1d5d-4578-9899-fc300a54d980","system_id":"levelo_inurba_marseille","lat":43.25823,"lon":5.39439,"is_reserved":false,"is_disabled":false,"rental_uris":{"android":"levelo://app?vid=7a8a084f-1d5d-4578-9899-fc300a54d980","ios":"levelo://app?vid=7a8a084f-1d5d-4578-9899-fc300a54d980"},"vehicle_type_id":"4","last_reported":1728126427,"current_range_meters":6800,"station_id":"ce4bhip2rcd13ifvqft0","pricing_plan_id":"cebpf4jnsgd1na2vs0mg"},{"bike_id":"9fe320a9-ed7f-4554-b46d-2a5df9c72579","system_id":"levelo_inurba_marseille","lat":43.27204,"lon":5.39188,"is_reserved":false,"is_disabled":false,"rental_uris":{"android":"levelo://app?vid=9fe320a9-ed7f-4554-b46d-2a5df9c72579","ios":"levelo://app?vid=9fe320a9-ed7f-4554-b46d-2a5df9c72579"},"vehicle_type_id":"4","last_reported":1728126427,"current_range_meters":14000,"station_id":"ce4bhhp2rcd13ifvqfm0","pricing_plan_id":"cebpf4jnsgd1na2vs0mg"},{"bike_id":"8726f362-e98c-4429-ab99-db66dae4fe28","system_id":"levelo_inurba_marseille","lat":43.31477,"lon":5.3731,"is_reserved":false,"is_disabled":false,"rental_uris":{"android":"levelo://app?vid=8726f362-e98c-4429-ab99-db66dae4fe28","ios":"levelo://app?vid=8726f362-e98c-4429-ab99-db66dae4fe28"},"vehicle_type_id":"4","last_reported":1728126427,"current_range_meters":28000,"station_id":"ce4bgt12rcd13ifvqcd0","pricing_plan_id":"cebpf4jnsgd1na2vs0mg"},{"bike_id":"8df5e434-358e-47ce-82bd-9291d9bbb368","system_id":"levelo_inurba_marseille","lat":43.32047,"lon":5.41557,"is_reserved":false,"is_disabled":false,"rental_uris":{"android":"levelo://app?vid=8df5e434-358e-47ce-82bd-9291d9bbb368","ios":"levelo://app?vid=8df5e434-358e-47ce-82bd-9291d9bbb368"},"vehicle_type_id":"4","last_reported":1728126427,"current_range_meters":38800,"station_id":"ce4bhq92rcd13ifvqhkg","pricing_plan_id":"cebpf4jnsgd1na2vs0mg"},{"bike_id":"0870ea19-afa1-48c7-a143-ac82851bbd09","system_id":"levelo_inurba_marseille","lat":43.33752,"lon":5.37443,"is_reserved":false,"is_disabled":false,"rental_uris":{"android":"levelo://app?vid=0870ea19-afa1-48c7-a143-ac82851bbd09","ios":"levelo://app?vid=0870ea19-afa1-48c7-a143-ac82851bbd09"},"vehicle_type_id":"4","last_reported":1728126427,"current_range_meters":37600,"station_id":"","pricing_plan_id":"cebpf4jnsgd1na2vs0mg"},{"bike_id":"b0cc1d89-0026-4600-a22c-06954b5032b0","system_id":"levelo_inurba_marseille","lat":43.25,"lon":5.38926,"is_reserved":false,"is_disabled":false,"rental_uris":{"android":"levelo://app?vid=b0cc1d89-0026-4600-a22c-06954b5032b0","ios":"levelo://app?vid=b0cc1d89-0026-4600-a22c-06954b5032b0"},"vehicle_type_id":"4","last_reported":1728126427,"current_range_meters":32800,"station_id":"ce4bhgp2rcd13ifvqfd0","pricing_plan_id":"cebpf4jnsgd1na2vs0mg"},{"bike_id":"8573e229-9d39-4cc7-a450-029e1afa4549","system_id":"levelo_inurba_marseille","lat":43.27991,"lon":5.41657,"is_reserved":false,"is_disabled":false,"rental_uris":{"android":"levelo://app?vid=8573e229-9d39-4cc7-a450-029e1afa4549","ios":"levelo://app?vid=8573e229-9d39-4cc7-a450-029e1afa4549"},"vehicle_type_id":"4","last_reported":1728126427,"current_range_meters":20000,"station_id":"ce4bho12rcd13ifvqh1g","pricing_plan_id":"cebpf4jnsgd1na2vs0mg"},{"bike_id":"6c629267-8b49-451e-bbf7-e066aba5cc25","system_id":"levelo_inurba_marseille","lat":43.33759,"lon":5.37442,"is_reserved":false,"is_disabled":false,"rental_uris":{"android":"levelo://app?vid=6c629267-8b49-451e-bbf7-e066aba5cc25","ios":"levelo://app?vid=6c629267-8b49-451e-bbf7-e066aba5cc25"},"vehicle_type_id":"4","last_reported":1728126427,"current_range_meters":38800,"station_id":"","pricing_plan_id":"cebpf4jnsgd1na2vs0mg"},{"bike_id":"eae725aa-ebb4-4ad8-91ad-93aaa5f65f2b","system_id":"levelo_inurba_marseille","lat":43.28484,"lon":5.38406,"is_reserved":false,"is_disabled":false,"rental_uris":{"android":"levelo://app?vid=eae725aa-ebb4-4ad8-91ad-93aaa5f65f2b","ios":"levelo://app?vid=eae725aa-ebb4-4ad8-91ad-93aaa5f65f2b"},"vehicle_type_id":"4","last_reported":1728126427,"current_range_meters":22400,"station_id":"ce4bh512rcd13ifvqe3g","pricing_plan_id":"cebpf4jnsgd1na2vs0mg"},{"bike_id":"883941c1-b3af-4aa7-9ff7-7d08b8a84465","system_id":"levelo_inurba_marseille","lat":43.29589,"lon":5.38102,"is_reserved":false,"is_disabled":false,"rental_uris":{"android":"levelo://app?vid=883941c1-b3af-4aa7-9ff7-7d08b8a84465","ios":"levelo://app?vid=883941c1-b3af-4aa7-9ff7-7d08b8a84465"},"vehicle_type_id":"4","last_reported":1728126427,"current_range_meters":37600,"station_id":"ce4bgl12rcd13ifvqbo0","pricing_plan_id":"cebpf4jnsgd1na2vs0mg"},{"bike_id":"bdefae95-7cc5-4880-bfcb-b1af39586be0","system_id":"levelo_inurba_marseille","lat":43.3266,"lon":5.4099,"is_reserved":false,"is_disabled":false,"rental_uris":{"android":"levelo://app?vid=bdefae95-7cc5-4880-bfcb-b1af39586be0","ios":"levelo://app?vid=bdefae95-7cc5-4880-bfcb-b1af39586be0"},"vehicle_type_id":"4","last_reported":1728126427,"current_range_meters":38800,"station_id":"ce4bhpp2rcd13ifvqhgg","pricing_plan_id":"cebpf4jnsgd1na2vs0mg"},{"bike_id":"7a90b2f2-d00e-4c33-b981-befe4f1139d2","system_id":"levelo_inurba_marseille","lat":43.23182,"lon":5.39991,"is_reserved":false,"is_disabled":false,"rental_uris":{"android":"levelo://app?vid=7a90b2f2-d00e-4c33-b981-befe4f1139d2","ios":"levelo://app?vid=7a90b2f2-d00e-4c33-b981-befe4f1139d2"},"vehicle_type_id":"4","last_reported":1728126427,"current_range_meters":34800,"station_id":"ce4bhn12rcd13ifvqgqg","pricing_plan_id":"cebpf4jnsgd1na2vs0mg"},{"bike_id":"8801963e-d5df-49bc-8f22-10a7f20728ec","system_id":"levelo_inurba_marseille","lat":43.26793,"lon":5.39406,"is_reserved":false,"is_disabled":false,"rental_uris":{"android":"levelo://app?vid=8801963e-d5df-49bc-8f22-10a7f20728ec","ios":"levelo://app?vid=8801963e-d5df-49bc-8f22-10a7f20728ec"},"vehicle_type_id":"4","last_reported":1728126427,"current_range_meters":38000,"station_id":"ce4bhh12rcd13ifvqfg0","pricing_plan_id":"cebpf4jnsgd1na2vs0mg"},{"bike_id":"c0aa0ebb-2b2c-458c-ba8d-c831e190d0ca","system_id":"levelo_inurba_marseille","lat":43.29711,"lon":5.37687,"is_reserved":false,"is_disabled":false,"rental_uris":{"android":"levelo://app?vid=c0aa0ebb-2b2c-458c-ba8d-c831e190d0ca","ios":"levelo://app?vid=c0aa0ebb-2b2c-458c-ba8d-c831e190d0ca"},"vehicle_type_id":"4","last_reported":1728126427,"current_range_meters":36400,"station_id":"ce4bgkh2rcd13ifvqbl0","pricing_plan_id":"cebpf4jnsgd1na2vs0mg"},{"bike_id":"f04a8540-009c-4815-997a-8b6ac9553cbf","system_id":"levelo_inurba_marseille","lat":43.27071,"lon":5.42277,"is_reserved":false,"is_disabled":false,"rental_uris":{"android":"levelo://app?vid=f04a8540-009c-4815-997a-8b6ac9553cbf","ios":"levelo://app?vid=f04a8540-009c-4815-997a-8b6ac9553cbf"},"vehicle_type_id":"4","last_reported":1728126427,"current_range_meters":13600,"station_id":"ce4bhk92rcd13ifvqgb0","pricing_plan_id":"cebpf4jnsgd1na2vs0mg"},{"bike_id":"1e9e701f-fb8e-430e-be7f-54907f1b9076","system_id":"levelo_inurba_marseille","lat":43.33026,"lon":5.39037,"is_reserved":false,"is_disabled":false,"rental_uris":{"android":"levelo://app?vid=1e9e701f-fb8e-430e-be7f-54907f1b9076","ios":"levelo://app?vid=1e9e701f-fb8e-430e-be7f-54907f1b9076"},"vehicle_type_id":"4","last_reported":1728126427,"current_range_meters":18800,"station_id":"ce4bhr92rcd13ifvqhrg","pricing_plan_id":"cebpf4jnsgd1na2vs0mg"},{"bike_id":"763fb507-9371-4322-86df-97283fcffce0","system_id":"levelo_inurba_marseille","lat":43.32038,"lon":5.41574,"is_reserved":false,"is_disabled":false,"rental_uris":{"android":"levelo://app?vid=763fb507-9371-4322-86df-97283fcffce0","ios":"levelo://app?vid=763fb507-9371-4322-86df-97283fcffce0"},"vehicle_type_id":"4","last_reported":1728126427,"current_range_meters":32400,"station_id":"ce4bhq92rcd13ifvqhkg","pricing_plan_id":"cebpf4jnsgd1na2vs0mg"},{"bike_id":"c95a23ad-e4fb-4a97-b248-d366caa004fb","system_id":"levelo_inurba_marseille","lat":43.2848,"lon":5.38404,"is_reserved":false,"is_disabled":false,"rental_uris":{"android":"levelo://app?vid=c95a23ad-e4fb-4a97-b248-d366caa004fb","ios":"levelo://app?vid=c95a23ad-e4fb-4a97-b248-d366caa004fb"},"vehicle_type_id":"4","last_reported":1728126427,"current_range_meters":38000,"station_id":"ce4bh512rcd13ifvqe3g","pricing_plan_id":"cebpf4jnsgd1na2vs0mg"},{"bike_id":"7ecdac04-f526-40a8-9126-bd0e86885657","system_id":"levelo_inurba_marseille","lat":43.2315,"lon":5.43718,"is_reserved":false,"is_disabled":false,"rental_uris":{"android":"levelo://app?vid=7ecdac04-f526-40a8-9126-bd0e86885657","ios":"levelo://app?vid=7ecdac04-f526-40a8-9126-bd0e86885657"},"vehicle_type_id":"4","last_reported":1728126427,"current_range_meters":31200,"station_id":"ce4bhmp2rcd13ifvqgog","pricing_plan_id":"cebpf4jnsgd1na2vs0mg"},{"bike_id":"e0a07a08-8ace-4a01-b000-9c812c1d132e","system_id":"levelo_inurba_marseille","lat":43.31539,"lon":5.3803,"is_reserved":false,"is_disabled":false,"rental_uris":{"android":"levelo://app?vid=e0a07a08-8ace-4a01-b000-9c812c1d132e","ios":"levelo://app?vid=e0a07a08-8ace-4a01-b000-9c812c1d132e"},"vehicle_type_id":"4","last_reported":1728126427,"current_range_meters":4000,"station_id":"ce4bhsp2rcd13ifvqi50","pricing_plan_id":"cebpf4jnsgd1na2vs0mg"},{"bike_id":"fa216e8f-693c-43ce-aa2e-0933703fa218","system_id":"levelo_inurba_marseille","lat":43.27844,"lon":5.39221,"is_reserved":false,"is_disabled":false,"rental_uris":{"android":"levelo://app?vid=fa216e8f-693c-43ce-aa2e-0933703fa218","ios":"levelo://app?vid=fa216e8f-693c-43ce-aa2e-0933703fa218"},"vehicle_type_id":"4","last_reported":1728126427,"current_range_meters":28800,"station_id":"ce4bhjp2rcd13ifvqga0","pricing_plan_id":"cebpf4jnsgd1na2vs0mg"},{"bike_id":"a0a48911-ae34-4a3f-883c-27ac2f740d77","system_id":"levelo_inurba_marseille","lat":43.29553,"lon":5.42286,"is_reserved":false,"is_disabled":false,"rental_uris":{"android":"levelo://app?vid=a0a48911-ae34-4a3f-883c-27ac2f740d77","ios":"levelo://app?vid=a0a48911-ae34-4a3f-883c-27ac2f740d77"},"vehicle_type_id":"4","last_reported":1728126427,"current_range_meters":9600,"station_id":"ce4bhph2rcd13ifvqhdg","pricing_plan_id":"cebpf4jnsgd1na2vs0mg"},{"bike_id":"fe894fa8-2950-42c3-b21f-a384c41b699b","system_id":"levelo_inurba_marseille","lat":43.31713,"lon":5.4371,"is_reserved":false,"is_disabled":false,"rental_uris":{"android":"levelo://app?vid=fe894fa8-2950-42c3-b21f-a384c41b699b","ios":"levelo://app?vid=fe894fa8-2950-42c3-b21f-a384c41b699b"},"vehicle_type_id":"4","last_reported":1728126427,"current_range_meters":25200,"station_id":"ce4bhp92rcd13ifvqhcg","pricing_plan_id":"cebpf4jnsgd1na2vs0mg"},{"bike_id":"55100813-12e8-4340-bec3-04f2fc2d43d0","system_id":"levelo_inurba_marseille","lat":43.32481,"lon":5.3656,"is_reserved":false,"is_disabled":false,"rental_uris":{"android":"levelo://app?vid=55100813-12e8-4340-bec3-04f2fc2d43d0","ios":"levelo://app?vid=55100813-12e8-4340-bec3-04f2fc2d43d0"},"vehicle_type_id":"4","last_reported":1728126427,"current_range_meters":32400,"station_id":"ce4bhs12rcd13ifvqhvg","pricing_plan_id":"cebpf4jnsgd1na2vs0mg"},{"bike_id":"e8130eaa-f8f4-47da-8511-b3e10e5723ee","system_id":"levelo_inurba_marseille","lat":43.3014,"lon":5.37419,"is_reserved":false,"is_disabled":false,"rental_uris":{"android":"levelo://app?vid=e8130eaa-f8f4-47da-8511-b3e10e5723ee","ios":"levelo://app?vid=e8130eaa-f8f4-47da-8511-b3e10e5723ee"},"vehicle_type_id":"4","last_reported":1728126427,"current_range_meters":8000,"station_id":"ce4bgs92rcd13ifvqcc0","pricing_plan_id":"cebpf4jnsgd1na2vs0mg"},{"bike_id":"5cbc9e7e-36a4-4ee2-9b2e-b9b518fe7f8a","system_id":"levelo_inurba_marseille","lat":43.3171,"lon":5.43728,"is_reserved":false,"is_disabled":false,"rental_uris":{"android":"levelo://app?vid=5cbc9e7e-36a4-4ee2-9b2e-b9b518fe7f8a","ios":"levelo://app?vid=5cbc9e7e-36a4-4ee2-9b2e-b9b518fe7f8a"},"vehicle_type_id":"4","last_reported":1728126427,"current_range_meters":36400,"station_id":"ce4bhp92rcd13ifvqhcg","pricing_plan_id":"cebpf4jnsgd1na2vs0mg"},{"bike_id":"d4808aa6-c567-4fd2-a45d-721d9f01ea01","system_id":"levelo_inurba_marseille","lat":43.26059,"lon":5.394,"is_reserved":false,"is_disabled":false,"rental_uris":{"android":"levelo://app?vid=d4808aa6-c567-4fd2-a45d-721d9f01ea01","ios":"levelo://app?vid=d4808aa6-c567-4fd2-a45d-721d9f01ea01"},"vehicle_type_id":"4","last_reported":1728126427,"current_range_meters":4400,"station_id":"ce4bhh92rcd13ifvqfj0","pricing_plan_id":"cebpf4jnsgd1na2vs0mg"},{"bike_id":"3fb161cb-bb75-4d65-a585-6102d7e8530b","system_id":"levelo_inurba_marseille","lat":43.32007,"lon":5.38149,"is_reserved":false,"is_disabled":false,"rental_uris":{"android":"levelo://app?vid=3fb161cb-bb75-4d65-a585-6102d7e8530b","ios":"levelo://app?vid=3fb161cb-bb75-4d65-a585-6102d7e8530b"},"vehicle_type_id":"4","last_reported":1728126427,"current_range_meters":30000,"station_id":"ce4bhr12rcd13ifvqhpg","pricing_plan_id":"cebpf4jnsgd1na2vs0mg"},{"bike_id":"3c76bc3c-ba6b-497c-b639-532eac44bc71","system_id":"levelo_inurba_marseille","lat":43.32364,"lon":5.38891,"is_reserved":false,"is_disabled":false,"rental_uris":{"android":"levelo://app?vid=3c76bc3c-ba6b-497c-b639-532eac44bc71","ios":"levelo://app?vid=3c76bc3c-ba6b-497c-b639-532eac44bc71"},"vehicle_type_id":"4","last_reported":1728126427,"current_range_meters":7200,"station_id":"ce4bhqp2rcd13ifvqhog","pricing_plan_id":"cebpf4jnsgd1na2vs0mg"},{"bike_id":"322f597c-66cc-4ccd-93c3-1f71bf698ace","system_id":"levelo_inurba_marseille","lat":43.30129,"lon":5.39272,"is_reserved":false,"is_disabled":false,"rental_uris":{"android":"levelo://app?vid=322f597c-66cc-4ccd-93c3-1f71bf698ace","ios":"levelo://app?vid=322f597c-66cc-4ccd-93c3-1f71bf698ace"},"vehicle_type_id":"4","last_reported":1728126427,"current_range_meters":11600,"station_id":"","pricing_plan_id":"cebpf4jnsgd1na2vs0mg"},{"bike_id":"11ac7088-7bf6-44ee-b63a-03a874cb2e95","system_id":"levelo_inurba_marseille","lat":43.28153,"lon":5.42641,"is_reserved":false,"is_disabled":false,"rental_uris":{"android":"levelo://app?vid=11ac7088-7bf6-44ee-b63a-03a874cb2e95","ios":"levelo://app?vid=11ac7088-7bf6-44ee-b63a-03a874cb2e95"},"vehicle_type_id":"4","last_reported":1728126427,"current_range_meters":38800,"station_id":"ce4bhnh2rcd13ifvqgug","pricing_plan_id":"cebpf4jnsgd1na2vs0mg"},{"bike_id":"9aa8ad19-e2cf-4792-abdb-bbfae43c5098","system_id":"levelo_inurba_marseille","lat":43.31167,"lon":5.38719,"is_reserved":false,"is_disabled":false,"rental_uris":{"android":"levelo://app?vid=9aa8ad19-e2cf-4792-abdb-bbfae43c5098","ios":"levelo://app?vid=9aa8ad19-e2cf-4792-abdb-bbfae43c5098"},"vehicle_type_id":"4","last_reported":1728126427,"current_range_meters":37600,"station_id":"ce4bgv12rcd13ifvqcp0","pricing_plan_id":"cebpf4jnsgd1na2vs0mg"},{"bike_id":"22f3e562-524d-4355-8806-13e5eccf368f","system_id":"levelo_inurba_marseille","lat":43.23058,"lon":5.35489,"is_reserved":false,"is_disabled":false,"rental_uris":{"android":"levelo://app?vid=22f3e562-524d-4355-8806-13e5eccf368f","ios":"levelo://app?vid=22f3e562-524d-4355-8806-13e5eccf368f"},"vehicle_type_id":"4","last_reported":1728126427,"current_range_meters":32800,"station_id":"cpo3342slgdg3j2ifvpg","pricing_plan_id":"cebpf4jnsgd1na2vs0mg"},{"bike_id":"f1531be7-c778-4436-ad42-090a05345c98","system_id":"levelo_inurba_marseille","lat":43.2998,"lon":5.3718,"is_reserved":false,"is_disabled":false,"rental_uris":{"android":"levelo://app?vid=f1531be7-c778-4436-ad42-090a05345c98","ios":"levelo://app?vid=f1531be7-c778-4436-ad42-090a05345c98"},"vehicle_type_id":"4","last_reported":1728126427,"current_range_meters":34800,"station_id":"ce4bgr92rcd13ifvqc7g","pricing_plan_id":"cebpf4jnsgd1na2vs0mg"},{"bike_id":"b6a817d8-5787-46a3-898e-0b46c75fc481","system_id":"levelo_inurba_marseille","lat":43.32965,"lon":5.40344,"is_reserved":false,"is_disabled":false,"rental_uris":{"android":"levelo://app?vid=b6a817d8-5787-46a3-898e-0b46c75fc481","ios":"levelo://app?vid=b6a817d8-5787-46a3-898e-0b46c75fc481"},"vehicle_type_id":"4","last_reported":1728126427,"current_range_meters":6400,"station_id":"","pricing_plan_id":"cebpf4jnsgd1na2vs0mg"},{"bike_id":"524e4691-54b9-421d-808d-78c4d20f022f","system_id":"levelo_inurba_marseille","lat":43.23196,"lon":5.35552,"is_reserved":false,"is_disabled":false,"rental_uris":{"android":"levelo://app?vid=524e4691-54b9-421d-808d-78c4d20f022f","ios":"levelo://app?vid=524e4691-54b9-421d-808d-78c4d20f022f"},"vehicle_type_id":"4","last_reported":1728126427,"current_range_meters":33200,"station_id":"ce4bhu92rcd13ifvqi70","pricing_plan_id":"cebpf4jnsgd1na2vs0mg"},{"bike_id":"fcee5d9d-c512-4424-a5e2-0c0b879f5951","system_id":"levelo_inurba_marseille","lat":43.24168,"lon":5.36391,"is_reserved":false,"is_disabled":false,"rental_uris":{"android":"levelo://app?vid=fcee5d9d-c512-4424-a5e2-0c0b879f5951","ios":"levelo://app?vid=fcee5d9d-c512-4424-a5e2-0c0b879f5951"},"vehicle_type_id":"4","last_reported":1728126427,"current_range_meters":13600,"station_id":"cpo36qri1sfpv3e86is0","pricing_plan_id":"cebpf4jnsgd1na2vs0mg"},{"bike_id":"6856d22e-440d-40d9-809f-3167dacdbdc3","system_id":"levelo_inurba_marseille","lat":43.337444,"lon":5.374475,"is_reserved":false,"is_disabled":false,"rental_uris":{"android":"levelo://app?vid=6856d22e-440d-40d9-809f-3167dacdbdc3","ios":"levelo://app?vid=6856d22e-440d-40d9-809f-3167dacdbdc3"},"vehicle_type_id":"4","last_reported":1728126427,"current_range_meters":19600,"station_id":"","pricing_plan_id":"cebpf4jnsgd1na2vs0mg"},{"bike_id":"0a0f1363-c6da-4e1f-91d1-41b70d91a456","system_id":"levelo_inurba_marseille","lat":43.26207,"lon":5.37443,"is_reserved":false,"is_disabled":false,"rental_uris":{"android":"levelo://app?vid=0a0f1363-c6da-4e1f-91d1-41b70d91a456","ios":"levelo://app?vid=0a0f1363-c6da-4e1f-91d1-41b70d91a456"},"vehicle_type_id":"4","last_reported":1728126427,"current_range_meters":38400,"station_id":"ce4bhgp2rcd13ifvqfc0","pricing_plan_id":"cebpf4jnsgd1na2vs0mg"},{"bike_id":"64bd957e-b978-44cb-a85c-928d627d24ec","system_id":"levelo_inurba_marseille","lat":43.35424,"lon":5.35869,"is_reserved":false,"is_disabled":false,"rental_uris":{"android":"levelo://app?vid=64bd957e-b978-44cb-a85c-928d627d24ec","ios":"levelo://app?vid=64bd957e-b978-44cb-a85c-928d627d24ec"},"vehicle_type_id":"4","last_reported":1728126427,"current_range_meters":8000,"station_id":"","pricing_plan_id":"cebpf4jnsgd1na2vs0mg"},{"bike_id":"64995d1a-0a95-43c1-8426-b3115325266b","system_id":"levelo_inurba_marseille","lat":43.27916,"lon":5.42302,"is_reserved":false,"is_disabled":false,"rental_uris":{"android":"levelo://app?vid=64995d1a-0a95-43c1-8426-b3115325266b","ios":"levelo://app?vid=64995d1a-0a95-43c1-8426-b3115325266b"},"vehicle_type_id":"4","last_reported":1728126427,"current_range_meters":17200,"station_id":"","pricing_plan_id":"cebpf4jnsgd1na2vs0mg"},{"bike_id":"56603b52-0f31-46d8-9c7d-a1664f86f309","system_id":"levelo_inurba_marseille","lat":43.275,"lon":5.42447,"is_reserved":false,"is_disabled":false,"rental_uris":{"android":"levelo://app?vid=56603b52-0f31-46d8-9c7d-a1664f86f309","ios":"levelo://app?vid=56603b52-0f31-46d8-9c7d-a1664f86f309"},"vehicle_type_id":"4","last_reported":1728126427,"current_range_meters":16400,"station_id":"ce4bhn92rcd13ifvqgrg","pricing_plan_id":"cebpf4jnsgd1na2vs0mg"},{"bike_id":"0308afbd-dc3d-49aa-8f00-05db22b52966","system_id":"levelo_inurba_marseille","lat":43.31707,"lon":5.37755,"is_reserved":false,"is_disabled":false,"rental_uris":{"android":"levelo://app?vid=0308afbd-dc3d-49aa-8f00-05db22b52966","ios":"levelo://app?vid=0308afbd-dc3d-49aa-8f00-05db22b52966"},"vehicle_type_id":"4","last_reported":1728126427,"current_range_meters":38800,"station_id":"ce4bgth2rcd13ifvqch0","pricing_plan_id":"cebpf4jnsgd1na2vs0mg"},{"bike_id":"bf8dd40d-79bb-4b5d-8d63-a522bd6aba13","system_id":"levelo_inurba_marseille","lat":43.27996,"lon":5.40018,"is_reserved":false,"is_disabled":false,"rental_uris":{"android":"levelo://app?vid=bf8dd40d-79bb-4b5d-8d63-a522bd6aba13","ios":"levelo://app?vid=bf8dd40d-79bb-4b5d-8d63-a522bd6aba13"},"vehicle_type_id":"4","last_reported":1728126427,"current_range_meters":32400,"station_id":"ce4bho92rcd13ifvqh4g","pricing_plan_id":"cebpf4jnsgd1na2vs0mg"},{"bike_id":"9229a8cb-11f6-493f-b120-de51d142ce58","system_id":"levelo_inurba_marseille","lat":43.29505,"lon":5.37509,"is_reserved":false,"is_disabled":false,"rental_uris":{"android":"levelo://app?vid=9229a8cb-11f6-493f-b120-de51d142ce58","ios":"levelo://app?vid=9229a8cb-11f6-493f-b120-de51d142ce58"},"vehicle_type_id":"4","last_reported":1728126427,"current_range_meters":36000,"station_id":"ce4bgkp2rcd13ifvqbmg","pricing_plan_id":"cebpf4jnsgd1na2vs0mg"},{"bike_id":"4a79b7f5-df06-47d9-894a-c23c245e5186","system_id":"levelo_inurba_marseille","lat":43.29557,"lon":5.42282,"is_reserved":false,"is_disabled":false,"rental_uris":{"android":"levelo://app?vid=4a79b7f5-df06-47d9-894a-c23c245e5186","ios":"levelo://app?vid=4a79b7f5-df06-47d9-894a-c23c245e5186"},"vehicle_type_id":"4","last_reported":1728126427,"current_range_meters":38800,"station_id":"ce4bhph2rcd13ifvqhdg","pricing_plan_id":"cebpf4jnsgd1na2vs0mg"},{"bike_id":"32242c56-871c-43e9-886b-ffb4c5d66c0e","system_id":"levelo_inurba_marseille","lat":43.2593,"lon":5.40911,"is_reserved":false,"is_disabled":false,"rental_uris":{"android":"levelo://app?vid=32242c56-871c-43e9-886b-ffb4c5d66c0e","ios":"levelo://app?vid=32242c56-871c-43e9-886b-ffb4c5d66c0e"},"vehicle_type_id":"4","last_reported":1728126427,"current_range_meters":11200,"station_id":"ce4bhm92rcd13ifvqglg","pricing_plan_id":"cebpf4jnsgd1na2vs0mg"},{"bike_id":"4f84f944-52f6-4a38-a334-1e9dd837f127","system_id":"levelo_inurba_marseille","lat":43.25582,"lon":5.38238,"is_reserved":false,"is_disabled":false,"rental_uris":{"android":"levelo://app?vid=4f84f944-52f6-4a38-a334-1e9dd837f127","ios":"levelo://app?vid=4f84f944-52f6-4a38-a334-1e9dd837f127"},"vehicle_type_id":"4","last_reported":1728126427,"current_range_meters":25600,"station_id":"ce4bhih2rcd13ifvqfs0","pricing_plan_id":"cebpf4jnsgd1na2vs0mg"},{"bike_id":"79d4ce44-dde0-4856-adfb-9d048612b764","system_id":"levelo_inurba_marseille","lat":43.33764,"lon":5.37424,"is_reserved":false,"is_disabled":false,"rental_uris":{"android":"levelo://app?vid=79d4ce44-dde0-4856-adfb-9d048612b764","ios":"levelo://app?vid=79d4ce44-dde0-4856-adfb-9d048612b764"},"vehicle_type_id":"4","last_reported":1728126427,"current_range_meters":24800,"station_id":"","pricing_plan_id":"cebpf4jnsgd1na2vs0mg"},{"bike_id":"6362dd7e-711b-4b82-af8e-291ea8f6ea1e","system_id":"levelo_inurba_marseille","lat":43.33777,"lon":5.3742,"is_reserved":false,"is_disabled":false,"rental_uris":{"android":"levelo://app?vid=6362dd7e-711b-4b82-af8e-291ea8f6ea1e","ios":"levelo://app?vid=6362dd7e-711b-4b82-af8e-291ea8f6ea1e"},"vehicle_type_id":"4","last_reported":1728126427,"current_range_meters":36800,"station_id":"","pricing_plan_id":"cebpf4jnsgd1na2vs0mg"},{"bike_id":"55aa7699-10e2-4c31-965f-e8e4f457a795","system_id":"levelo_inurba_marseille","lat":43.28156,"lon":5.42643,"is_reserved":false,"is_disabled":false,"rental_uris":{"android":"levelo://app?vid=55aa7699-10e2-4c31-965f-e8e4f457a795","ios":"levelo://app?vid=55aa7699-10e2-4c31-965f-e8e4f457a795"},"vehicle_type_id":"4","last_reported":1728126427,"current_range_meters":39200,"station_id":"ce4bhnh2rcd13ifvqgug","pricing_plan_id":"cebpf4jnsgd1na2vs0mg"},{"bike_id":"66d10e52-8172-403d-960e-615c6bcdd6f1","system_id":"levelo_inurba_marseille","lat":43.28721,"lon":5.36092,"is_reserved":false,"is_disabled":false,"rental_uris":{"android":"levelo://app?vid=66d10e52-8172-403d-960e-615c6bcdd6f1","ios":"levelo://app?vid=66d10e52-8172-403d-960e-615c6bcdd6f1"},"vehicle_type_id":"4","last_reported":1728126427,"current_range_meters":34800,"station_id":"cki0cbj6b192h4jlfktg","pricing_plan_id":"cebpf4jnsgd1na2vs0mg"},{"bike_id":"738338a7-5c54-4263-9a24-9b51476e29bb","system_id":"levelo_inurba_marseille","lat":43.28846,"lon":5.35866,"is_reserved":false,"is_disabled":false,"rental_uris":{"android":"levelo://app?vid=738338a7-5c54-4263-9a24-9b51476e29bb","ios":"levelo://app?vid=738338a7-5c54-4263-9a24-9b51476e29bb"},"vehicle_type_id":"4","last_reported":1728126427,"current_range_meters":23200,"station_id":"ce4bhb12rcd13ifvqem0","pricing_plan_id":"cebpf4jnsgd1na2vs0mg"},{"bike_id":"b1c98929-6b22-4ef0-99bb-7803c1b8ede2","system_id":"levelo_inurba_marseille","lat":43.24999,"lon":5.38934,"is_reserved":false,"is_disabled":false,"rental_uris":{"android":"levelo://app?vid=b1c98929-6b22-4ef0-99bb-7803c1b8ede2","ios":"levelo://app?vid=b1c98929-6b22-4ef0-99bb-7803c1b8ede2"},"vehicle_type_id":"4","last_reported":1728126427,"current_range_meters":8400,"station_id":"ce4bhgp2rcd13ifvqfd0","pricing_plan_id":"cebpf4jnsgd1na2vs0mg"},{"bike_id":"8f309e13-2e39-4e28-8ab5-d881adb2f3d3","system_id":"levelo_inurba_marseille","lat":43.32545,"lon":5.4145,"is_reserved":false,"is_disabled":false,"rental_uris":{"android":"levelo://app?vid=8f309e13-2e39-4e28-8ab5-d881adb2f3d3","ios":"levelo://app?vid=8f309e13-2e39-4e28-8ab5-d881adb2f3d3"},"vehicle_type_id":"4","last_reported":1728126427,"current_range_meters":37600,"station_id":"ce4bhq12rcd13ifvqhhg","pricing_plan_id":"cebpf4jnsgd1na2vs0mg"},{"bike_id":"5305316b-eb43-43cb-bedf-3a735be36892","system_id":"levelo_inurba_marseille","lat":43.31715,"lon":5.43706,"is_reserved":false,"is_disabled":false,"rental_uris":{"android":"levelo://app?vid=5305316b-eb43-43cb-bedf-3a735be36892","ios":"levelo://app?vid=5305316b-eb43-43cb-bedf-3a735be36892"},"vehicle_type_id":"4","last_reported":1728126427,"current_range_meters":38000,"station_id":"ce4bhp92rcd13ifvqhcg","pricing_plan_id":"cebpf4jnsgd1na2vs0mg"},{"bike_id":"191082f3-d6c6-4cdf-af68-76e707014d20","system_id":"levelo_inurba_marseille","lat":43.26804,"lon":5.40256,"is_reserved":false,"is_disabled":false,"rental_uris":{"android":"levelo://app?vid=191082f3-d6c6-4cdf-af68-76e707014d20","ios":"levelo://app?vid=191082f3-d6c6-4cdf-af68-76e707014d20"},"vehicle_type_id":"4","last_reported":1728126427,"current_range_meters":18800,"station_id":"ce501612rcd8frsf0b60","pricing_plan_id":"cebpf4jnsgd1na2vs0mg"},{"bike_id":"d65bc70d-0355-4e6e-858d-ab8d6078188b","system_id":"levelo_inurba_marseille","lat":43.290418,"lon":5.3757,"is_reserved":false,"is_disabled":false,"rental_uris":{"android":"levelo://app?vid=d65bc70d-0355-4e6e-858d-ab8d6078188b","ios":"levelo://app?vid=d65bc70d-0355-4e6e-858d-ab8d6078188b"},"vehicle_type_id":"4","last_reported":1728126427,"current_range_meters":27200,"station_id":"ce4bh692rcd13ifvqe90","pricing_plan_id":"cebpf4jnsgd1na2vs0mg"},{"bike_id":"42715632-e225-47f3-813c-9451f24e5700","system_id":"levelo_inurba_marseille","lat":43.23188,"lon":5.35549,"is_reserved":false,"is_disabled":false,"rental_uris":{"android":"levelo://app?vid=42715632-e225-47f3-813c-9451f24e5700","ios":"levelo://app?vid=42715632-e225-47f3-813c-9451f24e5700"},"vehicle_type_id":"4","last_reported":1728126427,"current_range_meters":4800,"station_id":"ce4bhu92rcd13ifvqi70","pricing_plan_id":"cebpf4jnsgd1na2vs0mg"},{"bike_id":"129ef8c6-12f4-488e-b724-780d6380c2a3","system_id":"levelo_inurba_marseille","lat":43.28352,"lon":5.38098,"is_reserved":false,"is_disabled":false,"rental_uris":{"android":"levelo://app?vid=129ef8c6-12f4-488e-b724-780d6380c2a3","ios":"levelo://app?vid=129ef8c6-12f4-488e-b724-780d6380c2a3"},"vehicle_type_id":"4","last_reported":1728126427,"current_range_meters":24800,"station_id":"ce4bh412rcd13ifvqdr0","pricing_plan_id":"cebpf4jnsgd1na2vs0mg"},{"bike_id":"d0a57ce8-3258-452a-b057-32aa31648114","system_id":"levelo_inurba_marseille","lat":43.32483,"lon":5.3656,"is_reserved":false,"is_disabled":false,"rental_uris":{"android":"levelo://app?vid=d0a57ce8-3258-452a-b057-32aa31648114","ios":"levelo://app?vid=d0a57ce8-3258-452a-b057-32aa31648114"},"vehicle_type_id":"4","last_reported":1728126427,"current_range_meters":36400,"station_id":"ce4bhs12rcd13ifvqhvg","pricing_plan_id":"cebpf4jnsgd1na2vs0mg"},{"bike_id":"6ddd268c-3688-4aa9-87e5-d9f4e7102d13","system_id":"levelo_inurba_marseille","lat":43.27055,"lon":5.40257,"is_reserved":false,"is_disabled":false,"rental_uris":{"android":"levelo://app?vid=6ddd268c-3688-4aa9-87e5-d9f4e7102d13","ios":"levelo://app?vid=6ddd268c-3688-4aa9-87e5-d9f4e7102d13"},"vehicle_type_id":"4","last_reported":1728126427,"current_range_meters":24400,"station_id":"ce4bhk92rcd13ifvqgc0","pricing_plan_id":"cebpf4jnsgd1na2vs0mg"},