{"last_updated":1746522681,"ttl":60,"version":"2.2","data":{"bikes":[{"bike_id":"c8c75397-b5ea-4f16-bdb9-1cbac48d03c2","system_id":"levelo_inurba_marseille","lat":43.2951,"lon":5.3906,"is_reserved":false,"is_disabled":false,"rental_uris":{"android":"levelo://app?vid=c8c75397-b5ea-4f16-bdb9-1cbac48d03c2","ios":"levelo://app?vid=c8c75397-b5ea-4f16-bdb9-1cbac48d03c2"},"vehicle_type_id":"4","last_reported":1746522681,"current_range_meters":2800,"station_id":"ce4bh3p2rcd13ifvqdp0","pricing_plan_id":"cebpf4jnsgd1na2vs0mg"},{"bike_id":"9e1854ae-0ffa-428e-a405-151b7e4bf46d","system_id":"levelo_inurba_marseille","lat":43.28679,"lon":5.38672,"is_reserved":false,"is_disabled":true,"rental_uris":{"android":"levelo://app?vid=9e1854ae-0ffa-428e-a405-151b7e4bf46d","ios":"levelo://app?vid=9e1854ae-0ffa-428e-a405-151b7e4bf46d"},"vehicle_type_id":"4","last_reported":1746522681,"current_range_meters":3200,"station_id":"ce4bh492rcd13ifvqdug","pricing_plan_id":"cebpf4jnsgd1na2vs0mg"},{"bike_id":"ed264499-9b8e-4e26-88ce-9f834da2fb35","system_id":"levelo_inurba_marseille","lat":43.27967,"lon":5.38739,"is_reserved":false,"is_disabled":false,"rental_uris":{"android":"levelo://app?vid=ed264499-9b8e-4e26-88ce-9f834da2fb35","ios":"levelo://app?vid=ed264499-9b8e-4e26-88ce-9f834da2fb35"},"vehicle_type_id":"4","last_reported":1746522681,"current_range_meters":3600,"station_id":"ce4bhg12rcd13ifvqf80","pricing_plan_id":"cebpf4jnsgd1na2vs0mg"},{"bike_id":"b1a71060-1e13-4204-a84a-e6c9f8bfe7d6","system_id":"levelo_inurba_marseille","lat":43.30946,"lon":5.39028,"is_reserved":false,"is_disabled":false,"rental_uris":{"android":"levelo://app?vid=b1a71060-1e13-4204-a84a-e6c9f8bfe7d6","ios":"levelo://app?vid=b1a71060-1e13-4204-a84a-e6c9f8bfe7d6"},"vehicle_type_id":"4","last_reported":1746522681,"current_range_meters":3600,"station_id":"ce4bgup2rcd13ifvqco0","pricing_plan_id":"cebpf4jnsgd1na2vs0mg"},{"bike_id":"a45f2f7b-139c-40c0-a97a-84235a835157","system_id":"levelo_inurba_marseille","lat":43.26191,"lon":5.37454,"is_reserved":false,"is_disabled":false,"rental_uris":{"android":"levelo://app?vid=a45f2f7b-139c-40c0-a97a-84235a835157","ios":"levelo://app?vid=a45f2f7b-139c-40c0-a97a-84235a835157"},"vehicle_type_id":"4","last_reported":1746522681,"current_range_meters":3600,"station_id":"ce4bhgp2rcd13ifvqfc0","pricing_plan_id":"cebpf4jnsgd1na2vs0mg"},{"bike_id":"66b646b3-6352-44bb-9bfb-21570512e3e5","system_id":"levelo_inurba_marseille","lat":43.281331,"lon":5.403855,"is_reserved":false,"is_disabled":false,"rental_uris":{"android":"levelo://app?vid=66b646b3-6352-44bb-9bfb-21570512e3e5","ios":"levelo://app?vid=66b646b3-6352-44bb-9bfb-21570512e3e5"},"vehicle_type_id":"4","last_reported":1746522681,"current_range_meters":4000,"station_id":"","pricing_plan_id":"cebpf4jnsgd1na2vs0mg"},{"bike_id":"5c3be974-ef4c-4f08-97b8-9f15739abb6d","system_id":"levelo_inurba_marseille","lat":43.30943,"lon":5.39036,"is_reserved":false,"is_disabled":false,"rental_uris":{"android":"levelo://app?vid=5c3be974-ef4c-4f08-97b8-9f15739abb6d","ios":"levelo://app?vid=5c3be974-ef4c-4f08-97b8-9f15739abb6d"},"vehicle_type_id":"4","last_reported":1746522681,"current_range_meters":4400,"station_id":"ce4bgup2rcd13ifvqco0","pricing_plan_id":"cebpf4jnsgd1na2vs0mg"},{"bike_id":"51578a59-d716-4052-b766-44b12ba9b678","system_id":"levelo_inurba_marseille","lat":43.29517,"lon":5.39058,"is_reserved":false,"is_disabled":false,"rental_uris":{"android":"levelo://app?vid=51578a59-d716-4052-b766-44b12ba9b678","ios":"levelo://app?vid=51578a59-d716-4052-b766-44b12ba9b678"},"vehicle_type_id":"4","last_reported":1746522681,"current_range_meters":4800,"station_id":"ce4bh3p2rcd13ifvqdp0","pricing_plan_id":"cebpf4jnsgd1na2vs0mg"},{"bike_id":"2d07ba52-9587-463f-a15e-0dc9acd35623","system_id":"levelo_inurba_marseille","lat":43.31226,"lon":5.36847,"is_reserved":false,"is_disabled":false,"rental_uris":{"android":"levelo://app?vid=2d07ba52-9587-463f-a15e-0dc9acd35623","ios":"levelo://app?vid=2d07ba52-9587-463f-a15e-0dc9acd35623"},"vehicle_type_id":"4","last_reported":1746522681,"current_range_meters":5600,"station_id":"ce4bgl92rcd13ifvqbq0","pricing_plan_id":"cebpf4jnsgd1na2vs0mg"},{"bike_id":"903ace5d-b1d6-4b6c-9fdc-25cc75342bd1","system_id":"levelo_inurba_marseille","lat":43.26598,"lon":5.39053,"is_reserved":false,"is_disabled":false,"rental_uris":{"android":"levelo://app?vid=903ace5d-b1d6-4b6c-9fdc-25cc75342bd1","ios":"levelo://app?vid=903ace5d-b1d6-4b6c-9fdc-25cc75342bd1"},"vehicle_type_id":"4","last_reported":1746522681,"current_range_meters":6000,"station_id":"ce4bhe12rcd13ifvqf30","pricing_plan_id":"cebpf4jnsgd1na2vs0mg"},{"bike_id":"b10d463a-a426-43ed-a83c-2f4d4d9377c9","system_id":"levelo_inurba_marseille","lat":43.27502,"lon":5.42449,"is_reserved":false,"is_disabled":false,"rental_uris":{"android":"levelo://app?vid=b10d463a-a426-43ed-a83c-2f4d4d9377c9","ios":"levelo://app?vid=b10d463a-a426-43ed-a83c-2f4d4d9377c9"},"vehicle_type_id":"4","last_reported":1746522681,"current_range_meters":6000,"station_id":"ce4bhn92rcd13ifvqgrg","pricing_plan_id":"cebpf4jnsgd1na2vs0mg"},{"bike_id":"94387852-9f0e-48b1-97bd-88d65f1feedc","system_id":"levelo_inurba_marseille","lat":43.29917,"lon":5.36553,"is_reserved":false,"is_disabled":false,"rental_uris":{"android":"levelo://app?vid=94387852-9f0e-48b1-97bd-88d65f1feedc","ios":"levelo://app?vid=94387852-9f0e-48b1-97bd-88d65f1feedc"},"vehicle_type_id":"4","last_reported":1746522681,"current_range_meters":6000,"station_id":"ce4bgm92rcd13ifvqbr0","pricing_plan_id":"cebpf4jnsgd1na2vs0mg"},{"bike_id":"277fb38d-9e45-4957-b349-3f82b0c908ba","system_id":"levelo_inurba_marseille","lat":43.31363,"lon":5.36747,"is_reserved":false,"is_disabled":false,"rental_uris":{"android":"levelo://app?vid=277fb38d-9e45-4957-b349-3f82b0c908ba","ios":"levelo://app?vid=277fb38d-9e45-4957-b349-3f82b0c908ba"},"vehicle_type_id":"4","last_reported":1746522681,"current_range_meters":6000,"station_id":"ce4bgr92rcd13ifvqc6g","pricing_plan_id":"cebpf4jnsgd1na2vs0mg"},{"bike_id":"5c7249a3-596f-4101-8dbd-1087a1f3b438","system_id":"levelo_inurba_marseille","lat":43.23191,"lon":5.355619,"is_reserved":false,"is_disabled":false,"rental_uris":{"android":"levelo://app?vid=5c7249a3-596f-4101-8dbd-1087a1f3b438","ios":"levelo://app?vid=5c7249a3-596f-4101-8dbd-1087a1f3b438"},"vehicle_type_id":"4","last_reported":1746522681,"current_range_meters":6400,"station_id":"ce4bhu92rcd13ifvqi70","pricing_plan_id":"cebpf4jnsgd1na2vs0mg"},{"bike_id":"25ade8bc-7e40-4990-b68a-c2afd8277984","system_id":"levelo_inurba_marseille","lat":43.299168,"lon":5.374823,"is_reserved":false,"is_disabled":false,"rental_uris":{"android":"levelo://app?vid=25ade8bc-7e40-4990-b68a-c2afd8277984","ios":"levelo://app?vid=25ade8bc-7e40-4990-b68a-c2afd8277984"},"vehicle_type_id":"4","last_reported":1746522681,"current_range_meters":6400,"station_id":"ce4bgjh2rcd13ifvqbg0","pricing_plan_id":"cebpf4jnsgd1na2vs0mg"},{"bike_id":"4fac73c6-2615-4a2b-9f68-28693c33d6a1","system_id":"levelo_inurba_marseille","lat":43.23964,"lon":5.36635,"is_reserved":false,"is_disabled":false,"rental_uris":{"android":"levelo://app?vid=4fac73c6-2615-4a2b-9f68-28693c33d6a1","ios":"levelo://app?vid=4fac73c6-2615-4a2b-9f68-28693c33d6a1"},"vehicle_type_id":"4","last_reported":1746522681,"current_range_meters":6400,"station_id":"ce4bhi12rcd13ifvqfp0","pricing_plan_id":"cebpf4jnsgd1na2vs0mg"},{"bike_id":"a99b1fd3-9477-4bb5-9f5a-21caeec9181d","system_id":"levelo_inurba_marseille","lat":43.28842,"lon":5.39321,"is_reserved":false,"is_disabled":false,"rental_uris":{"android":"levelo://app?vid=a99b1fd3-9477-4bb5-9f5a-21caeec9181d","ios":"levelo://app?vid=a99b1fd3-9477-4bb5-9f5a-21caeec9181d"},"vehicle_type_id":"4","last_reported":1746522681,"current_range_meters":6800,"station_id":"ce4bh2p2rcd13ifvqdi0","pricing_plan_id":"cebpf4jnsgd1na2vs0mg"},{"bike_id":"b7968d56-e97a-400e-995e-caaf686d2dbd","system_id":"levelo_inurba_marseille","lat":43.31345,"lon":5.36709,"is_reserved":false,"is_disabled":false,"rental_uris":{"android":"levelo://app?vid=b7968d56-e97a-400e-995e-caaf686d2dbd","ios":"levelo://app?vid=b7968d56-e97a-400e-995e-caaf686d2dbd"},"vehicle_type_id":"4","last_reported":1746522681,"current_range_meters":6800,"station_id":"ce4bgr92rcd13ifvqc6g","pricing_plan_id":"cebpf4jnsgd1na2vs0mg"},{"bike_id":"482344f1-460c-48ea-83dd-01b9a385e5cf","system_id":"levelo_inurba_marseille","lat":43.30653,"lon":5.36864,"is_reserved":false,"is_disabled":false,"rental_uris":{"android":"levelo://app?vid=482344f1-460c-48ea-83dd-01b9a385e5cf","ios":"levelo://app?vid=482344f1-460c-48ea-83dd-01b9a385e5cf"},"vehicle_type_id":"4","last_reported":1746522681,"current_range_meters":6800,"station_id":"","pricing_plan_id":"cebpf4jnsgd1na2vs0mg"},{"bike_id":"d8b28899-beb2-4fed-90ec-740853b41530","system_id":"levelo_inurba_marseille","lat":43.313446,"lon":5.3671,"is_reserved":false,"is_disabled":false,"rental_uris":{"android":"levelo://app?vid=d8b28899-beb2-4fed-90ec-740853b41530","ios":"levelo://app?vid=d8b28899-beb2-4fed-90ec-740853b41530"},"vehicle_type_id":"4","last_reported":1746522681,"current_range_meters":6800,"station_id":"ce4bgr92rcd13ifvqc6g","pricing_plan_id":"cebpf4jnsgd1na2vs0mg"},{"bike_id":"54930f4f-5050-477f-82ca-3fe85ba5d906","system_id":"levelo_inurba_marseille","lat":43.2668,"lon":5.38264,"is_reserved":false,"is_disabled":false,"rental_uris":{"android":"levelo://app?vid=54930f4f-5050-477f-82ca-3fe85ba5d906","ios":"levelo://app?vid=54930f4f-5050-477f-82ca-3fe85ba5d906"},"vehicle_type_id":"4","last_reported":1746522681,"current_range_meters":6800,"station_id":"ce4bhg92rcd13ifvqf90","pricing_plan_id":"cebpf4jnsgd1na2vs0mg"},{"bike_id":"dafd86f5-28bf-404a-a1a1-d40f6dde7141","system_id":"levelo_inurba_marseille","lat":43.30144,"lon":5.38086,"is_reserved":false,"is_disabled":false,"rental_uris":{"android":"levelo://app?vid=dafd86f5-28bf-404a-a1a1-d40f6dde7141","ios":"levelo://app?vid=dafd86f5-28bf-404a-a1a1-d40f6dde7141"},"vehicle_type_id":"4","last_reported":1746522681,"current_range_meters":8800,"station_id":"ce4bgjp2rcd13ifvqbh0","pricing_plan_id":"cebpf4jnsgd1na2vs0mg"},{"bike_id":"77410e07-9f81-4033-899b-2f07157282d3","system_id":"levelo_inurba_marseille","lat":43.25824,"lon":5.39426,"is_reserved":false,"is_disabled":false,"rental_uris":{"android":"levelo://app?vid=77410e07-9f81-4033-899b-2f07157282d3","ios":"levelo://app?vid=77410e07-9f81-4033-899b-2f07157282d3"},"vehicle_type_id":"4","last_reported":1746522681,"current_range_meters":6800,"station_id":"ce4bhip2rcd13ifvqft0","pricing_plan_id":"cebpf4jnsgd1na2vs0mg"},{"bike_id":"ac63e74b-4488-48c9-97a3-fa06519df3ef","system_id":"levelo_inurba_marseille","lat":43.31381,"lon":5.36705,"is_reserved":false,"is_disabled":false,"rental_uris":{"android":"levelo://app?vid=ac63e74b-4488-48c9-97a3-fa06519df3ef","ios":"levelo://app?vid=ac63e74b-4488-48c9-97a3-fa06519df3ef"},"vehicle_type_id":"4","last_reported":1746522681,"current_range_meters":7200,"station_id":"ce4bgr92rcd13ifvqc6g","pricing_plan_id":"cebpf4jnsgd1na2vs0mg"},{"bike_id":"e475ba5f-9081-49ea-b924-12f3057e5530","system_id":"levelo_inurba_marseille","lat":43.3014,"lon":5.37417,"is_reserved":false,"is_disabled":false,"rental_uris":{"android":"levelo://app?vid=e475ba5f-9081-49ea-b924-12f3057e5530","ios":"levelo://app?vid=e475ba5f-9081-49ea-b924-12f3057e5530"},"vehicle_type_id":"4","last_reported":1746522681,"current_range_meters":7200,"station_id":"ce4bgs92rcd13ifvqcc0","pricing_plan_id":"cebpf4jnsgd1na2vs0mg"},{"bike_id":"5f75a000-5412-4dcc-9930-718ca33b8fe7","system_id":"levelo_inurba_marseille","lat":43.31327,"lon":5.36734,"is_reserved":false,"is_disabled":false,"rental_uris":{"android":"levelo://app?vid=5f75a000-5412-4dcc-9930-718ca33b8fe7","ios":"levelo://app?vid=5f75a000-5412-4dcc-9930-718ca33b8fe7"},"vehicle_type_id":"4","last_reported":1746522681,"current_range_meters":7200,"station_id":"ce4bgr92rcd13ifvqc6g","pricing_plan_id":"cebpf4jnsgd1na2vs0mg"},{"bike_id":"adf3e33e-9193-4d04-87d1-6a2f1956c5e9","system_id":"levelo_inurba_marseille","lat":43.25939,"lon":5.40906,"is_reserved":false,"is_disabled":false,"rental_uris":{"android":"levelo://app?vid=adf3e33e-9193-4d04-87d1-6a2f1956c5e9","ios":"levelo://app?vid=adf3e33e-9193-4d04-87d1-6a2f1956c5e9"},"vehicle_type_id":"4","last_reported":1746522681,"current_range_meters":7200,"station_id":"ce4bhm92rcd13ifvqglg","pricing_plan_id":"cebpf4jnsgd1na2vs0mg"},{"bike_id":"adc9078d-f08f-482f-9d3e-5e0e9e3ac0f9","system_id":"levelo_inurba_marseille","lat":43.28565,"lon":5.39496,"is_reserved":false,"is_disabled":false,"rental_uris":{"android":"levelo://app?vid=adc9078d-f08f-482f-9d3e-5e0e9e3ac0f9","ios":"levelo://app?vid=adc9078d-f08f-482f-9d3e-5e0e9e3ac0f9"},"vehicle_type_id":"4","last_reported":1746522681,"current_range_meters":8400,"station_id":"ce4bh292rcd13ifvqdg0","pricing_plan_id":"cebpf4jnsgd1na2vs0mg"},{"bike_id":"bf4e93fb-2150-4076-ac7f-2f06a9b59217","system_id":"levelo_inurba_marseille","lat":43.296321,"lon":5.405959,"is_reserved":false,"is_disabled":false,"rental_uris":{"android":"levelo://app?vid=bf4e93fb-2150-4076-ac7f-2f06a9b59217","ios":"levelo://app?vid=bf4e93fb-2150-4076-ac7f-2f06a9b59217"},"vehicle_type_id":"4","last_reported":1746522681,"current_range_meters":8000,"station_id":"ce4bh0h2rcd13ifvqd60","pricing_plan_id":"cebpf4jnsgd1na2vs0mg"},{"bike_id":"1c30236a-4360-4a2c-bbb0-4f3d97fc1032","system_id":"levelo_inurba_marseille","lat":43.268,"lon":5.40271,"is_reserved":false,"is_disabled":false,"rental_uris":{"android":"levelo://app?vid=1c30236a-4360-4a2c-bbb0-4f3d97fc1032","ios":"levelo://app?vid=1c30236a-4360-4a2c-bbb0-4f3d97fc1032"},"vehicle_type_id":"4","last_reported":1746522681,"current_range_meters":8000,"station_id":"ce501612rcd8frsf0b60","pricing_plan_id":"cebpf4jnsgd1na2vs0mg"},{"bike_id":"2abdf044-61e4-4045-af51-da2782b3d37d","system_id":"levelo_inurba_marseille","lat":43.27495,"lon":5.42449,"is_reserved":false,"is_disabled":false,"rental_uris":{"android":"levelo://app?vid=2abdf044-61e4-4045-af51-da2782b3d37d","ios":"levelo://app?vid=2abdf044-61e4-4045-af51-da2782b3d37d"},"vehicle_type_id":"4","last_reported":1746522681,"current_range_meters":7200,"station_id":"ce4bhn92rcd13ifvqgrg","pricing_plan_id":"cebpf4jnsgd1na2vs0mg"},{"bike_id":"f201e35f-0887-46ff-bb2e-950f0791d4ee","system_id":"levelo_inurba_marseille","lat":43.26564,"lon":5.37293,"is_reserved":false,"is_disabled":false,"rental_uris":{"android":"levelo://app?vid=f201e35f-0887-46ff-bb2e-950f0791d4ee","ios":"levelo://app?vid=f201e35f-0887-46ff-bb2e-950f0791d4ee"},"vehicle_type_id":"4","last_reported":1746522681,"current_range_meters":8000,"station_id":"ce4bhg12rcd13ifvqf70","pricing_plan_id":"cebpf4jnsgd1na2vs0mg"},{"bike_id":"1003b1dc-75bf-4c4f-ad89-3da48e10cd40","system_id":"levelo_inurba_marseille","lat":43.29705,"lon":5.36614,"is_reserved":false,"is_disabled":false,"rental_uris":{"android":"levelo://app?vid=1003b1dc-75bf-4c4f-ad89-3da48e10cd40","ios":"levelo://app?vid=1003b1dc-75bf-4c4f-ad89-3da48e10cd40"},"vehicle_type_id":"4","last_reported":1746522681,"current_range_meters":8400,"station_id":"ce4bgn12rcd13ifvqbt0","pricing_plan_id":"cebpf4jnsgd1na2vs0mg"},{"bike_id":"3ffb72b3-3870-4ecb-bb52-bfefa0d19a50","system_id":"levelo_inurba_marseille","lat":43.27063,"lon":5.42271,"is_reserved":false,"is_disabled":false,"rental_uris":{"android":"levelo://app?vid=3ffb72b3-3870-4ecb-bb52-bfefa0d19a50","ios":"levelo://app?vid=3ffb72b3-3870-4ecb-bb52-bfefa0d19a50"},"vehicle_type_id":"4","last_reported":1746522681,"current_range_meters":8400,"station_id":"ce4bhk92rcd13ifvqgb0","pricing_plan_id":"cebpf4jnsgd1na2vs0mg"},{"bike_id":"74aea94a-1f6e-4a3d-8b0c-96eaecc7a35e","system_id":"levelo_inurba_marseille","lat":43.27667,"lon":5.38894,"is_reserved":false,"is_disabled":false,"rental_uris":{"android":"levelo://app?vid=74aea94a-1f6e-4a3d-8b0c-96eaecc7a35e","ios":"levelo://app?vid=74aea94a-1f6e-4a3d-8b0c-96eaecc7a35e"},"vehicle_type_id":"4","last_reported":1746522681,"current_range_meters":8400,"station_id":"ce4bhi12rcd13ifvqfo0","pricing_plan_id":"cebpf4jnsgd1na2vs0mg"},{"bike_id":"715af6eb-c6b5-4674-b0fa-cb5d16e24e61","system_id":"levelo_inurba_marseille","lat":43.31357,"lon":5.38501,"is_reserved":false,"is_disabled":false,"rental_uris":{"android":"levelo://app?vid=715af6eb-c6b5-4674-b0fa-cb5d16e24e61","ios":"levelo://app?vid=715af6eb-c6b5-4674-b0fa-cb5d16e24e61"},"vehicle_type_id":"4","last_reported":1746522681,"current_range_meters":8400,"station_id":"ce4bgt92rcd13ifvqcf0","pricing_plan_id":"cebpf4jnsgd1na2vs0mg"},{"bike_id":"709cbf51-0179-4197-b68c-2cda64deb0f3","system_id":"levelo_inurba_marseille","lat":43.30797,"lon":5.38156,"is_reserved":false,"is_disabled":true,"rental_uris":{"android":"levelo://app?vid=709cbf51-0179-4197-b68c-2cda64deb0f3","ios":"levelo://app?vid=709cbf51-0179-4197-b68c-2cda64deb0f3"},"vehicle_type_id":"4","last_reported":1746522681,"current_range_meters":8400,"station_id":"ce4bgt12rcd13ifvqce0","pricing_plan_id":"cebpf4jnsgd1na2vs0mg"},{"bike_id":"ddccd0de-53af-499f-b4a5-98ceb1da45c0","system_id":"levelo_inurba_marseille","lat":43.30787,"lon":5.37643,"is_reserved":false,"is_disabled":false,"rental_uris":{"android":"levelo://app?vid=ddccd0de-53af-499f-b4a5-98ceb1da45c0","ios":"levelo://app?vid=ddccd0de-53af-499f-b4a5-98ceb1da45c0"},"vehicle_type_id":"4","last_reported":1746522681,"current_range_meters":10000,"station_id":"ce4bgv92rcd13ifvqcq0","pricing_plan_id":"cebpf4jnsgd1na2vs0mg"},{"bike_id":"560684e1-26f3-400c-a285-9584ded00abd","system_id":"levelo_inurba_marseille","lat":43.2621,"lon":5.37429,"is_reserved":false,"is_disabled":false,"rental_uris":{"android":"levelo://app?vid=560684e1-26f3-400c-a285-9584ded00abd","ios":"levelo://app?vid=560684e1-26f3-400c-a285-9584ded00abd"},"vehicle_type_id":"4","last_reported":1746522681,"current_range_meters":8800,"station_id":"ce4bhgp2rcd13ifvqfc0","pricing_plan_id":"cebpf4jnsgd1na2vs0mg"},{"bike_id":"0ee0f0a1-97ab-4932-92bf-c4084d4a1af8","system_id":"levelo_inurba_marseille","lat":43.2717,"lon":5.40995,"is_reserved":false,"is_disabled":false,"rental_uris":{"android":"levelo://app?vid=0ee0f0a1-97ab-4932-92bf-c4084d4a1af8","ios":"levelo://app?vid=0ee0f0a1-97ab-4932-92bf-c4084d4a1af8"},"vehicle_type_id":"4","last_reported":1746522681,"current_range_meters":8800,"station_id":"ce4bhl12rcd13ifvqgf0","pricing_plan_id":"cebpf4jnsgd1na2vs0mg"},{"bike_id":"34c12cb9-545f-49a4-83a8-0927286bae87","system_id":"levelo_inurba_marseille","lat":43.30186,"lon":5.36628,"is_reserved":false,"is_disabled":false,"rental_uris":{"android":"levelo://app?vid=34c12cb9-545f-49a4-83a8-0927286bae87","ios":"levelo://app?vid=34c12cb9-545f-49a4-83a8-0927286bae87"},"vehicle_type_id":"4","last_reported":1746522681,"current_range_meters":9200,"station_id":"ce4bgrh2rcd13ifvqc8g","pricing_plan_id":"cebpf4jnsgd1na2vs0mg"},{"bike_id":"4cc7a60b-d657-4394-9928-5f73460b07f4","system_id":"levelo_inurba_marseille","lat":43.29707,"lon":5.37704,"is_reserved":false,"is_disabled":false,"rental_uris":{"android":"levelo://app?vid=4cc7a60b-d657-4394-9928-5f73460b07f4","ios":"levelo://app?vid=4cc7a60b-d657-4394-9928-5f73460b07f4"},"vehicle_type_id":"4","last_reported":1746522681,"current_range_meters":9200,"station_id":"ce4bgkh2rcd13ifvqbl0","pricing_plan_id":"cebpf4jnsgd1na2vs0mg"},{"bike_id":"176bbf35-105c-4fee-bb1b-ff165d9f12f8","system_id":"levelo_inurba_marseille","lat":43.28615,"lon":5.35103,"is_reserved":false,"is_disabled":false,"rental_uris":{"android":"levelo://app?vid=176bbf35-105c-4fee-bb1b-ff165d9f12f8","ios":"levelo://app?vid=176bbf35-105c-4fee-bb1b-ff165d9f12f8"},"vehicle_type_id":"4","last_reported":1746522681,"current_range_meters":9600,"station_id":"ce4bhch2rcd13ifvqeug","pricing_plan_id":"cebpf4jnsgd1na2vs0mg"},{"bike_id":"651d582a-62e2-4ae8-b400-a407e92b3bb9","system_id":"levelo_inurba_marseille","lat":43.30604,"lon":5.37227,"is_reserved":false,"is_disabled":false,"rental_uris":{"android":"levelo://app?vid=651d582a-62e2-4ae8-b400-a407e92b3bb9","ios":"levelo://app?vid=651d582a-62e2-4ae8-b400-a407e92b3bb9"},"vehicle_type_id":"4","last_reported":1746522681,"current_range_meters":9600,"station_id":"ce4bgqh2rcd13ifvqc4g","pricing_plan_id":"cebpf4jnsgd1na2vs0mg"},{"bike_id":"9d8f73eb-df09-4699-86a7-d631e2319093","system_id":"levelo_inurba_marseille","lat":43.26278,"lon":5.37472,"is_reserved":false,"is_disabled":false,"rental_uris":{"android":"levelo://app?vid=9d8f73eb-df09-4699-86a7-d631e2319093","ios":"levelo://app?vid=9d8f73eb-df09-4699-86a7-d631e2319093"},"vehicle_type_id":"4","last_reported":1746522681,"current_range_meters":9600,"station_id":"","pricing_plan_id":"cebpf4jnsgd1na2vs0mg"},{"bike_id":"503569af-07db-461f-918e-29f89d0c1c24","system_id":"levelo_inurba_marseille","lat":43.22501,"lon":5.34786,"is_reserved":false,"is_disabled":false,"rental_uris":{"android":"levelo://app?vid=503569af-07db-461f-918e-29f89d0c1c24","ios":"levelo://app?vid=503569af-07db-461f-918e-29f89d0c1c24"},"vehicle_type_id":"4","last_reported":1746522681,"current_range_meters":9600,"station_id":"st_cvj5dfep6f1abm77gieg","pricing_plan_id":"cebpf4jnsgd1na2vs0mg"},{"bike_id":"62bfa9fa-531f-4d2b-9e57-eb50b2d48c8c","system_id":"levelo_inurba_marseille","lat":43.24284,"lon":5.38001,"is_reserved":false,"is_disabled":false,"rental_uris":{"android":"levelo://app?vid=62bfa9fa-531f-4d2b-9e57-eb50b2d48c8c","ios":"levelo://app?vid=62bfa9fa-531f-4d2b-9e57-eb50b2d48c8c"},"vehicle_type_id":"4","last_reported":1746522681,"current_range_meters":9600,"station_id":"","pricing_plan_id":"cebpf4jnsgd1na2vs0mg"},{"bike_id":"6be8c636-8ae6-42e7-b5f6-ed06e68e38d2","system_id":"levelo_inurba_marseille","lat":43.29933,"lon":5.36548,"is_reserved":false,"is_disabled":false,"rental_uris":{"android":"levelo://app?vid=6be8c636-8ae6-42e7-b5f6-ed06e68e38d2","ios":"levelo://app?vid=6be8c636-8ae6-42e7-b5f6-ed06e68e38d2"},"vehicle_type_id":"4","last_reported":1746522681,"current_range_meters":9600,"station_id":"ce4bgm92rcd13ifvqbr0","pricing_plan_id":"cebpf4jnsgd1na2vs0mg"},{"bike_id":"700209b2-1509-4a9d-b686-43c5d83bff8f","system_id":"levelo_inurba_marseille","lat":43.32111,"lon":5.3678,"is_reserved":false,"is_disabled":false,"rental_uris":{"android":"levelo://app?vid=700209b2-1509-4a9d-b686-43c5d83bff8f","ios":"levelo://app?vid=700209b2-1509-4a9d-b686-43c5d83bff8f"},"vehicle_type_id":"4","last_reported":1746522681,"current_range_meters":9600,"station_id":"ce4bhrh2rcd13ifvqhug","pricing_plan_id":"cebpf4jnsgd1na2vs0mg"},{"bike_id":"eb8ac571-9423-4d74-9ea3-9cf1100e3875","system_id":"levelo_inurba_marseille","lat":43.29968,"lon":5.38497,"is_reserved":false,"is_disabled":false,"rental_uris":{"android":"levelo://app?vid=eb8ac571-9423-4d74-9ea3-9cf1100e3875","ios":"levelo://app?vid=eb8ac571-9423-4d74-9ea3-9cf1100e3875"},"vehicle_type_id":"4","last_reported":1746522681,"current_range_meters":10000,"station_id":"ce4bgj92rcd13ifvqbd0","pricing_plan_id":"cebpf4jnsgd1na2vs0mg"},{"bike_id":"fbda12d9-6999-44a5-a236-2a288c2ac07c","system_id":"levelo_inurba_marseille","lat":43.24086,"lon":5.37767,"is_reserved":false,"is_disabled":false,"rental_uris":{"android":"levelo://app?vid=fbda12d9-6999-44a5-a236-2a288c2ac07c","ios":"levelo://app?vid=fbda12d9-6999-44a5-a236-2a288c2ac07c"},"vehicle_type_id":"4","last_reported":1746522681,"current_range_meters":10000,"station_id":"ce4bhnp2rcd13ifvqgvg","pricing_plan_id":"cebpf4jnsgd1na2vs0mg"},{"bike_id":"0cc18a93-3cd5-4f19-aba6-0bfaa97ba972","system_id":"levelo_inurba_marseille","lat":43.29302,"lon":5.37154,"is_reserved":false,"is_disabled":false,"rental_uris":{"android":"levelo://app?vid=0cc18a93-3cd5-4f19-aba6-0bfaa97ba972","ios":"levelo://app?vid=0cc18a93-3cd5-4f19-aba6-0bfaa97ba972"},"vehicle_type_id":"4","last_reported":1746522681,"current_range_meters":10000,"station_id":"ce4bgh92rcd13ifvqb40","pricing_plan_id":"cebpf4jnsgd1na2vs0mg"},{"bike_id":"a0385a52-4890-4c74-aff0-d793274a6c3e","system_id":"levelo_inurba_marseille","lat":43.29885,"lon":5.39741,"is_reserved":false,"is_disabled":false,"rental_uris":{"android":"levelo://app?vid=a0385a52-4890-4c74-aff0-d793274a6c3e","ios":"levelo://app?vid=a0385a52-4890-4c74-aff0-d793274a6c3e"},"vehicle_type_id":"4","last_reported":1746522681,"current_range_meters":10000,"station_id":"ce4bh0h2rcd13ifvqd50","pricing_plan_id":"cebpf4jnsgd1na2vs0mg"},{"bike_id":"0cb139c7-ebfc-4316-b1f8-0830598824b5","system_id":"levelo_inurba_marseille","lat":43.29798,"lon":5.3937,"is_reserved":false,"is_disabled":true,"rental_uris":{"android":"levelo://app?vid=0cb139c7-ebfc-4316-b1f8-0830598824b5","ios":"levelo://app?vid=0cb139c7-ebfc-4316-b1f8-0830598824b5"},"vehicle_type_id":"4","last_reported":1746522681,"current_range_meters":10000,"station_id":"chh1huq6cuj3fo74tm60","pricing_plan_id":"cebpf4jnsgd1na2vs0mg"},{"bike_id":"076f2b90-e566-447f-88a2-b545f052dbc6","system_id":"levelo_inurba_marseille","lat":43.26212,"lon":5.37445,"is_reserved":false,"is_disabled":false,"rental_uris":{"android":"levelo://app?vid=076f2b90-e566-447f-88a2-b545f052dbc6","ios":"levelo://app?vid=076f2b90-e566-447f-88a2-b545f052dbc6"},"vehicle_type_id":"4","last_reported":1746522681,"current_range_meters":10000,"station_id":"ce4bhgp2rcd13ifvqfc0","pricing_plan_id":"cebpf4jnsgd1na2vs0mg"},{"bike_id":"0c377d9d-9a3a-47a7-9944-6039314b5e15","system_id":"levelo_inurba_marseille","lat":43.24597,"lon":5.40485,"is_reserved":false,"is_disabled":false,"rental_uris":{"android":"levelo://app?vid=0c377d9d-9a3a-47a7-9944-6039314b5e15","ios":"levelo://app?vid=0c377d9d-9a3a-47a7-9944-6039314b5e15"},"vehicle_type_id":"4","last_reported":1746522681,"current_range_meters":10000,"station_id":"","pricing_plan_id":"cebpf4jnsgd1na2vs0mg"},{"bike_id":"05a84f69-0592-442a-b098-6253d0b70e9e","system_id":"levelo_inurba_marseille","lat":43.29978,"lon":5.37223,"is_reserved":false,"is_disabled":false,"rental_uris":{"android":"levelo://app?vid=05a84f69-0592-442a-b098-6253d0b70e9e","ios":"levelo://app?vid=05a84f69-0592-442a-b098-6253d0b70e9e"},"vehicle_type_id":"4","last_reported":1746522681,"current_range_meters":10000,"station_id":"ce4bgr92rcd13ifvqc7g","pricing_plan_id":"cebpf4jnsgd1na2vs0mg"},{"bike_id":"8239823c-f77c-4bfc-abf5-f13f638de215","system_id":"levelo_inurba_marseille","lat":43.24068,"lon":5.37763,"is_reserved":false,"is_disabled":false,"rental_uris":{"android":"levelo://app?vid=8239823c-f77c-4bfc-abf5-f13f638de215","ios":"levelo://app?vid=8239823c-f77c-4bfc-abf5-f13f638de215"},"vehicle_type_id":"4","last_reported":1746522681,"current_range_meters":10800,"station_id":"ce4bhnp2rcd13ifvqgvg","pricing_plan_id":"cebpf4jnsgd1na2vs0mg"},{"bike_id":"a46b5721-597c-404e-8ddb-3ba6469f967d","system_id":"levelo_inurba_marseille","lat":43.23188,"lon":5.35553,"is_reserved":false,"is_disabled":false,"rental_uris":{"android":"levelo://app?vid=a46b5721-597c-404e-8ddb-3ba6469f967d","ios":"levelo://app?vid=a46b5721-597c-404e-8ddb-3ba6469f967d"},"vehicle_type_id":"4","last_reported":1746522681,"current_range_meters":10800,"station_id":"ce4bhu92rcd13ifvqi70","pricing_plan_id":"cebpf4jnsgd1na2vs0mg"},{"bike_id":"fa37bfe9-0fcc-4f35-84b9-67041a093339","system_id":"levelo_inurba_marseille","lat":43.2408,"lon":5.3775,"is_reserved":false,"is_disabled":false,"rental_uris":{"android":"levelo://app?vid=fa37bfe9-0fcc-4f35-84b9-67041a093339","ios":"levelo://app?vid=fa37bfe9-0fcc-4f35-84b9-67041a093339"},"vehicle_type_id":"4","last_reported":1746522681,"current_range_meters":10800,"station_id":"ce4bhnp2rcd13ifvqgvg","pricing_plan_id":"cebpf4jnsgd1na2vs0mg"},{"bike_id":"8d4be988-3950-4bb6-9b3b-d3a13607020e","system_id":"levelo_inurba_marseille","lat":43.27494,"lon":5.42472,"is_reserved":false,"is_disabled":false,"rental_uris":{"android":"levelo://app?vid=8d4be988-3950-4bb6-9b3b-d3a13607020e","ios":"levelo://app?vid=8d4be988-3950-4bb6-9b3b-d3a13607020e"},"vehicle_type_id":"4","last_reported":1746522681,"current_range_meters":10800,"station_id":"ce4bhn92rcd13ifvqgrg","pricing_plan_id":"cebpf4jnsgd1na2vs0mg"},{"bike_id":"c33ff96e-e96b-416a-b234-68e2a7c1617b","system_id":"levelo_inurba_marseille","lat":43.27495,"lon":5.4245,"is_reserved":false,"is_disabled":false,"rental_uris":{"android":"levelo://app?vid=c33ff96e-e96b-416a-b234-68e2a7c1617b","ios":"levelo://app?vid=c33ff96e-e96b-416a-b234-68e2a7c1617b"},"vehicle_type_id":"4","last_reported":1746522681,"current_range_meters":10000,"station_id":"ce4bhn92rcd13ifvqgrg","pricing_plan_id":"cebpf4jnsgd1na2vs0mg"},{"bike_id":"fff076a6-1aff-4955-a9e0-c7a7f711afb2","system_id":"levelo_inurba_marseille","lat":43.30139,"lon":5.37425,"is_reserved":false,"is_disabled":false,"rental_uris":{"android":"levelo://app?vid=fff076a6-1aff-4955-a9e0-c7a7f711afb2","ios":"levelo://app?vid=fff076a6-1aff-4955-a9e0-c7a7f711afb2"},"vehicle_type_id":"4","last_reported":1746522681,"current_range_meters":10800,"station_id":"ce4bgs92rcd13ifvqcc0","pricing_plan_id":"cebpf4jnsgd1na2vs0mg"},{"bike_id":"e0eebb06-5c98-44a4-9f84-563b62ed60fe","system_id":"levelo_inurba_marseille","lat":43.25935,"lon":5.40911,"is_reserved":false,"is_disabled":false,"rental_uris":{"android":"levelo://app?vid=e0eebb06-5c98-44a4-9f84-563b62ed60fe","ios":"levelo://app?vid=e0eebb06-5c98-44a4-9f84-563b62ed60fe"},"vehicle_type_id":"4","last_reported":1746522681,"current_range_meters":10800,"station_id":"ce4bhm92rcd13ifvqglg","pricing_plan_id":"cebpf4jnsgd1na2vs0mg"},{"bike_id":"db607aba-0db6-423b-a818-c23224727203","system_id":"levelo_inurba_marseille","lat":43.231543,"lon":5.436982,"is_reserved":false,"is_disabled":false,"rental_uris":{"android":"levelo://app?vid=db607aba-0db6-423b-a818-c23224727203","ios":"levelo://app?vid=db607aba-0db6-423b-a818-c23224727203"},"vehicle_type_id":"4","last_reported":1746522681,"current_range_meters":10800,"station_id":"ce4bhmp2rcd13ifvqgog","pricing_plan_id":"cebpf4jnsgd1na2vs0mg"},{"bike_id":"1ce0b62c-8cd0-4462-94af-dca41d3e843f","system_id":"levelo_inurba_marseille","lat":43.2903,"lon":5.37567,"is_reserved":false,"is_disabled":false,"rental_uris":{"android":"levelo://app?vid=1ce0b62c-8cd0-4462-94af-dca41d3e843f","ios":"levelo://app?vid=1ce0b62c-8cd0-4462-94af-dca41d3e843f"},"vehicle_type_id":"4","last_reported":1746522681,"current_range_meters":10800,"station_id":"ce4bh692rcd13ifvqe90","pricing_plan_id":"cebpf4jnsgd1na2vs0mg"},{"bike_id":"d5b09c65-4037-4867-b034-d23af67b5b2b","system_id":"levelo_inurba_marseille","lat":43.27497,"lon":5.42453,"is_reserved":false,"is_disabled":false,"rental_uris":{"android":"levelo://app?vid=d5b09c65-4037-4867-b034-d23af67b5b2b","ios":"levelo://app?vid=d5b09c65-4037-4867-b034-d23af67b5b2b"},"vehicle_type_id":"4","last_reported":1746522681,"current_range_meters":11200,"station_id":"ce4bhn92rcd13ifvqgrg","pricing_plan_id":"cebpf4jnsgd1na2vs0mg"},{"bike_id":"4b3ac558-d547-4e44-b22e-cfbf786ce6fb","system_id":"levelo_inurba_marseille","lat":43.29415,"lon":5.38618,"is_reserved":false,"is_disabled":false,"rental_uris":{"android":"levelo://app?vid=4b3ac558-d547-4e44-b22e-cfbf786ce6fb","ios":"levelo://app?vid=4b3ac558-d547-4e44-b22e-cfbf786ce6fb"},"vehicle_type_id":"4","last_reported":1746522681,"current_range_meters":11200,"station_id":"ce4bh2h2rcd13ifvqdh0","pricing_plan_id":"cebpf4jnsgd1na2vs0mg"},{"bike_id":"c9592205-9409-4f74-aed1-7c4141a58caa","system_id":"levelo_inurba_marseille","lat":43.27141,"lon":5.36353,"is_reserved":false,"is_disabled":false,"rental_uris":{"android":"levelo://app?vid=c9592205-9409-4f74-aed1-7c4141a58caa","ios":"levelo://app?vid=c9592205-9409-4f74-aed1-7c4141a58caa"},"vehicle_type_id":"4","last_reported":1746522681,"current_range_meters":11600,"station_id":"","pricing_plan_id":"cebpf4jnsgd1na2vs0mg"},{"bike_id":"84af3483-9cc0-4397-97d1-39c66e879ad4","system_id":"levelo_inurba_marseille","lat":43.30298,"lon":5.37703,"is_reserved":false,"is_disabled":false,"rental_uris":{"android":"levelo://app?vid=84af3483-9cc0-4397-97d1-39c66e879ad4","ios":"levelo://app?vid=84af3483-9cc0-4397-97d1-39c66e879ad4"},"vehicle_type_id":"4","last_reported":1746522681,"current_range_meters":11600,"station_id":"ce4bguh2rcd13ifvqcj0","pricing_plan_id":"cebpf4jnsgd1na2vs0mg"},{"bike_id":"0da9743d-1b2b-4b97-8a2c-f891bd8b9482","system_id":"levelo_inurba_marseille","lat":43.274927,"lon":5.42454,"is_reserved":false,"is_disabled":false,"rental_uris":{"android":"levelo://app?vid=0da9743d-1b2b-4b97-8a2c-f891bd8b9482","ios":"levelo://app?vid=0da9743d-1b2b-4b97-8a2c-f891bd8b9482"},"vehicle_type_id":"4","last_reported":1746522681,"current_range_meters":12000,"station_id":"ce4bhn92rcd13ifvqgrg","pricing_plan_id":"cebpf4jnsgd1na2vs0mg"},{"bike_id":"aef42c2f-9360-412c-b7d9-6c4210fddd22","system_id":"levelo_inurba_marseille","lat":43.25919,"lon":5.40926,"is_reserved":false,"is_disabled":false,"rental_uris":{"android":"levelo://app?vid=aef42c2f-9360-412c-b7d9-6c4210fddd22","ios":"levelo://app?vid=aef42c2f-9360-412c-b7d9-6c4210fddd22"},"vehicle_type_id":"4","last_reported":1746522681,"current_range_meters":12000,"station_id":"ce4bhm92rcd13ifvqglg","pricing_plan_id":"cebpf4jnsgd1na2vs0mg"},{"bike_id":"b1fded5c-76fc-4244-9155-b04dfaf9f9da","system_id":"levelo_inurba_marseille","lat":43.296274,"lon":5.371681,"is_reserved":false,"is_disabled":false,"rental_uris":{"android":"levelo://app?vid=b1fded5c-76fc-4244-9155-b04dfaf9f9da","ios":"levelo://app?vid=b1fded5c-76fc-4244-9155-b04dfaf9f9da"},"vehicle_type_id":"4","last_reported":1746522681,"current_range_meters":12400,"station_id":"ce4bgnh2rcd13ifvqc0g","pricing_plan_id":"cebpf4jnsgd1na2vs0mg"},{"bike_id":"8b64129a-6fcd-4434-a428-53631f8d1b11","system_id":"levelo_inurba_marseille","lat":43.28481,"lon":5.38564,"is_reserved":false,"is_disabled":false,"rental_uris":{"android":"levelo://app?vid=8b64129a-6fcd-4434-a428-53631f8d1b11","ios":"levelo://app?vid=8b64129a-6fcd-4434-a428-53631f8d1b11"},"vehicle_type_id":"4","last_reported":1746522681,"current_range_meters":12400,"station_id":"ce4bh8p2rcd13ifvqeb0","pricing_plan_id":"cebpf4jnsgd1na2vs0mg"},{"bike_id":"7ca09d8d-51db-4057-abe2-e9c1bdbcdfac","system_id":"levelo_inurba_marseille","lat":43.22938,"lon":5.35381,"is_reserved":false,"is_disabled":false,"rental_uris":{"android":"levelo://app?vid=7ca09d8d-51db-4057-abe2-e9c1bdbcdfac","ios":"levelo://app?vid=7ca09d8d-51db-4057-abe2-e9c1bdbcdfac"},"vehicle_type_id":"4","last_reported":1746522681,"current_range_meters":12400,"station_id":"cpo3532slgdg3j2ikp40","pricing_plan_id":"cebpf4jnsgd1na2vs0mg"},{"bike_id":"7d71db33-e69a-48e6-98ef-a9fbd9cbde82","system_id":"levelo_inurba_marseille","lat":43.23175,"lon":5.39984,"is_reserved":false,"is_disabled":false,"rental_uris":{"android":"levelo://app?vid=7d71db33-e69a-48e6-98ef-a9fbd9cbde82","ios":"levelo://app?vid=7d71db33-e69a-48e6-98ef-a9fbd9cbde82"},"vehicle_type_id":"4","last_reported":1746522681,"current_range_meters":12400,"station_id":"ce4bhn12rcd13ifvqgqg","pricing_plan_id":"cebpf4jnsgd1na2vs0mg"},{"bike_id":"3f84d55c-f7b3-443f-a8ba-1f83ba8291a2","system_id":"levelo_inurba_marseille","lat":43.21194,"lon":5.35067,"is_reserved":false,"is_disabled":false,"rental_uris":{"android":"levelo://app?vid=3f84d55c-f7b3-443f-a8ba-1f83ba8291a2","ios":"levelo://app?vid=3f84d55c-f7b3-443f-a8ba-1f83ba8291a2"},"vehicle_type_id":"4","last_reported":1746522681,"current_range_meters":12800,"station_id":"st_cvj6sg6p6f1abm77japg","pricing_plan_id":"cebpf4jnsgd1na2vs0mg"},{"bike_id":"44d1a496-4f16-46a6-b178-f49cec17003e","system_id":"levelo_inurba_marseille","lat":43.27194,"lon":5.40982,"is_reserved":false,"is_disabled":false,"rental_uris":{"android":"levelo://app?vid=44d1a496-4f16-46a6-b178-f49cec17003e","ios":"levelo://app?vid=44d1a496-4f16-46a6-b178-f49cec17003e"},"vehicle_type_id":"4","last_reported":1746522681,"current_range_meters":12800,"station_id":"ce4bhl12rcd13ifvqgf0","pricing_plan_id":"cebpf4jnsgd1na2vs0mg"},{"bike_id":"df26320a-415d-4c25-866e-36113a71f194","system_id":"levelo_inurba_marseille","lat":43.30146,"lon":5.38086,"is_reserved":false,"is_disabled":false,"rental_uris":{"android":"levelo://app?vid=df26320a-415d-4c25-866e-36113a71f194","ios":"levelo://app?vid=df26320a-415d-4c25-866e-36113a71f194"},"vehicle_type_id":"4","last_reported":1746522681,"current_range_meters":13600,"station_id":"ce4bgjp2rcd13ifvqbh0","pricing_plan_id":"cebpf4jnsgd1na2vs0mg"},{"bike_id":"2df614bf-145f-44cd-b174-f8bd8326963c","system_id":"levelo_inurba_marseille","lat":43.31526,"lon":5.38041,"is_reserved":false,"is_disabled":false,"rental_uris":{"android":"levelo://app?vid=2df614bf-145f-44cd-b174-f8bd8326963c","ios":"levelo://app?vid=2df614bf-145f-44cd-b174-f8bd8326963c"},"vehicle_type_id":"4","last_reported":1746522681,"current_range_meters":13600,"station_id":"ce4bhsp2rcd13ifvqi50","pricing_plan_id":"cebpf4jnsgd1na2vs0mg"},{"bike_id":"a1bb5b12-0748-49bc-b22e-ea6b1e97ef64","system_id":"levelo_inurba_marseille","lat":43.27486,"lon":5.42461,"is_reserved":false,"is_disabled":false,"rental_uris":{"android":"levelo://app?vid=a1bb5b12-0748-49bc-b22e-ea6b1e97ef64","ios":"levelo://app?vid=a1bb5b12-0748-49bc-b22e-ea6b1e97ef64"},"vehicle_type_id":"4","last_reported":1746522681,"current_range_meters":13600,"station_id":"ce4bhn92rcd13ifvqgrg","pricing_plan_id":"cebpf4jnsgd1na2vs0mg"},{"bike_id":"89d3f377-5a64-405e-ad75-45e8469ae3f6","system_id":"levelo_inurba_marseille","lat":43.269488,"lon":5.403058,"is_reserved":false,"is_disabled":true,"rental_uris":{"android":"levelo://app?vid=89d3f377-5a64-405e-ad75-45e8469ae3f6","ios":"levelo://app?vid=89d3f377-5a64-405e-ad75-45e8469ae3f6"},"vehicle_type_id":"4","last_reported":1746522681,"current_range_meters":13600,"station_id":"cjm6bp8fraef2m0cb0m0","pricing_plan_id":"cebpf4jnsgd1na2vs0mg"},{"bike_id":"13ebfc6a-b3e8-4bd2-9055-317da3a3d7f6","system_id":"levelo_inurba_marseille","lat":43.24078,"lon":5.37741,"is_reserved":false,"is_disabled":false,"rental_uris":{"android":"levelo://app?vid=13ebfc6a-b3e8-4bd2-9055-317da3a3d7f6","ios":"levelo://app?vid=13ebfc6a-b3e8-4bd2-9055-317da3a3d7f6"},"vehicle_type_id":"4","last_reported":1746522681,"current_range_meters":13600,"station_id":"ce4bhnp2rcd13ifvqgvg","pricing_plan_id":"cebpf4jnsgd1na2vs0mg"},{"bike_id":"3dded959-6d15-4d4d-bba1-b9d88e328527","system_id":"levelo_inurba_marseille","lat":43.240769,"lon":5.377592,"is_reserved":false,"is_disabled":false,"rental_uris":{"android":"levelo://app?vid=3dded959-6d15-4d4d-bba1-b9d88e328527","ios":"levelo://app?vid=3dded959-6d15-4d4d-bba1-b9d88e328527"},"vehicle_type_id":"4","last_reported":1746522681,"current_range_meters":13600,"station_id":"ce4bhnp2rcd13ifvqgvg","pricing_plan_id":"cebpf4jnsgd1na2vs0mg"},{"bike_id":"d7b1e4d8-f726-4ea7-bc51-7e6d351a33c5","system_id":"levelo_inurba_marseille","lat":43.24058,"lon":5.37767,"is_reserved":false,"is_disabled":false,"rental_uris":{"android":"levelo://app?vid=d7b1e4d8-f726-4ea7-bc51-7e6d351a33c5","ios":"levelo://app?vid=d7b1e4d8-f726-4ea7-bc51-7e6d351a33c5"},"vehicle_type_id":"4","last_reported":1746522681,"current_range_meters":13600,"station_id":"ce4bhnp2rcd13ifvqgvg","pricing_plan_id":"cebpf4jnsgd1na2vs0mg"},{"bike_id":"73297002-6407-425f-adb6-638ff58e7409","system_id":"levelo_inurba_marseille","lat":43.31331,"lon":5.36733,"is_reserved":false,"is_disabled":false,"rental_uris":{"android":"levelo://app?vid=73297002-6407-425f-adb6-638ff58e7409","ios":"levelo://app?vid=73297002-6407-425f-adb6-638ff58e7409"},"vehicle_type_id":"4","last_reported":1746522681,"current_range_meters":14400,"station_id":"ce4bgr92rcd13ifvqc6g","pricing_plan_id":"cebpf4jnsgd1na2vs0mg"},{"bike_id":"1811918c-e11b-4f6b-b06a-1fc1231438e4","system_id":"levelo_inurba_marseille","lat":43.30458,"lon":5.37903,"is_reserved":false,"is_disabled":false,"rental_uris":{"android":"levelo://app?vid=1811918c-e11b-4f6b-b06a-1fc1231438e4","ios":"levelo://app?vid=1811918c-e11b-4f6b-b06a-1fc1231438e4"},"vehicle_type_id":"4","last_reported":1746522681,"current_range_meters":14400,"station_id":"ce4bgup2rcd13ifvqcn0","pricing_plan_id":"cebpf4jnsgd1na2vs0mg"},{"bike_id":"1bac0227-7b42-453e-ae56-00b84803df36","system_id":"levelo_inurba_marseille","lat":43.27201,"lon":5.39187,"is_reserved":false,"is_disabled":false,"rental_uris":{"android":"levelo://app?vid=1bac0227-7b42-453e-ae56-00b84803df36","ios":"levelo://app?vid=1bac0227-7b42-453e-ae56-00b84803df36"},"vehicle_type_id":"4","last_reported":1746522681,"current_range_meters":14400,"station_id":"ce4bhhp2rcd13ifvqfm0","pricing_plan_id":"cebpf4jnsgd1na2vs0mg"},{"bike_id":"36a2ead1-5bfb-4e86-9ae9-3863daf88a66","system_id":"levelo_inurba_marseille","lat":43.29529,"lon":5.38538,"is_reserved":false,"is_disabled":false,"rental_uris":{"android":"levelo://app?vid=36a2ead1-5bfb-4e86-9ae9-3863daf88a66","ios":"levelo://app?vid=36a2ead1-5bfb-4e86-9ae9-3863daf88a66"},"vehicle_type_id":"4","last_reported":1746522681,"current_range_meters":14000,"station_id":"ce4bgih2rcd13ifvqba0","pricing_plan_id":"cebpf4jnsgd1na2vs0mg"},{"bike_id":"0853ec4a-fb6b-4aad-8e97-28fd53a400fc","system_id":"levelo_inurba_marseille","lat":43.31712,"lon":5.44169,"is_reserved":false,"is_disabled":true,"rental_uris":{"android":"levelo://app?vid=0853ec4a-fb6b-4aad-8e97-28fd53a400fc","ios":"levelo://app?vid=0853ec4a-fb6b-4aad-8e97-28fd53a400fc"},"vehicle_type_id":"4","last_reported":1746522681,"current_range_meters":14800,"station_id":"","pricing_plan_id":"cebpf4jnsgd1na2vs0mg"},{"bike_id":"cd8a6290-3606-4f09-833e-5828a45a66f9","system_id":"levelo_inurba_marseille","lat":43.24168,"lon":5.364,"is_reserved":false,"is_disabled":false,"rental_uris":{"android":"levelo://app?vid=cd8a6290-3606-4f09-833e-5828a45a66f9","ios":"levelo://app?vid=cd8a6290-3606-4f09-833e-5828a45a66f9"},"vehicle_type_id":"4","last_reported":1746522681,"current_range_meters":14800,"station_id":"cpo36qri1sfpv3e86is0","pricing_plan_id":"cebpf4jnsgd1na2vs0mg"},{"bike_id":"1750333b-7155-456e-b5bb-9f251c831525","system_id":"levelo_inurba_marseille","lat":43.28923,"lon":5.38396,"is_reserved":false,"is_disabled":false,"rental_uris":{"android":"levelo://app?vid=1750333b-7155-456e-b5bb-9f251c831525","ios":"levelo://app?vid=1750333b-7155-456e-b5bb-9f251c831525"},"vehicle_type_id":"4","last_reported":1746522681,"current_range_meters":15200,"station_id":"ce4bh612rcd13ifvqe6g","pricing_plan_id":"cebpf4jnsgd1na2vs0mg"},{"bike_id":"e0cc308b-151f-429e-9631-5c893fe0b83c","system_id":"levelo_inurba_marseille","lat":43.27368,"lon":5.36254,"is_reserved":false,"is_disabled":false,"rental_uris":{"android":"levelo://app?vid=e0cc308b-151f-429e-9631-5c893fe0b83c","ios":"levelo://app?vid=e0cc308b-151f-429e-9631-5c893fe0b83c"},"vehicle_type_id":"4","last_reported":1746522681,"current_range_meters":15200,"station_id":"ce4bhbh2rcd13ifvqeo0","pricing_plan_id":"cebpf4jnsgd1na2vs0mg"},{"bike_id":"4e1991b9-a476-42b7-b4b0-5cbac0851787","system_id":"levelo_inurba_marseille","lat":43.30537,"lon":5.36695,"is_reserved":false,"is_disabled":false,"rental_uris":{"android":"levelo://app?vid=4e1991b9-a476-42b7-b4b0-5cbac0851787","ios":"levelo://app?vid=4e1991b9-a476-42b7-b4b0-5cbac0851787"},"vehicle_type_id":"4","last_reported":1746522681,"current_range_meters":16000,"station_id":"ce4bgrp2rcd13ifvqc9g","pricing_plan_id":"cebpf4jnsgd1na2vs0mg"},{"bike_id":"82d187e6-58a1-4f0d-b286-805466f4316c","system_id":"levelo_inurba_marseille","lat":43.25853,"lon":5.39442,"is_reserved":false,"is_disabled":true,"rental_uris":{"android":"levelo://app?vid=82d187e6-58a1-4f0d-b286-805466f4316c","ios":"levelo://app?vid=82d187e6-58a1-4f0d-b286-805466f4316c"},"vehicle_type_id":"4","last_reported":1746522681,"current_range_meters":16000,"station_id":"ce4bhip2rcd13ifvqft0","pricing_plan_id":"cebpf4jnsgd1na2vs0mg"},{"bike_id":"e0a0fb85-9539-4fb6-b21f-392540fb8a26","system_id":"levelo_inurba_marseille","lat":43.32358,"lon":5.3674,"is_reserved":false,"is_disabled":false,"rental_uris":{"android":"levelo://app?vid=e0a0fb85-9539-4fb6-b21f-392540fb8a26","ios":"levelo://app?vid=e0a0fb85-9539-4fb6-b21f-392540fb8a26"},"vehicle_type_id":"4","last_reported":1746522681,"current_range_meters":16000,"station_id":"ce4bhsh2rcd13ifvqi2g","pricing_plan_id":"cebpf4jnsgd1na2vs0mg"},{"bike_id":"741922f7-49ff-4751-a228-5a73f2c8c24d","system_id":"levelo_inurba_marseille","lat":43.241707,"lon":5.364006,"is_reserved":false,"is_disabled":false,"rental_uris":{"android":"levelo://app?vid=741922f7-49ff-4751-a228-5a73f2c8c24d","ios":"levelo://app?vid=741922f7-49ff-4751-a228-5a73f2c8c24d"},"vehicle_type_id":"4","last_reported":1746522681,"current_range_meters":16000,"station_id":"cpo36qri1sfpv3e86is0","pricing_plan_id":"cebpf4jnsgd1na2vs0mg"},{"bike_id":"fb665c1e-552c-442c-908a-72e3c19aab66","system_id":"levelo_inurba_marseille","lat":43.3302,"lon":5.39037,"is_reserved":false,"is_disabled":false,"rental_uris":{"android":"levelo://app?vid=fb665c1e-552c-442c-908a-72e3c19aab66","ios":"levelo://app?vid=fb665c1e-552c-442c-908a-72e3c19aab66"},"vehicle_type_id":"4","last_reported":1746522681,"current_range_meters":16000,"station_id":"ce4bhr92rcd13ifvqhrg","pricing_plan_id":"cebpf4jnsgd1na2vs0mg"},{"bike_id":"6ce81efa-e8f3-477a-b7a1-a1c58c727c56","system_id":"levelo_inurba_marseille","lat":43.21192,"lon":5.35078,"is_reserved":false,"is_disabled":false,"rental_uris":{"android":"levelo://app?vid=6ce81efa-e8f3-477a-b7a1-a1c58c727c56","ios":"levelo://app?vid=6ce81efa-e8f3-477a-b7a1-a1c58c727c56"},"vehicle_type_id":"4","last_reported":1746522681,"current_range_meters":16000,"station_id":"st_cvj6sg6p6f1abm77japg","pricing_plan_id":"cebpf4jnsgd1na2vs0mg"},{"bike_id":"ea92223c-6e05-4b9e-afc7-e1088ad02d90","system_id":"levelo_inurba_marseille","lat":43.29794,"lon":5.38101,"is_reserved":false,"is_disabled":false,"rental_uris":{"android":"levelo://app?vid=ea92223c-6e05-4b9e-afc7-e1088ad02d90","ios":"levelo://app?vid=ea92223c-6e05-4b9e-afc7-e1088ad02d90"},"vehicle_type_id":"4","last_reported":1746522681,"current_range_meters":15200,"station_id":"ce4bgip2rcd13ifvqbb0","pricing_plan_id":"cebpf4jnsgd1na2vs0mg"},{"bike_id":"03bb5049-51e5-461e-8353-3cc13edfbfb8","system_id":"levelo_inurba_marseille","lat":43.239609,"lon":5.366223,"is_reserved":false,"is_disabled":false,"rental_uris":{"android":"levelo://app?vid=03bb5049-51e5-461e-8353-3cc13edfbfb8","ios":"levelo://app?vid=03bb5049-51e5-461e-8353-3cc13edfbfb8"},"vehicle_type_id":"4","last_reported":1746522681,"current_range_meters":16400,"station_id":"ce4bhi12rcd13ifvqfp0","pricing_plan_id":"cebpf4jnsgd1na2vs0mg"},{"bike_id":"27563f88-1268-4b98-bc06-44e98c7ca400","system_id":"levelo_inurba_marseille","lat":43.320818,"lon":5.441007,"is_reserved":false,"is_disabled":false,"rental_uris":{"android":"levelo://app?vid=27563f88-1268-4b98-bc06-44e98c7ca400","ios":"levelo://app?vid=27563f88-1268-4b98-bc06-44e98c7ca400"},"vehicle_type_id":"4","last_reported":1746522681,"current_range_meters":16400,"station_id":"","pricing_plan_id":"cebpf4jnsgd1na2vs0mg"},{"bike_id":"1af60476-b058-4bb3-b233-ac1e3cfd38da","system_id":"levelo_inurba_marseille","lat":43.27509,"lon":5.42451,"is_reserved":false,"is_disabled":false,"rental_uris":{"android":"levelo://app?vid=1af60476-b058-4bb3-b233-ac1e3cfd38da","ios":"levelo://app?vid=1af60476-b058-4bb3-b233-ac1e3cfd38da"},"vehicle_type_id":"4","last_reported":1746522681,"current_range_meters":16400,"station_id":"ce4bhn92rcd13ifvqgrg","pricing_plan_id":"cebpf4jnsgd1na2vs0mg"},{"bike_id":"46a428a1-3a45-4310-8fc1-8ac5239110b0","system_id":"levelo_inurba_marseille","lat":43.25823,"lon":5.39429,"is_reserved":false,"is_disabled":false,"rental_uris":{"android":"levelo://app?vid=46a428a1-3a45-4310-8fc1-8ac5239110b0","ios":"levelo://app?vid=46a428a1-3a45-4310-8fc1-8ac5239110b0"},"vehicle_type_id":"4","last_reported":1746522681,"current_range_meters":16400,"station_id":"ce4bhip2rcd13ifvqft0","pricing_plan_id":"cebpf4jnsgd1na2vs0mg"},{"bike_id":"2595947c-fcb6-46c7-9dab-026cb2f804dc","system_id":"levelo_inurba_marseille","lat":43.241752,"lon":5.397257,"is_reserved":false,"is_disabled":true,"rental_uris":{"android":"levelo://app?vid=2595947c-fcb6-46c7-9dab-026cb2f804dc","ios":"levelo://app?vid=2595947c-fcb6-46c7-9dab-026cb2f804dc"},"vehicle_type_id":"4","last_reported":1746522681,"current_range_meters":16400,"station_id":"ce4bhn12rcd13ifvqgpg","pricing_plan_id":"cebpf4jnsgd1na2vs0mg"},{"bike_id":"1900e395-19ba-404e-aa6a-262b7656599d","system_id":"levelo_inurba_marseille","lat":43.2888,"lon":5.43707,"is_reserved":false,"is_disabled":false,"rental_uris":{"android":"levelo://app?vid=1900e395-19ba-404e-aa6a-262b7656599d","ios":"levelo://app?vid=1900e395-19ba-404e-aa6a-262b7656599d"},"vehicle_type_id":"4","last_reported":1746522681,"current_range_meters":16400,"station_id":"","pricing_plan_id":"cebpf4jnsgd1na2vs0mg"},{"bike_id":"b4bac287-3615-423a-bca2-a11fb80cb066","system_id":"levelo_inurba_marseille","lat":43.23057,"lon":5.35479,"is_reserved":false,"is_disabled":false,"rental_uris":{"android":"levelo://app?vid=b4bac287-3615-423a-bca2-a11fb80cb066","ios":"levelo://app?vid=b4bac287-3615-423a-bca2-a11fb80cb066"},"vehicle_type_id":"4","last_reported":1746522681,"current_range_meters":16800,"station_id":"cpo3342slgdg3j2ifvpg","pricing_plan_id":"cebpf4jnsgd1na2vs0mg"},{"bike_id":"13d72c90-097d-44e3-a161-c92142027aeb","system_id":"levelo_inurba_marseille","lat":43.3208,"lon":5.36762,"is_reserved":false,"is_disabled":false,"rental_uris":{"android":"levelo://app?vid=13d72c90-097d-44e3-a161-c92142027aeb","ios":"levelo://app?vid=13d72c90-097d-44e3-a161-c92142027aeb"},"vehicle_type_id":"4","last_reported":1746522681,"current_range_meters":16800,"station_id":"ce4bhrh2rcd13ifvqhug","pricing_plan_id":"cebpf4jnsgd1na2vs0mg"},{"bike_id":"a52b904b-7956-47d2-b1f6-2db5a696cf63","system_id":"levelo_inurba_marseille","lat":43.3302,"lon":5.3904,"is_reserved":false,"is_disabled":false,"rental_uris":{"android":"levelo://app?vid=a52b904b-7956-47d2-b1f6-2db5a696cf63","ios":"levelo://app?vid=a52b904b-7956-47d2-b1f6-2db5a696cf63"},"vehicle_type_id":"4","last_reported":1746522681,"current_range_meters":17200,"station_id":"ce4bhr92rcd13ifvqhrg","pricing_plan_id":"cebpf4jnsgd1na2vs0mg"},{"bike_id":"f9a99f3c-6dbc-495a-ad8e-b50552bd1ab3","system_id":"levelo_inurba_marseille","lat":43.32365,"lon":5.38882,"is_reserved":false,"is_disabled":false,"rental_uris":{"android":"levelo://app?vid=f9a99f3c-6dbc-495a-ad8e-b50552bd1ab3","ios":"levelo://app?vid=f9a99f3c-6dbc-495a-ad8e-b50552bd1ab3"},"vehicle_type_id":"4","last_reported":1746522681,"current_range_meters":17200,"station_id":"ce4bhqp2rcd13ifvqhog","pricing_plan_id":"cebpf4jnsgd1na2vs0mg"},{"bike_id":"ad5f8d36-d7d9-41ae-9bd2-f1f8920bde90","system_id":"levelo_inurba_marseille","lat":43.262381,"lon":5.387609,"is_reserved":false,"is_disabled":false,"rental_uris":{"android":"levelo://app?vid=ad5f8d36-d7d9-41ae-9bd2-f1f8920bde90","ios":"levelo://app?vid=ad5f8d36-d7d9-41ae-9bd2-f1f8920bde90"},"vehicle_type_id":"4","last_reported":1746522681,"current_range_meters":17200,"station_id":"","pricing_plan_id":"cebpf4jnsgd1na2vs0mg"},{"bike_id":"c871eee8-0da6-4377-a846-0bf7400cb3c3","system_id":"levelo_inurba_marseille","lat":43.27828,"lon":5.4072,"is_reserved":false,"is_disabled":true,"rental_uris":{"android":"levelo://app?vid=c871eee8-0da6-4377-a846-0bf7400cb3c3","ios":"levelo://app?vid=c871eee8-0da6-4377-a846-0bf7400cb3c3"},"vehicle_type_id":"4","last_reported":1746522681,"current_range_meters":17200,"station_id":"ce4bhnh2rcd13ifvqgtg","pricing_plan_id":"cebpf4jnsgd1na2vs0mg"},{"bike_id":"43e47292-6bf0-4e1e-a93d-8dc54a58c3c0","system_id":"levelo_inurba_marseille","lat":43.27487,"lon":5.42457,"is_reserved":false,"is_disabled":false,"rental_uris":{"android":"levelo://app?vid=43e47292-6bf0-4e1e-a93d-8dc54a58c3c0","ios":"levelo://app?vid=43e47292-6bf0-4e1e-a93d-8dc54a58c3c0"},"vehicle_type_id":"4","last_reported":1746522681,"current_range_meters":17200,"station_id":"ce4bhn92rcd13ifvqgrg","pricing_plan_id":"cebpf4jnsgd1na2vs0mg"},{"bike_id":"72087905-a88e-42e2-91dc-2f337f048b73","system_id":"levelo_inurba_marseille","lat":43.319954,"lon":5.381644,"is_reserved":false,"is_disabled":false,"rental_uris":{"android":"levelo://app?vid=72087905-a88e-42e2-91dc-2f337f048b73","ios":"levelo://app?vid=72087905-a88e-42e2-91dc-2f337f048b73"},"vehicle_type_id":"4","last_reported":1746522681,"current_range_meters":17200,"station_id":"ce4bhr12rcd13ifvqhpg","pricing_plan_id":"cebpf4jnsgd1na2vs0mg"},{"bike_id":"e778438a-e223-4701-8440-dcf3ca3c77e6","system_id":"levelo_inurba_marseille","lat":43.24178,"lon":5.39725,"is_reserved":false,"is_disabled":false,"rental_uris":{"android":"levelo://app?vid=e778438a-e223-4701-8440-dcf3ca3c77e6","ios":"levelo://app?vid=e778438a-e223-4701-8440-dcf3ca3c77e6"},"vehicle_type_id":"4","last_reported":1746522681,"current_range_meters":17200,"station_id":"ce4bhn12rcd13ifvqgpg","pricing_plan_id":"cebpf4jnsgd1na2vs0mg"},{"bike_id":"3ed0094c-1338-4e03-b050-b7864b9f7da4","system_id":"levelo_inurba_marseille","lat":43.31379,"lon":5.3667,"is_reserved":false,"is_disabled":false,"rental_uris":{"android":"levelo://app?vid=3ed0094c-1338-4e03-b050-b7864b9f7da4","ios":"levelo://app?vid=3ed0094c-1338-4e03-b050-b7864b9f7da4"},"vehicle_type_id":"4","last_reported":1746522681,"current_range_meters":17600,"station_id":"","pricing_plan_id":"cebpf4jnsgd1na2vs0mg"},{"bike_id":"c4b52a36-eac1-40ea-93fa-d8aeac232e13","system_id":"levelo_inurba_marseille","lat":43.25425,"lon":5.38255,"is_reserved":false,"is_disabled":false,"rental_uris":{"android":"levelo://app?vid=c4b52a36-eac1-40ea-93fa-d8aeac232e13","ios":"levelo://app?vid=c4b52a36-eac1-40ea-93fa-d8aeac232e13"},"vehicle_type_id":"4","last_reported":1746522681,"current_range_meters":17600,"station_id":"","pricing_plan_id":"cebpf4jnsgd1na2vs0mg"},{"bike_id":"d0e17230-ce14-4bbf-8173-34c1444b9704","system_id":"levelo_inurba_marseille","lat":43.301302,"lon":5.398752,"is_reserved":false,"is_disabled":true,"rental_uris":{"android":"levelo://app?vid=d0e17230-ce14-4bbf-8173-34c1444b9704","ios":"levelo://app?vid=d0e17230-ce14-4bbf-8173-34c1444b9704"},"vehicle_type_id":"4","last_reported":1746522681,"current_range_meters":17600,"station_id":"ce4bh0h2rcd13ifvqd40","pricing_plan_id":"cebpf4jnsgd1na2vs0mg"},{"bike_id":"d189091d-0e23-4e3a-8713-18b0c6fe0d23","system_id":"levelo_inurba_marseille","lat":43.30943,"lon":5.39025,"is_reserved":false,"is_disabled":false,"rental_uris":{"android":"levelo://app?vid=d189091d-0e23-4e3a-8713-18b0c6fe0d23","ios":"levelo://app?vid=d189091d-0e23-4e3a-8713-18b0c6fe0d23"},"vehicle_type_id":"4","last_reported":1746522681,"current_range_meters":17200,"station_id":"ce4bgup2rcd13ifvqco0","pricing_plan_id":"cebpf4jnsgd1na2vs0mg"},{"bike_id":"2714f713-c769-4f6a-ac44-441a635e9cba","system_id":"levelo_inurba_marseille","lat":43.21607,"lon":5.34232,"is_reserved":false,"is_disabled":false,"rental_uris":{"android":"levelo://app?vid=2714f713-c769-4f6a-ac44-441a635e9cba","ios":"levelo://app?vid=2714f713-c769-4f6a-ac44-441a635e9cba"},"vehicle_type_id":"4","last_reported":1746522681,"current_range_meters":17600,"station_id":"","pricing_plan_id":"cebpf4jnsgd1na2vs0mg"},{"bike_id":"b374a8e7-d108-4891-adbf-572075f3b046","system_id":"levelo_inurba_marseille","lat":43.308901,"lon":5.372014,"is_reserved":false,"is_disabled":false,"rental_uris":{"android":"levelo://app?vid=b374a8e7-d108-4891-adbf-572075f3b046","ios":"levelo://app?vid=b374a8e7-d108-4891-adbf-572075f3b046"},"vehicle_type_id":"4","last_reported":1746522681,"current_range_meters":17600,"station_id":"ce4bguh2rcd13ifvqckg","pricing_plan_id":"cebpf4jnsgd1na2vs0mg"},{"bike_id":"a4931702-b82a-44b0-85ea-d654001b5a93","system_id":"levelo_inurba_marseille","lat":43.278345,"lon":5.392055,"is_reserved":false,"is_disabled":false,"rental_uris":{"android":"levelo://app?vid=a4931702-b82a-44b0-85ea-d654001b5a93","ios":"levelo://app?vid=a4931702-b82a-44b0-85ea-d654001b5a93"},"vehicle_type_id":"4","last_reported":1746522681,"current_range_meters":18000,"station_id":"ce4bhjp2rcd13ifvqga0","pricing_plan_id":"cebpf4jnsgd1na2vs0mg"},{"bike_id":"37cb95bf-ed56-4ab4-a156-dbc654da35df","system_id":"levelo_inurba_marseille","lat":43.25909,"lon":5.40906,"is_reserved":false,"is_disabled":true,"rental_uris":{"android":"levelo://app?vid=37cb95bf-ed56-4ab4-a156-dbc654da35df","ios":"levelo://app?vid=37cb95bf-ed56-4ab4-a156-dbc654da35df"},"vehicle_type_id":"4","last_reported":1746522681,"current_range_meters":18000,"station_id":"ce4bhm92rcd13ifvqglg","pricing_plan_id":"cebpf4jnsgd1na2vs0mg"},{"bike_id":"4fd6bfff-2fba-4479-9355-04d32eaca128","system_id":"levelo_inurba_marseille","lat":43.23191,"lon":5.3556,"is_reserved":false,"is_disabled":false,"rental_uris":{"android":"levelo://app?vid=4fd6bfff-2fba-4479-9355-04d32eaca128","ios":"levelo://app?vid=4fd6bfff-2fba-4479-9355-04d32eaca128"},"vehicle_type_id":"4","last_reported":1746522681,"current_range_meters":18000,"station_id":"ce4bhu92rcd13ifvqi70","pricing_plan_id":"cebpf4jnsgd1na2vs0mg"},{"bike_id":"5638fae2-2e1b-469b-8abd-91d7d799618a","system_id":"levelo_inurba_marseille","lat":43.32099,"lon":5.36776,"is_reserved":false,"is_disabled":false,"rental_uris":{"android":"levelo://app?vid=5638fae2-2e1b-469b-8abd-91d7d799618a","ios":"levelo://app?vid=5638fae2-2e1b-469b-8abd-91d7d799618a"},"vehicle_type_id":"4","last_reported":1746522681,"current_range_meters":18000,"station_id":"ce4bhrh2rcd13ifvqhug","pricing_plan_id":"cebpf4jnsgd1na2vs0mg"},{"bike_id":"da217952-46dc-4214-ba98-7dcd447e5426","system_id":"levelo_inurba_marseille","lat":43.29788,"lon":5.38094,"is_reserved":false,"is_disabled":false,"rental_uris":{"android":"levelo://app?vid=da217952-46dc-4214-ba98-7dcd447e5426","ios":"levelo://app?vid=da217952-46dc-4214-ba98-7dcd447e5426"},"vehicle_type_id":"4","last_reported":1746522681,"current_range_meters":18000,"station_id":"ce4bgip2rcd13ifvqbb0","pricing_plan_id":"cebpf4jnsgd1na2vs0mg"},{"bike_id":"ed29a6c6-dd47-48e5-a340-454d7add3309","system_id":"levelo_inurba_marseille","lat":43.31362,"lon":5.36723,"is_reserved":false,"is_disabled":false,"rental_uris":{"android":"levelo://app?vid=ed29a6c6-dd47-48e5-a340-454d7add3309","ios":"levelo://app?vid=ed29a6c6-dd47-48e5-a340-454d7add3309"},"vehicle_type_id":"4","last_reported":1746522681,"current_range_meters":18000,"station_id":"ce4bgr92rcd13ifvqc6g","pricing_plan_id":"cebpf4jnsgd1na2vs0mg"},{"bike_id":"b8784e08-6803-428b-be3c-d1b42cab5542","system_id":"levelo_inurba_marseille","lat":43.31353,"lon":5.36782,"is_reserved":false,"is_disabled":false,"rental_uris":{"android":"levelo://app?vid=b8784e08-6803-428b-be3c-d1b42cab5542","ios":"levelo://app?vid=b8784e08-6803-428b-be3c-d1b42cab5542"},"vehicle_type_id":"4","last_reported":1746522681,"current_range_meters":18000,"station_id":"","pricing_plan_id":"cebpf4jnsgd1na2vs0mg"},{"bike_id":"f7733ce9-a803-4724-939a-476c986ad258","system_id":"levelo_inurba_marseille","lat":43.24081,"lon":5.3775,"is_reserved":false,"is_disabled":false,"rental_uris":{"android":"levelo://app?vid=f7733ce9-a803-4724-939a-476c986ad258","ios":"levelo://app?vid=f7733ce9-a803-4724-939a-476c986ad258"},"vehicle_type_id":"4","last_reported":1746522681,"current_range_meters":18000,"station_id":"ce4bhnp2rcd13ifvqgvg","pricing_plan_id":"cebpf4jnsgd1na2vs0mg"},{"bike_id":"2ecbd89d-7224-4d74-815e-f74b44d955d9","system_id":"levelo_inurba_marseille","lat":43.24069,"lon":5.37753,"is_reserved":false,"is_disabled":false,"rental_uris":{"android":"levelo://app?vid=2ecbd89d-7224-4d74-815e-f74b44d955d9","ios":"levelo://app?vid=2ecbd89d-7224-4d74-815e-f74b44d955d9"},"vehicle_type_id":"4","last_reported":1746522681,"current_range_meters":18800,"station_id":"ce4bhnp2rcd13ifvqgvg","pricing_plan_id":"cebpf4jnsgd1na2vs0mg"},{"bike_id":"de32125e-82b4-49a7-b23a-9f246953f10e","system_id":"levelo_inurba_marseille","lat":43.309126,"lon":5.368465,"is_reserved":false,"is_disabled":false,"rental_uris":{"android":"levelo://app?vid=de32125e-82b4-49a7-b23a-9f246953f10e","ios":"levelo://app?vid=de32125e-82b4-49a7-b23a-9f246953f10e"},"vehicle_type_id":"4","last_reported":1746522681,"current_range_meters":18800,"station_id":"ce4bgn92rcd13ifvqbvg","pricing_plan_id":"cebpf4jnsgd1na2vs0mg"},{"bike_id":"126990e8-66ba-4d25-8392-b9bd84b2a9c6","system_id":"levelo_inurba_marseille","lat":43.30145,"lon":5.38084,"is_reserved":false,"is_disabled":false,"rental_uris":{"android":"levelo://app?vid=126990e8-66ba-4d25-8392-b9bd84b2a9c6","ios":"levelo://app?vid=126990e8-66ba-4d25-8392-b9bd84b2a9c6"},"vehicle_type_id":"4","last_reported":1746522681,"current_range_meters":18800,"station_id":"ce4bgjp2rcd13ifvqbh0","pricing_plan_id":"cebpf4jnsgd1na2vs0mg"},{"bike_id":"9abf2d7c-556b-4302-8913-d42c438a4606","system_id":"levelo_inurba_marseille","lat":43.2749,"lon":5.4246,"is_reserved":false,"is_disabled":false,"rental_uris":{"android":"levelo://app?vid=9abf2d7c-556b-4302-8913-d42c438a4606","ios":"levelo://app?vid=9abf2d7c-556b-4302-8913-d42c438a4606"},"vehicle_type_id":"4","last_reported":1746522681,"current_range_meters":18800,"station_id":"ce4bhn92rcd13ifvqgrg","pricing_plan_id":"cebpf4jnsgd1na2vs0mg"},{"bike_id":"ac700e2e-c129-4f82-a3c3-f628077933a6","system_id":"levelo_inurba_marseille","lat":43.212135,"lon":5.350753,"is_reserved":false,"is_disabled":false,"rental_uris":{"android":"levelo://app?vid=ac700e2e-c129-4f82-a3c3-f628077933a6","ios":"levelo://app?vid=ac700e2e-c129-4f82-a3c3-f628077933a6"},"vehicle_type_id":"4","last_reported":1746522681,"current_range_meters":18800,"station_id":"st_cvj6sg6p6f1abm77japg","pricing_plan_id":"cebpf4jnsgd1na2vs0mg"},{"bike_id":"b4216838-733b-46cd-aae7-8693e0287a61","system_id":"levelo_inurba_marseille","lat":43.22927,"lon":5.35376,"is_reserved":false,"is_disabled":false,"rental_uris":{"android":"levelo://app?vid=b4216838-733b-46cd-aae7-8693e0287a61","ios":"levelo://app?vid=b4216838-733b-46cd-aae7-8693e0287a61"},"vehicle_type_id":"4","last_reported":1746522681,"current_range_meters":18800,"station_id":"cpo3532slgdg3j2ikp40","pricing_plan_id":"cebpf4jnsgd1na2vs0mg"},{"bike_id":"9439ad48-891f-4fcf-a72b-ba0604a586bd","system_id":"levelo_inurba_marseille","lat":43.25945,"lon":5.40884,"is_reserved":false,"is_disabled":false,"rental_uris":{"android":"levelo://app?vid=9439ad48-891f-4fcf-a72b-ba0604a586bd","ios":"levelo://app?vid=9439ad48-891f-4fcf-a72b-ba0604a586bd"},"vehicle_type_id":"4","last_reported":1746522681,"current_range_meters":18800,"station_id":"ce4bhm92rcd13ifvqglg","pricing_plan_id":"cebpf4jnsgd1na2vs0mg"},{"bike_id":"dbe2d0c9-0901-475b-bd50-eeb9dc6c06fa","system_id":"levelo_inurba_marseille","lat":43.27066,"lon":5.42286,"is_reserved":false,"is_disabled":false,"rental_uris":{"android":"levelo://app?vid=dbe2d0c9-0901-475b-bd50-eeb9dc6c06fa","ios":"levelo://app?vid=dbe2d0c9-0901-475b-bd50-eeb9dc6c06fa"},"vehicle_type_id":"4","last_reported":1746522681,"current_range_meters":19200,"station_id":"ce4bhk92rcd13ifvqgb0","pricing_plan_id":"cebpf4jnsgd1na2vs0mg"},{"bike_id":"f2896b63-be3f-4a92-821e-32f3ff6f6c19","system_id":"levelo_inurba_marseille","lat":43.33599,"lon":5.41048,"is_reserved":false,"is_disabled":false,"rental_uris":{"android":"levelo://app?vid=f2896b63-be3f-4a92-821e-32f3ff6f6c19","ios":"levelo://app?vid=f2896b63-be3f-4a92-821e-32f3ff6f6c19"},"vehicle_type_id":"4","last_reported":1746522681,"current_range_meters":19200,"station_id":"ce4bhqh2rcd13ifvqhmg","pricing_plan_id":"cebpf4jnsgd1na2vs0mg"},{"bike_id":"6560f180-fa9d-4626-8456-124443863d13","system_id":"levelo_inurba_marseille","lat":43.24546,"lon":5.39524,"is_reserved":false,"is_disabled":false,"rental_uris":{"android":"levelo://app?vid=6560f180-fa9d-4626-8456-124443863d13","ios":"levelo://app?vid=6560f180-fa9d-4626-8456-124443863d13"},"vehicle_type_id":"4","last_reported":1746522681,"current_range_meters":19200,"station_id":"ce4bhlp2rcd13ifvqgjg","pricing_plan_id":"cebpf4jnsgd1na2vs0mg"},{"bike_id":"72ebbbdb-13e1-4c88-ab3c-b8b2bc65db3e","system_id":"levelo_inurba_marseille","lat":43.240753,"lon":5.377657,"is_reserved":false,"is_disabled":false,"rental_uris":{"android":"levelo://app?vid=72ebbbdb-13e1-4c88-ab3c-b8b2bc65db3e","ios":"levelo://app?vid=72ebbbdb-13e1-4c88-ab3c-b8b2bc65db3e"},"vehicle_type_id":"4","last_reported":1746522681,"current_range_meters":19200,"station_id":"ce4bhnp2rcd13ifvqgvg","pricing_plan_id":"cebpf4jnsgd1na2vs0mg"},{"bike_id":"58f04a2b-1c37-4aa5-b276-9c99735f4349","system_id":"levelo_inurba_marseille","lat":43.27676,"lon":5.38887,"is_reserved":false,"is_disabled":false,"rental_uris":{"android":"levelo://app?vid=58f04a2b-1c37-4aa5-b276-9c99735f4349","ios":"levelo://app?vid=58f04a2b-1c37-4aa5-b276-9c99735f4349"},"vehicle_type_id":"4","last_reported":1746522681,"current_range_meters":19200,"station_id":"ce4bhi12rcd13ifvqfo0","pricing_plan_id":"cebpf4jnsgd1na2vs0mg"},{"bike_id":"aabc7d09-3c46-42f9-af97-1df4f8541bdc","system_id":"levelo_inurba_marseille","lat":43.29031,"lon":5.35907,"is_reserved":false,"is_disabled":false,"rental_uris":{"android":"levelo://app?vid=aabc7d09-3c46-42f9-af97-1df4f8541bdc","ios":"levelo://app?vid=aabc7d09-3c46-42f9-af97-1df4f8541bdc"},"vehicle_type_id":"4","last_reported":1746522681,"current_range_meters":19600,"station_id":"ce4bha92rcd13ifvqeg0","pricing_plan_id":"cebpf4jnsgd1na2vs0mg"},{"bike_id":"a3dc441c-3dd7-42dc-913a-7db783432e14","system_id":"levelo_inurba_marseille","lat":43.28604,"lon":5.37062,"is_reserved":false,"is_disabled":false,"rental_uris":{"android":"levelo://app?vid=a3dc441c-3dd7-42dc-913a-7db783432e14","ios":"levelo://app?vid=a3dc441c-3dd7-42dc-913a-7db783432e14"},"vehicle_type_id":"4","last_reported":1746522681,"current_range_meters":19600,"station_id":"ce4bht12rcd13ifvqi60","pricing_plan_id":"cebpf4jnsgd1na2vs0mg"},{"bike_id":"0e87f288-e8c8-42f7-9b45-5d07827eac14","system_id":"levelo_inurba_marseille","lat":43.32364,"lon":5.36781,"is_reserved":false,"is_disabled":false,"rental_uris":{"android":"levelo://app?vid=0e87f288-e8c8-42f7-9b45-5d07827eac14","ios":"levelo://app?vid=0e87f288-e8c8-42f7-9b45-5d07827eac14"},"vehicle_type_id":"4","last_reported":1746522681,"current_range_meters":19600,"station_id":"ce4bhsh2rcd13ifvqi2g","pricing_plan_id":"cebpf4jnsgd1na2vs0mg"},{"bike_id":"50a6ef3e-a705-438d-bfce-c6e3f362f579","system_id":"levelo_inurba_marseille","lat":43.265688,"lon":5.39011,"is_reserved":false,"is_disabled":false,"rental_uris":{"android":"levelo://app?vid=50a6ef3e-a705-438d-bfce-c6e3f362f579","ios":"levelo://app?vid=50a6ef3e-a705-438d-bfce-c6e3f362f579"},"vehicle_type_id":"4","last_reported":1746522681,"current_range_meters":20000,"station_id":"ce4bhe12rcd13ifvqf30","pricing_plan_id":"cebpf4jnsgd1na2vs0mg"},{"bike_id":"ba16d7a9-b56c-48e1-baca-700162928235","system_id":"levelo_inurba_marseille","lat":43.2979,"lon":5.38117,"is_reserved":false,"is_disabled":false,"rental_uris":{"android":"levelo://app?vid=ba16d7a9-b56c-48e1-baca-700162928235","ios":"levelo://app?vid=ba16d7a9-b56c-48e1-baca-700162928235"},"vehicle_type_id":"4","last_reported":1746522681,"current_range_meters":20000,"station_id":"ce4bgip2rcd13ifvqbb0","pricing_plan_id":"cebpf4jnsgd1na2vs0mg"},{"bike_id":"2d681e3a-2beb-4980-ae98-d93c0b6af1c3","system_id":"levelo_inurba_marseille","lat":43.2409,"lon":5.37743,"is_reserved":false,"is_disabled":false,"rental_uris":{"android":"levelo://app?vid=2d681e3a-2beb-4980-ae98-d93c0b6af1c3","ios":"levelo://app?vid=2d681e3a-2beb-4980-ae98-d93c0b6af1c3"},"vehicle_type_id":"4","last_reported":1746522681,"current_range_meters":20000,"station_id":"ce4bhnp2rcd13ifvqgvg","pricing_plan_id":"cebpf4jnsgd1na2vs0mg"},{"bike_id":"4fa44a4d-c738-41bc-9022-213fbeae4065","system_id":"levelo_inurba_marseille","lat":43.23185,"lon":5.39997,"is_reserved":false,"is_disabled":false,"rental_uris":{"android":"levelo://app?vid=4fa44a4d-c738-41bc-9022-213fbeae4065","ios":"levelo://app?vid=4fa44a4d-c738-41bc-9022-213fbeae4065"},"vehicle_type_id":"4","last_reported":1746522681,"current_range_meters":20000,"station_id":"ce4bhn12rcd13ifvqgqg","pricing_plan_id":"cebpf4jnsgd1na2vs0mg"},{"bike_id":"2fa0b816-7ec6-4882-9376-089f3a9e406c","system_id":"levelo_inurba_marseille","lat":43.33756,"lon":5.37495,"is_reserved":false,"is_disabled":false,"rental_uris":{"android":"levelo://app?vid=2fa0b816-7ec6-4882-9376-089f3a9e406c","ios":"levelo://app?vid=2fa0b816-7ec6-4882-9376-089f3a9e406c"},"vehicle_type_id":"4","last_reported":1746522681,"current_range_meters":20000,"station_id":"","pricing_plan_id":"cebpf4jnsgd1na2vs0mg"},{"bike_id":"2c101aaa-db37-4200-bb05-8308f90fe04f","system_id":"levelo_inurba_marseille","lat":43.26958,"lon":5.38632,"is_reserved":false,"is_disabled":false,"rental_uris":{"android":"levelo://app?vid=2c101aaa-db37-4200-bb05-8308f90fe04f","ios":"levelo://app?vid=2c101aaa-db37-4200-bb05-8308f90fe04f"},"vehicle_type_id":"4","last_reported":1746522681,"current_range_meters":20000,"station_id":"ce4bhh92rcd13ifvqfh0","pricing_plan_id":"cebpf4jnsgd1na2vs0mg"},{"bike_id":"9a815670-e042-4e15-ada9-ab54cb7addda","system_id":"levelo_inurba_marseille","lat":43.31387,"lon":5.36715,"is_reserved":false,"is_disabled":false,"rental_uris":{"android":"levelo://app?vid=9a815670-e042-4e15-ada9-ab54cb7addda","ios":"levelo://app?vid=9a815670-e042-4e15-ada9-ab54cb7addda"},"vehicle_type_id":"4","last_reported":1746522681,"current_range_meters":20000,"station_id":"","pricing_plan_id":"cebpf4jnsgd1na2vs0mg"},{"bike_id":"7d745542-6a9f-4f6b-8e03-02477f88c47a","system_id":"levelo_inurba_marseille","lat":43.30142,"lon":5.38071,"is_reserved":false,"is_disabled":false,"rental_uris":{"android":"levelo://app?vid=7d745542-6a9f-4f6b-8e03-02477f88c47a","ios":"levelo://app?vid=7d745542-6a9f-4f6b-8e03-02477f88c47a"},"vehicle_type_id":"4","last_reported":1746522681,"current_range_meters":20400,"station_id":"ce4bgjp2rcd13ifvqbh0","pricing_plan_id":"cebpf4jnsgd1na2vs0mg"},{"bike_id":"b9a946ed-10f8-4d6a-9138-6fdf1e06a0fa","system_id":"levelo_inurba_marseille","lat":43.31375,"lon":5.36765,"is_reserved":false,"is_disabled":false,"rental_uris":{"android":"levelo://app?vid=b9a946ed-10f8-4d6a-9138-6fdf1e06a0fa","ios":"levelo://app?vid=b9a946ed-10f8-4d6a-9138-6fdf1e06a0fa"},"vehicle_type_id":"4","last_reported":1746522681,"current_range_meters":20400,"station_id":"ce4bgr92rcd13ifvqc6g","pricing_plan_id":"cebpf4jnsgd1na2vs0mg"},{"bike_id":"81dd1c4b-6a3b-4570-b1e2-1c9b93ab7410","system_id":"levelo_inurba_marseille","lat":43.22502,"lon":5.34785,"is_reserved":false,"is_disabled":false,"rental_uris":{"android":"levelo://app?vid=81dd1c4b-6a3b-4570-b1e2-1c9b93ab7410","ios":"levelo://app?vid=81dd1c4b-6a3b-4570-b1e2-1c9b93ab7410"},"vehicle_type_id":"4","last_reported":1746522681,"current_range_meters":20400,"station_id":"","pricing_plan_id":"cebpf4jnsgd1na2vs0mg"},{"bike_id":"9f4fed7b-316e-4e77-99f1-c5c64e112a25","system_id":"levelo_inurba_marseille","lat":43.24184,"lon":5.39727,"is_reserved":false,"is_disabled":false,"rental_uris":{"android":"levelo://app?vid=9f4fed7b-316e-4e77-99f1-c5c64e112a25","ios":"levelo://app?vid=9f4fed7b-316e-4e77-99f1-c5c64e112a25"},"vehicle_type_id":"4","last_reported":1746522681,"current_range_meters":20800,"station_id":"ce4bhn12rcd13ifvqgpg","pricing_plan_id":"cebpf4jnsgd1na2vs0mg"},{"bike_id":"369a9ecb-cdbf-4b7d-b9f1-7c97892871d1","system_id":"levelo_inurba_marseille","lat":43.291656,"lon":5.371649,"is_reserved":false,"is_disabled":false,"rental_uris":{"android":"levelo://app?vid=369a9ecb-cdbf-4b7d-b9f1-7c97892871d1","ios":"levelo://app?vid=369a9ecb-cdbf-4b7d-b9f1-7c97892871d1"},"vehicle_type_id":"4","last_reported":1746522681,"current_range_meters":20800,"station_id":"ce4bha92rcd13ifvqeh0","pricing_plan_id":"cebpf4jnsgd1na2vs0mg"},{"bike_id":"396e7dd6-faad-468d-87c1-88443465191f","system_id":"levelo_inurba_marseille","lat":43.28263,"lon":5.35085,"is_reserved":false,"is_disabled":false,"rental_uris":{"android":"levelo://app?vid=396e7dd6-faad-468d-87c1-88443465191f","ios":"levelo://app?vid=396e7dd6-faad-468d-87c1-88443465191f"},"vehicle_type_id":"4","last_reported":1746522681,"current_range_meters":20800,"station_id":"ce4bhbp2rcd13ifvqerg","pricing_plan_id":"cebpf4jnsgd1na2vs0mg"},{"bike_id":"1f11e3c6-d509-4463-9afe-3296107668ff","system_id":"levelo_inurba_marseille","lat":43.28265,"lon":5.35066,"is_reserved":false,"is_disabled":false,"rental_uris":{"android":"levelo://app?vid=1f11e3c6-d509-4463-9afe-3296107668ff","ios":"levelo://app?vid=1f11e3c6-d509-4463-9afe-3296107668ff"},"vehicle_type_id":"4","last_reported":1746522681,"current_range_meters":21600,"station_id":"ce4bhbp2rcd13ifvqerg","pricing_plan_id":"cebpf4jnsgd1na2vs0mg"},{"bike_id":"d81c8a31-c0ff-4b62-a3e0-48f61dda3b35","system_id":"levelo_inurba_marseille","lat":43.2941,"lon":5.38636,"is_reserved":false,"is_disabled":false,"rental_uris":{"android":"levelo://app?vid=d81c8a31-c0ff-4b62-a3e0-48f61dda3b35","ios":"levelo://app?vid=d81c8a31-c0ff-4b62-a3e0-48f61dda3b35"},"vehicle_type_id":"4","last_reported":1746522681,"current_range_meters":21600,"station_id":"ce4bh2h2rcd13ifvqdh0","pricing_plan_id":"cebpf4jnsgd1na2vs0mg"},{"bike_id":"24384f0e-408a-42ee-9dc0-46996d573e79","system_id":"levelo_inurba_marseille","lat":43.225125,"lon":5.348256,"is_reserved":false,"is_disabled":false,"rental_uris":{"android":"levelo://app?vid=24384f0e-408a-42ee-9dc0-46996d573e79","ios":"levelo://app?vid=24384f0e-408a-42ee-9dc0-46996d573e79"},"vehicle_type_id":"4","last_reported":1746522681,"current_range_meters":21600,"station_id":"","pricing_plan_id":"cebpf4jnsgd1na2vs0mg"},{"bike_id":"52ffc160-a8e8-42a4-8dfb-60afc24669e3","system_id":"levelo_inurba_marseille","lat":43.28371,"lon":5.38631,"is_reserved":false,"is_disabled":false,"rental_uris":{"android":"levelo://app?vid=52ffc160-a8e8-42a4-8dfb-60afc24669e3","ios":"levelo://app?vid=52ffc160-a8e8-42a4-8dfb-60afc24669e3"},"vehicle_type_id":"4","last_reported":1746522681,"current_range_meters":21600,"station_id":"ce4bh492rcd13ifvqdvg","pricing_plan_id":"cebpf4jnsgd1na2vs0mg"},{"bike_id":"e1da822c-3ed9-403e-b1d6-12e3209f7308","system_id":"levelo_inurba_marseille","lat":43.269546,"lon":5.38633,"is_reserved":false,"is_disabled":false,"rental_uris":{"android":"levelo://app?vid=e1da822c-3ed9-403e-b1d6-12e3209f7308","ios":"levelo://app?vid=e1da822c-3ed9-403e-b1d6-12e3209f7308"},"vehicle_type_id":"4","last_reported":1746522681,"current_range_meters":22000,"station_id":"ce4bhh92rcd13ifvqfh0","pricing_plan_id":"cebpf4jnsgd1na2vs0mg"},{"bike_id":"88fd4d56-80b1-45f8-a748-1d0b5116d69f","system_id":"levelo_inurba_marseille","lat":43.28266,"lon":5.35074,"is_reserved":false,"is_disabled":false,"rental_uris":{"android":"levelo://app?vid=88fd4d56-80b1-45f8-a748-1d0b5116d69f","ios":"levelo://app?vid=88fd4d56-80b1-45f8-a748-1d0b5116d69f"},"vehicle_type_id":"4","last_reported":1746522681,"current_range_meters":22000,"station_id":"ce4bhbp2rcd13ifvqerg","pricing_plan_id":"cebpf4jnsgd1na2vs0mg"},{"bike_id":"f1d41c01-070c-472b-9416-6f437619b291","system_id":"levelo_inurba_marseille","lat":43.23145,"lon":5.43715,"is_reserved":false,"is_disabled":false,"rental_uris":{"android":"levelo://app?vid=f1d41c01-070c-472b-9416-6f437619b291","ios":"levelo://app?vid=f1d41c01-070c-472b-9416-6f437619b291"},"vehicle_type_id":"4","last_reported":1746522681,"current_range_meters":22400,"station_id":"ce4bhmp2rcd13ifvqgog","pricing_plan_id":"cebpf4jnsgd1na2vs0mg"},{"bike_id":"d28f1d0d-1f4a-4a84-ab6f-eaca0b1c0dac","system_id":"levelo_inurba_marseille","lat":43.24387,"lon":5.37054,"is_reserved":false,"is_disabled":false,"rental_uris":{"android":"levelo://app?vid=d28f1d0d-1f4a-4a84-ab6f-eaca0b1c0dac","ios":"levelo://app?vid=d28f1d0d-1f4a-4a84-ab6f-eaca0b1c0dac"},"vehicle_type_id":"4","last_reported":1746522681,"current_range_meters":22400,"station_id":"ce4bhhh2rcd13ifvqfk0","pricing_plan_id":"cebpf4jnsgd1na2vs0mg"},{"bike_id":"ff1f1750-c3c1-42a2-81e5-df88283ac11a","system_id":"levelo_inurba_marseille","lat":43.26685,"lon":5.38271,"is_reserved":false,"is_disabled":false,"rental_uris":{"android":"levelo://app?vid=ff1f1750-c3c1-42a2-81e5-df88283ac11a","ios":"levelo://app?vid=ff1f1750-c3c1-42a2-81e5-df88283ac11a"},"vehicle_type_id":"4","last_reported":1746522681,"current_range_meters":22400,"station_id":"ce4bhg92rcd13ifvqf90","pricing_plan_id":"cebpf4jnsgd1na2vs0mg"},{"bike_id":"0a90c9d8-6902-4b54-883b-a4bf974a897d","system_id":"levelo_inurba_marseille","lat":43.26673,"lon":5.38284,"is_reserved":false,"is_disabled":false,"rental_uris":{"android":"levelo://app?vid=0a90c9d8-6902-4b54-883b-a4bf974a897d","ios":"levelo://app?vid=0a90c9d8-6902-4b54-883b-a4bf974a897d"},"vehicle_type_id":"4","last_reported":1746522681,"current_range_meters":22400,"station_id":"ce4bhg92rcd13ifvqf90","pricing_plan_id":"cebpf4jnsgd1na2vs0mg"},{"bike_id":"2f42a6fc-b7d1-40cc-a917-ee7e0070d967","system_id":"levelo_inurba_marseille","lat":43.32346,"lon":5.3675,"is_reserved":false,"is_disabled":false,"rental_uris":{"android":"levelo://app?vid=2f42a6fc-b7d1-40cc-a917-ee7e0070d967","ios":"levelo://app?vid=2f42a6fc-b7d1-40cc-a917-ee7e0070d967"},"vehicle_type_id":"4","last_reported":1746522681,"current_range_meters":22800,"station_id":"ce4bhsh2rcd13ifvqi2g","pricing_plan_id":"cebpf4jnsgd1na2vs0mg"},{"bike_id":"bac7f684-2423-4e2b-8fd4-078a9a398e21","system_id":"levelo_inurba_marseille","lat":43.24091,"lon":5.37725,"is_reserved":false,"is_disabled":false,"rental_uris":{"android":"levelo://app?vid=bac7f684-2423-4e2b-8fd4-078a9a398e21","ios":"levelo://app?vid=bac7f684-2423-4e2b-8fd4-078a9a398e21"},"vehicle_type_id":"4","last_reported":1746522681,"current_range_meters":22800,"station_id":"ce4bhnp2rcd13ifvqgvg","pricing_plan_id":"cebpf4jnsgd1na2vs0mg"},{"bike_id":"d99c51ae-5a52-4f5f-b0ef-c505a66ba61f","system_id":"levelo_inurba_marseille","lat":43.30912,"lon":5.36848,"is_reserved":false,"is_disabled":false,"rental_uris":{"android":"levelo://app?vid=d99c51ae-5a52-4f5f-b0ef-c505a66ba61f","ios":"levelo://app?vid=d99c51ae-5a52-4f5f-b0ef-c505a66ba61f"},"vehicle_type_id":"4","last_reported":1746522681,"current_range_meters":22800,"station_id":"ce4bgn92rcd13ifvqbvg","pricing_plan_id":"cebpf4jnsgd1na2vs0mg"},{"bike_id":"e07ae73c-4b8e-4431-9c74-f7059490397b","system_id":"levelo_inurba_marseille","lat":43.29223,"lon":5.36051,"is_reserved":false,"is_disabled":false,"rental_uris":{"android":"levelo://app?vid=e07ae73c-4b8e-4431-9c74-f7059490397b","ios":"levelo://app?vid=e07ae73c-4b8e-4431-9c74-f7059490397b"},"vehicle_type_id":"4","last_reported":1746522681,"current_range_meters":22800,"station_id":"ce4bhbh2rcd13ifvqeqg","pricing_plan_id":"cebpf4jnsgd1na2vs0mg"},{"bike_id":"18644f67-72ce-4631-9d9d-aa6cb4af4f83","system_id":"levelo_inurba_marseille","lat":43.21185,"lon":5.35086,"is_reserved":false,"is_disabled":false,"rental_uris":{"android":"levelo://app?vid=18644f67-72ce-4631-9d9d-aa6cb4af4f83","ios":"levelo://app?vid=18644f67-72ce-4631-9d9d-aa6cb4af4f83"},"vehicle_type_id":"4","last_reported":1746522681,"current_range_meters":22800,"station_id":"st_cvj6sg6p6f1abm77japg","pricing_plan_id":"cebpf4jnsgd1na2vs0mg"},{"bike_id":"eb4530fd-27a2-44aa-be4f-0ae2ee46c65c","system_id":"levelo_inurba_marseille","lat":43.274969,"lon":5.424532,"is_reserved":false,"is_disabled":false,"rental_uris":{"android":"levelo://app?vid=eb4530fd-27a2-44aa-be4f-0ae2ee46c65c","ios":"levelo://app?vid=eb4530fd-27a2-44aa-be4f-0ae2ee46c65c"},"vehicle_type_id":"4","last_reported":1746522681,"current_range_meters":22800,"station_id":"ce4bhn92rcd13ifvqgrg","pricing_plan_id":"cebpf4jnsgd1na2vs0mg"},{"bike_id":"4c92ddfb-82c6-411c-8a4c-50ec62be918b","system_id":"levelo_inurba_marseille","lat":43.24072,"lon":5.37757,"is_reserved":false,"is_disabled":false,"rental_uris":{"android":"levelo://app?vid=4c92ddfb-82c6-411c-8a4c-50ec62be918b","ios":"levelo://app?vid=4c92ddfb-82c6-411c-8a4c-50ec62be918b"},"vehicle_type_id":"4","last_reported":1746522681,"current_range_meters":22800,"station_id":"ce4bhnp2rcd13ifvqgvg","pricing_plan_id":"cebpf4jnsgd1na2vs0mg"},{"bike_id":"3c221dc3-2223-4d5c-8f04-7ebe5fdf8331","system_id":"levelo_inurba_marseille","lat":43.29716,"lon":5.37706,"is_reserved":false,"is_disabled":false,"rental_uris":{"android":"levelo://app?vid=3c221dc3-2223-4d5c-8f04-7ebe5fdf8331","ios":"levelo://app?vid=3c221dc3-2223-4d5c-8f04-7ebe5fdf8331"},"vehicle_type_id":"4","last_reported":1746522681,"current_range_meters":22800,"station_id":"ce4bgkh2rcd13ifvqbl0","pricing_plan_id":"cebpf4jnsgd1na2vs0mg"},{"bike_id":"063734d6-bd0f-4c06-81b9-ebd21e5b89ae","system_id":"levelo_inurba_marseille","lat":43.30549,"lon":5.36674,"is_reserved":false,"is_disabled":false,"rental_uris":{"android":"levelo://app?vid=063734d6-bd0f-4c06-81b9-ebd21e5b89ae","ios":"levelo://app?vid=063734d6-bd0f-4c06-81b9-ebd21e5b89ae"},"vehicle_type_id":"4","last_reported":1746522681,"current_range_meters":23200,"station_id":"ce4bgrp2rcd13ifvqc9g","pricing_plan_id":"cebpf4jnsgd1na2vs0mg"},{"bike_id":"0590bbfe-c74d-461c-ba62-d162718c5929","system_id":"levelo_inurba_marseille","lat":43.26574,"lon":5.37273,"is_reserved":false,"is_disabled":false,"rental_uris":{"android":"levelo://app?vid=0590bbfe-c74d-461c-ba62-d162718c5929","ios":"levelo://app?vid=0590bbfe-c74d-461c-ba62-d162718c5929"},"vehicle_type_id":"4","last_reported":1746522681,"current_range_meters":23200,"station_id":"ce4bhg12rcd13ifvqf70","pricing_plan_id":"cebpf4jnsgd1na2vs0mg"},{"bike_id":"96175c6b-7676-4c4f-8523-d41df33ea507","system_id":"levelo_inurba_marseille","lat":43.2406,"lon":5.3774,"is_reserved":false,"is_disabled":false,"rental_uris":{"android":"levelo://app?vid=96175c6b-7676-4c4f-8523-d41df33ea507","ios":"levelo://app?vid=96175c6b-7676-4c4f-8523-d41df33ea507"},"vehicle_type_id":"4","last_reported":1746522681,"current_range_meters":23200,"station_id":"ce4bhnp2rcd13ifvqgvg","pricing_plan_id":"cebpf4jnsgd1na2vs0mg"},{"bike_id":"fd21ae1b-9075-4adb-ac2e-17067512c003","system_id":"levelo_inurba_marseille","lat":43.33607,"lon":5.41023,"is_reserved":false,"is_disabled":false,"rental_uris":{"android":"levelo://app?vid=fd21ae1b-9075-4adb-ac2e-17067512c003","ios":"levelo://app?vid=fd21ae1b-9075-4adb-ac2e-17067512c003"},"vehicle_type_id":"4","last_reported":1746522681,"current_range_meters":23200,"station_id":"ce4bhqh2rcd13ifvqhmg","pricing_plan_id":"cebpf4jnsgd1na2vs0mg"},{"bike_id":"0df3111c-fd99-4e63-915e-e7763d46bb1b","system_id":"levelo_inurba_marseille","lat":43.28505,"lon":5.37081,"is_reserved":false,"is_disabled":false,"rental_uris":{"android":"levelo://app?vid=0df3111c-fd99-4e63-915e-e7763d46bb1b","ios":"levelo://app?vid=0df3111c-fd99-4e63-915e-e7763d46bb1b"},"vehicle_type_id":"4","last_reported":1746522681,"current_range_meters":24000,"station_id":"","pricing_plan_id":"cebpf4jnsgd1na2vs0mg"},{"bike_id":"6358e848-2bad-4d74-88f0-8166c24a4b1e","system_id":"levelo_inurba_marseille","lat":43.2743,"lon":5.3941,"is_reserved":false,"is_disabled":false,"rental_uris":{"android":"levelo://app?vid=6358e848-2bad-4d74-88f0-8166c24a4b1e","ios":"levelo://app?vid=6358e848-2bad-4d74-88f0-8166c24a4b1e"},"vehicle_type_id":"4","last_reported":1746522681,"current_range_meters":24000,"station_id":"ce4bhdp2rcd13ifvqf20","pricing_plan_id":"cebpf4jnsgd1na2vs0mg"},{"bike_id":"5b1f17ae-5a78-4b1e-8be6-f9efafc3f9dc","system_id":"levelo_inurba_marseille","lat":43.27499,"lon":5.42451,"is_reserved":false,"is_disabled":false,"rental_uris":{"android":"levelo://app?vid=5b1f17ae-5a78-4b1e-8be6-f9efafc3f9dc","ios":"levelo://app?vid=5b1f17ae-5a78-4b1e-8be6-f9efafc3f9dc"},"vehicle_type_id":"4","last_reported":1746522681,"current_range_meters":24000,"station_id":"ce4bhn92rcd13ifvqgrg","pricing_plan_id":"cebpf4jnsgd1na2vs0mg"},{"bike_id":"0d739775-288c-4ef1-a260-5d3d86639fbc","system_id":"levelo_inurba_marseille","lat":43.3167,"lon":5.40482,"is_reserved":false,"is_disabled":false,"rental_uris":{"android":"levelo://app?vid=0d739775-288c-4ef1-a260-5d3d86639fbc","ios":"levelo://app?vid=0d739775-288c-4ef1-a260-5d3d86639fbc"},"vehicle_type_id":"4","last_reported":1746522681,"current_range_meters":24000,"station_id":"ce4bh012rcd13ifvqd00","pricing_plan_id":"cebpf4jnsgd1na2vs0mg"},{"bike_id":"3fc2dcf8-c28a-417d-b35c-c65f496860e5","system_id":"levelo_inurba_marseille","lat":43.28615,"lon":5.35105,"is_reserved":false,"is_disabled":false,"rental_uris":{"android":"levelo://app?vid=3fc2dcf8-c28a-417d-b35c-c65f496860e5","ios":"levelo://app?vid=3fc2dcf8-c28a-417d-b35c-c65f496860e5"},"vehicle_type_id":"4","last_reported":1746522681,"current_range_meters":24000,"station_id":"ce4bhch2rcd13ifvqeug","pricing_plan_id":"cebpf4jnsgd1na2vs0mg"},{"bike_id":"d5ab06e3-e77d-4b7f-a195-6a14c71353d9","system_id":"levelo_inurba_marseille","lat":43.26214,"lon":5.40469,"is_reserved":false,"is_disabled":false,"rental_uris":{"android":"levelo://app?vid=d5ab06e3-e77d-4b7f-a195-6a14c71353d9","ios":"levelo://app?vid=d5ab06e3-e77d-4b7f-a195-6a14c71353d9"},"vehicle_type_id":"4","last_reported":1746522681,"current_range_meters":24000,"station_id":"ce4bhmh2rcd13ifvqgmg","pricing_plan_id":"cebpf4jnsgd1na2vs0mg"},{"bike_id":"5c68f092-1f83-47ed-97d1-40ba4dcb6dfd","system_id":"levelo_inurba_marseille","lat":43.29255,"lon":5.36891,"is_reserved":false,"is_disabled":false,"rental_uris":{"android":"levelo://app?vid=5c68f092-1f83-47ed-97d1-40ba4dcb6dfd","ios":"levelo://app?vid=5c68f092-1f83-47ed-97d1-40ba4dcb6dfd"},"vehicle_type_id":"4","last_reported":1746522681,"current_range_meters":24000,"station_id":"ce4bhbp2rcd13ifvqesg","pricing_plan_id":"cebpf4jnsgd1na2vs0mg"},{"bike_id":"8a645624-7c48-4391-9fa8-d8a43b8c5e81","system_id":"levelo_inurba_marseille","lat":43.31242,"lon":5.36856,"is_reserved":false,"is_disabled":false,"rental_uris":{"android":"levelo://app?vid=8a645624-7c48-4391-9fa8-d8a43b8c5e81","ios":"levelo://app?vid=8a645624-7c48-4391-9fa8-d8a43b8c5e81"},"vehicle_type_id":"4","last_reported":1746522681,"current_range_meters":24000,"station_id":"ce4bgl92rcd13ifvqbq0","pricing_plan_id":"cebpf4jnsgd1na2vs0mg"},{"bike_id":"55a5a4bd-37b9-4fda-8803-a1ddb77974cd","system_id":"levelo_inurba_marseille","lat":43.31368,"lon":5.36712,"is_reserved":false,"is_disabled":false,"rental_uris":{"android":"levelo://app?vid=55a5a4bd-37b9-4fda-8803-a1ddb77974cd","ios":"levelo://app?vid=55a5a4bd-37b9-4fda-8803-a1ddb77974cd"},"vehicle_type_id":"4","last_reported":1746522681,"current_range_meters":24000,"station_id":"ce4bgr92rcd13ifvqc6g","pricing_plan_id":"cebpf4jnsgd1na2vs0mg"},{"bike_id":"db25b198-7357-4455-9f2c-d196f20cd460","system_id":"levelo_inurba_marseille","lat":43.27489,"lon":5.42464,"is_reserved":false,"is_disabled":false,"rental_uris":{"android":"levelo://app?vid=db25b198-7357-4455-9f2c-d196f20cd460","ios":"levelo://app?vid=db25b198-7357-4455-9f2c-d196f20cd460"},"vehicle_type_id":"4","last_reported":1746522681,"current_range_meters":24400,"station_id":"ce4bhn92rcd13ifvqgrg","pricing_plan_id":"cebpf4jnsgd1na2vs0mg"},{"bike_id":"a6975857-f4ed-4bff-b109-ad375119e9ec","system_id":"levelo_inurba_marseille","lat":43.3096,"lon":5.36794,"is_reserved":false,"is_disabled":false,"rental_uris":{"android":"levelo://app?vid=a6975857-f4ed-4bff-b109-ad375119e9ec","ios":"levelo://app?vid=a6975857-f4ed-4bff-b109-ad375119e9ec"},"vehicle_type_id":"4","last_reported":1746522681,"current_range_meters":24400,"station_id":"ce4bgn92rcd13ifvqbvg","pricing_plan_id":"cebpf4jnsgd1na2vs0mg"},{"bike_id":"983a404f-14c7-456a-9282-ceffeda2b30b","system_id":"levelo_inurba_marseille","lat":43.27493,"lon":5.42452,"is_reserved":false,"is_disabled":false,"rental_uris":{"android":"levelo://app?vid=983a404f-14c7-456a-9282-ceffeda2b30b","ios":"levelo://app?vid=983a404f-14c7-456a-9282-ceffeda2b30b"},"vehicle_type_id":"4","last_reported":1746522681,"current_range_meters":24400,"station_id":"ce4bhn92rcd13ifvqgrg","pricing_plan_id":"cebpf4jnsgd1na2vs0mg"},{"bike_id":"cc8b0e89-22c9-4a26-9203-67c48ee9efbc","system_id":"levelo_inurba_marseille","lat":43.26782,"lon":5.39402,"is_reserved":false,"is_disabled":false,"rental_uris":{"android":"levelo://app?vid=cc8b0e89-22c9-4a26-9203-67c48ee9efbc","ios":"levelo://app?vid=cc8b0e89-22c9-4a26-9203-67c48ee9efbc"},"vehicle_type_id":"4","last_reported":1746522681,"current_range_meters":24400,"station_id":"ce4bhh12rcd13ifvqfg0","pricing_plan_id":"cebpf4jnsgd1na2vs0mg"},{"bike_id":"bb89306a-3338-4259-8825-3a33e8a04783","system_id":"levelo_inurba_marseille","lat":43.27198,"lon":5.39209,"is_reserved":false,"is_disabled":true,"rental_uris":{"android":"levelo://app?vid=bb89306a-3338-4259-8825-3a33e8a04783","ios":"levelo://app?vid=bb89306a-3338-4259-8825-3a33e8a04783"},"vehicle_type_id":"4","last_reported":1746522681,"current_range_meters":24400,"station_id":"ce4bhhp2rcd13ifvqfm0","pricing_plan_id":"cebpf4jnsgd1na2vs0mg"},{"bike_id":"83e43c22-dfef-47fa-a601-0e5602533b0a","system_id":"levelo_inurba_marseille","lat":43.27177,"lon":5.40996,"is_reserved":false,"is_disabled":true,"rental_uris":{"android":"levelo://app?vid=83e43c22-dfef-47fa-a601-0e5602533b0a","ios":"levelo://app?vid=83e43c22-dfef-47fa-a601-0e5602533b0a"},"vehicle_type_id":"4","last_reported":1746522681,"current_range_meters":24800,"station_id":"ce4bhl12rcd13ifvqgf0","pricing_plan_id":"cebpf4jnsgd1na2vs0mg"},{"bike_id":"15a586ab-3bc5-4b7b-93e5-8254fdeef81c","system_id":"levelo_inurba_marseille","lat":43.32116,"lon":5.36764,"is_reserved":false,"is_disabled":false,"rental_uris":{"android":"levelo://app?vid=15a586ab-3bc5-4b7b-93e5-8254fdeef81c","ios":"levelo://app?vid=15a586ab-3bc5-4b7b-93e5-8254fdeef81c"},"vehicle_type_id":"4","last_reported":1746522681,"current_range_meters":24800,"station_id":"ce4bhrh2rcd13ifvqhug","pricing_plan_id":"cebpf4jnsgd1na2vs0mg"},{"bike_id":"55fe7b48-01a2-43c6-9697-cd3ee316d331","system_id":"levelo_inurba_marseille","lat":43.25945,"lon":5.40896,"is_reserved":false,"is_disabled":false,"rental_uris":{"android":"levelo://app?vid=55fe7b48-01a2-43c6-9697-cd3ee316d331","ios":"levelo://app?vid=55fe7b48-01a2-43c6-9697-cd3ee316d331"},"vehicle_type_id":"4","last_reported":1746522681,"current_range_meters":24800,"station_id":"ce4bhm92rcd13ifvqglg","pricing_plan_id":"cebpf4jnsgd1na2vs0mg"},{"bike_id":"3e6d2786-a0de-40db-874f-fec9fa991302","system_id":"levelo_inurba_marseille","lat":43.29623,"lon":5.3773,"is_reserved":false,"is_disabled":false,"rental_uris":{"android":"levelo://app?vid=3e6d2786-a0de-40db-874f-fec9fa991302","ios":"levelo://app?vid=3e6d2786-a0de-40db-874f-fec9fa991302"},"vehicle_type_id":"4","last_reported":1746522681,"current_range_meters":24800,"station_id":"ce4bgi92rcd13ifvqb90","pricing_plan_id":"cebpf4jnsgd1na2vs0mg"},{"bike_id":"4082903b-ea53-4a18-bd51-ec36a8de0285","system_id":"levelo_inurba_marseille","lat":43.25929,"lon":5.40913,"is_reserved":false,"is_disabled":false,"rental_uris":{"android":"levelo://app?vid=4082903b-ea53-4a18-bd51-ec36a8de0285","ios":"levelo://app?vid=4082903b-ea53-4a18-bd51-ec36a8de0285"},"vehicle_type_id":"4","last_reported":1746522681,"current_range_meters":25200,"station_id":"ce4bhm92rcd13ifvqglg","pricing_plan_id":"cebpf4jnsgd1na2vs0mg"},{"bike_id":"2c5a56ca-4e52-4f42-99e0-2be60f1d8dc5","system_id":"levelo_inurba_marseille","lat":43.30301,"lon":5.36905,"is_reserved":false,"is_disabled":false,"rental_uris":{"android":"levelo://app?vid=2c5a56ca-4e52-4f42-99e0-2be60f1d8dc5","ios":"levelo://app?vid=2c5a56ca-4e52-4f42-99e0-2be60f1d8dc5"},"vehicle_type_id":"4","last_reported":1746522681,"current_range_meters":25200,"station_id":"ce4bgqh2rcd13ifvqc5g","pricing_plan_id":"cebpf4jnsgd1na2vs0mg"},{"bike_id":"e1490a3e-adae-49dd-a774-00a09b6f1da4","system_id":"levelo_inurba_marseille","lat":43.26951,"lon":5.38638,"is_reserved":false,"is_disabled":false,"rental_uris":{"android":"levelo://app?vid=e1490a3e-adae-49dd-a774-00a09b6f1da4","ios":"levelo://app?vid=e1490a3e-adae-49dd-a774-00a09b6f1da4"},"vehicle_type_id":"4","last_reported":1746522681,"current_range_meters":25200,"station_id":"ce4bhh92rcd13ifvqfh0","pricing_plan_id":"cebpf4jnsgd1na2vs0mg"},{"bike_id":"94c3c378-9f6c-4c99-9fd0-d92e0a191ff4","system_id":"levelo_inurba_marseille","lat":43.29927,"lon":5.37463,"is_reserved":false,"is_disabled":false,"rental_uris":{"android":"levelo://app?vid=94c3c378-9f6c-4c99-9fd0-d92e0a191ff4","ios":"levelo://app?vid=94c3c378-9f6c-4c99-9fd0-d92e0a191ff4"},"vehicle_type_id":"4","last_reported":1746522681,"current_range_meters":25200,"station_id":"ce4bgjh2rcd13ifvqbg0","pricing_plan_id":"cebpf4jnsgd1na2vs0mg"},{"bike_id":"95373a72-b768-4513-a45b-d9bf1ac57233","system_id":"levelo_inurba_marseille","lat":43.28859,"lon":5.35826,"is_reserved":false,"is_disabled":false,"rental_uris":{"android":"levelo://app?vid=95373a72-b768-4513-a45b-d9bf1ac57233","ios":"levelo://app?vid=95373a72-b768-4513-a45b-d9bf1ac57233"},"vehicle_type_id":"4","last_reported":1746522681,"current_range_meters":25200,"station_id":"ce4bhb12rcd13ifvqem0","pricing_plan_id":"cebpf4jnsgd1na2vs0mg"},{"bike_id":"ef580a16-c5ee-433d-b1a5-2d0a4eb9d07f","system_id":"levelo_inurba_marseille","lat":43.32117,"lon":5.36775,"is_reserved":false,"is_disabled":false,"rental_uris":{"android":"levelo://app?vid=ef580a16-c5ee-433d-b1a5-2d0a4eb9d07f","ios":"levelo://app?vid=ef580a16-c5ee-433d-b1a5-2d0a4eb9d07f"},"vehicle_type_id":"4","last_reported":1746522681,"current_range_meters":25200,"station_id":"ce4bhrh2rcd13ifvqhug","pricing_plan_id":"cebpf4jnsgd1na2vs0mg"},{"bike_id":"abc4f198-b141-4d73-bec7-34a51d8284b5","system_id":"levelo_inurba_marseille","lat":43.305358,"lon":5.36713,"is_reserved":false,"is_disabled":false,"rental_uris":{"android":"levelo://app?vid=abc4f198-b141-4d73-bec7-34a51d8284b5","ios":"levelo://app?vid=abc4f198-b141-4d73-bec7-34a51d8284b5"},"vehicle_type_id":"4","last_reported":1746522681,"current_range_meters":25200,"station_id":"ce4bgrp2rcd13ifvqc9g","pricing_plan_id":"cebpf4jnsgd1na2vs0mg"},{"bike_id":"08b0909a-f2aa-4032-806d-f1469d52a00d","system_id":"levelo_inurba_marseille","lat":43.2397,"lon":5.36621,"is_reserved":false,"is_disabled":false,"rental_uris":{"android":"levelo://app?vid=08b0909a-f2aa-4032-806d-f1469d52a00d","ios":"levelo://app?vid=08b0909a-f2aa-4032-806d-f1469d52a00d"},"vehicle_type_id":"4","last_reported":1746522681,"current_range_meters":25200,"station_id":"ce4bhi12rcd13ifvqfp0","pricing_plan_id":"cebpf4jnsgd1na2vs0mg"},{"bike_id":"be14af02-7701-4605-b2d6-5fd0439029d8","system_id":"levelo_inurba_marseille","lat":43.21201,"lon":5.35058,"is_reserved":false,"is_disabled":false,"rental_uris":{"android":"levelo://app?vid=be14af02-7701-4605-b2d6-5fd0439029d8","ios":"levelo://app?vid=be14af02-7701-4605-b2d6-5fd0439029d8"},"vehicle_type_id":"4","last_reported":1746522681,"current_range_meters":25200,"station_id":"st_cvj6sg6p6f1abm77japg","pricing_plan_id":"cebpf4jnsgd1na2vs0mg"},{"bike_id":"39455129-be18-4a48-b213-64a15e98d058","system_id":"levelo_inurba_marseille","lat":43.27513,"lon":5.42437,"is_reserved":false,"is_disabled":false,"rental_uris":{"android":"levelo://app?vid=39455129-be18-4a48-b213-64a15e98d058","ios":"levelo://app?vid=39455129-be18-4a48-b213-64a15e98d058"},"vehicle_type_id":"4","last_reported":1746522681,"current_range_meters":25200,"station_id":"ce4bhn92rcd13ifvqgrg","pricing_plan_id":"cebpf4jnsgd1na2vs0mg"},{"bike_id":"a265f57c-9342-462b-81c9-6f5f0c502bc3","system_id":"levelo_inurba_marseille","lat":43.21191,"lon":5.35081,"is_reserved":false,"is_disabled":false,"rental_uris":{"android":"levelo://app?vid=a265f57c-9342-462b-81c9-6f5f0c502bc3","ios":"levelo://app?vid=a265f57c-9342-462b-81c9-6f5f0c502bc3"},"vehicle_type_id":"4","last_reported":1746522681,"current_range_meters":25600,"station_id":"st_cvj6sg6p6f1abm77japg","pricing_plan_id":"cebpf4jnsgd1na2vs0mg"},{"bike_id":"e002a47f-314b-41d0-bbea-d0d6fe524d8c","system_id":"levelo_inurba_marseille","lat":43.29709,"lon":5.377,"is_reserved":false,"is_disabled":false,"rental_uris":{"android":"levelo://app?vid=e002a47f-314b-41d0-bbea-d0d6fe524d8c","ios":"levelo://app?vid=e002a47f-314b-41d0-bbea-d0d6fe524d8c"},"vehicle_type_id":"4","last_reported":1746522681,"current_range_meters":25600,"station_id":"ce4bgkh2rcd13ifvqbl0","pricing_plan_id":"cebpf4jnsgd1na2vs0mg"},{"bike_id":"89bf3090-06a0-40ec-9948-65ccc2508950","system_id":"levelo_inurba_marseille","lat":43.3091,"lon":5.3686,"is_reserved":false,"is_disabled":false,"rental_uris":{"android":"levelo://app?vid=89bf3090-06a0-40ec-9948-65ccc2508950","ios":"levelo://app?vid=89bf3090-06a0-40ec-9948-65ccc2508950"},"vehicle_type_id":"4","last_reported":1746522681,"current_range_meters":25600,"station_id":"ce4bgn92rcd13ifvqbvg","pricing_plan_id":"cebpf4jnsgd1na2vs0mg"},{"bike_id":"7ed6410e-c67a-4e73-925f-f8e358baee15","system_id":"levelo_inurba_marseille","lat":43.28661,"lon":5.36344,"is_reserved":false,"is_disabled":false,"rental_uris":{"android":"levelo://app?vid=7ed6410e-c67a-4e73-925f-f8e358baee15","ios":"levelo://app?vid=7ed6410e-c67a-4e73-925f-f8e358baee15"},"vehicle_type_id":"4","last_reported":1746522681,"current_range_meters":25600,"station_id":"ce4bhah2rcd13ifvqej0","pricing_plan_id":"cebpf4jnsgd1na2vs0mg"},{"bike_id":"75a9e5ab-7746-44ea-bbaa-f1f8f14ef1af","system_id":"levelo_inurba_marseille","lat":43.26208,"lon":5.37442,"is_reserved":false,"is_disabled":false,"rental_uris":{"android":"levelo://app?vid=75a9e5ab-7746-44ea-bbaa-f1f8f14ef1af","ios":"levelo://app?vid=75a9e5ab-7746-44ea-bbaa-f1f8f14ef1af"},"vehicle_type_id":"4","last_reported":1746522681,"current_range_meters":25600,"station_id":"ce4bhgp2rcd13ifvqfc0","pricing_plan_id":"cebpf4jnsgd1na2vs0mg"},{"bike_id":"88e4baa7-437f-4178-abe2-a4281ff1674f","system_id":"levelo_inurba_marseille","lat":43.30901,"lon":5.36852,"is_reserved":false,"is_disabled":false,"rental_uris":{"android":"levelo://app?vid=88e4baa7-437f-4178-abe2-a4281ff1674f","ios":"levelo://app?vid=88e4baa7-437f-4178-abe2-a4281ff1674f"},"vehicle_type_id":"4","last_reported":1746522681,"current_range_meters":25600,"station_id":"ce4bgn92rcd13ifvqbvg","pricing_plan_id":"cebpf4jnsgd1na2vs0mg"},{"bike_id":"4943aaff-c800-4e9a-bffe-aacef57a5114","system_id":"levelo_inurba_marseille","lat":43.21193,"lon":5.35071,"is_reserved":false,"is_disabled":false,"rental_uris":{"android":"levelo://app?vid=4943aaff-c800-4e9a-bffe-aacef57a5114","ios":"levelo://app?vid=4943aaff-c800-4e9a-bffe-aacef57a5114"},"vehicle_type_id":"4","last_reported":1746522681,"current_range_meters":26000,"station_id":"st_cvj6sg6p6f1abm77japg","pricing_plan_id":"cebpf4jnsgd1na2vs0mg"},{"bike_id":"12d98aff-e1ca-4f63-a298-78bbfc3a4eb5","system_id":"levelo_inurba_marseille","lat":43.28267,"lon":5.35055,"is_reserved":false,"is_disabled":false,"rental_uris":{"android":"levelo://app?vid=12d98aff-e1ca-4f63-a298-78bbfc3a4eb5","ios":"levelo://app?vid=12d98aff-e1ca-4f63-a298-78bbfc3a4eb5"},"vehicle_type_id":"4","last_reported":1746522681,"current_range_meters":26000,"station_id":"ce4bhbp2rcd13ifvqerg","pricing_plan_id":"cebpf4jnsgd1na2vs0mg"},{"bike_id":"bfc050d1-eeef-4714-aecb-02f1fa762520","system_id":"levelo_inurba_marseille","lat":43.27672,"lon":5.3892,"is_reserved":false,"is_disabled":false,"rental_uris":{"android":"levelo://app?vid=bfc050d1-eeef-4714-aecb-02f1fa762520","ios":"levelo://app?vid=bfc050d1-eeef-4714-aecb-02f1fa762520"},"vehicle_type_id":"4","last_reported":1746522681,"current_range_meters":26000,"station_id":"ce4bhi12rcd13ifvqfo0","pricing_plan_id":"cebpf4jnsgd1na2vs0mg"},{"bike_id":"89b4ceb5-3962-44ac-9ed3-2915ae66617f","system_id":"levelo_inurba_marseille","lat":43.29303,"lon":5.37175,"is_reserved":false,"is_disabled":false,"rental_uris":{"android":"levelo://app?vid=89b4ceb5-3962-44ac-9ed3-2915ae66617f","ios":"levelo://app?vid=89b4ceb5-3962-44ac-9ed3-2915ae66617f"},"vehicle_type_id":"4","last_reported":1746522681,"current_range_meters":26000,"station_id":"ce4bgh92rcd13ifvqb40","pricing_plan_id":"cebpf4jnsgd1na2vs0mg"},{"bike_id":"046efd26-c679-43ff-b4ad-1a0bbcfa26c5","system_id":"levelo_inurba_marseille","lat":43.27067,"lon":5.42278,"is_reserved":false,"is_disabled":false,"rental_uris":{"android":"levelo://app?vid=046efd26-c679-43ff-b4ad-1a0bbcfa26c5","ios":"levelo://app?vid=046efd26-c679-43ff-b4ad-1a0bbcfa26c5"},"vehicle_type_id":"4","last_reported":1746522681,"current_range_meters":26000,"station_id":"ce4bhk92rcd13ifvqgb0","pricing_plan_id":"cebpf4jnsgd1na2vs0mg"},{"bike_id":"4cf8a26a-de45-4006-8087-f0ddce299e92","system_id":"levelo_inurba_marseille","lat":43.29025,"lon":5.39963,"is_reserved":false,"is_disabled":false,"rental_uris":{"android":"levelo://app?vid=4cf8a26a-de45-4006-8087-f0ddce299e92","ios":"levelo://app?vid=4cf8a26a-de45-4006-8087-f0ddce299e92"},"vehicle_type_id":"4","last_reported":1746522681,"current_range_meters":26000,"station_id":"ce4bh392rcd13ifvqdm0","pricing_plan_id":"cebpf4jnsgd1na2vs0mg"},