{"last_updated":1776832684,"ttl":60,"version":"2.2","data":{"bikes":[{"bike_id":"a6864695-0d0e-432d-8e64-c534533bdb44","system_id":"levelo_inurba_marseille","lat":43.30157,"lon":5.38072,"is_reserved":false,"is_disabled":false,"rental_uris":{"android":"levelo://app?vid=a6864695-0d0e-432d-8e64-c534533bdb44","ios":"levelo://app?vid=a6864695-0d0e-432d-8e64-c534533bdb44"},"vehicle_type_id":"4","last_reported":1776832685,"current_range_meters":2800,"station_id":"ce4bgjp2rcd13ifvqbh0","pricing_plan_id":"cebpf4jnsgd1na2vs0mg"},{"bike_id":"03c1e16b-acd1-4c4f-9624-4c7e99a2af0b","system_id":"levelo_inurba_marseille","lat":43.26061,"lon":5.39386,"is_reserved":false,"is_disabled":false,"rental_uris":{"android":"levelo://app?vid=03c1e16b-acd1-4c4f-9624-4c7e99a2af0b","ios":"levelo://app?vid=03c1e16b-acd1-4c4f-9624-4c7e99a2af0b"},"vehicle_type_id":"4","last_reported":1776832685,"current_range_meters":2800,"station_id":"ce4bhh92rcd13ifvqfj0","pricing_plan_id":"cebpf4jnsgd1na2vs0mg"},{"bike_id":"428a3e1f-0c14-4644-9951-f64ac1c47a29","system_id":"levelo_inurba_marseille","lat":43.33556,"lon":5.37539,"is_reserved":false,"is_disabled":false,"rental_uris":{"android":"levelo://app?vid=428a3e1f-0c14-4644-9951-f64ac1c47a29","ios":"levelo://app?vid=428a3e1f-0c14-4644-9951-f64ac1c47a29"},"vehicle_type_id":"4","last_reported":1776832685,"current_range_meters":2800,"station_id":"st_d46tts09ee8s73dlu43g","pricing_plan_id":"cebpf4jnsgd1na2vs0mg"},{"bike_id":"65c36df8-a7fe-4010-8370-f48b0c45f206","system_id":"levelo_inurba_marseille","lat":43.33545,"lon":5.37459,"is_reserved":false,"is_disabled":false,"rental_uris":{"android":"levelo://app?vid=65c36df8-a7fe-4010-8370-f48b0c45f206","ios":"levelo://app?vid=65c36df8-a7fe-4010-8370-f48b0c45f206"},"vehicle_type_id":"4","last_reported":1776832685,"current_range_meters":2800,"station_id":"st_d46tts09ee8s73dlu43g","pricing_plan_id":"cebpf4jnsgd1na2vs0mg"},{"bike_id":"61a9ea0b-3a34-43ab-a17d-475ae0f7cff0","system_id":"levelo_inurba_marseille","lat":43.23141,"lon":5.43685,"is_reserved":false,"is_disabled":false,"rental_uris":{"android":"levelo://app?vid=61a9ea0b-3a34-43ab-a17d-475ae0f7cff0","ios":"levelo://app?vid=61a9ea0b-3a34-43ab-a17d-475ae0f7cff0"},"vehicle_type_id":"4","last_reported":1776832685,"current_range_meters":2800,"station_id":"ce4bhmp2rcd13ifvqgog","pricing_plan_id":"cebpf4jnsgd1na2vs0mg"},{"bike_id":"2b91d518-5095-4415-99e4-124095a25fff","system_id":"levelo_inurba_marseille","lat":43.33692,"lon":5.39839,"is_reserved":false,"is_disabled":false,"rental_uris":{"android":"levelo://app?vid=2b91d518-5095-4415-99e4-124095a25fff","ios":"levelo://app?vid=2b91d518-5095-4415-99e4-124095a25fff"},"vehicle_type_id":"4","last_reported":1776832685,"current_range_meters":2800,"station_id":"","pricing_plan_id":"cebpf4jnsgd1na2vs0mg"},{"bike_id":"21298c5a-eda3-4af3-a524-0558894f8b98","system_id":"levelo_inurba_marseille","lat":43.30371,"lon":5.4731,"is_reserved":false,"is_disabled":false,"rental_uris":{"android":"levelo://app?vid=21298c5a-eda3-4af3-a524-0558894f8b98","ios":"levelo://app?vid=21298c5a-eda3-4af3-a524-0558894f8b98"},"vehicle_type_id":"4","last_reported":1776832685,"current_range_meters":2800,"station_id":"","pricing_plan_id":"cebpf4jnsgd1na2vs0mg"},{"bike_id":"b785f7ea-cfcc-407f-b48a-6739a001a77c","system_id":"levelo_inurba_marseille","lat":43.33229,"lon":5.37646,"is_reserved":false,"is_disabled":false,"rental_uris":{"android":"levelo://app?vid=b785f7ea-cfcc-407f-b48a-6739a001a77c","ios":"levelo://app?vid=b785f7ea-cfcc-407f-b48a-6739a001a77c"},"vehicle_type_id":"4","last_reported":1776832685,"current_range_meters":3200,"station_id":"","pricing_plan_id":"cebpf4jnsgd1na2vs0mg"},{"bike_id":"be5348a3-1499-4f44-9d7a-d050ef9268e8","system_id":"levelo_inurba_marseille","lat":43.32699,"lon":5.38328,"is_reserved":false,"is_disabled":false,"rental_uris":{"android":"levelo://app?vid=be5348a3-1499-4f44-9d7a-d050ef9268e8","ios":"levelo://app?vid=be5348a3-1499-4f44-9d7a-d050ef9268e8"},"vehicle_type_id":"4","last_reported":1776832685,"current_range_meters":3200,"station_id":"","pricing_plan_id":"cebpf4jnsgd1na2vs0mg"},{"bike_id":"2923d899-e487-4cd1-8eb4-a2f0428efa22","system_id":"levelo_inurba_marseille","lat":43.33139,"lon":5.37697,"is_reserved":false,"is_disabled":false,"rental_uris":{"android":"levelo://app?vid=2923d899-e487-4cd1-8eb4-a2f0428efa22","ios":"levelo://app?vid=2923d899-e487-4cd1-8eb4-a2f0428efa22"},"vehicle_type_id":"4","last_reported":1776832685,"current_range_meters":3200,"station_id":"st_d46cu089ee8s73dldbu0","pricing_plan_id":"cebpf4jnsgd1na2vs0mg"},{"bike_id":"6115ea93-f36b-4933-8d3b-76d3754fa534","system_id":"levelo_inurba_marseille","lat":43.24075,"lon":5.37755,"is_reserved":false,"is_disabled":false,"rental_uris":{"android":"levelo://app?vid=6115ea93-f36b-4933-8d3b-76d3754fa534","ios":"levelo://app?vid=6115ea93-f36b-4933-8d3b-76d3754fa534"},"vehicle_type_id":"4","last_reported":1776832685,"current_range_meters":3200,"station_id":"ce4bhnp2rcd13ifvqgvg","pricing_plan_id":"cebpf4jnsgd1na2vs0mg"},{"bike_id":"58ed09d9-0aa1-471f-818a-54c432b83970","system_id":"levelo_inurba_marseille","lat":43.26612,"lon":5.42824,"is_reserved":false,"is_disabled":false,"rental_uris":{"android":"levelo://app?vid=58ed09d9-0aa1-471f-818a-54c432b83970","ios":"levelo://app?vid=58ed09d9-0aa1-471f-818a-54c432b83970"},"vehicle_type_id":"4","last_reported":1776832685,"current_range_meters":3600,"station_id":"","pricing_plan_id":"cebpf4jnsgd1na2vs0mg"},{"bike_id":"8f50b2d6-251d-42ad-b342-f2749fed0e40","system_id":"levelo_inurba_marseille","lat":43.29295,"lon":5.40092,"is_reserved":false,"is_disabled":false,"rental_uris":{"android":"levelo://app?vid=8f50b2d6-251d-42ad-b342-f2749fed0e40","ios":"levelo://app?vid=8f50b2d6-251d-42ad-b342-f2749fed0e40"},"vehicle_type_id":"4","last_reported":1776832685,"current_range_meters":3600,"station_id":"ce4bh312rcd13ifvqdk0","pricing_plan_id":"cebpf4jnsgd1na2vs0mg"},{"bike_id":"38b58c0a-3886-4b2b-b837-f07808f89275","system_id":"levelo_inurba_marseille","lat":43.30661,"lon":5.40087,"is_reserved":false,"is_disabled":false,"rental_uris":{"android":"levelo://app?vid=38b58c0a-3886-4b2b-b837-f07808f89275","ios":"levelo://app?vid=38b58c0a-3886-4b2b-b837-f07808f89275"},"vehicle_type_id":"4","last_reported":1776832685,"current_range_meters":3600,"station_id":"ce4bh112rcd13ifvqda0","pricing_plan_id":"cebpf4jnsgd1na2vs0mg"},{"bike_id":"ae3cdbc1-046c-42e5-b909-29c9e0bcb254","system_id":"levelo_inurba_marseille","lat":43.33167,"lon":5.37695,"is_reserved":false,"is_disabled":false,"rental_uris":{"android":"levelo://app?vid=ae3cdbc1-046c-42e5-b909-29c9e0bcb254","ios":"levelo://app?vid=ae3cdbc1-046c-42e5-b909-29c9e0bcb254"},"vehicle_type_id":"4","last_reported":1776832685,"current_range_meters":3600,"station_id":"st_d46cu089ee8s73dldbu0","pricing_plan_id":"cebpf4jnsgd1na2vs0mg"},{"bike_id":"dcd5e660-ed5f-40d3-b14d-73d697ebb6e8","system_id":"levelo_inurba_marseille","lat":43.21761,"lon":5.34614,"is_reserved":false,"is_disabled":false,"rental_uris":{"android":"levelo://app?vid=dcd5e660-ed5f-40d3-b14d-73d697ebb6e8","ios":"levelo://app?vid=dcd5e660-ed5f-40d3-b14d-73d697ebb6e8"},"vehicle_type_id":"4","last_reported":1776832685,"current_range_meters":3600,"station_id":"st_cvj6r9ubvosntc0bgbag","pricing_plan_id":"cebpf4jnsgd1na2vs0mg"},{"bike_id":"bb1c4c2b-c3ea-448f-8049-8fa792f834ce","system_id":"levelo_inurba_marseille","lat":43.24949,"lon":5.40487,"is_reserved":false,"is_disabled":false,"rental_uris":{"android":"levelo://app?vid=bb1c4c2b-c3ea-448f-8049-8fa792f834ce","ios":"levelo://app?vid=bb1c4c2b-c3ea-448f-8049-8fa792f834ce"},"vehicle_type_id":"4","last_reported":1776832685,"current_range_meters":3600,"station_id":"st_d2ngiaodas8pm72gd1h0","pricing_plan_id":"cebpf4jnsgd1na2vs0mg"},{"bike_id":"377e474f-c237-483e-b0c8-ff00e3d0a440","system_id":"levelo_inurba_marseille","lat":43.25073,"lon":5.39514,"is_reserved":false,"is_disabled":false,"rental_uris":{"android":"levelo://app?vid=377e474f-c237-483e-b0c8-ff00e3d0a440","ios":"levelo://app?vid=377e474f-c237-483e-b0c8-ff00e3d0a440"},"vehicle_type_id":"4","last_reported":1776832685,"current_range_meters":3600,"station_id":"ce4bhm12rcd13ifvqgkg","pricing_plan_id":"cebpf4jnsgd1na2vs0mg"},{"bike_id":"624daf69-f815-4f9b-8f7c-0a5468b5d0f6","system_id":"levelo_inurba_marseille","lat":43.26195,"lon":5.37046,"is_reserved":false,"is_disabled":false,"rental_uris":{"android":"levelo://app?vid=624daf69-f815-4f9b-8f7c-0a5468b5d0f6","ios":"levelo://app?vid=624daf69-f815-4f9b-8f7c-0a5468b5d0f6"},"vehicle_type_id":"4","last_reported":1776832685,"current_range_meters":3600,"station_id":"","pricing_plan_id":"cebpf4jnsgd1na2vs0mg"},{"bike_id":"4ce41ab3-19d6-4e46-bfe8-cee9970f8b6a","system_id":"levelo_inurba_marseille","lat":43.30153,"lon":5.3808,"is_reserved":false,"is_disabled":false,"rental_uris":{"android":"levelo://app?vid=4ce41ab3-19d6-4e46-bfe8-cee9970f8b6a","ios":"levelo://app?vid=4ce41ab3-19d6-4e46-bfe8-cee9970f8b6a"},"vehicle_type_id":"4","last_reported":1776832685,"current_range_meters":4000,"station_id":"ce4bgjp2rcd13ifvqbh0","pricing_plan_id":"cebpf4jnsgd1na2vs0mg"},{"bike_id":"890dfd9a-7f58-4745-bac3-1643366dfead","system_id":"levelo_inurba_marseille","lat":43.33757,"lon":5.37464,"is_reserved":false,"is_disabled":false,"rental_uris":{"android":"levelo://app?vid=890dfd9a-7f58-4745-bac3-1643366dfead","ios":"levelo://app?vid=890dfd9a-7f58-4745-bac3-1643366dfead"},"vehicle_type_id":"4","last_reported":1776832685,"current_range_meters":4000,"station_id":"","pricing_plan_id":"cebpf4jnsgd1na2vs0mg"},{"bike_id":"55b9e363-aef1-4e55-a55c-7c19ee416703","system_id":"levelo_inurba_marseille","lat":43.31852,"lon":5.37288,"is_reserved":false,"is_disabled":false,"rental_uris":{"android":"levelo://app?vid=55b9e363-aef1-4e55-a55c-7c19ee416703","ios":"levelo://app?vid=55b9e363-aef1-4e55-a55c-7c19ee416703"},"vehicle_type_id":"4","last_reported":1776832685,"current_range_meters":4000,"station_id":"","pricing_plan_id":"cebpf4jnsgd1na2vs0mg"},{"bike_id":"00db9f9d-ec59-40e4-b9b3-0656fbc37813","system_id":"levelo_inurba_marseille","lat":43.231785,"lon":5.399832,"is_reserved":false,"is_disabled":false,"rental_uris":{"android":"levelo://app?vid=00db9f9d-ec59-40e4-b9b3-0656fbc37813","ios":"levelo://app?vid=00db9f9d-ec59-40e4-b9b3-0656fbc37813"},"vehicle_type_id":"4","last_reported":1776832685,"current_range_meters":4000,"station_id":"ce4bhn12rcd13ifvqgqg","pricing_plan_id":"cebpf4jnsgd1na2vs0mg"},{"bike_id":"afee0c52-b399-4a99-91a6-a18ddd90da9e","system_id":"levelo_inurba_marseille","lat":43.23966,"lon":5.36625,"is_reserved":false,"is_disabled":false,"rental_uris":{"android":"levelo://app?vid=afee0c52-b399-4a99-91a6-a18ddd90da9e","ios":"levelo://app?vid=afee0c52-b399-4a99-91a6-a18ddd90da9e"},"vehicle_type_id":"4","last_reported":1776832685,"current_range_meters":4000,"station_id":"ce4bhi12rcd13ifvqfp0","pricing_plan_id":"cebpf4jnsgd1na2vs0mg"},{"bike_id":"aa25c75a-2717-4df3-9ec1-4da06a40c54e","system_id":"levelo_inurba_marseille","lat":43.31155,"lon":5.38733,"is_reserved":false,"is_disabled":false,"rental_uris":{"android":"levelo://app?vid=aa25c75a-2717-4df3-9ec1-4da06a40c54e","ios":"levelo://app?vid=aa25c75a-2717-4df3-9ec1-4da06a40c54e"},"vehicle_type_id":"4","last_reported":1776832685,"current_range_meters":4000,"station_id":"ce4bgv12rcd13ifvqcp0","pricing_plan_id":"cebpf4jnsgd1na2vs0mg"},{"bike_id":"c224c9cf-d497-4bf6-82cd-eee25423f927","system_id":"levelo_inurba_marseille","lat":43.29703,"lon":5.3728,"is_reserved":false,"is_disabled":true,"rental_uris":{"android":"levelo://app?vid=c224c9cf-d497-4bf6-82cd-eee25423f927","ios":"levelo://app?vid=c224c9cf-d497-4bf6-82cd-eee25423f927"},"vehicle_type_id":"4","last_reported":1776832685,"current_range_meters":4000,"station_id":"ce4bgk12rcd13ifvqbj0","pricing_plan_id":"cebpf4jnsgd1na2vs0mg"},{"bike_id":"b3f369fb-312d-402c-bd33-b2318bd78450","system_id":"levelo_inurba_marseille","lat":43.26694,"lon":5.3827,"is_reserved":false,"is_disabled":false,"rental_uris":{"android":"levelo://app?vid=b3f369fb-312d-402c-bd33-b2318bd78450","ios":"levelo://app?vid=b3f369fb-312d-402c-bd33-b2318bd78450"},"vehicle_type_id":"4","last_reported":1776832685,"current_range_meters":4000,"station_id":"ce4bhg92rcd13ifvqf90","pricing_plan_id":"cebpf4jnsgd1na2vs0mg"},{"bike_id":"4065c284-7b54-43b3-b479-8dd87706670a","system_id":"levelo_inurba_marseille","lat":43.31874,"lon":5.36777,"is_reserved":false,"is_disabled":false,"rental_uris":{"android":"levelo://app?vid=4065c284-7b54-43b3-b479-8dd87706670a","ios":"levelo://app?vid=4065c284-7b54-43b3-b479-8dd87706670a"},"vehicle_type_id":"4","last_reported":1776832685,"current_range_meters":4400,"station_id":"st_d6o2h0d0559c73evc1b0","pricing_plan_id":"cebpf4jnsgd1na2vs0mg"},{"bike_id":"1bcf353f-b495-4deb-9190-fb2399df9c0c","system_id":"levelo_inurba_marseille","lat":43.28478,"lon":5.35883,"is_reserved":false,"is_disabled":false,"rental_uris":{"android":"levelo://app?vid=1bcf353f-b495-4deb-9190-fb2399df9c0c","ios":"levelo://app?vid=1bcf353f-b495-4deb-9190-fb2399df9c0c"},"vehicle_type_id":"4","last_reported":1776832685,"current_range_meters":4400,"station_id":"ce4bhah2rcd13ifvqei0","pricing_plan_id":"cebpf4jnsgd1na2vs0mg"},{"bike_id":"2bf658ef-a912-4563-9f63-3110eb25e849","system_id":"levelo_inurba_marseille","lat":43.29721,"lon":5.35988,"is_reserved":false,"is_disabled":false,"rental_uris":{"android":"levelo://app?vid=2bf658ef-a912-4563-9f63-3110eb25e849","ios":"levelo://app?vid=2bf658ef-a912-4563-9f63-3110eb25e849"},"vehicle_type_id":"4","last_reported":1776832685,"current_range_meters":4400,"station_id":"","pricing_plan_id":"cebpf4jnsgd1na2vs0mg"},{"bike_id":"edeeb8a0-d7b8-4928-9681-2ccb6d2999e5","system_id":"levelo_inurba_marseille","lat":43.29445,"lon":5.39763,"is_reserved":false,"is_disabled":false,"rental_uris":{"android":"levelo://app?vid=edeeb8a0-d7b8-4928-9681-2ccb6d2999e5","ios":"levelo://app?vid=edeeb8a0-d7b8-4928-9681-2ccb6d2999e5"},"vehicle_type_id":"4","last_reported":1776832685,"current_range_meters":4400,"station_id":"ce4bh3h2rcd13ifvqdo0","pricing_plan_id":"cebpf4jnsgd1na2vs0mg"},{"bike_id":"93ebf785-3499-42cb-9d8c-bfedd972e688","system_id":"levelo_inurba_marseille","lat":43.2957,"lon":5.39967,"is_reserved":false,"is_disabled":false,"rental_uris":{"android":"levelo://app?vid=93ebf785-3499-42cb-9d8c-bfedd972e688","ios":"levelo://app?vid=93ebf785-3499-42cb-9d8c-bfedd972e688"},"vehicle_type_id":"4","last_reported":1776832685,"current_range_meters":4400,"station_id":"ce4bh312rcd13ifvqdj0","pricing_plan_id":"cebpf4jnsgd1na2vs0mg"},{"bike_id":"39e8586f-e71e-475c-ab43-1aae034f493d","system_id":"levelo_inurba_marseille","lat":43.29225,"lon":5.39316,"is_reserved":false,"is_disabled":false,"rental_uris":{"android":"levelo://app?vid=39e8586f-e71e-475c-ab43-1aae034f493d","ios":"levelo://app?vid=39e8586f-e71e-475c-ab43-1aae034f493d"},"vehicle_type_id":"4","last_reported":1776832685,"current_range_meters":4400,"station_id":"ce4bh192rcd13ifvqdd0","pricing_plan_id":"cebpf4jnsgd1na2vs0mg"},{"bike_id":"7278eae4-9ede-4ee2-afa4-5aef54634e43","system_id":"levelo_inurba_marseille","lat":43.31386,"lon":5.38612,"is_reserved":false,"is_disabled":false,"rental_uris":{"android":"levelo://app?vid=7278eae4-9ede-4ee2-afa4-5aef54634e43","ios":"levelo://app?vid=7278eae4-9ede-4ee2-afa4-5aef54634e43"},"vehicle_type_id":"4","last_reported":1776832685,"current_range_meters":4400,"station_id":"","pricing_plan_id":"cebpf4jnsgd1na2vs0mg"},{"bike_id":"e9c1c731-1912-4153-abf3-120b800b8c67","system_id":"levelo_inurba_marseille","lat":43.2721,"lon":5.39189,"is_reserved":false,"is_disabled":true,"rental_uris":{"android":"levelo://app?vid=e9c1c731-1912-4153-abf3-120b800b8c67","ios":"levelo://app?vid=e9c1c731-1912-4153-abf3-120b800b8c67"},"vehicle_type_id":"4","last_reported":1776832685,"current_range_meters":4400,"station_id":"ce4bhhp2rcd13ifvqfm0","pricing_plan_id":"cebpf4jnsgd1na2vs0mg"},{"bike_id":"fec54d59-47d4-4ddb-8655-648e0f95cb70","system_id":"levelo_inurba_marseille","lat":43.23202,"lon":5.35555,"is_reserved":false,"is_disabled":false,"rental_uris":{"android":"levelo://app?vid=fec54d59-47d4-4ddb-8655-648e0f95cb70","ios":"levelo://app?vid=fec54d59-47d4-4ddb-8655-648e0f95cb70"},"vehicle_type_id":"4","last_reported":1776832685,"current_range_meters":4400,"station_id":"ce4bhu92rcd13ifvqi70","pricing_plan_id":"cebpf4jnsgd1na2vs0mg"},{"bike_id":"6789fc0c-a05e-4460-85af-c009ed251a42","system_id":"levelo_inurba_marseille","lat":43.26961,"lon":5.38654,"is_reserved":false,"is_disabled":false,"rental_uris":{"android":"levelo://app?vid=6789fc0c-a05e-4460-85af-c009ed251a42","ios":"levelo://app?vid=6789fc0c-a05e-4460-85af-c009ed251a42"},"vehicle_type_id":"4","last_reported":1776832685,"current_range_meters":4400,"station_id":"ce4bhh92rcd13ifvqfh0","pricing_plan_id":"cebpf4jnsgd1na2vs0mg"},{"bike_id":"38a0c1fe-c793-4677-abc9-44884653b8c5","system_id":"levelo_inurba_marseille","lat":43.29593,"lon":5.37776,"is_reserved":false,"is_disabled":false,"rental_uris":{"android":"levelo://app?vid=38a0c1fe-c793-4677-abc9-44884653b8c5","ios":"levelo://app?vid=38a0c1fe-c793-4677-abc9-44884653b8c5"},"vehicle_type_id":"4","last_reported":1776832685,"current_range_meters":4800,"station_id":"","pricing_plan_id":"cebpf4jnsgd1na2vs0mg"},{"bike_id":"147ebe04-bf5f-4d97-a8ae-b04adf3d5699","system_id":"levelo_inurba_marseille","lat":43.29534,"lon":5.39019,"is_reserved":false,"is_disabled":false,"rental_uris":{"android":"levelo://app?vid=147ebe04-bf5f-4d97-a8ae-b04adf3d5699","ios":"levelo://app?vid=147ebe04-bf5f-4d97-a8ae-b04adf3d5699"},"vehicle_type_id":"4","last_reported":1776832685,"current_range_meters":4800,"station_id":"ce4bh3p2rcd13ifvqdp0","pricing_plan_id":"cebpf4jnsgd1na2vs0mg"},{"bike_id":"edb5b9b4-45e1-4ea4-ad8f-fbd3920374e9","system_id":"levelo_inurba_marseille","lat":43.31188,"lon":5.38699,"is_reserved":false,"is_disabled":false,"rental_uris":{"android":"levelo://app?vid=edb5b9b4-45e1-4ea4-ad8f-fbd3920374e9","ios":"levelo://app?vid=edb5b9b4-45e1-4ea4-ad8f-fbd3920374e9"},"vehicle_type_id":"4","last_reported":1776832685,"current_range_meters":4800,"station_id":"ce4bgv12rcd13ifvqcp0","pricing_plan_id":"cebpf4jnsgd1na2vs0mg"},{"bike_id":"6e6319f8-011e-46ab-93f1-a9f257e71b2a","system_id":"levelo_inurba_marseille","lat":43.29651,"lon":5.3664,"is_reserved":false,"is_disabled":false,"rental_uris":{"android":"levelo://app?vid=6e6319f8-011e-46ab-93f1-a9f257e71b2a","ios":"levelo://app?vid=6e6319f8-011e-46ab-93f1-a9f257e71b2a"},"vehicle_type_id":"4","last_reported":1776832685,"current_range_meters":4800,"station_id":"","pricing_plan_id":"cebpf4jnsgd1na2vs0mg"},{"bike_id":"14290775-1809-431a-89de-994574cdc895","system_id":"levelo_inurba_marseille","lat":43.27583,"lon":5.38651,"is_reserved":false,"is_disabled":false,"rental_uris":{"android":"levelo://app?vid=14290775-1809-431a-89de-994574cdc895","ios":"levelo://app?vid=14290775-1809-431a-89de-994574cdc895"},"vehicle_type_id":"4","last_reported":1776832685,"current_range_meters":4800,"station_id":"","pricing_plan_id":"cebpf4jnsgd1na2vs0mg"},{"bike_id":"2224c961-bce6-4c33-966e-f3361d1b2ab2","system_id":"levelo_inurba_marseille","lat":43.27442,"lon":5.4157,"is_reserved":false,"is_disabled":false,"rental_uris":{"android":"levelo://app?vid=2224c961-bce6-4c33-966e-f3361d1b2ab2","ios":"levelo://app?vid=2224c961-bce6-4c33-966e-f3361d1b2ab2"},"vehicle_type_id":"4","last_reported":1776832685,"current_range_meters":4800,"station_id":"st_d6im8g6chgec73a5pndg","pricing_plan_id":"cebpf4jnsgd1na2vs0mg"},{"bike_id":"ba8fabc8-ed48-44b0-a4fd-679e9492279f","system_id":"levelo_inurba_marseille","lat":43.30882,"lon":5.37199,"is_reserved":false,"is_disabled":false,"rental_uris":{"android":"levelo://app?vid=ba8fabc8-ed48-44b0-a4fd-679e9492279f","ios":"levelo://app?vid=ba8fabc8-ed48-44b0-a4fd-679e9492279f"},"vehicle_type_id":"4","last_reported":1776832685,"current_range_meters":4800,"station_id":"ce4bguh2rcd13ifvqckg","pricing_plan_id":"cebpf4jnsgd1na2vs0mg"},{"bike_id":"f9e36f38-ef4d-44c9-9f31-a0f8b13d14ba","system_id":"levelo_inurba_marseille","lat":43.33154,"lon":5.37714,"is_reserved":false,"is_disabled":false,"rental_uris":{"android":"levelo://app?vid=f9e36f38-ef4d-44c9-9f31-a0f8b13d14ba","ios":"levelo://app?vid=f9e36f38-ef4d-44c9-9f31-a0f8b13d14ba"},"vehicle_type_id":"4","last_reported":1776832685,"current_range_meters":4800,"station_id":"st_d46cu089ee8s73dldbu0","pricing_plan_id":"cebpf4jnsgd1na2vs0mg"},{"bike_id":"b1faa14f-dd5e-48d0-afbd-09156c1ce8ef","system_id":"levelo_inurba_marseille","lat":43.27904,"lon":5.38003,"is_reserved":false,"is_disabled":false,"rental_uris":{"android":"levelo://app?vid=b1faa14f-dd5e-48d0-afbd-09156c1ce8ef","ios":"levelo://app?vid=b1faa14f-dd5e-48d0-afbd-09156c1ce8ef"},"vehicle_type_id":"4","last_reported":1776832685,"current_range_meters":4800,"station_id":"ce4bhf92rcd13ifvqf50","pricing_plan_id":"cebpf4jnsgd1na2vs0mg"},{"bike_id":"1fd10be9-0a9a-46a4-9d74-69cc8527ad5b","system_id":"levelo_inurba_marseille","lat":43.2848,"lon":5.484,"is_reserved":false,"is_disabled":false,"rental_uris":{"android":"levelo://app?vid=1fd10be9-0a9a-46a4-9d74-69cc8527ad5b","ios":"levelo://app?vid=1fd10be9-0a9a-46a4-9d74-69cc8527ad5b"},"vehicle_type_id":"4","last_reported":1776832685,"current_range_meters":5600,"station_id":"","pricing_plan_id":"cebpf4jnsgd1na2vs0mg"},{"bike_id":"357c8a3f-22a7-437b-9400-0efde2fb9a38","system_id":"levelo_inurba_marseille","lat":43.27073,"lon":5.4229,"is_reserved":false,"is_disabled":false,"rental_uris":{"android":"levelo://app?vid=357c8a3f-22a7-437b-9400-0efde2fb9a38","ios":"levelo://app?vid=357c8a3f-22a7-437b-9400-0efde2fb9a38"},"vehicle_type_id":"4","last_reported":1776832685,"current_range_meters":5600,"station_id":"ce4bhk92rcd13ifvqgb0","pricing_plan_id":"cebpf4jnsgd1na2vs0mg"},{"bike_id":"afe6c9ff-8c7f-40d2-96bc-86354113b443","system_id":"levelo_inurba_marseille","lat":43.28449,"lon":5.48406,"is_reserved":false,"is_disabled":false,"rental_uris":{"android":"levelo://app?vid=afe6c9ff-8c7f-40d2-96bc-86354113b443","ios":"levelo://app?vid=afe6c9ff-8c7f-40d2-96bc-86354113b443"},"vehicle_type_id":"4","last_reported":1776832685,"current_range_meters":5600,"station_id":"","pricing_plan_id":"cebpf4jnsgd1na2vs0mg"},{"bike_id":"45b29ce7-5ba9-4158-900f-5a99e371a411","system_id":"levelo_inurba_marseille","lat":43.30952,"lon":5.39027,"is_reserved":false,"is_disabled":false,"rental_uris":{"android":"levelo://app?vid=45b29ce7-5ba9-4158-900f-5a99e371a411","ios":"levelo://app?vid=45b29ce7-5ba9-4158-900f-5a99e371a411"},"vehicle_type_id":"4","last_reported":1776832685,"current_range_meters":5600,"station_id":"ce4bgup2rcd13ifvqco0","pricing_plan_id":"cebpf4jnsgd1na2vs0mg"},{"bike_id":"2d40a836-133e-4df4-8e94-64278280c4e2","system_id":"levelo_inurba_marseille","lat":43.2848,"lon":5.4839,"is_reserved":false,"is_disabled":false,"rental_uris":{"android":"levelo://app?vid=2d40a836-133e-4df4-8e94-64278280c4e2","ios":"levelo://app?vid=2d40a836-133e-4df4-8e94-64278280c4e2"},"vehicle_type_id":"4","last_reported":1776832685,"current_range_meters":5600,"station_id":"","pricing_plan_id":"cebpf4jnsgd1na2vs0mg"},{"bike_id":"2372ff5c-b340-4c5f-8531-5cd2273c37fc","system_id":"levelo_inurba_marseille","lat":43.29872,"lon":5.38918,"is_reserved":false,"is_disabled":false,"rental_uris":{"android":"levelo://app?vid=2372ff5c-b340-4c5f-8531-5cd2273c37fc","ios":"levelo://app?vid=2372ff5c-b340-4c5f-8531-5cd2273c37fc"},"vehicle_type_id":"4","last_reported":1776832685,"current_range_meters":5600,"station_id":"ce4bh392rcd13ifvqdl0","pricing_plan_id":"cebpf4jnsgd1na2vs0mg"},{"bike_id":"17a218ae-0cbc-4023-80f0-9ffddf1324e3","system_id":"levelo_inurba_marseille","lat":43.260356,"lon":5.397998,"is_reserved":false,"is_disabled":false,"rental_uris":{"android":"levelo://app?vid=17a218ae-0cbc-4023-80f0-9ffddf1324e3","ios":"levelo://app?vid=17a218ae-0cbc-4023-80f0-9ffddf1324e3"},"vehicle_type_id":"4","last_reported":1776832685,"current_range_meters":6000,"station_id":"","pricing_plan_id":"cebpf4jnsgd1na2vs0mg"},{"bike_id":"415e0658-223c-4fe0-abd1-f3287f2893c2","system_id":"levelo_inurba_marseille","lat":43.31913,"lon":5.36812,"is_reserved":false,"is_disabled":false,"rental_uris":{"android":"levelo://app?vid=415e0658-223c-4fe0-abd1-f3287f2893c2","ios":"levelo://app?vid=415e0658-223c-4fe0-abd1-f3287f2893c2"},"vehicle_type_id":"4","last_reported":1776832685,"current_range_meters":6000,"station_id":"st_d6o2h0d0559c73evc1b0","pricing_plan_id":"cebpf4jnsgd1na2vs0mg"},{"bike_id":"d420143e-37e9-4bbd-a3bb-322c4c4ad02e","system_id":"levelo_inurba_marseille","lat":43.2795,"lon":5.38705,"is_reserved":false,"is_disabled":false,"rental_uris":{"android":"levelo://app?vid=d420143e-37e9-4bbd-a3bb-322c4c4ad02e","ios":"levelo://app?vid=d420143e-37e9-4bbd-a3bb-322c4c4ad02e"},"vehicle_type_id":"4","last_reported":1776832685,"current_range_meters":6000,"station_id":"ce4bhg12rcd13ifvqf80","pricing_plan_id":"cebpf4jnsgd1na2vs0mg"},{"bike_id":"fa67c282-4320-4694-9944-d25f35222a9c","system_id":"levelo_inurba_marseille","lat":43.30881,"lon":5.37196,"is_reserved":false,"is_disabled":false,"rental_uris":{"android":"levelo://app?vid=fa67c282-4320-4694-9944-d25f35222a9c","ios":"levelo://app?vid=fa67c282-4320-4694-9944-d25f35222a9c"},"vehicle_type_id":"4","last_reported":1776832685,"current_range_meters":6000,"station_id":"ce4bguh2rcd13ifvqckg","pricing_plan_id":"cebpf4jnsgd1na2vs0mg"},{"bike_id":"04d9f990-ead5-466c-adb0-472dbaea3d8d","system_id":"levelo_inurba_marseille","lat":43.26809,"lon":5.40261,"is_reserved":false,"is_disabled":false,"rental_uris":{"android":"levelo://app?vid=04d9f990-ead5-466c-adb0-472dbaea3d8d","ios":"levelo://app?vid=04d9f990-ead5-466c-adb0-472dbaea3d8d"},"vehicle_type_id":"4","last_reported":1776832685,"current_range_meters":6000,"station_id":"ce501612rcd8frsf0b60","pricing_plan_id":"cebpf4jnsgd1na2vs0mg"},{"bike_id":"65e45c12-87d5-4317-974f-69f1aef0f736","system_id":"levelo_inurba_marseille","lat":43.29916,"lon":5.3655,"is_reserved":false,"is_disabled":false,"rental_uris":{"android":"levelo://app?vid=65e45c12-87d5-4317-974f-69f1aef0f736","ios":"levelo://app?vid=65e45c12-87d5-4317-974f-69f1aef0f736"},"vehicle_type_id":"4","last_reported":1776832685,"current_range_meters":6000,"station_id":"ce4bgm92rcd13ifvqbr0","pricing_plan_id":"cebpf4jnsgd1na2vs0mg"},{"bike_id":"ef91534f-0d0e-4809-9a35-4375555ab2b5","system_id":"levelo_inurba_marseille","lat":43.31895,"lon":5.36767,"is_reserved":false,"is_disabled":false,"rental_uris":{"android":"levelo://app?vid=ef91534f-0d0e-4809-9a35-4375555ab2b5","ios":"levelo://app?vid=ef91534f-0d0e-4809-9a35-4375555ab2b5"},"vehicle_type_id":"4","last_reported":1776832685,"current_range_meters":6000,"station_id":"st_d6o2h0d0559c73evc1b0","pricing_plan_id":"cebpf4jnsgd1na2vs0mg"},{"bike_id":"4dd90c3a-c53a-454b-ad3a-8e2561f63203","system_id":"levelo_inurba_marseille","lat":43.312301,"lon":5.36869,"is_reserved":false,"is_disabled":false,"rental_uris":{"android":"levelo://app?vid=4dd90c3a-c53a-454b-ad3a-8e2561f63203","ios":"levelo://app?vid=4dd90c3a-c53a-454b-ad3a-8e2561f63203"},"vehicle_type_id":"4","last_reported":1776832685,"current_range_meters":6000,"station_id":"","pricing_plan_id":"cebpf4jnsgd1na2vs0mg"},{"bike_id":"7dd35ff4-45e4-4dd9-8cfd-243db1db3d69","system_id":"levelo_inurba_marseille","lat":43.30115,"lon":5.43138,"is_reserved":false,"is_disabled":false,"rental_uris":{"android":"levelo://app?vid=7dd35ff4-45e4-4dd9-8cfd-243db1db3d69","ios":"levelo://app?vid=7dd35ff4-45e4-4dd9-8cfd-243db1db3d69"},"vehicle_type_id":"4","last_reported":1776832685,"current_range_meters":6000,"station_id":"st_d3js3co5814s73ftftug","pricing_plan_id":"cebpf4jnsgd1na2vs0mg"},{"bike_id":"09ea11d0-26bd-41be-9a4c-41f495e0bb06","system_id":"levelo_inurba_marseille","lat":43.30941,"lon":5.40181,"is_reserved":false,"is_disabled":false,"rental_uris":{"android":"levelo://app?vid=09ea11d0-26bd-41be-9a4c-41f495e0bb06","ios":"levelo://app?vid=09ea11d0-26bd-41be-9a4c-41f495e0bb06"},"vehicle_type_id":"4","last_reported":1776832685,"current_range_meters":6000,"station_id":"ce4bgvp2rcd13ifvqct0","pricing_plan_id":"cebpf4jnsgd1na2vs0mg"},{"bike_id":"53398df8-835b-4ed2-bf08-039bd71fda25","system_id":"levelo_inurba_marseille","lat":43.25928,"lon":5.38592,"is_reserved":false,"is_disabled":false,"rental_uris":{"android":"levelo://app?vid=53398df8-835b-4ed2-bf08-039bd71fda25","ios":"levelo://app?vid=53398df8-835b-4ed2-bf08-039bd71fda25"},"vehicle_type_id":"4","last_reported":1776832685,"current_range_meters":6400,"station_id":"","pricing_plan_id":"cebpf4jnsgd1na2vs0mg"},{"bike_id":"37eae820-b39c-4a10-b9f1-bbf6af567e33","system_id":"levelo_inurba_marseille","lat":43.29605,"lon":5.37722,"is_reserved":false,"is_disabled":false,"rental_uris":{"android":"levelo://app?vid=37eae820-b39c-4a10-b9f1-bbf6af567e33","ios":"levelo://app?vid=37eae820-b39c-4a10-b9f1-bbf6af567e33"},"vehicle_type_id":"4","last_reported":1776832685,"current_range_meters":6400,"station_id":"ce4bgi92rcd13ifvqb90","pricing_plan_id":"cebpf4jnsgd1na2vs0mg"},{"bike_id":"753f20a4-e5da-4367-ad36-baf96fa2dcf5","system_id":"levelo_inurba_marseille","lat":43.29268,"lon":5.40153,"is_reserved":false,"is_disabled":false,"rental_uris":{"android":"levelo://app?vid=753f20a4-e5da-4367-ad36-baf96fa2dcf5","ios":"levelo://app?vid=753f20a4-e5da-4367-ad36-baf96fa2dcf5"},"vehicle_type_id":"4","last_reported":1776832685,"current_range_meters":6400,"station_id":"ce4bh312rcd13ifvqdk0","pricing_plan_id":"cebpf4jnsgd1na2vs0mg"},{"bike_id":"c63c9c1d-45c3-4d97-81d2-c75f689c2a9d","system_id":"levelo_inurba_marseille","lat":43.28459,"lon":5.39191,"is_reserved":false,"is_disabled":false,"rental_uris":{"android":"levelo://app?vid=c63c9c1d-45c3-4d97-81d2-c75f689c2a9d","ios":"levelo://app?vid=c63c9c1d-45c3-4d97-81d2-c75f689c2a9d"},"vehicle_type_id":"4","last_reported":1776832685,"current_range_meters":6400,"station_id":"ce4bhoh2rcd13ifvqh5g","pricing_plan_id":"cebpf4jnsgd1na2vs0mg"},{"bike_id":"ec69f4d9-c069-420b-997b-fdd74d56d6db","system_id":"levelo_inurba_marseille","lat":43.2468,"lon":5.38161,"is_reserved":false,"is_disabled":false,"rental_uris":{"android":"levelo://app?vid=ec69f4d9-c069-420b-997b-fdd74d56d6db","ios":"levelo://app?vid=ec69f4d9-c069-420b-997b-fdd74d56d6db"},"vehicle_type_id":"4","last_reported":1776832685,"current_range_meters":6400,"station_id":"ce4bhih2rcd13ifvqfr0","pricing_plan_id":"cebpf4jnsgd1na2vs0mg"},{"bike_id":"7f00d738-6ecb-4a98-8f0b-a4fb84f028c4","system_id":"levelo_inurba_marseille","lat":43.28598,"lon":5.3994,"is_reserved":false,"is_disabled":false,"rental_uris":{"android":"levelo://app?vid=7f00d738-6ecb-4a98-8f0b-a4fb84f028c4","ios":"levelo://app?vid=7f00d738-6ecb-4a98-8f0b-a4fb84f028c4"},"vehicle_type_id":"4","last_reported":1776832685,"current_range_meters":6400,"station_id":"","pricing_plan_id":"cebpf4jnsgd1na2vs0mg"},{"bike_id":"529c3939-a117-4e6b-bfff-576bb2e91b92","system_id":"levelo_inurba_marseille","lat":43.30799,"lon":5.38156,"is_reserved":false,"is_disabled":false,"rental_uris":{"android":"levelo://app?vid=529c3939-a117-4e6b-bfff-576bb2e91b92","ios":"levelo://app?vid=529c3939-a117-4e6b-bfff-576bb2e91b92"},"vehicle_type_id":"4","last_reported":1776832685,"current_range_meters":6800,"station_id":"ce4bgt12rcd13ifvqce0","pricing_plan_id":"cebpf4jnsgd1na2vs0mg"},{"bike_id":"f8886bac-06e6-4f4e-b567-d0f4cd2b25d3","system_id":"levelo_inurba_marseille","lat":43.27499,"lon":5.4245,"is_reserved":false,"is_disabled":false,"rental_uris":{"android":"levelo://app?vid=f8886bac-06e6-4f4e-b567-d0f4cd2b25d3","ios":"levelo://app?vid=f8886bac-06e6-4f4e-b567-d0f4cd2b25d3"},"vehicle_type_id":"4","last_reported":1776832685,"current_range_meters":6800,"station_id":"ce4bhn92rcd13ifvqgrg","pricing_plan_id":"cebpf4jnsgd1na2vs0mg"},{"bike_id":"3270381e-44e7-4481-9720-b4e778c7865c","system_id":"levelo_inurba_marseille","lat":43.30146,"lon":5.39839,"is_reserved":false,"is_disabled":false,"rental_uris":{"android":"levelo://app?vid=3270381e-44e7-4481-9720-b4e778c7865c","ios":"levelo://app?vid=3270381e-44e7-4481-9720-b4e778c7865c"},"vehicle_type_id":"4","last_reported":1776832685,"current_range_meters":6800,"station_id":"ce4bh0h2rcd13ifvqd40","pricing_plan_id":"cebpf4jnsgd1na2vs0mg"},{"bike_id":"909929ad-6150-4e90-9010-fc5021f6e58c","system_id":"levelo_inurba_marseille","lat":43.27198,"lon":5.40119,"is_reserved":false,"is_disabled":false,"rental_uris":{"android":"levelo://app?vid=909929ad-6150-4e90-9010-fc5021f6e58c","ios":"levelo://app?vid=909929ad-6150-4e90-9010-fc5021f6e58c"},"vehicle_type_id":"4","last_reported":1776832685,"current_range_meters":6800,"station_id":"","pricing_plan_id":"cebpf4jnsgd1na2vs0mg"},{"bike_id":"dcc2857c-bd74-43d2-a250-2b848e708d6c","system_id":"levelo_inurba_marseille","lat":43.30801,"lon":5.38162,"is_reserved":false,"is_disabled":false,"rental_uris":{"android":"levelo://app?vid=dcc2857c-bd74-43d2-a250-2b848e708d6c","ios":"levelo://app?vid=dcc2857c-bd74-43d2-a250-2b848e708d6c"},"vehicle_type_id":"4","last_reported":1776832685,"current_range_meters":6800,"station_id":"ce4bgt12rcd13ifvqce0","pricing_plan_id":"cebpf4jnsgd1na2vs0mg"},{"bike_id":"11029405-47e3-4767-b80d-3af38d59c91c","system_id":"levelo_inurba_marseille","lat":43.2928,"lon":5.3846,"is_reserved":false,"is_disabled":false,"rental_uris":{"android":"levelo://app?vid=11029405-47e3-4767-b80d-3af38d59c91c","ios":"levelo://app?vid=11029405-47e3-4767-b80d-3af38d59c91c"},"vehicle_type_id":"4","last_reported":1776832685,"current_range_meters":6800,"station_id":"ce4bh692rcd13ifvqea0","pricing_plan_id":"cebpf4jnsgd1na2vs0mg"},{"bike_id":"fc65a632-bd3b-4cc7-8723-5cc6caf0ef89","system_id":"levelo_inurba_marseille","lat":43.29494,"lon":5.39406,"is_reserved":false,"is_disabled":false,"rental_uris":{"android":"levelo://app?vid=fc65a632-bd3b-4cc7-8723-5cc6caf0ef89","ios":"levelo://app?vid=fc65a632-bd3b-4cc7-8723-5cc6caf0ef89"},"vehicle_type_id":"4","last_reported":1776832685,"current_range_meters":6800,"station_id":"ce4bh292rcd13ifvqdf0","pricing_plan_id":"cebpf4jnsgd1na2vs0mg"},{"bike_id":"af8a1ef7-3bce-462c-8983-73c0060888a3","system_id":"levelo_inurba_marseille","lat":43.29023,"lon":5.381,"is_reserved":false,"is_disabled":true,"rental_uris":{"android":"levelo://app?vid=af8a1ef7-3bce-462c-8983-73c0060888a3","ios":"levelo://app?vid=af8a1ef7-3bce-462c-8983-73c0060888a3"},"vehicle_type_id":"4","last_reported":1776832685,"current_range_meters":6800,"station_id":"ce4bh4p2rcd13ifvqe1g","pricing_plan_id":"cebpf4jnsgd1na2vs0mg"},{"bike_id":"0cf9c7d1-4ff6-4885-afdb-1945ed4e0993","system_id":"levelo_inurba_marseille","lat":43.29639,"lon":5.40625,"is_reserved":false,"is_disabled":true,"rental_uris":{"android":"levelo://app?vid=0cf9c7d1-4ff6-4885-afdb-1945ed4e0993","ios":"levelo://app?vid=0cf9c7d1-4ff6-4885-afdb-1945ed4e0993"},"vehicle_type_id":"4","last_reported":1776832685,"current_range_meters":6800,"station_id":"ce4bh0h2rcd13ifvqd60","pricing_plan_id":"cebpf4jnsgd1na2vs0mg"},{"bike_id":"350e7442-23d7-4e56-8901-abbc70fd101f","system_id":"levelo_inurba_marseille","lat":43.31121,"lon":5.38723,"is_reserved":false,"is_disabled":false,"rental_uris":{"android":"levelo://app?vid=350e7442-23d7-4e56-8901-abbc70fd101f","ios":"levelo://app?vid=350e7442-23d7-4e56-8901-abbc70fd101f"},"vehicle_type_id":"4","last_reported":1776832685,"current_range_meters":6800,"station_id":"","pricing_plan_id":"cebpf4jnsgd1na2vs0mg"},{"bike_id":"d9be86bb-6c4e-4c05-bc60-e02431cbb916","system_id":"levelo_inurba_marseille","lat":43.31882,"lon":5.36819,"is_reserved":false,"is_disabled":false,"rental_uris":{"android":"levelo://app?vid=d9be86bb-6c4e-4c05-bc60-e02431cbb916","ios":"levelo://app?vid=d9be86bb-6c4e-4c05-bc60-e02431cbb916"},"vehicle_type_id":"4","last_reported":1776832685,"current_range_meters":6800,"station_id":"st_d6o2h0d0559c73evc1b0","pricing_plan_id":"cebpf4jnsgd1na2vs0mg"},{"bike_id":"3448f0f4-d448-4b78-8559-0a980538ebbf","system_id":"levelo_inurba_marseille","lat":43.29482,"lon":5.43311,"is_reserved":false,"is_disabled":false,"rental_uris":{"android":"levelo://app?vid=3448f0f4-d448-4b78-8559-0a980538ebbf","ios":"levelo://app?vid=3448f0f4-d448-4b78-8559-0a980538ebbf"},"vehicle_type_id":"4","last_reported":1776832685,"current_range_meters":6800,"station_id":"st_d3j5ugp08ojc73fj9d10","pricing_plan_id":"cebpf4jnsgd1na2vs0mg"},{"bike_id":"df2d4716-1b4d-4645-9b83-2c138396ca41","system_id":"levelo_inurba_marseille","lat":43.28489,"lon":5.38419,"is_reserved":false,"is_disabled":false,"rental_uris":{"android":"levelo://app?vid=df2d4716-1b4d-4645-9b83-2c138396ca41","ios":"levelo://app?vid=df2d4716-1b4d-4645-9b83-2c138396ca41"},"vehicle_type_id":"4","last_reported":1776832685,"current_range_meters":6800,"station_id":"ce4bh512rcd13ifvqe3g","pricing_plan_id":"cebpf4jnsgd1na2vs0mg"},{"bike_id":"259873a5-a1ea-41b3-8200-d0477284c8f2","system_id":"levelo_inurba_marseille","lat":43.28516,"lon":5.44107,"is_reserved":false,"is_disabled":false,"rental_uris":{"android":"levelo://app?vid=259873a5-a1ea-41b3-8200-d0477284c8f2","ios":"levelo://app?vid=259873a5-a1ea-41b3-8200-d0477284c8f2"},"vehicle_type_id":"4","last_reported":1776832685,"current_range_meters":6800,"station_id":"st_d3j3df2ikq2c7380ej80","pricing_plan_id":"cebpf4jnsgd1na2vs0mg"},{"bike_id":"2bbcf379-6956-41a6-9579-19e440bc952d","system_id":"levelo_inurba_marseille","lat":43.28575,"lon":5.39496,"is_reserved":false,"is_disabled":false,"rental_uris":{"android":"levelo://app?vid=2bbcf379-6956-41a6-9579-19e440bc952d","ios":"levelo://app?vid=2bbcf379-6956-41a6-9579-19e440bc952d"},"vehicle_type_id":"4","last_reported":1776832685,"current_range_meters":6800,"station_id":"ce4bh292rcd13ifvqdg0","pricing_plan_id":"cebpf4jnsgd1na2vs0mg"},{"bike_id":"69904aa1-60b2-4195-a1ba-9cd611f8d3ea","system_id":"levelo_inurba_marseille","lat":43.29852,"lon":5.36275,"is_reserved":false,"is_disabled":false,"rental_uris":{"android":"levelo://app?vid=69904aa1-60b2-4195-a1ba-9cd611f8d3ea","ios":"levelo://app?vid=69904aa1-60b2-4195-a1ba-9cd611f8d3ea"},"vehicle_type_id":"4","last_reported":1776832685,"current_range_meters":6800,"station_id":"ce4bgpp2rcd13ifvqc3g","pricing_plan_id":"cebpf4jnsgd1na2vs0mg"},{"bike_id":"9f90dad8-cb18-4640-8128-3cd479908b0c","system_id":"levelo_inurba_marseille","lat":43.27088,"lon":5.42244,"is_reserved":false,"is_disabled":false,"rental_uris":{"android":"levelo://app?vid=9f90dad8-cb18-4640-8128-3cd479908b0c","ios":"levelo://app?vid=9f90dad8-cb18-4640-8128-3cd479908b0c"},"vehicle_type_id":"4","last_reported":1776832685,"current_range_meters":6800,"station_id":"ce4bhk92rcd13ifvqgb0","pricing_plan_id":"cebpf4jnsgd1na2vs0mg"},{"bike_id":"32023100-5ce8-4637-ad41-206e633c27ce","system_id":"levelo_inurba_marseille","lat":43.24805,"lon":5.37446,"is_reserved":false,"is_disabled":true,"rental_uris":{"android":"levelo://app?vid=32023100-5ce8-4637-ad41-206e633c27ce","ios":"levelo://app?vid=32023100-5ce8-4637-ad41-206e633c27ce"},"vehicle_type_id":"4","last_reported":1776832685,"current_range_meters":7200,"station_id":"ce4bhgh2rcd13ifvqfb0","pricing_plan_id":"cebpf4jnsgd1na2vs0mg"},{"bike_id":"dc6bd17c-d37d-48d7-af1c-7f19d45f8111","system_id":"levelo_inurba_marseille","lat":43.27504,"lon":5.42448,"is_reserved":false,"is_disabled":false,"rental_uris":{"android":"levelo://app?vid=dc6bd17c-d37d-48d7-af1c-7f19d45f8111","ios":"levelo://app?vid=dc6bd17c-d37d-48d7-af1c-7f19d45f8111"},"vehicle_type_id":"4","last_reported":1776832685,"current_range_meters":7200,"station_id":"ce4bhn92rcd13ifvqgrg","pricing_plan_id":"cebpf4jnsgd1na2vs0mg"},{"bike_id":"e49b8b33-40d0-498a-a2cb-9e719b491918","system_id":"levelo_inurba_marseille","lat":43.25139,"lon":5.40308,"is_reserved":false,"is_disabled":false,"rental_uris":{"android":"levelo://app?vid=e49b8b33-40d0-498a-a2cb-9e719b491918","ios":"levelo://app?vid=e49b8b33-40d0-498a-a2cb-9e719b491918"},"vehicle_type_id":"4","last_reported":1776832685,"current_range_meters":7200,"station_id":"ce4bhlh2rcd13ifvqgig","pricing_plan_id":"cebpf4jnsgd1na2vs0mg"},{"bike_id":"0adaac8c-ea57-43d1-be62-9093a1d75dee","system_id":"levelo_inurba_marseille","lat":43.30413,"lon":5.4128,"is_reserved":false,"is_disabled":false,"rental_uris":{"android":"levelo://app?vid=0adaac8c-ea57-43d1-be62-9093a1d75dee","ios":"levelo://app?vid=0adaac8c-ea57-43d1-be62-9093a1d75dee"},"vehicle_type_id":"4","last_reported":1776832685,"current_range_meters":7200,"station_id":"ce4bhop2rcd13ifvqh8g","pricing_plan_id":"cebpf4jnsgd1na2vs0mg"},{"bike_id":"a7020a93-7c00-4fec-b1a2-4f1670bbc6d7","system_id":"levelo_inurba_marseille","lat":43.23815,"lon":5.41318,"is_reserved":false,"is_disabled":false,"rental_uris":{"android":"levelo://app?vid=a7020a93-7c00-4fec-b1a2-4f1670bbc6d7","ios":"levelo://app?vid=a7020a93-7c00-4fec-b1a2-4f1670bbc6d7"},"vehicle_type_id":"4","last_reported":1776832685,"current_range_meters":7200,"station_id":"","pricing_plan_id":"cebpf4jnsgd1na2vs0mg"},{"bike_id":"f3bfc620-e85c-452a-808d-e396fddf4a67","system_id":"levelo_inurba_marseille","lat":43.23186,"lon":5.39995,"is_reserved":false,"is_disabled":false,"rental_uris":{"android":"levelo://app?vid=f3bfc620-e85c-452a-808d-e396fddf4a67","ios":"levelo://app?vid=f3bfc620-e85c-452a-808d-e396fddf4a67"},"vehicle_type_id":"4","last_reported":1776832685,"current_range_meters":7200,"station_id":"ce4bhn12rcd13ifvqgqg","pricing_plan_id":"cebpf4jnsgd1na2vs0mg"},{"bike_id":"d204400f-8745-41a5-b8f3-30b0d4c8bfb2","system_id":"levelo_inurba_marseille","lat":43.31933,"lon":5.36772,"is_reserved":false,"is_disabled":false,"rental_uris":{"android":"levelo://app?vid=d204400f-8745-41a5-b8f3-30b0d4c8bfb2","ios":"levelo://app?vid=d204400f-8745-41a5-b8f3-30b0d4c8bfb2"},"vehicle_type_id":"4","last_reported":1776832685,"current_range_meters":7200,"station_id":"st_d6o2h0d0559c73evc1b0","pricing_plan_id":"cebpf4jnsgd1na2vs0mg"},{"bike_id":"6941bf81-2b71-45da-86f8-ae002d5a69db","system_id":"levelo_inurba_marseille","lat":43.28028,"lon":5.3693,"is_reserved":false,"is_disabled":false,"rental_uris":{"android":"levelo://app?vid=6941bf81-2b71-45da-86f8-ae002d5a69db","ios":"levelo://app?vid=6941bf81-2b71-45da-86f8-ae002d5a69db"},"vehicle_type_id":"4","last_reported":1776832685,"current_range_meters":7200,"station_id":"ce4bha12rcd13ifvqef0","pricing_plan_id":"cebpf4jnsgd1na2vs0mg"},{"bike_id":"5dca9a8e-83e7-4e4f-baef-b39340f4d785","system_id":"levelo_inurba_marseille","lat":43.29574,"lon":5.3995,"is_reserved":false,"is_disabled":true,"rental_uris":{"android":"levelo://app?vid=5dca9a8e-83e7-4e4f-baef-b39340f4d785","ios":"levelo://app?vid=5dca9a8e-83e7-4e4f-baef-b39340f4d785"},"vehicle_type_id":"4","last_reported":1776832685,"current_range_meters":7200,"station_id":"ce4bh312rcd13ifvqdj0","pricing_plan_id":"cebpf4jnsgd1na2vs0mg"},{"bike_id":"0a9b13b2-0c2f-4a3e-b569-3e3096b39a38","system_id":"levelo_inurba_marseille","lat":43.28071,"lon":5.39695,"is_reserved":false,"is_disabled":false,"rental_uris":{"android":"levelo://app?vid=0a9b13b2-0c2f-4a3e-b569-3e3096b39a38","ios":"levelo://app?vid=0a9b13b2-0c2f-4a3e-b569-3e3096b39a38"},"vehicle_type_id":"4","last_reported":1776832685,"current_range_meters":7200,"station_id":"ce4bho12rcd13ifvqh2g","pricing_plan_id":"cebpf4jnsgd1na2vs0mg"},{"bike_id":"a5932d33-7fe4-4ab5-ab73-558a4a420627","system_id":"levelo_inurba_marseille","lat":43.24452,"lon":5.40048,"is_reserved":false,"is_disabled":false,"rental_uris":{"android":"levelo://app?vid=a5932d33-7fe4-4ab5-ab73-558a4a420627","ios":"levelo://app?vid=a5932d33-7fe4-4ab5-ab73-558a4a420627"},"vehicle_type_id":"4","last_reported":1776832685,"current_range_meters":7200,"station_id":"","pricing_plan_id":"cebpf4jnsgd1na2vs0mg"},{"bike_id":"39f98464-fffc-43ef-b935-0affcc53642d","system_id":"levelo_inurba_marseille","lat":43.27489,"lon":5.42451,"is_reserved":false,"is_disabled":false,"rental_uris":{"android":"levelo://app?vid=39f98464-fffc-43ef-b935-0affcc53642d","ios":"levelo://app?vid=39f98464-fffc-43ef-b935-0affcc53642d"},"vehicle_type_id":"4","last_reported":1776832685,"current_range_meters":7200,"station_id":"ce4bhn92rcd13ifvqgrg","pricing_plan_id":"cebpf4jnsgd1na2vs0mg"},{"bike_id":"a43319a1-e942-45fa-a9f9-6c4e37db171a","system_id":"levelo_inurba_marseille","lat":43.31212,"lon":5.38717,"is_reserved":false,"is_disabled":false,"rental_uris":{"android":"levelo://app?vid=a43319a1-e942-45fa-a9f9-6c4e37db171a","ios":"levelo://app?vid=a43319a1-e942-45fa-a9f9-6c4e37db171a"},"vehicle_type_id":"4","last_reported":1776832685,"current_range_meters":7200,"station_id":"ce4bgv12rcd13ifvqcp0","pricing_plan_id":"cebpf4jnsgd1na2vs0mg"},{"bike_id":"22e0b1e6-3839-449a-b2f0-10eb440559bc","system_id":"levelo_inurba_marseille","lat":43.2508,"lon":5.39556,"is_reserved":false,"is_disabled":false,"rental_uris":{"android":"levelo://app?vid=22e0b1e6-3839-449a-b2f0-10eb440559bc","ios":"levelo://app?vid=22e0b1e6-3839-449a-b2f0-10eb440559bc"},"vehicle_type_id":"4","last_reported":1776832685,"current_range_meters":8000,"station_id":"ce4bhm12rcd13ifvqgkg","pricing_plan_id":"cebpf4jnsgd1na2vs0mg"},{"bike_id":"badf4622-8d39-4c6d-8e74-cdbf9e168f9d","system_id":"levelo_inurba_marseille","lat":43.25115,"lon":5.4031,"is_reserved":false,"is_disabled":false,"rental_uris":{"android":"levelo://app?vid=badf4622-8d39-4c6d-8e74-cdbf9e168f9d","ios":"levelo://app?vid=badf4622-8d39-4c6d-8e74-cdbf9e168f9d"},"vehicle_type_id":"4","last_reported":1776832685,"current_range_meters":8000,"station_id":"ce4bhlh2rcd13ifvqgig","pricing_plan_id":"cebpf4jnsgd1na2vs0mg"},{"bike_id":"ef4460cf-c33d-465d-8f99-319f3140e8d6","system_id":"levelo_inurba_marseille","lat":43.29431,"lon":5.39743,"is_reserved":false,"is_disabled":false,"rental_uris":{"android":"levelo://app?vid=ef4460cf-c33d-465d-8f99-319f3140e8d6","ios":"levelo://app?vid=ef4460cf-c33d-465d-8f99-319f3140e8d6"},"vehicle_type_id":"4","last_reported":1776832685,"current_range_meters":8000,"station_id":"ce4bh3h2rcd13ifvqdo0","pricing_plan_id":"cebpf4jnsgd1na2vs0mg"},{"bike_id":"bacd3fe4-f48a-4afe-8c9c-99f0f1f340a2","system_id":"levelo_inurba_marseille","lat":43.27496,"lon":5.42452,"is_reserved":false,"is_disabled":false,"rental_uris":{"android":"levelo://app?vid=bacd3fe4-f48a-4afe-8c9c-99f0f1f340a2","ios":"levelo://app?vid=bacd3fe4-f48a-4afe-8c9c-99f0f1f340a2"},"vehicle_type_id":"4","last_reported":1776832685,"current_range_meters":8000,"station_id":"ce4bhn92rcd13ifvqgrg","pricing_plan_id":"cebpf4jnsgd1na2vs0mg"},{"bike_id":"be5c4907-57d0-4c67-8ff7-ac26938c6076","system_id":"levelo_inurba_marseille","lat":43.28272,"lon":5.40663,"is_reserved":false,"is_disabled":false,"rental_uris":{"android":"levelo://app?vid=be5c4907-57d0-4c67-8ff7-ac26938c6076","ios":"levelo://app?vid=be5c4907-57d0-4c67-8ff7-ac26938c6076"},"vehicle_type_id":"4","last_reported":1776832685,"current_range_meters":8000,"station_id":"","pricing_plan_id":"cebpf4jnsgd1na2vs0mg"},{"bike_id":"156a9278-c7f8-442d-9b54-2a52d275e0c5","system_id":"levelo_inurba_marseille","lat":43.28602,"lon":5.35122,"is_reserved":false,"is_disabled":true,"rental_uris":{"android":"levelo://app?vid=156a9278-c7f8-442d-9b54-2a52d275e0c5","ios":"levelo://app?vid=156a9278-c7f8-442d-9b54-2a52d275e0c5"},"vehicle_type_id":"4","last_reported":1776832685,"current_range_meters":8000,"station_id":"ce4bhch2rcd13ifvqeug","pricing_plan_id":"cebpf4jnsgd1na2vs0mg"},{"bike_id":"2e91429e-26d4-4cb4-b1d3-cd915485ff5f","system_id":"levelo_inurba_marseille","lat":43.31109,"lon":5.37766,"is_reserved":false,"is_disabled":false,"rental_uris":{"android":"levelo://app?vid=2e91429e-26d4-4cb4-b1d3-cd915485ff5f","ios":"levelo://app?vid=2e91429e-26d4-4cb4-b1d3-cd915485ff5f"},"vehicle_type_id":"4","last_reported":1776832685,"current_range_meters":8000,"station_id":"ce4bgt92rcd13ifvqcg0","pricing_plan_id":"cebpf4jnsgd1na2vs0mg"},{"bike_id":"8194a0ff-2824-43c5-8a22-527fdaa0a136","system_id":"levelo_inurba_marseille","lat":43.27354,"lon":5.4089,"is_reserved":false,"is_disabled":false,"rental_uris":{"android":"levelo://app?vid=8194a0ff-2824-43c5-8a22-527fdaa0a136","ios":"levelo://app?vid=8194a0ff-2824-43c5-8a22-527fdaa0a136"},"vehicle_type_id":"4","last_reported":1776832685,"current_range_meters":8000,"station_id":"","pricing_plan_id":"cebpf4jnsgd1na2vs0mg"},{"bike_id":"fcc994e7-3639-4a8d-8be7-47264161377b","system_id":"levelo_inurba_marseille","lat":43.30931,"lon":5.40144,"is_reserved":false,"is_disabled":false,"rental_uris":{"android":"levelo://app?vid=fcc994e7-3639-4a8d-8be7-47264161377b","ios":"levelo://app?vid=fcc994e7-3639-4a8d-8be7-47264161377b"},"vehicle_type_id":"4","last_reported":1776832685,"current_range_meters":8000,"station_id":"ce4bgvp2rcd13ifvqct0","pricing_plan_id":"cebpf4jnsgd1na2vs0mg"},{"bike_id":"727fa24e-903e-4a09-916f-420b7a301e67","system_id":"levelo_inurba_marseille","lat":43.29315,"lon":5.40149,"is_reserved":false,"is_disabled":false,"rental_uris":{"android":"levelo://app?vid=727fa24e-903e-4a09-916f-420b7a301e67","ios":"levelo://app?vid=727fa24e-903e-4a09-916f-420b7a301e67"},"vehicle_type_id":"4","last_reported":1776832685,"current_range_meters":8000,"station_id":"ce4bh312rcd13ifvqdk0","pricing_plan_id":"cebpf4jnsgd1na2vs0mg"},{"bike_id":"1bce2c7f-72d0-4388-98cc-92a4b8d66072","system_id":"levelo_inurba_marseille","lat":43.2927,"lon":5.38442,"is_reserved":false,"is_disabled":false,"rental_uris":{"android":"levelo://app?vid=1bce2c7f-72d0-4388-98cc-92a4b8d66072","ios":"levelo://app?vid=1bce2c7f-72d0-4388-98cc-92a4b8d66072"},"vehicle_type_id":"4","last_reported":1776832685,"current_range_meters":8000,"station_id":"ce4bh692rcd13ifvqea0","pricing_plan_id":"cebpf4jnsgd1na2vs0mg"},{"bike_id":"beafb519-18ba-43f5-901e-4d2a35f80af8","system_id":"levelo_inurba_marseille","lat":43.24389,"lon":5.37059,"is_reserved":false,"is_disabled":false,"rental_uris":{"android":"levelo://app?vid=beafb519-18ba-43f5-901e-4d2a35f80af8","ios":"levelo://app?vid=beafb519-18ba-43f5-901e-4d2a35f80af8"},"vehicle_type_id":"4","last_reported":1776832685,"current_range_meters":8000,"station_id":"ce4bhhh2rcd13ifvqfk0","pricing_plan_id":"cebpf4jnsgd1na2vs0mg"},{"bike_id":"468b098b-8742-43b6-94e4-77df021ec20c","system_id":"levelo_inurba_marseille","lat":43.30732,"lon":5.42445,"is_reserved":false,"is_disabled":false,"rental_uris":{"android":"levelo://app?vid=468b098b-8742-43b6-94e4-77df021ec20c","ios":"levelo://app?vid=468b098b-8742-43b6-94e4-77df021ec20c"},"vehicle_type_id":"4","last_reported":1776832685,"current_range_meters":8000,"station_id":"st_cvj6ca6bvosntc0bfgr0","pricing_plan_id":"cebpf4jnsgd1na2vs0mg"},{"bike_id":"3fab059d-18a7-482e-8115-cee8992a6a7a","system_id":"levelo_inurba_marseille","lat":43.27942,"lon":5.41042,"is_reserved":false,"is_disabled":false,"rental_uris":{"android":"levelo://app?vid=3fab059d-18a7-482e-8115-cee8992a6a7a","ios":"levelo://app?vid=3fab059d-18a7-482e-8115-cee8992a6a7a"},"vehicle_type_id":"4","last_reported":1776832685,"current_range_meters":8400,"station_id":"ce4bhnp2rcd13ifvqh0g","pricing_plan_id":"cebpf4jnsgd1na2vs0mg"},{"bike_id":"fc83597b-c92a-4d6b-9ec3-85cccb5b70a7","system_id":"levelo_inurba_marseille","lat":43.31967,"lon":5.36817,"is_reserved":false,"is_disabled":false,"rental_uris":{"android":"levelo://app?vid=fc83597b-c92a-4d6b-9ec3-85cccb5b70a7","ios":"levelo://app?vid=fc83597b-c92a-4d6b-9ec3-85cccb5b70a7"},"vehicle_type_id":"4","last_reported":1776832685,"current_range_meters":8400,"station_id":"","pricing_plan_id":"cebpf4jnsgd1na2vs0mg"},{"bike_id":"04257b95-4499-46e1-a4e3-88ab526291ba","system_id":"levelo_inurba_marseille","lat":43.28493,"lon":5.48414,"is_reserved":false,"is_disabled":false,"rental_uris":{"android":"levelo://app?vid=04257b95-4499-46e1-a4e3-88ab526291ba","ios":"levelo://app?vid=04257b95-4499-46e1-a4e3-88ab526291ba"},"vehicle_type_id":"4","last_reported":1776832685,"current_range_meters":8400,"station_id":"","pricing_plan_id":"cebpf4jnsgd1na2vs0mg"},{"bike_id":"ac881409-e7c1-4dc7-868f-5470aa726fd2","system_id":"levelo_inurba_marseille","lat":43.29846,"lon":5.44047,"is_reserved":false,"is_disabled":false,"rental_uris":{"android":"levelo://app?vid=ac881409-e7c1-4dc7-868f-5470aa726fd2","ios":"levelo://app?vid=ac881409-e7c1-4dc7-868f-5470aa726fd2"},"vehicle_type_id":"4","last_reported":1776832685,"current_range_meters":8400,"station_id":"","pricing_plan_id":"cebpf4jnsgd1na2vs0mg"},{"bike_id":"ab441cdc-9cd1-4c8e-b69e-34bb46fece34","system_id":"levelo_inurba_marseille","lat":43.29391,"lon":5.363,"is_reserved":false,"is_disabled":false,"rental_uris":{"android":"levelo://app?vid=ab441cdc-9cd1-4c8e-b69e-34bb46fece34","ios":"levelo://app?vid=ab441cdc-9cd1-4c8e-b69e-34bb46fece34"},"vehicle_type_id":"4","last_reported":1776832685,"current_range_meters":8400,"station_id":"","pricing_plan_id":"cebpf4jnsgd1na2vs0mg"},{"bike_id":"42bc5912-9f51-49f0-a597-ebcfd7df5cbb","system_id":"levelo_inurba_marseille","lat":43.297,"lon":5.36565,"is_reserved":false,"is_disabled":true,"rental_uris":{"android":"levelo://app?vid=42bc5912-9f51-49f0-a597-ebcfd7df5cbb","ios":"levelo://app?vid=42bc5912-9f51-49f0-a597-ebcfd7df5cbb"},"vehicle_type_id":"4","last_reported":1776832685,"current_range_meters":8400,"station_id":"ce4bgn12rcd13ifvqbt0","pricing_plan_id":"cebpf4jnsgd1na2vs0mg"},{"bike_id":"f7865c55-b275-4e17-9be3-03644a51e6fe","system_id":"levelo_inurba_marseille","lat":43.30646,"lon":5.40085,"is_reserved":false,"is_disabled":false,"rental_uris":{"android":"levelo://app?vid=f7865c55-b275-4e17-9be3-03644a51e6fe","ios":"levelo://app?vid=f7865c55-b275-4e17-9be3-03644a51e6fe"},"vehicle_type_id":"4","last_reported":1776832685,"current_range_meters":8400,"station_id":"ce4bh112rcd13ifvqda0","pricing_plan_id":"cebpf4jnsgd1na2vs0mg"},{"bike_id":"a5efd3e5-ba1c-478e-abd0-9e7dea627cb0","system_id":"levelo_inurba_marseille","lat":43.30793,"lon":5.38154,"is_reserved":false,"is_disabled":false,"rental_uris":{"android":"levelo://app?vid=a5efd3e5-ba1c-478e-abd0-9e7dea627cb0","ios":"levelo://app?vid=a5efd3e5-ba1c-478e-abd0-9e7dea627cb0"},"vehicle_type_id":"4","last_reported":1776832685,"current_range_meters":8400,"station_id":"ce4bgt12rcd13ifvqce0","pricing_plan_id":"cebpf4jnsgd1na2vs0mg"},{"bike_id":"53ac9b94-d2b8-401a-8133-9009372f217e","system_id":"levelo_inurba_marseille","lat":43.28462,"lon":5.48391,"is_reserved":false,"is_disabled":false,"rental_uris":{"android":"levelo://app?vid=53ac9b94-d2b8-401a-8133-9009372f217e","ios":"levelo://app?vid=53ac9b94-d2b8-401a-8133-9009372f217e"},"vehicle_type_id":"4","last_reported":1776832685,"current_range_meters":8400,"station_id":"","pricing_plan_id":"cebpf4jnsgd1na2vs0mg"},{"bike_id":"51e7d8cf-63e3-43c5-b2d1-971f18e79ea6","system_id":"levelo_inurba_marseille","lat":43.30892,"lon":5.40146,"is_reserved":false,"is_disabled":true,"rental_uris":{"android":"levelo://app?vid=51e7d8cf-63e3-43c5-b2d1-971f18e79ea6","ios":"levelo://app?vid=51e7d8cf-63e3-43c5-b2d1-971f18e79ea6"},"vehicle_type_id":"4","last_reported":1776832685,"current_range_meters":8400,"station_id":"ce4bgvp2rcd13ifvqct0","pricing_plan_id":"cebpf4jnsgd1na2vs0mg"},{"bike_id":"e78c04eb-42fe-48ff-b4a7-8a50b3005232","system_id":"levelo_inurba_marseille","lat":43.2784,"lon":5.40907,"is_reserved":false,"is_disabled":false,"rental_uris":{"android":"levelo://app?vid=e78c04eb-42fe-48ff-b4a7-8a50b3005232","ios":"levelo://app?vid=e78c04eb-42fe-48ff-b4a7-8a50b3005232"},"vehicle_type_id":"4","last_reported":1776832685,"current_range_meters":8400,"station_id":"","pricing_plan_id":"cebpf4jnsgd1na2vs0mg"},{"bike_id":"fc182d5e-a901-481f-9982-3c345938d4dd","system_id":"levelo_inurba_marseille","lat":43.30087,"lon":5.39088,"is_reserved":false,"is_disabled":false,"rental_uris":{"android":"levelo://app?vid=fc182d5e-a901-481f-9982-3c345938d4dd","ios":"levelo://app?vid=fc182d5e-a901-481f-9982-3c345938d4dd"},"vehicle_type_id":"4","last_reported":1776832685,"current_range_meters":8400,"station_id":"ce4bh192rcd13ifvqdb0","pricing_plan_id":"cebpf4jnsgd1na2vs0mg"},{"bike_id":"fb237ca1-9b68-4100-be5d-75add270cbb1","system_id":"levelo_inurba_marseille","lat":43.28391,"lon":5.37517,"is_reserved":false,"is_disabled":false,"rental_uris":{"android":"levelo://app?vid=fb237ca1-9b68-4100-be5d-75add270cbb1","ios":"levelo://app?vid=fb237ca1-9b68-4100-be5d-75add270cbb1"},"vehicle_type_id":"4","last_reported":1776832685,"current_range_meters":8400,"station_id":"ce4bh412rcd13ifvqds0","pricing_plan_id":"cebpf4jnsgd1na2vs0mg"},{"bike_id":"8039cb9a-48d0-4777-8a7e-f7f4b18a83eb","system_id":"levelo_inurba_marseille","lat":43.28863,"lon":5.4251,"is_reserved":false,"is_disabled":false,"rental_uris":{"android":"levelo://app?vid=8039cb9a-48d0-4777-8a7e-f7f4b18a83eb","ios":"levelo://app?vid=8039cb9a-48d0-4777-8a7e-f7f4b18a83eb"},"vehicle_type_id":"4","last_reported":1776832685,"current_range_meters":8400,"station_id":"st_d3b462108ojc7389ooeg","pricing_plan_id":"cebpf4jnsgd1na2vs0mg"},{"bike_id":"7fcd9f8e-5b46-416d-b162-3193b8e63f3c","system_id":"levelo_inurba_marseille","lat":43.28425,"lon":5.37524,"is_reserved":false,"is_disabled":false,"rental_uris":{"android":"levelo://app?vid=7fcd9f8e-5b46-416d-b162-3193b8e63f3c","ios":"levelo://app?vid=7fcd9f8e-5b46-416d-b162-3193b8e63f3c"},"vehicle_type_id":"4","last_reported":1776832685,"current_range_meters":8400,"station_id":"ce4bh412rcd13ifvqds0","pricing_plan_id":"cebpf4jnsgd1na2vs0mg"},{"bike_id":"059b4ad8-665d-46df-9a3f-e9b9a20a1c99","system_id":"levelo_inurba_marseille","lat":43.33551,"lon":5.37474,"is_reserved":false,"is_disabled":false,"rental_uris":{"android":"levelo://app?vid=059b4ad8-665d-46df-9a3f-e9b9a20a1c99","ios":"levelo://app?vid=059b4ad8-665d-46df-9a3f-e9b9a20a1c99"},"vehicle_type_id":"4","last_reported":1776832685,"current_range_meters":8400,"station_id":"st_d46tts09ee8s73dlu43g","pricing_plan_id":"cebpf4jnsgd1na2vs0mg"},{"bike_id":"fd8c8cd3-3e30-4b4e-982b-7ed39ab96d6c","system_id":"levelo_inurba_marseille","lat":43.30776,"lon":5.38163,"is_reserved":false,"is_disabled":false,"rental_uris":{"android":"levelo://app?vid=fd8c8cd3-3e30-4b4e-982b-7ed39ab96d6c","ios":"levelo://app?vid=fd8c8cd3-3e30-4b4e-982b-7ed39ab96d6c"},"vehicle_type_id":"4","last_reported":1776832685,"current_range_meters":8400,"station_id":"ce4bgt12rcd13ifvqce0","pricing_plan_id":"cebpf4jnsgd1na2vs0mg"},{"bike_id":"25d508e7-99c0-4c7f-912b-8694ca818d9f","system_id":"levelo_inurba_marseille","lat":43.30913,"lon":5.4017,"is_reserved":false,"is_disabled":false,"rental_uris":{"android":"levelo://app?vid=25d508e7-99c0-4c7f-912b-8694ca818d9f","ios":"levelo://app?vid=25d508e7-99c0-4c7f-912b-8694ca818d9f"},"vehicle_type_id":"4","last_reported":1776832685,"current_range_meters":8400,"station_id":"ce4bgvp2rcd13ifvqct0","pricing_plan_id":"cebpf4jnsgd1na2vs0mg"},{"bike_id":"bbd14b3e-d541-4989-9575-2ab20aec177e","system_id":"levelo_inurba_marseille","lat":43.29573,"lon":5.40017,"is_reserved":false,"is_disabled":false,"rental_uris":{"android":"levelo://app?vid=bbd14b3e-d541-4989-9575-2ab20aec177e","ios":"levelo://app?vid=bbd14b3e-d541-4989-9575-2ab20aec177e"},"vehicle_type_id":"4","last_reported":1776832685,"current_range_meters":8800,"station_id":"ce4bh312rcd13ifvqdj0","pricing_plan_id":"cebpf4jnsgd1na2vs0mg"},{"bike_id":"1c4db81e-e54e-450a-b910-a202dc639503","system_id":"levelo_inurba_marseille","lat":43.28477,"lon":5.484,"is_reserved":false,"is_disabled":false,"rental_uris":{"android":"levelo://app?vid=1c4db81e-e54e-450a-b910-a202dc639503","ios":"levelo://app?vid=1c4db81e-e54e-450a-b910-a202dc639503"},"vehicle_type_id":"4","last_reported":1776832685,"current_range_meters":8800,"station_id":"","pricing_plan_id":"cebpf4jnsgd1na2vs0mg"},{"bike_id":"feb26dd7-3413-425b-9845-38ec5180fc46","system_id":"levelo_inurba_marseille","lat":43.2992,"lon":5.38154,"is_reserved":false,"is_disabled":false,"rental_uris":{"android":"levelo://app?vid=feb26dd7-3413-425b-9845-38ec5180fc46","ios":"levelo://app?vid=feb26dd7-3413-425b-9845-38ec5180fc46"},"vehicle_type_id":"4","last_reported":1776832685,"current_range_meters":8800,"station_id":"ce4bgj12rcd13ifvqbc0","pricing_plan_id":"cebpf4jnsgd1na2vs0mg"},{"bike_id":"54158463-085c-499f-9d12-01f94070f32c","system_id":"levelo_inurba_marseille","lat":43.23794,"lon":5.36634,"is_reserved":false,"is_disabled":false,"rental_uris":{"android":"levelo://app?vid=54158463-085c-499f-9d12-01f94070f32c","ios":"levelo://app?vid=54158463-085c-499f-9d12-01f94070f32c"},"vehicle_type_id":"4","last_reported":1776832685,"current_range_meters":8800,"station_id":"st_d3nk18o9ro0c73en2l3g","pricing_plan_id":"cebpf4jnsgd1na2vs0mg"},{"bike_id":"896611a9-601b-4f73-887f-331242128bea","system_id":"levelo_inurba_marseille","lat":43.32655,"lon":5.40989,"is_reserved":false,"is_disabled":false,"rental_uris":{"android":"levelo://app?vid=896611a9-601b-4f73-887f-331242128bea","ios":"levelo://app?vid=896611a9-601b-4f73-887f-331242128bea"},"vehicle_type_id":"4","last_reported":1776832685,"current_range_meters":8800,"station_id":"ce4bhpp2rcd13ifvqhgg","pricing_plan_id":"cebpf4jnsgd1na2vs0mg"},{"bike_id":"73d436be-8bb5-400c-b5b8-edfd7e8d5913","system_id":"levelo_inurba_marseille","lat":43.337444,"lon":5.374475,"is_reserved":false,"is_disabled":false,"rental_uris":{"android":"levelo://app?vid=73d436be-8bb5-400c-b5b8-edfd7e8d5913","ios":"levelo://app?vid=73d436be-8bb5-400c-b5b8-edfd7e8d5913"},"vehicle_type_id":"4","last_reported":1776832685,"current_range_meters":8800,"station_id":"ce4bhgp2rcd13ifvqfc0","pricing_plan_id":"cebpf4jnsgd1na2vs0mg"},{"bike_id":"e7843205-c962-4195-9224-39a246007b21","system_id":"levelo_inurba_marseille","lat":43.29522,"lon":5.39052,"is_reserved":false,"is_disabled":false,"rental_uris":{"android":"levelo://app?vid=e7843205-c962-4195-9224-39a246007b21","ios":"levelo://app?vid=e7843205-c962-4195-9224-39a246007b21"},"vehicle_type_id":"4","last_reported":1776832685,"current_range_meters":8800,"station_id":"ce4bh3p2rcd13ifvqdp0","pricing_plan_id":"cebpf4jnsgd1na2vs0mg"},{"bike_id":"12d1ddb5-1e2c-4b2d-a0d4-dafdec917212","system_id":"levelo_inurba_marseille","lat":43.28509,"lon":5.48395,"is_reserved":false,"is_disabled":false,"rental_uris":{"android":"levelo://app?vid=12d1ddb5-1e2c-4b2d-a0d4-dafdec917212","ios":"levelo://app?vid=12d1ddb5-1e2c-4b2d-a0d4-dafdec917212"},"vehicle_type_id":"4","last_reported":1776832685,"current_range_meters":8800,"station_id":"","pricing_plan_id":"cebpf4jnsgd1na2vs0mg"},{"bike_id":"50918bbe-8b4a-4832-b89d-ffef40c798ba","system_id":"levelo_inurba_marseille","lat":43.32354,"lon":5.36739,"is_reserved":false,"is_disabled":false,"rental_uris":{"android":"levelo://app?vid=50918bbe-8b4a-4832-b89d-ffef40c798ba","ios":"levelo://app?vid=50918bbe-8b4a-4832-b89d-ffef40c798ba"},"vehicle_type_id":"4","last_reported":1776832685,"current_range_meters":8800,"station_id":"ce4bhsh2rcd13ifvqi2g","pricing_plan_id":"cebpf4jnsgd1na2vs0mg"},{"bike_id":"a17e2b65-add5-4ec0-a652-45d70ab63712","system_id":"levelo_inurba_marseille","lat":43.28608,"lon":5.39875,"is_reserved":false,"is_disabled":false,"rental_uris":{"android":"levelo://app?vid=a17e2b65-add5-4ec0-a652-45d70ab63712","ios":"levelo://app?vid=a17e2b65-add5-4ec0-a652-45d70ab63712"},"vehicle_type_id":"4","last_reported":1776832685,"current_range_meters":8800,"station_id":"st_d4a7ka997mjs738ck50g","pricing_plan_id":"cebpf4jnsgd1na2vs0mg"},{"bike_id":"c7ff1d8c-9f80-4101-92ef-2f0b68fb525f","system_id":"levelo_inurba_marseille","lat":43.27588,"lon":5.39526,"is_reserved":false,"is_disabled":false,"rental_uris":{"android":"levelo://app?vid=c7ff1d8c-9f80-4101-92ef-2f0b68fb525f","ios":"levelo://app?vid=c7ff1d8c-9f80-4101-92ef-2f0b68fb525f"},"vehicle_type_id":"4","last_reported":1776832685,"current_range_meters":8800,"station_id":"","pricing_plan_id":"cebpf4jnsgd1na2vs0mg"},{"bike_id":"de8b4211-b96a-446f-90e6-60ae6acf48a7","system_id":"levelo_inurba_marseille","lat":43.2953,"lon":5.37488,"is_reserved":false,"is_disabled":false,"rental_uris":{"android":"levelo://app?vid=de8b4211-b96a-446f-90e6-60ae6acf48a7","ios":"levelo://app?vid=de8b4211-b96a-446f-90e6-60ae6acf48a7"},"vehicle_type_id":"4","last_reported":1776832685,"current_range_meters":8800,"station_id":"ce4bgkp2rcd13ifvqbmg","pricing_plan_id":"cebpf4jnsgd1na2vs0mg"},{"bike_id":"d1fda486-70ba-4609-b998-7713b50defe1","system_id":"levelo_inurba_marseille","lat":43.2704,"lon":5.40066,"is_reserved":false,"is_disabled":false,"rental_uris":{"android":"levelo://app?vid=d1fda486-70ba-4609-b998-7713b50defe1","ios":"levelo://app?vid=d1fda486-70ba-4609-b998-7713b50defe1"},"vehicle_type_id":"4","last_reported":1776832685,"current_range_meters":8800,"station_id":"","pricing_plan_id":"cebpf4jnsgd1na2vs0mg"},{"bike_id":"ea54b7f9-00c6-43b1-9a5a-534a8cb9648e","system_id":"levelo_inurba_marseille","lat":43.29786,"lon":5.38538,"is_reserved":false,"is_disabled":false,"rental_uris":{"android":"levelo://app?vid=ea54b7f9-00c6-43b1-9a5a-534a8cb9648e","ios":"levelo://app?vid=ea54b7f9-00c6-43b1-9a5a-534a8cb9648e"},"vehicle_type_id":"4","last_reported":1776832685,"current_range_meters":8800,"station_id":"","pricing_plan_id":"cebpf4jnsgd1na2vs0mg"},{"bike_id":"a94d236d-eba8-4733-81ef-6d7a05120d94","system_id":"levelo_inurba_marseille","lat":43.24874,"lon":5.39428,"is_reserved":false,"is_disabled":false,"rental_uris":{"android":"levelo://app?vid=a94d236d-eba8-4733-81ef-6d7a05120d94","ios":"levelo://app?vid=a94d236d-eba8-4733-81ef-6d7a05120d94"},"vehicle_type_id":"4","last_reported":1776832685,"current_range_meters":8800,"station_id":"","pricing_plan_id":"cebpf4jnsgd1na2vs0mg"},{"bike_id":"97640678-22eb-456e-8a6b-8940edbd10ca","system_id":"levelo_inurba_marseille","lat":43.23921,"lon":5.41483,"is_reserved":false,"is_disabled":false,"rental_uris":{"android":"levelo://app?vid=97640678-22eb-456e-8a6b-8940edbd10ca","ios":"levelo://app?vid=97640678-22eb-456e-8a6b-8940edbd10ca"},"vehicle_type_id":"4","last_reported":1776832685,"current_range_meters":8800,"station_id":"","pricing_plan_id":"cebpf4jnsgd1na2vs0mg"},{"bike_id":"6a6c0723-51ae-47f3-8bd8-0ea5c1d2e394","system_id":"levelo_inurba_marseille","lat":43.29539,"lon":5.39036,"is_reserved":false,"is_disabled":false,"rental_uris":{"android":"levelo://app?vid=6a6c0723-51ae-47f3-8bd8-0ea5c1d2e394","ios":"levelo://app?vid=6a6c0723-51ae-47f3-8bd8-0ea5c1d2e394"},"vehicle_type_id":"4","last_reported":1776832685,"current_range_meters":8800,"station_id":"ce4bh3p2rcd13ifvqdp0","pricing_plan_id":"cebpf4jnsgd1na2vs0mg"},{"bike_id":"7a412b8e-1f84-4a0c-bbf8-dd084d79f1f0","system_id":"levelo_inurba_marseille","lat":43.2919,"lon":5.35796,"is_reserved":false,"is_disabled":false,"rental_uris":{"android":"levelo://app?vid=7a412b8e-1f84-4a0c-bbf8-dd084d79f1f0","ios":"levelo://app?vid=7a412b8e-1f84-4a0c-bbf8-dd084d79f1f0"},"vehicle_type_id":"4","last_reported":1776832685,"current_range_meters":8800,"station_id":"ce4bhb12rcd13ifvqel0","pricing_plan_id":"cebpf4jnsgd1na2vs0mg"},{"bike_id":"13e8a1fb-acbf-4743-869e-4ec5f0dc6c5b","system_id":"levelo_inurba_marseille","lat":43.27052,"lon":5.42282,"is_reserved":false,"is_disabled":false,"rental_uris":{"android":"levelo://app?vid=13e8a1fb-acbf-4743-869e-4ec5f0dc6c5b","ios":"levelo://app?vid=13e8a1fb-acbf-4743-869e-4ec5f0dc6c5b"},"vehicle_type_id":"4","last_reported":1776832685,"current_range_meters":8800,"station_id":"ce4bhk92rcd13ifvqgb0","pricing_plan_id":"cebpf4jnsgd1na2vs0mg"},{"bike_id":"82bcc0e6-14a4-4c90-93f5-0c68b5821945","system_id":"levelo_inurba_marseille","lat":43.28624,"lon":5.39877,"is_reserved":false,"is_disabled":true,"rental_uris":{"android":"levelo://app?vid=82bcc0e6-14a4-4c90-93f5-0c68b5821945","ios":"levelo://app?vid=82bcc0e6-14a4-4c90-93f5-0c68b5821945"},"vehicle_type_id":"4","last_reported":1776832685,"current_range_meters":8800,"station_id":"st_d4a7ka997mjs738ck50g","pricing_plan_id":"cebpf4jnsgd1na2vs0mg"},{"bike_id":"6a37b8f2-598c-4865-986b-c1637c9a4546","system_id":"levelo_inurba_marseille","lat":43.23918,"lon":5.37444,"is_reserved":false,"is_disabled":false,"rental_uris":{"android":"levelo://app?vid=6a37b8f2-598c-4865-986b-c1637c9a4546","ios":"levelo://app?vid=6a37b8f2-598c-4865-986b-c1637c9a4546"},"vehicle_type_id":"4","last_reported":1776832685,"current_range_meters":8800,"station_id":"st_d6sm7csbq4hs73f8fpjg","pricing_plan_id":"cebpf4jnsgd1na2vs0mg"},{"bike_id":"cfcc8dcf-6816-46a1-945d-fdf5ccf50752","system_id":"levelo_inurba_marseille","lat":43.3094,"lon":5.41187,"is_reserved":false,"is_disabled":false,"rental_uris":{"android":"levelo://app?vid=cfcc8dcf-6816-46a1-945d-fdf5ccf50752","ios":"levelo://app?vid=cfcc8dcf-6816-46a1-945d-fdf5ccf50752"},"vehicle_type_id":"4","last_reported":1776832685,"current_range_meters":8800,"station_id":"","pricing_plan_id":"cebpf4jnsgd1na2vs0mg"},{"bike_id":"dd8d4df4-895e-4db8-b1cd-223e7e4d3814","system_id":"levelo_inurba_marseille","lat":43.31172,"lon":5.38718,"is_reserved":false,"is_disabled":false,"rental_uris":{"android":"levelo://app?vid=dd8d4df4-895e-4db8-b1cd-223e7e4d3814","ios":"levelo://app?vid=dd8d4df4-895e-4db8-b1cd-223e7e4d3814"},"vehicle_type_id":"4","last_reported":1776832685,"current_range_meters":8800,"station_id":"ce4bgv12rcd13ifvqcp0","pricing_plan_id":"cebpf4jnsgd1na2vs0mg"},{"bike_id":"80575779-c242-42a2-b57f-fe16e1520a85","system_id":"levelo_inurba_marseille","lat":43.28674,"lon":5.38648,"is_reserved":false,"is_disabled":false,"rental_uris":{"android":"levelo://app?vid=80575779-c242-42a2-b57f-fe16e1520a85","ios":"levelo://app?vid=80575779-c242-42a2-b57f-fe16e1520a85"},"vehicle_type_id":"4","last_reported":1776832685,"current_range_meters":8800,"station_id":"ce4bh492rcd13ifvqdug","pricing_plan_id":"cebpf4jnsgd1na2vs0mg"},{"bike_id":"1a223201-502c-4ebf-b329-9a8b77fd9946","system_id":"levelo_inurba_marseille","lat":43.27924,"lon":5.41045,"is_reserved":false,"is_disabled":false,"rental_uris":{"android":"levelo://app?vid=1a223201-502c-4ebf-b329-9a8b77fd9946","ios":"levelo://app?vid=1a223201-502c-4ebf-b329-9a8b77fd9946"},"vehicle_type_id":"4","last_reported":1776832685,"current_range_meters":9200,"station_id":"ce4bhnp2rcd13ifvqh0g","pricing_plan_id":"cebpf4jnsgd1na2vs0mg"},{"bike_id":"804f369f-bd6d-4c62-a22b-a4a90eae1ff8","system_id":"levelo_inurba_marseille","lat":43.30801,"lon":5.38159,"is_reserved":false,"is_disabled":false,"rental_uris":{"android":"levelo://app?vid=804f369f-bd6d-4c62-a22b-a4a90eae1ff8","ios":"levelo://app?vid=804f369f-bd6d-4c62-a22b-a4a90eae1ff8"},"vehicle_type_id":"4","last_reported":1776832685,"current_range_meters":9200,"station_id":"ce4bgt12rcd13ifvqce0","pricing_plan_id":"cebpf4jnsgd1na2vs0mg"},{"bike_id":"8d0db610-e479-4646-b75a-5fd3835c7f9b","system_id":"levelo_inurba_marseille","lat":43.24073,"lon":5.3782,"is_reserved":false,"is_disabled":false,"rental_uris":{"android":"levelo://app?vid=8d0db610-e479-4646-b75a-5fd3835c7f9b","ios":"levelo://app?vid=8d0db610-e479-4646-b75a-5fd3835c7f9b"},"vehicle_type_id":"4","last_reported":1776832685,"current_range_meters":9200,"station_id":"ce4bhnp2rcd13ifvqgvg","pricing_plan_id":"cebpf4jnsgd1na2vs0mg"},{"bike_id":"bd13bc00-12c5-4da2-91ea-ddbdc11a15b7","system_id":"levelo_inurba_marseille","lat":43.28669,"lon":5.40219,"is_reserved":false,"is_disabled":false,"rental_uris":{"android":"levelo://app?vid=bd13bc00-12c5-4da2-91ea-ddbdc11a15b7","ios":"levelo://app?vid=bd13bc00-12c5-4da2-91ea-ddbdc11a15b7"},"vehicle_type_id":"4","last_reported":1776832685,"current_range_meters":9200,"station_id":"","pricing_plan_id":"cebpf4jnsgd1na2vs0mg"},{"bike_id":"2ac15ea7-1904-4a69-9f5e-f4cb7754354f","system_id":"levelo_inurba_marseille","lat":43.24077,"lon":5.37758,"is_reserved":false,"is_disabled":false,"rental_uris":{"android":"levelo://app?vid=2ac15ea7-1904-4a69-9f5e-f4cb7754354f","ios":"levelo://app?vid=2ac15ea7-1904-4a69-9f5e-f4cb7754354f"},"vehicle_type_id":"4","last_reported":1776832685,"current_range_meters":9200,"station_id":"ce4bhnp2rcd13ifvqgvg","pricing_plan_id":"cebpf4jnsgd1na2vs0mg"},{"bike_id":"15cb8c60-d64e-4c9d-844a-c9a0db8ed60b","system_id":"levelo_inurba_marseille","lat":43.2911,"lon":5.40078,"is_reserved":false,"is_disabled":false,"rental_uris":{"android":"levelo://app?vid=15cb8c60-d64e-4c9d-844a-c9a0db8ed60b","ios":"levelo://app?vid=15cb8c60-d64e-4c9d-844a-c9a0db8ed60b"},"vehicle_type_id":"4","last_reported":1776832685,"current_range_meters":9200,"station_id":"","pricing_plan_id":"cebpf4jnsgd1na2vs0mg"},{"bike_id":"abaea4b7-03dc-4096-8d8a-e98114f13e15","system_id":"levelo_inurba_marseille","lat":43.31346,"lon":5.39713,"is_reserved":false,"is_disabled":false,"rental_uris":{"android":"levelo://app?vid=abaea4b7-03dc-4096-8d8a-e98114f13e15","ios":"levelo://app?vid=abaea4b7-03dc-4096-8d8a-e98114f13e15"},"vehicle_type_id":"4","last_reported":1776832685,"current_range_meters":9200,"station_id":"ce4bgvp2rcd13ifvqcu0","pricing_plan_id":"cebpf4jnsgd1na2vs0mg"},{"bike_id":"6ee75b1e-3389-452c-805f-052a7231f6b2","system_id":"levelo_inurba_marseille","lat":43.28849,"lon":5.42516,"is_reserved":false,"is_disabled":false,"rental_uris":{"android":"levelo://app?vid=6ee75b1e-3389-452c-805f-052a7231f6b2","ios":"levelo://app?vid=6ee75b1e-3389-452c-805f-052a7231f6b2"},"vehicle_type_id":"4","last_reported":1776832685,"current_range_meters":9600,"station_id":"st_d3b462108ojc7389ooeg","pricing_plan_id":"cebpf4jnsgd1na2vs0mg"},{"bike_id":"749fd065-9373-4de0-9bcc-225669d1d344","system_id":"levelo_inurba_marseille","lat":43.28685,"lon":5.38691,"is_reserved":false,"is_disabled":false,"rental_uris":{"android":"levelo://app?vid=749fd065-9373-4de0-9bcc-225669d1d344","ios":"levelo://app?vid=749fd065-9373-4de0-9bcc-225669d1d344"},"vehicle_type_id":"4","last_reported":1776832685,"current_range_meters":9600,"station_id":"ce4bh492rcd13ifvqdug","pricing_plan_id":"cebpf4jnsgd1na2vs0mg"},{"bike_id":"ead43bb9-0c84-4d4f-999a-008e04f1ef77","system_id":"levelo_inurba_marseille","lat":43.28115,"lon":5.37841,"is_reserved":false,"is_disabled":false,"rental_uris":{"android":"levelo://app?vid=ead43bb9-0c84-4d4f-999a-008e04f1ef77","ios":"levelo://app?vid=ead43bb9-0c84-4d4f-999a-008e04f1ef77"},"vehicle_type_id":"4","last_reported":1776832685,"current_range_meters":9600,"station_id":"ce4bha12rcd13ifvqee0","pricing_plan_id":"cebpf4jnsgd1na2vs0mg"},{"bike_id":"16f7fe35-694a-4eb9-9cc6-4679694d07e2","system_id":"levelo_inurba_marseille","lat":43.31237,"lon":5.37917,"is_reserved":false,"is_disabled":false,"rental_uris":{"android":"levelo://app?vid=16f7fe35-694a-4eb9-9cc6-4679694d07e2","ios":"levelo://app?vid=16f7fe35-694a-4eb9-9cc6-4679694d07e2"},"vehicle_type_id":"4","last_reported":1776832685,"current_range_meters":9600,"station_id":"","pricing_plan_id":"cebpf4jnsgd1na2vs0mg"},{"bike_id":"9fb54bca-ba88-4da0-9bed-a5b2efdfb47c","system_id":"levelo_inurba_marseille","lat":43.30273,"lon":5.36895,"is_reserved":false,"is_disabled":false,"rental_uris":{"android":"levelo://app?vid=9fb54bca-ba88-4da0-9bed-a5b2efdfb47c","ios":"levelo://app?vid=9fb54bca-ba88-4da0-9bed-a5b2efdfb47c"},"vehicle_type_id":"4","last_reported":1776832685,"current_range_meters":9600,"station_id":"ce4bgqh2rcd13ifvqc5g","pricing_plan_id":"cebpf4jnsgd1na2vs0mg"},{"bike_id":"b07df4a8-3a84-4a6f-8930-a25b3ebe2fc3","system_id":"levelo_inurba_marseille","lat":43.3102,"lon":5.37718,"is_reserved":false,"is_disabled":false,"rental_uris":{"android":"levelo://app?vid=b07df4a8-3a84-4a6f-8930-a25b3ebe2fc3","ios":"levelo://app?vid=b07df4a8-3a84-4a6f-8930-a25b3ebe2fc3"},"vehicle_type_id":"4","last_reported":1776832685,"current_range_meters":9600,"station_id":"","pricing_plan_id":"cebpf4jnsgd1na2vs0mg"},{"bike_id":"226ece2b-87fc-494b-b9b1-29d4f3a23456","system_id":"levelo_inurba_marseille","lat":43.28331,"lon":5.42657,"is_reserved":false,"is_disabled":false,"rental_uris":{"android":"levelo://app?vid=226ece2b-87fc-494b-b9b1-29d4f3a23456","ios":"levelo://app?vid=226ece2b-87fc-494b-b9b1-29d4f3a23456"},"vehicle_type_id":"4","last_reported":1776832685,"current_range_meters":9600,"station_id":"","pricing_plan_id":"cebpf4jnsgd1na2vs0mg"},{"bike_id":"b37140c8-384f-44e2-8694-39dc2a8e307f","system_id":"levelo_inurba_marseille","lat":43.28437,"lon":5.39193,"is_reserved":false,"is_disabled":false,"rental_uris":{"android":"levelo://app?vid=b37140c8-384f-44e2-8694-39dc2a8e307f","ios":"levelo://app?vid=b37140c8-384f-44e2-8694-39dc2a8e307f"},"vehicle_type_id":"4","last_reported":1776832685,"current_range_meters":9600,"station_id":"ce4bhoh2rcd13ifvqh5g","pricing_plan_id":"cebpf4jnsgd1na2vs0mg"},{"bike_id":"f8d46f57-68ae-42a5-9479-ae67d8834276","system_id":"levelo_inurba_marseille","lat":43.30065,"lon":5.3707,"is_reserved":false,"is_disabled":false,"rental_uris":{"android":"levelo://app?vid=f8d46f57-68ae-42a5-9479-ae67d8834276","ios":"levelo://app?vid=f8d46f57-68ae-42a5-9479-ae67d8834276"},"vehicle_type_id":"4","last_reported":1776832685,"current_range_meters":9600,"station_id":"","pricing_plan_id":"cebpf4jnsgd1na2vs0mg"},{"bike_id":"2ff273f4-4a39-408d-a8b4-03c55318b1d8","system_id":"levelo_inurba_marseille","lat":43.31316,"lon":5.39714,"is_reserved":false,"is_disabled":false,"rental_uris":{"android":"levelo://app?vid=2ff273f4-4a39-408d-a8b4-03c55318b1d8","ios":"levelo://app?vid=2ff273f4-4a39-408d-a8b4-03c55318b1d8"},"vehicle_type_id":"4","last_reported":1776832685,"current_range_meters":9600,"station_id":"ce4bgvp2rcd13ifvqcu0","pricing_plan_id":"cebpf4jnsgd1na2vs0mg"},{"bike_id":"2ff3c302-b36c-4dfc-9991-f756408678e7","system_id":"levelo_inurba_marseille","lat":43.24056,"lon":5.37723,"is_reserved":false,"is_disabled":false,"rental_uris":{"android":"levelo://app?vid=2ff3c302-b36c-4dfc-9991-f756408678e7","ios":"levelo://app?vid=2ff3c302-b36c-4dfc-9991-f756408678e7"},"vehicle_type_id":"4","last_reported":1776832685,"current_range_meters":9600,"station_id":"ce4bhnp2rcd13ifvqgvg","pricing_plan_id":"cebpf4jnsgd1na2vs0mg"},{"bike_id":"6b23908a-27fc-400a-b1b6-9daa8d6ab014","system_id":"levelo_inurba_marseille","lat":43.33707,"lon":5.39819,"is_reserved":false,"is_disabled":false,"rental_uris":{"android":"levelo://app?vid=6b23908a-27fc-400a-b1b6-9daa8d6ab014","ios":"levelo://app?vid=6b23908a-27fc-400a-b1b6-9daa8d6ab014"},"vehicle_type_id":"4","last_reported":1776832685,"current_range_meters":9600,"station_id":"","pricing_plan_id":"cebpf4jnsgd1na2vs0mg"},{"bike_id":"e10250f5-d5c8-49a8-8044-1905ebcab35b","system_id":"levelo_inurba_marseille","lat":43.28915,"lon":5.36641,"is_reserved":false,"is_disabled":false,"rental_uris":{"android":"levelo://app?vid=e10250f5-d5c8-49a8-8044-1905ebcab35b","ios":"levelo://app?vid=e10250f5-d5c8-49a8-8044-1905ebcab35b"},"vehicle_type_id":"4","last_reported":1776832685,"current_range_meters":9600,"station_id":"ce4bhap2rcd13ifvqek0","pricing_plan_id":"cebpf4jnsgd1na2vs0mg"},{"bike_id":"6f061c2d-e294-44c5-a556-1fdc3d57ab50","system_id":"levelo_inurba_marseille","lat":43.31707,"lon":5.40456,"is_reserved":false,"is_disabled":false,"rental_uris":{"android":"levelo://app?vid=6f061c2d-e294-44c5-a556-1fdc3d57ab50","ios":"levelo://app?vid=6f061c2d-e294-44c5-a556-1fdc3d57ab50"},"vehicle_type_id":"4","last_reported":1776832685,"current_range_meters":10000,"station_id":"ce4bh012rcd13ifvqd00","pricing_plan_id":"cebpf4jnsgd1na2vs0mg"},{"bike_id":"09012acd-7e2a-4e46-b00e-3df38d87fafc","system_id":"levelo_inurba_marseille","lat":43.2488,"lon":5.4065,"is_reserved":false,"is_disabled":false,"rental_uris":{"android":"levelo://app?vid=09012acd-7e2a-4e46-b00e-3df38d87fafc","ios":"levelo://app?vid=09012acd-7e2a-4e46-b00e-3df38d87fafc"},"vehicle_type_id":"4","last_reported":1776832685,"current_range_meters":10000,"station_id":"","pricing_plan_id":"cebpf4jnsgd1na2vs0mg"},{"bike_id":"3e36abd9-8c82-4c8b-91e5-0723067a4e7e","system_id":"levelo_inurba_marseille","lat":43.29626,"lon":5.37165,"is_reserved":false,"is_disabled":false,"rental_uris":{"android":"levelo://app?vid=3e36abd9-8c82-4c8b-91e5-0723067a4e7e","ios":"levelo://app?vid=3e36abd9-8c82-4c8b-91e5-0723067a4e7e"},"vehicle_type_id":"4","last_reported":1776832685,"current_range_meters":10000,"station_id":"ce4bgnh2rcd13ifvqc0g","pricing_plan_id":"cebpf4jnsgd1na2vs0mg"},{"bike_id":"b0292b57-bc6e-4d3d-855f-2c85d8c85123","system_id":"levelo_inurba_marseille","lat":43.29321,"lon":5.36256,"is_reserved":false,"is_disabled":false,"rental_uris":{"android":"levelo://app?vid=b0292b57-bc6e-4d3d-855f-2c85d8c85123","ios":"levelo://app?vid=b0292b57-bc6e-4d3d-855f-2c85d8c85123"},"vehicle_type_id":"4","last_reported":1776832685,"current_range_meters":10000,"station_id":"","pricing_plan_id":"cebpf4jnsgd1na2vs0mg"},{"bike_id":"f073afee-cba8-40f3-8cbe-a4d3aba602f4","system_id":"levelo_inurba_marseille","lat":43.28276,"lon":5.3506,"is_reserved":false,"is_disabled":true,"rental_uris":{"android":"levelo://app?vid=f073afee-cba8-40f3-8cbe-a4d3aba602f4","ios":"levelo://app?vid=f073afee-cba8-40f3-8cbe-a4d3aba602f4"},"vehicle_type_id":"4","last_reported":1776832685,"current_range_meters":10000,"station_id":"ce4bhbp2rcd13ifvqerg","pricing_plan_id":"cebpf4jnsgd1na2vs0mg"},{"bike_id":"32fd39c8-747f-4e51-ab12-cdc3c3974430","system_id":"levelo_inurba_marseille","lat":43.27913,"lon":5.39593,"is_reserved":false,"is_disabled":false,"rental_uris":{"android":"levelo://app?vid=32fd39c8-747f-4e51-ab12-cdc3c3974430","ios":"levelo://app?vid=32fd39c8-747f-4e51-ab12-cdc3c3974430"},"vehicle_type_id":"4","last_reported":1776832685,"current_range_meters":10000,"station_id":"ce4bhf92rcd13ifvqf40","pricing_plan_id":"cebpf4jnsgd1na2vs0mg"},{"bike_id":"c95d7ad7-55ba-482a-b00a-3a1bc2729c2f","system_id":"levelo_inurba_marseille","lat":43.28498,"lon":5.38435,"is_reserved":false,"is_disabled":false,"rental_uris":{"android":"levelo://app?vid=c95d7ad7-55ba-482a-b00a-3a1bc2729c2f","ios":"levelo://app?vid=c95d7ad7-55ba-482a-b00a-3a1bc2729c2f"},"vehicle_type_id":"4","last_reported":1776832685,"current_range_meters":10000,"station_id":"ce4bh512rcd13ifvqe3g","pricing_plan_id":"cebpf4jnsgd1na2vs0mg"},{"bike_id":"1c21b5e4-18ba-4d77-b990-0019b8294ddb","system_id":"levelo_inurba_marseille","lat":43.2659,"lon":5.39643,"is_reserved":false,"is_disabled":false,"rental_uris":{"android":"levelo://app?vid=1c21b5e4-18ba-4d77-b990-0019b8294ddb","ios":"levelo://app?vid=1c21b5e4-18ba-4d77-b990-0019b8294ddb"},"vehicle_type_id":"4","last_reported":1776832685,"current_range_meters":10000,"station_id":"","pricing_plan_id":"cebpf4jnsgd1na2vs0mg"},{"bike_id":"cb74c37c-0349-47b3-85df-080ebdd748d7","system_id":"levelo_inurba_marseille","lat":43.26759,"lon":5.37562,"is_reserved":false,"is_disabled":false,"rental_uris":{"android":"levelo://app?vid=cb74c37c-0349-47b3-85df-080ebdd748d7","ios":"levelo://app?vid=cb74c37c-0349-47b3-85df-080ebdd748d7"},"vehicle_type_id":"4","last_reported":1776832685,"current_range_meters":10000,"station_id":"","pricing_plan_id":"cebpf4jnsgd1na2vs0mg"},{"bike_id":"7af19307-88ba-4f26-8f95-a2adf190dff7","system_id":"levelo_inurba_marseille","lat":43.30438,"lon":5.40103,"is_reserved":false,"is_disabled":false,"rental_uris":{"android":"levelo://app?vid=7af19307-88ba-4f26-8f95-a2adf190dff7","ios":"levelo://app?vid=7af19307-88ba-4f26-8f95-a2adf190dff7"},"vehicle_type_id":"4","last_reported":1776832685,"current_range_meters":10000,"station_id":"","pricing_plan_id":"cebpf4jnsgd1na2vs0mg"},{"bike_id":"233600e6-095d-4d90-aabb-f94591bfc7be","system_id":"levelo_inurba_marseille","lat":43.29853,"lon":5.39727,"is_reserved":false,"is_disabled":false,"rental_uris":{"android":"levelo://app?vid=233600e6-095d-4d90-aabb-f94591bfc7be","ios":"levelo://app?vid=233600e6-095d-4d90-aabb-f94591bfc7be"},"vehicle_type_id":"4","last_reported":1776832685,"current_range_meters":10000,"station_id":"ce4bh0h2rcd13ifvqd50","pricing_plan_id":"cebpf4jnsgd1na2vs0mg"},{"bike_id":"7c2d4cbd-4710-4158-8d5e-3ef9174bf26f","system_id":"levelo_inurba_marseille","lat":43.28121,"lon":5.42293,"is_reserved":false,"is_disabled":true,"rental_uris":{"android":"levelo://app?vid=7c2d4cbd-4710-4158-8d5e-3ef9174bf26f","ios":"levelo://app?vid=7c2d4cbd-4710-4158-8d5e-3ef9174bf26f"},"vehicle_type_id":"4","last_reported":1776832685,"current_range_meters":10000,"station_id":"","pricing_plan_id":"cebpf4jnsgd1na2vs0mg"},{"bike_id":"25931435-472d-4946-9b9a-fc67e50f018d","system_id":"levelo_inurba_marseille","lat":43.23029,"lon":5.4448,"is_reserved":false,"is_disabled":false,"rental_uris":{"android":"levelo://app?vid=25931435-472d-4946-9b9a-fc67e50f018d","ios":"levelo://app?vid=25931435-472d-4946-9b9a-fc67e50f018d"},"vehicle_type_id":"4","last_reported":1776832685,"current_range_meters":10000,"station_id":"","pricing_plan_id":"cebpf4jnsgd1na2vs0mg"},{"bike_id":"772652df-39a3-4a7d-ab76-86683fdc6511","system_id":"levelo_inurba_marseille","lat":43.28926,"lon":5.36866,"is_reserved":false,"is_disabled":false,"rental_uris":{"android":"levelo://app?vid=772652df-39a3-4a7d-ab76-86683fdc6511","ios":"levelo://app?vid=772652df-39a3-4a7d-ab76-86683fdc6511"},"vehicle_type_id":"4","last_reported":1776832685,"current_range_meters":10000,"station_id":"","pricing_plan_id":"cebpf4jnsgd1na2vs0mg"},{"bike_id":"dbe7f0f5-8654-49f7-bfc1-85076e160f11","system_id":"levelo_inurba_marseille","lat":43.27899,"lon":5.44153,"is_reserved":false,"is_disabled":false,"rental_uris":{"android":"levelo://app?vid=dbe7f0f5-8654-49f7-bfc1-85076e160f11","ios":"levelo://app?vid=dbe7f0f5-8654-49f7-bfc1-85076e160f11"},"vehicle_type_id":"4","last_reported":1776832685,"current_range_meters":10000,"station_id":"","pricing_plan_id":"cebpf4jnsgd1na2vs0mg"},{"bike_id":"69c3fb01-2ae4-4d0b-86dc-5366fcc8dfd5","system_id":"levelo_inurba_marseille","lat":43.26182,"lon":5.3746,"is_reserved":false,"is_disabled":false,"rental_uris":{"android":"levelo://app?vid=69c3fb01-2ae4-4d0b-86dc-5366fcc8dfd5","ios":"levelo://app?vid=69c3fb01-2ae4-4d0b-86dc-5366fcc8dfd5"},"vehicle_type_id":"4","last_reported":1776832685,"current_range_meters":10800,"station_id":"ce4bhgp2rcd13ifvqfc0","pricing_plan_id":"cebpf4jnsgd1na2vs0mg"},{"bike_id":"3f50794c-c430-4b89-94ad-5c0aa9eea65c","system_id":"levelo_inurba_marseille","lat":43.27821,"lon":5.40708,"is_reserved":false,"is_disabled":true,"rental_uris":{"android":"levelo://app?vid=3f50794c-c430-4b89-94ad-5c0aa9eea65c","ios":"levelo://app?vid=3f50794c-c430-4b89-94ad-5c0aa9eea65c"},"vehicle_type_id":"4","last_reported":1776832685,"current_range_meters":10800,"station_id":"ce4bhnh2rcd13ifvqgtg","pricing_plan_id":"cebpf4jnsgd1na2vs0mg"},{"bike_id":"923b87f1-b066-476c-9dac-fbfbdd7a8e12","system_id":"levelo_inurba_marseille","lat":43.27673,"lon":5.39423,"is_reserved":false,"is_disabled":false,"rental_uris":{"android":"levelo://app?vid=923b87f1-b066-476c-9dac-fbfbdd7a8e12","ios":"levelo://app?vid=923b87f1-b066-476c-9dac-fbfbdd7a8e12"},"vehicle_type_id":"4","last_reported":1776832685,"current_range_meters":10800,"station_id":"","pricing_plan_id":"cebpf4jnsgd1na2vs0mg"},{"bike_id":"6ffc15b8-1554-41c5-bb1b-9ba599c4e6bd","system_id":"levelo_inurba_marseille","lat":43.28164,"lon":5.3636,"is_reserved":false,"is_disabled":false,"rental_uris":{"android":"levelo://app?vid=6ffc15b8-1554-41c5-bb1b-9ba599c4e6bd","ios":"levelo://app?vid=6ffc15b8-1554-41c5-bb1b-9ba599c4e6bd"},"vehicle_type_id":"4","last_reported":1776832685,"current_range_meters":10800,"station_id":"","pricing_plan_id":"cebpf4jnsgd1na2vs0mg"},{"bike_id":"c9d6a56c-612e-42dd-97a2-0ec073bd10b6","system_id":"levelo_inurba_marseille","lat":43.30419,"lon":5.41265,"is_reserved":false,"is_disabled":true,"rental_uris":{"android":"levelo://app?vid=c9d6a56c-612e-42dd-97a2-0ec073bd10b6","ios":"levelo://app?vid=c9d6a56c-612e-42dd-97a2-0ec073bd10b6"},"vehicle_type_id":"4","last_reported":1776832685,"current_range_meters":10800,"station_id":"ce4bhop2rcd13ifvqh8g","pricing_plan_id":"cebpf4jnsgd1na2vs0mg"},{"bike_id":"500638d0-cf5c-4061-b413-99b5dc6f2377","system_id":"levelo_inurba_marseille","lat":43.27445,"lon":5.42488,"is_reserved":false,"is_disabled":false,"rental_uris":{"android":"levelo://app?vid=500638d0-cf5c-4061-b413-99b5dc6f2377","ios":"levelo://app?vid=500638d0-cf5c-4061-b413-99b5dc6f2377"},"vehicle_type_id":"4","last_reported":1776832685,"current_range_meters":10800,"station_id":"","pricing_plan_id":"cebpf4jnsgd1na2vs0mg"},{"bike_id":"97ef517c-a3ac-4c23-a634-ba556e45220a","system_id":"levelo_inurba_marseille","lat":43.29625,"lon":5.37148,"is_reserved":false,"is_disabled":false,"rental_uris":{"android":"levelo://app?vid=97ef517c-a3ac-4c23-a634-ba556e45220a","ios":"levelo://app?vid=97ef517c-a3ac-4c23-a634-ba556e45220a"},"vehicle_type_id":"4","last_reported":1776832685,"current_range_meters":10800,"station_id":"ce4bgnh2rcd13ifvqc0g","pricing_plan_id":"cebpf4jnsgd1na2vs0mg"},{"bike_id":"0d30d1ee-6910-4aa6-9fbb-9e4f13b5fea9","system_id":"levelo_inurba_marseille","lat":43.32093,"lon":5.36812,"is_reserved":false,"is_disabled":false,"rental_uris":{"android":"levelo://app?vid=0d30d1ee-6910-4aa6-9fbb-9e4f13b5fea9","ios":"levelo://app?vid=0d30d1ee-6910-4aa6-9fbb-9e4f13b5fea9"},"vehicle_type_id":"4","last_reported":1776832685,"current_range_meters":10800,"station_id":"ce4bhrh2rcd13ifvqhug","pricing_plan_id":"cebpf4jnsgd1na2vs0mg"},{"bike_id":"5b342beb-b60e-40e8-9b5a-680a39800fc8","system_id":"levelo_inurba_marseille","lat":43.28098,"lon":5.37837,"is_reserved":false,"is_disabled":false,"rental_uris":{"android":"levelo://app?vid=5b342beb-b60e-40e8-9b5a-680a39800fc8","ios":"levelo://app?vid=5b342beb-b60e-40e8-9b5a-680a39800fc8"},"vehicle_type_id":"4","last_reported":1776832685,"current_range_meters":10800,"station_id":"ce4bha12rcd13ifvqee0","pricing_plan_id":"cebpf4jnsgd1na2vs0mg"},{"bike_id":"31eb5727-3731-48e1-a05b-0539e68fc8ef","system_id":"levelo_inurba_marseille","lat":43.29501,"lon":5.3904,"is_reserved":false,"is_disabled":false,"rental_uris":{"android":"levelo://app?vid=31eb5727-3731-48e1-a05b-0539e68fc8ef","ios":"levelo://app?vid=31eb5727-3731-48e1-a05b-0539e68fc8ef"},"vehicle_type_id":"4","last_reported":1776832685,"current_range_meters":10800,"station_id":"ce4bh3p2rcd13ifvqdp0","pricing_plan_id":"cebpf4jnsgd1na2vs0mg"},{"bike_id":"52d848d3-e124-40a2-855d-fb7f07415aa4","system_id":"levelo_inurba_marseille","lat":43.28404,"lon":5.37533,"is_reserved":false,"is_disabled":true,"rental_uris":{"android":"levelo://app?vid=52d848d3-e124-40a2-855d-fb7f07415aa4","ios":"levelo://app?vid=52d848d3-e124-40a2-855d-fb7f07415aa4"},"vehicle_type_id":"4","last_reported":1776832685,"current_range_meters":10800,"station_id":"ce4bh412rcd13ifvqds0","pricing_plan_id":"cebpf4jnsgd1na2vs0mg"},{"bike_id":"76f79e84-4e82-417e-b9f7-586af1328d81","system_id":"levelo_inurba_marseille","lat":43.24594,"lon":5.4209,"is_reserved":false,"is_disabled":false,"rental_uris":{"android":"levelo://app?vid=76f79e84-4e82-417e-b9f7-586af1328d81","ios":"levelo://app?vid=76f79e84-4e82-417e-b9f7-586af1328d81"},"vehicle_type_id":"4","last_reported":1776832685,"current_range_meters":10800,"station_id":"","pricing_plan_id":"cebpf4jnsgd1na2vs0mg"},{"bike_id":"f89c6752-4825-4438-9c77-f7c8ada80cbf","system_id":"levelo_inurba_marseille","lat":43.24335,"lon":5.38494,"is_reserved":false,"is_disabled":false,"rental_uris":{"android":"levelo://app?vid=f89c6752-4825-4438-9c77-f7c8ada80cbf","ios":"levelo://app?vid=f89c6752-4825-4438-9c77-f7c8ada80cbf"},"vehicle_type_id":"4","last_reported":1776832685,"current_range_meters":10800,"station_id":"","pricing_plan_id":"cebpf4jnsgd1na2vs0mg"},{"bike_id":"2eb260e9-46bc-4f1a-a81c-8bd42648b75e","system_id":"levelo_inurba_marseille","lat":43.28096,"lon":5.37907,"is_reserved":false,"is_disabled":false,"rental_uris":{"android":"levelo://app?vid=2eb260e9-46bc-4f1a-a81c-8bd42648b75e","ios":"levelo://app?vid=2eb260e9-46bc-4f1a-a81c-8bd42648b75e"},"vehicle_type_id":"4","last_reported":1776832685,"current_range_meters":10800,"station_id":"","pricing_plan_id":"cebpf4jnsgd1na2vs0mg"},{"bike_id":"47948ced-7f9e-49a1-bcc7-bf302d272888","system_id":"levelo_inurba_marseille","lat":43.30793,"lon":5.38162,"is_reserved":false,"is_disabled":false,"rental_uris":{"android":"levelo://app?vid=47948ced-7f9e-49a1-bcc7-bf302d272888","ios":"levelo://app?vid=47948ced-7f9e-49a1-bcc7-bf302d272888"},"vehicle_type_id":"4","last_reported":1776832685,"current_range_meters":10800,"station_id":"ce4bgt12rcd13ifvqce0","pricing_plan_id":"cebpf4jnsgd1na2vs0mg"},{"bike_id":"19433796-61b0-4ae1-b1de-efe9872556df","system_id":"levelo_inurba_marseille","lat":43.28412,"lon":5.37517,"is_reserved":false,"is_disabled":true,"rental_uris":{"android":"levelo://app?vid=19433796-61b0-4ae1-b1de-efe9872556df","ios":"levelo://app?vid=19433796-61b0-4ae1-b1de-efe9872556df"},"vehicle_type_id":"4","last_reported":1776832685,"current_range_meters":10800,"station_id":"ce4bh412rcd13ifvqds0","pricing_plan_id":"cebpf4jnsgd1na2vs0mg"},{"bike_id":"deb2231e-0861-4602-8eeb-c5067b2ff42f","system_id":"levelo_inurba_marseille","lat":43.27494,"lon":5.42434,"is_reserved":false,"is_disabled":false,"rental_uris":{"android":"levelo://app?vid=deb2231e-0861-4602-8eeb-c5067b2ff42f","ios":"levelo://app?vid=deb2231e-0861-4602-8eeb-c5067b2ff42f"},"vehicle_type_id":"4","last_reported":1776832685,"current_range_meters":10800,"station_id":"ce4bhn92rcd13ifvqgrg","pricing_plan_id":"cebpf4jnsgd1na2vs0mg"},{"bike_id":"0d8738c8-efd5-4f83-bedf-81eb9a1d6096","system_id":"levelo_inurba_marseille","lat":43.33166,"lon":5.36172,"is_reserved":false,"is_disabled":false,"rental_uris":{"android":"levelo://app?vid=0d8738c8-efd5-4f83-bedf-81eb9a1d6096","ios":"levelo://app?vid=0d8738c8-efd5-4f83-bedf-81eb9a1d6096"},"vehicle_type_id":"4","last_reported":1776832685,"current_range_meters":10800,"station_id":"","pricing_plan_id":"cebpf4jnsgd1na2vs0mg"},{"bike_id":"f1e17ef2-58da-4c6a-aab7-1db097bb104c","system_id":"levelo_inurba_marseille","lat":43.27089,"lon":5.36313,"is_reserved":false,"is_disabled":true,"rental_uris":{"android":"levelo://app?vid=f1e17ef2-58da-4c6a-aab7-1db097bb104c","ios":"levelo://app?vid=f1e17ef2-58da-4c6a-aab7-1db097bb104c"},"vehicle_type_id":"4","last_reported":1776832685,"current_range_meters":10800,"station_id":"","pricing_plan_id":"cebpf4jnsgd1na2vs0mg"},{"bike_id":"4961947c-ae80-4ed4-baac-82b2a45ee6d8","system_id":"levelo_inurba_marseille","lat":43.29267,"lon":5.40161,"is_reserved":false,"is_disabled":false,"rental_uris":{"android":"levelo://app?vid=4961947c-ae80-4ed4-baac-82b2a45ee6d8","ios":"levelo://app?vid=4961947c-ae80-4ed4-baac-82b2a45ee6d8"},"vehicle_type_id":"4","last_reported":1776832685,"current_range_meters":10800,"station_id":"ce4bh312rcd13ifvqdk0","pricing_plan_id":"cebpf4jnsgd1na2vs0mg"},{"bike_id":"ed8d4cd2-40f0-45ef-a90a-c4da91ce5080","system_id":"levelo_inurba_marseille","lat":43.28429,"lon":5.39184,"is_reserved":false,"is_disabled":false,"rental_uris":{"android":"levelo://app?vid=ed8d4cd2-40f0-45ef-a90a-c4da91ce5080","ios":"levelo://app?vid=ed8d4cd2-40f0-45ef-a90a-c4da91ce5080"},"vehicle_type_id":"4","last_reported":1776832685,"current_range_meters":10800,"station_id":"ce4bhoh2rcd13ifvqh5g","pricing_plan_id":"cebpf4jnsgd1na2vs0mg"},{"bike_id":"46335186-6bd7-4461-9e78-da17046593c8","system_id":"levelo_inurba_marseille","lat":43.2842,"lon":5.38477,"is_reserved":false,"is_disabled":false,"rental_uris":{"android":"levelo://app?vid=46335186-6bd7-4461-9e78-da17046593c8","ios":"levelo://app?vid=46335186-6bd7-4461-9e78-da17046593c8"},"vehicle_type_id":"4","last_reported":1776832685,"current_range_meters":10800,"station_id":"","pricing_plan_id":"cebpf4jnsgd1na2vs0mg"},{"bike_id":"dc7147ac-dbec-4cec-9368-a4559240fe68","system_id":"levelo_inurba_marseille","lat":43.24343,"lon":5.38492,"is_reserved":false,"is_disabled":false,"rental_uris":{"android":"levelo://app?vid=dc7147ac-dbec-4cec-9368-a4559240fe68","ios":"levelo://app?vid=dc7147ac-dbec-4cec-9368-a4559240fe68"},"vehicle_type_id":"4","last_reported":1776832685,"current_range_meters":10800,"station_id":"","pricing_plan_id":"cebpf4jnsgd1na2vs0mg"},{"bike_id":"8a7f64b1-3554-47ae-aa65-9faf1b37cc44","system_id":"levelo_inurba_marseille","lat":43.29872,"lon":5.38917,"is_reserved":false,"is_disabled":false,"rental_uris":{"android":"levelo://app?vid=8a7f64b1-3554-47ae-aa65-9faf1b37cc44","ios":"levelo://app?vid=8a7f64b1-3554-47ae-aa65-9faf1b37cc44"},"vehicle_type_id":"4","last_reported":1776832685,"current_range_meters":10800,"station_id":"ce4bh392rcd13ifvqdl0","pricing_plan_id":"cebpf4jnsgd1na2vs0mg"},{"bike_id":"428dde07-c113-44f9-afed-9a5dee39f99f","system_id":"levelo_inurba_marseille","lat":43.28407,"lon":5.37516,"is_reserved":false,"is_disabled":false,"rental_uris":{"android":"levelo://app?vid=428dde07-c113-44f9-afed-9a5dee39f99f","ios":"levelo://app?vid=428dde07-c113-44f9-afed-9a5dee39f99f"},"vehicle_type_id":"4","last_reported":1776832685,"current_range_meters":11200,"station_id":"ce4bh412rcd13ifvqds0","pricing_plan_id":"cebpf4jnsgd1na2vs0mg"},{"bike_id":"4f0f2706-6a3b-4e0c-8e96-148f49a6ec77","system_id":"levelo_inurba_marseille","lat":43.25085,"lon":5.39532,"is_reserved":false,"is_disabled":false,"rental_uris":{"android":"levelo://app?vid=4f0f2706-6a3b-4e0c-8e96-148f49a6ec77","ios":"levelo://app?vid=4f0f2706-6a3b-4e0c-8e96-148f49a6ec77"},"vehicle_type_id":"4","last_reported":1776832685,"current_range_meters":11200,"station_id":"ce4bhm12rcd13ifvqgkg","pricing_plan_id":"cebpf4jnsgd1na2vs0mg"},{"bike_id":"34c1cc05-fd1e-4db9-ba55-96061ae29e56","system_id":"levelo_inurba_marseille","lat":43.29781,"lon":5.3934,"is_reserved":false,"is_disabled":false,"rental_uris":{"android":"levelo://app?vid=34c1cc05-fd1e-4db9-ba55-96061ae29e56","ios":"levelo://app?vid=34c1cc05-fd1e-4db9-ba55-96061ae29e56"},"vehicle_type_id":"4","last_reported":1776832685,"current_range_meters":11200,"station_id":"chh1huq6cuj3fo74tm60","pricing_plan_id":"cebpf4jnsgd1na2vs0mg"},{"bike_id":"e6562d2a-2877-4ec2-994c-9ddc54cc3668","system_id":"levelo_inurba_marseille","lat":43.24666,"lon":5.38157,"is_reserved":false,"is_disabled":false,"rental_uris":{"android":"levelo://app?vid=e6562d2a-2877-4ec2-994c-9ddc54cc3668","ios":"levelo://app?vid=e6562d2a-2877-4ec2-994c-9ddc54cc3668"},"vehicle_type_id":"4","last_reported":1776832685,"current_range_meters":11200,"station_id":"ce4bhih2rcd13ifvqfr0","pricing_plan_id":"cebpf4jnsgd1na2vs0mg"},{"bike_id":"0f425a34-6313-4bf5-9257-528e9e3f1a30","system_id":"levelo_inurba_marseille","lat":43.29786,"lon":5.39348,"is_reserved":false,"is_disabled":false,"rental_uris":{"android":"levelo://app?vid=0f425a34-6313-4bf5-9257-528e9e3f1a30","ios":"levelo://app?vid=0f425a34-6313-4bf5-9257-528e9e3f1a30"},"vehicle_type_id":"4","last_reported":1776832685,"current_range_meters":11200,"station_id":"chh1huq6cuj3fo74tm60","pricing_plan_id":"cebpf4jnsgd1na2vs0mg"},{"bike_id":"68e86292-e11d-49d5-888c-58848729cc3c","system_id":"levelo_inurba_marseille","lat":43.28288,"lon":5.38715,"is_reserved":false,"is_disabled":false,"rental_uris":{"android":"levelo://app?vid=68e86292-e11d-49d5-888c-58848729cc3c","ios":"levelo://app?vid=68e86292-e11d-49d5-888c-58848729cc3c"},"vehicle_type_id":"4","last_reported":1776832685,"current_range_meters":11200,"station_id":"","pricing_plan_id":"cebpf4jnsgd1na2vs0mg"},{"bike_id":"b4644b0f-1073-4b3a-a19f-7c587ea906f1","system_id":"levelo_inurba_marseille","lat":43.28716,"lon":5.3739,"is_reserved":false,"is_disabled":false,"rental_uris":{"android":"levelo://app?vid=b4644b0f-1073-4b3a-a19f-7c587ea906f1","ios":"levelo://app?vid=b4644b0f-1073-4b3a-a19f-7c587ea906f1"},"vehicle_type_id":"4","last_reported":1776832685,"current_range_meters":11200,"station_id":"ce4bh3p2rcd13ifvqdq0","pricing_plan_id":"cebpf4jnsgd1na2vs0mg"},{"bike_id":"a22050df-25c3-4424-8c45-565af661de82","system_id":"levelo_inurba_marseille","lat":43.28505,"lon":5.48355,"is_reserved":false,"is_disabled":false,"rental_uris":{"android":"levelo://app?vid=a22050df-25c3-4424-8c45-565af661de82","ios":"levelo://app?vid=a22050df-25c3-4424-8c45-565af661de82"},"vehicle_type_id":"4","last_reported":1776832685,"current_range_meters":11200,"station_id":"","pricing_plan_id":"cebpf4jnsgd1na2vs0mg"},{"bike_id":"6fdaa5ee-d3a7-40da-ac34-7525c9f17159","system_id":"levelo_inurba_marseille","lat":43.2808,"lon":5.3966,"is_reserved":false,"is_disabled":false,"rental_uris":{"android":"levelo://app?vid=6fdaa5ee-d3a7-40da-ac34-7525c9f17159","ios":"levelo://app?vid=6fdaa5ee-d3a7-40da-ac34-7525c9f17159"},"vehicle_type_id":"4","last_reported":1776832685,"current_range_meters":11200,"station_id":"ce4bho12rcd13ifvqh2g","pricing_plan_id":"cebpf4jnsgd1na2vs0mg"},{"bike_id":"6a798dbb-7109-4927-a94d-af9aca26897c","system_id":"levelo_inurba_marseille","lat":43.2319,"lon":5.3999,"is_reserved":false,"is_disabled":false,"rental_uris":{"android":"levelo://app?vid=6a798dbb-7109-4927-a94d-af9aca26897c","ios":"levelo://app?vid=6a798dbb-7109-4927-a94d-af9aca26897c"},"vehicle_type_id":"4","last_reported":1776832685,"current_range_meters":11200,"station_id":"ce4bhn12rcd13ifvqgqg","pricing_plan_id":"cebpf4jnsgd1na2vs0mg"},