{"last_updated":1717863013,"ttl":30,"version":"2.2","data":{"bikes":[{"bike_id":"ca8667ac-5a3f-41fa-b2f9-4a64b1018804","system_id":"levelo_inurba_marseille","lat":43.309076,"lon":5.368465,"is_reserved":false,"is_disabled":false,"rental_uris":{"android":"levelo://app?vid=ca8667ac-5a3f-41fa-b2f9-4a64b1018804","ios":"levelo://app?vid=ca8667ac-5a3f-41fa-b2f9-4a64b1018804"},"vehicle_type_id":"4","last_reported":1717863013,"current_range_meters":19200,"station_id":"ce4bgn92rcd13ifvqbvg","pricing_plan_id":"cebpf4jnsgd1na2vs0mg"},{"bike_id":"3bea87d4-631e-4c5e-a0f4-dd3b2e7556a0","system_id":"levelo_inurba_marseille","lat":43.309076,"lon":5.368465,"is_reserved":false,"is_disabled":false,"rental_uris":{"android":"levelo://app?vid=3bea87d4-631e-4c5e-a0f4-dd3b2e7556a0","ios":"levelo://app?vid=3bea87d4-631e-4c5e-a0f4-dd3b2e7556a0"},"vehicle_type_id":"4","last_reported":1717863013,"current_range_meters":1600,"station_id":"ce4bgn92rcd13ifvqbvg","pricing_plan_id":"cebpf4jnsgd1na2vs0mg"},{"bike_id":"290a3220-0892-43d2-a798-8b4db38315ee","system_id":"levelo_inurba_marseille","lat":43.314811,"lon":5.373103,"is_reserved":false,"is_disabled":false,"rental_uris":{"android":"levelo://app?vid=290a3220-0892-43d2-a798-8b4db38315ee","ios":"levelo://app?vid=290a3220-0892-43d2-a798-8b4db38315ee"},"vehicle_type_id":"4","last_reported":1717863013,"current_range_meters":6000,"station_id":"ce4bgt12rcd13ifvqcd0","pricing_plan_id":"cebpf4jnsgd1na2vs0mg"},{"bike_id":"64d51cc5-bfff-4569-9495-bfddbf897c34","system_id":"levelo_inurba_marseille","lat":43.314811,"lon":5.373103,"is_reserved":false,"is_disabled":false,"rental_uris":{"android":"levelo://app?vid=64d51cc5-bfff-4569-9495-bfddbf897c34","ios":"levelo://app?vid=64d51cc5-bfff-4569-9495-bfddbf897c34"},"vehicle_type_id":"4","last_reported":1717863013,"current_range_meters":18400,"station_id":"ce4bgt12rcd13ifvqcd0","pricing_plan_id":"cebpf4jnsgd1na2vs0mg"},{"bike_id":"84bc560b-6e18-4c36-b8aa-265e74886648","system_id":"levelo_inurba_marseille","lat":43.314811,"lon":5.373104,"is_reserved":false,"is_disabled":false,"rental_uris":{"android":"levelo://app?vid=84bc560b-6e18-4c36-b8aa-265e74886648","ios":"levelo://app?vid=84bc560b-6e18-4c36-b8aa-265e74886648"},"vehicle_type_id":"4","last_reported":1717863013,"current_range_meters":27600,"station_id":"ce4bgt12rcd13ifvqcd0","pricing_plan_id":"cebpf4jnsgd1na2vs0mg"},{"bike_id":"45709d91-f1f9-434d-af40-83da594fd1d3","system_id":"levelo_inurba_marseille","lat":43.314811,"lon":5.373103,"is_reserved":false,"is_disabled":false,"rental_uris":{"android":"levelo://app?vid=45709d91-f1f9-434d-af40-83da594fd1d3","ios":"levelo://app?vid=45709d91-f1f9-434d-af40-83da594fd1d3"},"vehicle_type_id":"4","last_reported":1717863013,"current_range_meters":0,"station_id":"ce4bgt12rcd13ifvqcd0","pricing_plan_id":"cebpf4jnsgd1na2vs0mg"},{"bike_id":"82c29aa1-78eb-4cb2-bda8-5fcd78a411f8","system_id":"levelo_inurba_marseille","lat":43.30537,"lon":5.367345,"is_reserved":false,"is_disabled":false,"rental_uris":{"android":"levelo://app?vid=82c29aa1-78eb-4cb2-bda8-5fcd78a411f8","ios":"levelo://app?vid=82c29aa1-78eb-4cb2-bda8-5fcd78a411f8"},"vehicle_type_id":"4","last_reported":1717863013,"current_range_meters":9600,"station_id":"ce4bgrp2rcd13ifvqc9g","pricing_plan_id":"cebpf4jnsgd1na2vs0mg"},{"bike_id":"15b0df7d-c267-4f5f-be29-957fde018c32","system_id":"levelo_inurba_marseille","lat":43.30537,"lon":5.367345,"is_reserved":false,"is_disabled":false,"rental_uris":{"android":"levelo://app?vid=15b0df7d-c267-4f5f-be29-957fde018c32","ios":"levelo://app?vid=15b0df7d-c267-4f5f-be29-957fde018c32"},"vehicle_type_id":"4","last_reported":1717863013,"current_range_meters":10800,"station_id":"ce4bgrp2rcd13ifvqc9g","pricing_plan_id":"cebpf4jnsgd1na2vs0mg"},{"bike_id":"fac6f468-dd39-4a05-b06b-a2c4f27658b0","system_id":"levelo_inurba_marseille","lat":43.305714,"lon":5.365633,"is_reserved":false,"is_disabled":false,"rental_uris":{"android":"levelo://app?vid=fac6f468-dd39-4a05-b06b-a2c4f27658b0","ios":"levelo://app?vid=fac6f468-dd39-4a05-b06b-a2c4f27658b0"},"vehicle_type_id":"4","last_reported":1717863013,"current_range_meters":24800,"station_id":"ce4bgs12rcd13ifvqcag","pricing_plan_id":"cebpf4jnsgd1na2vs0mg"},{"bike_id":"5e1c4f65-d806-4c8d-a807-82545d81d981","system_id":"levelo_inurba_marseille","lat":43.3054,"lon":5.36553,"is_reserved":false,"is_disabled":false,"rental_uris":{"android":"levelo://app?vid=5e1c4f65-d806-4c8d-a807-82545d81d981","ios":"levelo://app?vid=5e1c4f65-d806-4c8d-a807-82545d81d981"},"vehicle_type_id":"4","last_reported":1717863013,"current_range_meters":16000,"station_id":"ce4bgs12rcd13ifvqcag","pricing_plan_id":"cebpf4jnsgd1na2vs0mg"},{"bike_id":"6711a720-4be1-4766-9812-54d9f67bc267","system_id":"levelo_inurba_marseille","lat":43.318401,"lon":5.373533,"is_reserved":false,"is_disabled":false,"rental_uris":{"android":"levelo://app?vid=6711a720-4be1-4766-9812-54d9f67bc267","ios":"levelo://app?vid=6711a720-4be1-4766-9812-54d9f67bc267"},"vehicle_type_id":"4","last_reported":1717863013,"current_range_meters":10800,"station_id":"","pricing_plan_id":"cebpf4jnsgd1na2vs0mg"},{"bike_id":"c094f63d-e0d6-4be6-b287-138cfdcc4c63","system_id":"levelo_inurba_marseille","lat":43.305706,"lon":5.365654,"is_reserved":false,"is_disabled":false,"rental_uris":{"android":"levelo://app?vid=c094f63d-e0d6-4be6-b287-138cfdcc4c63","ios":"levelo://app?vid=c094f63d-e0d6-4be6-b287-138cfdcc4c63"},"vehicle_type_id":"4","last_reported":1717863013,"current_range_meters":10000,"station_id":"ce4bgs12rcd13ifvqcag","pricing_plan_id":"cebpf4jnsgd1na2vs0mg"},{"bike_id":"6346f381-fec9-4271-aa61-8d45a76bfe42","system_id":"levelo_inurba_marseille","lat":43.309905,"lon":5.376605,"is_reserved":false,"is_disabled":false,"rental_uris":{"android":"levelo://app?vid=6346f381-fec9-4271-aa61-8d45a76bfe42","ios":"levelo://app?vid=6346f381-fec9-4271-aa61-8d45a76bfe42"},"vehicle_type_id":"4","last_reported":1717863013,"current_range_meters":24000,"station_id":"","pricing_plan_id":"cebpf4jnsgd1na2vs0mg"},{"bike_id":"30691aae-76d2-4a5d-b9f6-edd2acf3e136","system_id":"levelo_inurba_marseille","lat":43.30609,"lon":5.3722,"is_reserved":false,"is_disabled":false,"rental_uris":{"android":"levelo://app?vid=30691aae-76d2-4a5d-b9f6-edd2acf3e136","ios":"levelo://app?vid=30691aae-76d2-4a5d-b9f6-edd2acf3e136"},"vehicle_type_id":"4","last_reported":1717863013,"current_range_meters":29200,"station_id":"ce4bgqh2rcd13ifvqc4g","pricing_plan_id":"cebpf4jnsgd1na2vs0mg"},{"bike_id":"4bd38712-a9ba-42aa-9dbe-90fb12d136dc","system_id":"levelo_inurba_marseille","lat":43.307945,"lon":5.376487,"is_reserved":false,"is_disabled":false,"rental_uris":{"android":"levelo://app?vid=4bd38712-a9ba-42aa-9dbe-90fb12d136dc","ios":"levelo://app?vid=4bd38712-a9ba-42aa-9dbe-90fb12d136dc"},"vehicle_type_id":"4","last_reported":1717863013,"current_range_meters":0,"station_id":"ce4bgv92rcd13ifvqcq0","pricing_plan_id":"cebpf4jnsgd1na2vs0mg"},{"bike_id":"972dfe39-0e32-4aff-870c-039d85117d8c","system_id":"levelo_inurba_marseille","lat":43.307945,"lon":5.376487,"is_reserved":false,"is_disabled":false,"rental_uris":{"android":"levelo://app?vid=972dfe39-0e32-4aff-870c-039d85117d8c","ios":"levelo://app?vid=972dfe39-0e32-4aff-870c-039d85117d8c"},"vehicle_type_id":"4","last_reported":1717863013,"current_range_meters":28000,"station_id":"ce4bgv92rcd13ifvqcq0","pricing_plan_id":"cebpf4jnsgd1na2vs0mg"},{"bike_id":"7a47f840-aac7-4e62-a63f-08d6726051c6","system_id":"levelo_inurba_marseille","lat":43.317075,"lon":5.377367,"is_reserved":false,"is_disabled":false,"rental_uris":{"android":"levelo://app?vid=7a47f840-aac7-4e62-a63f-08d6726051c6","ios":"levelo://app?vid=7a47f840-aac7-4e62-a63f-08d6726051c6"},"vehicle_type_id":"4","last_reported":1717863013,"current_range_meters":0,"station_id":"ce4bgth2rcd13ifvqch0","pricing_plan_id":"cebpf4jnsgd1na2vs0mg"},{"bike_id":"b859d8b2-01b3-49d6-b955-2773384389d0","system_id":"levelo_inurba_marseille","lat":43.317075,"lon":5.377367,"is_reserved":false,"is_disabled":false,"rental_uris":{"android":"levelo://app?vid=b859d8b2-01b3-49d6-b955-2773384389d0","ios":"levelo://app?vid=b859d8b2-01b3-49d6-b955-2773384389d0"},"vehicle_type_id":"4","last_reported":1717863013,"current_range_meters":22400,"station_id":"ce4bgth2rcd13ifvqch0","pricing_plan_id":"cebpf4jnsgd1na2vs0mg"},{"bike_id":"37ca312a-6ca7-4c57-ae1c-6c10eb3e9331","system_id":"levelo_inurba_marseille","lat":43.303046,"lon":5.368981,"is_reserved":false,"is_disabled":false,"rental_uris":{"android":"levelo://app?vid=37ca312a-6ca7-4c57-ae1c-6c10eb3e9331","ios":"levelo://app?vid=37ca312a-6ca7-4c57-ae1c-6c10eb3e9331"},"vehicle_type_id":"4","last_reported":1717863013,"current_range_meters":0,"station_id":"ce4bgqh2rcd13ifvqc5g","pricing_plan_id":"cebpf4jnsgd1na2vs0mg"},{"bike_id":"53295028-3f58-42d0-84d8-686ed73f20d0","system_id":"levelo_inurba_marseille","lat":43.31865,"lon":5.3783,"is_reserved":false,"is_disabled":false,"rental_uris":{"android":"levelo://app?vid=53295028-3f58-42d0-84d8-686ed73f20d0","ios":"levelo://app?vid=53295028-3f58-42d0-84d8-686ed73f20d0"},"vehicle_type_id":"4","last_reported":1717863013,"current_range_meters":6800,"station_id":"","pricing_plan_id":"cebpf4jnsgd1na2vs0mg"},{"bike_id":"e61c2111-b246-4008-aaa9-e017aea14b1d","system_id":"levelo_inurba_marseille","lat":43.308012,"lon":5.381511,"is_reserved":false,"is_disabled":false,"rental_uris":{"android":"levelo://app?vid=e61c2111-b246-4008-aaa9-e017aea14b1d","ios":"levelo://app?vid=e61c2111-b246-4008-aaa9-e017aea14b1d"},"vehicle_type_id":"4","last_reported":1717863013,"current_range_meters":8400,"station_id":"ce4bgt12rcd13ifvqce0","pricing_plan_id":"cebpf4jnsgd1na2vs0mg"},{"bike_id":"4a3e58ae-2f47-49e2-9f3e-12df9fbcbd9d","system_id":"levelo_inurba_marseille","lat":43.324771,"lon":5.36557,"is_reserved":false,"is_disabled":false,"rental_uris":{"android":"levelo://app?vid=4a3e58ae-2f47-49e2-9f3e-12df9fbcbd9d","ios":"levelo://app?vid=4a3e58ae-2f47-49e2-9f3e-12df9fbcbd9d"},"vehicle_type_id":"4","last_reported":1717863013,"current_range_meters":15600,"station_id":"ce4bhs12rcd13ifvqhvg","pricing_plan_id":"cebpf4jnsgd1na2vs0mg"},{"bike_id":"a454c26a-82d2-43c5-9256-71987a94a541","system_id":"levelo_inurba_marseille","lat":43.324771,"lon":5.36557,"is_reserved":false,"is_disabled":false,"rental_uris":{"android":"levelo://app?vid=a454c26a-82d2-43c5-9256-71987a94a541","ios":"levelo://app?vid=a454c26a-82d2-43c5-9256-71987a94a541"},"vehicle_type_id":"4","last_reported":1717863013,"current_range_meters":0,"station_id":"ce4bhs12rcd13ifvqhvg","pricing_plan_id":"cebpf4jnsgd1na2vs0mg"},{"bike_id":"3c9fe599-11ef-4904-ac9f-222bc966a693","system_id":"levelo_inurba_marseille","lat":43.308966,"lon":5.382762,"is_reserved":false,"is_disabled":false,"rental_uris":{"android":"levelo://app?vid=3c9fe599-11ef-4904-ac9f-222bc966a693","ios":"levelo://app?vid=3c9fe599-11ef-4904-ac9f-222bc966a693"},"vehicle_type_id":"4","last_reported":1717863013,"current_range_meters":4000,"station_id":"","pricing_plan_id":"cebpf4jnsgd1na2vs0mg"},{"bike_id":"24a97a9b-48aa-4651-9079-f1bfcf81f9a4","system_id":"levelo_inurba_marseille","lat":43.324844,"lon":5.365613,"is_reserved":false,"is_disabled":false,"rental_uris":{"android":"levelo://app?vid=24a97a9b-48aa-4651-9079-f1bfcf81f9a4","ios":"levelo://app?vid=24a97a9b-48aa-4651-9079-f1bfcf81f9a4"},"vehicle_type_id":"4","last_reported":1717863013,"current_range_meters":8800,"station_id":"ce4bhs12rcd13ifvqhvg","pricing_plan_id":"cebpf4jnsgd1na2vs0mg"},{"bike_id":"c6f7493c-ff84-4d19-ae28-44948bf6afc6","system_id":"levelo_inurba_marseille","lat":43.310804,"lon":5.38359,"is_reserved":false,"is_disabled":false,"rental_uris":{"android":"levelo://app?vid=c6f7493c-ff84-4d19-ae28-44948bf6afc6","ios":"levelo://app?vid=c6f7493c-ff84-4d19-ae28-44948bf6afc6"},"vehicle_type_id":"4","last_reported":1717863013,"current_range_meters":14400,"station_id":"ce4bgv92rcd13ifvqcr0","pricing_plan_id":"cebpf4jnsgd1na2vs0mg"},{"bike_id":"003457e3-4c63-458e-b648-7300c553063b","system_id":"levelo_inurba_marseille","lat":43.310804,"lon":5.38359,"is_reserved":false,"is_disabled":false,"rental_uris":{"android":"levelo://app?vid=003457e3-4c63-458e-b648-7300c553063b","ios":"levelo://app?vid=003457e3-4c63-458e-b648-7300c553063b"},"vehicle_type_id":"4","last_reported":1717863013,"current_range_meters":16400,"station_id":"ce4bgv92rcd13ifvqcr0","pricing_plan_id":"cebpf4jnsgd1na2vs0mg"},{"bike_id":"3a01fa5d-cf5a-4e4c-92de-08f1959b6a67","system_id":"levelo_inurba_marseille","lat":43.301429,"lon":5.37413,"is_reserved":false,"is_disabled":false,"rental_uris":{"android":"levelo://app?vid=3a01fa5d-cf5a-4e4c-92de-08f1959b6a67","ios":"levelo://app?vid=3a01fa5d-cf5a-4e4c-92de-08f1959b6a67"},"vehicle_type_id":"4","last_reported":1717863013,"current_range_meters":16800,"station_id":"ce4bgs92rcd13ifvqcc0","pricing_plan_id":"cebpf4jnsgd1na2vs0mg"},{"bike_id":"886c8414-1265-4d68-bd32-1c7fa47a135e","system_id":"levelo_inurba_marseille","lat":43.302784,"lon":5.377158,"is_reserved":false,"is_disabled":false,"rental_uris":{"android":"levelo://app?vid=886c8414-1265-4d68-bd32-1c7fa47a135e","ios":"levelo://app?vid=886c8414-1265-4d68-bd32-1c7fa47a135e"},"vehicle_type_id":"4","last_reported":1717863013,"current_range_meters":0,"station_id":"ce4bguh2rcd13ifvqcj0","pricing_plan_id":"cebpf4jnsgd1na2vs0mg"},{"bike_id":"7dfdb917-d721-4ab0-b825-050c09694fce","system_id":"levelo_inurba_marseille","lat":43.30278,"lon":5.37799,"is_reserved":false,"is_disabled":false,"rental_uris":{"android":"levelo://app?vid=7dfdb917-d721-4ab0-b825-050c09694fce","ios":"levelo://app?vid=7dfdb917-d721-4ab0-b825-050c09694fce"},"vehicle_type_id":"4","last_reported":1717863013,"current_range_meters":14800,"station_id":"","pricing_plan_id":"cebpf4jnsgd1na2vs0mg"},{"bike_id":"699c1570-326e-425c-bcac-af01ccfc73c6","system_id":"levelo_inurba_marseille","lat":43.32,"lon":5.38149,"is_reserved":false,"is_disabled":false,"rental_uris":{"android":"levelo://app?vid=699c1570-326e-425c-bcac-af01ccfc73c6","ios":"levelo://app?vid=699c1570-326e-425c-bcac-af01ccfc73c6"},"vehicle_type_id":"4","last_reported":1717863013,"current_range_meters":4400,"station_id":"ce4bhr12rcd13ifvqhpg","pricing_plan_id":"cebpf4jnsgd1na2vs0mg"},{"bike_id":"1f5548cc-33a8-4692-8324-72705e574447","system_id":"levelo_inurba_marseille","lat":43.319935,"lon":5.381699,"is_reserved":false,"is_disabled":false,"rental_uris":{"android":"levelo://app?vid=1f5548cc-33a8-4692-8324-72705e574447","ios":"levelo://app?vid=1f5548cc-33a8-4692-8324-72705e574447"},"vehicle_type_id":"4","last_reported":1717863013,"current_range_meters":4400,"station_id":"ce4bhr12rcd13ifvqhpg","pricing_plan_id":"cebpf4jnsgd1na2vs0mg"},{"bike_id":"a9df4d73-f767-4c75-b46c-4d2ed4ee7865","system_id":"levelo_inurba_marseille","lat":43.319935,"lon":5.381699,"is_reserved":false,"is_disabled":false,"rental_uris":{"android":"levelo://app?vid=a9df4d73-f767-4c75-b46c-4d2ed4ee7865","ios":"levelo://app?vid=a9df4d73-f767-4c75-b46c-4d2ed4ee7865"},"vehicle_type_id":"4","last_reported":1717863013,"current_range_meters":26000,"station_id":"ce4bhr12rcd13ifvqhpg","pricing_plan_id":"cebpf4jnsgd1na2vs0mg"},{"bike_id":"d79021bd-d869-481a-a4a4-4796aa96860c","system_id":"levelo_inurba_marseille","lat":43.319935,"lon":5.381699,"is_reserved":false,"is_disabled":false,"rental_uris":{"android":"levelo://app?vid=d79021bd-d869-481a-a4a4-4796aa96860c","ios":"levelo://app?vid=d79021bd-d869-481a-a4a4-4796aa96860c"},"vehicle_type_id":"4","last_reported":1717863013,"current_range_meters":30800,"station_id":"ce4bhr12rcd13ifvqhpg","pricing_plan_id":"cebpf4jnsgd1na2vs0mg"},{"bike_id":"51f9594c-ceb2-4ef1-8d76-7cdee55cd78b","system_id":"levelo_inurba_marseille","lat":43.319935,"lon":5.381699,"is_reserved":false,"is_disabled":false,"rental_uris":{"android":"levelo://app?vid=51f9594c-ceb2-4ef1-8d76-7cdee55cd78b","ios":"levelo://app?vid=51f9594c-ceb2-4ef1-8d76-7cdee55cd78b"},"vehicle_type_id":"4","last_reported":1717863013,"current_range_meters":6400,"station_id":"ce4bhr12rcd13ifvqhpg","pricing_plan_id":"cebpf4jnsgd1na2vs0mg"},{"bike_id":"ea900713-2e48-43a2-b91a-26f98592978c","system_id":"levelo_inurba_marseille","lat":43.313571,"lon":5.384829,"is_reserved":false,"is_disabled":false,"rental_uris":{"android":"levelo://app?vid=ea900713-2e48-43a2-b91a-26f98592978c","ios":"levelo://app?vid=ea900713-2e48-43a2-b91a-26f98592978c"},"vehicle_type_id":"4","last_reported":1717863013,"current_range_meters":2000,"station_id":"ce4bgt92rcd13ifvqcf0","pricing_plan_id":"cebpf4jnsgd1na2vs0mg"},{"bike_id":"72786de2-76f4-435b-865f-69c9c0a47fbe","system_id":"levelo_inurba_marseille","lat":43.313571,"lon":5.384829,"is_reserved":false,"is_disabled":false,"rental_uris":{"android":"levelo://app?vid=72786de2-76f4-435b-865f-69c9c0a47fbe","ios":"levelo://app?vid=72786de2-76f4-435b-865f-69c9c0a47fbe"},"vehicle_type_id":"4","last_reported":1717863013,"current_range_meters":9600,"station_id":"ce4bgt92rcd13ifvqcf0","pricing_plan_id":"cebpf4jnsgd1na2vs0mg"},{"bike_id":"607b09f2-ce9e-4f98-a7b1-d716171e9cbf","system_id":"levelo_inurba_marseille","lat":43.299724,"lon":5.371829,"is_reserved":false,"is_disabled":false,"rental_uris":{"android":"levelo://app?vid=607b09f2-ce9e-4f98-a7b1-d716171e9cbf","ios":"levelo://app?vid=607b09f2-ce9e-4f98-a7b1-d716171e9cbf"},"vehicle_type_id":"4","last_reported":1717863013,"current_range_meters":0,"station_id":"ce4bgr92rcd13ifvqc7g","pricing_plan_id":"cebpf4jnsgd1na2vs0mg"},{"bike_id":"77879b65-72e1-4429-9acf-aa4838d34f8f","system_id":"levelo_inurba_marseille","lat":43.298433,"lon":5.362774,"is_reserved":false,"is_disabled":false,"rental_uris":{"android":"levelo://app?vid=77879b65-72e1-4429-9acf-aa4838d34f8f","ios":"levelo://app?vid=77879b65-72e1-4429-9acf-aa4838d34f8f"},"vehicle_type_id":"4","last_reported":1717863013,"current_range_meters":2000,"station_id":"ce4bgpp2rcd13ifvqc3g","pricing_plan_id":"cebpf4jnsgd1na2vs0mg"},{"bike_id":"d84908b0-c59d-49f0-81a5-2a9a5cce73c0","system_id":"levelo_inurba_marseille","lat":43.302438,"lon":5.381136,"is_reserved":false,"is_disabled":false,"rental_uris":{"android":"levelo://app?vid=d84908b0-c59d-49f0-81a5-2a9a5cce73c0","ios":"levelo://app?vid=d84908b0-c59d-49f0-81a5-2a9a5cce73c0"},"vehicle_type_id":"4","last_reported":1717863013,"current_range_meters":16400,"station_id":"","pricing_plan_id":"cebpf4jnsgd1na2vs0mg"},{"bike_id":"604546aa-28bf-4792-b626-a6b9fe5cd431","system_id":"levelo_inurba_marseille","lat":43.305364,"lon":5.384119,"is_reserved":false,"is_disabled":false,"rental_uris":{"android":"levelo://app?vid=604546aa-28bf-4792-b626-a6b9fe5cd431","ios":"levelo://app?vid=604546aa-28bf-4792-b626-a6b9fe5cd431"},"vehicle_type_id":"4","last_reported":1717863013,"current_range_meters":17200,"station_id":"ce4bgg92rcd13ifvqb30","pricing_plan_id":"cebpf4jnsgd1na2vs0mg"},{"bike_id":"51d10ada-b1c2-4275-b8f5-cdc030c837a1","system_id":"levelo_inurba_marseille","lat":43.299062,"lon":5.374101,"is_reserved":false,"is_disabled":false,"rental_uris":{"android":"levelo://app?vid=51d10ada-b1c2-4275-b8f5-cdc030c837a1","ios":"levelo://app?vid=51d10ada-b1c2-4275-b8f5-cdc030c837a1"},"vehicle_type_id":"4","last_reported":1717863013,"current_range_meters":16800,"station_id":"ce4bgjh2rcd13ifvqbg0","pricing_plan_id":"cebpf4jnsgd1na2vs0mg"},{"bike_id":"b3999aff-636e-42d3-a03d-757c34b18a12","system_id":"levelo_inurba_marseille","lat":43.322872,"lon":5.382756,"is_reserved":false,"is_disabled":false,"rental_uris":{"android":"levelo://app?vid=b3999aff-636e-42d3-a03d-757c34b18a12","ios":"levelo://app?vid=b3999aff-636e-42d3-a03d-757c34b18a12"},"vehicle_type_id":"4","last_reported":1717863013,"current_range_meters":15600,"station_id":"ce4bhr12rcd13ifvqhqg","pricing_plan_id":"cebpf4jnsgd1na2vs0mg"},{"bike_id":"8573b21c-73b0-41cf-95bc-5857367daa49","system_id":"levelo_inurba_marseille","lat":43.322872,"lon":5.382756,"is_reserved":false,"is_disabled":false,"rental_uris":{"android":"levelo://app?vid=8573b21c-73b0-41cf-95bc-5857367daa49","ios":"levelo://app?vid=8573b21c-73b0-41cf-95bc-5857367daa49"},"vehicle_type_id":"4","last_reported":1717863013,"current_range_meters":30800,"station_id":"ce4bhr12rcd13ifvqhqg","pricing_plan_id":"cebpf4jnsgd1na2vs0mg"},{"bike_id":"3ee44a1e-e47d-4fd3-bb95-fa5b5ab54a3c","system_id":"levelo_inurba_marseille","lat":43.297163,"lon":5.365866,"is_reserved":false,"is_disabled":false,"rental_uris":{"android":"levelo://app?vid=3ee44a1e-e47d-4fd3-bb95-fa5b5ab54a3c","ios":"levelo://app?vid=3ee44a1e-e47d-4fd3-bb95-fa5b5ab54a3c"},"vehicle_type_id":"4","last_reported":1717863013,"current_range_meters":3200,"station_id":"ce4bgn12rcd13ifvqbt0","pricing_plan_id":"cebpf4jnsgd1na2vs0mg"},{"bike_id":"8382412f-6b47-46a7-b327-a84d79221be2","system_id":"levelo_inurba_marseille","lat":43.297163,"lon":5.365866,"is_reserved":false,"is_disabled":false,"rental_uris":{"android":"levelo://app?vid=8382412f-6b47-46a7-b327-a84d79221be2","ios":"levelo://app?vid=8382412f-6b47-46a7-b327-a84d79221be2"},"vehicle_type_id":"4","last_reported":1717863013,"current_range_meters":24000,"station_id":"ce4bgn12rcd13ifvqbt0","pricing_plan_id":"cebpf4jnsgd1na2vs0mg"},{"bike_id":"27793820-1c5c-4ffc-bb3b-e053f4693623","system_id":"levelo_inurba_marseille","lat":43.297163,"lon":5.365866,"is_reserved":false,"is_disabled":false,"rental_uris":{"android":"levelo://app?vid=27793820-1c5c-4ffc-bb3b-e053f4693623","ios":"levelo://app?vid=27793820-1c5c-4ffc-bb3b-e053f4693623"},"vehicle_type_id":"4","last_reported":1717863013,"current_range_meters":0,"station_id":"ce4bgn12rcd13ifvqbt0","pricing_plan_id":"cebpf4jnsgd1na2vs0mg"},{"bike_id":"f72edf1a-1bae-486f-bb4f-c7e7e2c3fc4e","system_id":"levelo_inurba_marseille","lat":43.2968,"lon":5.37291,"is_reserved":false,"is_disabled":false,"rental_uris":{"android":"levelo://app?vid=f72edf1a-1bae-486f-bb4f-c7e7e2c3fc4e","ios":"levelo://app?vid=f72edf1a-1bae-486f-bb4f-c7e7e2c3fc4e"},"vehicle_type_id":"4","last_reported":1717863013,"current_range_meters":26800,"station_id":"ce4bgk12rcd13ifvqbj0","pricing_plan_id":"cebpf4jnsgd1na2vs0mg"},{"bike_id":"4f1ac1ce-baf4-4af5-91b4-c0d7925a9e5d","system_id":"levelo_inurba_marseille","lat":43.32147,"lon":5.38685,"is_reserved":false,"is_disabled":false,"rental_uris":{"android":"levelo://app?vid=4f1ac1ce-baf4-4af5-91b4-c0d7925a9e5d","ios":"levelo://app?vid=4f1ac1ce-baf4-4af5-91b4-c0d7925a9e5d"},"vehicle_type_id":"4","last_reported":1717863013,"current_range_meters":1600,"station_id":"","pricing_plan_id":"cebpf4jnsgd1na2vs0mg"},{"bike_id":"483fef38-e13b-4b4a-86fd-829e658d03d1","system_id":"levelo_inurba_marseille","lat":43.29573,"lon":5.367355,"is_reserved":false,"is_disabled":false,"rental_uris":{"android":"levelo://app?vid=483fef38-e13b-4b4a-86fd-829e658d03d1","ios":"levelo://app?vid=483fef38-e13b-4b4a-86fd-829e658d03d1"},"vehicle_type_id":"4","last_reported":1717863013,"current_range_meters":12000,"station_id":"ce4bgph2rcd13ifvqc2g","pricing_plan_id":"cebpf4jnsgd1na2vs0mg"},{"bike_id":"03ef5909-e34e-4d84-9065-402c835e6997","system_id":"levelo_inurba_marseille","lat":43.29741,"lon":5.3769,"is_reserved":false,"is_disabled":false,"rental_uris":{"android":"levelo://app?vid=03ef5909-e34e-4d84-9065-402c835e6997","ios":"levelo://app?vid=03ef5909-e34e-4d84-9065-402c835e6997"},"vehicle_type_id":"4","last_reported":1717863013,"current_range_meters":26000,"station_id":"ce4bgkh2rcd13ifvqbl0","pricing_plan_id":"cebpf4jnsgd1na2vs0mg"},{"bike_id":"43ff9f97-00cb-42e4-be15-6a7d51ce6848","system_id":"levelo_inurba_marseille","lat":43.309729,"lon":5.390052,"is_reserved":false,"is_disabled":false,"rental_uris":{"android":"levelo://app?vid=43ff9f97-00cb-42e4-be15-6a7d51ce6848","ios":"levelo://app?vid=43ff9f97-00cb-42e4-be15-6a7d51ce6848"},"vehicle_type_id":"4","last_reported":1717863013,"current_range_meters":4800,"station_id":"ce4bgup2rcd13ifvqco0","pricing_plan_id":"cebpf4jnsgd1na2vs0mg"},{"bike_id":"e12630e3-e872-48c6-8d06-f43c1e3314f2","system_id":"levelo_inurba_marseille","lat":43.309589,"lon":5.390258,"is_reserved":false,"is_disabled":false,"rental_uris":{"android":"levelo://app?vid=e12630e3-e872-48c6-8d06-f43c1e3314f2","ios":"levelo://app?vid=e12630e3-e872-48c6-8d06-f43c1e3314f2"},"vehicle_type_id":"4","last_reported":1717863013,"current_range_meters":1200,"station_id":"ce4bgup2rcd13ifvqco0","pricing_plan_id":"cebpf4jnsgd1na2vs0mg"},{"bike_id":"00944983-79da-4ad7-9d03-2898940295fa","system_id":"levelo_inurba_marseille","lat":43.309589,"lon":5.390258,"is_reserved":false,"is_disabled":false,"rental_uris":{"android":"levelo://app?vid=00944983-79da-4ad7-9d03-2898940295fa","ios":"levelo://app?vid=00944983-79da-4ad7-9d03-2898940295fa"},"vehicle_type_id":"4","last_reported":1717863013,"current_range_meters":26000,"station_id":"ce4bgup2rcd13ifvqco0","pricing_plan_id":"cebpf4jnsgd1na2vs0mg"},{"bike_id":"9a00bd6e-01a9-4bd5-b4e8-0426ade1fba3","system_id":"levelo_inurba_marseille","lat":43.309589,"lon":5.390258,"is_reserved":false,"is_disabled":false,"rental_uris":{"android":"levelo://app?vid=9a00bd6e-01a9-4bd5-b4e8-0426ade1fba3","ios":"levelo://app?vid=9a00bd6e-01a9-4bd5-b4e8-0426ade1fba3"},"vehicle_type_id":"4","last_reported":1717863013,"current_range_meters":27600,"station_id":"ce4bgup2rcd13ifvqco0","pricing_plan_id":"cebpf4jnsgd1na2vs0mg"},{"bike_id":"ccce6e31-ad2f-407f-9fdc-93402d765272","system_id":"levelo_inurba_marseille","lat":43.309589,"lon":5.390258,"is_reserved":false,"is_disabled":false,"rental_uris":{"android":"levelo://app?vid=ccce6e31-ad2f-407f-9fdc-93402d765272","ios":"levelo://app?vid=ccce6e31-ad2f-407f-9fdc-93402d765272"},"vehicle_type_id":"4","last_reported":1717863013,"current_range_meters":3600,"station_id":"ce4bgup2rcd13ifvqco0","pricing_plan_id":"cebpf4jnsgd1na2vs0mg"},{"bike_id":"5282babb-ca74-46fa-a82e-62e731b59104","system_id":"levelo_inurba_marseille","lat":43.317557,"lon":5.390173,"is_reserved":false,"is_disabled":false,"rental_uris":{"android":"levelo://app?vid=5282babb-ca74-46fa-a82e-62e731b59104","ios":"levelo://app?vid=5282babb-ca74-46fa-a82e-62e731b59104"},"vehicle_type_id":"4","last_reported":1717863013,"current_range_meters":5200,"station_id":"ce4bhqp2rcd13ifvqhng","pricing_plan_id":"cebpf4jnsgd1na2vs0mg"},{"bike_id":"6aadcf4d-84e2-4da7-8440-b5e23d422893","system_id":"levelo_inurba_marseille","lat":43.317557,"lon":5.390173,"is_reserved":false,"is_disabled":false,"rental_uris":{"android":"levelo://app?vid=6aadcf4d-84e2-4da7-8440-b5e23d422893","ios":"levelo://app?vid=6aadcf4d-84e2-4da7-8440-b5e23d422893"},"vehicle_type_id":"4","last_reported":1717863013,"current_range_meters":16000,"station_id":"ce4bhqp2rcd13ifvqhng","pricing_plan_id":"cebpf4jnsgd1na2vs0mg"},{"bike_id":"7b5d00c5-69d7-4149-8d1b-4cfe5ae9e41a","system_id":"levelo_inurba_marseille","lat":43.317557,"lon":5.390173,"is_reserved":false,"is_disabled":false,"rental_uris":{"android":"levelo://app?vid=7b5d00c5-69d7-4149-8d1b-4cfe5ae9e41a","ios":"levelo://app?vid=7b5d00c5-69d7-4149-8d1b-4cfe5ae9e41a"},"vehicle_type_id":"4","last_reported":1717863013,"current_range_meters":30000,"station_id":"ce4bhqp2rcd13ifvqhng","pricing_plan_id":"cebpf4jnsgd1na2vs0mg"},{"bike_id":"25806e14-a111-4a9d-8c35-5192bcdc25c4","system_id":"levelo_inurba_marseille","lat":43.308968,"lon":5.390966,"is_reserved":false,"is_disabled":false,"rental_uris":{"android":"levelo://app?vid=25806e14-a111-4a9d-8c35-5192bcdc25c4","ios":"levelo://app?vid=25806e14-a111-4a9d-8c35-5192bcdc25c4"},"vehicle_type_id":"4","last_reported":1717863013,"current_range_meters":28000,"station_id":"ce4bgup2rcd13ifvqco0","pricing_plan_id":"cebpf4jnsgd1na2vs0mg"},{"bike_id":"4918774b-233f-49ee-88c1-8fdafe8f91d9","system_id":"levelo_inurba_marseille","lat":43.304274,"lon":5.388873,"is_reserved":false,"is_disabled":false,"rental_uris":{"android":"levelo://app?vid=4918774b-233f-49ee-88c1-8fdafe8f91d9","ios":"levelo://app?vid=4918774b-233f-49ee-88c1-8fdafe8f91d9"},"vehicle_type_id":"4","last_reported":1717863013,"current_range_meters":3600,"station_id":"ce4bgk12rcd13ifvqbi0","pricing_plan_id":"cebpf4jnsgd1na2vs0mg"},{"bike_id":"ddeab031-c9e3-43ea-9b3c-221739f72da9","system_id":"levelo_inurba_marseille","lat":43.295748,"lon":5.37522,"is_reserved":false,"is_disabled":false,"rental_uris":{"android":"levelo://app?vid=ddeab031-c9e3-43ea-9b3c-221739f72da9","ios":"levelo://app?vid=ddeab031-c9e3-43ea-9b3c-221739f72da9"},"vehicle_type_id":"4","last_reported":1717863013,"current_range_meters":2000,"station_id":"ce4bgh92rcd13ifvqb50","pricing_plan_id":"cebpf4jnsgd1na2vs0mg"},{"bike_id":"023dafb1-a737-49ec-a230-7c2b15b5178a","system_id":"levelo_inurba_marseille","lat":43.291675,"lon":5.371583,"is_reserved":false,"is_disabled":false,"rental_uris":{"android":"levelo://app?vid=023dafb1-a737-49ec-a230-7c2b15b5178a","ios":"levelo://app?vid=023dafb1-a737-49ec-a230-7c2b15b5178a"},"vehicle_type_id":"4","last_reported":1717863013,"current_range_meters":12800,"station_id":"ce4bha92rcd13ifvqeh0","pricing_plan_id":"cebpf4jnsgd1na2vs0mg"},{"bike_id":"7174098b-fd27-4c3a-9723-4e052c3f770c","system_id":"levelo_inurba_marseille","lat":43.296263,"lon":5.377094,"is_reserved":false,"is_disabled":false,"rental_uris":{"android":"levelo://app?vid=7174098b-fd27-4c3a-9723-4e052c3f770c","ios":"levelo://app?vid=7174098b-fd27-4c3a-9723-4e052c3f770c"},"vehicle_type_id":"4","last_reported":1717863013,"current_range_meters":4800,"station_id":"ce4bgi92rcd13ifvqb90","pricing_plan_id":"cebpf4jnsgd1na2vs0mg"},{"bike_id":"98a9af5c-25b3-4a71-9a0a-1d9c3fb01fff","system_id":"levelo_inurba_marseille","lat":43.304278,"lon":5.388868,"is_reserved":false,"is_disabled":false,"rental_uris":{"android":"levelo://app?vid=98a9af5c-25b3-4a71-9a0a-1d9c3fb01fff","ios":"levelo://app?vid=98a9af5c-25b3-4a71-9a0a-1d9c3fb01fff"},"vehicle_type_id":"4","last_reported":1717863013,"current_range_meters":5600,"station_id":"ce4bgk12rcd13ifvqbi0","pricing_plan_id":"cebpf4jnsgd1na2vs0mg"},{"bike_id":"a8d32c09-2135-49cf-aceb-81cddd15343e","system_id":"levelo_inurba_marseille","lat":43.304278,"lon":5.388868,"is_reserved":false,"is_disabled":false,"rental_uris":{"android":"levelo://app?vid=a8d32c09-2135-49cf-aceb-81cddd15343e","ios":"levelo://app?vid=a8d32c09-2135-49cf-aceb-81cddd15343e"},"vehicle_type_id":"4","last_reported":1717863013,"current_range_meters":20000,"station_id":"ce4bgk12rcd13ifvqbi0","pricing_plan_id":"cebpf4jnsgd1na2vs0mg"},{"bike_id":"0105c008-e9a8-4d0c-93e7-04f3ad600736","system_id":"levelo_inurba_marseille","lat":43.296014,"lon":5.377173,"is_reserved":false,"is_disabled":false,"rental_uris":{"android":"levelo://app?vid=0105c008-e9a8-4d0c-93e7-04f3ad600736","ios":"levelo://app?vid=0105c008-e9a8-4d0c-93e7-04f3ad600736"},"vehicle_type_id":"4","last_reported":1717863013,"current_range_meters":2400,"station_id":"ce4bgi92rcd13ifvqb90","pricing_plan_id":"cebpf4jnsgd1na2vs0mg"},{"bike_id":"946474e5-ed88-4557-a465-fa8883675575","system_id":"levelo_inurba_marseille","lat":43.295279,"lon":5.375048,"is_reserved":false,"is_disabled":false,"rental_uris":{"android":"levelo://app?vid=946474e5-ed88-4557-a465-fa8883675575","ios":"levelo://app?vid=946474e5-ed88-4557-a465-fa8883675575"},"vehicle_type_id":"4","last_reported":1717863013,"current_range_meters":4800,"station_id":"ce4bgkp2rcd13ifvqbmg","pricing_plan_id":"cebpf4jnsgd1na2vs0mg"},{"bike_id":"3416899b-089b-491b-8a53-4fd5dc0db07e","system_id":"levelo_inurba_marseille","lat":43.29645,"lon":5.38113,"is_reserved":false,"is_disabled":false,"rental_uris":{"android":"levelo://app?vid=3416899b-089b-491b-8a53-4fd5dc0db07e","ios":"levelo://app?vid=3416899b-089b-491b-8a53-4fd5dc0db07e"},"vehicle_type_id":"4","last_reported":1717863013,"current_range_meters":26400,"station_id":"","pricing_plan_id":"cebpf4jnsgd1na2vs0mg"},{"bike_id":"b4202cb5-434b-47a2-860d-ead277c4d0d4","system_id":"levelo_inurba_marseille","lat":43.32367,"lon":5.388836,"is_reserved":false,"is_disabled":false,"rental_uris":{"android":"levelo://app?vid=b4202cb5-434b-47a2-860d-ead277c4d0d4","ios":"levelo://app?vid=b4202cb5-434b-47a2-860d-ead277c4d0d4"},"vehicle_type_id":"4","last_reported":1717863013,"current_range_meters":20000,"station_id":"ce4bhqp2rcd13ifvqhog","pricing_plan_id":"cebpf4jnsgd1na2vs0mg"},{"bike_id":"120032a2-8e5d-46ed-afc9-7f608ff7d951","system_id":"levelo_inurba_marseille","lat":43.32367,"lon":5.388836,"is_reserved":false,"is_disabled":false,"rental_uris":{"android":"levelo://app?vid=120032a2-8e5d-46ed-afc9-7f608ff7d951","ios":"levelo://app?vid=120032a2-8e5d-46ed-afc9-7f608ff7d951"},"vehicle_type_id":"4","last_reported":1717863013,"current_range_meters":20400,"station_id":"ce4bhqp2rcd13ifvqhog","pricing_plan_id":"cebpf4jnsgd1na2vs0mg"},{"bike_id":"4fdc45d7-7aa7-4531-aaf6-d2dedceca3b9","system_id":"levelo_inurba_marseille","lat":43.32367,"lon":5.388836,"is_reserved":false,"is_disabled":false,"rental_uris":{"android":"levelo://app?vid=4fdc45d7-7aa7-4531-aaf6-d2dedceca3b9","ios":"levelo://app?vid=4fdc45d7-7aa7-4531-aaf6-d2dedceca3b9"},"vehicle_type_id":"4","last_reported":1717863013,"current_range_meters":17200,"station_id":"ce4bhqp2rcd13ifvqhog","pricing_plan_id":"cebpf4jnsgd1na2vs0mg"},{"bike_id":"302c4dbb-5aae-4889-a998-75080d2470c9","system_id":"levelo_inurba_marseille","lat":43.32367,"lon":5.388836,"is_reserved":false,"is_disabled":false,"rental_uris":{"android":"levelo://app?vid=302c4dbb-5aae-4889-a998-75080d2470c9","ios":"levelo://app?vid=302c4dbb-5aae-4889-a998-75080d2470c9"},"vehicle_type_id":"4","last_reported":1717863013,"current_range_meters":14000,"station_id":"ce4bhqp2rcd13ifvqhog","pricing_plan_id":"cebpf4jnsgd1na2vs0mg"},{"bike_id":"5cb8c37b-53ac-41ae-b5fa-1ae70afafded","system_id":"levelo_inurba_marseille","lat":43.32369,"lon":5.38887,"is_reserved":false,"is_disabled":false,"rental_uris":{"android":"levelo://app?vid=5cb8c37b-53ac-41ae-b5fa-1ae70afafded","ios":"levelo://app?vid=5cb8c37b-53ac-41ae-b5fa-1ae70afafded"},"vehicle_type_id":"4","last_reported":1717863013,"current_range_meters":23600,"station_id":"ce4bhqp2rcd13ifvqhog","pricing_plan_id":"cebpf4jnsgd1na2vs0mg"},{"bike_id":"7cb8bd6f-2e99-4563-9522-9ed8b6f9d778","system_id":"levelo_inurba_marseille","lat":43.32373,"lon":5.38887,"is_reserved":false,"is_disabled":false,"rental_uris":{"android":"levelo://app?vid=7cb8bd6f-2e99-4563-9522-9ed8b6f9d778","ios":"levelo://app?vid=7cb8bd6f-2e99-4563-9522-9ed8b6f9d778"},"vehicle_type_id":"4","last_reported":1717863013,"current_range_meters":10400,"station_id":"ce4bhqp2rcd13ifvqhog","pricing_plan_id":"cebpf4jnsgd1na2vs0mg"},{"bike_id":"ba3eeddb-2b7e-451f-805c-ecb068382497","system_id":"levelo_inurba_marseille","lat":43.32367,"lon":5.388836,"is_reserved":false,"is_disabled":false,"rental_uris":{"android":"levelo://app?vid=ba3eeddb-2b7e-451f-805c-ecb068382497","ios":"levelo://app?vid=ba3eeddb-2b7e-451f-805c-ecb068382497"},"vehicle_type_id":"4","last_reported":1717863013,"current_range_meters":4800,"station_id":"ce4bhqp2rcd13ifvqhog","pricing_plan_id":"cebpf4jnsgd1na2vs0mg"},{"bike_id":"bfb5bd53-25be-4231-a3f6-832c0dd4035c","system_id":"levelo_inurba_marseille","lat":43.296053,"lon":5.381233,"is_reserved":false,"is_disabled":false,"rental_uris":{"android":"levelo://app?vid=bfb5bd53-25be-4231-a3f6-832c0dd4035c","ios":"levelo://app?vid=bfb5bd53-25be-4231-a3f6-832c0dd4035c"},"vehicle_type_id":"4","last_reported":1717863013,"current_range_meters":2800,"station_id":"ce4bgl12rcd13ifvqbo0","pricing_plan_id":"cebpf4jnsgd1na2vs0mg"},{"bike_id":"27be6281-e708-4ea3-ac41-9b26e54d351d","system_id":"levelo_inurba_marseille","lat":43.296103,"lon":5.381458,"is_reserved":false,"is_disabled":false,"rental_uris":{"android":"levelo://app?vid=27be6281-e708-4ea3-ac41-9b26e54d351d","ios":"levelo://app?vid=27be6281-e708-4ea3-ac41-9b26e54d351d"},"vehicle_type_id":"4","last_reported":1717863013,"current_range_meters":14400,"station_id":"ce4bgl12rcd13ifvqbo0","pricing_plan_id":"cebpf4jnsgd1na2vs0mg"},{"bike_id":"970cb975-7f05-4a00-a27d-c744fb5f6259","system_id":"levelo_inurba_marseille","lat":43.293259,"lon":5.371586,"is_reserved":false,"is_disabled":false,"rental_uris":{"android":"levelo://app?vid=970cb975-7f05-4a00-a27d-c744fb5f6259","ios":"levelo://app?vid=970cb975-7f05-4a00-a27d-c744fb5f6259"},"vehicle_type_id":"4","last_reported":1717863013,"current_range_meters":27600,"station_id":"ce4bgh92rcd13ifvqb40","pricing_plan_id":"cebpf4jnsgd1na2vs0mg"},{"bike_id":"670dae4f-0e82-4c45-91dc-0a81a2f3d606","system_id":"levelo_inurba_marseille","lat":43.29309,"lon":5.37464,"is_reserved":false,"is_disabled":false,"rental_uris":{"android":"levelo://app?vid=670dae4f-0e82-4c45-91dc-0a81a2f3d606","ios":"levelo://app?vid=670dae4f-0e82-4c45-91dc-0a81a2f3d606"},"vehicle_type_id":"4","last_reported":1717863013,"current_range_meters":0,"station_id":"","pricing_plan_id":"cebpf4jnsgd1na2vs0mg"},{"bike_id":"5a7d2361-abdc-42da-83b5-353896a842d8","system_id":"levelo_inurba_marseille","lat":43.29306,"lon":5.3746,"is_reserved":false,"is_disabled":false,"rental_uris":{"android":"levelo://app?vid=5a7d2361-abdc-42da-83b5-353896a842d8","ios":"levelo://app?vid=5a7d2361-abdc-42da-83b5-353896a842d8"},"vehicle_type_id":"4","last_reported":1717863013,"current_range_meters":0,"station_id":"ce4bgi12rcd13ifvqb70","pricing_plan_id":"cebpf4jnsgd1na2vs0mg"},{"bike_id":"7d0270fe-ce09-4980-a122-c427e1bbf543","system_id":"levelo_inurba_marseille","lat":43.305916,"lon":5.393463,"is_reserved":false,"is_disabled":false,"rental_uris":{"android":"levelo://app?vid=7d0270fe-ce09-4980-a122-c427e1bbf543","ios":"levelo://app?vid=7d0270fe-ce09-4980-a122-c427e1bbf543"},"vehicle_type_id":"4","last_reported":1717863013,"current_range_meters":19600,"station_id":"","pricing_plan_id":"cebpf4jnsgd1na2vs0mg"},{"bike_id":"6bfa0a80-6c8c-45ae-9b64-9a1763a2bdff","system_id":"levelo_inurba_marseille","lat":43.303002,"lon":5.392142,"is_reserved":false,"is_disabled":false,"rental_uris":{"android":"levelo://app?vid=6bfa0a80-6c8c-45ae-9b64-9a1763a2bdff","ios":"levelo://app?vid=6bfa0a80-6c8c-45ae-9b64-9a1763a2bdff"},"vehicle_type_id":"4","last_reported":1717863013,"current_range_meters":17600,"station_id":"ce4bgkh2rcd13ifvqbk0","pricing_plan_id":"cebpf4jnsgd1na2vs0mg"},{"bike_id":"affe3b2f-a621-463b-848b-7478ea85548f","system_id":"levelo_inurba_marseille","lat":43.303002,"lon":5.392142,"is_reserved":false,"is_disabled":false,"rental_uris":{"android":"levelo://app?vid=affe3b2f-a621-463b-848b-7478ea85548f","ios":"levelo://app?vid=affe3b2f-a621-463b-848b-7478ea85548f"},"vehicle_type_id":"4","last_reported":1717863013,"current_range_meters":30400,"station_id":"ce4bgkh2rcd13ifvqbk0","pricing_plan_id":"cebpf4jnsgd1na2vs0mg"},{"bike_id":"02d6d555-ef5e-403b-af13-2f3bf81da864","system_id":"levelo_inurba_marseille","lat":43.2936,"lon":5.37835,"is_reserved":false,"is_disabled":false,"rental_uris":{"android":"levelo://app?vid=02d6d555-ef5e-403b-af13-2f3bf81da864","ios":"levelo://app?vid=02d6d555-ef5e-403b-af13-2f3bf81da864"},"vehicle_type_id":"4","last_reported":1717863013,"current_range_meters":0,"station_id":"ce4bgjh2rcd13ifvqbf0","pricing_plan_id":"cebpf4jnsgd1na2vs0mg"},{"bike_id":"a998ae68-1372-4d0f-8f61-a78b8a570eea","system_id":"levelo_inurba_marseille","lat":43.2936,"lon":5.37835,"is_reserved":false,"is_disabled":false,"rental_uris":{"android":"levelo://app?vid=a998ae68-1372-4d0f-8f61-a78b8a570eea","ios":"levelo://app?vid=a998ae68-1372-4d0f-8f61-a78b8a570eea"},"vehicle_type_id":"4","last_reported":1717863013,"current_range_meters":2400,"station_id":"ce4bgjh2rcd13ifvqbf0","pricing_plan_id":"cebpf4jnsgd1na2vs0mg"},{"bike_id":"79071779-efa5-41f8-9ae1-7150fb540a55","system_id":"levelo_inurba_marseille","lat":43.30085,"lon":5.390856,"is_reserved":false,"is_disabled":false,"rental_uris":{"android":"levelo://app?vid=79071779-efa5-41f8-9ae1-7150fb540a55","ios":"levelo://app?vid=79071779-efa5-41f8-9ae1-7150fb540a55"},"vehicle_type_id":"4","last_reported":1717863013,"current_range_meters":27600,"station_id":"ce4bh192rcd13ifvqdb0","pricing_plan_id":"cebpf4jnsgd1na2vs0mg"},{"bike_id":"a452e6bb-89f6-43d2-9620-6e76c458a6e3","system_id":"levelo_inurba_marseille","lat":43.292311,"lon":5.360731,"is_reserved":false,"is_disabled":false,"rental_uris":{"android":"levelo://app?vid=a452e6bb-89f6-43d2-9620-6e76c458a6e3","ios":"levelo://app?vid=a452e6bb-89f6-43d2-9620-6e76c458a6e3"},"vehicle_type_id":"4","last_reported":1717863013,"current_range_meters":25600,"station_id":"ce4bhbh2rcd13ifvqeqg","pricing_plan_id":"cebpf4jnsgd1na2vs0mg"},{"bike_id":"e75a2754-ab45-4628-9cf3-227faa422ce5","system_id":"levelo_inurba_marseille","lat":43.29232,"lon":5.36064,"is_reserved":false,"is_disabled":false,"rental_uris":{"android":"levelo://app?vid=e75a2754-ab45-4628-9cf3-227faa422ce5","ios":"levelo://app?vid=e75a2754-ab45-4628-9cf3-227faa422ce5"},"vehicle_type_id":"4","last_reported":1717863013,"current_range_meters":5600,"station_id":"ce4bhbh2rcd13ifvqeqg","pricing_plan_id":"cebpf4jnsgd1na2vs0mg"},{"bike_id":"a984743a-a5ec-4d9a-8235-c060032be4f8","system_id":"levelo_inurba_marseille","lat":43.292308,"lon":5.360683,"is_reserved":false,"is_disabled":false,"rental_uris":{"android":"levelo://app?vid=a984743a-a5ec-4d9a-8235-c060032be4f8","ios":"levelo://app?vid=a984743a-a5ec-4d9a-8235-c060032be4f8"},"vehicle_type_id":"4","last_reported":1717863013,"current_range_meters":8400,"station_id":"ce4bhbh2rcd13ifvqeqg","pricing_plan_id":"cebpf4jnsgd1na2vs0mg"},{"bike_id":"accebb2a-7030-4833-aa59-7a0bce5f485a","system_id":"levelo_inurba_marseille","lat":43.30085,"lon":5.390856,"is_reserved":false,"is_disabled":false,"rental_uris":{"android":"levelo://app?vid=accebb2a-7030-4833-aa59-7a0bce5f485a","ios":"levelo://app?vid=accebb2a-7030-4833-aa59-7a0bce5f485a"},"vehicle_type_id":"4","last_reported":1717863013,"current_range_meters":20800,"station_id":"ce4bh192rcd13ifvqdb0","pricing_plan_id":"cebpf4jnsgd1na2vs0mg"},{"bike_id":"ef3e2942-03d5-4231-88b0-e365779c511c","system_id":"levelo_inurba_marseille","lat":43.292311,"lon":5.360731,"is_reserved":false,"is_disabled":false,"rental_uris":{"android":"levelo://app?vid=ef3e2942-03d5-4231-88b0-e365779c511c","ios":"levelo://app?vid=ef3e2942-03d5-4231-88b0-e365779c511c"},"vehicle_type_id":"4","last_reported":1717863013,"current_range_meters":4400,"station_id":"ce4bhbh2rcd13ifvqeqg","pricing_plan_id":"cebpf4jnsgd1na2vs0mg"},{"bike_id":"48124c87-6666-4107-8dd4-cb105fad5e11","system_id":"levelo_inurba_marseille","lat":43.292311,"lon":5.360731,"is_reserved":false,"is_disabled":false,"rental_uris":{"android":"levelo://app?vid=48124c87-6666-4107-8dd4-cb105fad5e11","ios":"levelo://app?vid=48124c87-6666-4107-8dd4-cb105fad5e11"},"vehicle_type_id":"4","last_reported":1717863013,"current_range_meters":18400,"station_id":"ce4bhbh2rcd13ifvqeqg","pricing_plan_id":"cebpf4jnsgd1na2vs0mg"},{"bike_id":"8bfdb506-5311-4ca4-b8ad-16d363de1c88","system_id":"levelo_inurba_marseille","lat":43.292311,"lon":5.360731,"is_reserved":false,"is_disabled":false,"rental_uris":{"android":"levelo://app?vid=8bfdb506-5311-4ca4-b8ad-16d363de1c88","ios":"levelo://app?vid=8bfdb506-5311-4ca4-b8ad-16d363de1c88"},"vehicle_type_id":"4","last_reported":1717863013,"current_range_meters":8400,"station_id":"ce4bhbh2rcd13ifvqeqg","pricing_plan_id":"cebpf4jnsgd1na2vs0mg"},{"bike_id":"8319e405-747a-443a-8e27-6a65928b69ad","system_id":"levelo_inurba_marseille","lat":43.292311,"lon":5.360731,"is_reserved":false,"is_disabled":false,"rental_uris":{"android":"levelo://app?vid=8319e405-747a-443a-8e27-6a65928b69ad","ios":"levelo://app?vid=8319e405-747a-443a-8e27-6a65928b69ad"},"vehicle_type_id":"4","last_reported":1717863013,"current_range_meters":800,"station_id":"ce4bhbh2rcd13ifvqeqg","pricing_plan_id":"cebpf4jnsgd1na2vs0mg"},{"bike_id":"f3c625b9-0075-4501-9339-7479227c6558","system_id":"levelo_inurba_marseille","lat":43.292311,"lon":5.360731,"is_reserved":false,"is_disabled":false,"rental_uris":{"android":"levelo://app?vid=f3c625b9-0075-4501-9339-7479227c6558","ios":"levelo://app?vid=f3c625b9-0075-4501-9339-7479227c6558"},"vehicle_type_id":"4","last_reported":1717863013,"current_range_meters":6000,"station_id":"ce4bhbh2rcd13ifvqeqg","pricing_plan_id":"cebpf4jnsgd1na2vs0mg"},{"bike_id":"5906fc87-ce2a-484a-8745-cb912cc774a0","system_id":"levelo_inurba_marseille","lat":43.30085,"lon":5.390856,"is_reserved":false,"is_disabled":false,"rental_uris":{"android":"levelo://app?vid=5906fc87-ce2a-484a-8745-cb912cc774a0","ios":"levelo://app?vid=5906fc87-ce2a-484a-8745-cb912cc774a0"},"vehicle_type_id":"4","last_reported":1717863013,"current_range_meters":10800,"station_id":"ce4bh192rcd13ifvqdb0","pricing_plan_id":"cebpf4jnsgd1na2vs0mg"},{"bike_id":"d7685d52-061d-4a94-9680-5cf3fc8904d8","system_id":"levelo_inurba_marseille","lat":43.30085,"lon":5.390856,"is_reserved":false,"is_disabled":false,"rental_uris":{"android":"levelo://app?vid=d7685d52-061d-4a94-9680-5cf3fc8904d8","ios":"levelo://app?vid=d7685d52-061d-4a94-9680-5cf3fc8904d8"},"vehicle_type_id":"4","last_reported":1717863013,"current_range_meters":23600,"station_id":"ce4bh192rcd13ifvqdb0","pricing_plan_id":"cebpf4jnsgd1na2vs0mg"},{"bike_id":"1a972e82-bfcf-45c9-84a1-70a1e0666bd2","system_id":"levelo_inurba_marseille","lat":43.298764,"lon":5.388973,"is_reserved":false,"is_disabled":false,"rental_uris":{"android":"levelo://app?vid=1a972e82-bfcf-45c9-84a1-70a1e0666bd2","ios":"levelo://app?vid=1a972e82-bfcf-45c9-84a1-70a1e0666bd2"},"vehicle_type_id":"4","last_reported":1717863013,"current_range_meters":12400,"station_id":"ce4bh392rcd13ifvqdl0","pricing_plan_id":"cebpf4jnsgd1na2vs0mg"},{"bike_id":"37b27463-b72c-40aa-a602-712fa287a779","system_id":"levelo_inurba_marseille","lat":43.29529,"lon":5.385581,"is_reserved":false,"is_disabled":false,"rental_uris":{"android":"levelo://app?vid=37b27463-b72c-40aa-a602-712fa287a779","ios":"levelo://app?vid=37b27463-b72c-40aa-a602-712fa287a779"},"vehicle_type_id":"4","last_reported":1717863013,"current_range_meters":13200,"station_id":"ce4bgih2rcd13ifvqba0","pricing_plan_id":"cebpf4jnsgd1na2vs0mg"},{"bike_id":"6a0c11ec-8de7-4187-a735-4d0ae9a5a1da","system_id":"levelo_inurba_marseille","lat":43.291994,"lon":5.357886,"is_reserved":false,"is_disabled":false,"rental_uris":{"android":"levelo://app?vid=6a0c11ec-8de7-4187-a735-4d0ae9a5a1da","ios":"levelo://app?vid=6a0c11ec-8de7-4187-a735-4d0ae9a5a1da"},"vehicle_type_id":"4","last_reported":1717863013,"current_range_meters":24000,"station_id":"ce4bhb12rcd13ifvqel0","pricing_plan_id":"cebpf4jnsgd1na2vs0mg"},{"bike_id":"87ff6d25-4050-4d08-aaa1-7a544bc9d79e","system_id":"levelo_inurba_marseille","lat":43.292005,"lon":5.357875,"is_reserved":false,"is_disabled":false,"rental_uris":{"android":"levelo://app?vid=87ff6d25-4050-4d08-aaa1-7a544bc9d79e","ios":"levelo://app?vid=87ff6d25-4050-4d08-aaa1-7a544bc9d79e"},"vehicle_type_id":"4","last_reported":1717863013,"current_range_meters":2800,"station_id":"ce4bhb12rcd13ifvqel0","pricing_plan_id":"cebpf4jnsgd1na2vs0mg"},{"bike_id":"d1bc9975-3a7d-4e11-b174-aa4a6b755178","system_id":"levelo_inurba_marseille","lat":43.291994,"lon":5.357886,"is_reserved":false,"is_disabled":false,"rental_uris":{"android":"levelo://app?vid=d1bc9975-3a7d-4e11-b174-aa4a6b755178","ios":"levelo://app?vid=d1bc9975-3a7d-4e11-b174-aa4a6b755178"},"vehicle_type_id":"4","last_reported":1717863013,"current_range_meters":4000,"station_id":"ce4bhb12rcd13ifvqel0","pricing_plan_id":"cebpf4jnsgd1na2vs0mg"},{"bike_id":"1a5e5669-2258-42dc-b7f4-56c7e0995bbc","system_id":"levelo_inurba_marseille","lat":43.309038,"lon":5.396546,"is_reserved":false,"is_disabled":false,"rental_uris":{"android":"levelo://app?vid=1a5e5669-2258-42dc-b7f4-56c7e0995bbc","ios":"levelo://app?vid=1a5e5669-2258-42dc-b7f4-56c7e0995bbc"},"vehicle_type_id":"4","last_reported":1717863013,"current_range_meters":14000,"station_id":"ce4bh012rcd13ifvqcv0","pricing_plan_id":"cebpf4jnsgd1na2vs0mg"},{"bike_id":"37e7b2c6-30b2-4b49-80c3-5926e5c63fa3","system_id":"levelo_inurba_marseille","lat":43.292005,"lon":5.357875,"is_reserved":false,"is_disabled":false,"rental_uris":{"android":"levelo://app?vid=37e7b2c6-30b2-4b49-80c3-5926e5c63fa3","ios":"levelo://app?vid=37e7b2c6-30b2-4b49-80c3-5926e5c63fa3"},"vehicle_type_id":"4","last_reported":1717863013,"current_range_meters":4000,"station_id":"ce4bhb12rcd13ifvqel0","pricing_plan_id":"cebpf4jnsgd1na2vs0mg"},{"bike_id":"449621fd-166e-4251-af04-9b0c99736f00","system_id":"levelo_inurba_marseille","lat":43.308847,"lon":5.396549,"is_reserved":false,"is_disabled":false,"rental_uris":{"android":"levelo://app?vid=449621fd-166e-4251-af04-9b0c99736f00","ios":"levelo://app?vid=449621fd-166e-4251-af04-9b0c99736f00"},"vehicle_type_id":"4","last_reported":1717863013,"current_range_meters":18800,"station_id":"ce4bh012rcd13ifvqcv0","pricing_plan_id":"cebpf4jnsgd1na2vs0mg"},{"bike_id":"c3d20afd-67e4-48e7-9c6d-434249cd4c5e","system_id":"levelo_inurba_marseille","lat":43.292005,"lon":5.357875,"is_reserved":false,"is_disabled":false,"rental_uris":{"android":"levelo://app?vid=c3d20afd-67e4-48e7-9c6d-434249cd4c5e","ios":"levelo://app?vid=c3d20afd-67e4-48e7-9c6d-434249cd4c5e"},"vehicle_type_id":"4","last_reported":1717863013,"current_range_meters":29600,"station_id":"ce4bhb12rcd13ifvqel0","pricing_plan_id":"cebpf4jnsgd1na2vs0mg"},{"bike_id":"0990c399-90ea-4b34-a1f4-38bc24df85cb","system_id":"levelo_inurba_marseille","lat":43.302008,"lon":5.394694,"is_reserved":false,"is_disabled":false,"rental_uris":{"android":"levelo://app?vid=0990c399-90ea-4b34-a1f4-38bc24df85cb","ios":"levelo://app?vid=0990c399-90ea-4b34-a1f4-38bc24df85cb"},"vehicle_type_id":"4","last_reported":1717863013,"current_range_meters":400,"station_id":"ce4bh0p2rcd13ifvqd70","pricing_plan_id":"cebpf4jnsgd1na2vs0mg"},{"bike_id":"f8d57877-cfb5-464b-9624-73aebba965d0","system_id":"levelo_inurba_marseille","lat":43.290779,"lon":5.371482,"is_reserved":false,"is_disabled":false,"rental_uris":{"android":"levelo://app?vid=f8d57877-cfb5-464b-9624-73aebba965d0","ios":"levelo://app?vid=f8d57877-cfb5-464b-9624-73aebba965d0"},"vehicle_type_id":"4","last_reported":1717863013,"current_range_meters":28800,"station_id":"ce4bh5p2rcd13ifvqe4g","pricing_plan_id":"cebpf4jnsgd1na2vs0mg"},{"bike_id":"5d0e98d7-bbe1-41ee-965c-ee504b0275d7","system_id":"levelo_inurba_marseille","lat":43.302008,"lon":5.394694,"is_reserved":false,"is_disabled":false,"rental_uris":{"android":"levelo://app?vid=5d0e98d7-bbe1-41ee-965c-ee504b0275d7","ios":"levelo://app?vid=5d0e98d7-bbe1-41ee-965c-ee504b0275d7"},"vehicle_type_id":"4","last_reported":1717863013,"current_range_meters":0,"station_id":"ce4bh0p2rcd13ifvqd70","pricing_plan_id":"cebpf4jnsgd1na2vs0mg"},{"bike_id":"fab77dd8-7015-4e2a-bfc3-b1402941d560","system_id":"levelo_inurba_marseille","lat":43.302008,"lon":5.394694,"is_reserved":false,"is_disabled":false,"rental_uris":{"android":"levelo://app?vid=fab77dd8-7015-4e2a-bfc3-b1402941d560","ios":"levelo://app?vid=fab77dd8-7015-4e2a-bfc3-b1402941d560"},"vehicle_type_id":"4","last_reported":1717863013,"current_range_meters":2000,"station_id":"ce4bh0p2rcd13ifvqd70","pricing_plan_id":"cebpf4jnsgd1na2vs0mg"},{"bike_id":"1941eece-4281-4e1a-b5a9-0d345ce189b5","system_id":"levelo_inurba_marseille","lat":43.294429,"lon":5.385799,"is_reserved":false,"is_disabled":false,"rental_uris":{"android":"levelo://app?vid=1941eece-4281-4e1a-b5a9-0d345ce189b5","ios":"levelo://app?vid=1941eece-4281-4e1a-b5a9-0d345ce189b5"},"vehicle_type_id":"4","last_reported":1717863013,"current_range_meters":0,"station_id":"","pricing_plan_id":"cebpf4jnsgd1na2vs0mg"},{"bike_id":"9331192a-ea9a-44d1-b86c-f7101d1f0514","system_id":"levelo_inurba_marseille","lat":43.290319,"lon":5.375732,"is_reserved":false,"is_disabled":false,"rental_uris":{"android":"levelo://app?vid=9331192a-ea9a-44d1-b86c-f7101d1f0514","ios":"levelo://app?vid=9331192a-ea9a-44d1-b86c-f7101d1f0514"},"vehicle_type_id":"4","last_reported":1717863013,"current_range_meters":6000,"station_id":"ce4bh692rcd13ifvqe90","pricing_plan_id":"cebpf4jnsgd1na2vs0mg"},{"bike_id":"671fd1f1-375b-4fca-8e3c-316bcfc9f707","system_id":"levelo_inurba_marseille","lat":43.294162,"lon":5.386292,"is_reserved":false,"is_disabled":false,"rental_uris":{"android":"levelo://app?vid=671fd1f1-375b-4fca-8e3c-316bcfc9f707","ios":"levelo://app?vid=671fd1f1-375b-4fca-8e3c-316bcfc9f707"},"vehicle_type_id":"4","last_reported":1717863013,"current_range_meters":4800,"station_id":"ce4bh2h2rcd13ifvqdh0","pricing_plan_id":"cebpf4jnsgd1na2vs0mg"},{"bike_id":"be36bd2d-03db-46b6-a615-0c32bc8aef19","system_id":"levelo_inurba_marseille","lat":43.290319,"lon":5.375732,"is_reserved":false,"is_disabled":false,"rental_uris":{"android":"levelo://app?vid=be36bd2d-03db-46b6-a615-0c32bc8aef19","ios":"levelo://app?vid=be36bd2d-03db-46b6-a615-0c32bc8aef19"},"vehicle_type_id":"4","last_reported":1717863013,"current_range_meters":0,"station_id":"ce4bh692rcd13ifvqe90","pricing_plan_id":"cebpf4jnsgd1na2vs0mg"},{"bike_id":"64ca519c-098b-48aa-8b7e-5cdad4c1ff4e","system_id":"levelo_inurba_marseille","lat":43.289184,"lon":5.366408,"is_reserved":false,"is_disabled":false,"rental_uris":{"android":"levelo://app?vid=64ca519c-098b-48aa-8b7e-5cdad4c1ff4e","ios":"levelo://app?vid=64ca519c-098b-48aa-8b7e-5cdad4c1ff4e"},"vehicle_type_id":"4","last_reported":1717863013,"current_range_meters":4800,"station_id":"ce4bhap2rcd13ifvqek0","pricing_plan_id":"cebpf4jnsgd1na2vs0mg"},{"bike_id":"8ad9d634-ce5f-4188-bb89-1bb1c74ac693","system_id":"levelo_inurba_marseille","lat":43.292644,"lon":5.384257,"is_reserved":false,"is_disabled":false,"rental_uris":{"android":"levelo://app?vid=8ad9d634-ce5f-4188-bb89-1bb1c74ac693","ios":"levelo://app?vid=8ad9d634-ce5f-4188-bb89-1bb1c74ac693"},"vehicle_type_id":"4","last_reported":1717863013,"current_range_meters":400,"station_id":"ce4bh692rcd13ifvqea0","pricing_plan_id":"cebpf4jnsgd1na2vs0mg"},{"bike_id":"e2147445-80d7-482e-bbe6-22001511e30f","system_id":"levelo_inurba_marseille","lat":43.29573,"lon":5.367355,"is_reserved":false,"is_disabled":false,"rental_uris":{"android":"levelo://app?vid=e2147445-80d7-482e-bbe6-22001511e30f","ios":"levelo://app?vid=e2147445-80d7-482e-bbe6-22001511e30f"},"vehicle_type_id":"4","last_reported":1717863013,"current_range_meters":0,"station_id":"ce4bgph2rcd13ifvqc2g","pricing_plan_id":"cebpf4jnsgd1na2vs0mg"},{"bike_id":"365755b9-a1de-4fa9-bf84-90bb4de44a56","system_id":"levelo_inurba_marseille","lat":43.29007,"lon":5.35617,"is_reserved":false,"is_disabled":false,"rental_uris":{"android":"levelo://app?vid=365755b9-a1de-4fa9-bf84-90bb4de44a56","ios":"levelo://app?vid=365755b9-a1de-4fa9-bf84-90bb4de44a56"},"vehicle_type_id":"4","last_reported":1717863013,"current_range_meters":0,"station_id":"ce4bhb92rcd13ifvqen0","pricing_plan_id":"cebpf4jnsgd1na2vs0mg"},{"bike_id":"3d31cc5b-58aa-4634-9dc2-0b93e5140d47","system_id":"levelo_inurba_marseille","lat":43.289993,"lon":5.356099,"is_reserved":false,"is_disabled":false,"rental_uris":{"android":"levelo://app?vid=3d31cc5b-58aa-4634-9dc2-0b93e5140d47","ios":"levelo://app?vid=3d31cc5b-58aa-4634-9dc2-0b93e5140d47"},"vehicle_type_id":"4","last_reported":1717863013,"current_range_meters":13600,"station_id":"ce4bhb92rcd13ifvqen0","pricing_plan_id":"cebpf4jnsgd1na2vs0mg"},{"bike_id":"c78edbed-b9c4-4587-885a-4eb66896ac57","system_id":"levelo_inurba_marseille","lat":43.291011,"lon":5.381304,"is_reserved":false,"is_disabled":false,"rental_uris":{"android":"levelo://app?vid=c78edbed-b9c4-4587-885a-4eb66896ac57","ios":"levelo://app?vid=c78edbed-b9c4-4587-885a-4eb66896ac57"},"vehicle_type_id":"4","last_reported":1717863013,"current_range_meters":0,"station_id":"ce4bh512rcd13ifvqe2g","pricing_plan_id":"cebpf4jnsgd1na2vs0mg"},{"bike_id":"3816a580-5962-4a0d-a461-d0e37867170d","system_id":"levelo_inurba_marseille","lat":43.290995,"lon":5.381361,"is_reserved":false,"is_disabled":false,"rental_uris":{"android":"levelo://app?vid=3816a580-5962-4a0d-a461-d0e37867170d","ios":"levelo://app?vid=3816a580-5962-4a0d-a461-d0e37867170d"},"vehicle_type_id":"4","last_reported":1717863013,"current_range_meters":0,"station_id":"ce4bh512rcd13ifvqe2g","pricing_plan_id":"cebpf4jnsgd1na2vs0mg"},{"bike_id":"7f1868a2-11e6-4cd7-b0a0-217e09ba56ce","system_id":"levelo_inurba_marseille","lat":43.295169,"lon":5.390426,"is_reserved":false,"is_disabled":false,"rental_uris":{"android":"levelo://app?vid=7f1868a2-11e6-4cd7-b0a0-217e09ba56ce","ios":"levelo://app?vid=7f1868a2-11e6-4cd7-b0a0-217e09ba56ce"},"vehicle_type_id":"4","last_reported":1717863013,"current_range_meters":11200,"station_id":"ce4bh3p2rcd13ifvqdp0","pricing_plan_id":"cebpf4jnsgd1na2vs0mg"},{"bike_id":"3c7d577a-a22b-4558-8fb2-171c9b9874d0","system_id":"levelo_inurba_marseille","lat":43.295169,"lon":5.390426,"is_reserved":false,"is_disabled":false,"rental_uris":{"android":"levelo://app?vid=3c7d577a-a22b-4558-8fb2-171c9b9874d0","ios":"levelo://app?vid=3c7d577a-a22b-4558-8fb2-171c9b9874d0"},"vehicle_type_id":"4","last_reported":1717863013,"current_range_meters":23200,"station_id":"ce4bh3p2rcd13ifvqdp0","pricing_plan_id":"cebpf4jnsgd1na2vs0mg"},{"bike_id":"7da4215e-a1ad-4b66-8ffd-8a7fef42da2b","system_id":"levelo_inurba_marseille","lat":43.29788,"lon":5.3934,"is_reserved":false,"is_disabled":false,"rental_uris":{"android":"levelo://app?vid=7da4215e-a1ad-4b66-8ffd-8a7fef42da2b","ios":"levelo://app?vid=7da4215e-a1ad-4b66-8ffd-8a7fef42da2b"},"vehicle_type_id":"4","last_reported":1717863013,"current_range_meters":9600,"station_id":"chh1huq6cuj3fo74tm60","pricing_plan_id":"cebpf4jnsgd1na2vs0mg"},{"bike_id":"0e9c709a-5df0-46f5-85f2-d82e650a1c95","system_id":"levelo_inurba_marseille","lat":43.289741,"lon":5.378306,"is_reserved":false,"is_disabled":false,"rental_uris":{"android":"levelo://app?vid=0e9c709a-5df0-46f5-85f2-d82e650a1c95","ios":"levelo://app?vid=0e9c709a-5df0-46f5-85f2-d82e650a1c95"},"vehicle_type_id":"4","last_reported":1717863013,"current_range_meters":7200,"station_id":"ce4bh9p2rcd13ifvqed0","pricing_plan_id":"cebpf4jnsgd1na2vs0mg"},{"bike_id":"f8683504-b380-417a-917a-28fe594e36c5","system_id":"levelo_inurba_marseille","lat":43.289741,"lon":5.378306,"is_reserved":false,"is_disabled":false,"rental_uris":{"android":"levelo://app?vid=f8683504-b380-417a-917a-28fe594e36c5","ios":"levelo://app?vid=f8683504-b380-417a-917a-28fe594e36c5"},"vehicle_type_id":"4","last_reported":1717863013,"current_range_meters":0,"station_id":"ce4bh9p2rcd13ifvqed0","pricing_plan_id":"cebpf4jnsgd1na2vs0mg"},{"bike_id":"6646c52f-0a27-4020-93c7-36207725fd63","system_id":"levelo_inurba_marseille","lat":43.330442,"lon":5.389148,"is_reserved":false,"is_disabled":false,"rental_uris":{"android":"levelo://app?vid=6646c52f-0a27-4020-93c7-36207725fd63","ios":"levelo://app?vid=6646c52f-0a27-4020-93c7-36207725fd63"},"vehicle_type_id":"4","last_reported":1717863013,"current_range_meters":13600,"station_id":"ce4bhr92rcd13ifvqhrg","pricing_plan_id":"cebpf4jnsgd1na2vs0mg"},{"bike_id":"10f052da-41c3-43e5-b96c-96043e84b34e","system_id":"levelo_inurba_marseille","lat":43.310624,"lon":5.400902,"is_reserved":false,"is_disabled":false,"rental_uris":{"android":"levelo://app?vid=10f052da-41c3-43e5-b96c-96043e84b34e","ios":"levelo://app?vid=10f052da-41c3-43e5-b96c-96043e84b34e"},"vehicle_type_id":"4","last_reported":1717863013,"current_range_meters":17200,"station_id":"","pricing_plan_id":"cebpf4jnsgd1na2vs0mg"},{"bike_id":"d1b8f667-9e9b-45ec-b7ff-7d34656221f3","system_id":"levelo_inurba_marseille","lat":43.28856,"lon":5.358371,"is_reserved":false,"is_disabled":false,"rental_uris":{"android":"levelo://app?vid=d1b8f667-9e9b-45ec-b7ff-7d34656221f3","ios":"levelo://app?vid=d1b8f667-9e9b-45ec-b7ff-7d34656221f3"},"vehicle_type_id":"4","last_reported":1717863013,"current_range_meters":26400,"station_id":"ce4bhb12rcd13ifvqem0","pricing_plan_id":"cebpf4jnsgd1na2vs0mg"},{"bike_id":"be749423-7649-4ebe-a7df-61a7322090d1","system_id":"levelo_inurba_marseille","lat":43.28856,"lon":5.358371,"is_reserved":false,"is_disabled":false,"rental_uris":{"android":"levelo://app?vid=be749423-7649-4ebe-a7df-61a7322090d1","ios":"levelo://app?vid=be749423-7649-4ebe-a7df-61a7322090d1"},"vehicle_type_id":"4","last_reported":1717863013,"current_range_meters":0,"station_id":"ce4bhb12rcd13ifvqem0","pricing_plan_id":"cebpf4jnsgd1na2vs0mg"},{"bike_id":"f5d81ff7-7e0d-44d8-86e3-2548419d17b8","system_id":"levelo_inurba_marseille","lat":43.3373,"lon":5.37466,"is_reserved":false,"is_disabled":false,"rental_uris":{"android":"levelo://app?vid=f5d81ff7-7e0d-44d8-86e3-2548419d17b8","ios":"levelo://app?vid=f5d81ff7-7e0d-44d8-86e3-2548419d17b8"},"vehicle_type_id":"4","last_reported":1717863013,"current_range_meters":4400,"station_id":"","pricing_plan_id":"cebpf4jnsgd1na2vs0mg"},{"bike_id":"d0033a3c-5cd6-4afa-baf3-217fd54864f9","system_id":"levelo_inurba_marseille","lat":43.312609,"lon":5.401662,"is_reserved":false,"is_disabled":false,"rental_uris":{"android":"levelo://app?vid=d0033a3c-5cd6-4afa-baf3-217fd54864f9","ios":"levelo://app?vid=d0033a3c-5cd6-4afa-baf3-217fd54864f9"},"vehicle_type_id":"4","last_reported":1717863013,"current_range_meters":31200,"station_id":"ce4bh092rcd13ifvqd30","pricing_plan_id":"cebpf4jnsgd1na2vs0mg"},{"bike_id":"14f87998-abf6-4ad2-a0c7-df9f9fece091","system_id":"levelo_inurba_marseille","lat":43.312609,"lon":5.401662,"is_reserved":false,"is_disabled":false,"rental_uris":{"android":"levelo://app?vid=14f87998-abf6-4ad2-a0c7-df9f9fece091","ios":"levelo://app?vid=14f87998-abf6-4ad2-a0c7-df9f9fece091"},"vehicle_type_id":"4","last_reported":1717863013,"current_range_meters":20400,"station_id":"ce4bh092rcd13ifvqd30","pricing_plan_id":"cebpf4jnsgd1na2vs0mg"},{"bike_id":"c8dba9c0-8ff4-4292-8f51-5e240ffbaf4f","system_id":"levelo_inurba_marseille","lat":43.312609,"lon":5.401662,"is_reserved":false,"is_disabled":false,"rental_uris":{"android":"levelo://app?vid=c8dba9c0-8ff4-4292-8f51-5e240ffbaf4f","ios":"levelo://app?vid=c8dba9c0-8ff4-4292-8f51-5e240ffbaf4f"},"vehicle_type_id":"4","last_reported":1717863013,"current_range_meters":22000,"station_id":"ce4bh092rcd13ifvqd30","pricing_plan_id":"cebpf4jnsgd1na2vs0mg"},{"bike_id":"65268d3c-383f-4ce7-95ba-a66aea0e2a56","system_id":"levelo_inurba_marseille","lat":43.312609,"lon":5.401662,"is_reserved":false,"is_disabled":false,"rental_uris":{"android":"levelo://app?vid=65268d3c-383f-4ce7-95ba-a66aea0e2a56","ios":"levelo://app?vid=65268d3c-383f-4ce7-95ba-a66aea0e2a56"},"vehicle_type_id":"4","last_reported":1717863013,"current_range_meters":6000,"station_id":"ce4bh092rcd13ifvqd30","pricing_plan_id":"cebpf4jnsgd1na2vs0mg"},{"bike_id":"d9fd565e-5afd-48fc-98fa-3035e10cafdc","system_id":"levelo_inurba_marseille","lat":43.312609,"lon":5.401662,"is_reserved":false,"is_disabled":false,"rental_uris":{"android":"levelo://app?vid=d9fd565e-5afd-48fc-98fa-3035e10cafdc","ios":"levelo://app?vid=d9fd565e-5afd-48fc-98fa-3035e10cafdc"},"vehicle_type_id":"4","last_reported":1717863013,"current_range_meters":0,"station_id":"ce4bh092rcd13ifvqd30","pricing_plan_id":"cebpf4jnsgd1na2vs0mg"},{"bike_id":"4ab6a842-c8e0-4473-913f-016609faab52","system_id":"levelo_inurba_marseille","lat":43.309371,"lon":5.401449,"is_reserved":false,"is_disabled":false,"rental_uris":{"android":"levelo://app?vid=4ab6a842-c8e0-4473-913f-016609faab52","ios":"levelo://app?vid=4ab6a842-c8e0-4473-913f-016609faab52"},"vehicle_type_id":"4","last_reported":1717863013,"current_range_meters":24800,"station_id":"ce4bgvp2rcd13ifvqct0","pricing_plan_id":"cebpf4jnsgd1na2vs0mg"},{"bike_id":"3c52cd0e-b594-49d4-83bc-a72eb3b4a19d","system_id":"levelo_inurba_marseille","lat":43.290345,"lon":5.38646,"is_reserved":false,"is_disabled":false,"rental_uris":{"android":"levelo://app?vid=3c52cd0e-b594-49d4-83bc-a72eb3b4a19d","ios":"levelo://app?vid=3c52cd0e-b594-49d4-83bc-a72eb3b4a19d"},"vehicle_type_id":"4","last_reported":1717863013,"current_range_meters":2800,"station_id":"ce4bh4p2rcd13ifvqe0g","pricing_plan_id":"cebpf4jnsgd1na2vs0mg"},{"bike_id":"4a7e92dd-1a6a-46c0-9c9a-e1b0e7a3c265","system_id":"levelo_inurba_marseille","lat":43.309371,"lon":5.401449,"is_reserved":false,"is_disabled":false,"rental_uris":{"android":"levelo://app?vid=4a7e92dd-1a6a-46c0-9c9a-e1b0e7a3c265","ios":"levelo://app?vid=4a7e92dd-1a6a-46c0-9c9a-e1b0e7a3c265"},"vehicle_type_id":"4","last_reported":1717863013,"current_range_meters":29600,"station_id":"ce4bgvp2rcd13ifvqct0","pricing_plan_id":"cebpf4jnsgd1na2vs0mg"},{"bike_id":"30e938c0-c84f-4c95-9cab-9d2df3fb8a59","system_id":"levelo_inurba_marseille","lat":43.309371,"lon":5.401449,"is_reserved":false,"is_disabled":false,"rental_uris":{"android":"levelo://app?vid=30e938c0-c84f-4c95-9cab-9d2df3fb8a59","ios":"levelo://app?vid=30e938c0-c84f-4c95-9cab-9d2df3fb8a59"},"vehicle_type_id":"4","last_reported":1717863013,"current_range_meters":6400,"station_id":"ce4bgvp2rcd13ifvqct0","pricing_plan_id":"cebpf4jnsgd1na2vs0mg"},{"bike_id":"527c8278-6351-4925-bce7-002d3ad83d8e","system_id":"levelo_inurba_marseille","lat":43.3375,"lon":5.37458,"is_reserved":false,"is_disabled":false,"rental_uris":{"android":"levelo://app?vid=527c8278-6351-4925-bce7-002d3ad83d8e","ios":"levelo://app?vid=527c8278-6351-4925-bce7-002d3ad83d8e"},"vehicle_type_id":"4","last_reported":1717863013,"current_range_meters":29600,"station_id":"","pricing_plan_id":"cebpf4jnsgd1na2vs0mg"},{"bike_id":"b19cf6a9-7504-4fea-a712-b855754ecf94","system_id":"levelo_inurba_marseille","lat":43.309371,"lon":5.401449,"is_reserved":false,"is_disabled":false,"rental_uris":{"android":"levelo://app?vid=b19cf6a9-7504-4fea-a712-b855754ecf94","ios":"levelo://app?vid=b19cf6a9-7504-4fea-a712-b855754ecf94"},"vehicle_type_id":"4","last_reported":1717863013,"current_range_meters":2000,"station_id":"ce4bgvp2rcd13ifvqct0","pricing_plan_id":"cebpf4jnsgd1na2vs0mg"},{"bike_id":"10c53891-9146-44ae-9185-bf8cc571acaa","system_id":"levelo_inurba_marseille","lat":43.33762,"lon":5.3745,"is_reserved":false,"is_disabled":false,"rental_uris":{"android":"levelo://app?vid=10c53891-9146-44ae-9185-bf8cc571acaa","ios":"levelo://app?vid=10c53891-9146-44ae-9185-bf8cc571acaa"},"vehicle_type_id":"4","last_reported":1717863013,"current_range_meters":7600,"station_id":"","pricing_plan_id":"cebpf4jnsgd1na2vs0mg"},{"bike_id":"349fad73-0bc3-4b1a-950c-014baeeb75f5","system_id":"levelo_inurba_marseille","lat":43.306412,"lon":5.401035,"is_reserved":false,"is_disabled":false,"rental_uris":{"android":"levelo://app?vid=349fad73-0bc3-4b1a-950c-014baeeb75f5","ios":"levelo://app?vid=349fad73-0bc3-4b1a-950c-014baeeb75f5"},"vehicle_type_id":"4","last_reported":1717863013,"current_range_meters":2000,"station_id":"ce4bh112rcd13ifvqda0","pricing_plan_id":"cebpf4jnsgd1na2vs0mg"},{"bike_id":"2a1662d4-9d07-4900-a716-e48b0c0a3b60","system_id":"levelo_inurba_marseille","lat":43.309371,"lon":5.401449,"is_reserved":false,"is_disabled":false,"rental_uris":{"android":"levelo://app?vid=2a1662d4-9d07-4900-a716-e48b0c0a3b60","ios":"levelo://app?vid=2a1662d4-9d07-4900-a716-e48b0c0a3b60"},"vehicle_type_id":"4","last_reported":1717863013,"current_range_meters":5200,"station_id":"ce4bgvp2rcd13ifvqct0","pricing_plan_id":"cebpf4jnsgd1na2vs0mg"},{"bike_id":"75f0490f-3ea3-4d05-83d0-c20f21ec1c92","system_id":"levelo_inurba_marseille","lat":43.28727,"lon":5.36078,"is_reserved":false,"is_disabled":false,"rental_uris":{"android":"levelo://app?vid=75f0490f-3ea3-4d05-83d0-c20f21ec1c92","ios":"levelo://app?vid=75f0490f-3ea3-4d05-83d0-c20f21ec1c92"},"vehicle_type_id":"4","last_reported":1717863013,"current_range_meters":20000,"station_id":"cki0cbj6b192h4jlfktg","pricing_plan_id":"cebpf4jnsgd1na2vs0mg"},{"bike_id":"5f5f1248-12dc-48f2-8ac5-faa89cc17547","system_id":"levelo_inurba_marseille","lat":43.301117,"lon":5.398795,"is_reserved":false,"is_disabled":false,"rental_uris":{"android":"levelo://app?vid=5f5f1248-12dc-48f2-8ac5-faa89cc17547","ios":"levelo://app?vid=5f5f1248-12dc-48f2-8ac5-faa89cc17547"},"vehicle_type_id":"4","last_reported":1717863013,"current_range_meters":21200,"station_id":"ce4bh0h2rcd13ifvqd40","pricing_plan_id":"cebpf4jnsgd1na2vs0mg"},{"bike_id":"6beac1ce-baf1-4094-a6f2-565077e14d73","system_id":"levelo_inurba_marseille","lat":43.28727,"lon":5.36078,"is_reserved":false,"is_disabled":false,"rental_uris":{"android":"levelo://app?vid=6beac1ce-baf1-4094-a6f2-565077e14d73","ios":"levelo://app?vid=6beac1ce-baf1-4094-a6f2-565077e14d73"},"vehicle_type_id":"4","last_reported":1717863013,"current_range_meters":13200,"station_id":"cki0cbj6b192h4jlfktg","pricing_plan_id":"cebpf4jnsgd1na2vs0mg"},{"bike_id":"0835dfd4-d86a-4290-9eed-d994b366f2f4","system_id":"levelo_inurba_marseille","lat":43.28727,"lon":5.36078,"is_reserved":false,"is_disabled":false,"rental_uris":{"android":"levelo://app?vid=0835dfd4-d86a-4290-9eed-d994b366f2f4","ios":"levelo://app?vid=0835dfd4-d86a-4290-9eed-d994b366f2f4"},"vehicle_type_id":"4","last_reported":1717863013,"current_range_meters":16400,"station_id":"cki0cbj6b192h4jlfktg","pricing_plan_id":"cebpf4jnsgd1na2vs0mg"},{"bike_id":"533ac6ab-20d6-4015-8104-1fc6acc46ee3","system_id":"levelo_inurba_marseille","lat":43.309371,"lon":5.401449,"is_reserved":false,"is_disabled":false,"rental_uris":{"android":"levelo://app?vid=533ac6ab-20d6-4015-8104-1fc6acc46ee3","ios":"levelo://app?vid=533ac6ab-20d6-4015-8104-1fc6acc46ee3"},"vehicle_type_id":"4","last_reported":1717863013,"current_range_meters":24400,"station_id":"ce4bgvp2rcd13ifvqct0","pricing_plan_id":"cebpf4jnsgd1na2vs0mg"},{"bike_id":"57ea71db-4620-4537-b167-a2692bc4bcd3","system_id":"levelo_inurba_marseille","lat":43.286961,"lon":5.373785,"is_reserved":false,"is_disabled":false,"rental_uris":{"android":"levelo://app?vid=57ea71db-4620-4537-b167-a2692bc4bcd3","ios":"levelo://app?vid=57ea71db-4620-4537-b167-a2692bc4bcd3"},"vehicle_type_id":"4","last_reported":1717863013,"current_range_meters":0,"station_id":"ce4bh3p2rcd13ifvqdq0","pricing_plan_id":"cebpf4jnsgd1na2vs0mg"},{"bike_id":"57decd70-17c7-4fe3-8bb3-3d6406f91838","system_id":"levelo_inurba_marseille","lat":43.298681,"lon":5.397225,"is_reserved":false,"is_disabled":false,"rental_uris":{"android":"levelo://app?vid=57decd70-17c7-4fe3-8bb3-3d6406f91838","ios":"levelo://app?vid=57decd70-17c7-4fe3-8bb3-3d6406f91838"},"vehicle_type_id":"4","last_reported":1717863013,"current_range_meters":7200,"station_id":"ce4bh0h2rcd13ifvqd50","pricing_plan_id":"cebpf4jnsgd1na2vs0mg"},{"bike_id":"d0f1c58d-c936-403b-a947-66eccfe8ce96","system_id":"levelo_inurba_marseille","lat":43.287034,"lon":5.373992,"is_reserved":false,"is_disabled":false,"rental_uris":{"android":"levelo://app?vid=d0f1c58d-c936-403b-a947-66eccfe8ce96","ios":"levelo://app?vid=d0f1c58d-c936-403b-a947-66eccfe8ce96"},"vehicle_type_id":"4","last_reported":1717863013,"current_range_meters":0,"station_id":"ce4bh3p2rcd13ifvqdq0","pricing_plan_id":"cebpf4jnsgd1na2vs0mg"},{"bike_id":"a90b5e8b-7d4d-453e-8b0a-0fe1c2b9f507","system_id":"levelo_inurba_marseille","lat":43.298681,"lon":5.397225,"is_reserved":false,"is_disabled":false,"rental_uris":{"android":"levelo://app?vid=a90b5e8b-7d4d-453e-8b0a-0fe1c2b9f507","ios":"levelo://app?vid=a90b5e8b-7d4d-453e-8b0a-0fe1c2b9f507"},"vehicle_type_id":"4","last_reported":1717863013,"current_range_meters":13200,"station_id":"ce4bh0h2rcd13ifvqd50","pricing_plan_id":"cebpf4jnsgd1na2vs0mg"},{"bike_id":"ff19b301-3113-4acc-9456-8d729f4a51e5","system_id":"levelo_inurba_marseille","lat":43.286591,"lon":5.363346,"is_reserved":false,"is_disabled":false,"rental_uris":{"android":"levelo://app?vid=ff19b301-3113-4acc-9456-8d729f4a51e5","ios":"levelo://app?vid=ff19b301-3113-4acc-9456-8d729f4a51e5"},"vehicle_type_id":"4","last_reported":1717863013,"current_range_meters":5200,"station_id":"ce4bhah2rcd13ifvqej0","pricing_plan_id":"cebpf4jnsgd1na2vs0mg"},{"bike_id":"d8b431f4-16ec-46fb-9698-9f86b05c86f2","system_id":"levelo_inurba_marseille","lat":43.290345,"lon":5.38646,"is_reserved":false,"is_disabled":false,"rental_uris":{"android":"levelo://app?vid=d8b431f4-16ec-46fb-9698-9f86b05c86f2","ios":"levelo://app?vid=d8b431f4-16ec-46fb-9698-9f86b05c86f2"},"vehicle_type_id":"4","last_reported":1717863013,"current_range_meters":15600,"station_id":"ce4bh4p2rcd13ifvqe0g","pricing_plan_id":"cebpf4jnsgd1na2vs0mg"},{"bike_id":"1d515973-c2a9-4b32-bd00-0d72bcba70e6","system_id":"levelo_inurba_marseille","lat":43.290345,"lon":5.38646,"is_reserved":false,"is_disabled":false,"rental_uris":{"android":"levelo://app?vid=1d515973-c2a9-4b32-bd00-0d72bcba70e6","ios":"levelo://app?vid=1d515973-c2a9-4b32-bd00-0d72bcba70e6"},"vehicle_type_id":"4","last_reported":1717863013,"current_range_meters":14400,"station_id":"ce4bh4p2rcd13ifvqe0g","pricing_plan_id":"cebpf4jnsgd1na2vs0mg"},{"bike_id":"9a5908fa-721d-4b25-943f-9159e4dfe7ec","system_id":"levelo_inurba_marseille","lat":43.302759,"lon":5.400793,"is_reserved":false,"is_disabled":false,"rental_uris":{"android":"levelo://app?vid=9a5908fa-721d-4b25-943f-9159e4dfe7ec","ios":"levelo://app?vid=9a5908fa-721d-4b25-943f-9159e4dfe7ec"},"vehicle_type_id":"4","last_reported":1717863013,"current_range_meters":0,"station_id":"ce4bgvh2rcd13ifvqcs0","pricing_plan_id":"cebpf4jnsgd1na2vs0mg"},{"bike_id":"094501c1-afc0-4c24-985d-576abcdbfbb3","system_id":"levelo_inurba_marseille","lat":43.30253,"lon":5.40069,"is_reserved":false,"is_disabled":false,"rental_uris":{"android":"levelo://app?vid=094501c1-afc0-4c24-985d-576abcdbfbb3","ios":"levelo://app?vid=094501c1-afc0-4c24-985d-576abcdbfbb3"},"vehicle_type_id":"4","last_reported":1717863013,"current_range_meters":0,"station_id":"","pricing_plan_id":"cebpf4jnsgd1na2vs0mg"},{"bike_id":"b66c8820-e30c-4049-94f0-7b420042e0a6","system_id":"levelo_inurba_marseille","lat":43.290345,"lon":5.38646,"is_reserved":false,"is_disabled":false,"rental_uris":{"android":"levelo://app?vid=b66c8820-e30c-4049-94f0-7b420042e0a6","ios":"levelo://app?vid=b66c8820-e30c-4049-94f0-7b420042e0a6"},"vehicle_type_id":"4","last_reported":1717863013,"current_range_meters":26000,"station_id":"ce4bh4p2rcd13ifvqe0g","pricing_plan_id":"cebpf4jnsgd1na2vs0mg"},{"bike_id":"e0900d7c-d917-4a9e-b818-85c9e084d612","system_id":"levelo_inurba_marseille","lat":43.302759,"lon":5.400793,"is_reserved":false,"is_disabled":false,"rental_uris":{"android":"levelo://app?vid=e0900d7c-d917-4a9e-b818-85c9e084d612","ios":"levelo://app?vid=e0900d7c-d917-4a9e-b818-85c9e084d612"},"vehicle_type_id":"4","last_reported":1717863013,"current_range_meters":6800,"station_id":"ce4bgvh2rcd13ifvqcs0","pricing_plan_id":"cebpf4jnsgd1na2vs0mg"},{"bike_id":"ed1ea8f6-9f5f-4c2a-8203-401455878173","system_id":"levelo_inurba_marseille","lat":43.302759,"lon":5.400793,"is_reserved":false,"is_disabled":false,"rental_uris":{"android":"levelo://app?vid=ed1ea8f6-9f5f-4c2a-8203-401455878173","ios":"levelo://app?vid=ed1ea8f6-9f5f-4c2a-8203-401455878173"},"vehicle_type_id":"4","last_reported":1717863013,"current_range_meters":27600,"station_id":"ce4bgvh2rcd13ifvqcs0","pricing_plan_id":"cebpf4jnsgd1na2vs0mg"},{"bike_id":"73a7453f-eb41-4c35-9e93-d88a06a4a263","system_id":"levelo_inurba_marseille","lat":43.302576,"lon":5.400808,"is_reserved":false,"is_disabled":false,"rental_uris":{"android":"levelo://app?vid=73a7453f-eb41-4c35-9e93-d88a06a4a263","ios":"levelo://app?vid=73a7453f-eb41-4c35-9e93-d88a06a4a263"},"vehicle_type_id":"4","last_reported":1717863013,"current_range_meters":3200,"station_id":"","pricing_plan_id":"cebpf4jnsgd1na2vs0mg"},{"bike_id":"813a8411-6a0a-474c-b7d5-bdeb0cf93edc","system_id":"levelo_inurba_marseille","lat":43.302759,"lon":5.400793,"is_reserved":false,"is_disabled":false,"rental_uris":{"android":"levelo://app?vid=813a8411-6a0a-474c-b7d5-bdeb0cf93edc","ios":"levelo://app?vid=813a8411-6a0a-474c-b7d5-bdeb0cf93edc"},"vehicle_type_id":"4","last_reported":1717863013,"current_range_meters":0,"station_id":"ce4bgvh2rcd13ifvqcs0","pricing_plan_id":"cebpf4jnsgd1na2vs0mg"},{"bike_id":"71cb95fe-d7dc-4f97-b2aa-4fb5c59716d4","system_id":"levelo_inurba_marseille","lat":43.286039,"lon":5.370681,"is_reserved":false,"is_disabled":false,"rental_uris":{"android":"levelo://app?vid=71cb95fe-d7dc-4f97-b2aa-4fb5c59716d4","ios":"levelo://app?vid=71cb95fe-d7dc-4f97-b2aa-4fb5c59716d4"},"vehicle_type_id":"4","last_reported":1717863013,"current_range_meters":3600,"station_id":"ce4bht12rcd13ifvqi60","pricing_plan_id":"cebpf4jnsgd1na2vs0mg"},{"bike_id":"67792bc8-e2db-4619-becf-6d50200f08a5","system_id":"levelo_inurba_marseille","lat":43.290345,"lon":5.38646,"is_reserved":false,"is_disabled":false,"rental_uris":{"android":"levelo://app?vid=67792bc8-e2db-4619-becf-6d50200f08a5","ios":"levelo://app?vid=67792bc8-e2db-4619-becf-6d50200f08a5"},"vehicle_type_id":"4","last_reported":1717863013,"current_range_meters":9200,"station_id":"ce4bh4p2rcd13ifvqe0g","pricing_plan_id":"cebpf4jnsgd1na2vs0mg"},{"bike_id":"d2fd36b7-04d3-41cf-ae5b-b7a570dff6f5","system_id":"levelo_inurba_marseille","lat":43.287184,"lon":5.37937,"is_reserved":false,"is_disabled":false,"rental_uris":{"android":"levelo://app?vid=d2fd36b7-04d3-41cf-ae5b-b7a570dff6f5","ios":"levelo://app?vid=d2fd36b7-04d3-41cf-ae5b-b7a570dff6f5"},"vehicle_type_id":"4","last_reported":1717863013,"current_range_meters":21600,"station_id":"ce4bh9p2rcd13ifvqec0","pricing_plan_id":"cebpf4jnsgd1na2vs0mg"},{"bike_id":"c341a03e-defd-44cc-8c34-f48550f6536a","system_id":"levelo_inurba_marseille","lat":43.287185,"lon":5.379373,"is_reserved":false,"is_disabled":false,"rental_uris":{"android":"levelo://app?vid=c341a03e-defd-44cc-8c34-f48550f6536a","ios":"levelo://app?vid=c341a03e-defd-44cc-8c34-f48550f6536a"},"vehicle_type_id":"4","last_reported":1717863013,"current_range_meters":10800,"station_id":"ce4bh9p2rcd13ifvqec0","pricing_plan_id":"cebpf4jnsgd1na2vs0mg"},{"bike_id":"c19820d2-124d-4308-990b-675a28aa97e8","system_id":"levelo_inurba_marseille","lat":43.290345,"lon":5.38646,"is_reserved":false,"is_disabled":false,"rental_uris":{"android":"levelo://app?vid=c19820d2-124d-4308-990b-675a28aa97e8","ios":"levelo://app?vid=c19820d2-124d-4308-990b-675a28aa97e8"},"vehicle_type_id":"4","last_reported":1717863013,"current_range_meters":22400,"station_id":"ce4bh4p2rcd13ifvqe0g","pricing_plan_id":"cebpf4jnsgd1na2vs0mg"},{"bike_id":"44e96b8f-cff3-44a1-a424-4b5cf15e9ab8","system_id":"levelo_inurba_marseille","lat":43.316828,"lon":5.404723,"is_reserved":false,"is_disabled":false,"rental_uris":{"android":"levelo://app?vid=44e96b8f-cff3-44a1-a424-4b5cf15e9ab8","ios":"levelo://app?vid=44e96b8f-cff3-44a1-a424-4b5cf15e9ab8"},"vehicle_type_id":"4","last_reported":1717863013,"current_range_meters":17600,"station_id":"ce4bh012rcd13ifvqd00","pricing_plan_id":"cebpf4jnsgd1na2vs0mg"},{"bike_id":"0ebb59e4-5279-4fc7-9b1a-747ee90f4306","system_id":"levelo_inurba_marseille","lat":43.316821,"lon":5.404737,"is_reserved":false,"is_disabled":false,"rental_uris":{"android":"levelo://app?vid=0ebb59e4-5279-4fc7-9b1a-747ee90f4306","ios":"levelo://app?vid=0ebb59e4-5279-4fc7-9b1a-747ee90f4306"},"vehicle_type_id":"4","last_reported":1717863013,"current_range_meters":3600,"station_id":"ce4bh012rcd13ifvqd00","pricing_plan_id":"cebpf4jnsgd1na2vs0mg"},{"bike_id":"47f9f307-4308-49ca-a309-d3a37605f168","system_id":"levelo_inurba_marseille","lat":43.31695,"lon":5.40467,"is_reserved":false,"is_disabled":false,"rental_uris":{"android":"levelo://app?vid=47f9f307-4308-49ca-a309-d3a37605f168","ios":"levelo://app?vid=47f9f307-4308-49ca-a309-d3a37605f168"},"vehicle_type_id":"4","last_reported":1717863013,"current_range_meters":0,"station_id":"ce4bh012rcd13ifvqd00","pricing_plan_id":"cebpf4jnsgd1na2vs0mg"},{"bike_id":"802637a2-85b5-4695-a67f-80f074b6da0d","system_id":"levelo_inurba_marseille","lat":43.316821,"lon":5.404737,"is_reserved":false,"is_disabled":false,"rental_uris":{"android":"levelo://app?vid=802637a2-85b5-4695-a67f-80f074b6da0d","ios":"levelo://app?vid=802637a2-85b5-4695-a67f-80f074b6da0d"},"vehicle_type_id":"4","last_reported":1717863013,"current_range_meters":10800,"station_id":"ce4bh012rcd13ifvqd00","pricing_plan_id":"cebpf4jnsgd1na2vs0mg"},{"bike_id":"7b546f9f-a376-48e7-b884-1e8584e18aad","system_id":"levelo_inurba_marseille","lat":43.316828,"lon":5.404723,"is_reserved":false,"is_disabled":false,"rental_uris":{"android":"levelo://app?vid=7b546f9f-a376-48e7-b884-1e8584e18aad","ios":"levelo://app?vid=7b546f9f-a376-48e7-b884-1e8584e18aad"},"vehicle_type_id":"4","last_reported":1717863013,"current_range_meters":23200,"station_id":"ce4bh012rcd13ifvqd00","pricing_plan_id":"cebpf4jnsgd1na2vs0mg"},{"bike_id":"a5401c26-2e0f-4bb3-b00a-c96c0d62b692","system_id":"levelo_inurba_marseille","lat":43.316821,"lon":5.404737,"is_reserved":false,"is_disabled":false,"rental_uris":{"android":"levelo://app?vid=a5401c26-2e0f-4bb3-b00a-c96c0d62b692","ios":"levelo://app?vid=a5401c26-2e0f-4bb3-b00a-c96c0d62b692"},"vehicle_type_id":"4","last_reported":1717863013,"current_range_meters":400,"station_id":"ce4bh012rcd13ifvqd00","pricing_plan_id":"cebpf4jnsgd1na2vs0mg"},{"bike_id":"eb467b0f-ef02-45fe-8518-044cb53e2e53","system_id":"levelo_inurba_marseille","lat":43.316821,"lon":5.404737,"is_reserved":false,"is_disabled":false,"rental_uris":{"android":"levelo://app?vid=eb467b0f-ef02-45fe-8518-044cb53e2e53","ios":"levelo://app?vid=eb467b0f-ef02-45fe-8518-044cb53e2e53"},"vehicle_type_id":"4","last_reported":1717863013,"current_range_meters":25200,"station_id":"ce4bh012rcd13ifvqd00","pricing_plan_id":"cebpf4jnsgd1na2vs0mg"},{"bike_id":"9a5b9fef-12c6-4717-91ab-736e0daa69e7","system_id":"levelo_inurba_marseille","lat":43.316821,"lon":5.404737,"is_reserved":false,"is_disabled":false,"rental_uris":{"android":"levelo://app?vid=9a5b9fef-12c6-4717-91ab-736e0daa69e7","ios":"levelo://app?vid=9a5b9fef-12c6-4717-91ab-736e0daa69e7"},"vehicle_type_id":"4","last_reported":1717863013,"current_range_meters":13600,"station_id":"ce4bh012rcd13ifvqd00","pricing_plan_id":"cebpf4jnsgd1na2vs0mg"},{"bike_id":"c57a6242-7a96-47bd-a9c1-30a600e58ef1","system_id":"levelo_inurba_marseille","lat":43.291994,"lon":5.392907,"is_reserved":false,"is_disabled":false,"rental_uris":{"android":"levelo://app?vid=c57a6242-7a96-47bd-a9c1-30a600e58ef1","ios":"levelo://app?vid=c57a6242-7a96-47bd-a9c1-30a600e58ef1"},"vehicle_type_id":"4","last_reported":1717863013,"current_range_meters":11600,"station_id":"ce4bh192rcd13ifvqdd0","pricing_plan_id":"cebpf4jnsgd1na2vs0mg"},{"bike_id":"b288820d-fa96-4690-91ac-2ed75b924d9f","system_id":"levelo_inurba_marseille","lat":43.29192,"lon":5.39312,"is_reserved":false,"is_disabled":false,"rental_uris":{"android":"levelo://app?vid=b288820d-fa96-4690-91ac-2ed75b924d9f","ios":"levelo://app?vid=b288820d-fa96-4690-91ac-2ed75b924d9f"},"vehicle_type_id":"4","last_reported":1717863013,"current_range_meters":0,"station_id":"ce4bh192rcd13ifvqdd0","pricing_plan_id":"cebpf4jnsgd1na2vs0mg"},{"bike_id":"c57af97e-518d-4918-9932-467e1a8e2f58","system_id":"levelo_inurba_marseille","lat":43.284534,"lon":5.358662,"is_reserved":false,"is_disabled":false,"rental_uris":{"android":"levelo://app?vid=c57af97e-518d-4918-9932-467e1a8e2f58","ios":"levelo://app?vid=c57af97e-518d-4918-9932-467e1a8e2f58"},"vehicle_type_id":"4","last_reported":1717863013,"current_range_meters":25600,"station_id":"ce4bhah2rcd13ifvqei0","pricing_plan_id":"cebpf4jnsgd1na2vs0mg"},{"bike_id":"aff0d303-e136-4ebd-bd98-de09dd87b504","system_id":"levelo_inurba_marseille","lat":43.28465,"lon":5.35896,"is_reserved":false,"is_disabled":false,"rental_uris":{"android":"levelo://app?vid=aff0d303-e136-4ebd-bd98-de09dd87b504","ios":"levelo://app?vid=aff0d303-e136-4ebd-bd98-de09dd87b504"},"vehicle_type_id":"4","last_reported":1717863013,"current_range_meters":0,"station_id":"ce4bhah2rcd13ifvqei0","pricing_plan_id":"cebpf4jnsgd1na2vs0mg"},{"bike_id":"93de6070-1b05-43a0-902a-69352f5eb595","system_id":"levelo_inurba_marseille","lat":43.284538,"lon":5.358657,"is_reserved":false,"is_disabled":false,"rental_uris":{"android":"levelo://app?vid=93de6070-1b05-43a0-902a-69352f5eb595","ios":"levelo://app?vid=93de6070-1b05-43a0-902a-69352f5eb595"},"vehicle_type_id":"4","last_reported":1717863013,"current_range_meters":800,"station_id":"ce4bhah2rcd13ifvqei0","pricing_plan_id":"cebpf4jnsgd1na2vs0mg"},{"bike_id":"1b0a6218-235c-4d10-a224-48e24fd6e143","system_id":"levelo_inurba_marseille","lat":43.284534,"lon":5.358662,"is_reserved":false,"is_disabled":false,"rental_uris":{"android":"levelo://app?vid=1b0a6218-235c-4d10-a224-48e24fd6e143","ios":"levelo://app?vid=1b0a6218-235c-4d10-a224-48e24fd6e143"},"vehicle_type_id":"4","last_reported":1717863013,"current_range_meters":8400,"station_id":"ce4bhah2rcd13ifvqei0","pricing_plan_id":"cebpf4jnsgd1na2vs0mg"},{"bike_id":"5fba8346-8e18-4ac7-96e5-425314c85273","system_id":"levelo_inurba_marseille","lat":43.284534,"lon":5.358662,"is_reserved":false,"is_disabled":false,"rental_uris":{"android":"levelo://app?vid=5fba8346-8e18-4ac7-96e5-425314c85273","ios":"levelo://app?vid=5fba8346-8e18-4ac7-96e5-425314c85273"},"vehicle_type_id":"4","last_reported":1717863013,"current_range_meters":6800,"station_id":"ce4bhah2rcd13ifvqei0","pricing_plan_id":"cebpf4jnsgd1na2vs0mg"},{"bike_id":"66208aba-6404-4697-80b9-3fd1c4703e13","system_id":"levelo_inurba_marseille","lat":43.284538,"lon":5.358657,"is_reserved":false,"is_disabled":false,"rental_uris":{"android":"levelo://app?vid=66208aba-6404-4697-80b9-3fd1c4703e13","ios":"levelo://app?vid=66208aba-6404-4697-80b9-3fd1c4703e13"},"vehicle_type_id":"4","last_reported":1717863013,"current_range_meters":4800,"station_id":"ce4bhah2rcd13ifvqei0","pricing_plan_id":"cebpf4jnsgd1na2vs0mg"},{"bike_id":"21ff5dea-4bc3-41f5-b2e4-b7f1c9467e28","system_id":"levelo_inurba_marseille","lat":43.284534,"lon":5.358662,"is_reserved":false,"is_disabled":false,"rental_uris":{"android":"levelo://app?vid=21ff5dea-4bc3-41f5-b2e4-b7f1c9467e28","ios":"levelo://app?vid=21ff5dea-4bc3-41f5-b2e4-b7f1c9467e28"},"vehicle_type_id":"4","last_reported":1717863013,"current_range_meters":15600,"station_id":"ce4bhah2rcd13ifvqei0","pricing_plan_id":"cebpf4jnsgd1na2vs0mg"},{"bike_id":"4b195552-f805-4b7a-954f-1791d4363838","system_id":"levelo_inurba_marseille","lat":43.284534,"lon":5.358662,"is_reserved":false,"is_disabled":false,"rental_uris":{"android":"levelo://app?vid=4b195552-f805-4b7a-954f-1791d4363838","ios":"levelo://app?vid=4b195552-f805-4b7a-954f-1791d4363838"},"vehicle_type_id":"4","last_reported":1717863013,"current_range_meters":0,"station_id":"ce4bhah2rcd13ifvqei0","pricing_plan_id":"cebpf4jnsgd1na2vs0mg"},{"bike_id":"37435e01-a7f0-480d-b011-d47474c9b5cd","system_id":"levelo_inurba_marseille","lat":43.284538,"lon":5.358657,"is_reserved":false,"is_disabled":false,"rental_uris":{"android":"levelo://app?vid=37435e01-a7f0-480d-b011-d47474c9b5cd","ios":"levelo://app?vid=37435e01-a7f0-480d-b011-d47474c9b5cd"},"vehicle_type_id":"4","last_reported":1717863013,"current_range_meters":5600,"station_id":"ce4bhah2rcd13ifvqei0","pricing_plan_id":"cebpf4jnsgd1na2vs0mg"},{"bike_id":"21a8a738-3ec4-4826-98bd-3db6b4caeef2","system_id":"levelo_inurba_marseille","lat":43.285856,"lon":5.350771,"is_reserved":false,"is_disabled":false,"rental_uris":{"android":"levelo://app?vid=21a8a738-3ec4-4826-98bd-3db6b4caeef2","ios":"levelo://app?vid=21a8a738-3ec4-4826-98bd-3db6b4caeef2"},"vehicle_type_id":"4","last_reported":1717863013,"current_range_meters":0,"station_id":"ce4bhch2rcd13ifvqeug","pricing_plan_id":"cebpf4jnsgd1na2vs0mg"},{"bike_id":"b078dd72-570a-4102-890d-3d78d112bba9","system_id":"levelo_inurba_marseille","lat":43.28619,"lon":5.35107,"is_reserved":false,"is_disabled":false,"rental_uris":{"android":"levelo://app?vid=b078dd72-570a-4102-890d-3d78d112bba9","ios":"levelo://app?vid=b078dd72-570a-4102-890d-3d78d112bba9"},"vehicle_type_id":"4","last_reported":1717863013,"current_range_meters":0,"station_id":"ce4bhch2rcd13ifvqeug","pricing_plan_id":"cebpf4jnsgd1na2vs0mg"},{"bike_id":"c46f9070-aea3-4476-aab6-e3b8a25de48e","system_id":"levelo_inurba_marseille","lat":43.295713,"lon":5.399639,"is_reserved":false,"is_disabled":false,"rental_uris":{"android":"levelo://app?vid=c46f9070-aea3-4476-aab6-e3b8a25de48e","ios":"levelo://app?vid=c46f9070-aea3-4476-aab6-e3b8a25de48e"},"vehicle_type_id":"4","last_reported":1717863013,"current_range_meters":9200,"station_id":"ce4bh312rcd13ifvqdj0","pricing_plan_id":"cebpf4jnsgd1na2vs0mg"},{"bike_id":"8496c540-7c5f-4681-af1b-983eaf9ec92d","system_id":"levelo_inurba_marseille","lat":43.28615,"lon":5.35103,"is_reserved":false,"is_disabled":false,"rental_uris":{"android":"levelo://app?vid=8496c540-7c5f-4681-af1b-983eaf9ec92d","ios":"levelo://app?vid=8496c540-7c5f-4681-af1b-983eaf9ec92d"},"vehicle_type_id":"4","last_reported":1717863013,"current_range_meters":31200,"station_id":"ce4bhch2rcd13ifvqeug","pricing_plan_id":"cebpf4jnsgd1na2vs0mg"},{"bike_id":"cf2c14d2-7edf-45f0-a521-011187686794","system_id":"levelo_inurba_marseille","lat":43.286128,"lon":5.35104,"is_reserved":false,"is_disabled":false,"rental_uris":{"android":"levelo://app?vid=cf2c14d2-7edf-45f0-a521-011187686794","ios":"levelo://app?vid=cf2c14d2-7edf-45f0-a521-011187686794"},"vehicle_type_id":"4","last_reported":1717863013,"current_range_meters":3200,"station_id":"ce4bhch2rcd13ifvqeug","pricing_plan_id":"cebpf4jnsgd1na2vs0mg"},{"bike_id":"9608183b-a0bc-453a-9cda-a6abeb88fe6d","system_id":"levelo_inurba_marseille","lat":43.283998,"lon":5.375062,"is_reserved":false,"is_disabled":false,"rental_uris":{"android":"levelo://app?vid=9608183b-a0bc-453a-9cda-a6abeb88fe6d","ios":"levelo://app?vid=9608183b-a0bc-453a-9cda-a6abeb88fe6d"},"vehicle_type_id":"4","last_reported":1717863013,"current_range_meters":4400,"station_id":"ce4bh412rcd13ifvqds0","pricing_plan_id":"cebpf4jnsgd1na2vs0mg"},{"bike_id":"382b9538-b2e4-4c5d-b6de-4588219390e4","system_id":"levelo_inurba_marseille","lat":43.283998,"lon":5.375062,"is_reserved":false,"is_disabled":false,"rental_uris":{"android":"levelo://app?vid=382b9538-b2e4-4c5d-b6de-4588219390e4","ios":"levelo://app?vid=382b9538-b2e4-4c5d-b6de-4588219390e4"},"vehicle_type_id":"4","last_reported":1717863013,"current_range_meters":23600,"station_id":"ce4bh412rcd13ifvqds0","pricing_plan_id":"cebpf4jnsgd1na2vs0mg"},{"bike_id":"3623a01e-e5c2-4622-91c4-10daa1830f7e","system_id":"levelo_inurba_marseille","lat":43.2957,"lon":5.3997,"is_reserved":false,"is_disabled":false,"rental_uris":{"android":"levelo://app?vid=3623a01e-e5c2-4622-91c4-10daa1830f7e","ios":"levelo://app?vid=3623a01e-e5c2-4622-91c4-10daa1830f7e"},"vehicle_type_id":"4","last_reported":1717863013,"current_range_meters":0,"station_id":"ce4bh312rcd13ifvqdj0","pricing_plan_id":"cebpf4jnsgd1na2vs0mg"},{"bike_id":"1dccd017-b02d-4338-96fd-2e4c7f2a6f5d","system_id":"levelo_inurba_marseille","lat":43.295713,"lon":5.399639,"is_reserved":false,"is_disabled":false,"rental_uris":{"android":"levelo://app?vid=1dccd017-b02d-4338-96fd-2e4c7f2a6f5d","ios":"levelo://app?vid=1dccd017-b02d-4338-96fd-2e4c7f2a6f5d"},"vehicle_type_id":"4","last_reported":1717863013,"current_range_meters":12000,"station_id":"ce4bh312rcd13ifvqdj0","pricing_plan_id":"cebpf4jnsgd1na2vs0mg"},{"bike_id":"ccee40f2-298b-402e-9e87-c87ce98de796","system_id":"levelo_inurba_marseille","lat":43.286595,"lon":5.386795,"is_reserved":false,"is_disabled":false,"rental_uris":{"android":"levelo://app?vid=ccee40f2-298b-402e-9e87-c87ce98de796","ios":"levelo://app?vid=ccee40f2-298b-402e-9e87-c87ce98de796"},"vehicle_type_id":"4","last_reported":1717863013,"current_range_meters":400,"station_id":"ce4bh492rcd13ifvqdug","pricing_plan_id":"cebpf4jnsgd1na2vs0mg"},{"bike_id":"1f150d12-c5c3-426e-bebb-18d51832139c","system_id":"levelo_inurba_marseille","lat":43.286595,"lon":5.386795,"is_reserved":false,"is_disabled":false,"rental_uris":{"android":"levelo://app?vid=1f150d12-c5c3-426e-bebb-18d51832139c","ios":"levelo://app?vid=1f150d12-c5c3-426e-bebb-18d51832139c"},"vehicle_type_id":"4","last_reported":1717863013,"current_range_meters":5200,"station_id":"ce4bh492rcd13ifvqdug","pricing_plan_id":"cebpf4jnsgd1na2vs0mg"},{"bike_id":"059a5c63-2d34-47ad-ade6-419b3ace6d27","system_id":"levelo_inurba_marseille","lat":43.319179,"lon":5.407725,"is_reserved":false,"is_disabled":false,"rental_uris":{"android":"levelo://app?vid=059a5c63-2d34-47ad-ade6-419b3ace6d27","ios":"levelo://app?vid=059a5c63-2d34-47ad-ade6-419b3ace6d27"},"vehicle_type_id":"4","last_reported":1717863013,"current_range_meters":2400,"station_id":"ce4bhq12rcd13ifvqhig","pricing_plan_id":"cebpf4jnsgd1na2vs0mg"},{"bike_id":"66f8a211-6364-41d7-adc8-56fe423277a3","system_id":"levelo_inurba_marseille","lat":43.33717,"lon":5.391857,"is_reserved":false,"is_disabled":false,"rental_uris":{"android":"levelo://app?vid=66f8a211-6364-41d7-adc8-56fe423277a3","ios":"levelo://app?vid=66f8a211-6364-41d7-adc8-56fe423277a3"},"vehicle_type_id":"4","last_reported":1717863013,"current_range_meters":15600,"station_id":"ce4bhr92rcd13ifvqhsg","pricing_plan_id":"cebpf4jnsgd1na2vs0mg"},{"bike_id":"2ed6743e-9286-45cf-9439-12ba6546478d","system_id":"levelo_inurba_marseille","lat":43.28221,"lon":5.37002,"is_reserved":false,"is_disabled":false,"rental_uris":{"android":"levelo://app?vid=2ed6743e-9286-45cf-9439-12ba6546478d","ios":"levelo://app?vid=2ed6743e-9286-45cf-9439-12ba6546478d"},"vehicle_type_id":"4","last_reported":1717863013,"current_range_meters":13200,"station_id":"","pricing_plan_id":"cebpf4jnsgd1na2vs0mg"},{"bike_id":"78ede7f2-7e3c-4b3a-897f-cdc0ac53513a","system_id":"levelo_inurba_marseille","lat":43.284793,"lon":5.384119,"is_reserved":false,"is_disabled":false,"rental_uris":{"android":"levelo://app?vid=78ede7f2-7e3c-4b3a-897f-cdc0ac53513a","ios":"levelo://app?vid=78ede7f2-7e3c-4b3a-897f-cdc0ac53513a"},"vehicle_type_id":"4","last_reported":1717863013,"current_range_meters":0,"station_id":"ce4bh512rcd13ifvqe3g","pricing_plan_id":"cebpf4jnsgd1na2vs0mg"},{"bike_id":"ecb52660-e70b-450c-aa85-640df7a9848c","system_id":"levelo_inurba_marseille","lat":43.284787,"lon":5.384116,"is_reserved":false,"is_disabled":false,"rental_uris":{"android":"levelo://app?vid=ecb52660-e70b-450c-aa85-640df7a9848c","ios":"levelo://app?vid=ecb52660-e70b-450c-aa85-640df7a9848c"},"vehicle_type_id":"4","last_reported":1717863013,"current_range_meters":0,"station_id":"ce4bh512rcd13ifvqe3g","pricing_plan_id":"cebpf4jnsgd1na2vs0mg"},{"bike_id":"69057f6c-9aa5-489b-a0c4-4a7622d5cbda","system_id":"levelo_inurba_marseille","lat":43.28436,"lon":5.349906,"is_reserved":false,"is_disabled":false,"rental_uris":{"android":"levelo://app?vid=69057f6c-9aa5-489b-a0c4-4a7622d5cbda","ios":"levelo://app?vid=69057f6c-9aa5-489b-a0c4-4a7622d5cbda"},"vehicle_type_id":"4","last_reported":1717863013,"current_range_meters":27600,"station_id":"ce4bhbh2rcd13ifvqepg","pricing_plan_id":"cebpf4jnsgd1na2vs0mg"},{"bike_id":"e07bb4ce-167f-4a0d-9278-e06f840e9407","system_id":"levelo_inurba_marseille","lat":43.284219,"lon":5.3497,"is_reserved":false,"is_disabled":false,"rental_uris":{"android":"levelo://app?vid=e07bb4ce-167f-4a0d-9278-e06f840e9407","ios":"levelo://app?vid=e07bb4ce-167f-4a0d-9278-e06f840e9407"},"vehicle_type_id":"4","last_reported":1717863013,"current_range_meters":29600,"station_id":"ce4bhbh2rcd13ifvqepg","pricing_plan_id":"cebpf4jnsgd1na2vs0mg"},{"bike_id":"764d6700-5795-403d-b683-f36c6bb032e2","system_id":"levelo_inurba_marseille","lat":43.284253,"lon":5.349963,"is_reserved":false,"is_disabled":false,"rental_uris":{"android":"levelo://app?vid=764d6700-5795-403d-b683-f36c6bb032e2","ios":"levelo://app?vid=764d6700-5795-403d-b683-f36c6bb032e2"},"vehicle_type_id":"4","last_reported":1717863013,"current_range_meters":10400,"station_id":"ce4bhbh2rcd13ifvqepg","pricing_plan_id":"cebpf4jnsgd1na2vs0mg"},{"bike_id":"15211dce-7cd1-4016-a425-101ffd864154","system_id":"levelo_inurba_marseille","lat":43.284295,"lon":5.349805,"is_reserved":false,"is_disabled":false,"rental_uris":{"android":"levelo://app?vid=15211dce-7cd1-4016-a425-101ffd864154","ios":"levelo://app?vid=15211dce-7cd1-4016-a425-101ffd864154"},"vehicle_type_id":"4","last_reported":1717863013,"current_range_meters":22000,"station_id":"ce4bhbh2rcd13ifvqepg","pricing_plan_id":"cebpf4jnsgd1na2vs0mg"},{"bike_id":"267b203e-c6a5-47c2-9949-238370ac361c","system_id":"levelo_inurba_marseille","lat":43.284219,"lon":5.3497,"is_reserved":false,"is_disabled":false,"rental_uris":{"android":"levelo://app?vid=267b203e-c6a5-47c2-9949-238370ac361c","ios":"levelo://app?vid=267b203e-c6a5-47c2-9949-238370ac361c"},"vehicle_type_id":"4","last_reported":1717863013,"current_range_meters":24400,"station_id":"ce4bhbh2rcd13ifvqepg","pricing_plan_id":"cebpf4jnsgd1na2vs0mg"},{"bike_id":"18d175c0-6641-43ce-bba9-dc62d6d70811","system_id":"levelo_inurba_marseille","lat":43.284243,"lon":5.349925,"is_reserved":false,"is_disabled":false,"rental_uris":{"android":"levelo://app?vid=18d175c0-6641-43ce-bba9-dc62d6d70811","ios":"levelo://app?vid=18d175c0-6641-43ce-bba9-dc62d6d70811"},"vehicle_type_id":"4","last_reported":1717863013,"current_range_meters":10400,"station_id":"ce4bhbh2rcd13ifvqepg","pricing_plan_id":"cebpf4jnsgd1na2vs0mg"},{"bike_id":"61a36487-304e-49e3-9baa-c08075bf25d3","system_id":"levelo_inurba_marseille","lat":43.284265,"lon":5.349855,"is_reserved":false,"is_disabled":false,"rental_uris":{"android":"levelo://app?vid=61a36487-304e-49e3-9baa-c08075bf25d3","ios":"levelo://app?vid=61a36487-304e-49e3-9baa-c08075bf25d3"},"vehicle_type_id":"4","last_reported":1717863013,"current_range_meters":21200,"station_id":"ce4bhbh2rcd13ifvqepg","pricing_plan_id":"cebpf4jnsgd1na2vs0mg"},{"bike_id":"6621b3ab-a396-413b-bfe3-f358470567fa","system_id":"levelo_inurba_marseille","lat":43.284218,"lon":5.349977,"is_reserved":false,"is_disabled":false,"rental_uris":{"android":"levelo://app?vid=6621b3ab-a396-413b-bfe3-f358470567fa","ios":"levelo://app?vid=6621b3ab-a396-413b-bfe3-f358470567fa"},"vehicle_type_id":"4","last_reported":1717863013,"current_range_meters":22000,"station_id":"ce4bhbh2rcd13ifvqepg","pricing_plan_id":"cebpf4jnsgd1na2vs0mg"},{"bike_id":"3a9b39d1-d17e-49b1-8e06-7aea81fdc114","system_id":"levelo_inurba_marseille","lat":43.284258,"lon":5.34983,"is_reserved":false,"is_disabled":false,"rental_uris":{"android":"levelo://app?vid=3a9b39d1-d17e-49b1-8e06-7aea81fdc114","ios":"levelo://app?vid=3a9b39d1-d17e-49b1-8e06-7aea81fdc114"},"vehicle_type_id":"4","last_reported":1717863013,"current_range_meters":18000,"station_id":"ce4bhbh2rcd13ifvqepg","pricing_plan_id":"cebpf4jnsgd1na2vs0mg"},{"bike_id":"d71bfba3-8636-4381-bd5d-fccbb219b77f","system_id":"levelo_inurba_marseille","lat":43.28421,"lon":5.349967,"is_reserved":false,"is_disabled":false,"rental_uris":{"android":"levelo://app?vid=d71bfba3-8636-4381-bd5d-fccbb219b77f","ios":"levelo://app?vid=d71bfba3-8636-4381-bd5d-fccbb219b77f"},"vehicle_type_id":"4","last_reported":1717863013,"current_range_meters":15200,"station_id":"ce4bhbh2rcd13ifvqepg","pricing_plan_id":"cebpf4jnsgd1na2vs0mg"},{"bike_id":"a28287df-e8b7-4b77-a441-b2776f28ee58","system_id":"levelo_inurba_marseille","lat":43.28421,"lon":5.34996,"is_reserved":false,"is_disabled":false,"rental_uris":{"android":"levelo://app?vid=a28287df-e8b7-4b77-a441-b2776f28ee58","ios":"levelo://app?vid=a28287df-e8b7-4b77-a441-b2776f28ee58"},"vehicle_type_id":"4","last_reported":1717863013,"current_range_meters":14400,"station_id":"ce4bhbh2rcd13ifvqepg","pricing_plan_id":"cebpf4jnsgd1na2vs0mg"},{"bike_id":"13d81340-68b3-43a0-8855-9cdf2db663d8","system_id":"levelo_inurba_marseille","lat":43.284219,"lon":5.3497,"is_reserved":false,"is_disabled":false,"rental_uris":{"android":"levelo://app?vid=13d81340-68b3-43a0-8855-9cdf2db663d8","ios":"levelo://app?vid=13d81340-68b3-43a0-8855-9cdf2db663d8"},"vehicle_type_id":"4","last_reported":1717863013,"current_range_meters":16400,"station_id":"ce4bhbh2rcd13ifvqepg","pricing_plan_id":"cebpf4jnsgd1na2vs0mg"},{"bike_id":"245595cb-e634-41e8-a92b-ed27eb2c75b5","system_id":"levelo_inurba_marseille","lat":43.284219,"lon":5.3497,"is_reserved":false,"is_disabled":false,"rental_uris":{"android":"levelo://app?vid=245595cb-e634-41e8-a92b-ed27eb2c75b5","ios":"levelo://app?vid=245595cb-e634-41e8-a92b-ed27eb2c75b5"},"vehicle_type_id":"4","last_reported":1717863013,"current_range_meters":9600,"station_id":"ce4bhbh2rcd13ifvqepg","pricing_plan_id":"cebpf4jnsgd1na2vs0mg"},{"bike_id":"a894f6cd-d5e9-45ac-b2e3-a93705b9662b","system_id":"levelo_inurba_marseille","lat":43.284219,"lon":5.3497,"is_reserved":false,"is_disabled":false,"rental_uris":{"android":"levelo://app?vid=a894f6cd-d5e9-45ac-b2e3-a93705b9662b","ios":"levelo://app?vid=a894f6cd-d5e9-45ac-b2e3-a93705b9662b"},"vehicle_type_id":"4","last_reported":1717863013,"current_range_meters":9600,"station_id":"ce4bhbh2rcd13ifvqepg","pricing_plan_id":"cebpf4jnsgd1na2vs0mg"},