{"last_updated":1742209707,"ttl":60,"version":"2.2","data":{"bikes":[{"bike_id":"82465aa7-55ed-4055-9cc8-5fdee15ebdd8","system_id":"levelo_inurba_marseille","lat":43.27635,"lon":5.41881,"is_reserved":false,"is_disabled":false,"rental_uris":{"android":"levelo://app?vid=82465aa7-55ed-4055-9cc8-5fdee15ebdd8","ios":"levelo://app?vid=82465aa7-55ed-4055-9cc8-5fdee15ebdd8"},"vehicle_type_id":"4","last_reported":1742209707,"current_range_meters":2800,"station_id":"","pricing_plan_id":"cebpf4jnsgd1na2vs0mg"},{"bike_id":"53018ede-c6aa-46f7-913d-41516faaab91","system_id":"levelo_inurba_marseille","lat":43.28109,"lon":5.37833,"is_reserved":false,"is_disabled":false,"rental_uris":{"android":"levelo://app?vid=53018ede-c6aa-46f7-913d-41516faaab91","ios":"levelo://app?vid=53018ede-c6aa-46f7-913d-41516faaab91"},"vehicle_type_id":"4","last_reported":1742209707,"current_range_meters":3200,"station_id":"ce4bha12rcd13ifvqee0","pricing_plan_id":"cebpf4jnsgd1na2vs0mg"},{"bike_id":"12e77ff4-e03c-4eb3-9bde-f4a81fb251a3","system_id":"levelo_inurba_marseille","lat":43.27992,"lon":5.4166,"is_reserved":false,"is_disabled":false,"rental_uris":{"android":"levelo://app?vid=12e77ff4-e03c-4eb3-9bde-f4a81fb251a3","ios":"levelo://app?vid=12e77ff4-e03c-4eb3-9bde-f4a81fb251a3"},"vehicle_type_id":"4","last_reported":1742209707,"current_range_meters":3200,"station_id":"ce4bho12rcd13ifvqh1g","pricing_plan_id":"cebpf4jnsgd1na2vs0mg"},{"bike_id":"a5d9a2f8-11e2-445b-9946-70463938f681","system_id":"levelo_inurba_marseille","lat":43.3117,"lon":5.38131,"is_reserved":false,"is_disabled":false,"rental_uris":{"android":"levelo://app?vid=a5d9a2f8-11e2-445b-9946-70463938f681","ios":"levelo://app?vid=a5d9a2f8-11e2-445b-9946-70463938f681"},"vehicle_type_id":"4","last_reported":1742209707,"current_range_meters":3200,"station_id":"","pricing_plan_id":"cebpf4jnsgd1na2vs0mg"},{"bike_id":"1ebee6af-6672-4475-8604-890591e5f769","system_id":"levelo_inurba_marseille","lat":43.31735,"lon":5.37713,"is_reserved":false,"is_disabled":false,"rental_uris":{"android":"levelo://app?vid=1ebee6af-6672-4475-8604-890591e5f769","ios":"levelo://app?vid=1ebee6af-6672-4475-8604-890591e5f769"},"vehicle_type_id":"4","last_reported":1742209707,"current_range_meters":3600,"station_id":"ce4bgth2rcd13ifvqch0","pricing_plan_id":"cebpf4jnsgd1na2vs0mg"},{"bike_id":"f2b7b04e-8089-4d6c-9db8-5e21bca75c26","system_id":"levelo_inurba_marseille","lat":43.27822,"lon":5.39185,"is_reserved":false,"is_disabled":true,"rental_uris":{"android":"levelo://app?vid=f2b7b04e-8089-4d6c-9db8-5e21bca75c26","ios":"levelo://app?vid=f2b7b04e-8089-4d6c-9db8-5e21bca75c26"},"vehicle_type_id":"4","last_reported":1742209707,"current_range_meters":3600,"station_id":"ce4bhjp2rcd13ifvqga0","pricing_plan_id":"cebpf4jnsgd1na2vs0mg"},{"bike_id":"eeab4a6f-ee87-4bd7-bcc5-9387a07538ce","system_id":"levelo_inurba_marseille","lat":43.24375,"lon":5.39647,"is_reserved":false,"is_disabled":false,"rental_uris":{"android":"levelo://app?vid=eeab4a6f-ee87-4bd7-bcc5-9387a07538ce","ios":"levelo://app?vid=eeab4a6f-ee87-4bd7-bcc5-9387a07538ce"},"vehicle_type_id":"4","last_reported":1742209707,"current_range_meters":4000,"station_id":"","pricing_plan_id":"cebpf4jnsgd1na2vs0mg"},{"bike_id":"ad0487e7-2a68-4b40-b2cc-a151beb64360","system_id":"levelo_inurba_marseille","lat":43.25822,"lon":5.39434,"is_reserved":false,"is_disabled":false,"rental_uris":{"android":"levelo://app?vid=ad0487e7-2a68-4b40-b2cc-a151beb64360","ios":"levelo://app?vid=ad0487e7-2a68-4b40-b2cc-a151beb64360"},"vehicle_type_id":"4","last_reported":1742209707,"current_range_meters":4000,"station_id":"ce4bhip2rcd13ifvqft0","pricing_plan_id":"cebpf4jnsgd1na2vs0mg"},{"bike_id":"962763ab-c0ee-436e-a7f6-dcf223a9e3ae","system_id":"levelo_inurba_marseille","lat":43.28609,"lon":5.37061,"is_reserved":false,"is_disabled":false,"rental_uris":{"android":"levelo://app?vid=962763ab-c0ee-436e-a7f6-dcf223a9e3ae","ios":"levelo://app?vid=962763ab-c0ee-436e-a7f6-dcf223a9e3ae"},"vehicle_type_id":"4","last_reported":1742209707,"current_range_meters":4000,"station_id":"ce4bht12rcd13ifvqi60","pricing_plan_id":"cebpf4jnsgd1na2vs0mg"},{"bike_id":"e94ba6e3-9606-42d7-9222-8ae2dc1a1268","system_id":"levelo_inurba_marseille","lat":43.33611,"lon":5.40988,"is_reserved":false,"is_disabled":false,"rental_uris":{"android":"levelo://app?vid=e94ba6e3-9606-42d7-9222-8ae2dc1a1268","ios":"levelo://app?vid=e94ba6e3-9606-42d7-9222-8ae2dc1a1268"},"vehicle_type_id":"4","last_reported":1742209707,"current_range_meters":4400,"station_id":"ce4bhqh2rcd13ifvqhmg","pricing_plan_id":"cebpf4jnsgd1na2vs0mg"},{"bike_id":"3850fcc8-9c5d-4890-93d1-1d89c4d11a96","system_id":"levelo_inurba_marseille","lat":43.33613,"lon":5.41014,"is_reserved":false,"is_disabled":false,"rental_uris":{"android":"levelo://app?vid=3850fcc8-9c5d-4890-93d1-1d89c4d11a96","ios":"levelo://app?vid=3850fcc8-9c5d-4890-93d1-1d89c4d11a96"},"vehicle_type_id":"4","last_reported":1742209707,"current_range_meters":4400,"station_id":"ce4bhqh2rcd13ifvqhmg","pricing_plan_id":"cebpf4jnsgd1na2vs0mg"},{"bike_id":"68269851-3f91-47b6-9f4e-87f86cf212e5","system_id":"levelo_inurba_marseille","lat":43.22938,"lon":5.35386,"is_reserved":false,"is_disabled":true,"rental_uris":{"android":"levelo://app?vid=68269851-3f91-47b6-9f4e-87f86cf212e5","ios":"levelo://app?vid=68269851-3f91-47b6-9f4e-87f86cf212e5"},"vehicle_type_id":"4","last_reported":1742209707,"current_range_meters":4400,"station_id":"cpo3532slgdg3j2ikp40","pricing_plan_id":"cebpf4jnsgd1na2vs0mg"},{"bike_id":"8ac36ff0-95fa-4664-8e37-a03afd0a16e1","system_id":"levelo_inurba_marseille","lat":43.29031,"lon":5.37803,"is_reserved":false,"is_disabled":true,"rental_uris":{"android":"levelo://app?vid=8ac36ff0-95fa-4664-8e37-a03afd0a16e1","ios":"levelo://app?vid=8ac36ff0-95fa-4664-8e37-a03afd0a16e1"},"vehicle_type_id":"4","last_reported":1742209707,"current_range_meters":4400,"station_id":"","pricing_plan_id":"cebpf4jnsgd1na2vs0mg"},{"bike_id":"1e9aea03-6937-4ee0-9e91-73eda13ab755","system_id":"levelo_inurba_marseille","lat":43.336,"lon":5.40983,"is_reserved":false,"is_disabled":false,"rental_uris":{"android":"levelo://app?vid=1e9aea03-6937-4ee0-9e91-73eda13ab755","ios":"levelo://app?vid=1e9aea03-6937-4ee0-9e91-73eda13ab755"},"vehicle_type_id":"4","last_reported":1742209707,"current_range_meters":4400,"station_id":"ce4bhqh2rcd13ifvqhmg","pricing_plan_id":"cebpf4jnsgd1na2vs0mg"},{"bike_id":"1bf7e325-6c57-444f-a23d-2e52225c53a6","system_id":"levelo_inurba_marseille","lat":43.25075,"lon":5.39039,"is_reserved":false,"is_disabled":false,"rental_uris":{"android":"levelo://app?vid=1bf7e325-6c57-444f-a23d-2e52225c53a6","ios":"levelo://app?vid=1bf7e325-6c57-444f-a23d-2e52225c53a6"},"vehicle_type_id":"4","last_reported":1742209707,"current_range_meters":4800,"station_id":"","pricing_plan_id":"cebpf4jnsgd1na2vs0mg"},{"bike_id":"141f847f-64c6-4dec-a7ac-6b8bd6a2e0c4","system_id":"levelo_inurba_marseille","lat":43.29942,"lon":5.36523,"is_reserved":false,"is_disabled":false,"rental_uris":{"android":"levelo://app?vid=141f847f-64c6-4dec-a7ac-6b8bd6a2e0c4","ios":"levelo://app?vid=141f847f-64c6-4dec-a7ac-6b8bd6a2e0c4"},"vehicle_type_id":"4","last_reported":1742209707,"current_range_meters":4800,"station_id":"ce4bgm92rcd13ifvqbr0","pricing_plan_id":"cebpf4jnsgd1na2vs0mg"},{"bike_id":"3a766561-d5df-4bb1-accb-85c347f27a70","system_id":"levelo_inurba_marseille","lat":43.33758,"lon":5.39179,"is_reserved":false,"is_disabled":false,"rental_uris":{"android":"levelo://app?vid=3a766561-d5df-4bb1-accb-85c347f27a70","ios":"levelo://app?vid=3a766561-d5df-4bb1-accb-85c347f27a70"},"vehicle_type_id":"4","last_reported":1742209707,"current_range_meters":4800,"station_id":"ce4bhr92rcd13ifvqhsg","pricing_plan_id":"cebpf4jnsgd1na2vs0mg"},{"bike_id":"7464397e-8be1-4c6a-8241-47f55a6df31e","system_id":"levelo_inurba_marseille","lat":43.33383,"lon":5.40053,"is_reserved":false,"is_disabled":false,"rental_uris":{"android":"levelo://app?vid=7464397e-8be1-4c6a-8241-47f55a6df31e","ios":"levelo://app?vid=7464397e-8be1-4c6a-8241-47f55a6df31e"},"vehicle_type_id":"4","last_reported":1742209707,"current_range_meters":4800,"station_id":"","pricing_plan_id":"cebpf4jnsgd1na2vs0mg"},{"bike_id":"31710fca-ccfa-43a5-ac6f-5ec923018ebf","system_id":"levelo_inurba_marseille","lat":43.27418,"lon":5.42084,"is_reserved":false,"is_disabled":false,"rental_uris":{"android":"levelo://app?vid=31710fca-ccfa-43a5-ac6f-5ec923018ebf","ios":"levelo://app?vid=31710fca-ccfa-43a5-ac6f-5ec923018ebf"},"vehicle_type_id":"4","last_reported":1742209707,"current_range_meters":4800,"station_id":"","pricing_plan_id":"cebpf4jnsgd1na2vs0mg"},{"bike_id":"97ef5f0b-10be-433e-adf5-8988ede4fe7c","system_id":"levelo_inurba_marseille","lat":43.29552,"lon":5.42276,"is_reserved":false,"is_disabled":false,"rental_uris":{"android":"levelo://app?vid=97ef5f0b-10be-433e-adf5-8988ede4fe7c","ios":"levelo://app?vid=97ef5f0b-10be-433e-adf5-8988ede4fe7c"},"vehicle_type_id":"4","last_reported":1742209707,"current_range_meters":5600,"station_id":"ce4bhph2rcd13ifvqhdg","pricing_plan_id":"cebpf4jnsgd1na2vs0mg"},{"bike_id":"21fc1fd6-c03d-444f-843d-e190f2bc33f5","system_id":"levelo_inurba_marseille","lat":43.24073,"lon":5.37748,"is_reserved":false,"is_disabled":false,"rental_uris":{"android":"levelo://app?vid=21fc1fd6-c03d-444f-843d-e190f2bc33f5","ios":"levelo://app?vid=21fc1fd6-c03d-444f-843d-e190f2bc33f5"},"vehicle_type_id":"4","last_reported":1742209707,"current_range_meters":5600,"station_id":"ce4bhnp2rcd13ifvqgvg","pricing_plan_id":"cebpf4jnsgd1na2vs0mg"},{"bike_id":"326b166a-f592-4f09-a44c-d63c20e2600a","system_id":"levelo_inurba_marseille","lat":43.29599,"lon":5.38107,"is_reserved":false,"is_disabled":false,"rental_uris":{"android":"levelo://app?vid=326b166a-f592-4f09-a44c-d63c20e2600a","ios":"levelo://app?vid=326b166a-f592-4f09-a44c-d63c20e2600a"},"vehicle_type_id":"4","last_reported":1742209707,"current_range_meters":5600,"station_id":"ce4bgl12rcd13ifvqbo0","pricing_plan_id":"cebpf4jnsgd1na2vs0mg"},{"bike_id":"d06b2ab3-c3ad-4904-98b9-48eee9badb6d","system_id":"levelo_inurba_marseille","lat":43.23187,"lon":5.39976,"is_reserved":false,"is_disabled":false,"rental_uris":{"android":"levelo://app?vid=d06b2ab3-c3ad-4904-98b9-48eee9badb6d","ios":"levelo://app?vid=d06b2ab3-c3ad-4904-98b9-48eee9badb6d"},"vehicle_type_id":"4","last_reported":1742209707,"current_range_meters":5600,"station_id":"ce4bhn12rcd13ifvqgqg","pricing_plan_id":"cebpf4jnsgd1na2vs0mg"},{"bike_id":"7f899192-079d-4b8c-bea8-0cf3763d7192","system_id":"levelo_inurba_marseille","lat":43.27072,"lon":5.4228,"is_reserved":false,"is_disabled":false,"rental_uris":{"android":"levelo://app?vid=7f899192-079d-4b8c-bea8-0cf3763d7192","ios":"levelo://app?vid=7f899192-079d-4b8c-bea8-0cf3763d7192"},"vehicle_type_id":"4","last_reported":1742209707,"current_range_meters":5600,"station_id":"ce4bhk92rcd13ifvqgb0","pricing_plan_id":"cebpf4jnsgd1na2vs0mg"},{"bike_id":"4f375bea-7ab8-4aa0-a392-b3aab687311e","system_id":"levelo_inurba_marseille","lat":43.26582,"lon":5.3903,"is_reserved":false,"is_disabled":false,"rental_uris":{"android":"levelo://app?vid=4f375bea-7ab8-4aa0-a392-b3aab687311e","ios":"levelo://app?vid=4f375bea-7ab8-4aa0-a392-b3aab687311e"},"vehicle_type_id":"4","last_reported":1742209707,"current_range_meters":5600,"station_id":"ce4bhe12rcd13ifvqf30","pricing_plan_id":"cebpf4jnsgd1na2vs0mg"},{"bike_id":"c1ccf9ca-98f0-4eaf-9c83-bb7b5133d125","system_id":"levelo_inurba_marseille","lat":43.32081,"lon":5.36758,"is_reserved":false,"is_disabled":false,"rental_uris":{"android":"levelo://app?vid=c1ccf9ca-98f0-4eaf-9c83-bb7b5133d125","ios":"levelo://app?vid=c1ccf9ca-98f0-4eaf-9c83-bb7b5133d125"},"vehicle_type_id":"4","last_reported":1742209707,"current_range_meters":5600,"station_id":"ce4bhrh2rcd13ifvqhug","pricing_plan_id":"cebpf4jnsgd1na2vs0mg"},{"bike_id":"71b342b8-694b-40d5-99e8-310baf77a970","system_id":"levelo_inurba_marseille","lat":43.23054,"lon":5.35483,"is_reserved":false,"is_disabled":false,"rental_uris":{"android":"levelo://app?vid=71b342b8-694b-40d5-99e8-310baf77a970","ios":"levelo://app?vid=71b342b8-694b-40d5-99e8-310baf77a970"},"vehicle_type_id":"4","last_reported":1742209707,"current_range_meters":6000,"station_id":"cpo3342slgdg3j2ifvpg","pricing_plan_id":"cebpf4jnsgd1na2vs0mg"},{"bike_id":"af0e35b3-8dbd-46c7-96d1-8852cbb490f2","system_id":"levelo_inurba_marseille","lat":43.26547,"lon":5.37276,"is_reserved":false,"is_disabled":true,"rental_uris":{"android":"levelo://app?vid=af0e35b3-8dbd-46c7-96d1-8852cbb490f2","ios":"levelo://app?vid=af0e35b3-8dbd-46c7-96d1-8852cbb490f2"},"vehicle_type_id":"4","last_reported":1742209707,"current_range_meters":6000,"station_id":"ce4bhg12rcd13ifvqf70","pricing_plan_id":"cebpf4jnsgd1na2vs0mg"},{"bike_id":"ac6bf2a2-e8ad-4c79-8c37-419990f10784","system_id":"levelo_inurba_marseille","lat":43.31364,"lon":5.36701,"is_reserved":false,"is_disabled":false,"rental_uris":{"android":"levelo://app?vid=ac6bf2a2-e8ad-4c79-8c37-419990f10784","ios":"levelo://app?vid=ac6bf2a2-e8ad-4c79-8c37-419990f10784"},"vehicle_type_id":"4","last_reported":1742209707,"current_range_meters":6000,"station_id":"ce4bgr92rcd13ifvqc6g","pricing_plan_id":"cebpf4jnsgd1na2vs0mg"},{"bike_id":"25bb2ded-fba6-47cc-8f36-5c53dcdeec58","system_id":"levelo_inurba_marseille","lat":43.24159,"lon":5.39702,"is_reserved":false,"is_disabled":false,"rental_uris":{"android":"levelo://app?vid=25bb2ded-fba6-47cc-8f36-5c53dcdeec58","ios":"levelo://app?vid=25bb2ded-fba6-47cc-8f36-5c53dcdeec58"},"vehicle_type_id":"4","last_reported":1742209707,"current_range_meters":6000,"station_id":"ce4bhn12rcd13ifvqgpg","pricing_plan_id":"cebpf4jnsgd1na2vs0mg"},{"bike_id":"e79d8ff5-5260-4cd2-877d-0bc7b1752ecb","system_id":"levelo_inurba_marseille","lat":43.3124,"lon":5.36886,"is_reserved":false,"is_disabled":false,"rental_uris":{"android":"levelo://app?vid=e79d8ff5-5260-4cd2-877d-0bc7b1752ecb","ios":"levelo://app?vid=e79d8ff5-5260-4cd2-877d-0bc7b1752ecb"},"vehicle_type_id":"4","last_reported":1742209707,"current_range_meters":6000,"station_id":"ce4bgl92rcd13ifvqbq0","pricing_plan_id":"cebpf4jnsgd1na2vs0mg"},{"bike_id":"73a7a516-ecaf-4ecc-805e-1ae55da95039","system_id":"levelo_inurba_marseille","lat":43.23191,"lon":5.35553,"is_reserved":false,"is_disabled":false,"rental_uris":{"android":"levelo://app?vid=73a7a516-ecaf-4ecc-805e-1ae55da95039","ios":"levelo://app?vid=73a7a516-ecaf-4ecc-805e-1ae55da95039"},"vehicle_type_id":"4","last_reported":1742209707,"current_range_meters":6000,"station_id":"ce4bhu92rcd13ifvqi70","pricing_plan_id":"cebpf4jnsgd1na2vs0mg"},{"bike_id":"23f402d9-dfb0-47f6-9db8-b03d1756c728","system_id":"levelo_inurba_marseille","lat":43.23158,"lon":5.43718,"is_reserved":false,"is_disabled":false,"rental_uris":{"android":"levelo://app?vid=23f402d9-dfb0-47f6-9db8-b03d1756c728","ios":"levelo://app?vid=23f402d9-dfb0-47f6-9db8-b03d1756c728"},"vehicle_type_id":"4","last_reported":1742209707,"current_range_meters":6400,"station_id":"ce4bhmp2rcd13ifvqgog","pricing_plan_id":"cebpf4jnsgd1na2vs0mg"},{"bike_id":"555bf458-d1d6-4a2e-8876-071970d88ebd","system_id":"levelo_inurba_marseille","lat":43.26569,"lon":5.39005,"is_reserved":false,"is_disabled":false,"rental_uris":{"android":"levelo://app?vid=555bf458-d1d6-4a2e-8876-071970d88ebd","ios":"levelo://app?vid=555bf458-d1d6-4a2e-8876-071970d88ebd"},"vehicle_type_id":"4","last_reported":1742209707,"current_range_meters":6400,"station_id":"ce4bhe12rcd13ifvqf30","pricing_plan_id":"cebpf4jnsgd1na2vs0mg"},{"bike_id":"e6f0e73f-27c2-4989-954b-3dbfbb86aec4","system_id":"levelo_inurba_marseille","lat":43.23154,"lon":5.43704,"is_reserved":false,"is_disabled":false,"rental_uris":{"android":"levelo://app?vid=e6f0e73f-27c2-4989-954b-3dbfbb86aec4","ios":"levelo://app?vid=e6f0e73f-27c2-4989-954b-3dbfbb86aec4"},"vehicle_type_id":"4","last_reported":1742209707,"current_range_meters":6400,"station_id":"ce4bhmp2rcd13ifvqgog","pricing_plan_id":"cebpf4jnsgd1na2vs0mg"},{"bike_id":"6582e7c2-5aa5-4e6a-abc5-fa241e74aeb6","system_id":"levelo_inurba_marseille","lat":43.29895,"lon":5.43659,"is_reserved":false,"is_disabled":false,"rental_uris":{"android":"levelo://app?vid=6582e7c2-5aa5-4e6a-abc5-fa241e74aeb6","ios":"levelo://app?vid=6582e7c2-5aa5-4e6a-abc5-fa241e74aeb6"},"vehicle_type_id":"4","last_reported":1742209707,"current_range_meters":6400,"station_id":"ce4bhpp2rcd13ifvqhfg","pricing_plan_id":"cebpf4jnsgd1na2vs0mg"},{"bike_id":"fc071de1-2cc0-488a-a43e-f8037a5a9a49","system_id":"levelo_inurba_marseille","lat":43.23067,"lon":5.35488,"is_reserved":false,"is_disabled":false,"rental_uris":{"android":"levelo://app?vid=fc071de1-2cc0-488a-a43e-f8037a5a9a49","ios":"levelo://app?vid=fc071de1-2cc0-488a-a43e-f8037a5a9a49"},"vehicle_type_id":"4","last_reported":1742209707,"current_range_meters":6400,"station_id":"cpo3342slgdg3j2ifvpg","pricing_plan_id":"cebpf4jnsgd1na2vs0mg"},{"bike_id":"386c50eb-e2de-4698-8009-25ae5c5fc57f","system_id":"levelo_inurba_marseille","lat":43.29228,"lon":5.39318,"is_reserved":false,"is_disabled":true,"rental_uris":{"android":"levelo://app?vid=386c50eb-e2de-4698-8009-25ae5c5fc57f","ios":"levelo://app?vid=386c50eb-e2de-4698-8009-25ae5c5fc57f"},"vehicle_type_id":"4","last_reported":1742209707,"current_range_meters":6400,"station_id":"ce4bh192rcd13ifvqdd0","pricing_plan_id":"cebpf4jnsgd1na2vs0mg"},{"bike_id":"d41c908c-4dc6-4aaa-969d-73466d9b3b3d","system_id":"levelo_inurba_marseille","lat":43.27501,"lon":5.42462,"is_reserved":false,"is_disabled":false,"rental_uris":{"android":"levelo://app?vid=d41c908c-4dc6-4aaa-969d-73466d9b3b3d","ios":"levelo://app?vid=d41c908c-4dc6-4aaa-969d-73466d9b3b3d"},"vehicle_type_id":"4","last_reported":1742209707,"current_range_meters":6400,"station_id":"ce4bhn92rcd13ifvqgrg","pricing_plan_id":"cebpf4jnsgd1na2vs0mg"},{"bike_id":"12086418-ea6d-44b5-8baa-6f52d29d55ac","system_id":"levelo_inurba_marseille","lat":43.3361,"lon":5.40977,"is_reserved":false,"is_disabled":false,"rental_uris":{"android":"levelo://app?vid=12086418-ea6d-44b5-8baa-6f52d29d55ac","ios":"levelo://app?vid=12086418-ea6d-44b5-8baa-6f52d29d55ac"},"vehicle_type_id":"4","last_reported":1742209707,"current_range_meters":6400,"station_id":"ce4bhqh2rcd13ifvqhmg","pricing_plan_id":"cebpf4jnsgd1na2vs0mg"},{"bike_id":"2ee968f0-3e3a-42b7-b263-c30500628cfd","system_id":"levelo_inurba_marseille","lat":43.23152,"lon":5.43711,"is_reserved":false,"is_disabled":false,"rental_uris":{"android":"levelo://app?vid=2ee968f0-3e3a-42b7-b263-c30500628cfd","ios":"levelo://app?vid=2ee968f0-3e3a-42b7-b263-c30500628cfd"},"vehicle_type_id":"4","last_reported":1742209707,"current_range_meters":6400,"station_id":"ce4bhmp2rcd13ifvqgog","pricing_plan_id":"cebpf4jnsgd1na2vs0mg"},{"bike_id":"e170ffca-3c08-4995-91d0-1f337bd222bd","system_id":"levelo_inurba_marseille","lat":43.30781,"lon":5.37652,"is_reserved":false,"is_disabled":false,"rental_uris":{"android":"levelo://app?vid=e170ffca-3c08-4995-91d0-1f337bd222bd","ios":"levelo://app?vid=e170ffca-3c08-4995-91d0-1f337bd222bd"},"vehicle_type_id":"4","last_reported":1742209707,"current_range_meters":6800,"station_id":"ce4bgv92rcd13ifvqcq0","pricing_plan_id":"cebpf4jnsgd1na2vs0mg"},{"bike_id":"2bd5dc42-922c-401e-81c0-0b508707ff2b","system_id":"levelo_inurba_marseille","lat":43.27209,"lon":5.39198,"is_reserved":false,"is_disabled":false,"rental_uris":{"android":"levelo://app?vid=2bd5dc42-922c-401e-81c0-0b508707ff2b","ios":"levelo://app?vid=2bd5dc42-922c-401e-81c0-0b508707ff2b"},"vehicle_type_id":"4","last_reported":1742209707,"current_range_meters":6800,"station_id":"ce4bhhp2rcd13ifvqfm0","pricing_plan_id":"cebpf4jnsgd1na2vs0mg"},{"bike_id":"e01eeb36-e655-41bb-9312-232d9d42dc33","system_id":"levelo_inurba_marseille","lat":43.32101,"lon":5.36774,"is_reserved":false,"is_disabled":false,"rental_uris":{"android":"levelo://app?vid=e01eeb36-e655-41bb-9312-232d9d42dc33","ios":"levelo://app?vid=e01eeb36-e655-41bb-9312-232d9d42dc33"},"vehicle_type_id":"4","last_reported":1742209707,"current_range_meters":6800,"station_id":"ce4bhrh2rcd13ifvqhug","pricing_plan_id":"cebpf4jnsgd1na2vs0mg"},{"bike_id":"dfd18ffd-aca3-4d96-8758-c6db85d838e2","system_id":"levelo_inurba_marseille","lat":43.23065,"lon":5.35479,"is_reserved":false,"is_disabled":false,"rental_uris":{"android":"levelo://app?vid=dfd18ffd-aca3-4d96-8758-c6db85d838e2","ios":"levelo://app?vid=dfd18ffd-aca3-4d96-8758-c6db85d838e2"},"vehicle_type_id":"4","last_reported":1742209707,"current_range_meters":6800,"station_id":"cpo3342slgdg3j2ifvpg","pricing_plan_id":"cebpf4jnsgd1na2vs0mg"},{"bike_id":"4828776e-09ea-417d-b9aa-9bfa0f717b74","system_id":"levelo_inurba_marseille","lat":43.24094,"lon":5.37764,"is_reserved":false,"is_disabled":false,"rental_uris":{"android":"levelo://app?vid=4828776e-09ea-417d-b9aa-9bfa0f717b74","ios":"levelo://app?vid=4828776e-09ea-417d-b9aa-9bfa0f717b74"},"vehicle_type_id":"4","last_reported":1742209707,"current_range_meters":6800,"station_id":"ce4bhnp2rcd13ifvqgvg","pricing_plan_id":"cebpf4jnsgd1na2vs0mg"},{"bike_id":"3e2e14c7-f5ed-4573-bf2b-84d788bc9968","system_id":"levelo_inurba_marseille","lat":43.33729,"lon":5.42086,"is_reserved":false,"is_disabled":false,"rental_uris":{"android":"levelo://app?vid=3e2e14c7-f5ed-4573-bf2b-84d788bc9968","ios":"levelo://app?vid=3e2e14c7-f5ed-4573-bf2b-84d788bc9968"},"vehicle_type_id":"4","last_reported":1742209707,"current_range_meters":6800,"station_id":"","pricing_plan_id":"cebpf4jnsgd1na2vs0mg"},{"bike_id":"071171a2-1416-49a4-8ff5-12e027588fb3","system_id":"levelo_inurba_marseille","lat":43.27202,"lon":5.39187,"is_reserved":false,"is_disabled":false,"rental_uris":{"android":"levelo://app?vid=071171a2-1416-49a4-8ff5-12e027588fb3","ios":"levelo://app?vid=071171a2-1416-49a4-8ff5-12e027588fb3"},"vehicle_type_id":"4","last_reported":1742209707,"current_range_meters":6400,"station_id":"ce4bhhp2rcd13ifvqfm0","pricing_plan_id":"cebpf4jnsgd1na2vs0mg"},{"bike_id":"a41c6a4c-6041-4546-a615-6ec13250b00d","system_id":"levelo_inurba_marseille","lat":43.23155,"lon":5.43706,"is_reserved":false,"is_disabled":false,"rental_uris":{"android":"levelo://app?vid=a41c6a4c-6041-4546-a615-6ec13250b00d","ios":"levelo://app?vid=a41c6a4c-6041-4546-a615-6ec13250b00d"},"vehicle_type_id":"4","last_reported":1742209707,"current_range_meters":6800,"station_id":"ce4bhmp2rcd13ifvqgog","pricing_plan_id":"cebpf4jnsgd1na2vs0mg"},{"bike_id":"9544e52b-7c59-430f-a85b-7c60f50c2f53","system_id":"levelo_inurba_marseille","lat":43.2583,"lon":5.39447,"is_reserved":false,"is_disabled":false,"rental_uris":{"android":"levelo://app?vid=9544e52b-7c59-430f-a85b-7c60f50c2f53","ios":"levelo://app?vid=9544e52b-7c59-430f-a85b-7c60f50c2f53"},"vehicle_type_id":"4","last_reported":1742209707,"current_range_meters":6800,"station_id":"ce4bhip2rcd13ifvqft0","pricing_plan_id":"cebpf4jnsgd1na2vs0mg"},{"bike_id":"259ffcdf-e02f-4aa6-8661-d47427a437c7","system_id":"levelo_inurba_marseille","lat":43.23143,"lon":5.43712,"is_reserved":false,"is_disabled":false,"rental_uris":{"android":"levelo://app?vid=259ffcdf-e02f-4aa6-8661-d47427a437c7","ios":"levelo://app?vid=259ffcdf-e02f-4aa6-8661-d47427a437c7"},"vehicle_type_id":"4","last_reported":1742209707,"current_range_meters":7200,"station_id":"ce4bhmp2rcd13ifvqgog","pricing_plan_id":"cebpf4jnsgd1na2vs0mg"},{"bike_id":"ccd49044-f75d-432b-b34b-0f0b9fd35c44","system_id":"levelo_inurba_marseille","lat":43.2317,"lon":5.43718,"is_reserved":false,"is_disabled":false,"rental_uris":{"android":"levelo://app?vid=ccd49044-f75d-432b-b34b-0f0b9fd35c44","ios":"levelo://app?vid=ccd49044-f75d-432b-b34b-0f0b9fd35c44"},"vehicle_type_id":"4","last_reported":1742209707,"current_range_meters":7200,"station_id":"ce4bhmp2rcd13ifvqgog","pricing_plan_id":"cebpf4jnsgd1na2vs0mg"},{"bike_id":"36058833-eb2f-49b9-a1a1-c396d764f0b4","system_id":"levelo_inurba_marseille","lat":43.232,"lon":5.35554,"is_reserved":false,"is_disabled":false,"rental_uris":{"android":"levelo://app?vid=36058833-eb2f-49b9-a1a1-c396d764f0b4","ios":"levelo://app?vid=36058833-eb2f-49b9-a1a1-c396d764f0b4"},"vehicle_type_id":"4","last_reported":1742209707,"current_range_meters":7200,"station_id":"ce4bhu92rcd13ifvqi70","pricing_plan_id":"cebpf4jnsgd1na2vs0mg"},{"bike_id":"081e4e36-6c05-4d78-9d51-d5f19577f406","system_id":"levelo_inurba_marseille","lat":43.23188,"lon":5.39986,"is_reserved":false,"is_disabled":false,"rental_uris":{"android":"levelo://app?vid=081e4e36-6c05-4d78-9d51-d5f19577f406","ios":"levelo://app?vid=081e4e36-6c05-4d78-9d51-d5f19577f406"},"vehicle_type_id":"4","last_reported":1742209707,"current_range_meters":7200,"station_id":"ce4bhn12rcd13ifvqgqg","pricing_plan_id":"cebpf4jnsgd1na2vs0mg"},{"bike_id":"c46bec50-c693-405c-875f-3f20e5871328","system_id":"levelo_inurba_marseille","lat":43.24183,"lon":5.39732,"is_reserved":false,"is_disabled":false,"rental_uris":{"android":"levelo://app?vid=c46bec50-c693-405c-875f-3f20e5871328","ios":"levelo://app?vid=c46bec50-c693-405c-875f-3f20e5871328"},"vehicle_type_id":"4","last_reported":1742209707,"current_range_meters":7200,"station_id":"ce4bhn12rcd13ifvqgpg","pricing_plan_id":"cebpf4jnsgd1na2vs0mg"},{"bike_id":"ec4c8fc9-399f-4f5a-b345-e19e03d811c3","system_id":"levelo_inurba_marseille","lat":43.27222,"lon":5.40981,"is_reserved":false,"is_disabled":true,"rental_uris":{"android":"levelo://app?vid=ec4c8fc9-399f-4f5a-b345-e19e03d811c3","ios":"levelo://app?vid=ec4c8fc9-399f-4f5a-b345-e19e03d811c3"},"vehicle_type_id":"4","last_reported":1742209707,"current_range_meters":7200,"station_id":"","pricing_plan_id":"cebpf4jnsgd1na2vs0mg"},{"bike_id":"4a48ef4d-481c-433c-a9b8-5cdd425f1f3c","system_id":"levelo_inurba_marseille","lat":43.31209,"lon":5.36907,"is_reserved":false,"is_disabled":false,"rental_uris":{"android":"levelo://app?vid=4a48ef4d-481c-433c-a9b8-5cdd425f1f3c","ios":"levelo://app?vid=4a48ef4d-481c-433c-a9b8-5cdd425f1f3c"},"vehicle_type_id":"4","last_reported":1742209707,"current_range_meters":7200,"station_id":"ce4bgl92rcd13ifvqbq0","pricing_plan_id":"cebpf4jnsgd1na2vs0mg"},{"bike_id":"63ccaa1b-7302-45e3-82a8-d904a69351b6","system_id":"levelo_inurba_marseille","lat":43.23957,"lon":5.36626,"is_reserved":false,"is_disabled":false,"rental_uris":{"android":"levelo://app?vid=63ccaa1b-7302-45e3-82a8-d904a69351b6","ios":"levelo://app?vid=63ccaa1b-7302-45e3-82a8-d904a69351b6"},"vehicle_type_id":"4","last_reported":1742209707,"current_range_meters":7200,"station_id":"ce4bhi12rcd13ifvqfp0","pricing_plan_id":"cebpf4jnsgd1na2vs0mg"},{"bike_id":"7099c38a-2986-4dc9-9398-307b562f7d30","system_id":"levelo_inurba_marseille","lat":43.2594,"lon":5.40888,"is_reserved":false,"is_disabled":false,"rental_uris":{"android":"levelo://app?vid=7099c38a-2986-4dc9-9398-307b562f7d30","ios":"levelo://app?vid=7099c38a-2986-4dc9-9398-307b562f7d30"},"vehicle_type_id":"4","last_reported":1742209707,"current_range_meters":7200,"station_id":"ce4bhm92rcd13ifvqglg","pricing_plan_id":"cebpf4jnsgd1na2vs0mg"},{"bike_id":"1aeb37e3-e544-46dd-8de2-23762f2e24ec","system_id":"levelo_inurba_marseille","lat":43.27903,"lon":5.3801,"is_reserved":false,"is_disabled":false,"rental_uris":{"android":"levelo://app?vid=1aeb37e3-e544-46dd-8de2-23762f2e24ec","ios":"levelo://app?vid=1aeb37e3-e544-46dd-8de2-23762f2e24ec"},"vehicle_type_id":"4","last_reported":1742209707,"current_range_meters":7200,"station_id":"ce4bhf92rcd13ifvqf50","pricing_plan_id":"cebpf4jnsgd1na2vs0mg"},{"bike_id":"585b7b81-7606-4331-9d4e-64bf66e625bb","system_id":"levelo_inurba_marseille","lat":43.29052,"lon":5.3759,"is_reserved":false,"is_disabled":false,"rental_uris":{"android":"levelo://app?vid=585b7b81-7606-4331-9d4e-64bf66e625bb","ios":"levelo://app?vid=585b7b81-7606-4331-9d4e-64bf66e625bb"},"vehicle_type_id":"4","last_reported":1742209707,"current_range_meters":7200,"station_id":"ce4bh692rcd13ifvqe90","pricing_plan_id":"cebpf4jnsgd1na2vs0mg"},{"bike_id":"a8dda710-fc5a-4638-ae23-4122f2a35058","system_id":"levelo_inurba_marseille","lat":43.23058,"lon":5.35485,"is_reserved":false,"is_disabled":false,"rental_uris":{"android":"levelo://app?vid=a8dda710-fc5a-4638-ae23-4122f2a35058","ios":"levelo://app?vid=a8dda710-fc5a-4638-ae23-4122f2a35058"},"vehicle_type_id":"4","last_reported":1742209707,"current_range_meters":7200,"station_id":"cpo3342slgdg3j2ifvpg","pricing_plan_id":"cebpf4jnsgd1na2vs0mg"},{"bike_id":"822b0551-70f3-4890-88a0-9a90d2e720ab","system_id":"levelo_inurba_marseille","lat":43.31283,"lon":5.40161,"is_reserved":false,"is_disabled":true,"rental_uris":{"android":"levelo://app?vid=822b0551-70f3-4890-88a0-9a90d2e720ab","ios":"levelo://app?vid=822b0551-70f3-4890-88a0-9a90d2e720ab"},"vehicle_type_id":"4","last_reported":1742209707,"current_range_meters":7200,"station_id":"ce4bh092rcd13ifvqd30","pricing_plan_id":"cebpf4jnsgd1na2vs0mg"},{"bike_id":"d25158a9-6380-43cc-9b28-ebca587b9840","system_id":"levelo_inurba_marseille","lat":43.29883,"lon":5.39714,"is_reserved":false,"is_disabled":false,"rental_uris":{"android":"levelo://app?vid=d25158a9-6380-43cc-9b28-ebca587b9840","ios":"levelo://app?vid=d25158a9-6380-43cc-9b28-ebca587b9840"},"vehicle_type_id":"4","last_reported":1742209707,"current_range_meters":7200,"station_id":"ce4bh0h2rcd13ifvqd50","pricing_plan_id":"cebpf4jnsgd1na2vs0mg"},{"bike_id":"d3b5011a-ad57-4b0d-9ce0-46d5274099df","system_id":"levelo_inurba_marseille","lat":43.26028,"lon":5.37548,"is_reserved":false,"is_disabled":false,"rental_uris":{"android":"levelo://app?vid=d3b5011a-ad57-4b0d-9ce0-46d5274099df","ios":"levelo://app?vid=d3b5011a-ad57-4b0d-9ce0-46d5274099df"},"vehicle_type_id":"4","last_reported":1742209707,"current_range_meters":5600,"station_id":"ce4bhgh2rcd13ifvqfa0","pricing_plan_id":"cebpf4jnsgd1na2vs0mg"},{"bike_id":"08078869-66fc-4123-8e5f-4076c18614be","system_id":"levelo_inurba_marseille","lat":43.25723,"lon":5.41108,"is_reserved":false,"is_disabled":false,"rental_uris":{"android":"levelo://app?vid=08078869-66fc-4123-8e5f-4076c18614be","ios":"levelo://app?vid=08078869-66fc-4123-8e5f-4076c18614be"},"vehicle_type_id":"4","last_reported":1742209707,"current_range_meters":8000,"station_id":"ce4bhkp2rcd13ifvqgd0","pricing_plan_id":"cebpf4jnsgd1na2vs0mg"},{"bike_id":"578e3901-b2f4-41df-b814-043dcac971fb","system_id":"levelo_inurba_marseille","lat":43.24073,"lon":5.37741,"is_reserved":false,"is_disabled":true,"rental_uris":{"android":"levelo://app?vid=578e3901-b2f4-41df-b814-043dcac971fb","ios":"levelo://app?vid=578e3901-b2f4-41df-b814-043dcac971fb"},"vehicle_type_id":"4","last_reported":1742209707,"current_range_meters":7200,"station_id":"ce4bhnp2rcd13ifvqgvg","pricing_plan_id":"cebpf4jnsgd1na2vs0mg"},{"bike_id":"5c9b77d7-9fdd-48a9-b5f8-c559d8dd80d9","system_id":"levelo_inurba_marseille","lat":43.28153,"lon":5.42642,"is_reserved":false,"is_disabled":false,"rental_uris":{"android":"levelo://app?vid=5c9b77d7-9fdd-48a9-b5f8-c559d8dd80d9","ios":"levelo://app?vid=5c9b77d7-9fdd-48a9-b5f8-c559d8dd80d9"},"vehicle_type_id":"4","last_reported":1742209707,"current_range_meters":8000,"station_id":"ce4bhnh2rcd13ifvqgug","pricing_plan_id":"cebpf4jnsgd1na2vs0mg"},{"bike_id":"a31c8df7-fe0f-4a8b-bce2-dd8072b090f5","system_id":"levelo_inurba_marseille","lat":43.290916,"lon":5.381223,"is_reserved":false,"is_disabled":false,"rental_uris":{"android":"levelo://app?vid=a31c8df7-fe0f-4a8b-bce2-dd8072b090f5","ios":"levelo://app?vid=a31c8df7-fe0f-4a8b-bce2-dd8072b090f5"},"vehicle_type_id":"4","last_reported":1742209707,"current_range_meters":8000,"station_id":"ce4bh512rcd13ifvqe2g","pricing_plan_id":"cebpf4jnsgd1na2vs0mg"},{"bike_id":"f0f3f01c-2d4b-418c-84fb-3cadbf41eea8","system_id":"levelo_inurba_marseille","lat":43.26808,"lon":5.40246,"is_reserved":false,"is_disabled":false,"rental_uris":{"android":"levelo://app?vid=f0f3f01c-2d4b-418c-84fb-3cadbf41eea8","ios":"levelo://app?vid=f0f3f01c-2d4b-418c-84fb-3cadbf41eea8"},"vehicle_type_id":"4","last_reported":1742209707,"current_range_meters":8000,"station_id":"ce501612rcd8frsf0b60","pricing_plan_id":"cebpf4jnsgd1na2vs0mg"},{"bike_id":"da9720c8-5cf8-4ee2-93ae-21fc49ca79cc","system_id":"levelo_inurba_marseille","lat":43.30316,"lon":5.3921,"is_reserved":false,"is_disabled":false,"rental_uris":{"android":"levelo://app?vid=da9720c8-5cf8-4ee2-93ae-21fc49ca79cc","ios":"levelo://app?vid=da9720c8-5cf8-4ee2-93ae-21fc49ca79cc"},"vehicle_type_id":"4","last_reported":1742209707,"current_range_meters":8000,"station_id":"ce4bgkh2rcd13ifvqbk0","pricing_plan_id":"cebpf4jnsgd1na2vs0mg"},{"bike_id":"2bc8ba46-57be-41b6-914d-7a7ee4ef818e","system_id":"levelo_inurba_marseille","lat":43.29975,"lon":5.37183,"is_reserved":false,"is_disabled":false,"rental_uris":{"android":"levelo://app?vid=2bc8ba46-57be-41b6-914d-7a7ee4ef818e","ios":"levelo://app?vid=2bc8ba46-57be-41b6-914d-7a7ee4ef818e"},"vehicle_type_id":"4","last_reported":1742209707,"current_range_meters":10000,"station_id":"ce4bgr92rcd13ifvqc7g","pricing_plan_id":"cebpf4jnsgd1na2vs0mg"},{"bike_id":"2e93b8fd-3cc5-47fd-be6f-2a7e66fa1616","system_id":"levelo_inurba_marseille","lat":43.26587,"lon":5.39025,"is_reserved":false,"is_disabled":false,"rental_uris":{"android":"levelo://app?vid=2e93b8fd-3cc5-47fd-be6f-2a7e66fa1616","ios":"levelo://app?vid=2e93b8fd-3cc5-47fd-be6f-2a7e66fa1616"},"vehicle_type_id":"4","last_reported":1742209707,"current_range_meters":8000,"station_id":"ce4bhe12rcd13ifvqf30","pricing_plan_id":"cebpf4jnsgd1na2vs0mg"},{"bike_id":"18f33ae7-3acb-407d-a5a7-4c104a302f2a","system_id":"levelo_inurba_marseille","lat":43.2762,"lon":5.3611,"is_reserved":false,"is_disabled":false,"rental_uris":{"android":"levelo://app?vid=18f33ae7-3acb-407d-a5a7-4c104a302f2a","ios":"levelo://app?vid=18f33ae7-3acb-407d-a5a7-4c104a302f2a"},"vehicle_type_id":"4","last_reported":1742209707,"current_range_meters":8000,"station_id":"ce4bgj92rcd13ifvqbe0","pricing_plan_id":"cebpf4jnsgd1na2vs0mg"},{"bike_id":"a319148c-ba39-474b-8cc8-43eb9afd5254","system_id":"levelo_inurba_marseille","lat":43.25006,"lon":5.38913,"is_reserved":false,"is_disabled":false,"rental_uris":{"android":"levelo://app?vid=a319148c-ba39-474b-8cc8-43eb9afd5254","ios":"levelo://app?vid=a319148c-ba39-474b-8cc8-43eb9afd5254"},"vehicle_type_id":"4","last_reported":1742209707,"current_range_meters":8000,"station_id":"ce4bhgp2rcd13ifvqfd0","pricing_plan_id":"cebpf4jnsgd1na2vs0mg"},{"bike_id":"41d856e8-014d-42b4-85e9-2a0a980f469f","system_id":"levelo_inurba_marseille","lat":43.23208,"lon":5.35563,"is_reserved":false,"is_disabled":false,"rental_uris":{"android":"levelo://app?vid=41d856e8-014d-42b4-85e9-2a0a980f469f","ios":"levelo://app?vid=41d856e8-014d-42b4-85e9-2a0a980f469f"},"vehicle_type_id":"4","last_reported":1742209707,"current_range_meters":8400,"station_id":"ce4bhu92rcd13ifvqi70","pricing_plan_id":"cebpf4jnsgd1na2vs0mg"},{"bike_id":"d0c72963-c911-4808-beca-6b1e52dc1b75","system_id":"levelo_inurba_marseille","lat":43.31265,"lon":5.40153,"is_reserved":false,"is_disabled":false,"rental_uris":{"android":"levelo://app?vid=d0c72963-c911-4808-beca-6b1e52dc1b75","ios":"levelo://app?vid=d0c72963-c911-4808-beca-6b1e52dc1b75"},"vehicle_type_id":"4","last_reported":1742209707,"current_range_meters":8400,"station_id":"ce4bh092rcd13ifvqd30","pricing_plan_id":"cebpf4jnsgd1na2vs0mg"},{"bike_id":"6673e1dd-b2a0-4430-a3f2-280134dfa9f0","system_id":"levelo_inurba_marseille","lat":43.2467,"lon":5.38158,"is_reserved":false,"is_disabled":false,"rental_uris":{"android":"levelo://app?vid=6673e1dd-b2a0-4430-a3f2-280134dfa9f0","ios":"levelo://app?vid=6673e1dd-b2a0-4430-a3f2-280134dfa9f0"},"vehicle_type_id":"4","last_reported":1742209707,"current_range_meters":8400,"station_id":"ce4bhih2rcd13ifvqfr0","pricing_plan_id":"cebpf4jnsgd1na2vs0mg"},{"bike_id":"3953e3f9-aeea-46ae-a3e5-7c6e35621d9f","system_id":"levelo_inurba_marseille","lat":43.28603,"lon":5.37061,"is_reserved":false,"is_disabled":false,"rental_uris":{"android":"levelo://app?vid=3953e3f9-aeea-46ae-a3e5-7c6e35621d9f","ios":"levelo://app?vid=3953e3f9-aeea-46ae-a3e5-7c6e35621d9f"},"vehicle_type_id":"4","last_reported":1742209707,"current_range_meters":8400,"station_id":"ce4bht12rcd13ifvqi60","pricing_plan_id":"cebpf4jnsgd1na2vs0mg"},{"bike_id":"a8c8c1f0-a998-4767-9090-6c6fc8c99a5b","system_id":"levelo_inurba_marseille","lat":43.25019,"lon":5.38952,"is_reserved":false,"is_disabled":false,"rental_uris":{"android":"levelo://app?vid=a8c8c1f0-a998-4767-9090-6c6fc8c99a5b","ios":"levelo://app?vid=a8c8c1f0-a998-4767-9090-6c6fc8c99a5b"},"vehicle_type_id":"4","last_reported":1742209707,"current_range_meters":8400,"station_id":"ce4bhgp2rcd13ifvqfd0","pricing_plan_id":"cebpf4jnsgd1na2vs0mg"},{"bike_id":"1dc56abc-d35a-4122-afd5-5d4b98485b50","system_id":"levelo_inurba_marseille","lat":43.29874,"lon":5.3972,"is_reserved":false,"is_disabled":false,"rental_uris":{"android":"levelo://app?vid=1dc56abc-d35a-4122-afd5-5d4b98485b50","ios":"levelo://app?vid=1dc56abc-d35a-4122-afd5-5d4b98485b50"},"vehicle_type_id":"4","last_reported":1742209707,"current_range_meters":8400,"station_id":"ce4bh0h2rcd13ifvqd50","pricing_plan_id":"cebpf4jnsgd1na2vs0mg"},{"bike_id":"5d33eaec-1296-4b43-9487-41acf9e317d8","system_id":"levelo_inurba_marseille","lat":43.27492,"lon":5.42451,"is_reserved":false,"is_disabled":true,"rental_uris":{"android":"levelo://app?vid=5d33eaec-1296-4b43-9487-41acf9e317d8","ios":"levelo://app?vid=5d33eaec-1296-4b43-9487-41acf9e317d8"},"vehicle_type_id":"4","last_reported":1742209707,"current_range_meters":8400,"station_id":"ce4bhn92rcd13ifvqgrg","pricing_plan_id":"cebpf4jnsgd1na2vs0mg"},{"bike_id":"2e6c3038-6eb8-46ce-bd43-53f0733e5db9","system_id":"levelo_inurba_marseille","lat":43.32112,"lon":5.36759,"is_reserved":false,"is_disabled":false,"rental_uris":{"android":"levelo://app?vid=2e6c3038-6eb8-46ce-bd43-53f0733e5db9","ios":"levelo://app?vid=2e6c3038-6eb8-46ce-bd43-53f0733e5db9"},"vehicle_type_id":"4","last_reported":1742209707,"current_range_meters":8400,"station_id":"ce4bhrh2rcd13ifvqhug","pricing_plan_id":"cebpf4jnsgd1na2vs0mg"},{"bike_id":"5a61a616-683f-484d-83ae-d7f61143d634","system_id":"levelo_inurba_marseille","lat":43.29518,"lon":5.42482,"is_reserved":false,"is_disabled":false,"rental_uris":{"android":"levelo://app?vid=5a61a616-683f-484d-83ae-d7f61143d634","ios":"levelo://app?vid=5a61a616-683f-484d-83ae-d7f61143d634"},"vehicle_type_id":"4","last_reported":1742209707,"current_range_meters":8400,"station_id":"","pricing_plan_id":"cebpf4jnsgd1na2vs0mg"},{"bike_id":"9a7b26d5-0d7d-4651-9efe-a9b362edbea6","system_id":"levelo_inurba_marseille","lat":43.24665,"lon":5.38163,"is_reserved":false,"is_disabled":false,"rental_uris":{"android":"levelo://app?vid=9a7b26d5-0d7d-4651-9efe-a9b362edbea6","ios":"levelo://app?vid=9a7b26d5-0d7d-4651-9efe-a9b362edbea6"},"vehicle_type_id":"4","last_reported":1742209707,"current_range_meters":8400,"station_id":"ce4bhih2rcd13ifvqfr0","pricing_plan_id":"cebpf4jnsgd1na2vs0mg"},{"bike_id":"4fba65ae-ac17-497c-8ea8-0afbc1edf800","system_id":"levelo_inurba_marseille","lat":43.29868,"lon":5.39746,"is_reserved":false,"is_disabled":false,"rental_uris":{"android":"levelo://app?vid=4fba65ae-ac17-497c-8ea8-0afbc1edf800","ios":"levelo://app?vid=4fba65ae-ac17-497c-8ea8-0afbc1edf800"},"vehicle_type_id":"4","last_reported":1742209707,"current_range_meters":9600,"station_id":"ce4bh0h2rcd13ifvqd50","pricing_plan_id":"cebpf4jnsgd1na2vs0mg"},{"bike_id":"7fdaba83-9e71-4d79-962d-8e9bcb4ba61b","system_id":"levelo_inurba_marseille","lat":43.23194,"lon":5.35561,"is_reserved":false,"is_disabled":false,"rental_uris":{"android":"levelo://app?vid=7fdaba83-9e71-4d79-962d-8e9bcb4ba61b","ios":"levelo://app?vid=7fdaba83-9e71-4d79-962d-8e9bcb4ba61b"},"vehicle_type_id":"4","last_reported":1742209707,"current_range_meters":8400,"station_id":"ce4bhu92rcd13ifvqi70","pricing_plan_id":"cebpf4jnsgd1na2vs0mg"},{"bike_id":"10a5dfbf-3aa3-4cf3-ac17-cd4d12fd6782","system_id":"levelo_inurba_marseille","lat":43.32362,"lon":5.36745,"is_reserved":false,"is_disabled":false,"rental_uris":{"android":"levelo://app?vid=10a5dfbf-3aa3-4cf3-ac17-cd4d12fd6782","ios":"levelo://app?vid=10a5dfbf-3aa3-4cf3-ac17-cd4d12fd6782"},"vehicle_type_id":"4","last_reported":1742209707,"current_range_meters":8400,"station_id":"ce4bhsh2rcd13ifvqi2g","pricing_plan_id":"cebpf4jnsgd1na2vs0mg"},{"bike_id":"b12504a2-a649-4e69-8759-4dc56a1cd8bd","system_id":"levelo_inurba_marseille","lat":43.2793,"lon":5.38254,"is_reserved":false,"is_disabled":false,"rental_uris":{"android":"levelo://app?vid=b12504a2-a649-4e69-8759-4dc56a1cd8bd","ios":"levelo://app?vid=b12504a2-a649-4e69-8759-4dc56a1cd8bd"},"vehicle_type_id":"4","last_reported":1742209707,"current_range_meters":8400,"station_id":"","pricing_plan_id":"cebpf4jnsgd1na2vs0mg"},{"bike_id":"d6f33984-2a1d-45ad-b419-93446d1bd8ae","system_id":"levelo_inurba_marseille","lat":43.24661,"lon":5.38885,"is_reserved":false,"is_disabled":false,"rental_uris":{"android":"levelo://app?vid=d6f33984-2a1d-45ad-b419-93446d1bd8ae","ios":"levelo://app?vid=d6f33984-2a1d-45ad-b419-93446d1bd8ae"},"vehicle_type_id":"4","last_reported":1742209707,"current_range_meters":8400,"station_id":"ce4bhg12rcd13ifvqf60","pricing_plan_id":"cebpf4jnsgd1na2vs0mg"},{"bike_id":"49fea2c2-9361-4fb5-954f-b44bbf354e43","system_id":"levelo_inurba_marseille","lat":43.32354,"lon":5.36754,"is_reserved":false,"is_disabled":false,"rental_uris":{"android":"levelo://app?vid=49fea2c2-9361-4fb5-954f-b44bbf354e43","ios":"levelo://app?vid=49fea2c2-9361-4fb5-954f-b44bbf354e43"},"vehicle_type_id":"4","last_reported":1742209707,"current_range_meters":8400,"station_id":"ce4bhsh2rcd13ifvqi2g","pricing_plan_id":"cebpf4jnsgd1na2vs0mg"},{"bike_id":"48a9c9b3-bf85-49d0-80aa-f26eb84ba59b","system_id":"levelo_inurba_marseille","lat":43.29046,"lon":5.39928,"is_reserved":false,"is_disabled":true,"rental_uris":{"android":"levelo://app?vid=48a9c9b3-bf85-49d0-80aa-f26eb84ba59b","ios":"levelo://app?vid=48a9c9b3-bf85-49d0-80aa-f26eb84ba59b"},"vehicle_type_id":"4","last_reported":1742209707,"current_range_meters":8800,"station_id":"ce4bh392rcd13ifvqdm0","pricing_plan_id":"cebpf4jnsgd1na2vs0mg"},{"bike_id":"e292f972-6a18-423d-adc0-1431f7960fd2","system_id":"levelo_inurba_marseille","lat":43.2789,"lon":5.38013,"is_reserved":false,"is_disabled":false,"rental_uris":{"android":"levelo://app?vid=e292f972-6a18-423d-adc0-1431f7960fd2","ios":"levelo://app?vid=e292f972-6a18-423d-adc0-1431f7960fd2"},"vehicle_type_id":"4","last_reported":1742209707,"current_range_meters":8800,"station_id":"ce4bhf92rcd13ifvqf50","pricing_plan_id":"cebpf4jnsgd1na2vs0mg"},{"bike_id":"eef80c9f-577a-43fa-b2bc-a1ab8e7f41f0","system_id":"levelo_inurba_marseille","lat":43.23158,"lon":5.43707,"is_reserved":false,"is_disabled":false,"rental_uris":{"android":"levelo://app?vid=eef80c9f-577a-43fa-b2bc-a1ab8e7f41f0","ios":"levelo://app?vid=eef80c9f-577a-43fa-b2bc-a1ab8e7f41f0"},"vehicle_type_id":"4","last_reported":1742209707,"current_range_meters":8800,"station_id":"ce4bhmp2rcd13ifvqgog","pricing_plan_id":"cebpf4jnsgd1na2vs0mg"},{"bike_id":"d6cd0df4-ca0d-407c-ac60-8420479f0dd1","system_id":"levelo_inurba_marseille","lat":43.23069,"lon":5.35495,"is_reserved":false,"is_disabled":false,"rental_uris":{"android":"levelo://app?vid=d6cd0df4-ca0d-407c-ac60-8420479f0dd1","ios":"levelo://app?vid=d6cd0df4-ca0d-407c-ac60-8420479f0dd1"},"vehicle_type_id":"4","last_reported":1742209707,"current_range_meters":8800,"station_id":"cpo3342slgdg3j2ifvpg","pricing_plan_id":"cebpf4jnsgd1na2vs0mg"},{"bike_id":"502a3b3e-8957-45c1-a4dd-1cb7cf5ee2e2","system_id":"levelo_inurba_marseille","lat":43.32106,"lon":5.36769,"is_reserved":false,"is_disabled":false,"rental_uris":{"android":"levelo://app?vid=502a3b3e-8957-45c1-a4dd-1cb7cf5ee2e2","ios":"levelo://app?vid=502a3b3e-8957-45c1-a4dd-1cb7cf5ee2e2"},"vehicle_type_id":"4","last_reported":1742209707,"current_range_meters":8800,"station_id":"ce4bhrh2rcd13ifvqhug","pricing_plan_id":"cebpf4jnsgd1na2vs0mg"},{"bike_id":"9d1715a5-b022-4009-b333-a7ad5a53f034","system_id":"levelo_inurba_marseille","lat":43.29035,"lon":5.3865,"is_reserved":false,"is_disabled":false,"rental_uris":{"android":"levelo://app?vid=9d1715a5-b022-4009-b333-a7ad5a53f034","ios":"levelo://app?vid=9d1715a5-b022-4009-b333-a7ad5a53f034"},"vehicle_type_id":"4","last_reported":1742209707,"current_range_meters":8800,"station_id":"ce4bh4p2rcd13ifvqe0g","pricing_plan_id":"cebpf4jnsgd1na2vs0mg"},{"bike_id":"25dcf3f4-2d7f-4982-b233-f28c5d07c936","system_id":"levelo_inurba_marseille","lat":43.27205,"lon":5.39179,"is_reserved":false,"is_disabled":false,"rental_uris":{"android":"levelo://app?vid=25dcf3f4-2d7f-4982-b233-f28c5d07c936","ios":"levelo://app?vid=25dcf3f4-2d7f-4982-b233-f28c5d07c936"},"vehicle_type_id":"4","last_reported":1742209707,"current_range_meters":8800,"station_id":"ce4bhhp2rcd13ifvqfm0","pricing_plan_id":"cebpf4jnsgd1na2vs0mg"},{"bike_id":"cbb8a982-e432-41b2-ac3e-aabd84caab0b","system_id":"levelo_inurba_marseille","lat":43.24672,"lon":5.38156,"is_reserved":false,"is_disabled":false,"rental_uris":{"android":"levelo://app?vid=cbb8a982-e432-41b2-ac3e-aabd84caab0b","ios":"levelo://app?vid=cbb8a982-e432-41b2-ac3e-aabd84caab0b"},"vehicle_type_id":"4","last_reported":1742209707,"current_range_meters":8800,"station_id":"ce4bhih2rcd13ifvqfr0","pricing_plan_id":"cebpf4jnsgd1na2vs0mg"},{"bike_id":"d8d62daf-f599-4a17-b31d-d4ed524effe7","system_id":"levelo_inurba_marseille","lat":43.28984,"lon":5.37847,"is_reserved":false,"is_disabled":false,"rental_uris":{"android":"levelo://app?vid=d8d62daf-f599-4a17-b31d-d4ed524effe7","ios":"levelo://app?vid=d8d62daf-f599-4a17-b31d-d4ed524effe7"},"vehicle_type_id":"4","last_reported":1742209707,"current_range_meters":8800,"station_id":"ce4bh9p2rcd13ifvqed0","pricing_plan_id":"cebpf4jnsgd1na2vs0mg"},{"bike_id":"c551f2e0-5f8e-4cc9-9464-06b9d0710638","system_id":"levelo_inurba_marseille","lat":43.23163,"lon":5.43706,"is_reserved":false,"is_disabled":false,"rental_uris":{"android":"levelo://app?vid=c551f2e0-5f8e-4cc9-9464-06b9d0710638","ios":"levelo://app?vid=c551f2e0-5f8e-4cc9-9464-06b9d0710638"},"vehicle_type_id":"4","last_reported":1742209707,"current_range_meters":9200,"station_id":"ce4bhmp2rcd13ifvqgog","pricing_plan_id":"cebpf4jnsgd1na2vs0mg"},{"bike_id":"ad85b417-eae8-4211-9daa-e6a455b825e7","system_id":"levelo_inurba_marseille","lat":43.31237,"lon":5.36841,"is_reserved":false,"is_disabled":false,"rental_uris":{"android":"levelo://app?vid=ad85b417-eae8-4211-9daa-e6a455b825e7","ios":"levelo://app?vid=ad85b417-eae8-4211-9daa-e6a455b825e7"},"vehicle_type_id":"4","last_reported":1742209707,"current_range_meters":9200,"station_id":"ce4bgl92rcd13ifvqbq0","pricing_plan_id":"cebpf4jnsgd1na2vs0mg"},{"bike_id":"8711a3e0-044d-436f-a826-02c91cdc271c","system_id":"levelo_inurba_marseille","lat":43.24547,"lon":5.39519,"is_reserved":false,"is_disabled":false,"rental_uris":{"android":"levelo://app?vid=8711a3e0-044d-436f-a826-02c91cdc271c","ios":"levelo://app?vid=8711a3e0-044d-436f-a826-02c91cdc271c"},"vehicle_type_id":"4","last_reported":1742209707,"current_range_meters":9200,"station_id":"ce4bhlp2rcd13ifvqgjg","pricing_plan_id":"cebpf4jnsgd1na2vs0mg"},{"bike_id":"f864fa5e-b9f7-4d5d-951c-d469c9398aee","system_id":"levelo_inurba_marseille","lat":43.24662,"lon":5.38151,"is_reserved":false,"is_disabled":false,"rental_uris":{"android":"levelo://app?vid=f864fa5e-b9f7-4d5d-951c-d469c9398aee","ios":"levelo://app?vid=f864fa5e-b9f7-4d5d-951c-d469c9398aee"},"vehicle_type_id":"4","last_reported":1742209707,"current_range_meters":9200,"station_id":"ce4bhih2rcd13ifvqfr0","pricing_plan_id":"cebpf4jnsgd1na2vs0mg"},{"bike_id":"c7f8452f-9cc0-4827-a61e-fe5e0ea51505","system_id":"levelo_inurba_marseille","lat":43.3016,"lon":5.38069,"is_reserved":false,"is_disabled":false,"rental_uris":{"android":"levelo://app?vid=c7f8452f-9cc0-4827-a61e-fe5e0ea51505","ios":"levelo://app?vid=c7f8452f-9cc0-4827-a61e-fe5e0ea51505"},"vehicle_type_id":"4","last_reported":1742209707,"current_range_meters":9200,"station_id":"ce4bgjp2rcd13ifvqbh0","pricing_plan_id":"cebpf4jnsgd1na2vs0mg"},{"bike_id":"a0226cb6-2cfc-439f-8908-87824371f5c4","system_id":"levelo_inurba_marseille","lat":43.27042,"lon":5.42247,"is_reserved":false,"is_disabled":false,"rental_uris":{"android":"levelo://app?vid=a0226cb6-2cfc-439f-8908-87824371f5c4","ios":"levelo://app?vid=a0226cb6-2cfc-439f-8908-87824371f5c4"},"vehicle_type_id":"4","last_reported":1742209707,"current_range_meters":9200,"station_id":"ce4bhk92rcd13ifvqgb0","pricing_plan_id":"cebpf4jnsgd1na2vs0mg"},{"bike_id":"75d2ff92-0375-4a78-9682-c6a519ae0b25","system_id":"levelo_inurba_marseille","lat":43.3019,"lon":5.36615,"is_reserved":false,"is_disabled":false,"rental_uris":{"android":"levelo://app?vid=75d2ff92-0375-4a78-9682-c6a519ae0b25","ios":"levelo://app?vid=75d2ff92-0375-4a78-9682-c6a519ae0b25"},"vehicle_type_id":"4","last_reported":1742209707,"current_range_meters":9200,"station_id":"ce4bgrh2rcd13ifvqc8g","pricing_plan_id":"cebpf4jnsgd1na2vs0mg"},{"bike_id":"ea3faa2e-2727-4cd3-a354-57574da4893b","system_id":"levelo_inurba_marseille","lat":43.24168,"lon":5.364,"is_reserved":false,"is_disabled":false,"rental_uris":{"android":"levelo://app?vid=ea3faa2e-2727-4cd3-a354-57574da4893b","ios":"levelo://app?vid=ea3faa2e-2727-4cd3-a354-57574da4893b"},"vehicle_type_id":"4","last_reported":1742209707,"current_range_meters":9200,"station_id":"cpo36qri1sfpv3e86is0","pricing_plan_id":"cebpf4jnsgd1na2vs0mg"},{"bike_id":"e39aff96-0142-46d0-807b-703830dfcf78","system_id":"levelo_inurba_marseille","lat":43.286136,"lon":5.35108,"is_reserved":false,"is_disabled":true,"rental_uris":{"android":"levelo://app?vid=e39aff96-0142-46d0-807b-703830dfcf78","ios":"levelo://app?vid=e39aff96-0142-46d0-807b-703830dfcf78"},"vehicle_type_id":"4","last_reported":1742209707,"current_range_meters":9200,"station_id":"","pricing_plan_id":"cebpf4jnsgd1na2vs0mg"},{"bike_id":"db819791-27c1-48de-91ad-79208088cf91","system_id":"levelo_inurba_marseille","lat":43.23194,"lon":5.39975,"is_reserved":false,"is_disabled":false,"rental_uris":{"android":"levelo://app?vid=db819791-27c1-48de-91ad-79208088cf91","ios":"levelo://app?vid=db819791-27c1-48de-91ad-79208088cf91"},"vehicle_type_id":"4","last_reported":1742209707,"current_range_meters":9200,"station_id":"ce4bhn12rcd13ifvqgqg","pricing_plan_id":"cebpf4jnsgd1na2vs0mg"},{"bike_id":"3ebd1dc8-a44d-4161-b4c5-71c3657e5dab","system_id":"levelo_inurba_marseille","lat":43.26219,"lon":5.37431,"is_reserved":false,"is_disabled":false,"rental_uris":{"android":"levelo://app?vid=3ebd1dc8-a44d-4161-b4c5-71c3657e5dab","ios":"levelo://app?vid=3ebd1dc8-a44d-4161-b4c5-71c3657e5dab"},"vehicle_type_id":"4","last_reported":1742209707,"current_range_meters":9600,"station_id":"ce4bhgp2rcd13ifvqfc0","pricing_plan_id":"cebpf4jnsgd1na2vs0mg"},{"bike_id":"e780d8bb-7fae-442e-90ed-61bbb93fc0ee","system_id":"levelo_inurba_marseille","lat":43.26219,"lon":5.37441,"is_reserved":false,"is_disabled":false,"rental_uris":{"android":"levelo://app?vid=e780d8bb-7fae-442e-90ed-61bbb93fc0ee","ios":"levelo://app?vid=e780d8bb-7fae-442e-90ed-61bbb93fc0ee"},"vehicle_type_id":"4","last_reported":1742209707,"current_range_meters":9600,"station_id":"ce4bhgp2rcd13ifvqfc0","pricing_plan_id":"cebpf4jnsgd1na2vs0mg"},{"bike_id":"78e32fc4-d9a1-4f2f-a02b-0b8c25d49e2c","system_id":"levelo_inurba_marseille","lat":43.29032,"lon":5.37559,"is_reserved":false,"is_disabled":false,"rental_uris":{"android":"levelo://app?vid=78e32fc4-d9a1-4f2f-a02b-0b8c25d49e2c","ios":"levelo://app?vid=78e32fc4-d9a1-4f2f-a02b-0b8c25d49e2c"},"vehicle_type_id":"4","last_reported":1742209707,"current_range_meters":9600,"station_id":"ce4bh692rcd13ifvqe90","pricing_plan_id":"cebpf4jnsgd1na2vs0mg"},{"bike_id":"13e278b3-c9cb-4550-ad8b-8b4c511558ae","system_id":"levelo_inurba_marseille","lat":43.27455,"lon":5.40883,"is_reserved":false,"is_disabled":false,"rental_uris":{"android":"levelo://app?vid=13e278b3-c9cb-4550-ad8b-8b4c511558ae","ios":"levelo://app?vid=13e278b3-c9cb-4550-ad8b-8b4c511558ae"},"vehicle_type_id":"4","last_reported":1742209707,"current_range_meters":9600,"station_id":"","pricing_plan_id":"cebpf4jnsgd1na2vs0mg"},{"bike_id":"4ba9aef4-c0df-45f8-af35-3e67b1ba2b78","system_id":"levelo_inurba_marseille","lat":43.25928,"lon":5.40869,"is_reserved":false,"is_disabled":false,"rental_uris":{"android":"levelo://app?vid=4ba9aef4-c0df-45f8-af35-3e67b1ba2b78","ios":"levelo://app?vid=4ba9aef4-c0df-45f8-af35-3e67b1ba2b78"},"vehicle_type_id":"4","last_reported":1742209707,"current_range_meters":9600,"station_id":"ce4bhm92rcd13ifvqglg","pricing_plan_id":"cebpf4jnsgd1na2vs0mg"},{"bike_id":"a03e208e-94c1-4a5f-9d61-9150c74ebe8c","system_id":"levelo_inurba_marseille","lat":43.32349,"lon":5.36756,"is_reserved":false,"is_disabled":false,"rental_uris":{"android":"levelo://app?vid=a03e208e-94c1-4a5f-9d61-9150c74ebe8c","ios":"levelo://app?vid=a03e208e-94c1-4a5f-9d61-9150c74ebe8c"},"vehicle_type_id":"4","last_reported":1742209707,"current_range_meters":9600,"station_id":"ce4bhsh2rcd13ifvqi2g","pricing_plan_id":"cebpf4jnsgd1na2vs0mg"},{"bike_id":"dba0ecfc-0bb7-4670-ab8e-e4c122a8d90e","system_id":"levelo_inurba_marseille","lat":43.27622,"lon":5.42482,"is_reserved":false,"is_disabled":false,"rental_uris":{"android":"levelo://app?vid=dba0ecfc-0bb7-4670-ab8e-e4c122a8d90e","ios":"levelo://app?vid=dba0ecfc-0bb7-4670-ab8e-e4c122a8d90e"},"vehicle_type_id":"4","last_reported":1742209707,"current_range_meters":9600,"station_id":"","pricing_plan_id":"cebpf4jnsgd1na2vs0mg"},{"bike_id":"19452eed-d82c-486d-9e09-02ab2b36db5b","system_id":"levelo_inurba_marseille","lat":43.29265,"lon":5.40899,"is_reserved":false,"is_disabled":false,"rental_uris":{"android":"levelo://app?vid=19452eed-d82c-486d-9e09-02ab2b36db5b","ios":"levelo://app?vid=19452eed-d82c-486d-9e09-02ab2b36db5b"},"vehicle_type_id":"4","last_reported":1742209707,"current_range_meters":10000,"station_id":"ce4bh192rcd13ifvqdc0","pricing_plan_id":"cebpf4jnsgd1na2vs0mg"},{"bike_id":"fb74e021-9694-47bb-8608-b0285f32befa","system_id":"levelo_inurba_marseille","lat":43.2317,"lon":5.43697,"is_reserved":false,"is_disabled":false,"rental_uris":{"android":"levelo://app?vid=fb74e021-9694-47bb-8608-b0285f32befa","ios":"levelo://app?vid=fb74e021-9694-47bb-8608-b0285f32befa"},"vehicle_type_id":"4","last_reported":1742209707,"current_range_meters":10000,"station_id":"ce4bhmp2rcd13ifvqgog","pricing_plan_id":"cebpf4jnsgd1na2vs0mg"},{"bike_id":"a80b708e-9960-477b-bb7d-a21f3fdfea6d","system_id":"levelo_inurba_marseille","lat":43.23193,"lon":5.39975,"is_reserved":false,"is_disabled":false,"rental_uris":{"android":"levelo://app?vid=a80b708e-9960-477b-bb7d-a21f3fdfea6d","ios":"levelo://app?vid=a80b708e-9960-477b-bb7d-a21f3fdfea6d"},"vehicle_type_id":"4","last_reported":1742209707,"current_range_meters":10000,"station_id":"ce4bhn12rcd13ifvqgqg","pricing_plan_id":"cebpf4jnsgd1na2vs0mg"},{"bike_id":"607b9e25-1410-4db6-90a4-6ec685303db3","system_id":"levelo_inurba_marseille","lat":43.30546,"lon":5.3653,"is_reserved":false,"is_disabled":false,"rental_uris":{"android":"levelo://app?vid=607b9e25-1410-4db6-90a4-6ec685303db3","ios":"levelo://app?vid=607b9e25-1410-4db6-90a4-6ec685303db3"},"vehicle_type_id":"4","last_reported":1742209707,"current_range_meters":10000,"station_id":"ce4bgs12rcd13ifvqcag","pricing_plan_id":"cebpf4jnsgd1na2vs0mg"},{"bike_id":"0dba11c1-db3c-4349-bd60-4c1ec38c51b3","system_id":"levelo_inurba_marseille","lat":43.23212,"lon":5.3555,"is_reserved":false,"is_disabled":false,"rental_uris":{"android":"levelo://app?vid=0dba11c1-db3c-4349-bd60-4c1ec38c51b3","ios":"levelo://app?vid=0dba11c1-db3c-4349-bd60-4c1ec38c51b3"},"vehicle_type_id":"4","last_reported":1742209707,"current_range_meters":10000,"station_id":"ce4bhu92rcd13ifvqi70","pricing_plan_id":"cebpf4jnsgd1na2vs0mg"},{"bike_id":"024afde3-4c7e-4c72-9b6e-ff99a57526a9","system_id":"levelo_inurba_marseille","lat":43.23063,"lon":5.35497,"is_reserved":false,"is_disabled":false,"rental_uris":{"android":"levelo://app?vid=024afde3-4c7e-4c72-9b6e-ff99a57526a9","ios":"levelo://app?vid=024afde3-4c7e-4c72-9b6e-ff99a57526a9"},"vehicle_type_id":"4","last_reported":1742209707,"current_range_meters":10000,"station_id":"cpo3342slgdg3j2ifvpg","pricing_plan_id":"cebpf4jnsgd1na2vs0mg"},{"bike_id":"840483eb-dec7-490f-b669-ee3773ac063c","system_id":"levelo_inurba_marseille","lat":43.29276,"lon":5.36846,"is_reserved":false,"is_disabled":false,"rental_uris":{"android":"levelo://app?vid=840483eb-dec7-490f-b669-ee3773ac063c","ios":"levelo://app?vid=840483eb-dec7-490f-b669-ee3773ac063c"},"vehicle_type_id":"4","last_reported":1742209707,"current_range_meters":10000,"station_id":"ce4bhbp2rcd13ifvqesg","pricing_plan_id":"cebpf4jnsgd1na2vs0mg"},{"bike_id":"5a4a7d35-0ef8-41e9-9195-6b8c171d9e40","system_id":"levelo_inurba_marseille","lat":43.25924,"lon":5.40852,"is_reserved":false,"is_disabled":false,"rental_uris":{"android":"levelo://app?vid=5a4a7d35-0ef8-41e9-9195-6b8c171d9e40","ios":"levelo://app?vid=5a4a7d35-0ef8-41e9-9195-6b8c171d9e40"},"vehicle_type_id":"4","last_reported":1742209707,"current_range_meters":10000,"station_id":"ce4bhm92rcd13ifvqglg","pricing_plan_id":"cebpf4jnsgd1na2vs0mg"},{"bike_id":"acae015a-47e9-488b-96c7-da5370995513","system_id":"levelo_inurba_marseille","lat":43.23203,"lon":5.35565,"is_reserved":false,"is_disabled":false,"rental_uris":{"android":"levelo://app?vid=acae015a-47e9-488b-96c7-da5370995513","ios":"levelo://app?vid=acae015a-47e9-488b-96c7-da5370995513"},"vehicle_type_id":"4","last_reported":1742209707,"current_range_meters":10000,"station_id":"ce4bhu92rcd13ifvqi70","pricing_plan_id":"cebpf4jnsgd1na2vs0mg"},{"bike_id":"f6ea2adf-076d-4022-9ca9-c0c59511cfd5","system_id":"levelo_inurba_marseille","lat":43.23211,"lon":5.35553,"is_reserved":false,"is_disabled":false,"rental_uris":{"android":"levelo://app?vid=f6ea2adf-076d-4022-9ca9-c0c59511cfd5","ios":"levelo://app?vid=f6ea2adf-076d-4022-9ca9-c0c59511cfd5"},"vehicle_type_id":"4","last_reported":1742209707,"current_range_meters":10000,"station_id":"ce4bhu92rcd13ifvqi70","pricing_plan_id":"cebpf4jnsgd1na2vs0mg"},{"bike_id":"86b01c98-f8c5-4a21-b6ed-052e3afafd7f","system_id":"levelo_inurba_marseille","lat":43.30559,"lon":5.36703,"is_reserved":false,"is_disabled":false,"rental_uris":{"android":"levelo://app?vid=86b01c98-f8c5-4a21-b6ed-052e3afafd7f","ios":"levelo://app?vid=86b01c98-f8c5-4a21-b6ed-052e3afafd7f"},"vehicle_type_id":"4","last_reported":1742209707,"current_range_meters":10000,"station_id":"ce4bgrp2rcd13ifvqc9g","pricing_plan_id":"cebpf4jnsgd1na2vs0mg"},{"bike_id":"af655c5a-dace-4140-b2e3-84620c025ca4","system_id":"levelo_inurba_marseille","lat":43.30928,"lon":5.36855,"is_reserved":false,"is_disabled":false,"rental_uris":{"android":"levelo://app?vid=af655c5a-dace-4140-b2e3-84620c025ca4","ios":"levelo://app?vid=af655c5a-dace-4140-b2e3-84620c025ca4"},"vehicle_type_id":"4","last_reported":1742209707,"current_range_meters":10000,"station_id":"ce4bgn92rcd13ifvqbvg","pricing_plan_id":"cebpf4jnsgd1na2vs0mg"},{"bike_id":"8582a594-232f-4ecd-9ce1-980b2fb12fee","system_id":"levelo_inurba_marseille","lat":43.29553,"lon":5.42277,"is_reserved":false,"is_disabled":false,"rental_uris":{"android":"levelo://app?vid=8582a594-232f-4ecd-9ce1-980b2fb12fee","ios":"levelo://app?vid=8582a594-232f-4ecd-9ce1-980b2fb12fee"},"vehicle_type_id":"4","last_reported":1742209707,"current_range_meters":10000,"station_id":"ce4bhph2rcd13ifvqhdg","pricing_plan_id":"cebpf4jnsgd1na2vs0mg"},{"bike_id":"56bf2e5f-7ec5-4839-81d4-dd8b7d9c4908","system_id":"levelo_inurba_marseille","lat":43.29565,"lon":5.42251,"is_reserved":false,"is_disabled":false,"rental_uris":{"android":"levelo://app?vid=56bf2e5f-7ec5-4839-81d4-dd8b7d9c4908","ios":"levelo://app?vid=56bf2e5f-7ec5-4839-81d4-dd8b7d9c4908"},"vehicle_type_id":"4","last_reported":1742209707,"current_range_meters":10000,"station_id":"ce4bhph2rcd13ifvqhdg","pricing_plan_id":"cebpf4jnsgd1na2vs0mg"},{"bike_id":"3438af4c-07ed-4279-a86e-c0808dc0dce5","system_id":"levelo_inurba_marseille","lat":43.27685,"lon":5.38921,"is_reserved":false,"is_disabled":false,"rental_uris":{"android":"levelo://app?vid=3438af4c-07ed-4279-a86e-c0808dc0dce5","ios":"levelo://app?vid=3438af4c-07ed-4279-a86e-c0808dc0dce5"},"vehicle_type_id":"4","last_reported":1742209707,"current_range_meters":10000,"station_id":"ce4bhi12rcd13ifvqfo0","pricing_plan_id":"cebpf4jnsgd1na2vs0mg"},{"bike_id":"a4e011c7-6f19-4681-84ea-4262f143037e","system_id":"levelo_inurba_marseille","lat":43.32365,"lon":5.36758,"is_reserved":false,"is_disabled":false,"rental_uris":{"android":"levelo://app?vid=a4e011c7-6f19-4681-84ea-4262f143037e","ios":"levelo://app?vid=a4e011c7-6f19-4681-84ea-4262f143037e"},"vehicle_type_id":"4","last_reported":1742209707,"current_range_meters":10000,"station_id":"ce4bhsh2rcd13ifvqi2g","pricing_plan_id":"cebpf4jnsgd1na2vs0mg"},{"bike_id":"38618b82-5670-4d0a-a309-c3eb5cfbba6a","system_id":"levelo_inurba_marseille","lat":43.30774,"lon":5.37646,"is_reserved":false,"is_disabled":false,"rental_uris":{"android":"levelo://app?vid=38618b82-5670-4d0a-a309-c3eb5cfbba6a","ios":"levelo://app?vid=38618b82-5670-4d0a-a309-c3eb5cfbba6a"},"vehicle_type_id":"4","last_reported":1742209707,"current_range_meters":10000,"station_id":"ce4bgv92rcd13ifvqcq0","pricing_plan_id":"cebpf4jnsgd1na2vs0mg"},{"bike_id":"670fcef4-37f1-428a-9d7b-52bd5da45908","system_id":"levelo_inurba_marseille","lat":43.263814,"lon":5.396099,"is_reserved":false,"is_disabled":false,"rental_uris":{"android":"levelo://app?vid=670fcef4-37f1-428a-9d7b-52bd5da45908","ios":"levelo://app?vid=670fcef4-37f1-428a-9d7b-52bd5da45908"},"vehicle_type_id":"4","last_reported":1742209707,"current_range_meters":10000,"station_id":"ce4bhl92rcd13ifvqghg","pricing_plan_id":"cebpf4jnsgd1na2vs0mg"},{"bike_id":"219c6099-376e-4283-9795-5f76c4cfbd44","system_id":"levelo_inurba_marseille","lat":43.2499,"lon":5.38938,"is_reserved":false,"is_disabled":false,"rental_uris":{"android":"levelo://app?vid=219c6099-376e-4283-9795-5f76c4cfbd44","ios":"levelo://app?vid=219c6099-376e-4283-9795-5f76c4cfbd44"},"vehicle_type_id":"4","last_reported":1742209707,"current_range_meters":10800,"station_id":"ce4bhgp2rcd13ifvqfd0","pricing_plan_id":"cebpf4jnsgd1na2vs0mg"},{"bike_id":"c8cbded7-6ffd-4d7f-a814-f3b7094bdaf5","system_id":"levelo_inurba_marseille","lat":43.31865,"lon":5.40727,"is_reserved":false,"is_disabled":true,"rental_uris":{"android":"levelo://app?vid=c8cbded7-6ffd-4d7f-a814-f3b7094bdaf5","ios":"levelo://app?vid=c8cbded7-6ffd-4d7f-a814-f3b7094bdaf5"},"vehicle_type_id":"4","last_reported":1742209707,"current_range_meters":10800,"station_id":"ce4bhq12rcd13ifvqhig","pricing_plan_id":"cebpf4jnsgd1na2vs0mg"},{"bike_id":"74401fa7-4ae7-4791-8ba6-182ee255bba0","system_id":"levelo_inurba_marseille","lat":43.295367,"lon":5.393471,"is_reserved":false,"is_disabled":false,"rental_uris":{"android":"levelo://app?vid=74401fa7-4ae7-4791-8ba6-182ee255bba0","ios":"levelo://app?vid=74401fa7-4ae7-4791-8ba6-182ee255bba0"},"vehicle_type_id":"4","last_reported":1742209707,"current_range_meters":12400,"station_id":"ce4bh012rcd13ifvqcv0","pricing_plan_id":"cebpf4jnsgd1na2vs0mg"},{"bike_id":"2f42e19e-22f1-4965-ad6e-662af5324e76","system_id":"levelo_inurba_marseille","lat":43.23201,"lon":5.35552,"is_reserved":false,"is_disabled":false,"rental_uris":{"android":"levelo://app?vid=2f42e19e-22f1-4965-ad6e-662af5324e76","ios":"levelo://app?vid=2f42e19e-22f1-4965-ad6e-662af5324e76"},"vehicle_type_id":"4","last_reported":1742209707,"current_range_meters":10800,"station_id":"ce4bhu92rcd13ifvqi70","pricing_plan_id":"cebpf4jnsgd1na2vs0mg"},{"bike_id":"d951c0f0-48c4-4d5a-b572-6dce375ca5c9","system_id":"levelo_inurba_marseille","lat":43.31186,"lon":5.38709,"is_reserved":false,"is_disabled":false,"rental_uris":{"android":"levelo://app?vid=d951c0f0-48c4-4d5a-b572-6dce375ca5c9","ios":"levelo://app?vid=d951c0f0-48c4-4d5a-b572-6dce375ca5c9"},"vehicle_type_id":"4","last_reported":1742209707,"current_range_meters":10800,"station_id":"ce4bgv12rcd13ifvqcp0","pricing_plan_id":"cebpf4jnsgd1na2vs0mg"},{"bike_id":"041a4532-a2c8-4348-9615-ead03c0a371f","system_id":"levelo_inurba_marseille","lat":43.28694,"lon":5.37404,"is_reserved":false,"is_disabled":true,"rental_uris":{"android":"levelo://app?vid=041a4532-a2c8-4348-9615-ead03c0a371f","ios":"levelo://app?vid=041a4532-a2c8-4348-9615-ead03c0a371f"},"vehicle_type_id":"4","last_reported":1742209707,"current_range_meters":10800,"station_id":"ce4bh3p2rcd13ifvqdq0","pricing_plan_id":"cebpf4jnsgd1na2vs0mg"},{"bike_id":"52fb90d6-1744-408d-9f2a-829d92ec9362","system_id":"levelo_inurba_marseille","lat":43.27224,"lon":5.39158,"is_reserved":false,"is_disabled":false,"rental_uris":{"android":"levelo://app?vid=52fb90d6-1744-408d-9f2a-829d92ec9362","ios":"levelo://app?vid=52fb90d6-1744-408d-9f2a-829d92ec9362"},"vehicle_type_id":"4","last_reported":1742209707,"current_range_meters":10800,"station_id":"ce4bhhp2rcd13ifvqfm0","pricing_plan_id":"cebpf4jnsgd1na2vs0mg"},{"bike_id":"c8ba958c-bebb-41b9-abb3-6b02e2a001c7","system_id":"levelo_inurba_marseille","lat":43.25954,"lon":5.40906,"is_reserved":false,"is_disabled":false,"rental_uris":{"android":"levelo://app?vid=c8ba958c-bebb-41b9-abb3-6b02e2a001c7","ios":"levelo://app?vid=c8ba958c-bebb-41b9-abb3-6b02e2a001c7"},"vehicle_type_id":"4","last_reported":1742209707,"current_range_meters":10800,"station_id":"ce4bhm92rcd13ifvqglg","pricing_plan_id":"cebpf4jnsgd1na2vs0mg"},{"bike_id":"7acc4279-69b5-41b1-8403-92787e59644c","system_id":"levelo_inurba_marseille","lat":43.30189,"lon":5.36601,"is_reserved":false,"is_disabled":false,"rental_uris":{"android":"levelo://app?vid=7acc4279-69b5-41b1-8403-92787e59644c","ios":"levelo://app?vid=7acc4279-69b5-41b1-8403-92787e59644c"},"vehicle_type_id":"4","last_reported":1742209707,"current_range_meters":10800,"station_id":"ce4bgrh2rcd13ifvqc8g","pricing_plan_id":"cebpf4jnsgd1na2vs0mg"},{"bike_id":"a1a08c3d-ab62-4628-8617-9b2bb9a99937","system_id":"levelo_inurba_marseille","lat":43.25091,"lon":5.39535,"is_reserved":false,"is_disabled":false,"rental_uris":{"android":"levelo://app?vid=a1a08c3d-ab62-4628-8617-9b2bb9a99937","ios":"levelo://app?vid=a1a08c3d-ab62-4628-8617-9b2bb9a99937"},"vehicle_type_id":"4","last_reported":1742209707,"current_range_meters":11200,"station_id":"ce4bhm12rcd13ifvqgkg","pricing_plan_id":"cebpf4jnsgd1na2vs0mg"},{"bike_id":"66775860-3e67-48e7-8fda-3db2ea300130","system_id":"levelo_inurba_marseille","lat":43.2994,"lon":5.36527,"is_reserved":false,"is_disabled":false,"rental_uris":{"android":"levelo://app?vid=66775860-3e67-48e7-8fda-3db2ea300130","ios":"levelo://app?vid=66775860-3e67-48e7-8fda-3db2ea300130"},"vehicle_type_id":"4","last_reported":1742209707,"current_range_meters":11200,"station_id":"ce4bgm92rcd13ifvqbr0","pricing_plan_id":"cebpf4jnsgd1na2vs0mg"},{"bike_id":"0c8237b6-b887-4fb3-8bfc-d84cb8935c7a","system_id":"levelo_inurba_marseille","lat":43.28161,"lon":5.42632,"is_reserved":false,"is_disabled":false,"rental_uris":{"android":"levelo://app?vid=0c8237b6-b887-4fb3-8bfc-d84cb8935c7a","ios":"levelo://app?vid=0c8237b6-b887-4fb3-8bfc-d84cb8935c7a"},"vehicle_type_id":"4","last_reported":1742209707,"current_range_meters":11200,"station_id":"ce4bhnh2rcd13ifvqgug","pricing_plan_id":"cebpf4jnsgd1na2vs0mg"},{"bike_id":"882ffc5d-3d7c-4533-805d-8739914a99fb","system_id":"levelo_inurba_marseille","lat":43.336,"lon":5.4098,"is_reserved":false,"is_disabled":false,"rental_uris":{"android":"levelo://app?vid=882ffc5d-3d7c-4533-805d-8739914a99fb","ios":"levelo://app?vid=882ffc5d-3d7c-4533-805d-8739914a99fb"},"vehicle_type_id":"4","last_reported":1742209707,"current_range_meters":11200,"station_id":"ce4bhqh2rcd13ifvqhmg","pricing_plan_id":"cebpf4jnsgd1na2vs0mg"},{"bike_id":"fa9f40c2-336f-47a4-8b70-8b8bd23e80ca","system_id":"levelo_inurba_marseille","lat":43.24188,"lon":5.39732,"is_reserved":false,"is_disabled":false,"rental_uris":{"android":"levelo://app?vid=fa9f40c2-336f-47a4-8b70-8b8bd23e80ca","ios":"levelo://app?vid=fa9f40c2-336f-47a4-8b70-8b8bd23e80ca"},"vehicle_type_id":"4","last_reported":1742209707,"current_range_meters":11200,"station_id":"ce4bhn12rcd13ifvqgpg","pricing_plan_id":"cebpf4jnsgd1na2vs0mg"},{"bike_id":"8307e52f-1355-4b0c-bf04-068c1c54de69","system_id":"levelo_inurba_marseille","lat":43.24161,"lon":5.36398,"is_reserved":false,"is_disabled":false,"rental_uris":{"android":"levelo://app?vid=8307e52f-1355-4b0c-bf04-068c1c54de69","ios":"levelo://app?vid=8307e52f-1355-4b0c-bf04-068c1c54de69"},"vehicle_type_id":"4","last_reported":1742209707,"current_range_meters":11200,"station_id":"cpo36qri1sfpv3e86is0","pricing_plan_id":"cebpf4jnsgd1na2vs0mg"},{"bike_id":"11f03ce1-2c52-4525-b675-97e56ae51009","system_id":"levelo_inurba_marseille","lat":43.2593,"lon":5.40865,"is_reserved":false,"is_disabled":false,"rental_uris":{"android":"levelo://app?vid=11f03ce1-2c52-4525-b675-97e56ae51009","ios":"levelo://app?vid=11f03ce1-2c52-4525-b675-97e56ae51009"},"vehicle_type_id":"4","last_reported":1742209707,"current_range_meters":11200,"station_id":"ce4bhm92rcd13ifvqglg","pricing_plan_id":"cebpf4jnsgd1na2vs0mg"},{"bike_id":"f7ad7a38-c3ae-421d-99e0-1d34db5c0578","system_id":"levelo_inurba_marseille","lat":43.26683,"lon":5.38266,"is_reserved":false,"is_disabled":false,"rental_uris":{"android":"levelo://app?vid=f7ad7a38-c3ae-421d-99e0-1d34db5c0578","ios":"levelo://app?vid=f7ad7a38-c3ae-421d-99e0-1d34db5c0578"},"vehicle_type_id":"4","last_reported":1742209707,"current_range_meters":11200,"station_id":"ce4bhg92rcd13ifvqf90","pricing_plan_id":"cebpf4jnsgd1na2vs0mg"},{"bike_id":"85c95ef2-8542-4d3b-834f-149a81909ca9","system_id":"levelo_inurba_marseille","lat":43.30785,"lon":5.37656,"is_reserved":false,"is_disabled":false,"rental_uris":{"android":"levelo://app?vid=85c95ef2-8542-4d3b-834f-149a81909ca9","ios":"levelo://app?vid=85c95ef2-8542-4d3b-834f-149a81909ca9"},"vehicle_type_id":"4","last_reported":1742209707,"current_range_meters":11200,"station_id":"ce4bgv92rcd13ifvqcq0","pricing_plan_id":"cebpf4jnsgd1na2vs0mg"},{"bike_id":"aab95aeb-f5d4-4bef-bcdc-d835ba6c3583","system_id":"levelo_inurba_marseille","lat":43.23072,"lon":5.35486,"is_reserved":false,"is_disabled":false,"rental_uris":{"android":"levelo://app?vid=aab95aeb-f5d4-4bef-bcdc-d835ba6c3583","ios":"levelo://app?vid=aab95aeb-f5d4-4bef-bcdc-d835ba6c3583"},"vehicle_type_id":"4","last_reported":1742209707,"current_range_meters":11600,"station_id":"cpo3342slgdg3j2ifvpg","pricing_plan_id":"cebpf4jnsgd1na2vs0mg"},{"bike_id":"ea13bc02-153c-482f-a1d0-acce43406d9b","system_id":"levelo_inurba_marseille","lat":43.27904,"lon":5.38003,"is_reserved":false,"is_disabled":false,"rental_uris":{"android":"levelo://app?vid=ea13bc02-153c-482f-a1d0-acce43406d9b","ios":"levelo://app?vid=ea13bc02-153c-482f-a1d0-acce43406d9b"},"vehicle_type_id":"4","last_reported":1742209707,"current_range_meters":11600,"station_id":"ce4bhf92rcd13ifvqf50","pricing_plan_id":"cebpf4jnsgd1na2vs0mg"},{"bike_id":"f6d26e90-c8a6-4832-a1c5-767d58aee5bc","system_id":"levelo_inurba_marseille","lat":43.23154,"lon":5.43706,"is_reserved":false,"is_disabled":false,"rental_uris":{"android":"levelo://app?vid=f6d26e90-c8a6-4832-a1c5-767d58aee5bc","ios":"levelo://app?vid=f6d26e90-c8a6-4832-a1c5-767d58aee5bc"},"vehicle_type_id":"4","last_reported":1742209707,"current_range_meters":11600,"station_id":"ce4bhmp2rcd13ifvqgog","pricing_plan_id":"cebpf4jnsgd1na2vs0mg"},{"bike_id":"79a0ee71-5e27-4d0f-9128-c9d94a9316a9","system_id":"levelo_inurba_marseille","lat":43.24147,"lon":5.36417,"is_reserved":false,"is_disabled":false,"rental_uris":{"android":"levelo://app?vid=79a0ee71-5e27-4d0f-9128-c9d94a9316a9","ios":"levelo://app?vid=79a0ee71-5e27-4d0f-9128-c9d94a9316a9"},"vehicle_type_id":"4","last_reported":1742209707,"current_range_meters":11600,"station_id":"cpo36qri1sfpv3e86is0","pricing_plan_id":"cebpf4jnsgd1na2vs0mg"},{"bike_id":"ab390a76-0a57-4543-a76e-6d96e1e77958","system_id":"levelo_inurba_marseille","lat":43.23066,"lon":5.35507,"is_reserved":false,"is_disabled":false,"rental_uris":{"android":"levelo://app?vid=ab390a76-0a57-4543-a76e-6d96e1e77958","ios":"levelo://app?vid=ab390a76-0a57-4543-a76e-6d96e1e77958"},"vehicle_type_id":"4","last_reported":1742209707,"current_range_meters":11600,"station_id":"cpo3342slgdg3j2ifvpg","pricing_plan_id":"cebpf4jnsgd1na2vs0mg"},{"bike_id":"061c3eab-ebbd-4760-8917-2528d6e29cbc","system_id":"levelo_inurba_marseille","lat":43.27073,"lon":5.42273,"is_reserved":false,"is_disabled":true,"rental_uris":{"android":"levelo://app?vid=061c3eab-ebbd-4760-8917-2528d6e29cbc","ios":"levelo://app?vid=061c3eab-ebbd-4760-8917-2528d6e29cbc"},"vehicle_type_id":"4","last_reported":1742209707,"current_range_meters":11600,"station_id":"ce4bhk92rcd13ifvqgb0","pricing_plan_id":"cebpf4jnsgd1na2vs0mg"},{"bike_id":"22f91581-7b0f-401a-a74e-9ec8629443f4","system_id":"levelo_inurba_marseille","lat":43.2908,"lon":5.4235,"is_reserved":false,"is_disabled":false,"rental_uris":{"android":"levelo://app?vid=22f91581-7b0f-401a-a74e-9ec8629443f4","ios":"levelo://app?vid=22f91581-7b0f-401a-a74e-9ec8629443f4"},"vehicle_type_id":"4","last_reported":1742209707,"current_range_meters":11600,"station_id":"","pricing_plan_id":"cebpf4jnsgd1na2vs0mg"},{"bike_id":"f93f0d14-91b9-41fc-a4f1-6134ed03420c","system_id":"levelo_inurba_marseille","lat":43.29722,"lon":5.36621,"is_reserved":false,"is_disabled":false,"rental_uris":{"android":"levelo://app?vid=f93f0d14-91b9-41fc-a4f1-6134ed03420c","ios":"levelo://app?vid=f93f0d14-91b9-41fc-a4f1-6134ed03420c"},"vehicle_type_id":"4","last_reported":1742209707,"current_range_meters":11600,"station_id":"ce4bgn12rcd13ifvqbt0","pricing_plan_id":"cebpf4jnsgd1na2vs0mg"},{"bike_id":"a110c3e8-a146-4d68-a9ad-64c5ddcb51fe","system_id":"levelo_inurba_marseille","lat":43.23147,"lon":5.43717,"is_reserved":false,"is_disabled":false,"rental_uris":{"android":"levelo://app?vid=a110c3e8-a146-4d68-a9ad-64c5ddcb51fe","ios":"levelo://app?vid=a110c3e8-a146-4d68-a9ad-64c5ddcb51fe"},"vehicle_type_id":"4","last_reported":1742209707,"current_range_meters":11600,"station_id":"ce4bhmp2rcd13ifvqgog","pricing_plan_id":"cebpf4jnsgd1na2vs0mg"},{"bike_id":"d9caaeae-8878-4959-9bf2-4d33db78b677","system_id":"levelo_inurba_marseille","lat":43.23958,"lon":5.36641,"is_reserved":false,"is_disabled":false,"rental_uris":{"android":"levelo://app?vid=d9caaeae-8878-4959-9bf2-4d33db78b677","ios":"levelo://app?vid=d9caaeae-8878-4959-9bf2-4d33db78b677"},"vehicle_type_id":"4","last_reported":1742209707,"current_range_meters":12000,"station_id":"ce4bhi12rcd13ifvqfp0","pricing_plan_id":"cebpf4jnsgd1na2vs0mg"},{"bike_id":"cb4339f8-c0a3-4ec4-afcd-55ac056708b9","system_id":"levelo_inurba_marseille","lat":43.31482,"lon":5.37293,"is_reserved":false,"is_disabled":false,"rental_uris":{"android":"levelo://app?vid=cb4339f8-c0a3-4ec4-afcd-55ac056708b9","ios":"levelo://app?vid=cb4339f8-c0a3-4ec4-afcd-55ac056708b9"},"vehicle_type_id":"4","last_reported":1742209707,"current_range_meters":12000,"station_id":"ce4bgt12rcd13ifvqcd0","pricing_plan_id":"cebpf4jnsgd1na2vs0mg"},{"bike_id":"c36faae4-5ed6-447f-bd82-22fdde588f0b","system_id":"levelo_inurba_marseille","lat":43.30479,"lon":5.3791,"is_reserved":false,"is_disabled":false,"rental_uris":{"android":"levelo://app?vid=c36faae4-5ed6-447f-bd82-22fdde588f0b","ios":"levelo://app?vid=c36faae4-5ed6-447f-bd82-22fdde588f0b"},"vehicle_type_id":"4","last_reported":1742209707,"current_range_meters":12000,"station_id":"ce4bgup2rcd13ifvqcn0","pricing_plan_id":"cebpf4jnsgd1na2vs0mg"},{"bike_id":"04779c95-09a2-425e-927f-fb9e05ab6347","system_id":"levelo_inurba_marseille","lat":43.33761,"lon":5.37489,"is_reserved":false,"is_disabled":false,"rental_uris":{"android":"levelo://app?vid=04779c95-09a2-425e-927f-fb9e05ab6347","ios":"levelo://app?vid=04779c95-09a2-425e-927f-fb9e05ab6347"},"vehicle_type_id":"4","last_reported":1742209707,"current_range_meters":12000,"station_id":"","pricing_plan_id":"cebpf4jnsgd1na2vs0mg"},{"bike_id":"9e3ed0c7-6ae9-4bf8-99a5-08daab709b76","system_id":"levelo_inurba_marseille","lat":43.26061,"lon":5.39392,"is_reserved":false,"is_disabled":false,"rental_uris":{"android":"levelo://app?vid=9e3ed0c7-6ae9-4bf8-99a5-08daab709b76","ios":"levelo://app?vid=9e3ed0c7-6ae9-4bf8-99a5-08daab709b76"},"vehicle_type_id":"4","last_reported":1742209707,"current_range_meters":12000,"station_id":"","pricing_plan_id":"cebpf4jnsgd1na2vs0mg"},{"bike_id":"d879e565-7488-49af-ac90-403b1148786f","system_id":"levelo_inurba_marseille","lat":43.2856,"lon":5.39502,"is_reserved":false,"is_disabled":true,"rental_uris":{"android":"levelo://app?vid=d879e565-7488-49af-ac90-403b1148786f","ios":"levelo://app?vid=d879e565-7488-49af-ac90-403b1148786f"},"vehicle_type_id":"4","last_reported":1742209707,"current_range_meters":12000,"station_id":"ce4bh292rcd13ifvqdg0","pricing_plan_id":"cebpf4jnsgd1na2vs0mg"},{"bike_id":"84cfc446-bf14-431e-a684-b664920352f0","system_id":"levelo_inurba_marseille","lat":43.24174,"lon":5.36393,"is_reserved":false,"is_disabled":false,"rental_uris":{"android":"levelo://app?vid=84cfc446-bf14-431e-a684-b664920352f0","ios":"levelo://app?vid=84cfc446-bf14-431e-a684-b664920352f0"},"vehicle_type_id":"4","last_reported":1742209707,"current_range_meters":12000,"station_id":"cpo36qri1sfpv3e86is0","pricing_plan_id":"cebpf4jnsgd1na2vs0mg"},{"bike_id":"c735a41e-8707-4425-9245-f2bfffe653b8","system_id":"levelo_inurba_marseille","lat":43.25922,"lon":5.40888,"is_reserved":false,"is_disabled":false,"rental_uris":{"android":"levelo://app?vid=c735a41e-8707-4425-9245-f2bfffe653b8","ios":"levelo://app?vid=c735a41e-8707-4425-9245-f2bfffe653b8"},"vehicle_type_id":"4","last_reported":1742209707,"current_range_meters":12000,"station_id":"ce4bhm92rcd13ifvqglg","pricing_plan_id":"cebpf4jnsgd1na2vs0mg"},{"bike_id":"5c7d3af7-81c2-462c-80cb-d705f57b5e51","system_id":"levelo_inurba_marseille","lat":43.25708,"lon":5.41094,"is_reserved":false,"is_disabled":true,"rental_uris":{"android":"levelo://app?vid=5c7d3af7-81c2-462c-80cb-d705f57b5e51","ios":"levelo://app?vid=5c7d3af7-81c2-462c-80cb-d705f57b5e51"},"vehicle_type_id":"4","last_reported":1742209707,"current_range_meters":12000,"station_id":"ce4bhkp2rcd13ifvqgd0","pricing_plan_id":"cebpf4jnsgd1na2vs0mg"},{"bike_id":"a0ec4b27-4350-4786-ae72-0daf170ec98d","system_id":"levelo_inurba_marseille","lat":43.2769,"lon":5.38885,"is_reserved":false,"is_disabled":false,"rental_uris":{"android":"levelo://app?vid=a0ec4b27-4350-4786-ae72-0daf170ec98d","ios":"levelo://app?vid=a0ec4b27-4350-4786-ae72-0daf170ec98d"},"vehicle_type_id":"4","last_reported":1742209707,"current_range_meters":12400,"station_id":"ce4bhi12rcd13ifvqfo0","pricing_plan_id":"cebpf4jnsgd1na2vs0mg"},{"bike_id":"66185ade-248f-45ad-bafe-ba5287d9512e","system_id":"levelo_inurba_marseille","lat":43.25936,"lon":5.40902,"is_reserved":false,"is_disabled":false,"rental_uris":{"android":"levelo://app?vid=66185ade-248f-45ad-bafe-ba5287d9512e","ios":"levelo://app?vid=66185ade-248f-45ad-bafe-ba5287d9512e"},"vehicle_type_id":"4","last_reported":1742209707,"current_range_meters":12400,"station_id":"ce4bhm92rcd13ifvqglg","pricing_plan_id":"cebpf4jnsgd1na2vs0mg"},{"bike_id":"6129c4dc-aab1-415f-8acd-e7e147951f7c","system_id":"levelo_inurba_marseille","lat":43.30139,"lon":5.37424,"is_reserved":false,"is_disabled":false,"rental_uris":{"android":"levelo://app?vid=6129c4dc-aab1-415f-8acd-e7e147951f7c","ios":"levelo://app?vid=6129c4dc-aab1-415f-8acd-e7e147951f7c"},"vehicle_type_id":"4","last_reported":1742209707,"current_range_meters":12400,"station_id":"ce4bgs92rcd13ifvqcc0","pricing_plan_id":"cebpf4jnsgd1na2vs0mg"},{"bike_id":"f499df6a-004f-4b1e-9795-e7c50036fb71","system_id":"levelo_inurba_marseille","lat":43.24083,"lon":5.37756,"is_reserved":false,"is_disabled":false,"rental_uris":{"android":"levelo://app?vid=f499df6a-004f-4b1e-9795-e7c50036fb71","ios":"levelo://app?vid=f499df6a-004f-4b1e-9795-e7c50036fb71"},"vehicle_type_id":"4","last_reported":1742209707,"current_range_meters":12800,"station_id":"ce4bhnp2rcd13ifvqgvg","pricing_plan_id":"cebpf4jnsgd1na2vs0mg"},{"bike_id":"a37391e5-9a2a-4644-8f1c-e5f87fbd2c1f","system_id":"levelo_inurba_marseille","lat":43.29532,"lon":5.38539,"is_reserved":false,"is_disabled":false,"rental_uris":{"android":"levelo://app?vid=a37391e5-9a2a-4644-8f1c-e5f87fbd2c1f","ios":"levelo://app?vid=a37391e5-9a2a-4644-8f1c-e5f87fbd2c1f"},"vehicle_type_id":"4","last_reported":1742209707,"current_range_meters":12800,"station_id":"ce4bgih2rcd13ifvqba0","pricing_plan_id":"cebpf4jnsgd1na2vs0mg"},{"bike_id":"8bdd31ce-f9b5-4de4-a460-0feeab1a1c06","system_id":"levelo_inurba_marseille","lat":43.30556,"lon":5.3656,"is_reserved":false,"is_disabled":false,"rental_uris":{"android":"levelo://app?vid=8bdd31ce-f9b5-4de4-a460-0feeab1a1c06","ios":"levelo://app?vid=8bdd31ce-f9b5-4de4-a460-0feeab1a1c06"},"vehicle_type_id":"4","last_reported":1742209707,"current_range_meters":12800,"station_id":"ce4bgs12rcd13ifvqcag","pricing_plan_id":"cebpf4jnsgd1na2vs0mg"},{"bike_id":"6684d2a8-fbec-4a14-a722-fad6e84c9a29","system_id":"levelo_inurba_marseille","lat":43.31424,"lon":5.3675,"is_reserved":false,"is_disabled":false,"rental_uris":{"android":"levelo://app?vid=6684d2a8-fbec-4a14-a722-fad6e84c9a29","ios":"levelo://app?vid=6684d2a8-fbec-4a14-a722-fad6e84c9a29"},"vehicle_type_id":"4","last_reported":1742209707,"current_range_meters":12800,"station_id":"","pricing_plan_id":"cebpf4jnsgd1na2vs0mg"},{"bike_id":"f59bd91a-f66e-4407-8abf-ca0721a535ae","system_id":"levelo_inurba_marseille","lat":43.28416,"lon":5.34967,"is_reserved":false,"is_disabled":false,"rental_uris":{"android":"levelo://app?vid=f59bd91a-f66e-4407-8abf-ca0721a535ae","ios":"levelo://app?vid=f59bd91a-f66e-4407-8abf-ca0721a535ae"},"vehicle_type_id":"4","last_reported":1742209707,"current_range_meters":13600,"station_id":"ce4bhbh2rcd13ifvqepg","pricing_plan_id":"cebpf4jnsgd1na2vs0mg"},{"bike_id":"9d15a776-6b02-4808-a303-18a0e043743b","system_id":"levelo_inurba_marseille","lat":43.29837,"lon":5.36268,"is_reserved":false,"is_disabled":false,"rental_uris":{"android":"levelo://app?vid=9d15a776-6b02-4808-a303-18a0e043743b","ios":"levelo://app?vid=9d15a776-6b02-4808-a303-18a0e043743b"},"vehicle_type_id":"4","last_reported":1742209707,"current_range_meters":13600,"station_id":"ce4bgpp2rcd13ifvqc3g","pricing_plan_id":"cebpf4jnsgd1na2vs0mg"},{"bike_id":"e9cc33b4-7a87-4143-9977-0a3fe41dfecf","system_id":"levelo_inurba_marseille","lat":43.30547,"lon":5.36533,"is_reserved":false,"is_disabled":false,"rental_uris":{"android":"levelo://app?vid=e9cc33b4-7a87-4143-9977-0a3fe41dfecf","ios":"levelo://app?vid=e9cc33b4-7a87-4143-9977-0a3fe41dfecf"},"vehicle_type_id":"4","last_reported":1742209707,"current_range_meters":13600,"station_id":"ce4bgs12rcd13ifvqcag","pricing_plan_id":"cebpf4jnsgd1na2vs0mg"},{"bike_id":"421ffe78-25bf-4527-9fb4-a76483712f90","system_id":"levelo_inurba_marseille","lat":43.22926,"lon":5.35374,"is_reserved":false,"is_disabled":false,"rental_uris":{"android":"levelo://app?vid=421ffe78-25bf-4527-9fb4-a76483712f90","ios":"levelo://app?vid=421ffe78-25bf-4527-9fb4-a76483712f90"},"vehicle_type_id":"4","last_reported":1742209707,"current_range_meters":13600,"station_id":"cpo3532slgdg3j2ikp40","pricing_plan_id":"cebpf4jnsgd1na2vs0mg"},{"bike_id":"ca0d5547-1381-4aad-8426-9a8d961532d4","system_id":"levelo_inurba_marseille","lat":43.30915,"lon":5.36852,"is_reserved":false,"is_disabled":false,"rental_uris":{"android":"levelo://app?vid=ca0d5547-1381-4aad-8426-9a8d961532d4","ios":"levelo://app?vid=ca0d5547-1381-4aad-8426-9a8d961532d4"},"vehicle_type_id":"4","last_reported":1742209707,"current_range_meters":14000,"station_id":"ce4bgn92rcd13ifvqbvg","pricing_plan_id":"cebpf4jnsgd1na2vs0mg"},{"bike_id":"f94de7fa-5e4f-4999-99c8-9c98dc8c7305","system_id":"levelo_inurba_marseille","lat":43.24987,"lon":5.38927,"is_reserved":false,"is_disabled":false,"rental_uris":{"android":"levelo://app?vid=f94de7fa-5e4f-4999-99c8-9c98dc8c7305","ios":"levelo://app?vid=f94de7fa-5e4f-4999-99c8-9c98dc8c7305"},"vehicle_type_id":"4","last_reported":1742209707,"current_range_meters":14000,"station_id":"ce4bhgp2rcd13ifvqfd0","pricing_plan_id":"cebpf4jnsgd1na2vs0mg"},{"bike_id":"7c66673a-04c3-4d32-a675-3d59fed633d9","system_id":"levelo_inurba_marseille","lat":43.2319,"lon":5.3554,"is_reserved":false,"is_disabled":false,"rental_uris":{"android":"levelo://app?vid=7c66673a-04c3-4d32-a675-3d59fed633d9","ios":"levelo://app?vid=7c66673a-04c3-4d32-a675-3d59fed633d9"},"vehicle_type_id":"4","last_reported":1742209707,"current_range_meters":14000,"station_id":"ce4bhu92rcd13ifvqi70","pricing_plan_id":"cebpf4jnsgd1na2vs0mg"},{"bike_id":"c7e6a3e4-422e-4b35-a72a-15d1d9b3bec6","system_id":"levelo_inurba_marseille","lat":43.24663,"lon":5.38167,"is_reserved":false,"is_disabled":false,"rental_uris":{"android":"levelo://app?vid=c7e6a3e4-422e-4b35-a72a-15d1d9b3bec6","ios":"levelo://app?vid=c7e6a3e4-422e-4b35-a72a-15d1d9b3bec6"},"vehicle_type_id":"4","last_reported":1742209707,"current_range_meters":14000,"station_id":"ce4bhih2rcd13ifvqfr0","pricing_plan_id":"cebpf4jnsgd1na2vs0mg"},{"bike_id":"ca509462-4dbb-4f13-94b9-06cd03f21482","system_id":"levelo_inurba_marseille","lat":43.30789,"lon":5.37652,"is_reserved":false,"is_disabled":false,"rental_uris":{"android":"levelo://app?vid=ca509462-4dbb-4f13-94b9-06cd03f21482","ios":"levelo://app?vid=ca509462-4dbb-4f13-94b9-06cd03f21482"},"vehicle_type_id":"4","last_reported":1742209707,"current_range_meters":14400,"station_id":"ce4bgv92rcd13ifvqcq0","pricing_plan_id":"cebpf4jnsgd1na2vs0mg"},{"bike_id":"fa7a3130-fd7d-4e3d-9c95-e7d2a0affa2c","system_id":"levelo_inurba_marseille","lat":43.29527,"lon":5.39056,"is_reserved":false,"is_disabled":false,"rental_uris":{"android":"levelo://app?vid=fa7a3130-fd7d-4e3d-9c95-e7d2a0affa2c","ios":"levelo://app?vid=fa7a3130-fd7d-4e3d-9c95-e7d2a0affa2c"},"vehicle_type_id":"4","last_reported":1742209707,"current_range_meters":14000,"station_id":"ce4bh3p2rcd13ifvqdp0","pricing_plan_id":"cebpf4jnsgd1na2vs0mg"},{"bike_id":"aed36d03-d83f-4775-b57c-c610d71dd960","system_id":"levelo_inurba_marseille","lat":43.25931,"lon":5.40885,"is_reserved":false,"is_disabled":false,"rental_uris":{"android":"levelo://app?vid=aed36d03-d83f-4775-b57c-c610d71dd960","ios":"levelo://app?vid=aed36d03-d83f-4775-b57c-c610d71dd960"},"vehicle_type_id":"4","last_reported":1742209707,"current_range_meters":14800,"station_id":"ce4bhm92rcd13ifvqglg","pricing_plan_id":"cebpf4jnsgd1na2vs0mg"},{"bike_id":"e94aad93-22fb-479e-a54e-93c2010686ff","system_id":"levelo_inurba_marseille","lat":43.23162,"lon":5.43701,"is_reserved":false,"is_disabled":false,"rental_uris":{"android":"levelo://app?vid=e94aad93-22fb-479e-a54e-93c2010686ff","ios":"levelo://app?vid=e94aad93-22fb-479e-a54e-93c2010686ff"},"vehicle_type_id":"4","last_reported":1742209707,"current_range_meters":14800,"station_id":"ce4bhmp2rcd13ifvqgog","pricing_plan_id":"cebpf4jnsgd1na2vs0mg"},{"bike_id":"93d8ad6d-733f-49c8-95e3-e57827b96394","system_id":"levelo_inurba_marseille","lat":43.25913,"lon":5.40885,"is_reserved":false,"is_disabled":false,"rental_uris":{"android":"levelo://app?vid=93d8ad6d-733f-49c8-95e3-e57827b96394","ios":"levelo://app?vid=93d8ad6d-733f-49c8-95e3-e57827b96394"},"vehicle_type_id":"4","last_reported":1742209707,"current_range_meters":15200,"station_id":"ce4bhm92rcd13ifvqglg","pricing_plan_id":"cebpf4jnsgd1na2vs0mg"},{"bike_id":"868ac092-3477-4c05-8537-cc4e0216d516","system_id":"levelo_inurba_marseille","lat":43.30548,"lon":5.36539,"is_reserved":false,"is_disabled":false,"rental_uris":{"android":"levelo://app?vid=868ac092-3477-4c05-8537-cc4e0216d516","ios":"levelo://app?vid=868ac092-3477-4c05-8537-cc4e0216d516"},"vehicle_type_id":"4","last_reported":1742209707,"current_range_meters":15200,"station_id":"ce4bgs12rcd13ifvqcag","pricing_plan_id":"cebpf4jnsgd1na2vs0mg"},{"bike_id":"818e5b60-bb08-4500-a307-1e8acee57dea","system_id":"levelo_inurba_marseille","lat":43.29902,"lon":5.43652,"is_reserved":false,"is_disabled":false,"rental_uris":{"android":"levelo://app?vid=818e5b60-bb08-4500-a307-1e8acee57dea","ios":"levelo://app?vid=818e5b60-bb08-4500-a307-1e8acee57dea"},"vehicle_type_id":"4","last_reported":1742209707,"current_range_meters":16000,"station_id":"ce4bhpp2rcd13ifvqhfg","pricing_plan_id":"cebpf4jnsgd1na2vs0mg"},{"bike_id":"1c21711d-a44d-485a-9f54-189ddab7d5a7","system_id":"levelo_inurba_marseille","lat":43.2732,"lon":5.39091,"is_reserved":false,"is_disabled":false,"rental_uris":{"android":"levelo://app?vid=1c21711d-a44d-485a-9f54-189ddab7d5a7","ios":"levelo://app?vid=1c21711d-a44d-485a-9f54-189ddab7d5a7"},"vehicle_type_id":"4","last_reported":1742209707,"current_range_meters":16000,"station_id":"ce4bhgp2rcd13ifvqfe0","pricing_plan_id":"cebpf4jnsgd1na2vs0mg"},{"bike_id":"9e6d7721-7742-42ce-b2d6-febb4161710d","system_id":"levelo_inurba_marseille","lat":43.30543,"lon":5.36555,"is_reserved":false,"is_disabled":false,"rental_uris":{"android":"levelo://app?vid=9e6d7721-7742-42ce-b2d6-febb4161710d","ios":"levelo://app?vid=9e6d7721-7742-42ce-b2d6-febb4161710d"},"vehicle_type_id":"4","last_reported":1742209707,"current_range_meters":16000,"station_id":"ce4bgs12rcd13ifvqcag","pricing_plan_id":"cebpf4jnsgd1na2vs0mg"},{"bike_id":"a2abefaa-70b9-45b4-ac9a-1faff2e2dc65","system_id":"levelo_inurba_marseille","lat":43.27214,"lon":5.39167,"is_reserved":false,"is_disabled":false,"rental_uris":{"android":"levelo://app?vid=a2abefaa-70b9-45b4-ac9a-1faff2e2dc65","ios":"levelo://app?vid=a2abefaa-70b9-45b4-ac9a-1faff2e2dc65"},"vehicle_type_id":"4","last_reported":1742209707,"current_range_meters":16000,"station_id":"ce4bhhp2rcd13ifvqfm0","pricing_plan_id":"cebpf4jnsgd1na2vs0mg"},{"bike_id":"3320f5a3-dcb8-4aad-bb5b-b947b82d676e","system_id":"levelo_inurba_marseille","lat":43.25491,"lon":5.37649,"is_reserved":false,"is_disabled":false,"rental_uris":{"android":"levelo://app?vid=3320f5a3-dcb8-4aad-bb5b-b947b82d676e","ios":"levelo://app?vid=3320f5a3-dcb8-4aad-bb5b-b947b82d676e"},"vehicle_type_id":"4","last_reported":1742209707,"current_range_meters":16000,"station_id":"ce4bhh12rcd13ifvqff0","pricing_plan_id":"cebpf4jnsgd1na2vs0mg"},{"bike_id":"0703186e-63df-4d90-aa9a-0a0bdbc877d8","system_id":"levelo_inurba_marseille","lat":43.28357,"lon":5.38101,"is_reserved":false,"is_disabled":false,"rental_uris":{"android":"levelo://app?vid=0703186e-63df-4d90-aa9a-0a0bdbc877d8","ios":"levelo://app?vid=0703186e-63df-4d90-aa9a-0a0bdbc877d8"},"vehicle_type_id":"4","last_reported":1742209707,"current_range_meters":16000,"station_id":"ce4bh412rcd13ifvqdr0","pricing_plan_id":"cebpf4jnsgd1na2vs0mg"},{"bike_id":"d09fe0a5-264c-4b79-abb9-0e81a13e5ae9","system_id":"levelo_inurba_marseille","lat":43.28855,"lon":5.35867,"is_reserved":false,"is_disabled":false,"rental_uris":{"android":"levelo://app?vid=d09fe0a5-264c-4b79-abb9-0e81a13e5ae9","ios":"levelo://app?vid=d09fe0a5-264c-4b79-abb9-0e81a13e5ae9"},"vehicle_type_id":"4","last_reported":1742209707,"current_range_meters":16000,"station_id":"ce4bhb12rcd13ifvqem0","pricing_plan_id":"cebpf4jnsgd1na2vs0mg"},{"bike_id":"8da87f57-57c8-4059-b368-c268a947561e","system_id":"levelo_inurba_marseille","lat":43.24998,"lon":5.38931,"is_reserved":false,"is_disabled":false,"rental_uris":{"android":"levelo://app?vid=8da87f57-57c8-4059-b368-c268a947561e","ios":"levelo://app?vid=8da87f57-57c8-4059-b368-c268a947561e"},"vehicle_type_id":"4","last_reported":1742209707,"current_range_meters":16400,"station_id":"ce4bhgp2rcd13ifvqfd0","pricing_plan_id":"cebpf4jnsgd1na2vs0mg"},{"bike_id":"548e5915-3ad7-487f-9571-936ee96f3e40","system_id":"levelo_inurba_marseille","lat":43.33606,"lon":5.4098,"is_reserved":false,"is_disabled":false,"rental_uris":{"android":"levelo://app?vid=548e5915-3ad7-487f-9571-936ee96f3e40","ios":"levelo://app?vid=548e5915-3ad7-487f-9571-936ee96f3e40"},"vehicle_type_id":"4","last_reported":1742209707,"current_range_meters":16400,"station_id":"ce4bhqh2rcd13ifvqhmg","pricing_plan_id":"cebpf4jnsgd1na2vs0mg"},{"bike_id":"4aee1514-6c1c-4d5a-b1f7-310ddce47686","system_id":"levelo_inurba_marseille","lat":43.28001,"lon":5.41666,"is_reserved":false,"is_disabled":false,"rental_uris":{"android":"levelo://app?vid=4aee1514-6c1c-4d5a-b1f7-310ddce47686","ios":"levelo://app?vid=4aee1514-6c1c-4d5a-b1f7-310ddce47686"},"vehicle_type_id":"4","last_reported":1742209707,"current_range_meters":16400,"station_id":"ce4bho12rcd13ifvqh1g","pricing_plan_id":"cebpf4jnsgd1na2vs0mg"},{"bike_id":"156176f7-6040-4cfa-b313-1a5e9e35cb01","system_id":"levelo_inurba_marseille","lat":43.29005,"lon":5.35605,"is_reserved":false,"is_disabled":false,"rental_uris":{"android":"levelo://app?vid=156176f7-6040-4cfa-b313-1a5e9e35cb01","ios":"levelo://app?vid=156176f7-6040-4cfa-b313-1a5e9e35cb01"},"vehicle_type_id":"4","last_reported":1742209707,"current_range_meters":16400,"station_id":"ce4bhb92rcd13ifvqen0","pricing_plan_id":"cebpf4jnsgd1na2vs0mg"},{"bike_id":"f355dd6c-531c-41c6-be28-bb4fbfdbef5a","system_id":"levelo_inurba_marseille","lat":43.29967,"lon":5.38486,"is_reserved":false,"is_disabled":false,"rental_uris":{"android":"levelo://app?vid=f355dd6c-531c-41c6-be28-bb4fbfdbef5a","ios":"levelo://app?vid=f355dd6c-531c-41c6-be28-bb4fbfdbef5a"},"vehicle_type_id":"4","last_reported":1742209707,"current_range_meters":16400,"station_id":"ce4bgj92rcd13ifvqbd0","pricing_plan_id":"cebpf4jnsgd1na2vs0mg"},{"bike_id":"c7f8578c-d3c2-4df9-ad05-3b9f204976cb","system_id":"levelo_inurba_marseille","lat":43.25002,"lon":5.38911,"is_reserved":false,"is_disabled":false,"rental_uris":{"android":"levelo://app?vid=c7f8578c-d3c2-4df9-ad05-3b9f204976cb","ios":"levelo://app?vid=c7f8578c-d3c2-4df9-ad05-3b9f204976cb"},"vehicle_type_id":"4","last_reported":1742209707,"current_range_meters":16400,"station_id":"ce4bhgp2rcd13ifvqfd0","pricing_plan_id":"cebpf4jnsgd1na2vs0mg"},{"bike_id":"facf1153-3897-4847-8ce6-44038c0b4b86","system_id":"levelo_inurba_marseille","lat":43.25016,"lon":5.38926,"is_reserved":false,"is_disabled":false,"rental_uris":{"android":"levelo://app?vid=facf1153-3897-4847-8ce6-44038c0b4b86","ios":"levelo://app?vid=facf1153-3897-4847-8ce6-44038c0b4b86"},"vehicle_type_id":"4","last_reported":1742209707,"current_range_meters":16400,"station_id":"ce4bhgp2rcd13ifvqfd0","pricing_plan_id":"cebpf4jnsgd1na2vs0mg"},{"bike_id":"9d9232f8-6e35-4745-ad7d-30d8115086f0","system_id":"levelo_inurba_marseille","lat":43.29273,"lon":5.36844,"is_reserved":false,"is_disabled":false,"rental_uris":{"android":"levelo://app?vid=9d9232f8-6e35-4745-ad7d-30d8115086f0","ios":"levelo://app?vid=9d9232f8-6e35-4745-ad7d-30d8115086f0"},"vehicle_type_id":"4","last_reported":1742209707,"current_range_meters":16400,"station_id":"ce4bhbp2rcd13ifvqesg","pricing_plan_id":"cebpf4jnsgd1na2vs0mg"},{"bike_id":"8230da72-a4dc-44e0-be68-066f8a665cb4","system_id":"levelo_inurba_marseille","lat":43.2308,"lon":5.35508,"is_reserved":false,"is_disabled":false,"rental_uris":{"android":"levelo://app?vid=8230da72-a4dc-44e0-be68-066f8a665cb4","ios":"levelo://app?vid=8230da72-a4dc-44e0-be68-066f8a665cb4"},"vehicle_type_id":"4","last_reported":1742209707,"current_range_meters":16400,"station_id":"cpo3342slgdg3j2ifvpg","pricing_plan_id":"cebpf4jnsgd1na2vs0mg"},{"bike_id":"2f987288-623d-4aa2-89a7-382d7c2229d8","system_id":"levelo_inurba_marseille","lat":43.28993,"lon":5.35596,"is_reserved":false,"is_disabled":false,"rental_uris":{"android":"levelo://app?vid=2f987288-623d-4aa2-89a7-382d7c2229d8","ios":"levelo://app?vid=2f987288-623d-4aa2-89a7-382d7c2229d8"},"vehicle_type_id":"4","last_reported":1742209707,"current_range_meters":16400,"station_id":"ce4bhb92rcd13ifvqen0","pricing_plan_id":"cebpf4jnsgd1na2vs0mg"},{"bike_id":"0f262f07-3e6b-4e02-b690-926aa9a7e221","system_id":"levelo_inurba_marseille","lat":43.28615,"lon":5.35103,"is_reserved":false,"is_disabled":false,"rental_uris":{"android":"levelo://app?vid=0f262f07-3e6b-4e02-b690-926aa9a7e221","ios":"levelo://app?vid=0f262f07-3e6b-4e02-b690-926aa9a7e221"},"vehicle_type_id":"4","last_reported":1742209707,"current_range_meters":16400,"station_id":"ce4bhch2rcd13ifvqeug","pricing_plan_id":"cebpf4jnsgd1na2vs0mg"},{"bike_id":"adc01815-c927-4ecf-b630-fbf553a9e346","system_id":"levelo_inurba_marseille","lat":43.31291,"lon":5.3671,"is_reserved":false,"is_disabled":false,"rental_uris":{"android":"levelo://app?vid=adc01815-c927-4ecf-b630-fbf553a9e346","ios":"levelo://app?vid=adc01815-c927-4ecf-b630-fbf553a9e346"},"vehicle_type_id":"4","last_reported":1742209707,"current_range_meters":16400,"station_id":"","pricing_plan_id":"cebpf4jnsgd1na2vs0mg"},{"bike_id":"4fa7e0f2-4dd9-4a07-980a-e7f1f3971473","system_id":"levelo_inurba_marseille","lat":43.30468,"lon":5.37916,"is_reserved":false,"is_disabled":false,"rental_uris":{"android":"levelo://app?vid=4fa7e0f2-4dd9-4a07-980a-e7f1f3971473","ios":"levelo://app?vid=4fa7e0f2-4dd9-4a07-980a-e7f1f3971473"},"vehicle_type_id":"4","last_reported":1742209707,"current_range_meters":16400,"station_id":"ce4bgup2rcd13ifvqcn0","pricing_plan_id":"cebpf4jnsgd1na2vs0mg"},{"bike_id":"d7d81207-982a-4843-a4f3-8b0dec3df56e","system_id":"levelo_inurba_marseille","lat":43.22936,"lon":5.35375,"is_reserved":false,"is_disabled":false,"rental_uris":{"android":"levelo://app?vid=d7d81207-982a-4843-a4f3-8b0dec3df56e","ios":"levelo://app?vid=d7d81207-982a-4843-a4f3-8b0dec3df56e"},"vehicle_type_id":"4","last_reported":1742209707,"current_range_meters":16400,"station_id":"cpo3532slgdg3j2ikp40","pricing_plan_id":"cebpf4jnsgd1na2vs0mg"},{"bike_id":"7acb2f21-0d78-440a-ae04-e15f98d1e109","system_id":"levelo_inurba_marseille","lat":43.27199,"lon":5.39172,"is_reserved":false,"is_disabled":false,"rental_uris":{"android":"levelo://app?vid=7acb2f21-0d78-440a-ae04-e15f98d1e109","ios":"levelo://app?vid=7acb2f21-0d78-440a-ae04-e15f98d1e109"},"vehicle_type_id":"4","last_reported":1742209707,"current_range_meters":16400,"station_id":"ce4bhhp2rcd13ifvqfm0","pricing_plan_id":"cebpf4jnsgd1na2vs0mg"},{"bike_id":"75b68153-dca3-4253-ac13-1b137713ca85","system_id":"levelo_inurba_marseille","lat":43.2737,"lon":5.36261,"is_reserved":false,"is_disabled":false,"rental_uris":{"android":"levelo://app?vid=75b68153-dca3-4253-ac13-1b137713ca85","ios":"levelo://app?vid=75b68153-dca3-4253-ac13-1b137713ca85"},"vehicle_type_id":"4","last_reported":1742209707,"current_range_meters":16800,"station_id":"ce4bhbh2rcd13ifvqeo0","pricing_plan_id":"cebpf4jnsgd1na2vs0mg"},{"bike_id":"0fd1c35c-9b0f-4c16-b916-8b7643f4f57d","system_id":"levelo_inurba_marseille","lat":43.23159,"lon":5.43699,"is_reserved":false,"is_disabled":false,"rental_uris":{"android":"levelo://app?vid=0fd1c35c-9b0f-4c16-b916-8b7643f4f57d","ios":"levelo://app?vid=0fd1c35c-9b0f-4c16-b916-8b7643f4f57d"},"vehicle_type_id":"4","last_reported":1742209707,"current_range_meters":16800,"station_id":"ce4bhmp2rcd13ifvqgog","pricing_plan_id":"cebpf4jnsgd1na2vs0mg"},{"bike_id":"4fcb7713-ac15-4718-b2a8-6f6db973dadc","system_id":"levelo_inurba_marseille","lat":43.30895,"lon":5.37151,"is_reserved":false,"is_disabled":false,"rental_uris":{"android":"levelo://app?vid=4fcb7713-ac15-4718-b2a8-6f6db973dadc","ios":"levelo://app?vid=4fcb7713-ac15-4718-b2a8-6f6db973dadc"},"vehicle_type_id":"4","last_reported":1742209707,"current_range_meters":16800,"station_id":"ce4bguh2rcd13ifvqckg","pricing_plan_id":"cebpf4jnsgd1na2vs0mg"},{"bike_id":"c9925798-9a50-43b6-8cb4-033510422c83","system_id":"levelo_inurba_marseille","lat":43.23196,"lon":5.35547,"is_reserved":false,"is_disabled":false,"rental_uris":{"android":"levelo://app?vid=c9925798-9a50-43b6-8cb4-033510422c83","ios":"levelo://app?vid=c9925798-9a50-43b6-8cb4-033510422c83"},"vehicle_type_id":"4","last_reported":1742209707,"current_range_meters":16800,"station_id":"ce4bhu92rcd13ifvqi70","pricing_plan_id":"cebpf4jnsgd1na2vs0mg"},{"bike_id":"5e5da8d9-8b5e-44e4-a793-cdce9daf4a06","system_id":"levelo_inurba_marseille","lat":43.23161,"lon":5.43706,"is_reserved":false,"is_disabled":false,"rental_uris":{"android":"levelo://app?vid=5e5da8d9-8b5e-44e4-a793-cdce9daf4a06","ios":"levelo://app?vid=5e5da8d9-8b5e-44e4-a793-cdce9daf4a06"},"vehicle_type_id":"4","last_reported":1742209707,"current_range_meters":16800,"station_id":"ce4bhmp2rcd13ifvqgog","pricing_plan_id":"cebpf4jnsgd1na2vs0mg"},{"bike_id":"a520e1d2-7652-4278-927c-7bed0b523b10","system_id":"levelo_inurba_marseille","lat":43.31267,"lon":5.36874,"is_reserved":false,"is_disabled":false,"rental_uris":{"android":"levelo://app?vid=a520e1d2-7652-4278-927c-7bed0b523b10","ios":"levelo://app?vid=a520e1d2-7652-4278-927c-7bed0b523b10"},