{"last_updated":1731744686,"ttl":60,"version":"2.2","data":{"bikes":[{"bike_id":"2a4f068a-bf44-4be8-9720-65434032f534","system_id":"levelo_inurba_marseille","lat":43.29041,"lon":5.39401,"is_reserved":false,"is_disabled":false,"rental_uris":{"android":"levelo://app?vid=2a4f068a-bf44-4be8-9720-65434032f534","ios":"levelo://app?vid=2a4f068a-bf44-4be8-9720-65434032f534"},"vehicle_type_id":"4","last_reported":1731744686,"current_range_meters":8400,"station_id":"","pricing_plan_id":"cebpf4jnsgd1na2vs0mg"},{"bike_id":"0ced7113-db48-4671-8b7b-648b43de37ab","system_id":"levelo_inurba_marseille","lat":43.27374,"lon":5.36257,"is_reserved":false,"is_disabled":false,"rental_uris":{"android":"levelo://app?vid=0ced7113-db48-4671-8b7b-648b43de37ab","ios":"levelo://app?vid=0ced7113-db48-4671-8b7b-648b43de37ab"},"vehicle_type_id":"4","last_reported":1731744686,"current_range_meters":38800,"station_id":"ce4bhbh2rcd13ifvqeo0","pricing_plan_id":"cebpf4jnsgd1na2vs0mg"},{"bike_id":"6449248c-ddbe-49f8-8a86-d7347eab10b2","system_id":"levelo_inurba_marseille","lat":43.30884,"lon":5.3964,"is_reserved":false,"is_disabled":false,"rental_uris":{"android":"levelo://app?vid=6449248c-ddbe-49f8-8a86-d7347eab10b2","ios":"levelo://app?vid=6449248c-ddbe-49f8-8a86-d7347eab10b2"},"vehicle_type_id":"4","last_reported":1731744686,"current_range_meters":38800,"station_id":"ce4bh012rcd13ifvqcv0","pricing_plan_id":"cebpf4jnsgd1na2vs0mg"},{"bike_id":"5856ad94-bc0e-4f57-993d-864d7234767f","system_id":"levelo_inurba_marseille","lat":43.33763,"lon":5.37483,"is_reserved":false,"is_disabled":false,"rental_uris":{"android":"levelo://app?vid=5856ad94-bc0e-4f57-993d-864d7234767f","ios":"levelo://app?vid=5856ad94-bc0e-4f57-993d-864d7234767f"},"vehicle_type_id":"4","last_reported":1731744686,"current_range_meters":34000,"station_id":"","pricing_plan_id":"cebpf4jnsgd1na2vs0mg"},{"bike_id":"a1e48a91-33e6-499b-8713-a0268cd7842f","system_id":"levelo_inurba_marseille","lat":43.28454,"lon":5.35899,"is_reserved":false,"is_disabled":false,"rental_uris":{"android":"levelo://app?vid=a1e48a91-33e6-499b-8713-a0268cd7842f","ios":"levelo://app?vid=a1e48a91-33e6-499b-8713-a0268cd7842f"},"vehicle_type_id":"4","last_reported":1731744686,"current_range_meters":38000,"station_id":"ce4bhah2rcd13ifvqei0","pricing_plan_id":"cebpf4jnsgd1na2vs0mg"},{"bike_id":"31514e32-afb6-42c0-9d4e-52bc7623427d","system_id":"levelo_inurba_marseille","lat":43.31079,"lon":5.42427,"is_reserved":false,"is_disabled":false,"rental_uris":{"android":"levelo://app?vid=31514e32-afb6-42c0-9d4e-52bc7623427d","ios":"levelo://app?vid=31514e32-afb6-42c0-9d4e-52bc7623427d"},"vehicle_type_id":"4","last_reported":1731744686,"current_range_meters":38800,"station_id":"ce4bhp92rcd13ifvqhag","pricing_plan_id":"cebpf4jnsgd1na2vs0mg"},{"bike_id":"4aafe376-b9bc-4522-87a4-83d6ad5af617","system_id":"levelo_inurba_marseille","lat":43.2703,"lon":5.42238,"is_reserved":false,"is_disabled":false,"rental_uris":{"android":"levelo://app?vid=4aafe376-b9bc-4522-87a4-83d6ad5af617","ios":"levelo://app?vid=4aafe376-b9bc-4522-87a4-83d6ad5af617"},"vehicle_type_id":"4","last_reported":1731744686,"current_range_meters":38800,"station_id":"","pricing_plan_id":"cebpf4jnsgd1na2vs0mg"},{"bike_id":"c270d04c-d9fe-4ed7-a62f-2857d817387c","system_id":"levelo_inurba_marseille","lat":43.28459,"lon":5.35888,"is_reserved":false,"is_disabled":false,"rental_uris":{"android":"levelo://app?vid=c270d04c-d9fe-4ed7-a62f-2857d817387c","ios":"levelo://app?vid=c270d04c-d9fe-4ed7-a62f-2857d817387c"},"vehicle_type_id":"4","last_reported":1731744686,"current_range_meters":30800,"station_id":"ce4bhah2rcd13ifvqei0","pricing_plan_id":"cebpf4jnsgd1na2vs0mg"},{"bike_id":"294aeb6e-ce4b-40c3-bed6-066ae67c2e79","system_id":"levelo_inurba_marseille","lat":43.26802,"lon":5.40261,"is_reserved":false,"is_disabled":false,"rental_uris":{"android":"levelo://app?vid=294aeb6e-ce4b-40c3-bed6-066ae67c2e79","ios":"levelo://app?vid=294aeb6e-ce4b-40c3-bed6-066ae67c2e79"},"vehicle_type_id":"4","last_reported":1731744686,"current_range_meters":37600,"station_id":"ce501612rcd8frsf0b60","pricing_plan_id":"cebpf4jnsgd1na2vs0mg"},{"bike_id":"ab6dc4ee-6007-4de0-8391-e0c3a471920a","system_id":"levelo_inurba_marseille","lat":43.296276,"lon":5.377131,"is_reserved":false,"is_disabled":false,"rental_uris":{"android":"levelo://app?vid=ab6dc4ee-6007-4de0-8391-e0c3a471920a","ios":"levelo://app?vid=ab6dc4ee-6007-4de0-8391-e0c3a471920a"},"vehicle_type_id":"4","last_reported":1731744686,"current_range_meters":27600,"station_id":"ce4bgi92rcd13ifvqb90","pricing_plan_id":"cebpf4jnsgd1na2vs0mg"},{"bike_id":"2a4d0619-1af9-46f8-8f27-2f5bb3726a6d","system_id":"levelo_inurba_marseille","lat":43.24386,"lon":5.37053,"is_reserved":false,"is_disabled":false,"rental_uris":{"android":"levelo://app?vid=2a4d0619-1af9-46f8-8f27-2f5bb3726a6d","ios":"levelo://app?vid=2a4d0619-1af9-46f8-8f27-2f5bb3726a6d"},"vehicle_type_id":"4","last_reported":1731744686,"current_range_meters":36000,"station_id":"ce4bhhh2rcd13ifvqfk0","pricing_plan_id":"cebpf4jnsgd1na2vs0mg"},{"bike_id":"2196e4c8-d03f-44e5-8f60-4ac395c702c5","system_id":"levelo_inurba_marseille","lat":43.29934,"lon":5.36552,"is_reserved":false,"is_disabled":false,"rental_uris":{"android":"levelo://app?vid=2196e4c8-d03f-44e5-8f60-4ac395c702c5","ios":"levelo://app?vid=2196e4c8-d03f-44e5-8f60-4ac395c702c5"},"vehicle_type_id":"4","last_reported":1731744686,"current_range_meters":32000,"station_id":"ce4bgm92rcd13ifvqbr0","pricing_plan_id":"cebpf4jnsgd1na2vs0mg"},{"bike_id":"6c97f8ae-b935-4867-a293-7007489abd61","system_id":"levelo_inurba_marseille","lat":43.28701,"lon":5.37393,"is_reserved":false,"is_disabled":false,"rental_uris":{"android":"levelo://app?vid=6c97f8ae-b935-4867-a293-7007489abd61","ios":"levelo://app?vid=6c97f8ae-b935-4867-a293-7007489abd61"},"vehicle_type_id":"4","last_reported":1731744686,"current_range_meters":35200,"station_id":"ce4bh3p2rcd13ifvqdq0","pricing_plan_id":"cebpf4jnsgd1na2vs0mg"},{"bike_id":"7588c7d3-f5c9-4342-abf6-5df161530f71","system_id":"levelo_inurba_marseille","lat":43.30893,"lon":5.39646,"is_reserved":false,"is_disabled":false,"rental_uris":{"android":"levelo://app?vid=7588c7d3-f5c9-4342-abf6-5df161530f71","ios":"levelo://app?vid=7588c7d3-f5c9-4342-abf6-5df161530f71"},"vehicle_type_id":"4","last_reported":1731744686,"current_range_meters":38400,"station_id":"ce4bh012rcd13ifvqcv0","pricing_plan_id":"cebpf4jnsgd1na2vs0mg"},{"bike_id":"e6499734-b6a4-4e3c-b00e-07084e350e1a","system_id":"levelo_inurba_marseille","lat":43.27991,"lon":5.41664,"is_reserved":false,"is_disabled":false,"rental_uris":{"android":"levelo://app?vid=e6499734-b6a4-4e3c-b00e-07084e350e1a","ios":"levelo://app?vid=e6499734-b6a4-4e3c-b00e-07084e350e1a"},"vehicle_type_id":"4","last_reported":1731744686,"current_range_meters":34000,"station_id":"ce4bho12rcd13ifvqh1g","pricing_plan_id":"cebpf4jnsgd1na2vs0mg"},{"bike_id":"a774f1d5-d3e2-434c-a374-5093a6e1ad5e","system_id":"levelo_inurba_marseille","lat":43.24388,"lon":5.37059,"is_reserved":false,"is_disabled":false,"rental_uris":{"android":"levelo://app?vid=a774f1d5-d3e2-434c-a374-5093a6e1ad5e","ios":"levelo://app?vid=a774f1d5-d3e2-434c-a374-5093a6e1ad5e"},"vehicle_type_id":"4","last_reported":1731744686,"current_range_meters":34800,"station_id":"ce4bhhh2rcd13ifvqfk0","pricing_plan_id":"cebpf4jnsgd1na2vs0mg"},{"bike_id":"27473974-a8f9-4698-9a62-0f5501087c82","system_id":"levelo_inurba_marseille","lat":43.28271,"lon":5.35065,"is_reserved":false,"is_disabled":false,"rental_uris":{"android":"levelo://app?vid=27473974-a8f9-4698-9a62-0f5501087c82","ios":"levelo://app?vid=27473974-a8f9-4698-9a62-0f5501087c82"},"vehicle_type_id":"4","last_reported":1731744686,"current_range_meters":21600,"station_id":"ce4bhbp2rcd13ifvqerg","pricing_plan_id":"cebpf4jnsgd1na2vs0mg"},{"bike_id":"0b995606-4707-45f4-85a4-3e178ef5e44c","system_id":"levelo_inurba_marseille","lat":43.28108,"lon":5.37827,"is_reserved":false,"is_disabled":false,"rental_uris":{"android":"levelo://app?vid=0b995606-4707-45f4-85a4-3e178ef5e44c","ios":"levelo://app?vid=0b995606-4707-45f4-85a4-3e178ef5e44c"},"vehicle_type_id":"4","last_reported":1731744686,"current_range_meters":22800,"station_id":"ce4bha12rcd13ifvqee0","pricing_plan_id":"cebpf4jnsgd1na2vs0mg"},{"bike_id":"7ad6d164-9df8-493c-a6f3-fd4fcddb10d1","system_id":"levelo_inurba_marseille","lat":43.30557,"lon":5.36554,"is_reserved":false,"is_disabled":false,"rental_uris":{"android":"levelo://app?vid=7ad6d164-9df8-493c-a6f3-fd4fcddb10d1","ios":"levelo://app?vid=7ad6d164-9df8-493c-a6f3-fd4fcddb10d1"},"vehicle_type_id":"4","last_reported":1731744686,"current_range_meters":13600,"station_id":"ce4bgs12rcd13ifvqcag","pricing_plan_id":"cebpf4jnsgd1na2vs0mg"},{"bike_id":"970aca8c-d5e6-4afc-9c71-23c4b24a4898","system_id":"levelo_inurba_marseille","lat":43.28614,"lon":5.35102,"is_reserved":false,"is_disabled":false,"rental_uris":{"android":"levelo://app?vid=970aca8c-d5e6-4afc-9c71-23c4b24a4898","ios":"levelo://app?vid=970aca8c-d5e6-4afc-9c71-23c4b24a4898"},"vehicle_type_id":"4","last_reported":1731744686,"current_range_meters":37600,"station_id":"ce4bhch2rcd13ifvqeug","pricing_plan_id":"cebpf4jnsgd1na2vs0mg"},{"bike_id":"906347f7-b857-4677-b3f3-7720e8dfadfc","system_id":"levelo_inurba_marseille","lat":43.26908,"lon":5.4032,"is_reserved":false,"is_disabled":false,"rental_uris":{"android":"levelo://app?vid=906347f7-b857-4677-b3f3-7720e8dfadfc","ios":"levelo://app?vid=906347f7-b857-4677-b3f3-7720e8dfadfc"},"vehicle_type_id":"4","last_reported":1731744686,"current_range_meters":38800,"station_id":"cjm6bp8fraef2m0cb0m0","pricing_plan_id":"cebpf4jnsgd1na2vs0mg"},{"bike_id":"aec5458a-c5c1-4a7e-b777-34ff60f4bd94","system_id":"levelo_inurba_marseille","lat":43.26565,"lon":5.39006,"is_reserved":false,"is_disabled":false,"rental_uris":{"android":"levelo://app?vid=aec5458a-c5c1-4a7e-b777-34ff60f4bd94","ios":"levelo://app?vid=aec5458a-c5c1-4a7e-b777-34ff60f4bd94"},"vehicle_type_id":"4","last_reported":1731744686,"current_range_meters":26000,"station_id":"ce4bhe12rcd13ifvqf30","pricing_plan_id":"cebpf4jnsgd1na2vs0mg"},{"bike_id":"6b0ea79e-cb12-4a50-9845-e4686b3cacc8","system_id":"levelo_inurba_marseille","lat":43.295751,"lon":5.399791,"is_reserved":false,"is_disabled":false,"rental_uris":{"android":"levelo://app?vid=6b0ea79e-cb12-4a50-9845-e4686b3cacc8","ios":"levelo://app?vid=6b0ea79e-cb12-4a50-9845-e4686b3cacc8"},"vehicle_type_id":"4","last_reported":1731744686,"current_range_meters":14800,"station_id":"","pricing_plan_id":"cebpf4jnsgd1na2vs0mg"},{"bike_id":"91f5d4da-bdc3-4062-a2de-d025c7b0accb","system_id":"levelo_inurba_marseille","lat":43.303497,"lon":5.418743,"is_reserved":false,"is_disabled":false,"rental_uris":{"android":"levelo://app?vid=91f5d4da-bdc3-4062-a2de-d025c7b0accb","ios":"levelo://app?vid=91f5d4da-bdc3-4062-a2de-d025c7b0accb"},"vehicle_type_id":"4","last_reported":1731744686,"current_range_meters":38000,"station_id":"ce4bhop2rcd13ifvqh7g","pricing_plan_id":"cebpf4jnsgd1na2vs0mg"},{"bike_id":"4a74f469-1d99-48ee-a8ca-9199898c00a4","system_id":"levelo_inurba_marseille","lat":43.23209,"lon":5.35527,"is_reserved":false,"is_disabled":false,"rental_uris":{"android":"levelo://app?vid=4a74f469-1d99-48ee-a8ca-9199898c00a4","ios":"levelo://app?vid=4a74f469-1d99-48ee-a8ca-9199898c00a4"},"vehicle_type_id":"4","last_reported":1731744686,"current_range_meters":10000,"station_id":"ce4bhu92rcd13ifvqi70","pricing_plan_id":"cebpf4jnsgd1na2vs0mg"},{"bike_id":"1a3a7b0c-c523-4c7a-80ba-30f75e51f53c","system_id":"levelo_inurba_marseille","lat":43.2731,"lon":5.39074,"is_reserved":false,"is_disabled":false,"rental_uris":{"android":"levelo://app?vid=1a3a7b0c-c523-4c7a-80ba-30f75e51f53c","ios":"levelo://app?vid=1a3a7b0c-c523-4c7a-80ba-30f75e51f53c"},"vehicle_type_id":"4","last_reported":1731744686,"current_range_meters":32800,"station_id":"ce4bhgp2rcd13ifvqfe0","pricing_plan_id":"cebpf4jnsgd1na2vs0mg"},{"bike_id":"fb45e9b3-f2de-4d82-a347-b901c1d517d2","system_id":"levelo_inurba_marseille","lat":43.25579,"lon":5.38237,"is_reserved":false,"is_disabled":false,"rental_uris":{"android":"levelo://app?vid=fb45e9b3-f2de-4d82-a347-b901c1d517d2","ios":"levelo://app?vid=fb45e9b3-f2de-4d82-a347-b901c1d517d2"},"vehicle_type_id":"4","last_reported":1731744686,"current_range_meters":11200,"station_id":"ce4bhih2rcd13ifvqfs0","pricing_plan_id":"cebpf4jnsgd1na2vs0mg"},{"bike_id":"c478ff06-0baa-4687-ac70-3188bd2aae0c","system_id":"levelo_inurba_marseille","lat":43.27615,"lon":5.36115,"is_reserved":false,"is_disabled":false,"rental_uris":{"android":"levelo://app?vid=c478ff06-0baa-4687-ac70-3188bd2aae0c","ios":"levelo://app?vid=c478ff06-0baa-4687-ac70-3188bd2aae0c"},"vehicle_type_id":"4","last_reported":1731744686,"current_range_meters":9600,"station_id":"ce4bgj92rcd13ifvqbe0","pricing_plan_id":"cebpf4jnsgd1na2vs0mg"},{"bike_id":"7b917398-baae-4151-8646-ee54ea27ce24","system_id":"levelo_inurba_marseille","lat":43.28269,"lon":5.3506,"is_reserved":false,"is_disabled":false,"rental_uris":{"android":"levelo://app?vid=7b917398-baae-4151-8646-ee54ea27ce24","ios":"levelo://app?vid=7b917398-baae-4151-8646-ee54ea27ce24"},"vehicle_type_id":"4","last_reported":1731744686,"current_range_meters":38800,"station_id":"ce4bhbp2rcd13ifvqerg","pricing_plan_id":"cebpf4jnsgd1na2vs0mg"},{"bike_id":"ad97446b-cba2-4020-9eb2-1e9e725bf9d3","system_id":"levelo_inurba_marseille","lat":43.2749,"lon":5.42452,"is_reserved":false,"is_disabled":false,"rental_uris":{"android":"levelo://app?vid=ad97446b-cba2-4020-9eb2-1e9e725bf9d3","ios":"levelo://app?vid=ad97446b-cba2-4020-9eb2-1e9e725bf9d3"},"vehicle_type_id":"4","last_reported":1731744686,"current_range_meters":32400,"station_id":"ce4bhn92rcd13ifvqgrg","pricing_plan_id":"cebpf4jnsgd1na2vs0mg"},{"bike_id":"61affbab-4b1e-4c74-9fab-1311cbd161b5","system_id":"levelo_inurba_marseille","lat":43.29841,"lon":5.36256,"is_reserved":false,"is_disabled":false,"rental_uris":{"android":"levelo://app?vid=61affbab-4b1e-4c74-9fab-1311cbd161b5","ios":"levelo://app?vid=61affbab-4b1e-4c74-9fab-1311cbd161b5"},"vehicle_type_id":"4","last_reported":1731744686,"current_range_meters":39200,"station_id":"ce4bgpp2rcd13ifvqc3g","pricing_plan_id":"cebpf4jnsgd1na2vs0mg"},{"bike_id":"ac8af506-61cf-461b-8fe1-585d92895366","system_id":"levelo_inurba_marseille","lat":43.269303,"lon":5.402576,"is_reserved":false,"is_disabled":false,"rental_uris":{"android":"levelo://app?vid=ac8af506-61cf-461b-8fe1-585d92895366","ios":"levelo://app?vid=ac8af506-61cf-461b-8fe1-585d92895366"},"vehicle_type_id":"4","last_reported":1731744686,"current_range_meters":37600,"station_id":"cjm6bp8fraef2m0cb0m0","pricing_plan_id":"cebpf4jnsgd1na2vs0mg"},{"bike_id":"61dc5a72-902e-4195-9647-849b2eaa5d03","system_id":"levelo_inurba_marseille","lat":43.24668,"lon":5.38159,"is_reserved":false,"is_disabled":false,"rental_uris":{"android":"levelo://app?vid=61dc5a72-902e-4195-9647-849b2eaa5d03","ios":"levelo://app?vid=61dc5a72-902e-4195-9647-849b2eaa5d03"},"vehicle_type_id":"4","last_reported":1731744686,"current_range_meters":38400,"station_id":"ce4bhih2rcd13ifvqfr0","pricing_plan_id":"cebpf4jnsgd1na2vs0mg"},{"bike_id":"589f7e0d-fb9b-4af5-82bf-7b050847f1a5","system_id":"levelo_inurba_marseille","lat":43.28479,"lon":5.384201,"is_reserved":false,"is_disabled":false,"rental_uris":{"android":"levelo://app?vid=589f7e0d-fb9b-4af5-82bf-7b050847f1a5","ios":"levelo://app?vid=589f7e0d-fb9b-4af5-82bf-7b050847f1a5"},"vehicle_type_id":"4","last_reported":1731744686,"current_range_meters":28000,"station_id":"ce4bh512rcd13ifvqe3g","pricing_plan_id":"cebpf4jnsgd1na2vs0mg"},{"bike_id":"75fa4f2b-b147-40fd-a78a-0263ad21e532","system_id":"levelo_inurba_marseille","lat":43.28461,"lon":5.35898,"is_reserved":false,"is_disabled":false,"rental_uris":{"android":"levelo://app?vid=75fa4f2b-b147-40fd-a78a-0263ad21e532","ios":"levelo://app?vid=75fa4f2b-b147-40fd-a78a-0263ad21e532"},"vehicle_type_id":"4","last_reported":1731744686,"current_range_meters":28800,"station_id":"ce4bhah2rcd13ifvqei0","pricing_plan_id":"cebpf4jnsgd1na2vs0mg"},{"bike_id":"8a878f21-f74f-4e2d-aac5-129a4e89affd","system_id":"levelo_inurba_marseille","lat":43.29596,"lon":5.381,"is_reserved":false,"is_disabled":false,"rental_uris":{"android":"levelo://app?vid=8a878f21-f74f-4e2d-aac5-129a4e89affd","ios":"levelo://app?vid=8a878f21-f74f-4e2d-aac5-129a4e89affd"},"vehicle_type_id":"4","last_reported":1731744686,"current_range_meters":25200,"station_id":"ce4bgl12rcd13ifvqbo0","pricing_plan_id":"cebpf4jnsgd1na2vs0mg"},{"bike_id":"2e313c12-87da-4ef1-8513-b55667d9c77e","system_id":"levelo_inurba_marseille","lat":43.30352,"lon":5.41878,"is_reserved":false,"is_disabled":false,"rental_uris":{"android":"levelo://app?vid=2e313c12-87da-4ef1-8513-b55667d9c77e","ios":"levelo://app?vid=2e313c12-87da-4ef1-8513-b55667d9c77e"},"vehicle_type_id":"4","last_reported":1731744686,"current_range_meters":38800,"station_id":"ce4bhop2rcd13ifvqh7g","pricing_plan_id":"cebpf4jnsgd1na2vs0mg"},{"bike_id":"3f347a80-7c16-42de-9259-d1779710224b","system_id":"levelo_inurba_marseille","lat":43.30476,"lon":5.37911,"is_reserved":false,"is_disabled":false,"rental_uris":{"android":"levelo://app?vid=3f347a80-7c16-42de-9259-d1779710224b","ios":"levelo://app?vid=3f347a80-7c16-42de-9259-d1779710224b"},"vehicle_type_id":"4","last_reported":1731744686,"current_range_meters":39200,"station_id":"ce4bgup2rcd13ifvqcn0","pricing_plan_id":"cebpf4jnsgd1na2vs0mg"},{"bike_id":"6875c373-3a3e-464e-8826-15cf173d3295","system_id":"levelo_inurba_marseille","lat":43.24165,"lon":5.36398,"is_reserved":false,"is_disabled":false,"rental_uris":{"android":"levelo://app?vid=6875c373-3a3e-464e-8826-15cf173d3295","ios":"levelo://app?vid=6875c373-3a3e-464e-8826-15cf173d3295"},"vehicle_type_id":"4","last_reported":1731744686,"current_range_meters":38000,"station_id":"cpo36qri1sfpv3e86is0","pricing_plan_id":"cebpf4jnsgd1na2vs0mg"},{"bike_id":"5f1fae91-63dc-4abc-ab00-98c793d99553","system_id":"levelo_inurba_marseille","lat":43.31273,"lon":5.40167,"is_reserved":false,"is_disabled":false,"rental_uris":{"android":"levelo://app?vid=5f1fae91-63dc-4abc-ab00-98c793d99553","ios":"levelo://app?vid=5f1fae91-63dc-4abc-ab00-98c793d99553"},"vehicle_type_id":"4","last_reported":1731744686,"current_range_meters":34800,"station_id":"ce4bh092rcd13ifvqd30","pricing_plan_id":"cebpf4jnsgd1na2vs0mg"},{"bike_id":"d506326a-3ece-4e6e-9eb5-db5c66b74ad5","system_id":"levelo_inurba_marseille","lat":43.28696,"lon":5.37396,"is_reserved":false,"is_disabled":false,"rental_uris":{"android":"levelo://app?vid=d506326a-3ece-4e6e-9eb5-db5c66b74ad5","ios":"levelo://app?vid=d506326a-3ece-4e6e-9eb5-db5c66b74ad5"},"vehicle_type_id":"4","last_reported":1731744686,"current_range_meters":36000,"station_id":"ce4bh3p2rcd13ifvqdq0","pricing_plan_id":"cebpf4jnsgd1na2vs0mg"},{"bike_id":"551cfde0-7f42-4142-8506-e87e27d882a1","system_id":"levelo_inurba_marseille","lat":43.29901,"lon":5.38131,"is_reserved":false,"is_disabled":false,"rental_uris":{"android":"levelo://app?vid=551cfde0-7f42-4142-8506-e87e27d882a1","ios":"levelo://app?vid=551cfde0-7f42-4142-8506-e87e27d882a1"},"vehicle_type_id":"4","last_reported":1731744686,"current_range_meters":16000,"station_id":"ce4bgj12rcd13ifvqbc0","pricing_plan_id":"cebpf4jnsgd1na2vs0mg"},{"bike_id":"f1be1b21-bb29-4fee-996b-7e208af1ea1c","system_id":"levelo_inurba_marseille","lat":43.32339,"lon":5.40616,"is_reserved":false,"is_disabled":false,"rental_uris":{"android":"levelo://app?vid=f1be1b21-bb29-4fee-996b-7e208af1ea1c","ios":"levelo://app?vid=f1be1b21-bb29-4fee-996b-7e208af1ea1c"},"vehicle_type_id":"4","last_reported":1731744686,"current_range_meters":8000,"station_id":"ce4bhq92rcd13ifvqhjg","pricing_plan_id":"cebpf4jnsgd1na2vs0mg"},{"bike_id":"0ea49776-c4a7-4d28-8e8b-01b6ede167bf","system_id":"levelo_inurba_marseille","lat":43.29521,"lon":5.37506,"is_reserved":false,"is_disabled":false,"rental_uris":{"android":"levelo://app?vid=0ea49776-c4a7-4d28-8e8b-01b6ede167bf","ios":"levelo://app?vid=0ea49776-c4a7-4d28-8e8b-01b6ede167bf"},"vehicle_type_id":"4","last_reported":1731744686,"current_range_meters":37600,"station_id":"ce4bh392rcd13ifvqdl0","pricing_plan_id":"cebpf4jnsgd1na2vs0mg"},{"bike_id":"792ba918-f0aa-452f-8f68-1a7a13f87316","system_id":"levelo_inurba_marseille","lat":43.24667,"lon":5.38159,"is_reserved":false,"is_disabled":false,"rental_uris":{"android":"levelo://app?vid=792ba918-f0aa-452f-8f68-1a7a13f87316","ios":"levelo://app?vid=792ba918-f0aa-452f-8f68-1a7a13f87316"},"vehicle_type_id":"4","last_reported":1731744686,"current_range_meters":22000,"station_id":"ce4bhih2rcd13ifvqfr0","pricing_plan_id":"cebpf4jnsgd1na2vs0mg"},{"bike_id":"775acaae-48b0-408e-ac81-419b45fed9ef","system_id":"levelo_inurba_marseille","lat":43.30321,"lon":5.36899,"is_reserved":false,"is_disabled":false,"rental_uris":{"android":"levelo://app?vid=775acaae-48b0-408e-ac81-419b45fed9ef","ios":"levelo://app?vid=775acaae-48b0-408e-ac81-419b45fed9ef"},"vehicle_type_id":"4","last_reported":1731744686,"current_range_meters":38800,"station_id":"ce4bgqh2rcd13ifvqc5g","pricing_plan_id":"cebpf4jnsgd1na2vs0mg"},{"bike_id":"68073229-44b7-4dbf-a4ca-92e6c252ce6e","system_id":"levelo_inurba_marseille","lat":43.2978,"lon":5.39324,"is_reserved":false,"is_disabled":false,"rental_uris":{"android":"levelo://app?vid=68073229-44b7-4dbf-a4ca-92e6c252ce6e","ios":"levelo://app?vid=68073229-44b7-4dbf-a4ca-92e6c252ce6e"},"vehicle_type_id":"4","last_reported":1731744686,"current_range_meters":17200,"station_id":"chh1huq6cuj3fo74tm60","pricing_plan_id":"cebpf4jnsgd1na2vs0mg"},{"bike_id":"f271f6e7-a7ba-4b0d-942d-cc1907bed849","system_id":"levelo_inurba_marseille","lat":43.28104,"lon":5.3784,"is_reserved":false,"is_disabled":false,"rental_uris":{"android":"levelo://app?vid=f271f6e7-a7ba-4b0d-942d-cc1907bed849","ios":"levelo://app?vid=f271f6e7-a7ba-4b0d-942d-cc1907bed849"},"vehicle_type_id":"4","last_reported":1731744686,"current_range_meters":12400,"station_id":"ce4bha12rcd13ifvqee0","pricing_plan_id":"cebpf4jnsgd1na2vs0mg"},{"bike_id":"142700ad-0b34-462f-bef9-1e589c46f28d","system_id":"levelo_inurba_marseille","lat":43.28699,"lon":5.3998,"is_reserved":false,"is_disabled":false,"rental_uris":{"android":"levelo://app?vid=142700ad-0b34-462f-bef9-1e589c46f28d","ios":"levelo://app?vid=142700ad-0b34-462f-bef9-1e589c46f28d"},"vehicle_type_id":"4","last_reported":1731744686,"current_range_meters":25600,"station_id":"ce4bho92rcd13ifvqh3g","pricing_plan_id":"cebpf4jnsgd1na2vs0mg"},{"bike_id":"ae0491f3-5d70-441c-acf0-3d1e976bcd0a","system_id":"levelo_inurba_marseille","lat":43.31645,"lon":5.37845,"is_reserved":false,"is_disabled":false,"rental_uris":{"android":"levelo://app?vid=ae0491f3-5d70-441c-acf0-3d1e976bcd0a","ios":"levelo://app?vid=ae0491f3-5d70-441c-acf0-3d1e976bcd0a"},"vehicle_type_id":"4","last_reported":1731744686,"current_range_meters":8800,"station_id":"","pricing_plan_id":"cebpf4jnsgd1na2vs0mg"},{"bike_id":"abd3bbaf-79f7-4579-9191-c7baa3b8349b","system_id":"levelo_inurba_marseille","lat":43.27494,"lon":5.42444,"is_reserved":false,"is_disabled":false,"rental_uris":{"android":"levelo://app?vid=abd3bbaf-79f7-4579-9191-c7baa3b8349b","ios":"levelo://app?vid=abd3bbaf-79f7-4579-9191-c7baa3b8349b"},"vehicle_type_id":"4","last_reported":1731744686,"current_range_meters":7200,"station_id":"ce4bhn92rcd13ifvqgrg","pricing_plan_id":"cebpf4jnsgd1na2vs0mg"},{"bike_id":"3b2f9214-f4a1-4af0-8ea4-725389312500","system_id":"levelo_inurba_marseille","lat":43.337444,"lon":5.374475,"is_reserved":false,"is_disabled":false,"rental_uris":{"android":"levelo://app?vid=3b2f9214-f4a1-4af0-8ea4-725389312500","ios":"levelo://app?vid=3b2f9214-f4a1-4af0-8ea4-725389312500"},"vehicle_type_id":"4","last_reported":1731744686,"current_range_meters":38400,"station_id":"","pricing_plan_id":"cebpf4jnsgd1na2vs0mg"},{"bike_id":"292ec6b9-529d-4ec1-b4f8-d3df413f2923","system_id":"levelo_inurba_marseille","lat":43.31717,"lon":5.43702,"is_reserved":false,"is_disabled":false,"rental_uris":{"android":"levelo://app?vid=292ec6b9-529d-4ec1-b4f8-d3df413f2923","ios":"levelo://app?vid=292ec6b9-529d-4ec1-b4f8-d3df413f2923"},"vehicle_type_id":"4","last_reported":1731744686,"current_range_meters":38800,"station_id":"ce4bhp92rcd13ifvqhcg","pricing_plan_id":"cebpf4jnsgd1na2vs0mg"},{"bike_id":"4cbd7226-43bc-4a1c-b31a-f299d9bf5ede","system_id":"levelo_inurba_marseille","lat":43.25504,"lon":5.37654,"is_reserved":false,"is_disabled":false,"rental_uris":{"android":"levelo://app?vid=4cbd7226-43bc-4a1c-b31a-f299d9bf5ede","ios":"levelo://app?vid=4cbd7226-43bc-4a1c-b31a-f299d9bf5ede"},"vehicle_type_id":"4","last_reported":1731744686,"current_range_meters":38800,"station_id":"ce4bhh12rcd13ifvqff0","pricing_plan_id":"cebpf4jnsgd1na2vs0mg"},{"bike_id":"76ada99b-13e5-4bb8-a67a-8c73c57f3f01","system_id":"levelo_inurba_marseille","lat":43.32051,"lon":5.41557,"is_reserved":false,"is_disabled":false,"rental_uris":{"android":"levelo://app?vid=76ada99b-13e5-4bb8-a67a-8c73c57f3f01","ios":"levelo://app?vid=76ada99b-13e5-4bb8-a67a-8c73c57f3f01"},"vehicle_type_id":"4","last_reported":1731744686,"current_range_meters":38800,"station_id":"ce4bhq92rcd13ifvqhkg","pricing_plan_id":"cebpf4jnsgd1na2vs0mg"},{"bike_id":"638ee7c2-fe87-45ad-9d30-192c05a964ea","system_id":"levelo_inurba_marseille","lat":43.26941,"lon":5.40245,"is_reserved":false,"is_disabled":false,"rental_uris":{"android":"levelo://app?vid=638ee7c2-fe87-45ad-9d30-192c05a964ea","ios":"levelo://app?vid=638ee7c2-fe87-45ad-9d30-192c05a964ea"},"vehicle_type_id":"4","last_reported":1731744686,"current_range_meters":30800,"station_id":"cjm6bp8fraef2m0cb0m0","pricing_plan_id":"cebpf4jnsgd1na2vs0mg"},{"bike_id":"f582f5b9-3aa7-46dd-af45-9af1734cd7d4","system_id":"levelo_inurba_marseille","lat":43.3015,"lon":5.38078,"is_reserved":false,"is_disabled":false,"rental_uris":{"android":"levelo://app?vid=f582f5b9-3aa7-46dd-af45-9af1734cd7d4","ios":"levelo://app?vid=f582f5b9-3aa7-46dd-af45-9af1734cd7d4"},"vehicle_type_id":"4","last_reported":1731744686,"current_range_meters":19600,"station_id":"ce4bgjp2rcd13ifvqbh0","pricing_plan_id":"cebpf4jnsgd1na2vs0mg"},{"bike_id":"c8e2c15e-a8ac-4cc8-81c5-c8d04a6c247e","system_id":"levelo_inurba_marseille","lat":43.30151,"lon":5.38077,"is_reserved":false,"is_disabled":false,"rental_uris":{"android":"levelo://app?vid=c8e2c15e-a8ac-4cc8-81c5-c8d04a6c247e","ios":"levelo://app?vid=c8e2c15e-a8ac-4cc8-81c5-c8d04a6c247e"},"vehicle_type_id":"4","last_reported":1731744686,"current_range_meters":27600,"station_id":"ce4bgjp2rcd13ifvqbh0","pricing_plan_id":"cebpf4jnsgd1na2vs0mg"},{"bike_id":"bbdb866c-a538-40b1-afb6-edb9f4ddf289","system_id":"levelo_inurba_marseille","lat":43.3014,"lon":5.3987,"is_reserved":false,"is_disabled":false,"rental_uris":{"android":"levelo://app?vid=bbdb866c-a538-40b1-afb6-edb9f4ddf289","ios":"levelo://app?vid=bbdb866c-a538-40b1-afb6-edb9f4ddf289"},"vehicle_type_id":"4","last_reported":1731744686,"current_range_meters":34000,"station_id":"ce4bh0h2rcd13ifvqd40","pricing_plan_id":"cebpf4jnsgd1na2vs0mg"},{"bike_id":"82588854-e185-482e-a51c-801099d30d24","system_id":"levelo_inurba_marseille","lat":43.24672,"lon":5.381567,"is_reserved":false,"is_disabled":false,"rental_uris":{"android":"levelo://app?vid=82588854-e185-482e-a51c-801099d30d24","ios":"levelo://app?vid=82588854-e185-482e-a51c-801099d30d24"},"vehicle_type_id":"4","last_reported":1731744686,"current_range_meters":10000,"station_id":"ce4bhih2rcd13ifvqfr0","pricing_plan_id":"cebpf4jnsgd1na2vs0mg"},{"bike_id":"627befbe-ef81-4909-afe2-48970fe8987d","system_id":"levelo_inurba_marseille","lat":43.32335,"lon":5.40627,"is_reserved":false,"is_disabled":false,"rental_uris":{"android":"levelo://app?vid=627befbe-ef81-4909-afe2-48970fe8987d","ios":"levelo://app?vid=627befbe-ef81-4909-afe2-48970fe8987d"},"vehicle_type_id":"4","last_reported":1731744686,"current_range_meters":3200,"station_id":"ce4bhq92rcd13ifvqhjg","pricing_plan_id":"cebpf4jnsgd1na2vs0mg"},{"bike_id":"6b8eba9e-251e-401f-9b82-4a96d08ef40f","system_id":"levelo_inurba_marseille","lat":43.33006,"lon":5.39045,"is_reserved":false,"is_disabled":false,"rental_uris":{"android":"levelo://app?vid=6b8eba9e-251e-401f-9b82-4a96d08ef40f","ios":"levelo://app?vid=6b8eba9e-251e-401f-9b82-4a96d08ef40f"},"vehicle_type_id":"4","last_reported":1731744686,"current_range_meters":18800,"station_id":"ce4bhr92rcd13ifvqhrg","pricing_plan_id":"cebpf4jnsgd1na2vs0mg"},{"bike_id":"d315e354-8c5a-4c6a-9271-e95fedc880ed","system_id":"levelo_inurba_marseille","lat":43.30435,"lon":5.38906,"is_reserved":false,"is_disabled":false,"rental_uris":{"android":"levelo://app?vid=d315e354-8c5a-4c6a-9271-e95fedc880ed","ios":"levelo://app?vid=d315e354-8c5a-4c6a-9271-e95fedc880ed"},"vehicle_type_id":"4","last_reported":1731744686,"current_range_meters":10800,"station_id":"ce4bgk12rcd13ifvqbi0","pricing_plan_id":"cebpf4jnsgd1na2vs0mg"},{"bike_id":"7f906e9d-657a-4ecb-8b79-6e2cf55c3ff2","system_id":"levelo_inurba_marseille","lat":43.29595,"lon":5.38095,"is_reserved":false,"is_disabled":false,"rental_uris":{"android":"levelo://app?vid=7f906e9d-657a-4ecb-8b79-6e2cf55c3ff2","ios":"levelo://app?vid=7f906e9d-657a-4ecb-8b79-6e2cf55c3ff2"},"vehicle_type_id":"4","last_reported":1731744686,"current_range_meters":24400,"station_id":"ce4bgl12rcd13ifvqbo0","pricing_plan_id":"cebpf4jnsgd1na2vs0mg"},{"bike_id":"b41140b6-552a-4fac-81c3-2122c2ec4fd5","system_id":"levelo_inurba_marseille","lat":43.24543,"lon":5.39529,"is_reserved":false,"is_disabled":false,"rental_uris":{"android":"levelo://app?vid=b41140b6-552a-4fac-81c3-2122c2ec4fd5","ios":"levelo://app?vid=b41140b6-552a-4fac-81c3-2122c2ec4fd5"},"vehicle_type_id":"4","last_reported":1731744686,"current_range_meters":20000,"station_id":"ce4bhlp2rcd13ifvqgjg","pricing_plan_id":"cebpf4jnsgd1na2vs0mg"},{"bike_id":"c974cc8b-299b-4d52-81c8-4e50a91b9225","system_id":"levelo_inurba_marseille","lat":43.33745,"lon":5.37487,"is_reserved":false,"is_disabled":false,"rental_uris":{"android":"levelo://app?vid=c974cc8b-299b-4d52-81c8-4e50a91b9225","ios":"levelo://app?vid=c974cc8b-299b-4d52-81c8-4e50a91b9225"},"vehicle_type_id":"4","last_reported":1731744686,"current_range_meters":35600,"station_id":"","pricing_plan_id":"cebpf4jnsgd1na2vs0mg"},{"bike_id":"f86a601e-26e3-440e-a7e5-894f75bad9f4","system_id":"levelo_inurba_marseille","lat":43.337444,"lon":5.374475,"is_reserved":false,"is_disabled":false,"rental_uris":{"android":"levelo://app?vid=f86a601e-26e3-440e-a7e5-894f75bad9f4","ios":"levelo://app?vid=f86a601e-26e3-440e-a7e5-894f75bad9f4"},"vehicle_type_id":"4","last_reported":1731744686,"current_range_meters":20000,"station_id":"","pricing_plan_id":"cebpf4jnsgd1na2vs0mg"},{"bike_id":"b02cad58-3de4-410a-a29d-78e174a9d94a","system_id":"levelo_inurba_marseille","lat":43.23193,"lon":5.35548,"is_reserved":false,"is_disabled":false,"rental_uris":{"android":"levelo://app?vid=b02cad58-3de4-410a-a29d-78e174a9d94a","ios":"levelo://app?vid=b02cad58-3de4-410a-a29d-78e174a9d94a"},"vehicle_type_id":"4","last_reported":1731744686,"current_range_meters":38000,"station_id":"ce4bhu92rcd13ifvqi70","pricing_plan_id":"cebpf4jnsgd1na2vs0mg"},{"bike_id":"980c2b64-5ae6-4e8e-ac4f-88eb697394b6","system_id":"levelo_inurba_marseille","lat":43.25933,"lon":5.40905,"is_reserved":false,"is_disabled":false,"rental_uris":{"android":"levelo://app?vid=980c2b64-5ae6-4e8e-ac4f-88eb697394b6","ios":"levelo://app?vid=980c2b64-5ae6-4e8e-ac4f-88eb697394b6"},"vehicle_type_id":"4","last_reported":1731744686,"current_range_meters":2800,"station_id":"ce4bhm92rcd13ifvqglg","pricing_plan_id":"cebpf4jnsgd1na2vs0mg"},{"bike_id":"e1501de1-4181-416d-8c53-6efce29ebe9e","system_id":"levelo_inurba_marseille","lat":43.25496,"lon":5.37648,"is_reserved":false,"is_disabled":false,"rental_uris":{"android":"levelo://app?vid=e1501de1-4181-416d-8c53-6efce29ebe9e","ios":"levelo://app?vid=e1501de1-4181-416d-8c53-6efce29ebe9e"},"vehicle_type_id":"4","last_reported":1731744686,"current_range_meters":30400,"station_id":"ce4bhh12rcd13ifvqff0","pricing_plan_id":"cebpf4jnsgd1na2vs0mg"},{"bike_id":"35adfc1a-f20a-484a-b940-a095b4e0cdea","system_id":"levelo_inurba_marseille","lat":43.30464,"lon":5.37899,"is_reserved":false,"is_disabled":false,"rental_uris":{"android":"levelo://app?vid=35adfc1a-f20a-484a-b940-a095b4e0cdea","ios":"levelo://app?vid=35adfc1a-f20a-484a-b940-a095b4e0cdea"},"vehicle_type_id":"4","last_reported":1731744686,"current_range_meters":33600,"station_id":"ce4bgup2rcd13ifvqcn0","pricing_plan_id":"cebpf4jnsgd1na2vs0mg"},{"bike_id":"9eb2e0df-1bf4-4afc-9daf-e311e5648c03","system_id":"levelo_inurba_marseille","lat":43.25503,"lon":5.37651,"is_reserved":false,"is_disabled":false,"rental_uris":{"android":"levelo://app?vid=9eb2e0df-1bf4-4afc-9daf-e311e5648c03","ios":"levelo://app?vid=9eb2e0df-1bf4-4afc-9daf-e311e5648c03"},"vehicle_type_id":"4","last_reported":1731744686,"current_range_meters":10800,"station_id":"ce4bhh12rcd13ifvqff0","pricing_plan_id":"cebpf4jnsgd1na2vs0mg"},{"bike_id":"418cf54f-0deb-430a-adaf-79e975807f2c","system_id":"levelo_inurba_marseille","lat":43.29694,"lon":5.37302,"is_reserved":false,"is_disabled":false,"rental_uris":{"android":"levelo://app?vid=418cf54f-0deb-430a-adaf-79e975807f2c","ios":"levelo://app?vid=418cf54f-0deb-430a-adaf-79e975807f2c"},"vehicle_type_id":"4","last_reported":1731744686,"current_range_meters":18000,"station_id":"ce4bgk12rcd13ifvqbj0","pricing_plan_id":"cebpf4jnsgd1na2vs0mg"},{"bike_id":"d94748f8-40ee-4468-9ec9-f30930775c57","system_id":"levelo_inurba_marseille","lat":43.27179,"lon":5.40987,"is_reserved":false,"is_disabled":false,"rental_uris":{"android":"levelo://app?vid=d94748f8-40ee-4468-9ec9-f30930775c57","ios":"levelo://app?vid=d94748f8-40ee-4468-9ec9-f30930775c57"},"vehicle_type_id":"4","last_reported":1731744686,"current_range_meters":37600,"station_id":"ce4bhl12rcd13ifvqgf0","pricing_plan_id":"cebpf4jnsgd1na2vs0mg"},{"bike_id":"c7ad3112-6fa1-480b-b6f6-f0b1dce495ed","system_id":"levelo_inurba_marseille","lat":43.27381,"lon":5.3625,"is_reserved":false,"is_disabled":false,"rental_uris":{"android":"levelo://app?vid=c7ad3112-6fa1-480b-b6f6-f0b1dce495ed","ios":"levelo://app?vid=c7ad3112-6fa1-480b-b6f6-f0b1dce495ed"},"vehicle_type_id":"4","last_reported":1731744686,"current_range_meters":37600,"station_id":"ce4bhbh2rcd13ifvqeo0","pricing_plan_id":"cebpf4jnsgd1na2vs0mg"},{"bike_id":"3076a887-75d6-400b-a1d2-432d28392d1b","system_id":"levelo_inurba_marseille","lat":43.330109,"lon":5.390946,"is_reserved":false,"is_disabled":false,"rental_uris":{"android":"levelo://app?vid=3076a887-75d6-400b-a1d2-432d28392d1b","ios":"levelo://app?vid=3076a887-75d6-400b-a1d2-432d28392d1b"},"vehicle_type_id":"4","last_reported":1731744686,"current_range_meters":12400,"station_id":"ce4bhgh2rcd13ifvqfa0","pricing_plan_id":"cebpf4jnsgd1na2vs0mg"},{"bike_id":"d7c640cb-2a84-4400-9766-128530948093","system_id":"levelo_inurba_marseille","lat":43.31532,"lon":5.38032,"is_reserved":false,"is_disabled":false,"rental_uris":{"android":"levelo://app?vid=d7c640cb-2a84-4400-9766-128530948093","ios":"levelo://app?vid=d7c640cb-2a84-4400-9766-128530948093"},"vehicle_type_id":"4","last_reported":1731744686,"current_range_meters":38800,"station_id":"ce4bhsp2rcd13ifvqi50","pricing_plan_id":"cebpf4jnsgd1na2vs0mg"},{"bike_id":"45be4043-e7f8-4e6e-9755-86d65b471d2f","system_id":"levelo_inurba_marseille","lat":43.29032,"lon":5.3997,"is_reserved":false,"is_disabled":false,"rental_uris":{"android":"levelo://app?vid=45be4043-e7f8-4e6e-9755-86d65b471d2f","ios":"levelo://app?vid=45be4043-e7f8-4e6e-9755-86d65b471d2f"},"vehicle_type_id":"4","last_reported":1731744686,"current_range_meters":12400,"station_id":"ce4bh392rcd13ifvqdm0","pricing_plan_id":"cebpf4jnsgd1na2vs0mg"},{"bike_id":"231f4378-294e-4117-8fb0-630e80be8890","system_id":"levelo_inurba_marseille","lat":43.25722,"lon":5.41104,"is_reserved":false,"is_disabled":false,"rental_uris":{"android":"levelo://app?vid=231f4378-294e-4117-8fb0-630e80be8890","ios":"levelo://app?vid=231f4378-294e-4117-8fb0-630e80be8890"},"vehicle_type_id":"4","last_reported":1731744686,"current_range_meters":37600,"station_id":"ce4bhkp2rcd13ifvqgd0","pricing_plan_id":"cebpf4jnsgd1na2vs0mg"},{"bike_id":"46632805-d598-46ca-8978-4f5e71b702c6","system_id":"levelo_inurba_marseille","lat":43.28147,"lon":5.42635,"is_reserved":false,"is_disabled":false,"rental_uris":{"android":"levelo://app?vid=46632805-d598-46ca-8978-4f5e71b702c6","ios":"levelo://app?vid=46632805-d598-46ca-8978-4f5e71b702c6"},"vehicle_type_id":"4","last_reported":1731744686,"current_range_meters":38400,"station_id":"ce4bhnh2rcd13ifvqgug","pricing_plan_id":"cebpf4jnsgd1na2vs0mg"},{"bike_id":"b2495fbb-064c-415c-a969-4a1d895c0fe4","system_id":"levelo_inurba_marseille","lat":43.30478,"lon":5.37911,"is_reserved":false,"is_disabled":false,"rental_uris":{"android":"levelo://app?vid=b2495fbb-064c-415c-a969-4a1d895c0fe4","ios":"levelo://app?vid=b2495fbb-064c-415c-a969-4a1d895c0fe4"},"vehicle_type_id":"4","last_reported":1731744686,"current_range_meters":16400,"station_id":"ce4bgup2rcd13ifvqcn0","pricing_plan_id":"cebpf4jnsgd1na2vs0mg"},{"bike_id":"bff2b802-22fb-4440-9ddd-c6e48a3f3504","system_id":"levelo_inurba_marseille","lat":43.32337,"lon":5.4062,"is_reserved":false,"is_disabled":false,"rental_uris":{"android":"levelo://app?vid=bff2b802-22fb-4440-9ddd-c6e48a3f3504","ios":"levelo://app?vid=bff2b802-22fb-4440-9ddd-c6e48a3f3504"},"vehicle_type_id":"4","last_reported":1731744686,"current_range_meters":25600,"station_id":"ce4bhq92rcd13ifvqhjg","pricing_plan_id":"cebpf4jnsgd1na2vs0mg"},{"bike_id":"d01dca5e-5b16-48ef-9899-62a24cb1091b","system_id":"levelo_inurba_marseille","lat":43.30598,"lon":5.37232,"is_reserved":false,"is_disabled":false,"rental_uris":{"android":"levelo://app?vid=d01dca5e-5b16-48ef-9899-62a24cb1091b","ios":"levelo://app?vid=d01dca5e-5b16-48ef-9899-62a24cb1091b"},"vehicle_type_id":"4","last_reported":1731744686,"current_range_meters":31200,"station_id":"ce4bgqh2rcd13ifvqc4g","pricing_plan_id":"cebpf4jnsgd1na2vs0mg"},{"bike_id":"3b205733-6d34-4221-9f1b-fb84b42fce0c","system_id":"levelo_inurba_marseille","lat":43.30936,"lon":5.40142,"is_reserved":false,"is_disabled":false,"rental_uris":{"android":"levelo://app?vid=3b205733-6d34-4221-9f1b-fb84b42fce0c","ios":"levelo://app?vid=3b205733-6d34-4221-9f1b-fb84b42fce0c"},"vehicle_type_id":"4","last_reported":1731744686,"current_range_meters":22800,"station_id":"ce4bgvp2rcd13ifvqct0","pricing_plan_id":"cebpf4jnsgd1na2vs0mg"},{"bike_id":"a7759f52-43d8-4392-a4d7-50c3610b64f4","system_id":"levelo_inurba_marseille","lat":43.32485,"lon":5.36569,"is_reserved":false,"is_disabled":false,"rental_uris":{"android":"levelo://app?vid=a7759f52-43d8-4392-a4d7-50c3610b64f4","ios":"levelo://app?vid=a7759f52-43d8-4392-a4d7-50c3610b64f4"},"vehicle_type_id":"4","last_reported":1731744686,"current_range_meters":39200,"station_id":"ce4bhs12rcd13ifvqhvg","pricing_plan_id":"cebpf4jnsgd1na2vs0mg"},{"bike_id":"2c7da520-bf3f-4579-bbaf-d8bed38515fb","system_id":"levelo_inurba_marseille","lat":43.246537,"lon":5.388952,"is_reserved":false,"is_disabled":false,"rental_uris":{"android":"levelo://app?vid=2c7da520-bf3f-4579-bbaf-d8bed38515fb","ios":"levelo://app?vid=2c7da520-bf3f-4579-bbaf-d8bed38515fb"},"vehicle_type_id":"4","last_reported":1731744686,"current_range_meters":38800,"station_id":"ce4bhg12rcd13ifvqf60","pricing_plan_id":"cebpf4jnsgd1na2vs0mg"},{"bike_id":"f977c5f6-0664-4a1f-98cb-06e11ab740ff","system_id":"levelo_inurba_marseille","lat":43.27491,"lon":5.42444,"is_reserved":false,"is_disabled":false,"rental_uris":{"android":"levelo://app?vid=f977c5f6-0664-4a1f-98cb-06e11ab740ff","ios":"levelo://app?vid=f977c5f6-0664-4a1f-98cb-06e11ab740ff"},"vehicle_type_id":"4","last_reported":1731744686,"current_range_meters":39200,"station_id":"ce4bhn92rcd13ifvqgrg","pricing_plan_id":"cebpf4jnsgd1na2vs0mg"},{"bike_id":"4201f3e3-ff4a-46c2-b28a-2f5ed395a255","system_id":"levelo_inurba_marseille","lat":43.26948,"lon":5.38641,"is_reserved":false,"is_disabled":false,"rental_uris":{"android":"levelo://app?vid=4201f3e3-ff4a-46c2-b28a-2f5ed395a255","ios":"levelo://app?vid=4201f3e3-ff4a-46c2-b28a-2f5ed395a255"},"vehicle_type_id":"4","last_reported":1731744686,"current_range_meters":10000,"station_id":"ce4bhh92rcd13ifvqfh0","pricing_plan_id":"cebpf4jnsgd1na2vs0mg"},{"bike_id":"d450545d-116d-4b19-a52c-b8eb7dcdcab9","system_id":"levelo_inurba_marseille","lat":43.25579,"lon":5.38241,"is_reserved":false,"is_disabled":false,"rental_uris":{"android":"levelo://app?vid=d450545d-116d-4b19-a52c-b8eb7dcdcab9","ios":"levelo://app?vid=d450545d-116d-4b19-a52c-b8eb7dcdcab9"},"vehicle_type_id":"4","last_reported":1731744686,"current_range_meters":18800,"station_id":"ce4bhih2rcd13ifvqfs0","pricing_plan_id":"cebpf4jnsgd1na2vs0mg"},{"bike_id":"60346686-846e-43e0-b1f0-095f872d71c2","system_id":"levelo_inurba_marseille","lat":43.337444,"lon":5.374475,"is_reserved":false,"is_disabled":false,"rental_uris":{"android":"levelo://app?vid=60346686-846e-43e0-b1f0-095f872d71c2","ios":"levelo://app?vid=60346686-846e-43e0-b1f0-095f872d71c2"},"vehicle_type_id":"4","last_reported":1731744686,"current_range_meters":35600,"station_id":"","pricing_plan_id":"cebpf4jnsgd1na2vs0mg"},{"bike_id":"55a37a3e-28b2-47e6-8cb2-aac9a16d1b7e","system_id":"levelo_inurba_marseille","lat":43.31703,"lon":5.37757,"is_reserved":false,"is_disabled":false,"rental_uris":{"android":"levelo://app?vid=55a37a3e-28b2-47e6-8cb2-aac9a16d1b7e","ios":"levelo://app?vid=55a37a3e-28b2-47e6-8cb2-aac9a16d1b7e"},"vehicle_type_id":"4","last_reported":1731744686,"current_range_meters":39200,"station_id":"ce4bgth2rcd13ifvqch0","pricing_plan_id":"cebpf4jnsgd1na2vs0mg"},{"bike_id":"a65a2419-69e6-4d19-b1e3-3abe61fd327b","system_id":"levelo_inurba_marseille","lat":43.24811,"lon":5.37458,"is_reserved":false,"is_disabled":false,"rental_uris":{"android":"levelo://app?vid=a65a2419-69e6-4d19-b1e3-3abe61fd327b","ios":"levelo://app?vid=a65a2419-69e6-4d19-b1e3-3abe61fd327b"},"vehicle_type_id":"4","last_reported":1731744686,"current_range_meters":36800,"station_id":"ce4bhgh2rcd13ifvqfb0","pricing_plan_id":"cebpf4jnsgd1na2vs0mg"},{"bike_id":"d206d41a-8ea1-48b7-8dea-76f005b54e28","system_id":"levelo_inurba_marseille","lat":43.33764,"lon":5.37435,"is_reserved":false,"is_disabled":false,"rental_uris":{"android":"levelo://app?vid=d206d41a-8ea1-48b7-8dea-76f005b54e28","ios":"levelo://app?vid=d206d41a-8ea1-48b7-8dea-76f005b54e28"},"vehicle_type_id":"4","last_reported":1731744686,"current_range_meters":27200,"station_id":"","pricing_plan_id":"cebpf4jnsgd1na2vs0mg"},{"bike_id":"7386319e-0d6c-493a-904a-1c5207db3d50","system_id":"levelo_inurba_marseille","lat":43.23185,"lon":5.3999,"is_reserved":false,"is_disabled":false,"rental_uris":{"android":"levelo://app?vid=7386319e-0d6c-493a-904a-1c5207db3d50","ios":"levelo://app?vid=7386319e-0d6c-493a-904a-1c5207db3d50"},"vehicle_type_id":"4","last_reported":1731744686,"current_range_meters":19200,"station_id":"ce4bhn12rcd13ifvqgqg","pricing_plan_id":"cebpf4jnsgd1na2vs0mg"},{"bike_id":"833e03e1-4c2a-4d48-b02a-e51996b7b259","system_id":"levelo_inurba_marseille","lat":43.26493,"lon":5.39547,"is_reserved":false,"is_disabled":false,"rental_uris":{"android":"levelo://app?vid=833e03e1-4c2a-4d48-b02a-e51996b7b259","ios":"levelo://app?vid=833e03e1-4c2a-4d48-b02a-e51996b7b259"},"vehicle_type_id":"4","last_reported":1731744686,"current_range_meters":3600,"station_id":"ce4bhi12rcd13ifvqfq0","pricing_plan_id":"cebpf4jnsgd1na2vs0mg"},{"bike_id":"925aba4e-881c-48d6-b23d-ef545f11c115","system_id":"levelo_inurba_marseille","lat":43.255,"lon":5.37649,"is_reserved":false,"is_disabled":false,"rental_uris":{"android":"levelo://app?vid=925aba4e-881c-48d6-b23d-ef545f11c115","ios":"levelo://app?vid=925aba4e-881c-48d6-b23d-ef545f11c115"},"vehicle_type_id":"4","last_reported":1731744686,"current_range_meters":2800,"station_id":"ce4bhh12rcd13ifvqff0","pricing_plan_id":"cebpf4jnsgd1na2vs0mg"},{"bike_id":"e47cfbc6-295d-4997-9bc6-0a75990e2b15","system_id":"levelo_inurba_marseille","lat":43.30936,"lon":5.40134,"is_reserved":false,"is_disabled":false,"rental_uris":{"android":"levelo://app?vid=e47cfbc6-295d-4997-9bc6-0a75990e2b15","ios":"levelo://app?vid=e47cfbc6-295d-4997-9bc6-0a75990e2b15"},"vehicle_type_id":"4","last_reported":1731744686,"current_range_meters":19600,"station_id":"ce4bgvp2rcd13ifvqct0","pricing_plan_id":"cebpf4jnsgd1na2vs0mg"},{"bike_id":"31561c0f-72eb-4acc-ba4f-45e2b710e476","system_id":"levelo_inurba_marseille","lat":43.30155,"lon":5.38082,"is_reserved":false,"is_disabled":false,"rental_uris":{"android":"levelo://app?vid=31561c0f-72eb-4acc-ba4f-45e2b710e476","ios":"levelo://app?vid=31561c0f-72eb-4acc-ba4f-45e2b710e476"},"vehicle_type_id":"4","last_reported":1731744686,"current_range_meters":9600,"station_id":"ce4bgjp2rcd13ifvqbh0","pricing_plan_id":"cebpf4jnsgd1na2vs0mg"},{"bike_id":"c0840d01-dc13-4fcd-93be-693b188f45ef","system_id":"levelo_inurba_marseille","lat":43.27207,"lon":5.39175,"is_reserved":false,"is_disabled":false,"rental_uris":{"android":"levelo://app?vid=c0840d01-dc13-4fcd-93be-693b188f45ef","ios":"levelo://app?vid=c0840d01-dc13-4fcd-93be-693b188f45ef"},"vehicle_type_id":"4","last_reported":1731744686,"current_range_meters":6000,"station_id":"ce4bhhp2rcd13ifvqfm0","pricing_plan_id":"cebpf4jnsgd1na2vs0mg"},{"bike_id":"d32afcdf-fd1a-425e-aa18-925f751ec17e","system_id":"levelo_inurba_marseille","lat":43.29038,"lon":5.39957,"is_reserved":false,"is_disabled":false,"rental_uris":{"android":"levelo://app?vid=d32afcdf-fd1a-425e-aa18-925f751ec17e","ios":"levelo://app?vid=d32afcdf-fd1a-425e-aa18-925f751ec17e"},"vehicle_type_id":"4","last_reported":1731744686,"current_range_meters":31200,"station_id":"ce4bh392rcd13ifvqdm0","pricing_plan_id":"cebpf4jnsgd1na2vs0mg"},{"bike_id":"c1189ec1-c35f-4612-895e-f179eed881bb","system_id":"levelo_inurba_marseille","lat":43.26933,"lon":5.38913,"is_reserved":false,"is_disabled":false,"rental_uris":{"android":"levelo://app?vid=c1189ec1-c35f-4612-895e-f179eed881bb","ios":"levelo://app?vid=c1189ec1-c35f-4612-895e-f179eed881bb"},"vehicle_type_id":"4","last_reported":1731744686,"current_range_meters":39200,"station_id":"ce4bhhh2rcd13ifvqfl0","pricing_plan_id":"cebpf4jnsgd1na2vs0mg"},{"bike_id":"e442e41c-d68f-4096-a2cb-aa7e2616dded","system_id":"levelo_inurba_marseille","lat":43.30151,"lon":5.38078,"is_reserved":false,"is_disabled":false,"rental_uris":{"android":"levelo://app?vid=e442e41c-d68f-4096-a2cb-aa7e2616dded","ios":"levelo://app?vid=e442e41c-d68f-4096-a2cb-aa7e2616dded"},"vehicle_type_id":"4","last_reported":1731744686,"current_range_meters":28800,"station_id":"ce4bgjp2rcd13ifvqbh0","pricing_plan_id":"cebpf4jnsgd1na2vs0mg"},{"bike_id":"8cdbea35-8fef-495d-8852-e267a38a3329","system_id":"levelo_inurba_marseille","lat":43.28458,"lon":5.35889,"is_reserved":false,"is_disabled":false,"rental_uris":{"android":"levelo://app?vid=8cdbea35-8fef-495d-8852-e267a38a3329","ios":"levelo://app?vid=8cdbea35-8fef-495d-8852-e267a38a3329"},"vehicle_type_id":"4","last_reported":1731744686,"current_range_meters":38000,"station_id":"ce4bhah2rcd13ifvqei0","pricing_plan_id":"cebpf4jnsgd1na2vs0mg"},{"bike_id":"dd03836f-3f42-4c36-897f-2dc5c95a4923","system_id":"levelo_inurba_marseille","lat":43.27495,"lon":5.42453,"is_reserved":false,"is_disabled":false,"rental_uris":{"android":"levelo://app?vid=dd03836f-3f42-4c36-897f-2dc5c95a4923","ios":"levelo://app?vid=dd03836f-3f42-4c36-897f-2dc5c95a4923"},"vehicle_type_id":"4","last_reported":1731744686,"current_range_meters":35200,"station_id":"ce4bhn92rcd13ifvqgrg","pricing_plan_id":"cebpf4jnsgd1na2vs0mg"},{"bike_id":"afcb96cc-da56-41f7-8d2b-2ed6c81711b1","system_id":"levelo_inurba_marseille","lat":43.28037,"lon":5.36955,"is_reserved":false,"is_disabled":false,"rental_uris":{"android":"levelo://app?vid=afcb96cc-da56-41f7-8d2b-2ed6c81711b1","ios":"levelo://app?vid=afcb96cc-da56-41f7-8d2b-2ed6c81711b1"},"vehicle_type_id":"4","last_reported":1731744686,"current_range_meters":16000,"station_id":"ce4bha12rcd13ifvqef0","pricing_plan_id":"cebpf4jnsgd1na2vs0mg"},{"bike_id":"e017d363-fb9a-4824-8abf-234d831a57c1","system_id":"levelo_inurba_marseille","lat":43.28459,"lon":5.35885,"is_reserved":false,"is_disabled":false,"rental_uris":{"android":"levelo://app?vid=e017d363-fb9a-4824-8abf-234d831a57c1","ios":"levelo://app?vid=e017d363-fb9a-4824-8abf-234d831a57c1"},"vehicle_type_id":"4","last_reported":1731744686,"current_range_meters":36000,"station_id":"ce4bhah2rcd13ifvqei0","pricing_plan_id":"cebpf4jnsgd1na2vs0mg"},{"bike_id":"30c77e2a-a599-4950-8ed8-6b1980fd7960","system_id":"levelo_inurba_marseille","lat":43.29805,"lon":5.38107,"is_reserved":false,"is_disabled":false,"rental_uris":{"android":"levelo://app?vid=30c77e2a-a599-4950-8ed8-6b1980fd7960","ios":"levelo://app?vid=30c77e2a-a599-4950-8ed8-6b1980fd7960"},"vehicle_type_id":"4","last_reported":1731744686,"current_range_meters":25600,"station_id":"ce4bgip2rcd13ifvqbb0","pricing_plan_id":"cebpf4jnsgd1na2vs0mg"},{"bike_id":"6b11cefe-b4d3-4f2d-bf57-086e076e0c6c","system_id":"levelo_inurba_marseille","lat":43.24388,"lon":5.37054,"is_reserved":false,"is_disabled":false,"rental_uris":{"android":"levelo://app?vid=6b11cefe-b4d3-4f2d-bf57-086e076e0c6c","ios":"levelo://app?vid=6b11cefe-b4d3-4f2d-bf57-086e076e0c6c"},"vehicle_type_id":"4","last_reported":1731744686,"current_range_meters":32400,"station_id":"ce4bhhh2rcd13ifvqfk0","pricing_plan_id":"cebpf4jnsgd1na2vs0mg"},{"bike_id":"7be9199b-afb6-4033-aaf6-16840ab51d79","system_id":"levelo_inurba_marseille","lat":43.30886,"lon":5.39642,"is_reserved":false,"is_disabled":false,"rental_uris":{"android":"levelo://app?vid=7be9199b-afb6-4033-aaf6-16840ab51d79","ios":"levelo://app?vid=7be9199b-afb6-4033-aaf6-16840ab51d79"},"vehicle_type_id":"4","last_reported":1731744686,"current_range_meters":29600,"station_id":"ce4bh012rcd13ifvqcv0","pricing_plan_id":"cebpf4jnsgd1na2vs0mg"},{"bike_id":"c816e6ae-a771-4af2-b278-a64d00c2c224","system_id":"levelo_inurba_marseille","lat":43.27832,"lon":5.39197,"is_reserved":false,"is_disabled":false,"rental_uris":{"android":"levelo://app?vid=c816e6ae-a771-4af2-b278-a64d00c2c224","ios":"levelo://app?vid=c816e6ae-a771-4af2-b278-a64d00c2c224"},"vehicle_type_id":"4","last_reported":1731744686,"current_range_meters":10800,"station_id":"ce4bhjp2rcd13ifvqga0","pricing_plan_id":"cebpf4jnsgd1na2vs0mg"},{"bike_id":"414f44aa-6fc6-451a-b20e-71bae649f036","system_id":"levelo_inurba_marseille","lat":43.30475,"lon":5.37903,"is_reserved":false,"is_disabled":false,"rental_uris":{"android":"levelo://app?vid=414f44aa-6fc6-451a-b20e-71bae649f036","ios":"levelo://app?vid=414f44aa-6fc6-451a-b20e-71bae649f036"},"vehicle_type_id":"4","last_reported":1731744686,"current_range_meters":36400,"station_id":"ce4bgup2rcd13ifvqcn0","pricing_plan_id":"cebpf4jnsgd1na2vs0mg"},{"bike_id":"04246129-5461-4657-8b0a-917c23e4a028","system_id":"levelo_inurba_marseille","lat":43.27178,"lon":5.40985,"is_reserved":false,"is_disabled":false,"rental_uris":{"android":"levelo://app?vid=04246129-5461-4657-8b0a-917c23e4a028","ios":"levelo://app?vid=04246129-5461-4657-8b0a-917c23e4a028"},"vehicle_type_id":"4","last_reported":1731744686,"current_range_meters":38400,"station_id":"ce4bhl12rcd13ifvqgf0","pricing_plan_id":"cebpf4jnsgd1na2vs0mg"},{"bike_id":"362d5ba6-29c1-44cd-816f-db6607b9a586","system_id":"levelo_inurba_marseille","lat":43.313434,"lon":5.385081,"is_reserved":false,"is_disabled":false,"rental_uris":{"android":"levelo://app?vid=362d5ba6-29c1-44cd-816f-db6607b9a586","ios":"levelo://app?vid=362d5ba6-29c1-44cd-816f-db6607b9a586"},"vehicle_type_id":"4","last_reported":1731744686,"current_range_meters":8000,"station_id":"ce4bgt92rcd13ifvqcf0","pricing_plan_id":"cebpf4jnsgd1na2vs0mg"},{"bike_id":"81a71d58-9325-4fd2-a835-ca9ccba6b8f2","system_id":"levelo_inurba_marseille","lat":43.32337,"lon":5.40622,"is_reserved":false,"is_disabled":false,"rental_uris":{"android":"levelo://app?vid=81a71d58-9325-4fd2-a835-ca9ccba6b8f2","ios":"levelo://app?vid=81a71d58-9325-4fd2-a835-ca9ccba6b8f2"},"vehicle_type_id":"4","last_reported":1731744686,"current_range_meters":28800,"station_id":"ce4bhq92rcd13ifvqhjg","pricing_plan_id":"cebpf4jnsgd1na2vs0mg"},{"bike_id":"0c241eed-1cf0-49d0-a303-45d916dd4a9e","system_id":"levelo_inurba_marseille","lat":43.29226,"lon":5.36074,"is_reserved":false,"is_disabled":false,"rental_uris":{"android":"levelo://app?vid=0c241eed-1cf0-49d0-a303-45d916dd4a9e","ios":"levelo://app?vid=0c241eed-1cf0-49d0-a303-45d916dd4a9e"},"vehicle_type_id":"4","last_reported":1731744686,"current_range_meters":38400,"station_id":"ce4bhbh2rcd13ifvqeqg","pricing_plan_id":"cebpf4jnsgd1na2vs0mg"},{"bike_id":"8df63250-87c6-46c3-9eab-e7b6ded22fb2","system_id":"levelo_inurba_marseille","lat":43.308848,"lon":5.39635,"is_reserved":false,"is_disabled":false,"rental_uris":{"android":"levelo://app?vid=8df63250-87c6-46c3-9eab-e7b6ded22fb2","ios":"levelo://app?vid=8df63250-87c6-46c3-9eab-e7b6ded22fb2"},"vehicle_type_id":"4","last_reported":1731744686,"current_range_meters":9200,"station_id":"ce4bh012rcd13ifvqcv0","pricing_plan_id":"cebpf4jnsgd1na2vs0mg"},{"bike_id":"d7cad7ba-a3cf-4113-8f4d-63bd503bb522","system_id":"levelo_inurba_marseille","lat":43.276122,"lon":5.361105,"is_reserved":false,"is_disabled":false,"rental_uris":{"android":"levelo://app?vid=d7cad7ba-a3cf-4113-8f4d-63bd503bb522","ios":"levelo://app?vid=d7cad7ba-a3cf-4113-8f4d-63bd503bb522"},"vehicle_type_id":"4","last_reported":1731744686,"current_range_meters":20400,"station_id":"ce4bgj92rcd13ifvqbe0","pricing_plan_id":"cebpf4jnsgd1na2vs0mg"},{"bike_id":"a9d30278-4ef8-4bef-93ce-3639cd3e2c6a","system_id":"levelo_inurba_marseille","lat":43.290054,"lon":5.38142,"is_reserved":false,"is_disabled":false,"rental_uris":{"android":"levelo://app?vid=a9d30278-4ef8-4bef-93ce-3639cd3e2c6a","ios":"levelo://app?vid=a9d30278-4ef8-4bef-93ce-3639cd3e2c6a"},"vehicle_type_id":"4","last_reported":1731744686,"current_range_meters":38800,"station_id":"ce4bh4p2rcd13ifvqe1g","pricing_plan_id":"cebpf4jnsgd1na2vs0mg"},{"bike_id":"b17d06d2-c9d4-430e-8c4e-4c13081ec160","system_id":"levelo_inurba_marseille","lat":43.246481,"lon":5.388979,"is_reserved":false,"is_disabled":false,"rental_uris":{"android":"levelo://app?vid=b17d06d2-c9d4-430e-8c4e-4c13081ec160","ios":"levelo://app?vid=b17d06d2-c9d4-430e-8c4e-4c13081ec160"},"vehicle_type_id":"4","last_reported":1731744686,"current_range_meters":38800,"station_id":"ce4bhg12rcd13ifvqf60","pricing_plan_id":"cebpf4jnsgd1na2vs0mg"},{"bike_id":"8e6584b7-c45e-4f53-b8c2-7e526fbe4b72","system_id":"levelo_inurba_marseille","lat":43.304615,"lon":5.378969,"is_reserved":false,"is_disabled":false,"rental_uris":{"android":"levelo://app?vid=8e6584b7-c45e-4f53-b8c2-7e526fbe4b72","ios":"levelo://app?vid=8e6584b7-c45e-4f53-b8c2-7e526fbe4b72"},"vehicle_type_id":"4","last_reported":1731744686,"current_range_meters":38800,"station_id":"ce4bgup2rcd13ifvqcn0","pricing_plan_id":"cebpf4jnsgd1na2vs0mg"},{"bike_id":"e0a50b92-2a41-45ff-bfbc-c6ffc781939f","system_id":"levelo_inurba_marseille","lat":43.33767,"lon":5.37443,"is_reserved":false,"is_disabled":false,"rental_uris":{"android":"levelo://app?vid=e0a50b92-2a41-45ff-bfbc-c6ffc781939f","ios":"levelo://app?vid=e0a50b92-2a41-45ff-bfbc-c6ffc781939f"},"vehicle_type_id":"4","last_reported":1731744686,"current_range_meters":31200,"station_id":"ce4bhqp2rcd13ifvqhog","pricing_plan_id":"cebpf4jnsgd1na2vs0mg"},{"bike_id":"e40acb1f-7c3b-464f-a385-d83d7c01e615","system_id":"levelo_inurba_marseille","lat":43.32293,"lon":5.38264,"is_reserved":false,"is_disabled":false,"rental_uris":{"android":"levelo://app?vid=e40acb1f-7c3b-464f-a385-d83d7c01e615","ios":"levelo://app?vid=e40acb1f-7c3b-464f-a385-d83d7c01e615"},"vehicle_type_id":"4","last_reported":1731744686,"current_range_meters":16800,"station_id":"ce4bhr12rcd13ifvqhqg","pricing_plan_id":"cebpf4jnsgd1na2vs0mg"},{"bike_id":"1a21defc-c010-4e06-b5b6-e9e48d15970e","system_id":"levelo_inurba_marseille","lat":43.30463,"lon":5.37906,"is_reserved":false,"is_disabled":false,"rental_uris":{"android":"levelo://app?vid=1a21defc-c010-4e06-b5b6-e9e48d15970e","ios":"levelo://app?vid=1a21defc-c010-4e06-b5b6-e9e48d15970e"},"vehicle_type_id":"4","last_reported":1731744686,"current_range_meters":30400,"station_id":"ce4bgup2rcd13ifvqcn0","pricing_plan_id":"cebpf4jnsgd1na2vs0mg"},{"bike_id":"32dcc498-7373-4c42-b75d-0b8bbabd1f18","system_id":"levelo_inurba_marseille","lat":43.29788,"lon":5.37088,"is_reserved":false,"is_disabled":false,"rental_uris":{"android":"levelo://app?vid=32dcc498-7373-4c42-b75d-0b8bbabd1f18","ios":"levelo://app?vid=32dcc498-7373-4c42-b75d-0b8bbabd1f18"},"vehicle_type_id":"4","last_reported":1731744686,"current_range_meters":5600,"station_id":"ce4bgop2rcd13ifvqc1g","pricing_plan_id":"cebpf4jnsgd1na2vs0mg"},{"bike_id":"5ce2d086-af0a-41a9-a5f6-a8dcf6dd55a5","system_id":"levelo_inurba_marseille","lat":43.33022,"lon":5.39053,"is_reserved":false,"is_disabled":false,"rental_uris":{"android":"levelo://app?vid=5ce2d086-af0a-41a9-a5f6-a8dcf6dd55a5","ios":"levelo://app?vid=5ce2d086-af0a-41a9-a5f6-a8dcf6dd55a5"},"vehicle_type_id":"4","last_reported":1731744686,"current_range_meters":38800,"station_id":"ce4bhr92rcd13ifvqhrg","pricing_plan_id":"cebpf4jnsgd1na2vs0mg"},{"bike_id":"ddf44895-d4f6-405c-ad97-35a6d7458a36","system_id":"levelo_inurba_marseille","lat":43.27495,"lon":5.42445,"is_reserved":false,"is_disabled":false,"rental_uris":{"android":"levelo://app?vid=ddf44895-d4f6-405c-ad97-35a6d7458a36","ios":"levelo://app?vid=ddf44895-d4f6-405c-ad97-35a6d7458a36"},"vehicle_type_id":"4","last_reported":1731744686,"current_range_meters":22800,"station_id":"ce4bhn92rcd13ifvqgrg","pricing_plan_id":"cebpf4jnsgd1na2vs0mg"},{"bike_id":"469120da-e1ec-4545-87a2-8dad0be41de6","system_id":"levelo_inurba_marseille","lat":43.3043,"lon":5.38898,"is_reserved":false,"is_disabled":false,"rental_uris":{"android":"levelo://app?vid=469120da-e1ec-4545-87a2-8dad0be41de6","ios":"levelo://app?vid=469120da-e1ec-4545-87a2-8dad0be41de6"},"vehicle_type_id":"4","last_reported":1731744686,"current_range_meters":38800,"station_id":"ce4bgk12rcd13ifvqbi0","pricing_plan_id":"cebpf4jnsgd1na2vs0mg"},{"bike_id":"92e5ff07-e698-41fa-9c74-a450de32acaa","system_id":"levelo_inurba_marseille","lat":43.30153,"lon":5.38085,"is_reserved":false,"is_disabled":false,"rental_uris":{"android":"levelo://app?vid=92e5ff07-e698-41fa-9c74-a450de32acaa","ios":"levelo://app?vid=92e5ff07-e698-41fa-9c74-a450de32acaa"},"vehicle_type_id":"4","last_reported":1731744686,"current_range_meters":20000,"station_id":"ce4bgjp2rcd13ifvqbh0","pricing_plan_id":"cebpf4jnsgd1na2vs0mg"},{"bike_id":"41a8f3c0-2349-4b3c-9e5f-f9588fd91dc0","system_id":"levelo_inurba_marseille","lat":43.30531,"lon":5.36726,"is_reserved":false,"is_disabled":false,"rental_uris":{"android":"levelo://app?vid=41a8f3c0-2349-4b3c-9e5f-f9588fd91dc0","ios":"levelo://app?vid=41a8f3c0-2349-4b3c-9e5f-f9588fd91dc0"},"vehicle_type_id":"4","last_reported":1731744686,"current_range_meters":3200,"station_id":"ce4bgrp2rcd13ifvqc9g","pricing_plan_id":"cebpf4jnsgd1na2vs0mg"},{"bike_id":"d6029a07-4312-42af-9590-5c6b5c606e61","system_id":"levelo_inurba_marseille","lat":43.255745,"lon":5.382372,"is_reserved":false,"is_disabled":false,"rental_uris":{"android":"levelo://app?vid=d6029a07-4312-42af-9590-5c6b5c606e61","ios":"levelo://app?vid=d6029a07-4312-42af-9590-5c6b5c606e61"},"vehicle_type_id":"4","last_reported":1731744686,"current_range_meters":38400,"station_id":"ce4bhih2rcd13ifvqfs0","pricing_plan_id":"cebpf4jnsgd1na2vs0mg"},{"bike_id":"e494c748-bb2f-4513-a185-a11df9e77efd","system_id":"levelo_inurba_marseille","lat":43.28456,"lon":5.3747,"is_reserved":false,"is_disabled":false,"rental_uris":{"android":"levelo://app?vid=e494c748-bb2f-4513-a185-a11df9e77efd","ios":"levelo://app?vid=e494c748-bb2f-4513-a185-a11df9e77efd"},"vehicle_type_id":"4","last_reported":1731744686,"current_range_meters":8400,"station_id":"","pricing_plan_id":"cebpf4jnsgd1na2vs0mg"},{"bike_id":"658b6729-add9-4c27-b692-fb60e97a0cea","system_id":"levelo_inurba_marseille","lat":43.30481,"lon":5.37902,"is_reserved":false,"is_disabled":false,"rental_uris":{"android":"levelo://app?vid=658b6729-add9-4c27-b692-fb60e97a0cea","ios":"levelo://app?vid=658b6729-add9-4c27-b692-fb60e97a0cea"},"vehicle_type_id":"4","last_reported":1731744686,"current_range_meters":30800,"station_id":"ce4bgup2rcd13ifvqcn0","pricing_plan_id":"cebpf4jnsgd1na2vs0mg"},{"bike_id":"82a7fa7a-156a-46a6-800c-aa67acf5ce4f","system_id":"levelo_inurba_marseille","lat":43.28452,"lon":5.35885,"is_reserved":false,"is_disabled":false,"rental_uris":{"android":"levelo://app?vid=82a7fa7a-156a-46a6-800c-aa67acf5ce4f","ios":"levelo://app?vid=82a7fa7a-156a-46a6-800c-aa67acf5ce4f"},"vehicle_type_id":"4","last_reported":1731744686,"current_range_meters":38800,"station_id":"ce4bhah2rcd13ifvqei0","pricing_plan_id":"cebpf4jnsgd1na2vs0mg"},{"bike_id":"65f92f31-0e5e-44c8-952d-df9c30660f65","system_id":"levelo_inurba_marseille","lat":43.29558,"lon":5.42284,"is_reserved":false,"is_disabled":false,"rental_uris":{"android":"levelo://app?vid=65f92f31-0e5e-44c8-952d-df9c30660f65","ios":"levelo://app?vid=65f92f31-0e5e-44c8-952d-df9c30660f65"},"vehicle_type_id":"4","last_reported":1731744686,"current_range_meters":24400,"station_id":"ce4bhph2rcd13ifvqhdg","pricing_plan_id":"cebpf4jnsgd1na2vs0mg"},{"bike_id":"9741a95a-5fa9-4932-a7cf-3ed52a13a515","system_id":"levelo_inurba_marseille","lat":43.33609,"lon":5.41025,"is_reserved":false,"is_disabled":false,"rental_uris":{"android":"levelo://app?vid=9741a95a-5fa9-4932-a7cf-3ed52a13a515","ios":"levelo://app?vid=9741a95a-5fa9-4932-a7cf-3ed52a13a515"},"vehicle_type_id":"4","last_reported":1731744686,"current_range_meters":30000,"station_id":"ce4bhqh2rcd13ifvqhmg","pricing_plan_id":"cebpf4jnsgd1na2vs0mg"},{"bike_id":"663b3162-51c9-47ef-b3a9-77d670c4b0b1","system_id":"levelo_inurba_marseille","lat":43.29809,"lon":5.38093,"is_reserved":false,"is_disabled":false,"rental_uris":{"android":"levelo://app?vid=663b3162-51c9-47ef-b3a9-77d670c4b0b1","ios":"levelo://app?vid=663b3162-51c9-47ef-b3a9-77d670c4b0b1"},"vehicle_type_id":"4","last_reported":1731744686,"current_range_meters":38800,"station_id":"ce4bgip2rcd13ifvqbb0","pricing_plan_id":"cebpf4jnsgd1na2vs0mg"},{"bike_id":"ee3c8d6e-e377-488f-b1e4-ed3a9f7cb33a","system_id":"levelo_inurba_marseille","lat":43.29006,"lon":5.3561,"is_reserved":false,"is_disabled":false,"rental_uris":{"android":"levelo://app?vid=ee3c8d6e-e377-488f-b1e4-ed3a9f7cb33a","ios":"levelo://app?vid=ee3c8d6e-e377-488f-b1e4-ed3a9f7cb33a"},"vehicle_type_id":"4","last_reported":1731744686,"current_range_meters":38400,"station_id":"ce4bhb92rcd13ifvqen0","pricing_plan_id":"cebpf4jnsgd1na2vs0mg"},{"bike_id":"76fda271-4bcd-4529-8397-8074a1eff7fe","system_id":"levelo_inurba_marseille","lat":43.337444,"lon":5.374475,"is_reserved":false,"is_disabled":false,"rental_uris":{"android":"levelo://app?vid=76fda271-4bcd-4529-8397-8074a1eff7fe","ios":"levelo://app?vid=76fda271-4bcd-4529-8397-8074a1eff7fe"},"vehicle_type_id":"4","last_reported":1731744686,"current_range_meters":34000,"station_id":"","pricing_plan_id":"cebpf4jnsgd1na2vs0mg"},{"bike_id":"7125cda5-6cac-4f0d-b24c-2d801b2955b5","system_id":"levelo_inurba_marseille","lat":43.23182,"lon":5.39984,"is_reserved":false,"is_disabled":false,"rental_uris":{"android":"levelo://app?vid=7125cda5-6cac-4f0d-b24c-2d801b2955b5","ios":"levelo://app?vid=7125cda5-6cac-4f0d-b24c-2d801b2955b5"},"vehicle_type_id":"4","last_reported":1731744686,"current_range_meters":38800,"station_id":"ce4bhn12rcd13ifvqgqg","pricing_plan_id":"cebpf4jnsgd1na2vs0mg"},{"bike_id":"dd9f664f-f938-4bce-b54d-7fac9068ca7b","system_id":"levelo_inurba_marseille","lat":43.30595,"lon":5.37227,"is_reserved":false,"is_disabled":false,"rental_uris":{"android":"levelo://app?vid=dd9f664f-f938-4bce-b54d-7fac9068ca7b","ios":"levelo://app?vid=dd9f664f-f938-4bce-b54d-7fac9068ca7b"},"vehicle_type_id":"4","last_reported":1731744686,"current_range_meters":36800,"station_id":"ce4bgqh2rcd13ifvqc4g","pricing_plan_id":"cebpf4jnsgd1na2vs0mg"},{"bike_id":"334a1450-01ed-4218-abea-d266fbc157c7","system_id":"levelo_inurba_marseille","lat":43.296,"lon":5.38103,"is_reserved":false,"is_disabled":false,"rental_uris":{"android":"levelo://app?vid=334a1450-01ed-4218-abea-d266fbc157c7","ios":"levelo://app?vid=334a1450-01ed-4218-abea-d266fbc157c7"},"vehicle_type_id":"4","last_reported":1731744686,"current_range_meters":22800,"station_id":"ce4bgl12rcd13ifvqbo0","pricing_plan_id":"cebpf4jnsgd1na2vs0mg"},{"bike_id":"4ee0d54c-132f-4d8b-b0da-69607d66ccc6","system_id":"levelo_inurba_marseille","lat":43.23181,"lon":5.40001,"is_reserved":false,"is_disabled":false,"rental_uris":{"android":"levelo://app?vid=4ee0d54c-132f-4d8b-b0da-69607d66ccc6","ios":"levelo://app?vid=4ee0d54c-132f-4d8b-b0da-69607d66ccc6"},"vehicle_type_id":"4","last_reported":1731744686,"current_range_meters":24800,"station_id":"ce4bhn12rcd13ifvqgqg","pricing_plan_id":"cebpf4jnsgd1na2vs0mg"},{"bike_id":"1cf6e9bd-b73c-49ce-a1cb-071237526ef4","system_id":"levelo_inurba_marseille","lat":43.29218,"lon":5.36074,"is_reserved":false,"is_disabled":false,"rental_uris":{"android":"levelo://app?vid=1cf6e9bd-b73c-49ce-a1cb-071237526ef4","ios":"levelo://app?vid=1cf6e9bd-b73c-49ce-a1cb-071237526ef4"},"vehicle_type_id":"4","last_reported":1731744686,"current_range_meters":32800,"station_id":"ce4bhbh2rcd13ifvqeqg","pricing_plan_id":"cebpf4jnsgd1na2vs0mg"},{"bike_id":"2012c152-652c-47ff-9fc4-6805e9c380e8","system_id":"levelo_inurba_marseille","lat":43.30473,"lon":5.37893,"is_reserved":false,"is_disabled":false,"rental_uris":{"android":"levelo://app?vid=2012c152-652c-47ff-9fc4-6805e9c380e8","ios":"levelo://app?vid=2012c152-652c-47ff-9fc4-6805e9c380e8"},"vehicle_type_id":"4","last_reported":1731744686,"current_range_meters":35600,"station_id":"ce4bgup2rcd13ifvqcn0","pricing_plan_id":"cebpf4jnsgd1na2vs0mg"},{"bike_id":"cba8a093-fa5c-4446-8004-f497b2465c63","system_id":"levelo_inurba_marseille","lat":43.28722,"lon":5.36088,"is_reserved":false,"is_disabled":false,"rental_uris":{"android":"levelo://app?vid=cba8a093-fa5c-4446-8004-f497b2465c63","ios":"levelo://app?vid=cba8a093-fa5c-4446-8004-f497b2465c63"},"vehicle_type_id":"4","last_reported":1731744686,"current_range_meters":38800,"station_id":"cki0cbj6b192h4jlfktg","pricing_plan_id":"cebpf4jnsgd1na2vs0mg"},{"bike_id":"6d757fef-4f26-43f9-ac2c-ffab39bf7dae","system_id":"levelo_inurba_marseille","lat":43.32249,"lon":5.36901,"is_reserved":false,"is_disabled":false,"rental_uris":{"android":"levelo://app?vid=6d757fef-4f26-43f9-ac2c-ffab39bf7dae","ios":"levelo://app?vid=6d757fef-4f26-43f9-ac2c-ffab39bf7dae"},"vehicle_type_id":"4","last_reported":1731744686,"current_range_meters":20400,"station_id":"","pricing_plan_id":"cebpf4jnsgd1na2vs0mg"},{"bike_id":"bf5fc513-5b16-49ac-b46e-8d1576a8b635","system_id":"levelo_inurba_marseille","lat":43.295517,"lon":5.422772,"is_reserved":false,"is_disabled":false,"rental_uris":{"android":"levelo://app?vid=bf5fc513-5b16-49ac-b46e-8d1576a8b635","ios":"levelo://app?vid=bf5fc513-5b16-49ac-b46e-8d1576a8b635"},"vehicle_type_id":"4","last_reported":1731744686,"current_range_meters":37600,"station_id":"ce4bhph2rcd13ifvqhdg","pricing_plan_id":"cebpf4jnsgd1na2vs0mg"},{"bike_id":"22d914cd-75e1-4c7a-a820-0125f5f2d2e0","system_id":"levelo_inurba_marseille","lat":43.24067,"lon":5.37765,"is_reserved":false,"is_disabled":false,"rental_uris":{"android":"levelo://app?vid=22d914cd-75e1-4c7a-a820-0125f5f2d2e0","ios":"levelo://app?vid=22d914cd-75e1-4c7a-a820-0125f5f2d2e0"},"vehicle_type_id":"4","last_reported":1731744686,"current_range_meters":38800,"station_id":"ce4bhnp2rcd13ifvqgvg","pricing_plan_id":"cebpf4jnsgd1na2vs0mg"},{"bike_id":"ae0d054c-409c-4ff7-b523-696b42e09526","system_id":"levelo_inurba_marseille","lat":43.30539,"lon":5.38432,"is_reserved":false,"is_disabled":false,"rental_uris":{"android":"levelo://app?vid=ae0d054c-409c-4ff7-b523-696b42e09526","ios":"levelo://app?vid=ae0d054c-409c-4ff7-b523-696b42e09526"},"vehicle_type_id":"4","last_reported":1731744686,"current_range_meters":28400,"station_id":"ce4bgg92rcd13ifvqb30","pricing_plan_id":"cebpf4jnsgd1na2vs0mg"},{"bike_id":"0a34b320-c579-4a2a-b087-02bcb8d06252","system_id":"levelo_inurba_marseille","lat":43.23187,"lon":5.39992,"is_reserved":false,"is_disabled":false,"rental_uris":{"android":"levelo://app?vid=0a34b320-c579-4a2a-b087-02bcb8d06252","ios":"levelo://app?vid=0a34b320-c579-4a2a-b087-02bcb8d06252"},"vehicle_type_id":"4","last_reported":1731744686,"current_range_meters":8400,"station_id":"ce4bhn12rcd13ifvqgqg","pricing_plan_id":"cebpf4jnsgd1na2vs0mg"},{"bike_id":"cb2e76bd-593d-4e2b-8bf1-5e50ad3b88d3","system_id":"levelo_inurba_marseille","lat":43.23179,"lon":5.3999,"is_reserved":false,"is_disabled":false,"rental_uris":{"android":"levelo://app?vid=cb2e76bd-593d-4e2b-8bf1-5e50ad3b88d3","ios":"levelo://app?vid=cb2e76bd-593d-4e2b-8bf1-5e50ad3b88d3"},"vehicle_type_id":"4","last_reported":1731744686,"current_range_meters":31200,"station_id":"ce4bhn12rcd13ifvqgqg","pricing_plan_id":"cebpf4jnsgd1na2vs0mg"},{"bike_id":"3def47d5-da07-4acb-a4a9-5e939a90a81a","system_id":"levelo_inurba_marseille","lat":43.3266,"lon":5.40987,"is_reserved":false,"is_disabled":false,"rental_uris":{"android":"levelo://app?vid=3def47d5-da07-4acb-a4a9-5e939a90a81a","ios":"levelo://app?vid=3def47d5-da07-4acb-a4a9-5e939a90a81a"},"vehicle_type_id":"4","last_reported":1731744686,"current_range_meters":36800,"station_id":"ce4bhpp2rcd13ifvqhgg","pricing_plan_id":"cebpf4jnsgd1na2vs0mg"},{"bike_id":"a5bb31f6-2d80-4f6a-b823-66002c97c0b8","system_id":"levelo_inurba_marseille","lat":43.23152,"lon":5.43704,"is_reserved":false,"is_disabled":false,"rental_uris":{"android":"levelo://app?vid=a5bb31f6-2d80-4f6a-b823-66002c97c0b8","ios":"levelo://app?vid=a5bb31f6-2d80-4f6a-b823-66002c97c0b8"},"vehicle_type_id":"4","last_reported":1731744686,"current_range_meters":20400,"station_id":"ce4bhmp2rcd13ifvqgog","pricing_plan_id":"cebpf4jnsgd1na2vs0mg"},{"bike_id":"69316abb-217e-48fa-a923-b5dc4cad1113","system_id":"levelo_inurba_marseille","lat":43.32485,"lon":5.36567,"is_reserved":false,"is_disabled":false,"rental_uris":{"android":"levelo://app?vid=69316abb-217e-48fa-a923-b5dc4cad1113","ios":"levelo://app?vid=69316abb-217e-48fa-a923-b5dc4cad1113"},"vehicle_type_id":"4","last_reported":1731744686,"current_range_meters":38800,"station_id":"ce4bhs12rcd13ifvqhvg","pricing_plan_id":"cebpf4jnsgd1na2vs0mg"},{"bike_id":"d27a3475-2e52-4b6c-9dea-c67313b855a8","system_id":"levelo_inurba_marseille","lat":43.31887,"lon":5.4073,"is_reserved":false,"is_disabled":false,"rental_uris":{"android":"levelo://app?vid=d27a3475-2e52-4b6c-9dea-c67313b855a8","ios":"levelo://app?vid=d27a3475-2e52-4b6c-9dea-c67313b855a8"},"vehicle_type_id":"4","last_reported":1731744686,"current_range_meters":30000,"station_id":"ce4bhq12rcd13ifvqhig","pricing_plan_id":"cebpf4jnsgd1na2vs0mg"},{"bike_id":"68bbcc0f-5b36-4086-82e5-f609721b4202","system_id":"levelo_inurba_marseille","lat":43.27964,"lon":5.38707,"is_reserved":false,"is_disabled":false,"rental_uris":{"android":"levelo://app?vid=68bbcc0f-5b36-4086-82e5-f609721b4202","ios":"levelo://app?vid=68bbcc0f-5b36-4086-82e5-f609721b4202"},"vehicle_type_id":"4","last_reported":1731744686,"current_range_meters":36800,"station_id":"ce4bhg12rcd13ifvqf80","pricing_plan_id":"cebpf4jnsgd1na2vs0mg"},{"bike_id":"89d65532-6780-451d-8295-77c745ae6df4","system_id":"levelo_inurba_marseille","lat":43.2407,"lon":5.37762,"is_reserved":false,"is_disabled":false,"rental_uris":{"android":"levelo://app?vid=89d65532-6780-451d-8295-77c745ae6df4","ios":"levelo://app?vid=89d65532-6780-451d-8295-77c745ae6df4"},"vehicle_type_id":"4","last_reported":1731744686,"current_range_meters":27200,"station_id":"ce4bhnp2rcd13ifvqgvg","pricing_plan_id":"cebpf4jnsgd1na2vs0mg"},{"bike_id":"208d585c-1931-4036-9da0-f89ba4a825ff","system_id":"levelo_inurba_marseille","lat":43.32291,"lon":5.38277,"is_reserved":false,"is_disabled":false,"rental_uris":{"android":"levelo://app?vid=208d585c-1931-4036-9da0-f89ba4a825ff","ios":"levelo://app?vid=208d585c-1931-4036-9da0-f89ba4a825ff"},"vehicle_type_id":"4","last_reported":1731744686,"current_range_meters":37600,"station_id":"ce4bhr12rcd13ifvqhqg","pricing_plan_id":"cebpf4jnsgd1na2vs0mg"},{"bike_id":"bc25ca28-ada7-4bcd-8350-292399c65910","system_id":"levelo_inurba_marseille","lat":43.28712,"lon":5.39989,"is_reserved":false,"is_disabled":false,"rental_uris":{"android":"levelo://app?vid=bc25ca28-ada7-4bcd-8350-292399c65910","ios":"levelo://app?vid=bc25ca28-ada7-4bcd-8350-292399c65910"},"vehicle_type_id":"4","last_reported":1731744686,"current_range_meters":18800,"station_id":"ce4bho92rcd13ifvqh3g","pricing_plan_id":"cebpf4jnsgd1na2vs0mg"},{"bike_id":"af0da716-0c4e-4cb4-bf26-18a61445643c","system_id":"levelo_inurba_marseille","lat":43.27807,"lon":5.40716,"is_reserved":false,"is_disabled":false,"rental_uris":{"android":"levelo://app?vid=af0da716-0c4e-4cb4-bf26-18a61445643c","ios":"levelo://app?vid=af0da716-0c4e-4cb4-bf26-18a61445643c"},"vehicle_type_id":"4","last_reported":1731744686,"current_range_meters":38800,"station_id":"ce4bhnh2rcd13ifvqgtg","pricing_plan_id":"cebpf4jnsgd1na2vs0mg"},{"bike_id":"7ecae778-9e07-4317-bfd1-2d3f009d143f","system_id":"levelo_inurba_marseille","lat":43.25935,"lon":5.40909,"is_reserved":false,"is_disabled":false,"rental_uris":{"android":"levelo://app?vid=7ecae778-9e07-4317-bfd1-2d3f009d143f","ios":"levelo://app?vid=7ecae778-9e07-4317-bfd1-2d3f009d143f"},"vehicle_type_id":"4","last_reported":1731744686,"current_range_meters":12800,"station_id":"ce4bhm92rcd13ifvqglg","pricing_plan_id":"cebpf4jnsgd1na2vs0mg"},{"bike_id":"e23be5a8-468a-4f57-a1e4-c8e398c6266d","system_id":"levelo_inurba_marseille","lat":43.265,"lon":5.39536,"is_reserved":false,"is_disabled":false,"rental_uris":{"android":"levelo://app?vid=e23be5a8-468a-4f57-a1e4-c8e398c6266d","ios":"levelo://app?vid=e23be5a8-468a-4f57-a1e4-c8e398c6266d"},"vehicle_type_id":"4","last_reported":1731744686,"current_range_meters":36400,"station_id":"ce4bhi12rcd13ifvqfq0","pricing_plan_id":"cebpf4jnsgd1na2vs0mg"},{"bike_id":"d8ab470d-34f1-49ab-8e65-99c678ea4066","system_id":"levelo_inurba_marseille","lat":43.26952,"lon":5.38624,"is_reserved":false,"is_disabled":false,"rental_uris":{"android":"levelo://app?vid=d8ab470d-34f1-49ab-8e65-99c678ea4066","ios":"levelo://app?vid=d8ab470d-34f1-49ab-8e65-99c678ea4066"},"vehicle_type_id":"4","last_reported":1731744686,"current_range_meters":38800,"station_id":"ce4bhh92rcd13ifvqfh0","pricing_plan_id":"cebpf4jnsgd1na2vs0mg"},{"bike_id":"85c6faf1-caca-4be7-8bdf-3f18846bd5df","system_id":"levelo_inurba_marseille","lat":43.26802,"lon":5.40265,"is_reserved":false,"is_disabled":false,"rental_uris":{"android":"levelo://app?vid=85c6faf1-caca-4be7-8bdf-3f18846bd5df","ios":"levelo://app?vid=85c6faf1-caca-4be7-8bdf-3f18846bd5df"},"vehicle_type_id":"4","last_reported":1731744686,"current_range_meters":38400,"station_id":"ce501612rcd8frsf0b60","pricing_plan_id":"cebpf4jnsgd1na2vs0mg"},{"bike_id":"80fc1024-c161-4d87-83c9-9624020e7c4e","system_id":"levelo_inurba_marseille","lat":43.27831,"lon":5.39203,"is_reserved":false,"is_disabled":false,"rental_uris":{"android":"levelo://app?vid=80fc1024-c161-4d87-83c9-9624020e7c4e","ios":"levelo://app?vid=80fc1024-c161-4d87-83c9-9624020e7c4e"},"vehicle_type_id":"4","last_reported":1731744686,"current_range_meters":3200,"station_id":"ce4bhjp2rcd13ifvqga0","pricing_plan_id":"cebpf4jnsgd1na2vs0mg"},{"bike_id":"9dee070e-460a-4f87-ab1c-38df80af84b0","system_id":"levelo_inurba_marseille","lat":43.29602,"lon":5.38111,"is_reserved":false,"is_disabled":false,"rental_uris":{"android":"levelo://app?vid=9dee070e-460a-4f87-ab1c-38df80af84b0","ios":"levelo://app?vid=9dee070e-460a-4f87-ab1c-38df80af84b0"},"vehicle_type_id":"4","last_reported":1731744686,"current_range_meters":25200,"station_id":"ce4bgl12rcd13ifvqbo0","pricing_plan_id":"cebpf4jnsgd1na2vs0mg"},{"bike_id":"00224059-6161-44d6-9467-27ec20366cfd","system_id":"levelo_inurba_marseille","lat":43.32139,"lon":5.38486,"is_reserved":false,"is_disabled":false,"rental_uris":{"android":"levelo://app?vid=00224059-6161-44d6-9467-27ec20366cfd","ios":"levelo://app?vid=00224059-6161-44d6-9467-27ec20366cfd"},"vehicle_type_id":"4","last_reported":1731744686,"current_range_meters":8000,"station_id":"","pricing_plan_id":"cebpf4jnsgd1na2vs0mg"},{"bike_id":"7ad38b01-77fd-45fa-8bf2-4b71c72f58a8","system_id":"levelo_inurba_marseille","lat":43.28702,"lon":5.39983,"is_reserved":false,"is_disabled":false,"rental_uris":{"android":"levelo://app?vid=7ad38b01-77fd-45fa-8bf2-4b71c72f58a8","ios":"levelo://app?vid=7ad38b01-77fd-45fa-8bf2-4b71c72f58a8"},"vehicle_type_id":"4","last_reported":1731744686,"current_range_meters":6800,"station_id":"ce4bho92rcd13ifvqh3g","pricing_plan_id":"cebpf4jnsgd1na2vs0mg"},{"bike_id":"4b427bfa-7714-4ed3-844a-3a6ed285c9ce","system_id":"levelo_inurba_marseille","lat":43.25118,"lon":5.40317,"is_reserved":false,"is_disabled":false,"rental_uris":{"android":"levelo://app?vid=4b427bfa-7714-4ed3-844a-3a6ed285c9ce","ios":"levelo://app?vid=4b427bfa-7714-4ed3-844a-3a6ed285c9ce"},"vehicle_type_id":"4","last_reported":1731744686,"current_range_meters":32800,"station_id":"ce4bhlh2rcd13ifvqgig","pricing_plan_id":"cebpf4jnsgd1na2vs0mg"},{"bike_id":"a984379e-9db6-4e85-8e53-add8d4d17e4b","system_id":"levelo_inurba_marseille","lat":43.3014,"lon":5.39868,"is_reserved":false,"is_disabled":false,"rental_uris":{"android":"levelo://app?vid=a984379e-9db6-4e85-8e53-add8d4d17e4b","ios":"levelo://app?vid=a984379e-9db6-4e85-8e53-add8d4d17e4b"},"vehicle_type_id":"4","last_reported":1731744686,"current_range_meters":22000,"station_id":"ce4bh0h2rcd13ifvqd40","pricing_plan_id":"cebpf4jnsgd1na2vs0mg"},{"bike_id":"08f2da3e-9a4f-4bf2-9ab5-de990ce33744","system_id":"levelo_inurba_marseille","lat":43.30653,"lon":5.3685,"is_reserved":false,"is_disabled":false,"rental_uris":{"android":"levelo://app?vid=08f2da3e-9a4f-4bf2-9ab5-de990ce33744","ios":"levelo://app?vid=08f2da3e-9a4f-4bf2-9ab5-de990ce33744"},"vehicle_type_id":"4","last_reported":1731744686,"current_range_meters":35200,"station_id":"","pricing_plan_id":"cebpf4jnsgd1na2vs0mg"},{"bike_id":"add988a2-bb45-4c2f-8430-8a3e282ea40e","system_id":"levelo_inurba_marseille","lat":43.27211,"lon":5.39187,"is_reserved":false,"is_disabled":false,"rental_uris":{"android":"levelo://app?vid=add988a2-bb45-4c2f-8430-8a3e282ea40e","ios":"levelo://app?vid=add988a2-bb45-4c2f-8430-8a3e282ea40e"},"vehicle_type_id":"4","last_reported":1731744686,"current_range_meters":38800,"station_id":"ce4bhhp2rcd13ifvqfm0","pricing_plan_id":"cebpf4jnsgd1na2vs0mg"},{"bike_id":"d7f79274-e640-43c4-b7dd-f4e3dad6011c","system_id":"levelo_inurba_marseille","lat":43.27989,"lon":5.41667,"is_reserved":false,"is_disabled":false,"rental_uris":{"android":"levelo://app?vid=d7f79274-e640-43c4-b7dd-f4e3dad6011c","ios":"levelo://app?vid=d7f79274-e640-43c4-b7dd-f4e3dad6011c"},"vehicle_type_id":"4","last_reported":1731744686,"current_range_meters":38800,"station_id":"ce4bho12rcd13ifvqh1g","pricing_plan_id":"cebpf4jnsgd1na2vs0mg"},{"bike_id":"f1e0f3dd-a15a-4f0c-a853-07b7313ac16b","system_id":"levelo_inurba_marseille","lat":43.31887,"lon":5.40743,"is_reserved":false,"is_disabled":false,"rental_uris":{"android":"levelo://app?vid=f1e0f3dd-a15a-4f0c-a853-07b7313ac16b","ios":"levelo://app?vid=f1e0f3dd-a15a-4f0c-a853-07b7313ac16b"},"vehicle_type_id":"4","last_reported":1731744686,"current_range_meters":34000,"station_id":"ce4bhq12rcd13ifvqhig","pricing_plan_id":"cebpf4jnsgd1na2vs0mg"},{"bike_id":"f095f873-3c25-4d64-9c8a-9d3a77d97165","system_id":"levelo_inurba_marseille","lat":43.24078,"lon":5.37749,"is_reserved":false,"is_disabled":false,"rental_uris":{"android":"levelo://app?vid=f095f873-3c25-4d64-9c8a-9d3a77d97165","ios":"levelo://app?vid=f095f873-3c25-4d64-9c8a-9d3a77d97165"},"vehicle_type_id":"4","last_reported":1731744686,"current_range_meters":25600,"station_id":"ce4bhnp2rcd13ifvqgvg","pricing_plan_id":"cebpf4jnsgd1na2vs0mg"},{"bike_id":"d6f1e6bc-d1f8-421c-aefe-5300812622d6","system_id":"levelo_inurba_marseille","lat":43.285706,"lon":5.383306,"is_reserved":false,"is_disabled":false,"rental_uris":{"android":"levelo://app?vid=d6f1e6bc-d1f8-421c-aefe-5300812622d6","ios":"levelo://app?vid=d6f1e6bc-d1f8-421c-aefe-5300812622d6"},"vehicle_type_id":"4","last_reported":1731744686,"current_range_meters":28000,"station_id":"ce4bhi12rcd13ifvqfo0","pricing_plan_id":"cebpf4jnsgd1na2vs0mg"},{"bike_id":"b54f4471-f146-477a-ade3-58e1dea1b85e","system_id":"levelo_inurba_marseille","lat":43.31811,"lon":5.36281,"is_reserved":false,"is_disabled":false,"rental_uris":{"android":"levelo://app?vid=b54f4471-f146-477a-ade3-58e1dea1b85e","ios":"levelo://app?vid=b54f4471-f146-477a-ade3-58e1dea1b85e"},"vehicle_type_id":"4","last_reported":1731744686,"current_range_meters":38400,"station_id":"","pricing_plan_id":"cebpf4jnsgd1na2vs0mg"},{"bike_id":"ecc7fb54-d5dd-441b-b324-af1d207ef66a","system_id":"levelo_inurba_marseille","lat":43.28699,"lon":5.39974,"is_reserved":false,"is_disabled":false,"rental_uris":{"android":"levelo://app?vid=ecc7fb54-d5dd-441b-b324-af1d207ef66a","ios":"levelo://app?vid=ecc7fb54-d5dd-441b-b324-af1d207ef66a"},"vehicle_type_id":"4","last_reported":1731744686,"current_range_meters":38400,"station_id":"ce4bho92rcd13ifvqh3g","pricing_plan_id":"cebpf4jnsgd1na2vs0mg"},{"bike_id":"8bff07a5-68e3-4a3a-9254-caf024fd54cb","system_id":"levelo_inurba_marseille","lat":43.28945,"lon":5.39627,"is_reserved":false,"is_disabled":false,"rental_uris":{"android":"levelo://app?vid=8bff07a5-68e3-4a3a-9254-caf024fd54cb","ios":"levelo://app?vid=8bff07a5-68e3-4a3a-9254-caf024fd54cb"},"vehicle_type_id":"4","last_reported":1731744686,"current_range_meters":36400,"station_id":"ce4bh3h2rcd13ifvqdn0","pricing_plan_id":"cebpf4jnsgd1na2vs0mg"},{"bike_id":"733b8fbc-d1e7-4659-8527-d71807ce14b7","system_id":"levelo_inurba_marseille","lat":43.26941,"lon":5.40251,"is_reserved":false,"is_disabled":false,"rental_uris":{"android":"levelo://app?vid=733b8fbc-d1e7-4659-8527-d71807ce14b7","ios":"levelo://app?vid=733b8fbc-d1e7-4659-8527-d71807ce14b7"},"vehicle_type_id":"4","last_reported":1731744686,"current_range_meters":39200,"station_id":"cjm6bp8fraef2m0cb0m0","pricing_plan_id":"cebpf4jnsgd1na2vs0mg"},{"bike_id":"492c6ee8-4920-4b44-bda9-9e5d03dff0e9","system_id":"levelo_inurba_marseille","lat":43.28078,"lon":5.39653,"is_reserved":false,"is_disabled":false,"rental_uris":{"android":"levelo://app?vid=492c6ee8-4920-4b44-bda9-9e5d03dff0e9","ios":"levelo://app?vid=492c6ee8-4920-4b44-bda9-9e5d03dff0e9"},"vehicle_type_id":"4","last_reported":1731744686,"current_range_meters":37600,"station_id":"ce4bho12rcd13ifvqh2g","pricing_plan_id":"cebpf4jnsgd1na2vs0mg"},{"bike_id":"9ece6e23-b250-4df5-b1b8-38a5b1ec99c1","system_id":"levelo_inurba_marseille","lat":43.26054,"lon":5.39388,"is_reserved":false,"is_disabled":false,"rental_uris":{"android":"levelo://app?vid=9ece6e23-b250-4df5-b1b8-38a5b1ec99c1","ios":"levelo://app?vid=9ece6e23-b250-4df5-b1b8-38a5b1ec99c1"},"vehicle_type_id":"4","last_reported":1731744686,"current_range_meters":36800,"station_id":"ce4bhh92rcd13ifvqfj0","pricing_plan_id":"cebpf4jnsgd1na2vs0mg"},{"bike_id":"805cfe6b-be44-4949-bab5-57b1ce8478a4","system_id":"levelo_inurba_marseille","lat":43.33752,"lon":5.37459,"is_reserved":false,"is_disabled":false,"rental_uris":{"android":"levelo://app?vid=805cfe6b-be44-4949-bab5-57b1ce8478a4","ios":"levelo://app?vid=805cfe6b-be44-4949-bab5-57b1ce8478a4"},"vehicle_type_id":"4","last_reported":1731744686,"current_range_meters":30000,"station_id":"","pricing_plan_id":"cebpf4jnsgd1na2vs0mg"},{"bike_id":"a57fb143-973c-47ab-ad9f-272f194992ef","system_id":"levelo_inurba_marseille","lat":43.23153,"lon":5.43706,"is_reserved":false,"is_disabled":false,"rental_uris":{"android":"levelo://app?vid=a57fb143-973c-47ab-ad9f-272f194992ef","ios":"levelo://app?vid=a57fb143-973c-47ab-ad9f-272f194992ef"},"vehicle_type_id":"4","last_reported":1731744686,"current_range_meters":14400,"station_id":"ce4bhmp2rcd13ifvqgog","pricing_plan_id":"cebpf4jnsgd1na2vs0mg"},{"bike_id":"fd002a8d-ac7f-4503-8d68-637bcaebc3d1","system_id":"levelo_inurba_marseille","lat":43.29591,"lon":5.38108,"is_reserved":false,"is_disabled":false,"rental_uris":{"android":"levelo://app?vid=fd002a8d-ac7f-4503-8d68-637bcaebc3d1","ios":"levelo://app?vid=fd002a8d-ac7f-4503-8d68-637bcaebc3d1"},"vehicle_type_id":"4","last_reported":1731744686,"current_range_meters":37600,"station_id":"ce4bgl12rcd13ifvqbo0","pricing_plan_id":"cebpf4jnsgd1na2vs0mg"},{"bike_id":"8eae60eb-22fa-4b86-b441-0c082a5e7daf","system_id":"levelo_inurba_marseille","lat":43.27314,"lon":5.39091,"is_reserved":false,"is_disabled":false,"rental_uris":{"android":"levelo://app?vid=8eae60eb-22fa-4b86-b441-0c082a5e7daf","ios":"levelo://app?vid=8eae60eb-22fa-4b86-b441-0c082a5e7daf"},"vehicle_type_id":"4","last_reported":1731744686,"current_range_meters":16000,"station_id":"ce4bhgp2rcd13ifvqfe0","pricing_plan_id":"cebpf4jnsgd1na2vs0mg"},{"bike_id":"67b74999-7562-40a9-80d6-0bf76d158375","system_id":"levelo_inurba_marseille","lat":43.25582,"lon":5.38232,"is_reserved":false,"is_disabled":false,"rental_uris":{"android":"levelo://app?vid=67b74999-7562-40a9-80d6-0bf76d158375","ios":"levelo://app?vid=67b74999-7562-40a9-80d6-0bf76d158375"},"vehicle_type_id":"4","last_reported":1731744686,"current_range_meters":30000,"station_id":"ce4bhih2rcd13ifvqfs0","pricing_plan_id":"cebpf4jnsgd1na2vs0mg"},{"bike_id":"87aea4b0-addd-4819-b904-c585157867b9","system_id":"levelo_inurba_marseille","lat":43.29572,"lon":5.39982,"is_reserved":false,"is_disabled":false,"rental_uris":{"android":"levelo://app?vid=87aea4b0-addd-4819-b904-c585157867b9","ios":"levelo://app?vid=87aea4b0-addd-4819-b904-c585157867b9"},"vehicle_type_id":"4","last_reported":1731744686,"current_range_meters":38000,"station_id":"ce4bh312rcd13ifvqdj0","pricing_plan_id":"cebpf4jnsgd1na2vs0mg"},{"bike_id":"4d290e24-f8ef-46cc-8e85-56690ccf4aff","system_id":"levelo_inurba_marseille","lat":43.30883,"lon":5.39651,"is_reserved":false,"is_disabled":false,"rental_uris":{"android":"levelo://app?vid=4d290e24-f8ef-46cc-8e85-56690ccf4aff","ios":"levelo://app?vid=4d290e24-f8ef-46cc-8e85-56690ccf4aff"},"vehicle_type_id":"4","last_reported":1731744686,"current_range_meters":37600,"station_id":"ce4bh012rcd13ifvqcv0","pricing_plan_id":"cebpf4jnsgd1na2vs0mg"},{"bike_id":"9fcf9eb0-a4e5-4258-a673-5cb04a22d70c","system_id":"levelo_inurba_marseille","lat":43.292,"lon":5.39308,"is_reserved":false,"is_disabled":false,"rental_uris":{"android":"levelo://app?vid=9fcf9eb0-a4e5-4258-a673-5cb04a22d70c","ios":"levelo://app?vid=9fcf9eb0-a4e5-4258-a673-5cb04a22d70c"},"vehicle_type_id":"4","last_reported":1731744686,"current_range_meters":33600,"station_id":"ce4bh192rcd13ifvqdd0","pricing_plan_id":"cebpf4jnsgd1na2vs0mg"},{"bike_id":"1a813423-d86d-4cce-888c-e27175614fd2","system_id":"levelo_inurba_marseille","lat":43.28711,"lon":5.3999,"is_reserved":false,"is_disabled":false,"rental_uris":{"android":"levelo://app?vid=1a813423-d86d-4cce-888c-e27175614fd2","ios":"levelo://app?vid=1a813423-d86d-4cce-888c-e27175614fd2"},"vehicle_type_id":"4","last_reported":1731744686,"current_range_meters":28800,"station_id":"ce4bho92rcd13ifvqh3g","pricing_plan_id":"cebpf4jnsgd1na2vs0mg"},{"bike_id":"45156642-b4c8-42eb-82f7-126129e68141","system_id":"levelo_inurba_marseille","lat":43.25937,"lon":5.40905,"is_reserved":false,"is_disabled":false,"rental_uris":{"android":"levelo://app?vid=45156642-b4c8-42eb-82f7-126129e68141","ios":"levelo://app?vid=45156642-b4c8-42eb-82f7-126129e68141"},"vehicle_type_id":"4","last_reported":1731744686,"current_range_meters":25200,"station_id":"ce4bhm92rcd13ifvqglg","pricing_plan_id":"cebpf4jnsgd1na2vs0mg"},{"bike_id":"de284d5d-1134-4324-89cd-f6160e7c5f8a","system_id":"levelo_inurba_marseille","lat":43.33024,"lon":5.39046,"is_reserved":false,"is_disabled":false,"rental_uris":{"android":"levelo://app?vid=de284d5d-1134-4324-89cd-f6160e7c5f8a","ios":"levelo://app?vid=de284d5d-1134-4324-89cd-f6160e7c5f8a"},"vehicle_type_id":"4","last_reported":1731744686,"current_range_meters":9200,"station_id":"ce4bhr92rcd13ifvqhrg","pricing_plan_id":"cebpf4jnsgd1na2vs0mg"},{"bike_id":"ca655f3b-8380-4045-b3f8-8acaa0e83ede","system_id":"levelo_inurba_marseille","lat":43.3374,"lon":5.37452,"is_reserved":false,"is_disabled":false,"rental_uris":{"android":"levelo://app?vid=ca655f3b-8380-4045-b3f8-8acaa0e83ede","ios":"levelo://app?vid=ca655f3b-8380-4045-b3f8-8acaa0e83ede"},"vehicle_type_id":"4","last_reported":1731744686,"current_range_meters":35600,"station_id":"","pricing_plan_id":"cebpf4jnsgd1na2vs0mg"},{"bike_id":"7ee6d84f-9575-47d6-bdd3-b727f002e7c5","system_id":"levelo_inurba_marseille","lat":43.26499,"lon":5.39546,"is_reserved":false,"is_disabled":false,"rental_uris":{"android":"levelo://app?vid=7ee6d84f-9575-47d6-bdd3-b727f002e7c5","ios":"levelo://app?vid=7ee6d84f-9575-47d6-bdd3-b727f002e7c5"},"vehicle_type_id":"4","last_reported":1731744686,"current_range_meters":34800,"station_id":"ce4bhi12rcd13ifvqfq0","pricing_plan_id":"cebpf4jnsgd1na2vs0mg"},{"bike_id":"fc675dd3-ce3b-42ac-b73f-2cfc19b55384","system_id":"levelo_inurba_marseille","lat":43.32477,"lon":5.36558,"is_reserved":false,"is_disabled":false,"rental_uris":{"android":"levelo://app?vid=fc675dd3-ce3b-42ac-b73f-2cfc19b55384","ios":"levelo://app?vid=fc675dd3-ce3b-42ac-b73f-2cfc19b55384"},"vehicle_type_id":"4","last_reported":1731744686,"current_range_meters":38000,"station_id":"ce4bhs12rcd13ifvqhvg","pricing_plan_id":"cebpf4jnsgd1na2vs0mg"},{"bike_id":"a6b8c285-acc9-4039-9531-1aae39136a33","system_id":"levelo_inurba_marseille","lat":43.312042,"lon":5.367348,"is_reserved":false,"is_disabled":false,"rental_uris":{"android":"levelo://app?vid=a6b8c285-acc9-4039-9531-1aae39136a33","ios":"levelo://app?vid=a6b8c285-acc9-4039-9531-1aae39136a33"},"vehicle_type_id":"4","last_reported":1731744686,"current_range_meters":16000,"station_id":"","pricing_plan_id":"cebpf4jnsgd1na2vs0mg"},{"bike_id":"1fde42b2-e1c0-4838-a2e8-d683a48e9d4a","system_id":"levelo_inurba_marseille","lat":43.25828,"lon":5.39435,"is_reserved":false,"is_disabled":false,"rental_uris":{"android":"levelo://app?vid=1fde42b2-e1c0-4838-a2e8-d683a48e9d4a","ios":"levelo://app?vid=1fde42b2-e1c0-4838-a2e8-d683a48e9d4a"},"vehicle_type_id":"4","last_reported":1731744686,"current_range_meters":38400,"station_id":"ce4bhip2rcd13ifvqft0","pricing_plan_id":"cebpf4jnsgd1na2vs0mg"},{"bike_id":"7533f0c2-14f7-425a-b3ed-0abe750ceb15","system_id":"levelo_inurba_marseille","lat":43.25587,"lon":5.38223,"is_reserved":false,"is_disabled":false,"rental_uris":{"android":"levelo://app?vid=7533f0c2-14f7-425a-b3ed-0abe750ceb15","ios":"levelo://app?vid=7533f0c2-14f7-425a-b3ed-0abe750ceb15"},"vehicle_type_id":"4","last_reported":1731744686,"current_range_meters":38800,"station_id":"ce4bhih2rcd13ifvqfs0","pricing_plan_id":"cebpf4jnsgd1na2vs0mg"},{"bike_id":"5c254126-8805-4ed8-9520-9f63561143b3","system_id":"levelo_inurba_marseille","lat":43.24168,"lon":5.36401,"is_reserved":false,"is_disabled":false,"rental_uris":{"android":"levelo://app?vid=5c254126-8805-4ed8-9520-9f63561143b3","ios":"levelo://app?vid=5c254126-8805-4ed8-9520-9f63561143b3"},"vehicle_type_id":"4","last_reported":1731744686,"current_range_meters":22800,"station_id":"cpo36qri1sfpv3e86is0","pricing_plan_id":"cebpf4jnsgd1na2vs0mg"},{"bike_id":"0d973ca9-3cfa-4e68-b2ca-a91d842d8aa1","system_id":"levelo_inurba_marseille","lat":43.27563,"lon":5.38421,"is_reserved":false,"is_disabled":false,"rental_uris":{"android":"levelo://app?vid=0d973ca9-3cfa-4e68-b2ca-a91d842d8aa1","ios":"levelo://app?vid=0d973ca9-3cfa-4e68-b2ca-a91d842d8aa1"},"vehicle_type_id":"4","last_reported":1731744686,"current_range_meters":20400,"station_id":"ce4bhh92rcd13ifvqfi0","pricing_plan_id":"cebpf4jnsgd1na2vs0mg"},{"bike_id":"95189523-b163-438d-9cb1-f7dc4435500d","system_id":"levelo_inurba_marseille","lat":43.32341,"lon":5.4062,"is_reserved":false,"is_disabled":false,"rental_uris":{"android":"levelo://app?vid=95189523-b163-438d-9cb1-f7dc4435500d","ios":"levelo://app?vid=95189523-b163-438d-9cb1-f7dc4435500d"},"vehicle_type_id":"4","last_reported":1731744686,"current_range_meters":39200,"station_id":"ce4bhq92rcd13ifvqhjg","pricing_plan_id":"cebpf4jnsgd1na2vs0mg"},{"bike_id":"84418171-fe1e-4317-9cf6-de54aba84995","system_id":"levelo_inurba_marseille","lat":43.25107,"lon":5.40325,"is_reserved":false,"is_disabled":false,"rental_uris":{"android":"levelo://app?vid=84418171-fe1e-4317-9cf6-de54aba84995","ios":"levelo://app?vid=84418171-fe1e-4317-9cf6-de54aba84995"},"vehicle_type_id":"4","last_reported":1731744686,"current_range_meters":30800,"station_id":"ce4bhlh2rcd13ifvqgig","pricing_plan_id":"cebpf4jnsgd1na2vs0mg"},{"bike_id":"50ae3ec0-9f46-43fd-819a-4c7a80c3cf46","system_id":"levelo_inurba_marseille","lat":43.28842,"lon":5.35846,"is_reserved":false,"is_disabled":false,"rental_uris":{"android":"levelo://app?vid=50ae3ec0-9f46-43fd-819a-4c7a80c3cf46","ios":"levelo://app?vid=50ae3ec0-9f46-43fd-819a-4c7a80c3cf46"},"vehicle_type_id":"4","last_reported":1731744686,"current_range_meters":36400,"station_id":"ce4bhb12rcd13ifvqem0","pricing_plan_id":"cebpf4jnsgd1na2vs0mg"},{"bike_id":"20098426-480d-4796-8592-5c94fe826f86","system_id":"levelo_inurba_marseille","lat":43.30147,"lon":5.39837,"is_reserved":false,"is_disabled":false,"rental_uris":{"android":"levelo://app?vid=20098426-480d-4796-8592-5c94fe826f86","ios":"levelo://app?vid=20098426-480d-4796-8592-5c94fe826f86"},"vehicle_type_id":"4","last_reported":1731744686,"current_range_meters":31200,"station_id":"ce4bh0h2rcd13ifvqd40","pricing_plan_id":"cebpf4jnsgd1na2vs0mg"},{"bike_id":"6cb478f9-b8ec-4307-92d8-7139d356a923","system_id":"levelo_inurba_marseille","lat":43.30925,"lon":5.40151,"is_reserved":false,"is_disabled":false,"rental_uris":{"android":"levelo://app?vid=6cb478f9-b8ec-4307-92d8-7139d356a923","ios":"levelo://app?vid=6cb478f9-b8ec-4307-92d8-7139d356a923"},"vehicle_type_id":"4","last_reported":1731744686,"current_range_meters":38800,"station_id":"ce4bgvp2rcd13ifvqct0","pricing_plan_id":"cebpf4jnsgd1na2vs0mg"},{"bike_id":"6ef266d1-92eb-440d-9bcd-6ee947c0d029","system_id":"levelo_inurba_marseille","lat":43.274956,"lon":5.424471,"is_reserved":false,"is_disabled":false,"rental_uris":{"android":"levelo://app?vid=6ef266d1-92eb-440d-9bcd-6ee947c0d029","ios":"levelo://app?vid=6ef266d1-92eb-440d-9bcd-6ee947c0d029"},"vehicle_type_id":"4","last_reported":1731744686,"current_range_meters":39200,"station_id":"ce4bhn92rcd13ifvqgrg","pricing_plan_id":"cebpf4jnsgd1na2vs0mg"},{"bike_id":"ddf8bae8-6ac0-431e-8029-0a64d42392d0","system_id":"levelo_inurba_marseille","lat":43.27678,"lon":5.3888,"is_reserved":false,"is_disabled":false,"rental_uris":{"android":"levelo://app?vid=ddf8bae8-6ac0-431e-8029-0a64d42392d0","ios":"levelo://app?vid=ddf8bae8-6ac0-431e-8029-0a64d42392d0"},"vehicle_type_id":"4","last_reported":1731744686,"current_range_meters":22400,"station_id":"ce4bhi12rcd13ifvqfo0","pricing_plan_id":"cebpf4jnsgd1na2vs0mg"},{"bike_id":"1ae8fe75-00ad-479b-a755-74d45d76bfbe","system_id":"levelo_inurba_marseille","lat":43.2417,"lon":5.36402,"is_reserved":false,"is_disabled":false,"rental_uris":{"android":"levelo://app?vid=1ae8fe75-00ad-479b-a755-74d45d76bfbe","ios":"levelo://app?vid=1ae8fe75-00ad-479b-a755-74d45d76bfbe"},"vehicle_type_id":"4","last_reported":1731744686,"current_range_meters":7200,"station_id":"cpo36qri1sfpv3e86is0","pricing_plan_id":"cebpf4jnsgd1na2vs0mg"},{"bike_id":"6964e7dc-3fcb-4a3c-b5be-06571ef1e898","system_id":"levelo_inurba_marseille","lat":43.30432,"lon":5.38897,"is_reserved":false,"is_disabled":false,"rental_uris":{"android":"levelo://app?vid=6964e7dc-3fcb-4a3c-b5be-06571ef1e898","ios":"levelo://app?vid=6964e7dc-3fcb-4a3c-b5be-06571ef1e898"},"vehicle_type_id":"4","last_reported":1731744686,"current_range_meters":29600,"station_id":"ce4bgk12rcd13ifvqbi0","pricing_plan_id":"cebpf4jnsgd1na2vs0mg"},{"bike_id":"5df34f29-1a7a-4221-97e5-c009d97a2929","system_id":"levelo_inurba_marseille","lat":43.23837,"lon":5.36539,"is_reserved":false,"is_disabled":false,"rental_uris":{"android":"levelo://app?vid=5df34f29-1a7a-4221-97e5-c009d97a2929","ios":"levelo://app?vid=5df34f29-1a7a-4221-97e5-c009d97a2929"},"vehicle_type_id":"4","last_reported":1731744686,"current_range_meters":9600,"station_id":"","pricing_plan_id":"cebpf4jnsgd1na2vs0mg"},{"bike_id":"7e2f8581-8952-4f1f-be73-b3dff5009a08","system_id":"levelo_inurba_marseille","lat":43.337444,"lon":5.374475,"is_reserved":false,"is_disabled":false,"rental_uris":{"android":"levelo://app?vid=7e2f8581-8952-4f1f-be73-b3dff5009a08","ios":"levelo://app?vid=7e2f8581-8952-4f1f-be73-b3dff5009a08"},"vehicle_type_id":"4","last_reported":1731744686,"current_range_meters":39200,"station_id":"ce4bgj92rcd13ifvqbd0","pricing_plan_id":"cebpf4jnsgd1na2vs0mg"},{"bike_id":"92ac4858-87d6-4ceb-8f6e-004635a816a8","system_id":"levelo_inurba_marseille","lat":43.27792,"lon":5.40724,"is_reserved":false,"is_disabled":false,"rental_uris":{"android":"levelo://app?vid=92ac4858-87d6-4ceb-8f6e-004635a816a8","ios":"levelo://app?vid=92ac4858-87d6-4ceb-8f6e-004635a816a8"},"vehicle_type_id":"4","last_reported":1731744686,"current_range_meters":32800,"station_id":"ce4bhnh2rcd13ifvqgtg","pricing_plan_id":"cebpf4jnsgd1na2vs0mg"},{"bike_id":"dd72cd83-21ad-459e-9f43-d39868baa311","system_id":"levelo_inurba_marseille","lat":43.28264,"lon":5.35068,"is_reserved":false,"is_disabled":false,"rental_uris":{"android":"levelo://app?vid=dd72cd83-21ad-459e-9f43-d39868baa311","ios":"levelo://app?vid=dd72cd83-21ad-459e-9f43-d39868baa311"},"vehicle_type_id":"4","last_reported":1731744686,"current_range_meters":36400,"station_id":"ce4bhbp2rcd13ifvqerg","pricing_plan_id":"cebpf4jnsgd1na2vs0mg"},{"bike_id":"86618eb2-741f-4657-95a0-589bd8a02dd3","system_id":"levelo_inurba_marseille","lat":43.21526,"lon":5.3473,"is_reserved":false,"is_disabled":false,"rental_uris":{"android":"levelo://app?vid=86618eb2-741f-4657-95a0-589bd8a02dd3","ios":"levelo://app?vid=86618eb2-741f-4657-95a0-589bd8a02dd3"},"vehicle_type_id":"4","last_reported":1731744686,"current_range_meters":12000,"station_id":"","pricing_plan_id":"cebpf4jnsgd1na2vs0mg"},{"bike_id":"347c7842-b74d-475c-9f43-0b98799e9df1","system_id":"levelo_inurba_marseille","lat":43.32342,"lon":5.4062,"is_reserved":false,"is_disabled":false,"rental_uris":{"android":"levelo://app?vid=347c7842-b74d-475c-9f43-0b98799e9df1","ios":"levelo://app?vid=347c7842-b74d-475c-9f43-0b98799e9df1"},"vehicle_type_id":"4","last_reported":1731744686,"current_range_meters":38400,"station_id":"ce4bhq92rcd13ifvqhjg","pricing_plan_id":"cebpf4jnsgd1na2vs0mg"},{"bike_id":"4f9bbc6b-a988-43f8-bc00-4d944c1473b5","system_id":"levelo_inurba_marseille","lat":43.29925,"lon":5.36386,"is_reserved":false,"is_disabled":false,"rental_uris":{"android":"levelo://app?vid=4f9bbc6b-a988-43f8-bc00-4d944c1473b5","ios":"levelo://app?vid=4f9bbc6b-a988-43f8-bc00-4d944c1473b5"},"vehicle_type_id":"4","last_reported":1731744686,"current_range_meters":27600,"station_id":"","pricing_plan_id":"cebpf4jnsgd1na2vs0mg"},{"bike_id":"9dbc7790-127e-492f-872c-8d009fc5f652","system_id":"levelo_inurba_marseille","lat":43.26951,"lon":5.38634,"is_reserved":false,"is_disabled":false,"rental_uris":{"android":"levelo://app?vid=9dbc7790-127e-492f-872c-8d009fc5f652","ios":"levelo://app?vid=9dbc7790-127e-492f-872c-8d009fc5f652"},"vehicle_type_id":"4","last_reported":1731744686,"current_range_meters":23200,"station_id":"ce4bhh92rcd13ifvqfh0","pricing_plan_id":"cebpf4jnsgd1na2vs0mg"},{"bike_id":"e79c1d71-1ce6-4d60-8fff-1fc1acef8ee4","system_id":"levelo_inurba_marseille","lat":43.23958,"lon":5.36629,"is_reserved":false,"is_disabled":false,"rental_uris":{"android":"levelo://app?vid=e79c1d71-1ce6-4d60-8fff-1fc1acef8ee4","ios":"levelo://app?vid=e79c1d71-1ce6-4d60-8fff-1fc1acef8ee4"},"vehicle_type_id":"4","last_reported":1731744686,"current_range_meters":24800,"station_id":"ce4bhi12rcd13ifvqfp0","pricing_plan_id":"cebpf4jnsgd1na2vs0mg"},{"bike_id":"e6c1d43b-f921-47c3-91ea-d99d6643e5c5","system_id":"levelo_inurba_marseille","lat":43.27676,"lon":5.38872,"is_reserved":false,"is_disabled":false,"rental_uris":{"android":"levelo://app?vid=e6c1d43b-f921-47c3-91ea-d99d6643e5c5","ios":"levelo://app?vid=e6c1d43b-f921-47c3-91ea-d99d6643e5c5"},