{"last_updated":1692885961,"ttl":30,"version":"2.2","data":{"bikes":[{"bike_id":"d79c7242-fa29-409a-bc4d-7334efa0f152","system_id":"levelo_inurba_marseille","lat":43.31341,"lon":5.367098,"is_reserved":false,"is_disabled":false,"rental_uris":{"android":"levelo://app?vid=d79c7242-fa29-409a-bc4d-7334efa0f152","ios":"levelo://app?vid=d79c7242-fa29-409a-bc4d-7334efa0f152"},"vehicle_type_id":"4","last_reported":1692885961,"current_range_meters":31600,"station_id":"ce4bgr92rcd13ifvqc6g","pricing_plan_id":"free"},{"bike_id":"aa4ecf7a-d987-4620-9bb0-d988e52ac47c","system_id":"levelo_inurba_marseille","lat":43.31341,"lon":5.367098,"is_reserved":false,"is_disabled":false,"rental_uris":{"android":"levelo://app?vid=aa4ecf7a-d987-4620-9bb0-d988e52ac47c","ios":"levelo://app?vid=aa4ecf7a-d987-4620-9bb0-d988e52ac47c"},"vehicle_type_id":"4","last_reported":1692885961,"current_range_meters":31600,"station_id":"ce4bgr92rcd13ifvqc6g","pricing_plan_id":"free"},{"bike_id":"025308b4-6557-4bdf-ae32-627200e0e7eb","system_id":"levelo_inurba_marseille","lat":43.31344,"lon":5.36714,"is_reserved":false,"is_disabled":false,"rental_uris":{"android":"levelo://app?vid=025308b4-6557-4bdf-ae32-627200e0e7eb","ios":"levelo://app?vid=025308b4-6557-4bdf-ae32-627200e0e7eb"},"vehicle_type_id":"4","last_reported":1692885961,"current_range_meters":25200,"station_id":"ce4bgr92rcd13ifvqc6g","pricing_plan_id":"free"},{"bike_id":"a7edaf98-84f3-42a3-86bd-d6974d3af395","system_id":"levelo_inurba_marseille","lat":43.31341,"lon":5.367098,"is_reserved":false,"is_disabled":false,"rental_uris":{"android":"levelo://app?vid=a7edaf98-84f3-42a3-86bd-d6974d3af395","ios":"levelo://app?vid=a7edaf98-84f3-42a3-86bd-d6974d3af395"},"vehicle_type_id":"4","last_reported":1692885961,"current_range_meters":31600,"station_id":"ce4bgr92rcd13ifvqc6g","pricing_plan_id":"free"},{"bike_id":"e64d4004-fc93-4d1b-9cf6-446236872f82","system_id":"levelo_inurba_marseille","lat":43.31346,"lon":5.36713,"is_reserved":false,"is_disabled":false,"rental_uris":{"android":"levelo://app?vid=e64d4004-fc93-4d1b-9cf6-446236872f82","ios":"levelo://app?vid=e64d4004-fc93-4d1b-9cf6-446236872f82"},"vehicle_type_id":"4","last_reported":1692885961,"current_range_meters":11200,"station_id":"ce4bgr92rcd13ifvqc6g","pricing_plan_id":"free"},{"bike_id":"47f3a06c-d65c-4ac0-88e0-99a194e3f34e","system_id":"levelo_inurba_marseille","lat":43.31348,"lon":5.3671,"is_reserved":false,"is_disabled":false,"rental_uris":{"android":"levelo://app?vid=47f3a06c-d65c-4ac0-88e0-99a194e3f34e","ios":"levelo://app?vid=47f3a06c-d65c-4ac0-88e0-99a194e3f34e"},"vehicle_type_id":"4","last_reported":1692885961,"current_range_meters":24000,"station_id":"ce4bgr92rcd13ifvqc6g","pricing_plan_id":"free"},{"bike_id":"b53e6a80-242c-4085-98f0-ae92fade7a91","system_id":"levelo_inurba_marseille","lat":43.312239,"lon":5.368562,"is_reserved":false,"is_disabled":false,"rental_uris":{"android":"levelo://app?vid=b53e6a80-242c-4085-98f0-ae92fade7a91","ios":"levelo://app?vid=b53e6a80-242c-4085-98f0-ae92fade7a91"},"vehicle_type_id":"4","last_reported":1692885961,"current_range_meters":25200,"station_id":"ce4bgl92rcd13ifvqbq0","pricing_plan_id":"free"},{"bike_id":"f22ca441-4e4e-4660-b824-b2f46943e54d","system_id":"levelo_inurba_marseille","lat":43.312239,"lon":5.368562,"is_reserved":false,"is_disabled":false,"rental_uris":{"android":"levelo://app?vid=f22ca441-4e4e-4660-b824-b2f46943e54d","ios":"levelo://app?vid=f22ca441-4e4e-4660-b824-b2f46943e54d"},"vehicle_type_id":"4","last_reported":1692885961,"current_range_meters":32000,"station_id":"ce4bgl92rcd13ifvqbq0","pricing_plan_id":"free"},{"bike_id":"c38d4a4d-d1fc-4e4f-a7ea-941f048b8f6e","system_id":"levelo_inurba_marseille","lat":43.312239,"lon":5.368562,"is_reserved":false,"is_disabled":false,"rental_uris":{"android":"levelo://app?vid=c38d4a4d-d1fc-4e4f-a7ea-941f048b8f6e","ios":"levelo://app?vid=c38d4a4d-d1fc-4e4f-a7ea-941f048b8f6e"},"vehicle_type_id":"4","last_reported":1692885961,"current_range_meters":18400,"station_id":"ce4bgl92rcd13ifvqbq0","pricing_plan_id":"free"},{"bike_id":"65674239-bfb7-4928-84de-b7277febf7c2","system_id":"levelo_inurba_marseille","lat":43.312239,"lon":5.368562,"is_reserved":false,"is_disabled":false,"rental_uris":{"android":"levelo://app?vid=65674239-bfb7-4928-84de-b7277febf7c2","ios":"levelo://app?vid=65674239-bfb7-4928-84de-b7277febf7c2"},"vehicle_type_id":"4","last_reported":1692885961,"current_range_meters":12400,"station_id":"ce4bgl92rcd13ifvqbq0","pricing_plan_id":"free"},{"bike_id":"fe774ce4-1d7a-427a-a89f-304a63daa661","system_id":"levelo_inurba_marseille","lat":43.312239,"lon":5.368562,"is_reserved":false,"is_disabled":false,"rental_uris":{"android":"levelo://app?vid=fe774ce4-1d7a-427a-a89f-304a63daa661","ios":"levelo://app?vid=fe774ce4-1d7a-427a-a89f-304a63daa661"},"vehicle_type_id":"4","last_reported":1692885961,"current_range_meters":27600,"station_id":"ce4bgl92rcd13ifvqbq0","pricing_plan_id":"free"},{"bike_id":"c6ef42de-adb4-4435-897d-20829b82a993","system_id":"levelo_inurba_marseille","lat":43.312239,"lon":5.368562,"is_reserved":false,"is_disabled":false,"rental_uris":{"android":"levelo://app?vid=c6ef42de-adb4-4435-897d-20829b82a993","ios":"levelo://app?vid=c6ef42de-adb4-4435-897d-20829b82a993"},"vehicle_type_id":"4","last_reported":1692885961,"current_range_meters":31600,"station_id":"ce4bgl92rcd13ifvqbq0","pricing_plan_id":"free"},{"bike_id":"77a82150-5729-450c-aa0c-86c386935d57","system_id":"levelo_inurba_marseille","lat":43.312239,"lon":5.368562,"is_reserved":false,"is_disabled":false,"rental_uris":{"android":"levelo://app?vid=77a82150-5729-450c-aa0c-86c386935d57","ios":"levelo://app?vid=77a82150-5729-450c-aa0c-86c386935d57"},"vehicle_type_id":"4","last_reported":1692885961,"current_range_meters":23200,"station_id":"ce4bgl92rcd13ifvqbq0","pricing_plan_id":"free"},{"bike_id":"8405b3bc-5e1e-4f05-b0a0-34a5ffebbae8","system_id":"levelo_inurba_marseille","lat":43.309076,"lon":5.368465,"is_reserved":false,"is_disabled":false,"rental_uris":{"android":"levelo://app?vid=8405b3bc-5e1e-4f05-b0a0-34a5ffebbae8","ios":"levelo://app?vid=8405b3bc-5e1e-4f05-b0a0-34a5ffebbae8"},"vehicle_type_id":"4","last_reported":1692885961,"current_range_meters":31200,"station_id":"ce4bgn92rcd13ifvqbvg","pricing_plan_id":"free"},{"bike_id":"bb796289-6d83-4f9a-8b1f-27a6b48cd6e4","system_id":"levelo_inurba_marseille","lat":43.309076,"lon":5.368465,"is_reserved":false,"is_disabled":false,"rental_uris":{"android":"levelo://app?vid=bb796289-6d83-4f9a-8b1f-27a6b48cd6e4","ios":"levelo://app?vid=bb796289-6d83-4f9a-8b1f-27a6b48cd6e4"},"vehicle_type_id":"4","last_reported":1692885961,"current_range_meters":31600,"station_id":"ce4bgn92rcd13ifvqbvg","pricing_plan_id":"free"},{"bike_id":"c6bb43d9-c9e7-4649-a442-1d1b84dce7f5","system_id":"levelo_inurba_marseille","lat":43.309076,"lon":5.368465,"is_reserved":false,"is_disabled":false,"rental_uris":{"android":"levelo://app?vid=c6bb43d9-c9e7-4649-a442-1d1b84dce7f5","ios":"levelo://app?vid=c6bb43d9-c9e7-4649-a442-1d1b84dce7f5"},"vehicle_type_id":"4","last_reported":1692885961,"current_range_meters":31200,"station_id":"ce4bgn92rcd13ifvqbvg","pricing_plan_id":"free"},{"bike_id":"cc49add7-e5c1-4a08-8141-216951d9e07b","system_id":"levelo_inurba_marseille","lat":43.309076,"lon":5.368465,"is_reserved":false,"is_disabled":false,"rental_uris":{"android":"levelo://app?vid=cc49add7-e5c1-4a08-8141-216951d9e07b","ios":"levelo://app?vid=cc49add7-e5c1-4a08-8141-216951d9e07b"},"vehicle_type_id":"4","last_reported":1692885961,"current_range_meters":31600,"station_id":"ce4bgn92rcd13ifvqbvg","pricing_plan_id":"free"},{"bike_id":"058cb422-5af2-4100-b3e6-53658bb99288","system_id":"levelo_inurba_marseille","lat":43.309076,"lon":5.368465,"is_reserved":false,"is_disabled":false,"rental_uris":{"android":"levelo://app?vid=058cb422-5af2-4100-b3e6-53658bb99288","ios":"levelo://app?vid=058cb422-5af2-4100-b3e6-53658bb99288"},"vehicle_type_id":"4","last_reported":1692885961,"current_range_meters":31200,"station_id":"ce4bgn92rcd13ifvqbvg","pricing_plan_id":"free"},{"bike_id":"2e346ffa-b025-4dd8-81d2-c2ac97b82c5b","system_id":"levelo_inurba_marseille","lat":43.309076,"lon":5.368465,"is_reserved":false,"is_disabled":false,"rental_uris":{"android":"levelo://app?vid=2e346ffa-b025-4dd8-81d2-c2ac97b82c5b","ios":"levelo://app?vid=2e346ffa-b025-4dd8-81d2-c2ac97b82c5b"},"vehicle_type_id":"4","last_reported":1692885961,"current_range_meters":29200,"station_id":"ce4bgn92rcd13ifvqbvg","pricing_plan_id":"free"},{"bike_id":"9f9de788-89f7-4f8d-ae39-941008b49329","system_id":"levelo_inurba_marseille","lat":43.309076,"lon":5.368465,"is_reserved":false,"is_disabled":false,"rental_uris":{"android":"levelo://app?vid=9f9de788-89f7-4f8d-ae39-941008b49329","ios":"levelo://app?vid=9f9de788-89f7-4f8d-ae39-941008b49329"},"vehicle_type_id":"4","last_reported":1692885961,"current_range_meters":24400,"station_id":"ce4bgn92rcd13ifvqbvg","pricing_plan_id":"free"},{"bike_id":"83f30792-dccb-4af7-bcab-46a5ecf65bb4","system_id":"levelo_inurba_marseille","lat":43.309076,"lon":5.368465,"is_reserved":false,"is_disabled":false,"rental_uris":{"android":"levelo://app?vid=83f30792-dccb-4af7-bcab-46a5ecf65bb4","ios":"levelo://app?vid=83f30792-dccb-4af7-bcab-46a5ecf65bb4"},"vehicle_type_id":"4","last_reported":1692885961,"current_range_meters":31200,"station_id":"ce4bgn92rcd13ifvqbvg","pricing_plan_id":"free"},{"bike_id":"408e9d4b-5190-449e-a173-1e2a2726b726","system_id":"levelo_inurba_marseille","lat":43.309076,"lon":5.368465,"is_reserved":false,"is_disabled":false,"rental_uris":{"android":"levelo://app?vid=408e9d4b-5190-449e-a173-1e2a2726b726","ios":"levelo://app?vid=408e9d4b-5190-449e-a173-1e2a2726b726"},"vehicle_type_id":"4","last_reported":1692885961,"current_range_meters":31200,"station_id":"ce4bgn92rcd13ifvqbvg","pricing_plan_id":"free"},{"bike_id":"cb51ec82-f327-4a65-ad7c-30a53446acbd","system_id":"levelo_inurba_marseille","lat":43.309076,"lon":5.368465,"is_reserved":false,"is_disabled":false,"rental_uris":{"android":"levelo://app?vid=cb51ec82-f327-4a65-ad7c-30a53446acbd","ios":"levelo://app?vid=cb51ec82-f327-4a65-ad7c-30a53446acbd"},"vehicle_type_id":"4","last_reported":1692885961,"current_range_meters":31600,"station_id":"ce4bgn92rcd13ifvqbvg","pricing_plan_id":"free"},{"bike_id":"61df42e4-462a-4652-b27a-5279dd1056b0","system_id":"levelo_inurba_marseille","lat":43.309076,"lon":5.368465,"is_reserved":false,"is_disabled":false,"rental_uris":{"android":"levelo://app?vid=61df42e4-462a-4652-b27a-5279dd1056b0","ios":"levelo://app?vid=61df42e4-462a-4652-b27a-5279dd1056b0"},"vehicle_type_id":"4","last_reported":1692885961,"current_range_meters":29600,"station_id":"ce4bgn92rcd13ifvqbvg","pricing_plan_id":"free"},{"bike_id":"9be8781a-820b-45d5-8fd5-36cfd6833e4b","system_id":"levelo_inurba_marseille","lat":43.309076,"lon":5.368465,"is_reserved":false,"is_disabled":false,"rental_uris":{"android":"levelo://app?vid=9be8781a-820b-45d5-8fd5-36cfd6833e4b","ios":"levelo://app?vid=9be8781a-820b-45d5-8fd5-36cfd6833e4b"},"vehicle_type_id":"4","last_reported":1692885961,"current_range_meters":31200,"station_id":"ce4bgn92rcd13ifvqbvg","pricing_plan_id":"free"},{"bike_id":"e5b54ca1-1cbf-4a57-b797-6183e6b92d60","system_id":"levelo_inurba_marseille","lat":43.30897,"lon":5.36853,"is_reserved":false,"is_disabled":false,"rental_uris":{"android":"levelo://app?vid=e5b54ca1-1cbf-4a57-b797-6183e6b92d60","ios":"levelo://app?vid=e5b54ca1-1cbf-4a57-b797-6183e6b92d60"},"vehicle_type_id":"4","last_reported":1692885961,"current_range_meters":400,"station_id":"ce4bgn92rcd13ifvqbvg","pricing_plan_id":"free"},{"bike_id":"4add3dd9-bec0-4585-a4e1-ce2a521c8a0f","system_id":"levelo_inurba_marseille","lat":43.309076,"lon":5.368465,"is_reserved":false,"is_disabled":false,"rental_uris":{"android":"levelo://app?vid=4add3dd9-bec0-4585-a4e1-ce2a521c8a0f","ios":"levelo://app?vid=4add3dd9-bec0-4585-a4e1-ce2a521c8a0f"},"vehicle_type_id":"4","last_reported":1692885961,"current_range_meters":31200,"station_id":"ce4bgn92rcd13ifvqbvg","pricing_plan_id":"free"},{"bike_id":"d2be997d-44d2-40a5-bb20-02aeaaf65fa5","system_id":"levelo_inurba_marseille","lat":43.31491,"lon":5.37304,"is_reserved":false,"is_disabled":false,"rental_uris":{"android":"levelo://app?vid=d2be997d-44d2-40a5-bb20-02aeaaf65fa5","ios":"levelo://app?vid=d2be997d-44d2-40a5-bb20-02aeaaf65fa5"},"vehicle_type_id":"4","last_reported":1692885961,"current_range_meters":31200,"station_id":"ce4bgt12rcd13ifvqcd0","pricing_plan_id":"free"},{"bike_id":"2c220f4f-879d-476d-9ded-ca5f98c296a5","system_id":"levelo_inurba_marseille","lat":43.305368,"lon":5.367343,"is_reserved":false,"is_disabled":false,"rental_uris":{"android":"levelo://app?vid=2c220f4f-879d-476d-9ded-ca5f98c296a5","ios":"levelo://app?vid=2c220f4f-879d-476d-9ded-ca5f98c296a5"},"vehicle_type_id":"4","last_reported":1692885961,"current_range_meters":31600,"station_id":"ce4bgrp2rcd13ifvqc9g","pricing_plan_id":"free"},{"bike_id":"e37ae819-06d7-482c-8691-dd946ba8c527","system_id":"levelo_inurba_marseille","lat":43.305368,"lon":5.367343,"is_reserved":false,"is_disabled":false,"rental_uris":{"android":"levelo://app?vid=e37ae819-06d7-482c-8691-dd946ba8c527","ios":"levelo://app?vid=e37ae819-06d7-482c-8691-dd946ba8c527"},"vehicle_type_id":"4","last_reported":1692885961,"current_range_meters":17600,"station_id":"ce4bgrp2rcd13ifvqc9g","pricing_plan_id":"free"},{"bike_id":"33ad7d06-f4fe-4e9d-a541-751ed7b3a729","system_id":"levelo_inurba_marseille","lat":43.312239,"lon":5.368562,"is_reserved":false,"is_disabled":false,"rental_uris":{"android":"levelo://app?vid=33ad7d06-f4fe-4e9d-a541-751ed7b3a729","ios":"levelo://app?vid=33ad7d06-f4fe-4e9d-a541-751ed7b3a729"},"vehicle_type_id":"4","last_reported":1692885961,"current_range_meters":24800,"station_id":"ce4bgl92rcd13ifvqbq0","pricing_plan_id":"free"},{"bike_id":"3212ae79-cb12-44f5-9cb4-84fedbebf3e6","system_id":"levelo_inurba_marseille","lat":43.305405,"lon":5.367099,"is_reserved":false,"is_disabled":false,"rental_uris":{"android":"levelo://app?vid=3212ae79-cb12-44f5-9cb4-84fedbebf3e6","ios":"levelo://app?vid=3212ae79-cb12-44f5-9cb4-84fedbebf3e6"},"vehicle_type_id":"4","last_reported":1692885961,"current_range_meters":28800,"station_id":"","pricing_plan_id":"free"},{"bike_id":"857426dc-d431-4d5a-8cef-242678a05819","system_id":"levelo_inurba_marseille","lat":43.305376,"lon":5.367222,"is_reserved":false,"is_disabled":false,"rental_uris":{"android":"levelo://app?vid=857426dc-d431-4d5a-8cef-242678a05819","ios":"levelo://app?vid=857426dc-d431-4d5a-8cef-242678a05819"},"vehicle_type_id":"4","last_reported":1692885961,"current_range_meters":25600,"station_id":"ce4bgrp2rcd13ifvqc9g","pricing_plan_id":"free"},{"bike_id":"2c289201-69c7-491c-a78e-52e8d4401852","system_id":"levelo_inurba_marseille","lat":43.305706,"lon":5.365654,"is_reserved":false,"is_disabled":false,"rental_uris":{"android":"levelo://app?vid=2c289201-69c7-491c-a78e-52e8d4401852","ios":"levelo://app?vid=2c289201-69c7-491c-a78e-52e8d4401852"},"vehicle_type_id":"4","last_reported":1692885961,"current_range_meters":26400,"station_id":"ce4bgs12rcd13ifvqcag","pricing_plan_id":"free"},{"bike_id":"35b3ac7b-469c-45e5-868c-e8bd0456e9cb","system_id":"levelo_inurba_marseille","lat":43.305706,"lon":5.365654,"is_reserved":false,"is_disabled":false,"rental_uris":{"android":"levelo://app?vid=35b3ac7b-469c-45e5-868c-e8bd0456e9cb","ios":"levelo://app?vid=35b3ac7b-469c-45e5-868c-e8bd0456e9cb"},"vehicle_type_id":"4","last_reported":1692885961,"current_range_meters":25200,"station_id":"ce4bgs12rcd13ifvqcag","pricing_plan_id":"free"},{"bike_id":"9ad43216-44c3-4284-b87c-587ef111ffb3","system_id":"levelo_inurba_marseille","lat":43.307945,"lon":5.376487,"is_reserved":false,"is_disabled":false,"rental_uris":{"android":"levelo://app?vid=9ad43216-44c3-4284-b87c-587ef111ffb3","ios":"levelo://app?vid=9ad43216-44c3-4284-b87c-587ef111ffb3"},"vehicle_type_id":"4","last_reported":1692885961,"current_range_meters":3600,"station_id":"ce4bgv92rcd13ifvqcq0","pricing_plan_id":"free"},{"bike_id":"a90a0daa-e5b1-4cd1-b6a9-966eb73c44cd","system_id":"levelo_inurba_marseille","lat":43.30788,"lon":5.37641,"is_reserved":false,"is_disabled":false,"rental_uris":{"android":"levelo://app?vid=a90a0daa-e5b1-4cd1-b6a9-966eb73c44cd","ios":"levelo://app?vid=a90a0daa-e5b1-4cd1-b6a9-966eb73c44cd"},"vehicle_type_id":"4","last_reported":1692885961,"current_range_meters":31200,"station_id":"ce4bgv92rcd13ifvqcq0","pricing_plan_id":"free"},{"bike_id":"fab86091-31fc-41c6-ab7e-baa4faaa6d9f","system_id":"levelo_inurba_marseille","lat":43.30773,"lon":5.37652,"is_reserved":false,"is_disabled":false,"rental_uris":{"android":"levelo://app?vid=fab86091-31fc-41c6-ab7e-baa4faaa6d9f","ios":"levelo://app?vid=fab86091-31fc-41c6-ab7e-baa4faaa6d9f"},"vehicle_type_id":"4","last_reported":1692885961,"current_range_meters":24800,"station_id":"ce4bgv92rcd13ifvqcq0","pricing_plan_id":"free"},{"bike_id":"138152d9-d089-49be-94c7-63ba5252985e","system_id":"levelo_inurba_marseille","lat":43.317075,"lon":5.377367,"is_reserved":false,"is_disabled":false,"rental_uris":{"android":"levelo://app?vid=138152d9-d089-49be-94c7-63ba5252985e","ios":"levelo://app?vid=138152d9-d089-49be-94c7-63ba5252985e"},"vehicle_type_id":"4","last_reported":1692885961,"current_range_meters":31200,"station_id":"ce4bgth2rcd13ifvqch0","pricing_plan_id":"free"},{"bike_id":"ae23c5ea-ff9c-4949-b07d-ac04d708f295","system_id":"levelo_inurba_marseille","lat":43.315289,"lon":5.380349,"is_reserved":false,"is_disabled":false,"rental_uris":{"android":"levelo://app?vid=ae23c5ea-ff9c-4949-b07d-ac04d708f295","ios":"levelo://app?vid=ae23c5ea-ff9c-4949-b07d-ac04d708f295"},"vehicle_type_id":"4","last_reported":1692885961,"current_range_meters":31200,"station_id":"ce4bhsp2rcd13ifvqi50","pricing_plan_id":"free"},{"bike_id":"76d75d2e-2e51-4113-86da-b7f409c7efa6","system_id":"levelo_inurba_marseille","lat":43.30795,"lon":5.38154,"is_reserved":false,"is_disabled":false,"rental_uris":{"android":"levelo://app?vid=76d75d2e-2e51-4113-86da-b7f409c7efa6","ios":"levelo://app?vid=76d75d2e-2e51-4113-86da-b7f409c7efa6"},"vehicle_type_id":"4","last_reported":1692885961,"current_range_meters":0,"station_id":"ce4bgt12rcd13ifvqce0","pricing_plan_id":"free"},{"bike_id":"50a256b9-ed64-4320-a66d-d19b7fad5bdd","system_id":"levelo_inurba_marseille","lat":43.304606,"lon":5.379026,"is_reserved":false,"is_disabled":false,"rental_uris":{"android":"levelo://app?vid=50a256b9-ed64-4320-a66d-d19b7fad5bdd","ios":"levelo://app?vid=50a256b9-ed64-4320-a66d-d19b7fad5bdd"},"vehicle_type_id":"4","last_reported":1692885961,"current_range_meters":29200,"station_id":"ce4bgup2rcd13ifvqcn0","pricing_plan_id":"free"},{"bike_id":"6a7040e8-68e5-4075-ad48-b31df86b09eb","system_id":"levelo_inurba_marseille","lat":43.304606,"lon":5.379026,"is_reserved":false,"is_disabled":false,"rental_uris":{"android":"levelo://app?vid=6a7040e8-68e5-4075-ad48-b31df86b09eb","ios":"levelo://app?vid=6a7040e8-68e5-4075-ad48-b31df86b09eb"},"vehicle_type_id":"4","last_reported":1692885961,"current_range_meters":4000,"station_id":"ce4bgup2rcd13ifvqcn0","pricing_plan_id":"free"},{"bike_id":"a569ca9d-734d-4f8c-9ad7-e24bad795cb3","system_id":"levelo_inurba_marseille","lat":43.30458,"lon":5.37902,"is_reserved":false,"is_disabled":false,"rental_uris":{"android":"levelo://app?vid=a569ca9d-734d-4f8c-9ad7-e24bad795cb3","ios":"levelo://app?vid=a569ca9d-734d-4f8c-9ad7-e24bad795cb3"},"vehicle_type_id":"4","last_reported":1692885961,"current_range_meters":25200,"station_id":"ce4bgup2rcd13ifvqcn0","pricing_plan_id":"free"},{"bike_id":"b76fc45e-c49f-4283-b359-2eb2aec0d11e","system_id":"levelo_inurba_marseille","lat":43.302784,"lon":5.377158,"is_reserved":false,"is_disabled":false,"rental_uris":{"android":"levelo://app?vid=b76fc45e-c49f-4283-b359-2eb2aec0d11e","ios":"levelo://app?vid=b76fc45e-c49f-4283-b359-2eb2aec0d11e"},"vehicle_type_id":"4","last_reported":1692885961,"current_range_meters":19200,"station_id":"ce4bguh2rcd13ifvqcj0","pricing_plan_id":"free"},{"bike_id":"ad5cfe70-32e3-4fca-8baa-12058cf65b57","system_id":"levelo_inurba_marseille","lat":43.30144,"lon":5.3741,"is_reserved":false,"is_disabled":false,"rental_uris":{"android":"levelo://app?vid=ad5cfe70-32e3-4fca-8baa-12058cf65b57","ios":"levelo://app?vid=ad5cfe70-32e3-4fca-8baa-12058cf65b57"},"vehicle_type_id":"4","last_reported":1692885961,"current_range_meters":13600,"station_id":"ce4bgs92rcd13ifvqcc0","pricing_plan_id":"free"},{"bike_id":"1e5f3be7-aa58-422d-8091-a4918e6e7e6b","system_id":"levelo_inurba_marseille","lat":43.302784,"lon":5.377158,"is_reserved":false,"is_disabled":false,"rental_uris":{"android":"levelo://app?vid=1e5f3be7-aa58-422d-8091-a4918e6e7e6b","ios":"levelo://app?vid=1e5f3be7-aa58-422d-8091-a4918e6e7e6b"},"vehicle_type_id":"4","last_reported":1692885961,"current_range_meters":1200,"station_id":"ce4bguh2rcd13ifvqcj0","pricing_plan_id":"free"},{"bike_id":"f5d89203-dd1e-471e-8fe3-0f57f68af72d","system_id":"levelo_inurba_marseille","lat":43.299222,"lon":5.365554,"is_reserved":false,"is_disabled":false,"rental_uris":{"android":"levelo://app?vid=f5d89203-dd1e-471e-8fe3-0f57f68af72d","ios":"levelo://app?vid=f5d89203-dd1e-471e-8fe3-0f57f68af72d"},"vehicle_type_id":"4","last_reported":1692885961,"current_range_meters":27200,"station_id":"ce4bgm92rcd13ifvqbr0","pricing_plan_id":"free"},{"bike_id":"29cd3502-adbb-46e2-9744-827019d873e1","system_id":"levelo_inurba_marseille","lat":43.299222,"lon":5.365554,"is_reserved":false,"is_disabled":false,"rental_uris":{"android":"levelo://app?vid=29cd3502-adbb-46e2-9744-827019d873e1","ios":"levelo://app?vid=29cd3502-adbb-46e2-9744-827019d873e1"},"vehicle_type_id":"4","last_reported":1692885961,"current_range_meters":26800,"station_id":"ce4bgm92rcd13ifvqbr0","pricing_plan_id":"free"},{"bike_id":"97acbc87-c6ef-4500-93ba-b4de1e0d88be","system_id":"levelo_inurba_marseille","lat":43.29933,"lon":5.36542,"is_reserved":false,"is_disabled":false,"rental_uris":{"android":"levelo://app?vid=97acbc87-c6ef-4500-93ba-b4de1e0d88be","ios":"levelo://app?vid=97acbc87-c6ef-4500-93ba-b4de1e0d88be"},"vehicle_type_id":"4","last_reported":1692885961,"current_range_meters":31200,"station_id":"ce4bgm92rcd13ifvqbr0","pricing_plan_id":"free"},{"bike_id":"8bf184a8-fa79-4fcb-9219-844369f51b04","system_id":"levelo_inurba_marseille","lat":43.299222,"lon":5.365554,"is_reserved":false,"is_disabled":false,"rental_uris":{"android":"levelo://app?vid=8bf184a8-fa79-4fcb-9219-844369f51b04","ios":"levelo://app?vid=8bf184a8-fa79-4fcb-9219-844369f51b04"},"vehicle_type_id":"4","last_reported":1692885961,"current_range_meters":30800,"station_id":"ce4bgm92rcd13ifvqbr0","pricing_plan_id":"free"},{"bike_id":"95dc9ecf-047e-4c3a-bb12-a5676cb36ad4","system_id":"levelo_inurba_marseille","lat":43.3216,"lon":5.38166,"is_reserved":false,"is_disabled":false,"rental_uris":{"android":"levelo://app?vid=95dc9ecf-047e-4c3a-bb12-a5676cb36ad4","ios":"levelo://app?vid=95dc9ecf-047e-4c3a-bb12-a5676cb36ad4"},"vehicle_type_id":"4","last_reported":1692885961,"current_range_meters":0,"station_id":"","pricing_plan_id":"free"},{"bike_id":"5848ef67-5ab2-4449-a4d7-1ea6456a9594","system_id":"levelo_inurba_marseille","lat":43.29863,"lon":5.36282,"is_reserved":false,"is_disabled":false,"rental_uris":{"android":"levelo://app?vid=5848ef67-5ab2-4449-a4d7-1ea6456a9594","ios":"levelo://app?vid=5848ef67-5ab2-4449-a4d7-1ea6456a9594"},"vehicle_type_id":"4","last_reported":1692885961,"current_range_meters":11600,"station_id":"ce4bgpp2rcd13ifvqc3g","pricing_plan_id":"free"},{"bike_id":"ea628102-f413-4421-a451-01c3055a1ca3","system_id":"levelo_inurba_marseille","lat":43.305364,"lon":5.384119,"is_reserved":false,"is_disabled":false,"rental_uris":{"android":"levelo://app?vid=ea628102-f413-4421-a451-01c3055a1ca3","ios":"levelo://app?vid=ea628102-f413-4421-a451-01c3055a1ca3"},"vehicle_type_id":"4","last_reported":1692885961,"current_range_meters":9200,"station_id":"ce4bgg92rcd13ifvqb30","pricing_plan_id":"free"},{"bike_id":"4982b52d-defa-4949-9945-62b0c3ada5e2","system_id":"levelo_inurba_marseille","lat":43.29854,"lon":5.36284,"is_reserved":false,"is_disabled":false,"rental_uris":{"android":"levelo://app?vid=4982b52d-defa-4949-9945-62b0c3ada5e2","ios":"levelo://app?vid=4982b52d-defa-4949-9945-62b0c3ada5e2"},"vehicle_type_id":"4","last_reported":1692885961,"current_range_meters":2000,"station_id":"ce4bgpp2rcd13ifvqc3g","pricing_plan_id":"free"},{"bike_id":"9a6aef9e-14a6-405b-82a5-e9b2ebd932fb","system_id":"levelo_inurba_marseille","lat":43.29845,"lon":5.36277,"is_reserved":false,"is_disabled":false,"rental_uris":{"android":"levelo://app?vid=9a6aef9e-14a6-405b-82a5-e9b2ebd932fb","ios":"levelo://app?vid=9a6aef9e-14a6-405b-82a5-e9b2ebd932fb"},"vehicle_type_id":"4","last_reported":1692885961,"current_range_meters":31200,"station_id":"ce4bgpp2rcd13ifvqc3g","pricing_plan_id":"free"},{"bike_id":"37af7ed8-e1b1-4e90-99bf-15b0ea61ea5d","system_id":"levelo_inurba_marseille","lat":43.29845,"lon":5.36267,"is_reserved":false,"is_disabled":false,"rental_uris":{"android":"levelo://app?vid=37af7ed8-e1b1-4e90-99bf-15b0ea61ea5d","ios":"levelo://app?vid=37af7ed8-e1b1-4e90-99bf-15b0ea61ea5d"},"vehicle_type_id":"4","last_reported":1692885961,"current_range_meters":12400,"station_id":"ce4bgpp2rcd13ifvqc3g","pricing_plan_id":"free"},{"bike_id":"a007715a-fe29-4a5d-9503-d48bd00d9a1a","system_id":"levelo_inurba_marseille","lat":43.298433,"lon":5.362774,"is_reserved":false,"is_disabled":false,"rental_uris":{"android":"levelo://app?vid=a007715a-fe29-4a5d-9503-d48bd00d9a1a","ios":"levelo://app?vid=a007715a-fe29-4a5d-9503-d48bd00d9a1a"},"vehicle_type_id":"4","last_reported":1692885961,"current_range_meters":31200,"station_id":"ce4bgpp2rcd13ifvqc3g","pricing_plan_id":"free"},{"bike_id":"43851680-f0ee-486f-811d-0dd341f83cfb","system_id":"levelo_inurba_marseille","lat":43.29845,"lon":5.36263,"is_reserved":false,"is_disabled":false,"rental_uris":{"android":"levelo://app?vid=43851680-f0ee-486f-811d-0dd341f83cfb","ios":"levelo://app?vid=43851680-f0ee-486f-811d-0dd341f83cfb"},"vehicle_type_id":"4","last_reported":1692885961,"current_range_meters":14000,"station_id":"ce4bgpp2rcd13ifvqc3g","pricing_plan_id":"free"},{"bike_id":"76494b24-f749-4253-997a-b6e9b3dd340a","system_id":"levelo_inurba_marseille","lat":43.29843,"lon":5.36265,"is_reserved":false,"is_disabled":false,"rental_uris":{"android":"levelo://app?vid=76494b24-f749-4253-997a-b6e9b3dd340a","ios":"levelo://app?vid=76494b24-f749-4253-997a-b6e9b3dd340a"},"vehicle_type_id":"4","last_reported":1692885961,"current_range_meters":21600,"station_id":"ce4bgpp2rcd13ifvqc3g","pricing_plan_id":"free"},{"bike_id":"5242efd0-de2f-4444-9e70-023511502881","system_id":"levelo_inurba_marseille","lat":43.29843,"lon":5.36264,"is_reserved":false,"is_disabled":false,"rental_uris":{"android":"levelo://app?vid=5242efd0-de2f-4444-9e70-023511502881","ios":"levelo://app?vid=5242efd0-de2f-4444-9e70-023511502881"},"vehicle_type_id":"4","last_reported":1692885961,"current_range_meters":14000,"station_id":"ce4bgpp2rcd13ifvqc3g","pricing_plan_id":"free"},{"bike_id":"9f87ef14-e64d-41c8-8f01-9a7568eb9868","system_id":"levelo_inurba_marseille","lat":43.298433,"lon":5.362774,"is_reserved":false,"is_disabled":false,"rental_uris":{"android":"levelo://app?vid=9f87ef14-e64d-41c8-8f01-9a7568eb9868","ios":"levelo://app?vid=9f87ef14-e64d-41c8-8f01-9a7568eb9868"},"vehicle_type_id":"4","last_reported":1692885961,"current_range_meters":10400,"station_id":"ce4bgpp2rcd13ifvqc3g","pricing_plan_id":"free"},{"bike_id":"101a7572-6757-4f57-9fb1-52fbcd02b10c","system_id":"levelo_inurba_marseille","lat":43.31176,"lon":5.38703,"is_reserved":false,"is_disabled":false,"rental_uris":{"android":"levelo://app?vid=101a7572-6757-4f57-9fb1-52fbcd02b10c","ios":"levelo://app?vid=101a7572-6757-4f57-9fb1-52fbcd02b10c"},"vehicle_type_id":"4","last_reported":1692885961,"current_range_meters":2000,"station_id":"ce4bgv12rcd13ifvqcp0","pricing_plan_id":"free"},{"bike_id":"d8a9734f-27fc-4b99-8418-f7d91543ff79","system_id":"levelo_inurba_marseille","lat":43.299243,"lon":5.37481,"is_reserved":false,"is_disabled":false,"rental_uris":{"android":"levelo://app?vid=d8a9734f-27fc-4b99-8418-f7d91543ff79","ios":"levelo://app?vid=d8a9734f-27fc-4b99-8418-f7d91543ff79"},"vehicle_type_id":"4","last_reported":1692885961,"current_range_meters":25200,"station_id":"ce4bgjh2rcd13ifvqbg0","pricing_plan_id":"free"},{"bike_id":"2f9e2def-2173-4eb4-a460-9a385f59debe","system_id":"levelo_inurba_marseille","lat":43.299243,"lon":5.37481,"is_reserved":false,"is_disabled":false,"rental_uris":{"android":"levelo://app?vid=2f9e2def-2173-4eb4-a460-9a385f59debe","ios":"levelo://app?vid=2f9e2def-2173-4eb4-a460-9a385f59debe"},"vehicle_type_id":"4","last_reported":1692885961,"current_range_meters":31600,"station_id":"ce4bgjh2rcd13ifvqbg0","pricing_plan_id":"free"},{"bike_id":"b885f463-e8c5-42cc-902f-7152167ce1c7","system_id":"levelo_inurba_marseille","lat":43.299243,"lon":5.374807,"is_reserved":false,"is_disabled":false,"rental_uris":{"android":"levelo://app?vid=b885f463-e8c5-42cc-902f-7152167ce1c7","ios":"levelo://app?vid=b885f463-e8c5-42cc-902f-7152167ce1c7"},"vehicle_type_id":"4","last_reported":1692885961,"current_range_meters":31600,"station_id":"ce4bgjh2rcd13ifvqbg0","pricing_plan_id":"free"},{"bike_id":"35eec3a1-aa54-4990-8eb4-78e6c0dd24d0","system_id":"levelo_inurba_marseille","lat":43.299243,"lon":5.37481,"is_reserved":false,"is_disabled":false,"rental_uris":{"android":"levelo://app?vid=35eec3a1-aa54-4990-8eb4-78e6c0dd24d0","ios":"levelo://app?vid=35eec3a1-aa54-4990-8eb4-78e6c0dd24d0"},"vehicle_type_id":"4","last_reported":1692885961,"current_range_meters":23600,"station_id":"ce4bgjh2rcd13ifvqbg0","pricing_plan_id":"free"},{"bike_id":"c3cec3d1-432e-4d10-921f-6e73ebf243b9","system_id":"levelo_inurba_marseille","lat":43.322872,"lon":5.382756,"is_reserved":false,"is_disabled":false,"rental_uris":{"android":"levelo://app?vid=c3cec3d1-432e-4d10-921f-6e73ebf243b9","ios":"levelo://app?vid=c3cec3d1-432e-4d10-921f-6e73ebf243b9"},"vehicle_type_id":"4","last_reported":1692885961,"current_range_meters":16800,"station_id":"ce4bhr12rcd13ifvqhqg","pricing_plan_id":"free"},{"bike_id":"2593c582-91e1-4a45-909a-f15eb98d7cbd","system_id":"levelo_inurba_marseille","lat":43.32291,"lon":5.3827,"is_reserved":false,"is_disabled":false,"rental_uris":{"android":"levelo://app?vid=2593c582-91e1-4a45-909a-f15eb98d7cbd","ios":"levelo://app?vid=2593c582-91e1-4a45-909a-f15eb98d7cbd"},"vehicle_type_id":"4","last_reported":1692885961,"current_range_meters":4000,"station_id":"ce4bhr12rcd13ifvqhqg","pricing_plan_id":"free"},{"bike_id":"94af31d0-97f7-42fe-a050-76dc0f3d6182","system_id":"levelo_inurba_marseille","lat":43.32825,"lon":5.36682,"is_reserved":false,"is_disabled":false,"rental_uris":{"android":"levelo://app?vid=94af31d0-97f7-42fe-a050-76dc0f3d6182","ios":"levelo://app?vid=94af31d0-97f7-42fe-a050-76dc0f3d6182"},"vehicle_type_id":"4","last_reported":1692885961,"current_range_meters":21600,"station_id":"ce4bhs92rcd13ifvqi0g","pricing_plan_id":"free"},{"bike_id":"38b04131-5a71-4066-988d-ef18967fac34","system_id":"levelo_inurba_marseille","lat":43.32825,"lon":5.36673,"is_reserved":false,"is_disabled":false,"rental_uris":{"android":"levelo://app?vid=38b04131-5a71-4066-988d-ef18967fac34","ios":"levelo://app?vid=38b04131-5a71-4066-988d-ef18967fac34"},"vehicle_type_id":"4","last_reported":1692885961,"current_range_meters":31200,"station_id":"ce4bhs92rcd13ifvqi0g","pricing_plan_id":"free"},{"bike_id":"7e754b2b-151b-4e41-9377-2eda24fce5ae","system_id":"levelo_inurba_marseille","lat":43.32827,"lon":5.36671,"is_reserved":false,"is_disabled":false,"rental_uris":{"android":"levelo://app?vid=7e754b2b-151b-4e41-9377-2eda24fce5ae","ios":"levelo://app?vid=7e754b2b-151b-4e41-9377-2eda24fce5ae"},"vehicle_type_id":"4","last_reported":1692885961,"current_range_meters":31200,"station_id":"ce4bhs92rcd13ifvqi0g","pricing_plan_id":"free"},{"bike_id":"c77579b8-3b75-4817-8282-a36929b5f8df","system_id":"levelo_inurba_marseille","lat":43.3283,"lon":5.3668,"is_reserved":false,"is_disabled":false,"rental_uris":{"android":"levelo://app?vid=c77579b8-3b75-4817-8282-a36929b5f8df","ios":"levelo://app?vid=c77579b8-3b75-4817-8282-a36929b5f8df"},"vehicle_type_id":"4","last_reported":1692885961,"current_range_meters":10800,"station_id":"ce4bhs92rcd13ifvqi0g","pricing_plan_id":"free"},{"bike_id":"dd789220-e7b5-42c1-b9dc-dc4243148021","system_id":"levelo_inurba_marseille","lat":43.297163,"lon":5.365866,"is_reserved":false,"is_disabled":false,"rental_uris":{"android":"levelo://app?vid=dd789220-e7b5-42c1-b9dc-dc4243148021","ios":"levelo://app?vid=dd789220-e7b5-42c1-b9dc-dc4243148021"},"vehicle_type_id":"4","last_reported":1692885961,"current_range_meters":31600,"station_id":"ce4bgn12rcd13ifvqbt0","pricing_plan_id":"free"},{"bike_id":"c0f1fdf8-8693-4d4f-a248-41c778261b20","system_id":"levelo_inurba_marseille","lat":43.32837,"lon":5.36672,"is_reserved":false,"is_disabled":false,"rental_uris":{"android":"levelo://app?vid=c0f1fdf8-8693-4d4f-a248-41c778261b20","ios":"levelo://app?vid=c0f1fdf8-8693-4d4f-a248-41c778261b20"},"vehicle_type_id":"4","last_reported":1692885961,"current_range_meters":23600,"station_id":"ce4bhs92rcd13ifvqi0g","pricing_plan_id":"free"},{"bike_id":"d3139180-8ba9-4c91-b6e4-8baae3c22113","system_id":"levelo_inurba_marseille","lat":43.296131,"lon":5.370791,"is_reserved":false,"is_disabled":false,"rental_uris":{"android":"levelo://app?vid=d3139180-8ba9-4c91-b6e4-8baae3c22113","ios":"levelo://app?vid=d3139180-8ba9-4c91-b6e4-8baae3c22113"},"vehicle_type_id":"4","last_reported":1692885961,"current_range_meters":31600,"station_id":"ce4bgnh2rcd13ifvqc0g","pricing_plan_id":"free"},{"bike_id":"2c93ce6f-c5e1-4ec9-9941-ebb7469bb8f2","system_id":"levelo_inurba_marseille","lat":43.317557,"lon":5.390173,"is_reserved":false,"is_disabled":false,"rental_uris":{"android":"levelo://app?vid=2c93ce6f-c5e1-4ec9-9941-ebb7469bb8f2","ios":"levelo://app?vid=2c93ce6f-c5e1-4ec9-9941-ebb7469bb8f2"},"vehicle_type_id":"4","last_reported":1692885961,"current_range_meters":31200,"station_id":"ce4bhqp2rcd13ifvqhng","pricing_plan_id":"free"},{"bike_id":"236ed6c3-86ca-435f-84e0-e4c3ce229bc0","system_id":"levelo_inurba_marseille","lat":43.31481,"lon":5.39124,"is_reserved":false,"is_disabled":false,"rental_uris":{"android":"levelo://app?vid=236ed6c3-86ca-435f-84e0-e4c3ce229bc0","ios":"levelo://app?vid=236ed6c3-86ca-435f-84e0-e4c3ce229bc0"},"vehicle_type_id":"4","last_reported":1692885961,"current_range_meters":3600,"station_id":"","pricing_plan_id":"free"},{"bike_id":"952a19e7-6602-41c3-942f-79cfb514366f","system_id":"levelo_inurba_marseille","lat":43.29809,"lon":5.38101,"is_reserved":false,"is_disabled":false,"rental_uris":{"android":"levelo://app?vid=952a19e7-6602-41c3-942f-79cfb514366f","ios":"levelo://app?vid=952a19e7-6602-41c3-942f-79cfb514366f"},"vehicle_type_id":"4","last_reported":1692885961,"current_range_meters":30800,"station_id":"ce4bgip2rcd13ifvqbb0","pricing_plan_id":"free"},{"bike_id":"64ce9a3a-e45f-4757-a030-e300c95003ce","system_id":"levelo_inurba_marseille","lat":43.30421,"lon":5.38883,"is_reserved":false,"is_disabled":false,"rental_uris":{"android":"levelo://app?vid=64ce9a3a-e45f-4757-a030-e300c95003ce","ios":"levelo://app?vid=64ce9a3a-e45f-4757-a030-e300c95003ce"},"vehicle_type_id":"4","last_reported":1692885961,"current_range_meters":7600,"station_id":"ce4bgk12rcd13ifvqbi0","pricing_plan_id":"free"},{"bike_id":"88633cd0-092e-443a-a19c-7f566d24b133","system_id":"levelo_inurba_marseille","lat":43.33057,"lon":5.36265,"is_reserved":false,"is_disabled":false,"rental_uris":{"android":"levelo://app?vid=88633cd0-092e-443a-a19c-7f566d24b133","ios":"levelo://app?vid=88633cd0-092e-443a-a19c-7f566d24b133"},"vehicle_type_id":"4","last_reported":1692885961,"current_range_meters":9600,"station_id":"","pricing_plan_id":"free"},{"bike_id":"329b52da-6179-4119-8885-76b50cbdc2a9","system_id":"levelo_inurba_marseille","lat":43.299717,"lon":5.384845,"is_reserved":false,"is_disabled":false,"rental_uris":{"android":"levelo://app?vid=329b52da-6179-4119-8885-76b50cbdc2a9","ios":"levelo://app?vid=329b52da-6179-4119-8885-76b50cbdc2a9"},"vehicle_type_id":"4","last_reported":1692885961,"current_range_meters":23200,"station_id":"ce4bgj92rcd13ifvqbd0","pricing_plan_id":"free"},{"bike_id":"65336503-a2a2-43d4-8ccf-2cb0de729159","system_id":"levelo_inurba_marseille","lat":43.29487,"lon":5.3761,"is_reserved":false,"is_disabled":false,"rental_uris":{"android":"levelo://app?vid=65336503-a2a2-43d4-8ccf-2cb0de729159","ios":"levelo://app?vid=65336503-a2a2-43d4-8ccf-2cb0de729159"},"vehicle_type_id":"4","last_reported":1692885961,"current_range_meters":22000,"station_id":"","pricing_plan_id":"free"},{"bike_id":"7f32b9dc-ef89-4ba3-8d07-0c5903bf2696","system_id":"levelo_inurba_marseille","lat":43.301252,"lon":5.387877,"is_reserved":false,"is_disabled":false,"rental_uris":{"android":"levelo://app?vid=7f32b9dc-ef89-4ba3-8d07-0c5903bf2696","ios":"levelo://app?vid=7f32b9dc-ef89-4ba3-8d07-0c5903bf2696"},"vehicle_type_id":"4","last_reported":1692885961,"current_range_meters":22800,"station_id":"","pricing_plan_id":"free"},{"bike_id":"baab8f95-6cb5-4cdb-8709-d526f67d1483","system_id":"levelo_inurba_marseille","lat":43.32363,"lon":5.38867,"is_reserved":false,"is_disabled":false,"rental_uris":{"android":"levelo://app?vid=baab8f95-6cb5-4cdb-8709-d526f67d1483","ios":"levelo://app?vid=baab8f95-6cb5-4cdb-8709-d526f67d1483"},"vehicle_type_id":"4","last_reported":1692885961,"current_range_meters":28000,"station_id":"ce4bhqp2rcd13ifvqhog","pricing_plan_id":"free"},{"bike_id":"bfc9ef1b-5744-4f1e-befd-dca1d1296686","system_id":"levelo_inurba_marseille","lat":43.32364,"lon":5.3887,"is_reserved":false,"is_disabled":false,"rental_uris":{"android":"levelo://app?vid=bfc9ef1b-5744-4f1e-befd-dca1d1296686","ios":"levelo://app?vid=bfc9ef1b-5744-4f1e-befd-dca1d1296686"},"vehicle_type_id":"4","last_reported":1692885961,"current_range_meters":19200,"station_id":"ce4bhqp2rcd13ifvqhog","pricing_plan_id":"free"},{"bike_id":"32ecad24-e92e-4fa4-967e-7876de8b623c","system_id":"levelo_inurba_marseille","lat":43.32361,"lon":5.38873,"is_reserved":false,"is_disabled":false,"rental_uris":{"android":"levelo://app?vid=32ecad24-e92e-4fa4-967e-7876de8b623c","ios":"levelo://app?vid=32ecad24-e92e-4fa4-967e-7876de8b623c"},"vehicle_type_id":"4","last_reported":1692885961,"current_range_meters":12000,"station_id":"ce4bhqp2rcd13ifvqhog","pricing_plan_id":"free"},{"bike_id":"f56184c8-73f8-47cd-bd4b-43ba382c0a0e","system_id":"levelo_inurba_marseille","lat":43.32366,"lon":5.38872,"is_reserved":false,"is_disabled":false,"rental_uris":{"android":"levelo://app?vid=f56184c8-73f8-47cd-bd4b-43ba382c0a0e","ios":"levelo://app?vid=f56184c8-73f8-47cd-bd4b-43ba382c0a0e"},"vehicle_type_id":"4","last_reported":1692885961,"current_range_meters":12000,"station_id":"ce4bhqp2rcd13ifvqhog","pricing_plan_id":"free"},{"bike_id":"828dede6-92f9-4c93-ad20-df1fdc8a0c35","system_id":"levelo_inurba_marseille","lat":43.32363,"lon":5.38878,"is_reserved":false,"is_disabled":false,"rental_uris":{"android":"levelo://app?vid=828dede6-92f9-4c93-ad20-df1fdc8a0c35","ios":"levelo://app?vid=828dede6-92f9-4c93-ad20-df1fdc8a0c35"},"vehicle_type_id":"4","last_reported":1692885961,"current_range_meters":12800,"station_id":"ce4bhqp2rcd13ifvqhog","pricing_plan_id":"free"},{"bike_id":"7c7d326f-cdfb-41e6-abbb-d7c1d9d2955d","system_id":"levelo_inurba_marseille","lat":43.32361,"lon":5.38881,"is_reserved":false,"is_disabled":false,"rental_uris":{"android":"levelo://app?vid=7c7d326f-cdfb-41e6-abbb-d7c1d9d2955d","ios":"levelo://app?vid=7c7d326f-cdfb-41e6-abbb-d7c1d9d2955d"},"vehicle_type_id":"4","last_reported":1692885961,"current_range_meters":24000,"station_id":"ce4bhqp2rcd13ifvqhog","pricing_plan_id":"free"},{"bike_id":"00883cd9-a56a-4720-bb55-237d0136a4a1","system_id":"levelo_inurba_marseille","lat":43.32362,"lon":5.38881,"is_reserved":false,"is_disabled":false,"rental_uris":{"android":"levelo://app?vid=00883cd9-a56a-4720-bb55-237d0136a4a1","ios":"levelo://app?vid=00883cd9-a56a-4720-bb55-237d0136a4a1"},"vehicle_type_id":"4","last_reported":1692885961,"current_range_meters":25600,"station_id":"ce4bhqp2rcd13ifvqhog","pricing_plan_id":"free"},{"bike_id":"9622801f-a665-42a8-bdea-eba2330a474a","system_id":"levelo_inurba_marseille","lat":43.32369,"lon":5.38876,"is_reserved":false,"is_disabled":false,"rental_uris":{"android":"levelo://app?vid=9622801f-a665-42a8-bdea-eba2330a474a","ios":"levelo://app?vid=9622801f-a665-42a8-bdea-eba2330a474a"},"vehicle_type_id":"4","last_reported":1692885961,"current_range_meters":24400,"station_id":"ce4bhqp2rcd13ifvqhog","pricing_plan_id":"free"},{"bike_id":"373c4bdf-e363-4db2-b092-deabc3a4907a","system_id":"levelo_inurba_marseille","lat":43.32366,"lon":5.38879,"is_reserved":false,"is_disabled":false,"rental_uris":{"android":"levelo://app?vid=373c4bdf-e363-4db2-b092-deabc3a4907a","ios":"levelo://app?vid=373c4bdf-e363-4db2-b092-deabc3a4907a"},"vehicle_type_id":"4","last_reported":1692885961,"current_range_meters":27200,"station_id":"ce4bhqp2rcd13ifvqhog","pricing_plan_id":"free"},{"bike_id":"55c6e4c0-df60-49a9-b2d0-fbba0fe6a46e","system_id":"levelo_inurba_marseille","lat":43.32372,"lon":5.38874,"is_reserved":false,"is_disabled":false,"rental_uris":{"android":"levelo://app?vid=55c6e4c0-df60-49a9-b2d0-fbba0fe6a46e","ios":"levelo://app?vid=55c6e4c0-df60-49a9-b2d0-fbba0fe6a46e"},"vehicle_type_id":"4","last_reported":1692885961,"current_range_meters":23200,"station_id":"ce4bhqp2rcd13ifvqhog","pricing_plan_id":"free"},{"bike_id":"d7fb9c00-6bf8-4bfa-822f-aac11f42d8d9","system_id":"levelo_inurba_marseille","lat":43.32369,"lon":5.38877,"is_reserved":false,"is_disabled":false,"rental_uris":{"android":"levelo://app?vid=d7fb9c00-6bf8-4bfa-822f-aac11f42d8d9","ios":"levelo://app?vid=d7fb9c00-6bf8-4bfa-822f-aac11f42d8d9"},"vehicle_type_id":"4","last_reported":1692885961,"current_range_meters":26800,"station_id":"ce4bhqp2rcd13ifvqhog","pricing_plan_id":"free"},{"bike_id":"49c5a9f4-e27f-4512-858e-1859315046f2","system_id":"levelo_inurba_marseille","lat":43.32371,"lon":5.38876,"is_reserved":false,"is_disabled":false,"rental_uris":{"android":"levelo://app?vid=49c5a9f4-e27f-4512-858e-1859315046f2","ios":"levelo://app?vid=49c5a9f4-e27f-4512-858e-1859315046f2"},"vehicle_type_id":"4","last_reported":1692885961,"current_range_meters":28000,"station_id":"ce4bhqp2rcd13ifvqhog","pricing_plan_id":"free"},{"bike_id":"086ccc2b-b3e2-402c-9fd3-6512af113421","system_id":"levelo_inurba_marseille","lat":43.3237,"lon":5.38877,"is_reserved":false,"is_disabled":false,"rental_uris":{"android":"levelo://app?vid=086ccc2b-b3e2-402c-9fd3-6512af113421","ios":"levelo://app?vid=086ccc2b-b3e2-402c-9fd3-6512af113421"},"vehicle_type_id":"4","last_reported":1692885961,"current_range_meters":24000,"station_id":"ce4bhqp2rcd13ifvqhog","pricing_plan_id":"free"},{"bike_id":"806c2268-3423-46f3-b665-6097df066def","system_id":"levelo_inurba_marseille","lat":43.32367,"lon":5.3888,"is_reserved":false,"is_disabled":false,"rental_uris":{"android":"levelo://app?vid=806c2268-3423-46f3-b665-6097df066def","ios":"levelo://app?vid=806c2268-3423-46f3-b665-6097df066def"},"vehicle_type_id":"4","last_reported":1692885961,"current_range_meters":28000,"station_id":"ce4bhqp2rcd13ifvqhog","pricing_plan_id":"free"},{"bike_id":"c5bc3cba-282e-484d-b591-63b5722745ec","system_id":"levelo_inurba_marseille","lat":43.32367,"lon":5.388836,"is_reserved":false,"is_disabled":false,"rental_uris":{"android":"levelo://app?vid=c5bc3cba-282e-484d-b591-63b5722745ec","ios":"levelo://app?vid=c5bc3cba-282e-484d-b591-63b5722745ec"},"vehicle_type_id":"4","last_reported":1692885961,"current_range_meters":5600,"station_id":"ce4bhqp2rcd13ifvqhog","pricing_plan_id":"free"},{"bike_id":"2b9a2fce-dba0-4cf4-b5cf-3855da61766b","system_id":"levelo_inurba_marseille","lat":43.32367,"lon":5.38885,"is_reserved":false,"is_disabled":false,"rental_uris":{"android":"levelo://app?vid=2b9a2fce-dba0-4cf4-b5cf-3855da61766b","ios":"levelo://app?vid=2b9a2fce-dba0-4cf4-b5cf-3855da61766b"},"vehicle_type_id":"4","last_reported":1692885961,"current_range_meters":24000,"station_id":"ce4bhqp2rcd13ifvqhog","pricing_plan_id":"free"},{"bike_id":"691b969d-35f4-4885-b839-661ca372de94","system_id":"levelo_inurba_marseille","lat":43.29601,"lon":5.381084,"is_reserved":false,"is_disabled":false,"rental_uris":{"android":"levelo://app?vid=691b969d-35f4-4885-b839-661ca372de94","ios":"levelo://app?vid=691b969d-35f4-4885-b839-661ca372de94"},"vehicle_type_id":"4","last_reported":1692885961,"current_range_meters":29200,"station_id":"ce4bgl12rcd13ifvqbo0","pricing_plan_id":"free"},{"bike_id":"0d25a10c-2c44-4b96-82fd-089d6d1fe79e","system_id":"levelo_inurba_marseille","lat":43.29591,"lon":5.38107,"is_reserved":false,"is_disabled":false,"rental_uris":{"android":"levelo://app?vid=0d25a10c-2c44-4b96-82fd-089d6d1fe79e","ios":"levelo://app?vid=0d25a10c-2c44-4b96-82fd-089d6d1fe79e"},"vehicle_type_id":"4","last_reported":1692885961,"current_range_meters":1600,"station_id":"ce4bgl12rcd13ifvqbo0","pricing_plan_id":"free"},{"bike_id":"38fef587-7cc5-4800-b069-87b8f296a10a","system_id":"levelo_inurba_marseille","lat":43.293009,"lon":5.374584,"is_reserved":false,"is_disabled":false,"rental_uris":{"android":"levelo://app?vid=38fef587-7cc5-4800-b069-87b8f296a10a","ios":"levelo://app?vid=38fef587-7cc5-4800-b069-87b8f296a10a"},"vehicle_type_id":"4","last_reported":1692885961,"current_range_meters":31200,"station_id":"ce4bgi12rcd13ifvqb70","pricing_plan_id":"free"},{"bike_id":"0724f352-a262-45b7-9b71-9a09ff17d945","system_id":"levelo_inurba_marseille","lat":43.3031,"lon":5.39205,"is_reserved":false,"is_disabled":false,"rental_uris":{"android":"levelo://app?vid=0724f352-a262-45b7-9b71-9a09ff17d945","ios":"levelo://app?vid=0724f352-a262-45b7-9b71-9a09ff17d945"},"vehicle_type_id":"4","last_reported":1692885961,"current_range_meters":22000,"station_id":"ce4bgkh2rcd13ifvqbk0","pricing_plan_id":"free"},{"bike_id":"69351653-dd12-441b-9e9f-23c4ad64314d","system_id":"levelo_inurba_marseille","lat":43.30304,"lon":5.3921,"is_reserved":false,"is_disabled":false,"rental_uris":{"android":"levelo://app?vid=69351653-dd12-441b-9e9f-23c4ad64314d","ios":"levelo://app?vid=69351653-dd12-441b-9e9f-23c4ad64314d"},"vehicle_type_id":"4","last_reported":1692885961,"current_range_meters":18000,"station_id":"ce4bgkh2rcd13ifvqbk0","pricing_plan_id":"free"},{"bike_id":"59d4a7cc-c4d8-47e1-a63f-2e26b5d209c3","system_id":"levelo_inurba_marseille","lat":43.2936,"lon":5.37835,"is_reserved":false,"is_disabled":false,"rental_uris":{"android":"levelo://app?vid=59d4a7cc-c4d8-47e1-a63f-2e26b5d209c3","ios":"levelo://app?vid=59d4a7cc-c4d8-47e1-a63f-2e26b5d209c3"},"vehicle_type_id":"4","last_reported":1692885961,"current_range_meters":30800,"station_id":"ce4bgjh2rcd13ifvqbf0","pricing_plan_id":"free"},{"bike_id":"3f3ff8da-0df6-46b5-bdc6-81a15d97c76d","system_id":"levelo_inurba_marseille","lat":43.298764,"lon":5.388973,"is_reserved":false,"is_disabled":false,"rental_uris":{"android":"levelo://app?vid=3f3ff8da-0df6-46b5-bdc6-81a15d97c76d","ios":"levelo://app?vid=3f3ff8da-0df6-46b5-bdc6-81a15d97c76d"},"vehicle_type_id":"4","last_reported":1692885961,"current_range_meters":31600,"station_id":"ce4bh392rcd13ifvqdl0","pricing_plan_id":"free"},{"bike_id":"6995bf44-d1c3-46d9-96a9-1beaaadae618","system_id":"levelo_inurba_marseille","lat":43.29215,"lon":5.3597,"is_reserved":false,"is_disabled":false,"rental_uris":{"android":"levelo://app?vid=6995bf44-d1c3-46d9-96a9-1beaaadae618","ios":"levelo://app?vid=6995bf44-d1c3-46d9-96a9-1beaaadae618"},"vehicle_type_id":"4","last_reported":1692885961,"current_range_meters":13200,"station_id":"","pricing_plan_id":"free"},{"bike_id":"ae113209-211d-40a4-af1e-e24c87a85a81","system_id":"levelo_inurba_marseille","lat":43.291675,"lon":5.371583,"is_reserved":false,"is_disabled":false,"rental_uris":{"android":"levelo://app?vid=ae113209-211d-40a4-af1e-e24c87a85a81","ios":"levelo://app?vid=ae113209-211d-40a4-af1e-e24c87a85a81"},"vehicle_type_id":"4","last_reported":1692885961,"current_range_meters":11200,"station_id":"ce4bha92rcd13ifvqeh0","pricing_plan_id":"free"},{"bike_id":"3fe5f7d7-eea4-46fd-9df7-86ab5b7e800d","system_id":"levelo_inurba_marseille","lat":43.29183,"lon":5.35803,"is_reserved":false,"is_disabled":false,"rental_uris":{"android":"levelo://app?vid=3fe5f7d7-eea4-46fd-9df7-86ab5b7e800d","ios":"levelo://app?vid=3fe5f7d7-eea4-46fd-9df7-86ab5b7e800d"},"vehicle_type_id":"4","last_reported":1692885961,"current_range_meters":22800,"station_id":"ce4bhb12rcd13ifvqel0","pricing_plan_id":"free"},{"bike_id":"f4466d3b-cbea-47ae-af04-733381b500a9","system_id":"levelo_inurba_marseille","lat":43.31327,"lon":5.39704,"is_reserved":false,"is_disabled":false,"rental_uris":{"android":"levelo://app?vid=f4466d3b-cbea-47ae-af04-733381b500a9","ios":"levelo://app?vid=f4466d3b-cbea-47ae-af04-733381b500a9"},"vehicle_type_id":"4","last_reported":1692885961,"current_range_meters":27600,"station_id":"ce4bgvp2rcd13ifvqcu0","pricing_plan_id":"free"},{"bike_id":"e83a187c-327f-424d-ade2-bcd28c1ab92c","system_id":"levelo_inurba_marseille","lat":43.29529,"lon":5.385581,"is_reserved":false,"is_disabled":false,"rental_uris":{"android":"levelo://app?vid=e83a187c-327f-424d-ade2-bcd28c1ab92c","ios":"levelo://app?vid=e83a187c-327f-424d-ade2-bcd28c1ab92c"},"vehicle_type_id":"4","last_reported":1692885961,"current_range_meters":27600,"station_id":"ce4bgih2rcd13ifvqba0","pricing_plan_id":"free"},{"bike_id":"28591f40-c13e-4196-9843-70a97422345a","system_id":"levelo_inurba_marseille","lat":43.29529,"lon":5.385581,"is_reserved":false,"is_disabled":false,"rental_uris":{"android":"levelo://app?vid=28591f40-c13e-4196-9843-70a97422345a","ios":"levelo://app?vid=28591f40-c13e-4196-9843-70a97422345a"},"vehicle_type_id":"4","last_reported":1692885961,"current_range_meters":4800,"station_id":"ce4bgih2rcd13ifvqba0","pricing_plan_id":"free"},{"bike_id":"39b5b5cf-86ef-48ea-a176-58e554756417","system_id":"levelo_inurba_marseille","lat":43.302008,"lon":5.394694,"is_reserved":false,"is_disabled":false,"rental_uris":{"android":"levelo://app?vid=39b5b5cf-86ef-48ea-a176-58e554756417","ios":"levelo://app?vid=39b5b5cf-86ef-48ea-a176-58e554756417"},"vehicle_type_id":"4","last_reported":1692885961,"current_range_meters":30000,"station_id":"ce4bh0p2rcd13ifvqd70","pricing_plan_id":"free"},{"bike_id":"2bde7876-713c-49cd-a28b-3ac6bcea8d40","system_id":"levelo_inurba_marseille","lat":43.28991,"lon":5.36677,"is_reserved":false,"is_disabled":false,"rental_uris":{"android":"levelo://app?vid=2bde7876-713c-49cd-a28b-3ac6bcea8d40","ios":"levelo://app?vid=2bde7876-713c-49cd-a28b-3ac6bcea8d40"},"vehicle_type_id":"4","last_reported":1692885961,"current_range_meters":30800,"station_id":"","pricing_plan_id":"free"},{"bike_id":"2aee7e16-05e6-44dd-b957-6fb4484b1ec9","system_id":"levelo_inurba_marseille","lat":43.29044,"lon":5.35918,"is_reserved":false,"is_disabled":false,"rental_uris":{"android":"levelo://app?vid=2aee7e16-05e6-44dd-b957-6fb4484b1ec9","ios":"levelo://app?vid=2aee7e16-05e6-44dd-b957-6fb4484b1ec9"},"vehicle_type_id":"4","last_reported":1692885961,"current_range_meters":12400,"station_id":"ce4bha92rcd13ifvqeg0","pricing_plan_id":"free"},{"bike_id":"1fa42571-9f20-4ce7-8bae-0363226a9828","system_id":"levelo_inurba_marseille","lat":43.2904,"lon":5.35915,"is_reserved":false,"is_disabled":false,"rental_uris":{"android":"levelo://app?vid=1fa42571-9f20-4ce7-8bae-0363226a9828","ios":"levelo://app?vid=1fa42571-9f20-4ce7-8bae-0363226a9828"},"vehicle_type_id":"4","last_reported":1692885961,"current_range_meters":25600,"station_id":"ce4bha92rcd13ifvqeg0","pricing_plan_id":"free"},{"bike_id":"d4db2b78-3728-42e4-8921-96277ada0fb1","system_id":"levelo_inurba_marseille","lat":43.28931,"lon":5.366345,"is_reserved":false,"is_disabled":false,"rental_uris":{"android":"levelo://app?vid=d4db2b78-3728-42e4-8921-96277ada0fb1","ios":"levelo://app?vid=d4db2b78-3728-42e4-8921-96277ada0fb1"},"vehicle_type_id":"4","last_reported":1692885961,"current_range_meters":1200,"station_id":"","pricing_plan_id":"free"},{"bike_id":"49bdee1f-66af-4c8f-bdb8-7ba69b6b2ba4","system_id":"levelo_inurba_marseille","lat":43.292644,"lon":5.384257,"is_reserved":false,"is_disabled":false,"rental_uris":{"android":"levelo://app?vid=49bdee1f-66af-4c8f-bdb8-7ba69b6b2ba4","ios":"levelo://app?vid=49bdee1f-66af-4c8f-bdb8-7ba69b6b2ba4"},"vehicle_type_id":"4","last_reported":1692885961,"current_range_meters":27200,"station_id":"ce4bh692rcd13ifvqea0","pricing_plan_id":"free"},{"bike_id":"1c07e25f-84db-4513-bedb-11b97c6ec9b6","system_id":"levelo_inurba_marseille","lat":43.33041,"lon":5.38914,"is_reserved":false,"is_disabled":false,"rental_uris":{"android":"levelo://app?vid=1c07e25f-84db-4513-bedb-11b97c6ec9b6","ios":"levelo://app?vid=1c07e25f-84db-4513-bedb-11b97c6ec9b6"},"vehicle_type_id":"4","last_reported":1692885961,"current_range_meters":31200,"station_id":"ce4bhr92rcd13ifvqhrg","pricing_plan_id":"free"},{"bike_id":"81bdd50f-e2c9-4875-93b8-ce66b1f39ff9","system_id":"levelo_inurba_marseille","lat":43.3304,"lon":5.38917,"is_reserved":false,"is_disabled":false,"rental_uris":{"android":"levelo://app?vid=81bdd50f-e2c9-4875-93b8-ce66b1f39ff9","ios":"levelo://app?vid=81bdd50f-e2c9-4875-93b8-ce66b1f39ff9"},"vehicle_type_id":"4","last_reported":1692885961,"current_range_meters":9200,"station_id":"ce4bhr92rcd13ifvqhrg","pricing_plan_id":"free"},{"bike_id":"a2a8c01f-7280-4ca6-bc8a-6f0c618673eb","system_id":"levelo_inurba_marseille","lat":43.33042,"lon":5.38917,"is_reserved":false,"is_disabled":false,"rental_uris":{"android":"levelo://app?vid=a2a8c01f-7280-4ca6-bc8a-6f0c618673eb","ios":"levelo://app?vid=a2a8c01f-7280-4ca6-bc8a-6f0c618673eb"},"vehicle_type_id":"4","last_reported":1692885961,"current_range_meters":15600,"station_id":"ce4bhr92rcd13ifvqhrg","pricing_plan_id":"free"},{"bike_id":"73e30c8d-1fec-42fa-994e-db63cd20ad16","system_id":"levelo_inurba_marseille","lat":43.33039,"lon":5.38922,"is_reserved":false,"is_disabled":false,"rental_uris":{"android":"levelo://app?vid=73e30c8d-1fec-42fa-994e-db63cd20ad16","ios":"levelo://app?vid=73e30c8d-1fec-42fa-994e-db63cd20ad16"},"vehicle_type_id":"4","last_reported":1692885961,"current_range_meters":20000,"station_id":"ce4bhr92rcd13ifvqhrg","pricing_plan_id":"free"},{"bike_id":"5f4f9907-0787-4bf8-8a56-fcaa0a043375","system_id":"levelo_inurba_marseille","lat":43.3304,"lon":5.38922,"is_reserved":false,"is_disabled":false,"rental_uris":{"android":"levelo://app?vid=5f4f9907-0787-4bf8-8a56-fcaa0a043375","ios":"levelo://app?vid=5f4f9907-0787-4bf8-8a56-fcaa0a043375"},"vehicle_type_id":"4","last_reported":1692885961,"current_range_meters":16400,"station_id":"ce4bhr92rcd13ifvqhrg","pricing_plan_id":"free"},{"bike_id":"e224e86e-831f-4a17-b234-865b1cc1d120","system_id":"levelo_inurba_marseille","lat":43.33044,"lon":5.38916,"is_reserved":false,"is_disabled":false,"rental_uris":{"android":"levelo://app?vid=e224e86e-831f-4a17-b234-865b1cc1d120","ios":"levelo://app?vid=e224e86e-831f-4a17-b234-865b1cc1d120"},"vehicle_type_id":"4","last_reported":1692885961,"current_range_meters":24000,"station_id":"ce4bhr92rcd13ifvqhrg","pricing_plan_id":"free"},{"bike_id":"6093d433-f9d6-48fe-897b-a1be7c29ef34","system_id":"levelo_inurba_marseille","lat":43.290104,"lon":5.356111,"is_reserved":false,"is_disabled":false,"rental_uris":{"android":"levelo://app?vid=6093d433-f9d6-48fe-897b-a1be7c29ef34","ios":"levelo://app?vid=6093d433-f9d6-48fe-897b-a1be7c29ef34"},"vehicle_type_id":"4","last_reported":1692885961,"current_range_meters":20000,"station_id":"ce4bhb92rcd13ifvqen0","pricing_plan_id":"free"},{"bike_id":"8b9f9b54-2e03-4d4e-bfd8-a7cfda03648a","system_id":"levelo_inurba_marseille","lat":43.3304,"lon":5.38925,"is_reserved":false,"is_disabled":false,"rental_uris":{"android":"levelo://app?vid=8b9f9b54-2e03-4d4e-bfd8-a7cfda03648a","ios":"levelo://app?vid=8b9f9b54-2e03-4d4e-bfd8-a7cfda03648a"},"vehicle_type_id":"4","last_reported":1692885961,"current_range_meters":22800,"station_id":"ce4bhr92rcd13ifvqhrg","pricing_plan_id":"free"},{"bike_id":"1895038e-acdb-4d35-aa35-e1291f23a30a","system_id":"levelo_inurba_marseille","lat":43.290103,"lon":5.356114,"is_reserved":false,"is_disabled":false,"rental_uris":{"android":"levelo://app?vid=1895038e-acdb-4d35-aa35-e1291f23a30a","ios":"levelo://app?vid=1895038e-acdb-4d35-aa35-e1291f23a30a"},"vehicle_type_id":"4","last_reported":1692885961,"current_range_meters":31200,"station_id":"ce4bhb92rcd13ifvqen0","pricing_plan_id":"free"},{"bike_id":"a4df99ce-0488-49dd-a888-94686f562e88","system_id":"levelo_inurba_marseille","lat":43.29004,"lon":5.35612,"is_reserved":false,"is_disabled":false,"rental_uris":{"android":"levelo://app?vid=a4df99ce-0488-49dd-a888-94686f562e88","ios":"levelo://app?vid=a4df99ce-0488-49dd-a888-94686f562e88"},"vehicle_type_id":"4","last_reported":1692885961,"current_range_meters":29200,"station_id":"ce4bhb92rcd13ifvqen0","pricing_plan_id":"free"},{"bike_id":"334d95c9-c278-4d0c-a5f6-ca75014ceda1","system_id":"levelo_inurba_marseille","lat":43.290995,"lon":5.381361,"is_reserved":false,"is_disabled":false,"rental_uris":{"android":"levelo://app?vid=334d95c9-c278-4d0c-a5f6-ca75014ceda1","ios":"levelo://app?vid=334d95c9-c278-4d0c-a5f6-ca75014ceda1"},"vehicle_type_id":"4","last_reported":1692885961,"current_range_meters":22000,"station_id":"ce4bh512rcd13ifvqe2g","pricing_plan_id":"free"},{"bike_id":"be71bc3c-aebc-43d3-a9e0-528803098e20","system_id":"levelo_inurba_marseille","lat":43.295169,"lon":5.390426,"is_reserved":false,"is_disabled":false,"rental_uris":{"android":"levelo://app?vid=be71bc3c-aebc-43d3-a9e0-528803098e20","ios":"levelo://app?vid=be71bc3c-aebc-43d3-a9e0-528803098e20"},"vehicle_type_id":"4","last_reported":1692885961,"current_range_meters":13200,"station_id":"ce4bh3p2rcd13ifvqdp0","pricing_plan_id":"free"},{"bike_id":"759ad72f-9984-47f7-91bb-9746f7d6738e","system_id":"levelo_inurba_marseille","lat":43.29721,"lon":5.39277,"is_reserved":false,"is_disabled":false,"rental_uris":{"android":"levelo://app?vid=759ad72f-9984-47f7-91bb-9746f7d6738e","ios":"levelo://app?vid=759ad72f-9984-47f7-91bb-9746f7d6738e"},"vehicle_type_id":"4","last_reported":1692885961,"current_range_meters":18800,"station_id":"","pricing_plan_id":"free"},{"bike_id":"f3664929-4052-4278-b1fc-8420c6ac21bb","system_id":"levelo_inurba_marseille","lat":43.28972,"lon":5.37828,"is_reserved":false,"is_disabled":false,"rental_uris":{"android":"levelo://app?vid=f3664929-4052-4278-b1fc-8420c6ac21bb","ios":"levelo://app?vid=f3664929-4052-4278-b1fc-8420c6ac21bb"},"vehicle_type_id":"4","last_reported":1692885961,"current_range_meters":18800,"station_id":"ce4bh9p2rcd13ifvqed0","pricing_plan_id":"free"},{"bike_id":"83e95545-667f-4075-b5aa-0678a9abb3a2","system_id":"levelo_inurba_marseille","lat":43.29019,"lon":5.38127,"is_reserved":false,"is_disabled":false,"rental_uris":{"android":"levelo://app?vid=83e95545-667f-4075-b5aa-0678a9abb3a2","ios":"levelo://app?vid=83e95545-667f-4075-b5aa-0678a9abb3a2"},"vehicle_type_id":"4","last_reported":1692885961,"current_range_meters":13200,"station_id":"ce4bh4p2rcd13ifvqe1g","pricing_plan_id":"free"},{"bike_id":"378c4bd9-ba15-43b8-aed8-7b7bab05c80f","system_id":"levelo_inurba_marseille","lat":43.28856,"lon":5.358371,"is_reserved":false,"is_disabled":false,"rental_uris":{"android":"levelo://app?vid=378c4bd9-ba15-43b8-aed8-7b7bab05c80f","ios":"levelo://app?vid=378c4bd9-ba15-43b8-aed8-7b7bab05c80f"},"vehicle_type_id":"4","last_reported":1692885961,"current_range_meters":4400,"station_id":"ce4bhb12rcd13ifvqem0","pricing_plan_id":"free"},{"bike_id":"f6db9689-5c84-431d-9e58-5717fcd0abfe","system_id":"levelo_inurba_marseille","lat":43.33747,"lon":5.37459,"is_reserved":false,"is_disabled":false,"rental_uris":{"android":"levelo://app?vid=f6db9689-5c84-431d-9e58-5717fcd0abfe","ios":"levelo://app?vid=f6db9689-5c84-431d-9e58-5717fcd0abfe"},"vehicle_type_id":"4","last_reported":1692885961,"current_range_meters":31200,"station_id":"","pricing_plan_id":"free"},{"bike_id":"59dc370e-116e-4739-ae7d-55ab85fe7301","system_id":"levelo_inurba_marseille","lat":43.30642,"lon":5.401031,"is_reserved":false,"is_disabled":false,"rental_uris":{"android":"levelo://app?vid=59dc370e-116e-4739-ae7d-55ab85fe7301","ios":"levelo://app?vid=59dc370e-116e-4739-ae7d-55ab85fe7301"},"vehicle_type_id":"4","last_reported":1692885961,"current_range_meters":19200,"station_id":"ce4bh112rcd13ifvqda0","pricing_plan_id":"free"},{"bike_id":"af9e8285-edcc-4591-b431-357a56826800","system_id":"levelo_inurba_marseille","lat":43.33765,"lon":5.37485,"is_reserved":false,"is_disabled":false,"rental_uris":{"android":"levelo://app?vid=af9e8285-edcc-4591-b431-357a56826800","ios":"levelo://app?vid=af9e8285-edcc-4591-b431-357a56826800"},"vehicle_type_id":"4","last_reported":1692885961,"current_range_meters":26400,"station_id":"","pricing_plan_id":"free"},{"bike_id":"bf812181-df99-4fb6-8bbe-d5340749c4c0","system_id":"levelo_inurba_marseille","lat":43.304188,"lon":5.412904,"is_reserved":false,"is_disabled":false,"rental_uris":{"android":"levelo://app?vid=bf812181-df99-4fb6-8bbe-d5340749c4c0","ios":"levelo://app?vid=bf812181-df99-4fb6-8bbe-d5340749c4c0"},"vehicle_type_id":"4","last_reported":1692885961,"current_range_meters":10400,"station_id":"ce4bhop2rcd13ifvqh8g","pricing_plan_id":"free"},{"bike_id":"75199276-b705-4ad7-b6a9-49aeaa84628a","system_id":"levelo_inurba_marseille","lat":43.28666,"lon":5.36353,"is_reserved":false,"is_disabled":false,"rental_uris":{"android":"levelo://app?vid=75199276-b705-4ad7-b6a9-49aeaa84628a","ios":"levelo://app?vid=75199276-b705-4ad7-b6a9-49aeaa84628a"},"vehicle_type_id":"4","last_reported":1692885961,"current_range_meters":26400,"station_id":"ce4bhah2rcd13ifvqej0","pricing_plan_id":"free"},{"bike_id":"24270f01-4275-48eb-91ed-08c16bd77619","system_id":"levelo_inurba_marseille","lat":43.286593,"lon":5.363346,"is_reserved":false,"is_disabled":false,"rental_uris":{"android":"levelo://app?vid=24270f01-4275-48eb-91ed-08c16bd77619","ios":"levelo://app?vid=24270f01-4275-48eb-91ed-08c16bd77619"},"vehicle_type_id":"4","last_reported":1692885961,"current_range_meters":11200,"station_id":"ce4bhah2rcd13ifvqej0","pricing_plan_id":"free"},{"bike_id":"2365150f-73ab-4507-aea4-76016e6109c8","system_id":"levelo_inurba_marseille","lat":43.286645,"lon":5.363538,"is_reserved":false,"is_disabled":false,"rental_uris":{"android":"levelo://app?vid=2365150f-73ab-4507-aea4-76016e6109c8","ios":"levelo://app?vid=2365150f-73ab-4507-aea4-76016e6109c8"},"vehicle_type_id":"4","last_reported":1692885961,"current_range_meters":5200,"station_id":"ce4bhah2rcd13ifvqej0","pricing_plan_id":"free"},{"bike_id":"3abc9b76-b66b-43b2-abad-6a2c16a5ea0d","system_id":"levelo_inurba_marseille","lat":43.28664,"lon":5.36338,"is_reserved":false,"is_disabled":false,"rental_uris":{"android":"levelo://app?vid=3abc9b76-b66b-43b2-abad-6a2c16a5ea0d","ios":"levelo://app?vid=3abc9b76-b66b-43b2-abad-6a2c16a5ea0d"},"vehicle_type_id":"4","last_reported":1692885961,"current_range_meters":19600,"station_id":"ce4bhah2rcd13ifvqej0","pricing_plan_id":"free"},{"bike_id":"9b7c0758-2970-4a94-9d3d-0e02202861cd","system_id":"levelo_inurba_marseille","lat":43.286039,"lon":5.370679,"is_reserved":false,"is_disabled":false,"rental_uris":{"android":"levelo://app?vid=9b7c0758-2970-4a94-9d3d-0e02202861cd","ios":"levelo://app?vid=9b7c0758-2970-4a94-9d3d-0e02202861cd"},"vehicle_type_id":"4","last_reported":1692885961,"current_range_meters":16800,"station_id":"ce4bht12rcd13ifvqi60","pricing_plan_id":"free"},{"bike_id":"b479af77-2d49-4f51-89b2-cae994a0ab9a","system_id":"levelo_inurba_marseille","lat":43.28602,"lon":5.37064,"is_reserved":false,"is_disabled":false,"rental_uris":{"android":"levelo://app?vid=b479af77-2d49-4f51-89b2-cae994a0ab9a","ios":"levelo://app?vid=b479af77-2d49-4f51-89b2-cae994a0ab9a"},"vehicle_type_id":"4","last_reported":1692885961,"current_range_meters":8800,"station_id":"ce4bht12rcd13ifvqi60","pricing_plan_id":"free"},{"bike_id":"a4fe02a7-20e3-4fcd-b40f-b4c46013b027","system_id":"levelo_inurba_marseille","lat":43.287185,"lon":5.379373,"is_reserved":false,"is_disabled":false,"rental_uris":{"android":"levelo://app?vid=a4fe02a7-20e3-4fcd-b40f-b4c46013b027","ios":"levelo://app?vid=a4fe02a7-20e3-4fcd-b40f-b4c46013b027"},"vehicle_type_id":"4","last_reported":1692885961,"current_range_meters":24000,"station_id":"ce4bh9p2rcd13ifvqec0","pricing_plan_id":"free"},{"bike_id":"7da9e437-1e79-4b5f-9ab0-65254ac17dd7","system_id":"levelo_inurba_marseille","lat":43.31649,"lon":5.40435,"is_reserved":false,"is_disabled":false,"rental_uris":{"android":"levelo://app?vid=7da9e437-1e79-4b5f-9ab0-65254ac17dd7","ios":"levelo://app?vid=7da9e437-1e79-4b5f-9ab0-65254ac17dd7"},"vehicle_type_id":"4","last_reported":1692885961,"current_range_meters":22400,"station_id":"ce4bh012rcd13ifvqd00","pricing_plan_id":"free"},{"bike_id":"4ccdf587-bfc5-4223-aa00-5bb1ac4b851a","system_id":"levelo_inurba_marseille","lat":43.291994,"lon":5.392907,"is_reserved":false,"is_disabled":false,"rental_uris":{"android":"levelo://app?vid=4ccdf587-bfc5-4223-aa00-5bb1ac4b851a","ios":"levelo://app?vid=4ccdf587-bfc5-4223-aa00-5bb1ac4b851a"},"vehicle_type_id":"4","last_reported":1692885961,"current_range_meters":18400,"station_id":"ce4bh192rcd13ifvqdd0","pricing_plan_id":"free"},{"bike_id":"4f487432-2843-46da-b7fb-63332733f0bb","system_id":"levelo_inurba_marseille","lat":43.284538,"lon":5.358657,"is_reserved":false,"is_disabled":false,"rental_uris":{"android":"levelo://app?vid=4f487432-2843-46da-b7fb-63332733f0bb","ios":"levelo://app?vid=4f487432-2843-46da-b7fb-63332733f0bb"},"vehicle_type_id":"4","last_reported":1692885961,"current_range_meters":28400,"station_id":"ce4bhah2rcd13ifvqei0","pricing_plan_id":"free"},{"bike_id":"d2502b55-d969-48c2-bc86-ad74d521ad30","system_id":"levelo_inurba_marseille","lat":43.284534,"lon":5.358662,"is_reserved":false,"is_disabled":false,"rental_uris":{"android":"levelo://app?vid=d2502b55-d969-48c2-bc86-ad74d521ad30","ios":"levelo://app?vid=d2502b55-d969-48c2-bc86-ad74d521ad30"},"vehicle_type_id":"4","last_reported":1692885961,"current_range_meters":21200,"station_id":"ce4bhah2rcd13ifvqei0","pricing_plan_id":"free"},{"bike_id":"fe8523b1-76a8-4413-b8e4-f9acb4f8a7b1","system_id":"levelo_inurba_marseille","lat":43.29431,"lon":5.39759,"is_reserved":false,"is_disabled":false,"rental_uris":{"android":"levelo://app?vid=fe8523b1-76a8-4413-b8e4-f9acb4f8a7b1","ios":"levelo://app?vid=fe8523b1-76a8-4413-b8e4-f9acb4f8a7b1"},"vehicle_type_id":"4","last_reported":1692885961,"current_range_meters":17600,"station_id":"ce4bh3h2rcd13ifvqdo0","pricing_plan_id":"free"},{"bike_id":"c607fb69-a121-46fa-a4bf-034f92233d49","system_id":"levelo_inurba_marseille","lat":43.285856,"lon":5.350771,"is_reserved":false,"is_disabled":false,"rental_uris":{"android":"levelo://app?vid=c607fb69-a121-46fa-a4bf-034f92233d49","ios":"levelo://app?vid=c607fb69-a121-46fa-a4bf-034f92233d49"},"vehicle_type_id":"4","last_reported":1692885961,"current_range_meters":18000,"station_id":"ce4bhch2rcd13ifvqeug","pricing_plan_id":"free"},{"bike_id":"bde5a8cf-88e9-47e2-b3f6-cfebdc076da9","system_id":"levelo_inurba_marseille","lat":43.28619,"lon":5.35105,"is_reserved":false,"is_disabled":false,"rental_uris":{"android":"levelo://app?vid=bde5a8cf-88e9-47e2-b3f6-cfebdc076da9","ios":"levelo://app?vid=bde5a8cf-88e9-47e2-b3f6-cfebdc076da9"},"vehicle_type_id":"4","last_reported":1692885961,"current_range_meters":9200,"station_id":"ce4bhch2rcd13ifvqeug","pricing_plan_id":"free"},{"bike_id":"f6d9230f-4a12-4e1f-a1bd-53e1ff9f0160","system_id":"levelo_inurba_marseille","lat":43.28616,"lon":5.3511,"is_reserved":false,"is_disabled":false,"rental_uris":{"android":"levelo://app?vid=f6d9230f-4a12-4e1f-a1bd-53e1ff9f0160","ios":"levelo://app?vid=f6d9230f-4a12-4e1f-a1bd-53e1ff9f0160"},"vehicle_type_id":"4","last_reported":1692885961,"current_range_meters":24800,"station_id":"ce4bhch2rcd13ifvqeug","pricing_plan_id":"free"},{"bike_id":"9b67cf3a-6733-4e51-ac83-9cd9319301a2","system_id":"levelo_inurba_marseille","lat":43.286187,"lon":5.351014,"is_reserved":false,"is_disabled":false,"rental_uris":{"android":"levelo://app?vid=9b67cf3a-6733-4e51-ac83-9cd9319301a2","ios":"levelo://app?vid=9b67cf3a-6733-4e51-ac83-9cd9319301a2"},"vehicle_type_id":"4","last_reported":1692885961,"current_range_meters":6400,"station_id":"ce4bhch2rcd13ifvqeug","pricing_plan_id":"free"},{"bike_id":"6de0b516-7e5a-4bdd-a15d-36be836a5d4b","system_id":"levelo_inurba_marseille","lat":43.28617,"lon":5.351,"is_reserved":false,"is_disabled":false,"rental_uris":{"android":"levelo://app?vid=6de0b516-7e5a-4bdd-a15d-36be836a5d4b","ios":"levelo://app?vid=6de0b516-7e5a-4bdd-a15d-36be836a5d4b"},"vehicle_type_id":"4","last_reported":1692885961,"current_range_meters":30800,"station_id":"ce4bhch2rcd13ifvqeug","pricing_plan_id":"free"},{"bike_id":"15fe8920-f7cb-46e0-b9b4-d9d0586c0bbf","system_id":"levelo_inurba_marseille","lat":43.28611,"lon":5.35102,"is_reserved":false,"is_disabled":false,"rental_uris":{"android":"levelo://app?vid=15fe8920-f7cb-46e0-b9b4-d9d0586c0bbf","ios":"levelo://app?vid=15fe8920-f7cb-46e0-b9b4-d9d0586c0bbf"},"vehicle_type_id":"4","last_reported":1692885961,"current_range_meters":25200,"station_id":"ce4bhch2rcd13ifvqeug","pricing_plan_id":"free"},{"bike_id":"2363d3b5-6c15-401a-a59c-ee80bd4af927","system_id":"levelo_inurba_marseille","lat":43.28415,"lon":5.37522,"is_reserved":false,"is_disabled":false,"rental_uris":{"android":"levelo://app?vid=2363d3b5-6c15-401a-a59c-ee80bd4af927","ios":"levelo://app?vid=2363d3b5-6c15-401a-a59c-ee80bd4af927"},"vehicle_type_id":"4","last_reported":1692885961,"current_range_meters":1600,"station_id":"ce4bh412rcd13ifvqds0","pricing_plan_id":"free"},{"bike_id":"37d91bb1-feee-4359-8ee7-a2fb1238a10c","system_id":"levelo_inurba_marseille","lat":43.295713,"lon":5.399639,"is_reserved":false,"is_disabled":false,"rental_uris":{"android":"levelo://app?vid=37d91bb1-feee-4359-8ee7-a2fb1238a10c","ios":"levelo://app?vid=37d91bb1-feee-4359-8ee7-a2fb1238a10c"},"vehicle_type_id":"4","last_reported":1692885961,"current_range_meters":18800,"station_id":"ce4bh312rcd13ifvqdj0","pricing_plan_id":"free"},{"bike_id":"a67bc8ba-477f-4950-afee-36977800f97f","system_id":"levelo_inurba_marseille","lat":43.33717,"lon":5.39177,"is_reserved":false,"is_disabled":false,"rental_uris":{"android":"levelo://app?vid=a67bc8ba-477f-4950-afee-36977800f97f","ios":"levelo://app?vid=a67bc8ba-477f-4950-afee-36977800f97f"},"vehicle_type_id":"4","last_reported":1692885961,"current_range_meters":30800,"station_id":"ce4bhr92rcd13ifvqhsg","pricing_plan_id":"free"},{"bike_id":"7009255e-b3b4-4c16-89fc-1dba203d6726","system_id":"levelo_inurba_marseille","lat":43.33717,"lon":5.39181,"is_reserved":false,"is_disabled":false,"rental_uris":{"android":"levelo://app?vid=7009255e-b3b4-4c16-89fc-1dba203d6726","ios":"levelo://app?vid=7009255e-b3b4-4c16-89fc-1dba203d6726"},"vehicle_type_id":"4","last_reported":1692885961,"current_range_meters":18400,"station_id":"ce4bhr92rcd13ifvqhsg","pricing_plan_id":"free"},{"bike_id":"e54ac8bf-03e6-4445-b501-5f2a8496318b","system_id":"levelo_inurba_marseille","lat":43.33718,"lon":5.39181,"is_reserved":false,"is_disabled":false,"rental_uris":{"android":"levelo://app?vid=e54ac8bf-03e6-4445-b501-5f2a8496318b","ios":"levelo://app?vid=e54ac8bf-03e6-4445-b501-5f2a8496318b"},"vehicle_type_id":"4","last_reported":1692885961,"current_range_meters":13200,"station_id":"ce4bhr92rcd13ifvqhsg","pricing_plan_id":"free"},{"bike_id":"54aa535b-3168-437d-a935-bb332c86467c","system_id":"levelo_inurba_marseille","lat":43.3372,"lon":5.39188,"is_reserved":false,"is_disabled":false,"rental_uris":{"android":"levelo://app?vid=54aa535b-3168-437d-a935-bb332c86467c","ios":"levelo://app?vid=54aa535b-3168-437d-a935-bb332c86467c"},"vehicle_type_id":"4","last_reported":1692885961,"current_range_meters":25600,"station_id":"ce4bhr92rcd13ifvqhsg","pricing_plan_id":"free"},{"bike_id":"f59572cd-eeee-45a7-81fd-c3c75f5406c9","system_id":"levelo_inurba_marseille","lat":43.33726,"lon":5.39179,"is_reserved":false,"is_disabled":false,"rental_uris":{"android":"levelo://app?vid=f59572cd-eeee-45a7-81fd-c3c75f5406c9","ios":"levelo://app?vid=f59572cd-eeee-45a7-81fd-c3c75f5406c9"},"vehicle_type_id":"4","last_reported":1692885961,"current_range_meters":29600,"station_id":"ce4bhr92rcd13ifvqhsg","pricing_plan_id":"free"},{"bike_id":"3584ed82-8c83-4732-884b-ec35eb5758d6","system_id":"levelo_inurba_marseille","lat":43.33717,"lon":5.391857,"is_reserved":false,"is_disabled":false,"rental_uris":{"android":"levelo://app?vid=3584ed82-8c83-4732-884b-ec35eb5758d6","ios":"levelo://app?vid=3584ed82-8c83-4732-884b-ec35eb5758d6"},"vehicle_type_id":"4","last_reported":1692885961,"current_range_meters":14800,"station_id":"ce4bhr92rcd13ifvqhsg","pricing_plan_id":"free"},{"bike_id":"22f5ebde-00e6-4c30-b807-8619e53ee930","system_id":"levelo_inurba_marseille","lat":43.33717,"lon":5.391857,"is_reserved":false,"is_disabled":false,"rental_uris":{"android":"levelo://app?vid=22f5ebde-00e6-4c30-b807-8619e53ee930","ios":"levelo://app?vid=22f5ebde-00e6-4c30-b807-8619e53ee930"},"vehicle_type_id":"4","last_reported":1692885961,"current_range_meters":31200,"station_id":"ce4bhr92rcd13ifvqhsg","pricing_plan_id":"free"},{"bike_id":"f416ddc1-b5fe-4226-bb13-7d026e2676f6","system_id":"levelo_inurba_marseille","lat":43.33723,"lon":5.39187,"is_reserved":false,"is_disabled":false,"rental_uris":{"android":"levelo://app?vid=f416ddc1-b5fe-4226-bb13-7d026e2676f6","ios":"levelo://app?vid=f416ddc1-b5fe-4226-bb13-7d026e2676f6"},"vehicle_type_id":"4","last_reported":1692885961,"current_range_meters":30400,"station_id":"ce4bhr92rcd13ifvqhsg","pricing_plan_id":"free"},{"bike_id":"7995d5f8-4097-4ff8-9a26-c1e67947abf8","system_id":"levelo_inurba_marseille","lat":43.3373,"lon":5.39175,"is_reserved":false,"is_disabled":false,"rental_uris":{"android":"levelo://app?vid=7995d5f8-4097-4ff8-9a26-c1e67947abf8","ios":"levelo://app?vid=7995d5f8-4097-4ff8-9a26-c1e67947abf8"},"vehicle_type_id":"4","last_reported":1692885961,"current_range_meters":29200,"station_id":"ce4bhr92rcd13ifvqhsg","pricing_plan_id":"free"},{"bike_id":"70a3a730-8a9f-45a7-b22b-4bdea94c946e","system_id":"levelo_inurba_marseille","lat":43.33725,"lon":5.39186,"is_reserved":false,"is_disabled":false,"rental_uris":{"android":"levelo://app?vid=70a3a730-8a9f-45a7-b22b-4bdea94c946e","ios":"levelo://app?vid=70a3a730-8a9f-45a7-b22b-4bdea94c946e"},"vehicle_type_id":"4","last_reported":1692885961,"current_range_meters":31200,"station_id":"ce4bhr92rcd13ifvqhsg","pricing_plan_id":"free"},{"bike_id":"486e5578-f4b6-46c8-b288-dd2598c97761","system_id":"levelo_inurba_marseille","lat":43.33729,"lon":5.39181,"is_reserved":false,"is_disabled":false,"rental_uris":{"android":"levelo://app?vid=486e5578-f4b6-46c8-b288-dd2598c97761","ios":"levelo://app?vid=486e5578-f4b6-46c8-b288-dd2598c97761"},"vehicle_type_id":"4","last_reported":1692885961,"current_range_meters":31200,"station_id":"ce4bhr92rcd13ifvqhsg","pricing_plan_id":"free"},{"bike_id":"5527e1fd-a607-4c24-8548-9cf0c4382527","system_id":"levelo_inurba_marseille","lat":43.33727,"lon":5.39187,"is_reserved":false,"is_disabled":false,"rental_uris":{"android":"levelo://app?vid=5527e1fd-a607-4c24-8548-9cf0c4382527","ios":"levelo://app?vid=5527e1fd-a607-4c24-8548-9cf0c4382527"},"vehicle_type_id":"4","last_reported":1692885961,"current_range_meters":29200,"station_id":"ce4bhr92rcd13ifvqhsg","pricing_plan_id":"free"},{"bike_id":"b814af44-4042-43e9-8b7d-548431887ed8","system_id":"levelo_inurba_marseille","lat":43.32345,"lon":5.40625,"is_reserved":false,"is_disabled":false,"rental_uris":{"android":"levelo://app?vid=b814af44-4042-43e9-8b7d-548431887ed8","ios":"levelo://app?vid=b814af44-4042-43e9-8b7d-548431887ed8"},"vehicle_type_id":"4","last_reported":1692885961,"current_range_meters":30400,"station_id":"","pricing_plan_id":"free"},{"bike_id":"73407d5d-ae91-461c-8582-bbf0e6e1ffea","system_id":"levelo_inurba_marseille","lat":43.33738,"lon":5.39194,"is_reserved":false,"is_disabled":false,"rental_uris":{"android":"levelo://app?vid=73407d5d-ae91-461c-8582-bbf0e6e1ffea","ios":"levelo://app?vid=73407d5d-ae91-461c-8582-bbf0e6e1ffea"},"vehicle_type_id":"4","last_reported":1692885961,"current_range_meters":0,"station_id":"ce4bhr92rcd13ifvqhsg","pricing_plan_id":"free"},{"bike_id":"414290bd-353b-41b2-bd9a-1d3c2c5739df","system_id":"levelo_inurba_marseille","lat":43.28476,"lon":5.38417,"is_reserved":false,"is_disabled":false,"rental_uris":{"android":"levelo://app?vid=414290bd-353b-41b2-bd9a-1d3c2c5739df","ios":"levelo://app?vid=414290bd-353b-41b2-bd9a-1d3c2c5739df"},"vehicle_type_id":"4","last_reported":1692885961,"current_range_meters":26800,"station_id":"ce4bh512rcd13ifvqe3g","pricing_plan_id":"free"},{"bike_id":"81207e02-e329-4cea-9b6c-33ba9c0267d2","system_id":"levelo_inurba_marseille","lat":43.284787,"lon":5.384116,"is_reserved":false,"is_disabled":false,"rental_uris":{"android":"levelo://app?vid=81207e02-e329-4cea-9b6c-33ba9c0267d2","ios":"levelo://app?vid=81207e02-e329-4cea-9b6c-33ba9c0267d2"},"vehicle_type_id":"4","last_reported":1692885961,"current_range_meters":31200,"station_id":"ce4bh512rcd13ifvqe3g","pricing_plan_id":"free"},{"bike_id":"f3269bb0-1649-4a6c-b2df-bca5449afeba","system_id":"levelo_inurba_marseille","lat":43.284219,"lon":5.3497,"is_reserved":false,"is_disabled":false,"rental_uris":{"android":"levelo://app?vid=f3269bb0-1649-4a6c-b2df-bca5449afeba","ios":"levelo://app?vid=f3269bb0-1649-4a6c-b2df-bca5449afeba"},"vehicle_type_id":"4","last_reported":1692885961,"current_range_meters":13600,"station_id":"ce4bhbh2rcd13ifvqepg","pricing_plan_id":"free"},{"bike_id":"f50aca5f-cf5b-4020-925f-826a2e34874f","system_id":"levelo_inurba_marseille","lat":43.289363,"lon":5.396322,"is_reserved":false,"is_disabled":false,"rental_uris":{"android":"levelo://app?vid=f50aca5f-cf5b-4020-925f-826a2e34874f","ios":"levelo://app?vid=f50aca5f-cf5b-4020-925f-826a2e34874f"},"vehicle_type_id":"4","last_reported":1692885961,"current_range_meters":32000,"station_id":"ce4bh3h2rcd13ifvqdn0","pricing_plan_id":"free"},{"bike_id":"79ae07f7-3d9b-456b-927e-8e880eafedba","system_id":"levelo_inurba_marseille","lat":43.32572,"lon":5.40673,"is_reserved":false,"is_disabled":false,"rental_uris":{"android":"levelo://app?vid=79ae07f7-3d9b-456b-927e-8e880eafedba","ios":"levelo://app?vid=79ae07f7-3d9b-456b-927e-8e880eafedba"},"vehicle_type_id":"4","last_reported":1692885961,"current_range_meters":0,"station_id":"","pricing_plan_id":"free"},{"bike_id":"cd383928-7798-4454-a4f5-9fc9191eaf3c","system_id":"levelo_inurba_marseille","lat":43.282754,"lon":5.350519,"is_reserved":false,"is_disabled":false,"rental_uris":{"android":"levelo://app?vid=cd383928-7798-4454-a4f5-9fc9191eaf3c","ios":"levelo://app?vid=cd383928-7798-4454-a4f5-9fc9191eaf3c"},"vehicle_type_id":"4","last_reported":1692885961,"current_range_meters":22800,"station_id":"ce4bhbp2rcd13ifvqerg","pricing_plan_id":"free"},{"bike_id":"3e23bfe7-4bc9-451b-a224-0233620aa112","system_id":"levelo_inurba_marseille","lat":43.282744,"lon":5.350533,"is_reserved":false,"is_disabled":false,"rental_uris":{"android":"levelo://app?vid=3e23bfe7-4bc9-451b-a224-0233620aa112","ios":"levelo://app?vid=3e23bfe7-4bc9-451b-a224-0233620aa112"},"vehicle_type_id":"4","last_reported":1692885961,"current_range_meters":12800,"station_id":"ce4bhbp2rcd13ifvqerg","pricing_plan_id":"free"},{"bike_id":"c73f4707-d5c7-4a9e-8f4f-b53ff4b2a84b","system_id":"levelo_inurba_marseille","lat":43.282754,"lon":5.350519,"is_reserved":false,"is_disabled":false,"rental_uris":{"android":"levelo://app?vid=c73f4707-d5c7-4a9e-8f4f-b53ff4b2a84b","ios":"levelo://app?vid=c73f4707-d5c7-4a9e-8f4f-b53ff4b2a84b"},"vehicle_type_id":"4","last_reported":1692885961,"current_range_meters":27200,"station_id":"ce4bhbp2rcd13ifvqerg","pricing_plan_id":"free"},{"bike_id":"91b16f55-3f67-48f8-9df2-b611cd5c0b3f","system_id":"levelo_inurba_marseille","lat":43.28274,"lon":5.35056,"is_reserved":false,"is_disabled":false,"rental_uris":{"android":"levelo://app?vid=91b16f55-3f67-48f8-9df2-b611cd5c0b3f","ios":"levelo://app?vid=91b16f55-3f67-48f8-9df2-b611cd5c0b3f"},"vehicle_type_id":"4","last_reported":1692885961,"current_range_meters":14400,"station_id":"ce4bhbp2rcd13ifvqerg","pricing_plan_id":"free"},{"bike_id":"fa2489df-bb75-432d-b9cb-c41f73b2e73e","system_id":"levelo_inurba_marseille","lat":43.282754,"lon":5.350519,"is_reserved":false,"is_disabled":false,"rental_uris":{"android":"levelo://app?vid=fa2489df-bb75-432d-b9cb-c41f73b2e73e","ios":"levelo://app?vid=fa2489df-bb75-432d-b9cb-c41f73b2e73e"},"vehicle_type_id":"4","last_reported":1692885961,"current_range_meters":18800,"station_id":"ce4bhbp2rcd13ifvqerg","pricing_plan_id":"free"},{"bike_id":"c32ded3f-8afc-4712-8118-60d780427bb3","system_id":"levelo_inurba_marseille","lat":43.282754,"lon":5.350519,"is_reserved":false,"is_disabled":false,"rental_uris":{"android":"levelo://app?vid=c32ded3f-8afc-4712-8118-60d780427bb3","ios":"levelo://app?vid=c32ded3f-8afc-4712-8118-60d780427bb3"},"vehicle_type_id":"4","last_reported":1692885961,"current_range_meters":31200,"station_id":"ce4bhbp2rcd13ifvqerg","pricing_plan_id":"free"},{"bike_id":"e63389f7-eff0-412e-ab70-2b9bca48c767","system_id":"levelo_inurba_marseille","lat":43.282754,"lon":5.350519,"is_reserved":false,"is_disabled":false,"rental_uris":{"android":"levelo://app?vid=e63389f7-eff0-412e-ab70-2b9bca48c767","ios":"levelo://app?vid=e63389f7-eff0-412e-ab70-2b9bca48c767"},"vehicle_type_id":"4","last_reported":1692885961,"current_range_meters":3200,"station_id":"ce4bhbp2rcd13ifvqerg","pricing_plan_id":"free"},{"bike_id":"354e9818-7334-4f44-bbd8-1bd8f34f7370","system_id":"levelo_inurba_marseille","lat":43.282754,"lon":5.350519,"is_reserved":false,"is_disabled":false,"rental_uris":{"android":"levelo://app?vid=354e9818-7334-4f44-bbd8-1bd8f34f7370","ios":"levelo://app?vid=354e9818-7334-4f44-bbd8-1bd8f34f7370"},"vehicle_type_id":"4","last_reported":1692885961,"current_range_meters":6800,"station_id":"ce4bhbp2rcd13ifvqerg","pricing_plan_id":"free"},{"bike_id":"b1d0c6c0-6aea-45c0-b865-5ee8d766346f","system_id":"levelo_inurba_marseille","lat":43.282645,"lon":5.350773,"is_reserved":false,"is_disabled":false,"rental_uris":{"android":"levelo://app?vid=b1d0c6c0-6aea-45c0-b865-5ee8d766346f","ios":"levelo://app?vid=b1d0c6c0-6aea-45c0-b865-5ee8d766346f"},"vehicle_type_id":"4","last_reported":1692885961,"current_range_meters":18400,"station_id":"ce4bhbp2rcd13ifvqerg","pricing_plan_id":"free"},{"bike_id":"90e21960-edac-4408-bb71-b3ae67f6e602","system_id":"levelo_inurba_marseille","lat":43.28039,"lon":5.369297,"is_reserved":false,"is_disabled":false,"rental_uris":{"android":"levelo://app?vid=90e21960-edac-4408-bb71-b3ae67f6e602","ios":"levelo://app?vid=90e21960-edac-4408-bb71-b3ae67f6e602"},"vehicle_type_id":"4","last_reported":1692885961,"current_range_meters":26800,"station_id":"ce4bha12rcd13ifvqef0","pricing_plan_id":"free"},{"bike_id":"7f8b5c9a-3c63-4716-8a53-486c22c18300","system_id":"levelo_inurba_marseille","lat":43.28262,"lon":5.35072,"is_reserved":false,"is_disabled":false,"rental_uris":{"android":"levelo://app?vid=7f8b5c9a-3c63-4716-8a53-486c22c18300","ios":"levelo://app?vid=7f8b5c9a-3c63-4716-8a53-486c22c18300"},"vehicle_type_id":"4","last_reported":1692885961,"current_range_meters":16400,"station_id":"ce4bhbp2rcd13ifvqerg","pricing_plan_id":"free"},{"bike_id":"74c5ad0a-75eb-4e68-ade2-7b6dbd2b89f7","system_id":"levelo_inurba_marseille","lat":43.282744,"lon":5.350533,"is_reserved":false,"is_disabled":false,"rental_uris":{"android":"levelo://app?vid=74c5ad0a-75eb-4e68-ade2-7b6dbd2b89f7","ios":"levelo://app?vid=74c5ad0a-75eb-4e68-ade2-7b6dbd2b89f7"},"vehicle_type_id":"4","last_reported":1692885961,"current_range_meters":3200,"station_id":"ce4bhbp2rcd13ifvqerg","pricing_plan_id":"free"},{"bike_id":"94be52bb-755c-4af0-8774-d1d8813b7e69","system_id":"levelo_inurba_marseille","lat":43.28263,"lon":5.35062,"is_reserved":false,"is_disabled":false,"rental_uris":{"android":"levelo://app?vid=94be52bb-755c-4af0-8774-d1d8813b7e69","ios":"levelo://app?vid=94be52bb-755c-4af0-8774-d1d8813b7e69"},"vehicle_type_id":"4","last_reported":1692885961,"current_range_meters":20000,"station_id":"ce4bhbp2rcd13ifvqerg","pricing_plan_id":"free"},{"bike_id":"16adb8d5-a223-4f64-9948-085783314d4e","system_id":"levelo_inurba_marseille","lat":43.28254,"lon":5.35089,"is_reserved":false,"is_disabled":false,"rental_uris":{"android":"levelo://app?vid=16adb8d5-a223-4f64-9948-085783314d4e","ios":"levelo://app?vid=16adb8d5-a223-4f64-9948-085783314d4e"},"vehicle_type_id":"4","last_reported":1692885961,"current_range_meters":12000,"station_id":"ce4bhbp2rcd13ifvqerg","pricing_plan_id":"free"},{"bike_id":"3f516f0c-26ba-4666-9082-144debf9ad1c","system_id":"levelo_inurba_marseille","lat":43.282478,"lon":5.35085,"is_reserved":false,"is_disabled":false,"rental_uris":{"android":"levelo://app?vid=3f516f0c-26ba-4666-9082-144debf9ad1c","ios":"levelo://app?vid=3f516f0c-26ba-4666-9082-144debf9ad1c"},"vehicle_type_id":"4","last_reported":1692885961,"current_range_meters":21600,"station_id":"ce4bhbp2rcd13ifvqerg","pricing_plan_id":"free"},{"bike_id":"9f46cfde-4f76-4076-bade-5765c2d3d473","system_id":"levelo_inurba_marseille","lat":43.28039,"lon":5.369297,"is_reserved":false,"is_disabled":false,"rental_uris":{"android":"levelo://app?vid=9f46cfde-4f76-4076-bade-5765c2d3d473","ios":"levelo://app?vid=9f46cfde-4f76-4076-bade-5765c2d3d473"},"vehicle_type_id":"4","last_reported":1692885961,"current_range_meters":31200,"station_id":"ce4bha12rcd13ifvqef0","pricing_plan_id":"free"},{"bike_id":"18ee54cd-c46d-4a6d-abdd-88dab76fbdae","system_id":"levelo_inurba_marseille","lat":43.284462,"lon":5.392121,"is_reserved":false,"is_disabled":false,"rental_uris":{"android":"levelo://app?vid=18ee54cd-c46d-4a6d-abdd-88dab76fbdae","ios":"levelo://app?vid=18ee54cd-c46d-4a6d-abdd-88dab76fbdae"},"vehicle_type_id":"4","last_reported":1692885961,"current_range_meters":11600,"station_id":"ce4bhoh2rcd13ifvqh5g","pricing_plan_id":"free"},{"bike_id":"a93897be-abf3-4943-9c17-7bb55b91691d","system_id":"levelo_inurba_marseille","lat":43.28444,"lon":5.39207,"is_reserved":false,"is_disabled":false,"rental_uris":{"android":"levelo://app?vid=a93897be-abf3-4943-9c17-7bb55b91691d","ios":"levelo://app?vid=a93897be-abf3-4943-9c17-7bb55b91691d"},"vehicle_type_id":"4","last_reported":1692885961,"current_range_meters":26400,"station_id":"ce4bhoh2rcd13ifvqh5g","pricing_plan_id":"free"},{"bike_id":"d05529a4-477a-4932-84ff-d9c39eef4105","system_id":"levelo_inurba_marseille","lat":43.28573,"lon":5.394992,"is_reserved":false,"is_disabled":false,"rental_uris":{"android":"levelo://app?vid=d05529a4-477a-4932-84ff-d9c39eef4105","ios":"levelo://app?vid=d05529a4-477a-4932-84ff-d9c39eef4105"},"vehicle_type_id":"4","last_reported":1692885961,"current_range_meters":0,"station_id":"ce4bh292rcd13ifvqdg0","pricing_plan_id":"free"},{"bike_id":"51c6ac26-1b5f-40d0-8fdb-be94bade81f4","system_id":"levelo_inurba_marseille","lat":43.34578,"lon":5.3774,"is_reserved":false,"is_disabled":false,"rental_uris":{"android":"levelo://app?vid=51c6ac26-1b5f-40d0-8fdb-be94bade81f4","ios":"levelo://app?vid=51c6ac26-1b5f-40d0-8fdb-be94bade81f4"},"vehicle_type_id":"4","last_reported":1692885961,"current_range_meters":0,"station_id":"","pricing_plan_id":"free"},{"bike_id":"0182811c-7990-4e85-93c1-dcb0f1497a54","system_id":"levelo_inurba_marseille","lat":43.326605,"lon":5.409903,"is_reserved":false,"is_disabled":false,"rental_uris":{"android":"levelo://app?vid=0182811c-7990-4e85-93c1-dcb0f1497a54","ios":"levelo://app?vid=0182811c-7990-4e85-93c1-dcb0f1497a54"},"vehicle_type_id":"4","last_reported":1692885961,"current_range_meters":16800,"station_id":"ce4bhpp2rcd13ifvqhgg","pricing_plan_id":"free"},{"bike_id":"84e10971-9e44-4bb8-b616-294d9394c5dc","system_id":"levelo_inurba_marseille","lat":43.326605,"lon":5.409903,"is_reserved":false,"is_disabled":false,"rental_uris":{"android":"levelo://app?vid=84e10971-9e44-4bb8-b616-294d9394c5dc","ios":"levelo://app?vid=84e10971-9e44-4bb8-b616-294d9394c5dc"},"vehicle_type_id":"4","last_reported":1692885961,"current_range_meters":12000,"station_id":"ce4bhpp2rcd13ifvqhgg","pricing_plan_id":"free"},{"bike_id":"378a3dee-8c08-4091-b18e-a1d6344f7809","system_id":"levelo_inurba_marseille","lat":43.287091,"lon":5.400047,"is_reserved":false,"is_disabled":false,"rental_uris":{"android":"levelo://app?vid=378a3dee-8c08-4091-b18e-a1d6344f7809","ios":"levelo://app?vid=378a3dee-8c08-4091-b18e-a1d6344f7809"},"vehicle_type_id":"4","last_reported":1692885961,"current_range_meters":16000,"station_id":"","pricing_plan_id":"free"},{"bike_id":"1186b8c5-981e-467b-bba8-1aceaeb61b58","system_id":"levelo_inurba_marseille","lat":43.287154,"lon":5.399979,"is_reserved":false,"is_disabled":false,"rental_uris":{"android":"levelo://app?vid=1186b8c5-981e-467b-bba8-1aceaeb61b58","ios":"levelo://app?vid=1186b8c5-981e-467b-bba8-1aceaeb61b58"},"vehicle_type_id":"4","last_reported":1692885961,"current_range_meters":30000,"station_id":"ce4bho92rcd13ifvqh3g","pricing_plan_id":"free"},{"bike_id":"a1aa1e4c-d65d-4778-8472-1c00a265d30f","system_id":"levelo_inurba_marseille","lat":43.320045,"lon":5.415048,"is_reserved":false,"is_disabled":false,"rental_uris":{"android":"levelo://app?vid=a1aa1e4c-d65d-4778-8472-1c00a265d30f","ios":"levelo://app?vid=a1aa1e4c-d65d-4778-8472-1c00a265d30f"},"vehicle_type_id":"4","last_reported":1692885961,"current_range_meters":16000,"station_id":"ce4bhq92rcd13ifvqhkg","pricing_plan_id":"free"},{"bike_id":"d6b049a2-2177-4874-9a6e-7a64875b41a1","system_id":"levelo_inurba_marseille","lat":43.320045,"lon":5.415046,"is_reserved":false,"is_disabled":false,"rental_uris":{"android":"levelo://app?vid=d6b049a2-2177-4874-9a6e-7a64875b41a1","ios":"levelo://app?vid=d6b049a2-2177-4874-9a6e-7a64875b41a1"},"vehicle_type_id":"4","last_reported":1692885961,"current_range_meters":22000,"station_id":"ce4bhq92rcd13ifvqhkg","pricing_plan_id":"free"},{"bike_id":"23e82100-2bbc-48ee-a215-72f516e48219","system_id":"levelo_inurba_marseille","lat":43.299579,"lon":5.413255,"is_reserved":false,"is_disabled":false,"rental_uris":{"android":"levelo://app?vid=23e82100-2bbc-48ee-a215-72f516e48219","ios":"levelo://app?vid=23e82100-2bbc-48ee-a215-72f516e48219"},"vehicle_type_id":"4","last_reported":1692885961,"current_range_meters":28000,"station_id":"ce4bhp12rcd13ifvqh9g","pricing_plan_id":"free"},{"bike_id":"d77942a8-8906-4827-95b2-d2b858e06ef6","system_id":"levelo_inurba_marseille","lat":43.279742,"lon":5.38744,"is_reserved":false,"is_disabled":false,"rental_uris":{"android":"levelo://app?vid=d77942a8-8906-4827-95b2-d2b858e06ef6","ios":"levelo://app?vid=d77942a8-8906-4827-95b2-d2b858e06ef6"},"vehicle_type_id":"4","last_reported":1692885961,"current_range_meters":18000,"station_id":"ce4bhg12rcd13ifvqf80","pricing_plan_id":"free"},{"bike_id":"69dd9787-b2a7-4488-af2c-2aee4fdf0948","system_id":"levelo_inurba_marseille","lat":43.320045,"lon":5.415046,"is_reserved":false,"is_disabled":false,"rental_uris":{"android":"levelo://app?vid=69dd9787-b2a7-4488-af2c-2aee4fdf0948","ios":"levelo://app?vid=69dd9787-b2a7-4488-af2c-2aee4fdf0948"},"vehicle_type_id":"4","last_reported":1692885961,"current_range_meters":31600,"station_id":"ce4bhq92rcd13ifvqhkg","pricing_plan_id":"free"},{"bike_id":"c327718a-8fe6-4791-a349-aba0f8f94e82","system_id":"levelo_inurba_marseille","lat":43.279742,"lon":5.38744,"is_reserved":false,"is_disabled":false,"rental_uris":{"android":"levelo://app?vid=c327718a-8fe6-4791-a349-aba0f8f94e82","ios":"levelo://app?vid=c327718a-8fe6-4791-a349-aba0f8f94e82"},"vehicle_type_id":"4","last_reported":1692885961,"current_range_meters":24800,"station_id":"ce4bhg12rcd13ifvqf80","pricing_plan_id":"free"},{"bike_id":"c5c24910-7da4-4aeb-8c55-797ac1e641b6","system_id":"levelo_inurba_marseille","lat":43.320045,"lon":5.415048,"is_reserved":false,"is_disabled":false,"rental_uris":{"android":"levelo://app?vid=c5c24910-7da4-4aeb-8c55-797ac1e641b6","ios":"levelo://app?vid=c5c24910-7da4-4aeb-8c55-797ac1e641b6"},"vehicle_type_id":"4","last_reported":1692885961,"current_range_meters":15600,"station_id":"ce4bhq92rcd13ifvqhkg","pricing_plan_id":"free"},{"bike_id":"1ed19c25-cc27-4c8c-8cb2-9d4170d5bac6","system_id":"levelo_inurba_marseille","lat":43.320045,"lon":5.415048,"is_reserved":false,"is_disabled":false,"rental_uris":{"android":"levelo://app?vid=1ed19c25-cc27-4c8c-8cb2-9d4170d5bac6","ios":"levelo://app?vid=1ed19c25-cc27-4c8c-8cb2-9d4170d5bac6"},"vehicle_type_id":"4","last_reported":1692885961,"current_range_meters":29600,"station_id":"ce4bhq92rcd13ifvqhkg","pricing_plan_id":"free"},{"bike_id":"dd32ba1c-0b81-4aff-a981-ed7010fe7909","system_id":"levelo_inurba_marseille","lat":43.320045,"lon":5.415048,"is_reserved":false,"is_disabled":false,"rental_uris":{"android":"levelo://app?vid=dd32ba1c-0b81-4aff-a981-ed7010fe7909","ios":"levelo://app?vid=dd32ba1c-0b81-4aff-a981-ed7010fe7909"},"vehicle_type_id":"4","last_reported":1692885961,"current_range_meters":2800,"station_id":"ce4bhq92rcd13ifvqhkg","pricing_plan_id":"free"},{"bike_id":"391fac23-650e-400b-ba99-3479fd42cea2","system_id":"levelo_inurba_marseille","lat":43.299577,"lon":5.413277,"is_reserved":false,"is_disabled":false,"rental_uris":{"android":"levelo://app?vid=391fac23-650e-400b-ba99-3479fd42cea2","ios":"levelo://app?vid=391fac23-650e-400b-ba99-3479fd42cea2"},"vehicle_type_id":"4","last_reported":1692885961,"current_range_meters":12400,"station_id":"ce4bhp12rcd13ifvqh9g","pricing_plan_id":"free"},{"bike_id":"dc130a96-1e90-4d60-beac-f8b1e5d602a9","system_id":"levelo_inurba_marseille","lat":43.27625,"lon":5.36108,"is_reserved":false,"is_disabled":false,"rental_uris":{"android":"levelo://app?vid=dc130a96-1e90-4d60-beac-f8b1e5d602a9","ios":"levelo://app?vid=dc130a96-1e90-4d60-beac-f8b1e5d602a9"},"vehicle_type_id":"4","last_reported":1692885961,"current_range_meters":18800,"station_id":"ce4bgj92rcd13ifvqbe0","pricing_plan_id":"free"},{"bike_id":"9e81489e-08af-4ef8-9365-8692a2d018d3","system_id":"levelo_inurba_marseille","lat":43.27621,"lon":5.36109,"is_reserved":false,"is_disabled":false,"rental_uris":{"android":"levelo://app?vid=9e81489e-08af-4ef8-9365-8692a2d018d3","ios":"levelo://app?vid=9e81489e-08af-4ef8-9365-8692a2d018d3"},"vehicle_type_id":"4","last_reported":1692885961,"current_range_meters":12400,"station_id":"ce4bgj92rcd13ifvqbe0","pricing_plan_id":"free"},{"bike_id":"8f3bc660-c1fb-445a-b79c-1718a0367ea5","system_id":"levelo_inurba_marseille","lat":43.27619,"lon":5.36103,"is_reserved":false,"is_disabled":false,"rental_uris":{"android":"levelo://app?vid=8f3bc660-c1fb-445a-b79c-1718a0367ea5","ios":"levelo://app?vid=8f3bc660-c1fb-445a-b79c-1718a0367ea5"},"vehicle_type_id":"4","last_reported":1692885961,"current_range_meters":12000,"station_id":"ce4bgj92rcd13ifvqbe0","pricing_plan_id":"free"},{"bike_id":"e26cd1eb-cd60-435b-84f0-06e7536229f6","system_id":"levelo_inurba_marseille","lat":43.276182,"lon":5.361107,"is_reserved":false,"is_disabled":false,"rental_uris":{"android":"levelo://app?vid=e26cd1eb-cd60-435b-84f0-06e7536229f6","ios":"levelo://app?vid=e26cd1eb-cd60-435b-84f0-06e7536229f6"},"vehicle_type_id":"4","last_reported":1692885961,"current_range_meters":20000,"station_id":"ce4bgj92rcd13ifvqbe0","pricing_plan_id":"free"},{"bike_id":"612b534f-5072-4bfe-a60c-a1f1365ca7de","system_id":"levelo_inurba_marseille","lat":43.27618,"lon":5.3611,"is_reserved":false,"is_disabled":false,"rental_uris":{"android":"levelo://app?vid=612b534f-5072-4bfe-a60c-a1f1365ca7de","ios":"levelo://app?vid=612b534f-5072-4bfe-a60c-a1f1365ca7de"},"vehicle_type_id":"4","last_reported":1692885961,"current_range_meters":15200,"station_id":"ce4bgj92rcd13ifvqbe0","pricing_plan_id":"free"},{"bike_id":"9c1cf046-6009-4b4b-bc71-a5f32ea89b13","system_id":"levelo_inurba_marseille","lat":43.280784,"lon":5.396622,"is_reserved":false,"is_disabled":false,"rental_uris":{"android":"levelo://app?vid=9c1cf046-6009-4b4b-bc71-a5f32ea89b13","ios":"levelo://app?vid=9c1cf046-6009-4b4b-bc71-a5f32ea89b13"},"vehicle_type_id":"4","last_reported":1692885961,"current_range_meters":16000,"station_id":"ce4bho12rcd13ifvqh2g","pricing_plan_id":"free"},{"bike_id":"68bc3180-8b20-4528-bad1-cfd272e5566f","system_id":"levelo_inurba_marseille","lat":43.280784,"lon":5.396622,"is_reserved":false,"is_disabled":false,"rental_uris":{"android":"levelo://app?vid=68bc3180-8b20-4528-bad1-cfd272e5566f","ios":"levelo://app?vid=68bc3180-8b20-4528-bad1-cfd272e5566f"},"vehicle_type_id":"4","last_reported":1692885961,"current_range_meters":21600,"station_id":"ce4bho12rcd13ifvqh2g","pricing_plan_id":"free"},{"bike_id":"dc608c51-af14-4c3b-83fe-e2d86f865de4","system_id":"levelo_inurba_marseille","lat":43.280784,"lon":5.396622,"is_reserved":false,"is_disabled":false,"rental_uris":{"android":"levelo://app?vid=dc608c51-af14-4c3b-83fe-e2d86f865de4","ios":"levelo://app?vid=dc608c51-af14-4c3b-83fe-e2d86f865de4"},"vehicle_type_id":"4","last_reported":1692885961,"current_range_meters":30400,"station_id":"ce4bho12rcd13ifvqh2g","pricing_plan_id":"free"},{"bike_id":"e771f898-9276-4916-b2af-8cad46c44f8e","system_id":"levelo_inurba_marseille","lat":43.27415,"lon":5.36203,"is_reserved":false,"is_disabled":false,"rental_uris":{"android":"levelo://app?vid=e771f898-9276-4916-b2af-8cad46c44f8e","ios":"levelo://app?vid=e771f898-9276-4916-b2af-8cad46c44f8e"},"vehicle_type_id":"4","last_reported":1692885961,"current_range_meters":7200,"station_id":"","pricing_plan_id":"free"},{"bike_id":"4a78f73d-b872-4297-8734-118a2952616b","system_id":"levelo_inurba_marseille","lat":43.273613,"lon":5.362705,"is_reserved":false,"is_disabled":false,"rental_uris":{"android":"levelo://app?vid=4a78f73d-b872-4297-8734-118a2952616b","ios":"levelo://app?vid=4a78f73d-b872-4297-8734-118a2952616b"},"vehicle_type_id":"4","last_reported":1692885961,"current_range_meters":31600,"station_id":"ce4bhbh2rcd13ifvqeo0","pricing_plan_id":"free"},{"bike_id":"f4d7400b-2eb9-424c-b02c-0f1a10cefeeb","system_id":"levelo_inurba_marseille","lat":43.273609,"lon":5.362708,"is_reserved":false,"is_disabled":false,"rental_uris":{"android":"levelo://app?vid=f4d7400b-2eb9-424c-b02c-0f1a10cefeeb","ios":"levelo://app?vid=f4d7400b-2eb9-424c-b02c-0f1a10cefeeb"},"vehicle_type_id":"4","last_reported":1692885961,"current_range_meters":19600,"station_id":"ce4bhbh2rcd13ifvqeo0","pricing_plan_id":"free"},{"bike_id":"9b00b600-2ec4-4bc1-b1c0-ee0568f304bb","system_id":"levelo_inurba_marseille","lat":43.273613,"lon":5.362705,"is_reserved":false,"is_disabled":false,"rental_uris":{"android":"levelo://app?vid=9b00b600-2ec4-4bc1-b1c0-ee0568f304bb","ios":"levelo://app?vid=9b00b600-2ec4-4bc1-b1c0-ee0568f304bb"},"vehicle_type_id":"4","last_reported":1692885961,"current_range_meters":31600,"station_id":"ce4bhbh2rcd13ifvqeo0","pricing_plan_id":"free"},{"bike_id":"a49732a7-a79f-480a-9d73-525aef60a8dc","system_id":"levelo_inurba_marseille","lat":43.273609,"lon":5.362708,"is_reserved":false,"is_disabled":false,"rental_uris":{"android":"levelo://app?vid=a49732a7-a79f-480a-9d73-525aef60a8dc","ios":"levelo://app?vid=a49732a7-a79f-480a-9d73-525aef60a8dc"},"vehicle_type_id":"4","last_reported":1692885961,"current_range_meters":8800,"station_id":"ce4bhbh2rcd13ifvqeo0","pricing_plan_id":"free"},{"bike_id":"4f26b8e6-60c2-4520-a949-f24eb2b7c41c","system_id":"levelo_inurba_marseille","lat":43.273609,"lon":5.362708,"is_reserved":false,"is_disabled":false,"rental_uris":{"android":"levelo://app?vid=4f26b8e6-60c2-4520-a949-f24eb2b7c41c","ios":"levelo://app?vid=4f26b8e6-60c2-4520-a949-f24eb2b7c41c"},"vehicle_type_id":"4","last_reported":1692885961,"current_range_meters":12400,"station_id":"ce4bhbh2rcd13ifvqeo0","pricing_plan_id":"free"},{"bike_id":"c5368e17-0676-4b22-9327-a4befbebfc6d","system_id":"levelo_inurba_marseille","lat":43.273609,"lon":5.362708,"is_reserved":false,"is_disabled":false,"rental_uris":{"android":"levelo://app?vid=c5368e17-0676-4b22-9327-a4befbebfc6d","ios":"levelo://app?vid=c5368e17-0676-4b22-9327-a4befbebfc6d"},"vehicle_type_id":"4","last_reported":1692885961,"current_range_meters":30400,"station_id":"ce4bhbh2rcd13ifvqeo0","pricing_plan_id":"free"},