{"last_updated":1752329373,"ttl":60,"version":"2.2","data":{"bikes":[{"bike_id":"119485ad-8ae3-44d8-b276-823a8b889f0c","system_id":"levelo_inurba_marseille","lat":43.29584,"lon":5.37493,"is_reserved":false,"is_disabled":false,"rental_uris":{"android":"levelo://app?vid=119485ad-8ae3-44d8-b276-823a8b889f0c","ios":"levelo://app?vid=119485ad-8ae3-44d8-b276-823a8b889f0c"},"vehicle_type_id":"4","last_reported":1752329373,"current_range_meters":2800,"station_id":"ce4bgh92rcd13ifvqb50","pricing_plan_id":"cebpf4jnsgd1na2vs0mg"},{"bike_id":"5e18f026-2e61-450a-a446-91571b45e01c","system_id":"levelo_inurba_marseille","lat":43.29513,"lon":5.39398,"is_reserved":false,"is_disabled":false,"rental_uris":{"android":"levelo://app?vid=5e18f026-2e61-450a-a446-91571b45e01c","ios":"levelo://app?vid=5e18f026-2e61-450a-a446-91571b45e01c"},"vehicle_type_id":"4","last_reported":1752329373,"current_range_meters":3200,"station_id":"ce4bh292rcd13ifvqdf0","pricing_plan_id":"cebpf4jnsgd1na2vs0mg"},{"bike_id":"9298d1c4-e6a7-415a-97c6-ec407deba64b","system_id":"levelo_inurba_marseille","lat":43.30545,"lon":5.365609,"is_reserved":false,"is_disabled":true,"rental_uris":{"android":"levelo://app?vid=9298d1c4-e6a7-415a-97c6-ec407deba64b","ios":"levelo://app?vid=9298d1c4-e6a7-415a-97c6-ec407deba64b"},"vehicle_type_id":"4","last_reported":1752329373,"current_range_meters":4000,"station_id":"ce4bgs12rcd13ifvqcag","pricing_plan_id":"cebpf4jnsgd1na2vs0mg"},{"bike_id":"98d604e9-822b-438f-9f79-f6c7c141256e","system_id":"levelo_inurba_marseille","lat":43.28421,"lon":5.34992,"is_reserved":false,"is_disabled":false,"rental_uris":{"android":"levelo://app?vid=98d604e9-822b-438f-9f79-f6c7c141256e","ios":"levelo://app?vid=98d604e9-822b-438f-9f79-f6c7c141256e"},"vehicle_type_id":"4","last_reported":1752329373,"current_range_meters":4000,"station_id":"ce4bhbh2rcd13ifvqepg","pricing_plan_id":"cebpf4jnsgd1na2vs0mg"},{"bike_id":"9770ce10-b149-4423-961a-f4f40484c47b","system_id":"levelo_inurba_marseille","lat":43.26228,"lon":5.40454,"is_reserved":false,"is_disabled":false,"rental_uris":{"android":"levelo://app?vid=9770ce10-b149-4423-961a-f4f40484c47b","ios":"levelo://app?vid=9770ce10-b149-4423-961a-f4f40484c47b"},"vehicle_type_id":"4","last_reported":1752329373,"current_range_meters":4400,"station_id":"ce4bhmh2rcd13ifvqgmg","pricing_plan_id":"cebpf4jnsgd1na2vs0mg"},{"bike_id":"8cee5621-d478-436c-ac7e-b1a4e8ee7a13","system_id":"levelo_inurba_marseille","lat":43.28358,"lon":5.38627,"is_reserved":false,"is_disabled":false,"rental_uris":{"android":"levelo://app?vid=8cee5621-d478-436c-ac7e-b1a4e8ee7a13","ios":"levelo://app?vid=8cee5621-d478-436c-ac7e-b1a4e8ee7a13"},"vehicle_type_id":"4","last_reported":1752329373,"current_range_meters":4400,"station_id":"ce4bh492rcd13ifvqdvg","pricing_plan_id":"cebpf4jnsgd1na2vs0mg"},{"bike_id":"ac46c7b4-0412-4573-97ce-2aa3b2743d8e","system_id":"levelo_inurba_marseille","lat":43.33715,"lon":5.39205,"is_reserved":false,"is_disabled":false,"rental_uris":{"android":"levelo://app?vid=ac46c7b4-0412-4573-97ce-2aa3b2743d8e","ios":"levelo://app?vid=ac46c7b4-0412-4573-97ce-2aa3b2743d8e"},"vehicle_type_id":"4","last_reported":1752329373,"current_range_meters":4800,"station_id":"ce4bhr92rcd13ifvqhsg","pricing_plan_id":"cebpf4jnsgd1na2vs0mg"},{"bike_id":"5d30708c-0a8c-446a-8f43-6379cda43e82","system_id":"levelo_inurba_marseille","lat":43.2827,"lon":5.35065,"is_reserved":false,"is_disabled":false,"rental_uris":{"android":"levelo://app?vid=5d30708c-0a8c-446a-8f43-6379cda43e82","ios":"levelo://app?vid=5d30708c-0a8c-446a-8f43-6379cda43e82"},"vehicle_type_id":"4","last_reported":1752329373,"current_range_meters":5600,"station_id":"ce4bhbp2rcd13ifvqerg","pricing_plan_id":"cebpf4jnsgd1na2vs0mg"},{"bike_id":"bb50ec27-adab-47ae-9e9a-5a746608675e","system_id":"levelo_inurba_marseille","lat":43.27208,"lon":5.39171,"is_reserved":false,"is_disabled":false,"rental_uris":{"android":"levelo://app?vid=bb50ec27-adab-47ae-9e9a-5a746608675e","ios":"levelo://app?vid=bb50ec27-adab-47ae-9e9a-5a746608675e"},"vehicle_type_id":"4","last_reported":1752329373,"current_range_meters":0,"station_id":"ce4bhhp2rcd13ifvqfm0","pricing_plan_id":"cebpf4jnsgd1na2vs0mg"},{"bike_id":"0e83719d-26a9-4bf9-96a8-01b11ce36288","system_id":"levelo_inurba_marseille","lat":43.30534,"lon":5.36534,"is_reserved":false,"is_disabled":false,"rental_uris":{"android":"levelo://app?vid=0e83719d-26a9-4bf9-96a8-01b11ce36288","ios":"levelo://app?vid=0e83719d-26a9-4bf9-96a8-01b11ce36288"},"vehicle_type_id":"4","last_reported":1752329373,"current_range_meters":5600,"station_id":"ce4bgs12rcd13ifvqcag","pricing_plan_id":"cebpf4jnsgd1na2vs0mg"},{"bike_id":"0285b9d4-6221-426b-a1d4-76c0f475662f","system_id":"levelo_inurba_marseille","lat":43.29006,"lon":5.35606,"is_reserved":false,"is_disabled":false,"rental_uris":{"android":"levelo://app?vid=0285b9d4-6221-426b-a1d4-76c0f475662f","ios":"levelo://app?vid=0285b9d4-6221-426b-a1d4-76c0f475662f"},"vehicle_type_id":"4","last_reported":1752329373,"current_range_meters":6000,"station_id":"ce4bhb92rcd13ifvqen0","pricing_plan_id":"cebpf4jnsgd1na2vs0mg"},{"bike_id":"ea30df1f-10cf-4fc6-ae7d-3d1ada419b49","system_id":"levelo_inurba_marseille","lat":43.28271,"lon":5.35057,"is_reserved":false,"is_disabled":false,"rental_uris":{"android":"levelo://app?vid=ea30df1f-10cf-4fc6-ae7d-3d1ada419b49","ios":"levelo://app?vid=ea30df1f-10cf-4fc6-ae7d-3d1ada419b49"},"vehicle_type_id":"4","last_reported":1752329373,"current_range_meters":6400,"station_id":"ce4bhbp2rcd13ifvqerg","pricing_plan_id":"cebpf4jnsgd1na2vs0mg"},{"bike_id":"a3c31560-2d7c-4ad6-a037-7d58fa741236","system_id":"levelo_inurba_marseille","lat":43.27997,"lon":5.40003,"is_reserved":false,"is_disabled":false,"rental_uris":{"android":"levelo://app?vid=a3c31560-2d7c-4ad6-a037-7d58fa741236","ios":"levelo://app?vid=a3c31560-2d7c-4ad6-a037-7d58fa741236"},"vehicle_type_id":"4","last_reported":1752329373,"current_range_meters":6400,"station_id":"ce4bho92rcd13ifvqh4g","pricing_plan_id":"cebpf4jnsgd1na2vs0mg"},{"bike_id":"9e4d1281-d464-460a-ba01-554039decb06","system_id":"levelo_inurba_marseille","lat":43.2784,"lon":5.39212,"is_reserved":false,"is_disabled":false,"rental_uris":{"android":"levelo://app?vid=9e4d1281-d464-460a-ba01-554039decb06","ios":"levelo://app?vid=9e4d1281-d464-460a-ba01-554039decb06"},"vehicle_type_id":"4","last_reported":1752329373,"current_range_meters":6000,"station_id":"ce4bhjp2rcd13ifvqga0","pricing_plan_id":"cebpf4jnsgd1na2vs0mg"},{"bike_id":"e18033f1-d87f-44be-a86f-fe09ff757d52","system_id":"levelo_inurba_marseille","lat":43.28417,"lon":5.34971,"is_reserved":false,"is_disabled":false,"rental_uris":{"android":"levelo://app?vid=e18033f1-d87f-44be-a86f-fe09ff757d52","ios":"levelo://app?vid=e18033f1-d87f-44be-a86f-fe09ff757d52"},"vehicle_type_id":"4","last_reported":1752329373,"current_range_meters":6800,"station_id":"ce4bhbh2rcd13ifvqepg","pricing_plan_id":"cebpf4jnsgd1na2vs0mg"},{"bike_id":"5bafd008-4bd5-4507-8351-ba5ef0fbf820","system_id":"levelo_inurba_marseille","lat":43.29629,"lon":5.4058,"is_reserved":false,"is_disabled":false,"rental_uris":{"android":"levelo://app?vid=5bafd008-4bd5-4507-8351-ba5ef0fbf820","ios":"levelo://app?vid=5bafd008-4bd5-4507-8351-ba5ef0fbf820"},"vehicle_type_id":"4","last_reported":1752329373,"current_range_meters":6800,"station_id":"ce4bh0h2rcd13ifvqd60","pricing_plan_id":"cebpf4jnsgd1na2vs0mg"},{"bike_id":"c4cb91f3-21de-4fc5-9c62-bcf13ddf8388","system_id":"levelo_inurba_marseille","lat":43.26554,"lon":5.3904,"is_reserved":false,"is_disabled":true,"rental_uris":{"android":"levelo://app?vid=c4cb91f3-21de-4fc5-9c62-bcf13ddf8388","ios":"levelo://app?vid=c4cb91f3-21de-4fc5-9c62-bcf13ddf8388"},"vehicle_type_id":"4","last_reported":1752329373,"current_range_meters":7200,"station_id":"ce4bhe12rcd13ifvqf30","pricing_plan_id":"cebpf4jnsgd1na2vs0mg"},{"bike_id":"772e51ea-b511-44c8-80f1-ddb9a9afee6e","system_id":"levelo_inurba_marseille","lat":43.29726,"lon":5.37684,"is_reserved":false,"is_disabled":false,"rental_uris":{"android":"levelo://app?vid=772e51ea-b511-44c8-80f1-ddb9a9afee6e","ios":"levelo://app?vid=772e51ea-b511-44c8-80f1-ddb9a9afee6e"},"vehicle_type_id":"4","last_reported":1752329373,"current_range_meters":6800,"station_id":"ce4bgkh2rcd13ifvqbl0","pricing_plan_id":"cebpf4jnsgd1na2vs0mg"},{"bike_id":"73387e11-f155-4c10-aae6-6343b7d129d9","system_id":"levelo_inurba_marseille","lat":43.30142,"lon":5.38779,"is_reserved":false,"is_disabled":false,"rental_uris":{"android":"levelo://app?vid=73387e11-f155-4c10-aae6-6343b7d129d9","ios":"levelo://app?vid=73387e11-f155-4c10-aae6-6343b7d129d9"},"vehicle_type_id":"4","last_reported":1752329373,"current_range_meters":6800,"station_id":"ce4bghh2rcd13ifvqb60","pricing_plan_id":"cebpf4jnsgd1na2vs0mg"},{"bike_id":"534ed68d-5ceb-43a8-968b-be30f01dfa74","system_id":"levelo_inurba_marseille","lat":43.282111,"lon":5.390649,"is_reserved":false,"is_disabled":false,"rental_uris":{"android":"levelo://app?vid=534ed68d-5ceb-43a8-968b-be30f01dfa74","ios":"levelo://app?vid=534ed68d-5ceb-43a8-968b-be30f01dfa74"},"vehicle_type_id":"4","last_reported":1752329373,"current_range_meters":8000,"station_id":"","pricing_plan_id":"cebpf4jnsgd1na2vs0mg"},{"bike_id":"76fe4666-e60c-4f06-ae56-598072d604ae","system_id":"levelo_inurba_marseille","lat":43.29712,"lon":5.37694,"is_reserved":false,"is_disabled":true,"rental_uris":{"android":"levelo://app?vid=76fe4666-e60c-4f06-ae56-598072d604ae","ios":"levelo://app?vid=76fe4666-e60c-4f06-ae56-598072d604ae"},"vehicle_type_id":"4","last_reported":1752329373,"current_range_meters":8000,"station_id":"ce4bgkh2rcd13ifvqbl0","pricing_plan_id":"cebpf4jnsgd1na2vs0mg"},{"bike_id":"ba834dad-9180-480f-a37f-051319dfa84d","system_id":"levelo_inurba_marseille","lat":43.31171,"lon":5.38716,"is_reserved":false,"is_disabled":false,"rental_uris":{"android":"levelo://app?vid=ba834dad-9180-480f-a37f-051319dfa84d","ios":"levelo://app?vid=ba834dad-9180-480f-a37f-051319dfa84d"},"vehicle_type_id":"4","last_reported":1752329373,"current_range_meters":7200,"station_id":"ce4bgv12rcd13ifvqcp0","pricing_plan_id":"cebpf4jnsgd1na2vs0mg"},{"bike_id":"cb9282c9-0a04-426f-af4a-9dc494a82650","system_id":"levelo_inurba_marseille","lat":43.225037,"lon":5.347922,"is_reserved":false,"is_disabled":false,"rental_uris":{"android":"levelo://app?vid=cb9282c9-0a04-426f-af4a-9dc494a82650","ios":"levelo://app?vid=cb9282c9-0a04-426f-af4a-9dc494a82650"},"vehicle_type_id":"4","last_reported":1752329373,"current_range_meters":8000,"station_id":"","pricing_plan_id":"cebpf4jnsgd1na2vs0mg"},{"bike_id":"7b93c6a3-a6ae-4561-a77a-00fe64d0939d","system_id":"levelo_inurba_marseille","lat":43.29606,"lon":5.37722,"is_reserved":false,"is_disabled":false,"rental_uris":{"android":"levelo://app?vid=7b93c6a3-a6ae-4561-a77a-00fe64d0939d","ios":"levelo://app?vid=7b93c6a3-a6ae-4561-a77a-00fe64d0939d"},"vehicle_type_id":"4","last_reported":1752329373,"current_range_meters":8000,"station_id":"ce4bgi92rcd13ifvqb90","pricing_plan_id":"cebpf4jnsgd1na2vs0mg"},{"bike_id":"9ede5fdf-ddf2-471d-8f8a-1255606ced45","system_id":"levelo_inurba_marseille","lat":43.28992,"lon":5.36716,"is_reserved":false,"is_disabled":false,"rental_uris":{"android":"levelo://app?vid=9ede5fdf-ddf2-471d-8f8a-1255606ced45","ios":"levelo://app?vid=9ede5fdf-ddf2-471d-8f8a-1255606ced45"},"vehicle_type_id":"4","last_reported":1752329373,"current_range_meters":8400,"station_id":"","pricing_plan_id":"cebpf4jnsgd1na2vs0mg"},{"bike_id":"e4f60a7e-d35f-404e-924f-8496bc4bb84b","system_id":"levelo_inurba_marseille","lat":43.23181,"lon":5.39991,"is_reserved":false,"is_disabled":false,"rental_uris":{"android":"levelo://app?vid=e4f60a7e-d35f-404e-924f-8496bc4bb84b","ios":"levelo://app?vid=e4f60a7e-d35f-404e-924f-8496bc4bb84b"},"vehicle_type_id":"4","last_reported":1752329373,"current_range_meters":8400,"station_id":"ce4bhn12rcd13ifvqgqg","pricing_plan_id":"cebpf4jnsgd1na2vs0mg"},{"bike_id":"9a721a67-800d-41fb-b2c2-3309f63164c3","system_id":"levelo_inurba_marseille","lat":43.21193,"lon":5.3507,"is_reserved":false,"is_disabled":false,"rental_uris":{"android":"levelo://app?vid=9a721a67-800d-41fb-b2c2-3309f63164c3","ios":"levelo://app?vid=9a721a67-800d-41fb-b2c2-3309f63164c3"},"vehicle_type_id":"4","last_reported":1752329373,"current_range_meters":8800,"station_id":"st_cvj6sg6p6f1abm77japg","pricing_plan_id":"cebpf4jnsgd1na2vs0mg"},{"bike_id":"d4440aa7-6115-4e1c-afac-3d1092c65677","system_id":"levelo_inurba_marseille","lat":43.3015,"lon":5.38101,"is_reserved":false,"is_disabled":false,"rental_uris":{"android":"levelo://app?vid=d4440aa7-6115-4e1c-afac-3d1092c65677","ios":"levelo://app?vid=d4440aa7-6115-4e1c-afac-3d1092c65677"},"vehicle_type_id":"4","last_reported":1752329373,"current_range_meters":8800,"station_id":"ce4bgjp2rcd13ifvqbh0","pricing_plan_id":"cebpf4jnsgd1na2vs0mg"},{"bike_id":"049fac08-4acf-477b-b28b-f423c9e8c7b8","system_id":"levelo_inurba_marseille","lat":43.24389,"lon":5.37062,"is_reserved":false,"is_disabled":false,"rental_uris":{"android":"levelo://app?vid=049fac08-4acf-477b-b28b-f423c9e8c7b8","ios":"levelo://app?vid=049fac08-4acf-477b-b28b-f423c9e8c7b8"},"vehicle_type_id":"4","last_reported":1752329373,"current_range_meters":8800,"station_id":"ce4bhhh2rcd13ifvqfk0","pricing_plan_id":"cebpf4jnsgd1na2vs0mg"},{"bike_id":"c809955f-9614-49a3-9279-d9d11891d755","system_id":"levelo_inurba_marseille","lat":43.29737,"lon":5.37705,"is_reserved":false,"is_disabled":false,"rental_uris":{"android":"levelo://app?vid=c809955f-9614-49a3-9279-d9d11891d755","ios":"levelo://app?vid=c809955f-9614-49a3-9279-d9d11891d755"},"vehicle_type_id":"4","last_reported":1752329373,"current_range_meters":8800,"station_id":"ce4bgkh2rcd13ifvqbl0","pricing_plan_id":"cebpf4jnsgd1na2vs0mg"},{"bike_id":"e54eb98c-3003-455d-b7ce-ca0d657e50fb","system_id":"levelo_inurba_marseille","lat":43.2841,"lon":5.3499,"is_reserved":false,"is_disabled":false,"rental_uris":{"android":"levelo://app?vid=e54eb98c-3003-455d-b7ce-ca0d657e50fb","ios":"levelo://app?vid=e54eb98c-3003-455d-b7ce-ca0d657e50fb"},"vehicle_type_id":"4","last_reported":1752329373,"current_range_meters":9200,"station_id":"ce4bhbh2rcd13ifvqepg","pricing_plan_id":"cebpf4jnsgd1na2vs0mg"},{"bike_id":"6e44525d-ed45-445a-a877-081b94eb5813","system_id":"levelo_inurba_marseille","lat":43.30334,"lon":5.4191,"is_reserved":false,"is_disabled":false,"rental_uris":{"android":"levelo://app?vid=6e44525d-ed45-445a-a877-081b94eb5813","ios":"levelo://app?vid=6e44525d-ed45-445a-a877-081b94eb5813"},"vehicle_type_id":"4","last_reported":1752329373,"current_range_meters":9200,"station_id":"","pricing_plan_id":"cebpf4jnsgd1na2vs0mg"},{"bike_id":"98569414-a6ba-413b-b4a0-8232b1edd3d0","system_id":"levelo_inurba_marseille","lat":43.2978,"lon":5.37097,"is_reserved":false,"is_disabled":false,"rental_uris":{"android":"levelo://app?vid=98569414-a6ba-413b-b4a0-8232b1edd3d0","ios":"levelo://app?vid=98569414-a6ba-413b-b4a0-8232b1edd3d0"},"vehicle_type_id":"4","last_reported":1752329373,"current_range_meters":9200,"station_id":"ce4bgop2rcd13ifvqc1g","pricing_plan_id":"cebpf4jnsgd1na2vs0mg"},{"bike_id":"9332699b-f943-4525-9bfb-93168daf757d","system_id":"levelo_inurba_marseille","lat":43.24804,"lon":5.37454,"is_reserved":false,"is_disabled":false,"rental_uris":{"android":"levelo://app?vid=9332699b-f943-4525-9bfb-93168daf757d","ios":"levelo://app?vid=9332699b-f943-4525-9bfb-93168daf757d"},"vehicle_type_id":"4","last_reported":1752329373,"current_range_meters":9200,"station_id":"ce4bhgh2rcd13ifvqfb0","pricing_plan_id":"cebpf4jnsgd1na2vs0mg"},{"bike_id":"fbb0b6fb-9490-415a-b701-8478197c7aad","system_id":"levelo_inurba_marseille","lat":43.33027,"lon":5.39036,"is_reserved":false,"is_disabled":false,"rental_uris":{"android":"levelo://app?vid=fbb0b6fb-9490-415a-b701-8478197c7aad","ios":"levelo://app?vid=fbb0b6fb-9490-415a-b701-8478197c7aad"},"vehicle_type_id":"4","last_reported":1752329373,"current_range_meters":9600,"station_id":"ce4bhr92rcd13ifvqhrg","pricing_plan_id":"cebpf4jnsgd1na2vs0mg"},{"bike_id":"a625795d-8f06-444e-8760-e6b3011c4d38","system_id":"levelo_inurba_marseille","lat":43.23063,"lon":5.354838,"is_reserved":false,"is_disabled":false,"rental_uris":{"android":"levelo://app?vid=a625795d-8f06-444e-8760-e6b3011c4d38","ios":"levelo://app?vid=a625795d-8f06-444e-8760-e6b3011c4d38"},"vehicle_type_id":"4","last_reported":1752329373,"current_range_meters":7200,"station_id":"cpo3342slgdg3j2ifvpg","pricing_plan_id":"cebpf4jnsgd1na2vs0mg"},{"bike_id":"595e9351-a7ce-45de-8995-771f7d9fe86e","system_id":"levelo_inurba_marseille","lat":43.309243,"lon":5.378088,"is_reserved":false,"is_disabled":false,"rental_uris":{"android":"levelo://app?vid=595e9351-a7ce-45de-8995-771f7d9fe86e","ios":"levelo://app?vid=595e9351-a7ce-45de-8995-771f7d9fe86e"},"vehicle_type_id":"4","last_reported":1752329373,"current_range_meters":9600,"station_id":"","pricing_plan_id":"cebpf4jnsgd1na2vs0mg"},{"bike_id":"21f51f77-8b78-488b-a42e-44d2a504cf11","system_id":"levelo_inurba_marseille","lat":43.24173,"lon":5.36399,"is_reserved":false,"is_disabled":true,"rental_uris":{"android":"levelo://app?vid=21f51f77-8b78-488b-a42e-44d2a504cf11","ios":"levelo://app?vid=21f51f77-8b78-488b-a42e-44d2a504cf11"},"vehicle_type_id":"4","last_reported":1752329373,"current_range_meters":9600,"station_id":"cpo36qri1sfpv3e86is0","pricing_plan_id":"cebpf4jnsgd1na2vs0mg"},{"bike_id":"5d90365f-de37-44d3-98d5-1958bb016da8","system_id":"levelo_inurba_marseille","lat":43.27075,"lon":5.42279,"is_reserved":false,"is_disabled":false,"rental_uris":{"android":"levelo://app?vid=5d90365f-de37-44d3-98d5-1958bb016da8","ios":"levelo://app?vid=5d90365f-de37-44d3-98d5-1958bb016da8"},"vehicle_type_id":"4","last_reported":1752329373,"current_range_meters":9200,"station_id":"ce4bhk92rcd13ifvqgb0","pricing_plan_id":"cebpf4jnsgd1na2vs0mg"},{"bike_id":"4c947ee6-aebc-4c99-9bea-f03a45e8be59","system_id":"levelo_inurba_marseille","lat":43.30599,"lon":5.37227,"is_reserved":false,"is_disabled":false,"rental_uris":{"android":"levelo://app?vid=4c947ee6-aebc-4c99-9bea-f03a45e8be59","ios":"levelo://app?vid=4c947ee6-aebc-4c99-9bea-f03a45e8be59"},"vehicle_type_id":"4","last_reported":1752329373,"current_range_meters":9600,"station_id":"ce4bgqh2rcd13ifvqc4g","pricing_plan_id":"cebpf4jnsgd1na2vs0mg"},{"bike_id":"e3a75ee9-c614-467b-8cc2-f813bcef2ab1","system_id":"levelo_inurba_marseille","lat":43.33743,"lon":5.3919,"is_reserved":false,"is_disabled":false,"rental_uris":{"android":"levelo://app?vid=e3a75ee9-c614-467b-8cc2-f813bcef2ab1","ios":"levelo://app?vid=e3a75ee9-c614-467b-8cc2-f813bcef2ab1"},"vehicle_type_id":"4","last_reported":1752329373,"current_range_meters":9600,"station_id":"ce4bhr92rcd13ifvqhsg","pricing_plan_id":"cebpf4jnsgd1na2vs0mg"},{"bike_id":"196b1093-1fbb-4545-b9a6-ee0d9c00193a","system_id":"levelo_inurba_marseille","lat":43.29584,"lon":5.37512,"is_reserved":false,"is_disabled":false,"rental_uris":{"android":"levelo://app?vid=196b1093-1fbb-4545-b9a6-ee0d9c00193a","ios":"levelo://app?vid=196b1093-1fbb-4545-b9a6-ee0d9c00193a"},"vehicle_type_id":"4","last_reported":1752329373,"current_range_meters":10000,"station_id":"ce4bgh92rcd13ifvqb50","pricing_plan_id":"cebpf4jnsgd1na2vs0mg"},{"bike_id":"080f57f3-a8d5-4466-97ef-f4f40d547d09","system_id":"levelo_inurba_marseille","lat":43.31343,"lon":5.38537,"is_reserved":false,"is_disabled":false,"rental_uris":{"android":"levelo://app?vid=080f57f3-a8d5-4466-97ef-f4f40d547d09","ios":"levelo://app?vid=080f57f3-a8d5-4466-97ef-f4f40d547d09"},"vehicle_type_id":"4","last_reported":1752329373,"current_range_meters":10000,"station_id":"ce4bgt92rcd13ifvqcf0","pricing_plan_id":"cebpf4jnsgd1na2vs0mg"},{"bike_id":"fd9f5c27-5d58-42e5-badc-a12a0344229e","system_id":"levelo_inurba_marseille","lat":43.28909,"lon":5.36052,"is_reserved":false,"is_disabled":false,"rental_uris":{"android":"levelo://app?vid=fd9f5c27-5d58-42e5-badc-a12a0344229e","ios":"levelo://app?vid=fd9f5c27-5d58-42e5-badc-a12a0344229e"},"vehicle_type_id":"4","last_reported":1752329373,"current_range_meters":10000,"station_id":"","pricing_plan_id":"cebpf4jnsgd1na2vs0mg"},{"bike_id":"097106d7-0dc8-4152-8540-cae0e1de8dea","system_id":"levelo_inurba_marseille","lat":43.21196,"lon":5.35076,"is_reserved":false,"is_disabled":false,"rental_uris":{"android":"levelo://app?vid=097106d7-0dc8-4152-8540-cae0e1de8dea","ios":"levelo://app?vid=097106d7-0dc8-4152-8540-cae0e1de8dea"},"vehicle_type_id":"4","last_reported":1752329373,"current_range_meters":10000,"station_id":"st_cvj6sg6p6f1abm77japg","pricing_plan_id":"cebpf4jnsgd1na2vs0mg"},{"bike_id":"262c7e76-2e28-4d55-b6be-af79e74bb9c9","system_id":"levelo_inurba_marseille","lat":43.324271,"lon":5.383763,"is_reserved":false,"is_disabled":false,"rental_uris":{"android":"levelo://app?vid=262c7e76-2e28-4d55-b6be-af79e74bb9c9","ios":"levelo://app?vid=262c7e76-2e28-4d55-b6be-af79e74bb9c9"},"vehicle_type_id":"4","last_reported":1752329373,"current_range_meters":10000,"station_id":"","pricing_plan_id":"cebpf4jnsgd1na2vs0mg"},{"bike_id":"46cacac0-84b7-4c70-a453-a1cb8250fb4d","system_id":"levelo_inurba_marseille","lat":43.3377,"lon":5.37432,"is_reserved":false,"is_disabled":false,"rental_uris":{"android":"levelo://app?vid=46cacac0-84b7-4c70-a453-a1cb8250fb4d","ios":"levelo://app?vid=46cacac0-84b7-4c70-a453-a1cb8250fb4d"},"vehicle_type_id":"4","last_reported":1752329373,"current_range_meters":10000,"station_id":"","pricing_plan_id":"cebpf4jnsgd1na2vs0mg"},{"bike_id":"2711aaaf-3805-4804-9329-3207cf061148","system_id":"levelo_inurba_marseille","lat":43.28434,"lon":5.3499,"is_reserved":false,"is_disabled":false,"rental_uris":{"android":"levelo://app?vid=2711aaaf-3805-4804-9329-3207cf061148","ios":"levelo://app?vid=2711aaaf-3805-4804-9329-3207cf061148"},"vehicle_type_id":"4","last_reported":1752329373,"current_range_meters":10000,"station_id":"ce4bhbh2rcd13ifvqepg","pricing_plan_id":"cebpf4jnsgd1na2vs0mg"},{"bike_id":"088084a2-200b-4a32-b6d9-65d8ee7a8d4a","system_id":"levelo_inurba_marseille","lat":43.28486,"lon":5.38558,"is_reserved":false,"is_disabled":false,"rental_uris":{"android":"levelo://app?vid=088084a2-200b-4a32-b6d9-65d8ee7a8d4a","ios":"levelo://app?vid=088084a2-200b-4a32-b6d9-65d8ee7a8d4a"},"vehicle_type_id":"4","last_reported":1752329373,"current_range_meters":10000,"station_id":"ce4bh8p2rcd13ifvqeb0","pricing_plan_id":"cebpf4jnsgd1na2vs0mg"},{"bike_id":"eda0ea69-6404-43e6-9ede-2655d170d444","system_id":"levelo_inurba_marseille","lat":43.28854,"lon":5.35808,"is_reserved":false,"is_disabled":true,"rental_uris":{"android":"levelo://app?vid=eda0ea69-6404-43e6-9ede-2655d170d444","ios":"levelo://app?vid=eda0ea69-6404-43e6-9ede-2655d170d444"},"vehicle_type_id":"4","last_reported":1752329373,"current_range_meters":10000,"station_id":"ce4bhb12rcd13ifvqem0","pricing_plan_id":"cebpf4jnsgd1na2vs0mg"},{"bike_id":"70e13b8c-0e7d-4cb0-ae55-527e2da53671","system_id":"levelo_inurba_marseille","lat":43.30142,"lon":5.37422,"is_reserved":false,"is_disabled":false,"rental_uris":{"android":"levelo://app?vid=70e13b8c-0e7d-4cb0-ae55-527e2da53671","ios":"levelo://app?vid=70e13b8c-0e7d-4cb0-ae55-527e2da53671"},"vehicle_type_id":"4","last_reported":1752329373,"current_range_meters":10000,"station_id":"ce4bgs92rcd13ifvqcc0","pricing_plan_id":"cebpf4jnsgd1na2vs0mg"},{"bike_id":"33bb176b-33f1-4a13-8796-cee4ae9d00ea","system_id":"levelo_inurba_marseille","lat":43.27355,"lon":5.36215,"is_reserved":false,"is_disabled":false,"rental_uris":{"android":"levelo://app?vid=33bb176b-33f1-4a13-8796-cee4ae9d00ea","ios":"levelo://app?vid=33bb176b-33f1-4a13-8796-cee4ae9d00ea"},"vehicle_type_id":"4","last_reported":1752329373,"current_range_meters":10800,"station_id":"ce4bhbh2rcd13ifvqeo0","pricing_plan_id":"cebpf4jnsgd1na2vs0mg"},{"bike_id":"2568b158-e9d5-42a9-9b6c-e9efdd7ca661","system_id":"levelo_inurba_marseille","lat":43.262045,"lon":5.40431,"is_reserved":false,"is_disabled":false,"rental_uris":{"android":"levelo://app?vid=2568b158-e9d5-42a9-9b6c-e9efdd7ca661","ios":"levelo://app?vid=2568b158-e9d5-42a9-9b6c-e9efdd7ca661"},"vehicle_type_id":"4","last_reported":1752329373,"current_range_meters":10800,"station_id":"ce4bhmh2rcd13ifvqgmg","pricing_plan_id":"cebpf4jnsgd1na2vs0mg"},{"bike_id":"3a2801a0-4901-44c0-8e51-29d5acf3e7e8","system_id":"levelo_inurba_marseille","lat":43.25579,"lon":5.38229,"is_reserved":false,"is_disabled":false,"rental_uris":{"android":"levelo://app?vid=3a2801a0-4901-44c0-8e51-29d5acf3e7e8","ios":"levelo://app?vid=3a2801a0-4901-44c0-8e51-29d5acf3e7e8"},"vehicle_type_id":"4","last_reported":1752329373,"current_range_meters":10800,"station_id":"ce4bhih2rcd13ifvqfs0","pricing_plan_id":"cebpf4jnsgd1na2vs0mg"},{"bike_id":"f4e0d880-eb6e-45a2-a356-915ae6e14531","system_id":"levelo_inurba_marseille","lat":43.29621,"lon":5.37155,"is_reserved":false,"is_disabled":false,"rental_uris":{"android":"levelo://app?vid=f4e0d880-eb6e-45a2-a356-915ae6e14531","ios":"levelo://app?vid=f4e0d880-eb6e-45a2-a356-915ae6e14531"},"vehicle_type_id":"4","last_reported":1752329373,"current_range_meters":10000,"station_id":"ce4bgnh2rcd13ifvqc0g","pricing_plan_id":"cebpf4jnsgd1na2vs0mg"},{"bike_id":"1acb3153-6e7b-4bb1-b927-b9e07a08c19e","system_id":"levelo_inurba_marseille","lat":43.27912,"lon":5.39578,"is_reserved":false,"is_disabled":false,"rental_uris":{"android":"levelo://app?vid=1acb3153-6e7b-4bb1-b927-b9e07a08c19e","ios":"levelo://app?vid=1acb3153-6e7b-4bb1-b927-b9e07a08c19e"},"vehicle_type_id":"4","last_reported":1752329373,"current_range_meters":10800,"station_id":"ce4bhf92rcd13ifvqf40","pricing_plan_id":"cebpf4jnsgd1na2vs0mg"},{"bike_id":"97d4bafb-1703-482a-9af9-9c0328bf232e","system_id":"levelo_inurba_marseille","lat":43.2957,"lon":5.37487,"is_reserved":false,"is_disabled":false,"rental_uris":{"android":"levelo://app?vid=97d4bafb-1703-482a-9af9-9c0328bf232e","ios":"levelo://app?vid=97d4bafb-1703-482a-9af9-9c0328bf232e"},"vehicle_type_id":"4","last_reported":1752329373,"current_range_meters":10800,"station_id":"ce4bgh92rcd13ifvqb50","pricing_plan_id":"cebpf4jnsgd1na2vs0mg"},{"bike_id":"75bb1dd6-50a7-47a9-9e4b-6b29bd46237a","system_id":"levelo_inurba_marseille","lat":43.21192,"lon":5.35069,"is_reserved":false,"is_disabled":false,"rental_uris":{"android":"levelo://app?vid=75bb1dd6-50a7-47a9-9e4b-6b29bd46237a","ios":"levelo://app?vid=75bb1dd6-50a7-47a9-9e4b-6b29bd46237a"},"vehicle_type_id":"4","last_reported":1752329373,"current_range_meters":10800,"station_id":"st_cvj6sg6p6f1abm77japg","pricing_plan_id":"cebpf4jnsgd1na2vs0mg"},{"bike_id":"9dbd7bad-ca30-43ae-8d8f-a597179d5b51","system_id":"levelo_inurba_marseille","lat":43.28029,"lon":5.36942,"is_reserved":false,"is_disabled":true,"rental_uris":{"android":"levelo://app?vid=9dbd7bad-ca30-43ae-8d8f-a597179d5b51","ios":"levelo://app?vid=9dbd7bad-ca30-43ae-8d8f-a597179d5b51"},"vehicle_type_id":"4","last_reported":1752329373,"current_range_meters":10800,"station_id":"ce4bha12rcd13ifvqef0","pricing_plan_id":"cebpf4jnsgd1na2vs0mg"},{"bike_id":"644fe525-33df-4b2c-97a2-63c430b5d999","system_id":"levelo_inurba_marseille","lat":43.30303,"lon":5.36906,"is_reserved":false,"is_disabled":false,"rental_uris":{"android":"levelo://app?vid=644fe525-33df-4b2c-97a2-63c430b5d999","ios":"levelo://app?vid=644fe525-33df-4b2c-97a2-63c430b5d999"},"vehicle_type_id":"4","last_reported":1752329373,"current_range_meters":10800,"station_id":"ce4bgqh2rcd13ifvqc5g","pricing_plan_id":"cebpf4jnsgd1na2vs0mg"},{"bike_id":"0e8743a2-9268-4827-91cc-c140a296489b","system_id":"levelo_inurba_marseille","lat":43.272059,"lon":5.391882,"is_reserved":false,"is_disabled":false,"rental_uris":{"android":"levelo://app?vid=0e8743a2-9268-4827-91cc-c140a296489b","ios":"levelo://app?vid=0e8743a2-9268-4827-91cc-c140a296489b"},"vehicle_type_id":"4","last_reported":1752329373,"current_range_meters":10800,"station_id":"ce4bhhp2rcd13ifvqfm0","pricing_plan_id":"cebpf4jnsgd1na2vs0mg"},{"bike_id":"8929c1bf-fd4d-44e4-aa66-b3eb6538c998","system_id":"levelo_inurba_marseille","lat":43.2857,"lon":5.42991,"is_reserved":false,"is_disabled":false,"rental_uris":{"android":"levelo://app?vid=8929c1bf-fd4d-44e4-aa66-b3eb6538c998","ios":"levelo://app?vid=8929c1bf-fd4d-44e4-aa66-b3eb6538c998"},"vehicle_type_id":"4","last_reported":1752329373,"current_range_meters":11200,"station_id":"","pricing_plan_id":"cebpf4jnsgd1na2vs0mg"},{"bike_id":"84d1266e-c769-4ce6-8b19-f18b8b7a08c3","system_id":"levelo_inurba_marseille","lat":43.23987,"lon":5.36651,"is_reserved":false,"is_disabled":false,"rental_uris":{"android":"levelo://app?vid=84d1266e-c769-4ce6-8b19-f18b8b7a08c3","ios":"levelo://app?vid=84d1266e-c769-4ce6-8b19-f18b8b7a08c3"},"vehicle_type_id":"4","last_reported":1752329373,"current_range_meters":11200,"station_id":"ce4bhi12rcd13ifvqfp0","pricing_plan_id":"cebpf4jnsgd1na2vs0mg"},{"bike_id":"da974cfd-3db2-4a7f-8ff0-2bb619d2cabd","system_id":"levelo_inurba_marseille","lat":43.23968,"lon":5.36628,"is_reserved":false,"is_disabled":false,"rental_uris":{"android":"levelo://app?vid=da974cfd-3db2-4a7f-8ff0-2bb619d2cabd","ios":"levelo://app?vid=da974cfd-3db2-4a7f-8ff0-2bb619d2cabd"},"vehicle_type_id":"4","last_reported":1752329373,"current_range_meters":11200,"station_id":"ce4bhi12rcd13ifvqfp0","pricing_plan_id":"cebpf4jnsgd1na2vs0mg"},{"bike_id":"733bc91c-338c-4ff7-bdae-9de737268e57","system_id":"levelo_inurba_marseille","lat":43.29914,"lon":5.37485,"is_reserved":false,"is_disabled":false,"rental_uris":{"android":"levelo://app?vid=733bc91c-338c-4ff7-bdae-9de737268e57","ios":"levelo://app?vid=733bc91c-338c-4ff7-bdae-9de737268e57"},"vehicle_type_id":"4","last_reported":1752329373,"current_range_meters":11600,"station_id":"ce4bgjh2rcd13ifvqbg0","pricing_plan_id":"cebpf4jnsgd1na2vs0mg"},{"bike_id":"6f1b1d93-f920-4ef1-bb8f-ae8407583b25","system_id":"levelo_inurba_marseille","lat":43.30786,"lon":5.38132,"is_reserved":false,"is_disabled":false,"rental_uris":{"android":"levelo://app?vid=6f1b1d93-f920-4ef1-bb8f-ae8407583b25","ios":"levelo://app?vid=6f1b1d93-f920-4ef1-bb8f-ae8407583b25"},"vehicle_type_id":"4","last_reported":1752329373,"current_range_meters":11600,"station_id":"ce4bgt12rcd13ifvqce0","pricing_plan_id":"cebpf4jnsgd1na2vs0mg"},{"bike_id":"111c03b7-b57e-4cef-b284-50a0197e6c37","system_id":"levelo_inurba_marseille","lat":43.29528,"lon":5.37497,"is_reserved":false,"is_disabled":false,"rental_uris":{"android":"levelo://app?vid=111c03b7-b57e-4cef-b284-50a0197e6c37","ios":"levelo://app?vid=111c03b7-b57e-4cef-b284-50a0197e6c37"},"vehicle_type_id":"4","last_reported":1752329373,"current_range_meters":11600,"station_id":"ce4bgkp2rcd13ifvqbmg","pricing_plan_id":"cebpf4jnsgd1na2vs0mg"},{"bike_id":"8fccf46e-4269-459a-bd9a-cdd93f6b32bc","system_id":"levelo_inurba_marseille","lat":43.30377,"lon":5.41862,"is_reserved":false,"is_disabled":false,"rental_uris":{"android":"levelo://app?vid=8fccf46e-4269-459a-bd9a-cdd93f6b32bc","ios":"levelo://app?vid=8fccf46e-4269-459a-bd9a-cdd93f6b32bc"},"vehicle_type_id":"4","last_reported":1752329373,"current_range_meters":11600,"station_id":"ce4bhop2rcd13ifvqh7g","pricing_plan_id":"cebpf4jnsgd1na2vs0mg"},{"bike_id":"e0639613-f7e7-4c20-969a-f7957fcc570a","system_id":"levelo_inurba_marseille","lat":43.280334,"lon":5.369502,"is_reserved":false,"is_disabled":false,"rental_uris":{"android":"levelo://app?vid=e0639613-f7e7-4c20-969a-f7957fcc570a","ios":"levelo://app?vid=e0639613-f7e7-4c20-969a-f7957fcc570a"},"vehicle_type_id":"4","last_reported":1752329373,"current_range_meters":11600,"station_id":"ce4bha12rcd13ifvqef0","pricing_plan_id":"cebpf4jnsgd1na2vs0mg"},{"bike_id":"7b271013-7dba-4eb4-8fbc-6142f3833ebd","system_id":"levelo_inurba_marseille","lat":43.260313,"lon":5.37542,"is_reserved":false,"is_disabled":false,"rental_uris":{"android":"levelo://app?vid=7b271013-7dba-4eb4-8fbc-6142f3833ebd","ios":"levelo://app?vid=7b271013-7dba-4eb4-8fbc-6142f3833ebd"},"vehicle_type_id":"4","last_reported":1752329373,"current_range_meters":11600,"station_id":"","pricing_plan_id":"cebpf4jnsgd1na2vs0mg"},{"bike_id":"f6974de0-f478-4f51-9582-c4d48c77f98e","system_id":"levelo_inurba_marseille","lat":43.26215,"lon":5.37433,"is_reserved":false,"is_disabled":false,"rental_uris":{"android":"levelo://app?vid=f6974de0-f478-4f51-9582-c4d48c77f98e","ios":"levelo://app?vid=f6974de0-f478-4f51-9582-c4d48c77f98e"},"vehicle_type_id":"4","last_reported":1752329373,"current_range_meters":12000,"station_id":"ce4bhgp2rcd13ifvqfc0","pricing_plan_id":"cebpf4jnsgd1na2vs0mg"},{"bike_id":"61198919-e72c-4fce-bc96-126627987dc0","system_id":"levelo_inurba_marseille","lat":43.29593,"lon":5.37872,"is_reserved":false,"is_disabled":false,"rental_uris":{"android":"levelo://app?vid=61198919-e72c-4fce-bc96-126627987dc0","ios":"levelo://app?vid=61198919-e72c-4fce-bc96-126627987dc0"},"vehicle_type_id":"4","last_reported":1752329373,"current_range_meters":12000,"station_id":"","pricing_plan_id":"cebpf4jnsgd1na2vs0mg"},{"bike_id":"dbba3321-20c7-4989-a7b5-ea9ab2c4b3e8","system_id":"levelo_inurba_marseille","lat":43.261935,"lon":5.374477,"is_reserved":false,"is_disabled":false,"rental_uris":{"android":"levelo://app?vid=dbba3321-20c7-4989-a7b5-ea9ab2c4b3e8","ios":"levelo://app?vid=dbba3321-20c7-4989-a7b5-ea9ab2c4b3e8"},"vehicle_type_id":"4","last_reported":1752329373,"current_range_meters":12000,"station_id":"ce4bhgp2rcd13ifvqfc0","pricing_plan_id":"cebpf4jnsgd1na2vs0mg"},{"bike_id":"c453155a-5220-48fc-922b-600ca54f8ab5","system_id":"levelo_inurba_marseille","lat":43.286559,"lon":5.363478,"is_reserved":false,"is_disabled":true,"rental_uris":{"android":"levelo://app?vid=c453155a-5220-48fc-922b-600ca54f8ab5","ios":"levelo://app?vid=c453155a-5220-48fc-922b-600ca54f8ab5"},"vehicle_type_id":"4","last_reported":1752329373,"current_range_meters":12000,"station_id":"ce4bhah2rcd13ifvqej0","pricing_plan_id":"cebpf4jnsgd1na2vs0mg"},{"bike_id":"e5dea213-f4bc-4017-b7db-46c4f82f28f3","system_id":"levelo_inurba_marseille","lat":43.29526,"lon":5.37506,"is_reserved":false,"is_disabled":false,"rental_uris":{"android":"levelo://app?vid=e5dea213-f4bc-4017-b7db-46c4f82f28f3","ios":"levelo://app?vid=e5dea213-f4bc-4017-b7db-46c4f82f28f3"},"vehicle_type_id":"4","last_reported":1752329373,"current_range_meters":12400,"station_id":"ce4bgkp2rcd13ifvqbmg","pricing_plan_id":"cebpf4jnsgd1na2vs0mg"},{"bike_id":"97fa06f4-d15d-4dad-ba62-7c412bba4bd9","system_id":"levelo_inurba_marseille","lat":43.28936,"lon":5.36627,"is_reserved":false,"is_disabled":false,"rental_uris":{"android":"levelo://app?vid=97fa06f4-d15d-4dad-ba62-7c412bba4bd9","ios":"levelo://app?vid=97fa06f4-d15d-4dad-ba62-7c412bba4bd9"},"vehicle_type_id":"4","last_reported":1752329373,"current_range_meters":12400,"station_id":"ce4bhap2rcd13ifvqek0","pricing_plan_id":"cebpf4jnsgd1na2vs0mg"},{"bike_id":"1fd72f38-e0bf-40a1-aff0-dd0ec4772bba","system_id":"levelo_inurba_marseille","lat":43.27619,"lon":5.36108,"is_reserved":false,"is_disabled":false,"rental_uris":{"android":"levelo://app?vid=1fd72f38-e0bf-40a1-aff0-dd0ec4772bba","ios":"levelo://app?vid=1fd72f38-e0bf-40a1-aff0-dd0ec4772bba"},"vehicle_type_id":"4","last_reported":1752329373,"current_range_meters":12400,"station_id":"ce4bgj92rcd13ifvqbe0","pricing_plan_id":"cebpf4jnsgd1na2vs0mg"},{"bike_id":"4931c57e-fe1b-4d85-8d7f-d3c8a802f890","system_id":"levelo_inurba_marseille","lat":43.25083,"lon":5.39514,"is_reserved":false,"is_disabled":false,"rental_uris":{"android":"levelo://app?vid=4931c57e-fe1b-4d85-8d7f-d3c8a802f890","ios":"levelo://app?vid=4931c57e-fe1b-4d85-8d7f-d3c8a802f890"},"vehicle_type_id":"4","last_reported":1752329373,"current_range_meters":12400,"station_id":"ce4bhm12rcd13ifvqgkg","pricing_plan_id":"cebpf4jnsgd1na2vs0mg"},{"bike_id":"4ee5bb10-b533-4f74-8cc9-2540f690c48d","system_id":"levelo_inurba_marseille","lat":43.28613,"lon":5.35104,"is_reserved":false,"is_disabled":false,"rental_uris":{"android":"levelo://app?vid=4ee5bb10-b533-4f74-8cc9-2540f690c48d","ios":"levelo://app?vid=4ee5bb10-b533-4f74-8cc9-2540f690c48d"},"vehicle_type_id":"4","last_reported":1752329373,"current_range_meters":12800,"station_id":"ce4bhch2rcd13ifvqeug","pricing_plan_id":"cebpf4jnsgd1na2vs0mg"},{"bike_id":"a525b51f-712b-44d7-9348-c570873aea36","system_id":"levelo_inurba_marseille","lat":43.28999,"lon":5.35596,"is_reserved":false,"is_disabled":false,"rental_uris":{"android":"levelo://app?vid=a525b51f-712b-44d7-9348-c570873aea36","ios":"levelo://app?vid=a525b51f-712b-44d7-9348-c570873aea36"},"vehicle_type_id":"4","last_reported":1752329373,"current_range_meters":12800,"station_id":"ce4bhb92rcd13ifvqen0","pricing_plan_id":"cebpf4jnsgd1na2vs0mg"},{"bike_id":"a581eef9-f0fb-4e5d-8be0-84b96bfd2d41","system_id":"levelo_inurba_marseille","lat":43.29362,"lon":5.37867,"is_reserved":false,"is_disabled":false,"rental_uris":{"android":"levelo://app?vid=a581eef9-f0fb-4e5d-8be0-84b96bfd2d41","ios":"levelo://app?vid=a581eef9-f0fb-4e5d-8be0-84b96bfd2d41"},"vehicle_type_id":"4","last_reported":1752329373,"current_range_meters":12800,"station_id":"ce4bgjh2rcd13ifvqbf0","pricing_plan_id":"cebpf4jnsgd1na2vs0mg"},{"bike_id":"ab6cb234-c8d6-4ce4-ab4f-b14b364484d3","system_id":"levelo_inurba_marseille","lat":43.3015,"lon":5.38115,"is_reserved":false,"is_disabled":false,"rental_uris":{"android":"levelo://app?vid=ab6cb234-c8d6-4ce4-ab4f-b14b364484d3","ios":"levelo://app?vid=ab6cb234-c8d6-4ce4-ab4f-b14b364484d3"},"vehicle_type_id":"4","last_reported":1752329373,"current_range_meters":12800,"station_id":"ce4bgjp2rcd13ifvqbh0","pricing_plan_id":"cebpf4jnsgd1na2vs0mg"},{"bike_id":"3d3737e6-2c58-4e9f-a7b4-c00ec5634681","system_id":"levelo_inurba_marseille","lat":43.32055,"lon":5.41554,"is_reserved":false,"is_disabled":false,"rental_uris":{"android":"levelo://app?vid=3d3737e6-2c58-4e9f-a7b4-c00ec5634681","ios":"levelo://app?vid=3d3737e6-2c58-4e9f-a7b4-c00ec5634681"},"vehicle_type_id":"4","last_reported":1752329373,"current_range_meters":12800,"station_id":"ce4bhq92rcd13ifvqhkg","pricing_plan_id":"cebpf4jnsgd1na2vs0mg"},{"bike_id":"e646e481-a4d6-4b85-b84d-3edc06745025","system_id":"levelo_inurba_marseille","lat":43.30597,"lon":5.3936,"is_reserved":false,"is_disabled":true,"rental_uris":{"android":"levelo://app?vid=e646e481-a4d6-4b85-b84d-3edc06745025","ios":"levelo://app?vid=e646e481-a4d6-4b85-b84d-3edc06745025"},"vehicle_type_id":"4","last_reported":1752329373,"current_range_meters":12800,"station_id":"ce4bh0p2rcd13ifvqd80","pricing_plan_id":"cebpf4jnsgd1na2vs0mg"},{"bike_id":"f814ed79-f1e3-440c-b156-f7a409e5edab","system_id":"levelo_inurba_marseille","lat":43.31082,"lon":5.42426,"is_reserved":false,"is_disabled":false,"rental_uris":{"android":"levelo://app?vid=f814ed79-f1e3-440c-b156-f7a409e5edab","ios":"levelo://app?vid=f814ed79-f1e3-440c-b156-f7a409e5edab"},"vehicle_type_id":"4","last_reported":1752329373,"current_range_meters":13600,"station_id":"ce4bhp92rcd13ifvqhag","pricing_plan_id":"cebpf4jnsgd1na2vs0mg"},{"bike_id":"4d45486c-f881-4f55-a8c2-49a10b22295b","system_id":"levelo_inurba_marseille","lat":43.299,"lon":5.38174,"is_reserved":false,"is_disabled":false,"rental_uris":{"android":"levelo://app?vid=4d45486c-f881-4f55-a8c2-49a10b22295b","ios":"levelo://app?vid=4d45486c-f881-4f55-a8c2-49a10b22295b"},"vehicle_type_id":"4","last_reported":1752329373,"current_range_meters":13600,"station_id":"ce4bgj12rcd13ifvqbc0","pricing_plan_id":"cebpf4jnsgd1na2vs0mg"},{"bike_id":"bd25d36d-6000-4622-8e88-b0180bf34fdd","system_id":"levelo_inurba_marseille","lat":43.28454,"lon":5.34983,"is_reserved":false,"is_disabled":false,"rental_uris":{"android":"levelo://app?vid=bd25d36d-6000-4622-8e88-b0180bf34fdd","ios":"levelo://app?vid=bd25d36d-6000-4622-8e88-b0180bf34fdd"},"vehicle_type_id":"4","last_reported":1752329373,"current_range_meters":13600,"station_id":"ce4bhbh2rcd13ifvqepg","pricing_plan_id":"cebpf4jnsgd1na2vs0mg"},{"bike_id":"0d05e84d-10fa-41da-b241-9cfd8aee4666","system_id":"levelo_inurba_marseille","lat":43.28272,"lon":5.35056,"is_reserved":false,"is_disabled":false,"rental_uris":{"android":"levelo://app?vid=0d05e84d-10fa-41da-b241-9cfd8aee4666","ios":"levelo://app?vid=0d05e84d-10fa-41da-b241-9cfd8aee4666"},"vehicle_type_id":"4","last_reported":1752329373,"current_range_meters":13600,"station_id":"ce4bhbp2rcd13ifvqerg","pricing_plan_id":"cebpf4jnsgd1na2vs0mg"},{"bike_id":"008260af-f96d-46f7-9f16-44b7a7c6d361","system_id":"levelo_inurba_marseille","lat":43.29276,"lon":5.36839,"is_reserved":false,"is_disabled":false,"rental_uris":{"android":"levelo://app?vid=008260af-f96d-46f7-9f16-44b7a7c6d361","ios":"levelo://app?vid=008260af-f96d-46f7-9f16-44b7a7c6d361"},"vehicle_type_id":"4","last_reported":1752329373,"current_range_meters":14000,"station_id":"ce4bhbp2rcd13ifvqesg","pricing_plan_id":"cebpf4jnsgd1na2vs0mg"},{"bike_id":"c816310d-8ff0-4290-b10a-aad431dd902c","system_id":"levelo_inurba_marseille","lat":43.21744,"lon":5.34601,"is_reserved":false,"is_disabled":true,"rental_uris":{"android":"levelo://app?vid=c816310d-8ff0-4290-b10a-aad431dd902c","ios":"levelo://app?vid=c816310d-8ff0-4290-b10a-aad431dd902c"},"vehicle_type_id":"4","last_reported":1752329373,"current_range_meters":14000,"station_id":"","pricing_plan_id":"cebpf4jnsgd1na2vs0mg"},{"bike_id":"ce3b7c35-fd06-4c6c-af57-25b5524398ea","system_id":"levelo_inurba_marseille","lat":43.28265,"lon":5.35068,"is_reserved":false,"is_disabled":false,"rental_uris":{"android":"levelo://app?vid=ce3b7c35-fd06-4c6c-af57-25b5524398ea","ios":"levelo://app?vid=ce3b7c35-fd06-4c6c-af57-25b5524398ea"},"vehicle_type_id":"4","last_reported":1752329373,"current_range_meters":14000,"station_id":"ce4bhbp2rcd13ifvqerg","pricing_plan_id":"cebpf4jnsgd1na2vs0mg"},{"bike_id":"ad3a92a9-aac6-4694-a2f3-20c935fef2b6","system_id":"levelo_inurba_marseille","lat":43.292986,"lon":5.374656,"is_reserved":false,"is_disabled":false,"rental_uris":{"android":"levelo://app?vid=ad3a92a9-aac6-4694-a2f3-20c935fef2b6","ios":"levelo://app?vid=ad3a92a9-aac6-4694-a2f3-20c935fef2b6"},"vehicle_type_id":"4","last_reported":1752329373,"current_range_meters":14000,"station_id":"","pricing_plan_id":"cebpf4jnsgd1na2vs0mg"},{"bike_id":"598d4daf-e8c2-4609-a82b-cf943a5efae4","system_id":"levelo_inurba_marseille","lat":43.22929,"lon":5.35374,"is_reserved":false,"is_disabled":false,"rental_uris":{"android":"levelo://app?vid=598d4daf-e8c2-4609-a82b-cf943a5efae4","ios":"levelo://app?vid=598d4daf-e8c2-4609-a82b-cf943a5efae4"},"vehicle_type_id":"4","last_reported":1752329373,"current_range_meters":14000,"station_id":"cpo3532slgdg3j2ikp40","pricing_plan_id":"cebpf4jnsgd1na2vs0mg"},{"bike_id":"683da432-399d-4390-923e-40f0b7e772b2","system_id":"levelo_inurba_marseille","lat":43.22934,"lon":5.353748,"is_reserved":false,"is_disabled":false,"rental_uris":{"android":"levelo://app?vid=683da432-399d-4390-923e-40f0b7e772b2","ios":"levelo://app?vid=683da432-399d-4390-923e-40f0b7e772b2"},"vehicle_type_id":"4","last_reported":1752329373,"current_range_meters":14400,"station_id":"","pricing_plan_id":"cebpf4jnsgd1na2vs0mg"},{"bike_id":"3b6cadad-2500-4369-9060-8a51be2f8b75","system_id":"levelo_inurba_marseille","lat":43.32064,"lon":5.41515,"is_reserved":false,"is_disabled":false,"rental_uris":{"android":"levelo://app?vid=3b6cadad-2500-4369-9060-8a51be2f8b75","ios":"levelo://app?vid=3b6cadad-2500-4369-9060-8a51be2f8b75"},"vehicle_type_id":"4","last_reported":1752329373,"current_range_meters":14400,"station_id":"ce4bhq92rcd13ifvqhkg","pricing_plan_id":"cebpf4jnsgd1na2vs0mg"},{"bike_id":"fdec3e7e-d085-4a13-8970-b1d817a7e356","system_id":"levelo_inurba_marseille","lat":43.27373,"lon":5.36257,"is_reserved":false,"is_disabled":false,"rental_uris":{"android":"levelo://app?vid=fdec3e7e-d085-4a13-8970-b1d817a7e356","ios":"levelo://app?vid=fdec3e7e-d085-4a13-8970-b1d817a7e356"},"vehicle_type_id":"4","last_reported":1752329373,"current_range_meters":14400,"station_id":"ce4bhbh2rcd13ifvqeo0","pricing_plan_id":"cebpf4jnsgd1na2vs0mg"},{"bike_id":"7bfaacc9-e61a-4d24-93b7-dc3ac8d875f0","system_id":"levelo_inurba_marseille","lat":43.21193,"lon":5.35069,"is_reserved":false,"is_disabled":false,"rental_uris":{"android":"levelo://app?vid=7bfaacc9-e61a-4d24-93b7-dc3ac8d875f0","ios":"levelo://app?vid=7bfaacc9-e61a-4d24-93b7-dc3ac8d875f0"},"vehicle_type_id":"4","last_reported":1752329373,"current_range_meters":14400,"station_id":"st_cvj6sg6p6f1abm77japg","pricing_plan_id":"cebpf4jnsgd1na2vs0mg"},{"bike_id":"0cbb0da1-4092-48c4-93fb-7eba941601b2","system_id":"levelo_inurba_marseille","lat":43.28855,"lon":5.35852,"is_reserved":false,"is_disabled":false,"rental_uris":{"android":"levelo://app?vid=0cbb0da1-4092-48c4-93fb-7eba941601b2","ios":"levelo://app?vid=0cbb0da1-4092-48c4-93fb-7eba941601b2"},"vehicle_type_id":"4","last_reported":1752329373,"current_range_meters":14800,"station_id":"ce4bhb12rcd13ifvqem0","pricing_plan_id":"cebpf4jnsgd1na2vs0mg"},{"bike_id":"7f02047d-a6cd-43f4-a617-996f2b9a8bc8","system_id":"levelo_inurba_marseille","lat":43.3236,"lon":5.36744,"is_reserved":false,"is_disabled":false,"rental_uris":{"android":"levelo://app?vid=7f02047d-a6cd-43f4-a617-996f2b9a8bc8","ios":"levelo://app?vid=7f02047d-a6cd-43f4-a617-996f2b9a8bc8"},"vehicle_type_id":"4","last_reported":1752329373,"current_range_meters":14800,"station_id":"ce4bhsh2rcd13ifvqi2g","pricing_plan_id":"cebpf4jnsgd1na2vs0mg"},{"bike_id":"470d1e9d-8c05-40b8-a6b2-039f183b9f6a","system_id":"levelo_inurba_marseille","lat":43.23188,"lon":5.35579,"is_reserved":false,"is_disabled":true,"rental_uris":{"android":"levelo://app?vid=470d1e9d-8c05-40b8-a6b2-039f183b9f6a","ios":"levelo://app?vid=470d1e9d-8c05-40b8-a6b2-039f183b9f6a"},"vehicle_type_id":"4","last_reported":1752329373,"current_range_meters":14800,"station_id":"ce4bhu92rcd13ifvqi70","pricing_plan_id":"cebpf4jnsgd1na2vs0mg"},{"bike_id":"888bd7d8-4ec5-4282-97cb-63503f2485c0","system_id":"levelo_inurba_marseille","lat":43.308042,"lon":5.381313,"is_reserved":false,"is_disabled":false,"rental_uris":{"android":"levelo://app?vid=888bd7d8-4ec5-4282-97cb-63503f2485c0","ios":"levelo://app?vid=888bd7d8-4ec5-4282-97cb-63503f2485c0"},"vehicle_type_id":"4","last_reported":1752329373,"current_range_meters":15200,"station_id":"ce4bgt12rcd13ifvqce0","pricing_plan_id":"cebpf4jnsgd1na2vs0mg"},{"bike_id":"fef8e4c8-53ff-4414-b4d7-288640f97788","system_id":"levelo_inurba_marseille","lat":43.30426,"lon":5.38892,"is_reserved":false,"is_disabled":false,"rental_uris":{"android":"levelo://app?vid=fef8e4c8-53ff-4414-b4d7-288640f97788","ios":"levelo://app?vid=fef8e4c8-53ff-4414-b4d7-288640f97788"},"vehicle_type_id":"4","last_reported":1752329373,"current_range_meters":14800,"station_id":"ce4bgk12rcd13ifvqbi0","pricing_plan_id":"cebpf4jnsgd1na2vs0mg"},{"bike_id":"4312dfa4-d43e-4e50-8ccb-7af091cc077d","system_id":"levelo_inurba_marseille","lat":43.29195,"lon":5.35799,"is_reserved":false,"is_disabled":false,"rental_uris":{"android":"levelo://app?vid=4312dfa4-d43e-4e50-8ccb-7af091cc077d","ios":"levelo://app?vid=4312dfa4-d43e-4e50-8ccb-7af091cc077d"},"vehicle_type_id":"4","last_reported":1752329373,"current_range_meters":16400,"station_id":"ce4bhb12rcd13ifvqel0","pricing_plan_id":"cebpf4jnsgd1na2vs0mg"},{"bike_id":"d0cb326f-4351-4d6b-bb8c-6a74daa2fad0","system_id":"levelo_inurba_marseille","lat":43.29007,"lon":5.35603,"is_reserved":false,"is_disabled":false,"rental_uris":{"android":"levelo://app?vid=d0cb326f-4351-4d6b-bb8c-6a74daa2fad0","ios":"levelo://app?vid=d0cb326f-4351-4d6b-bb8c-6a74daa2fad0"},"vehicle_type_id":"4","last_reported":1752329373,"current_range_meters":15200,"station_id":"ce4bhb92rcd13ifvqen0","pricing_plan_id":"cebpf4jnsgd1na2vs0mg"},{"bike_id":"c7c4725f-ddab-4a76-b57e-952d7794448c","system_id":"levelo_inurba_marseille","lat":43.22927,"lon":5.3538,"is_reserved":false,"is_disabled":false,"rental_uris":{"android":"levelo://app?vid=c7c4725f-ddab-4a76-b57e-952d7794448c","ios":"levelo://app?vid=c7c4725f-ddab-4a76-b57e-952d7794448c"},"vehicle_type_id":"4","last_reported":1752329373,"current_range_meters":15200,"station_id":"cpo3532slgdg3j2ikp40","pricing_plan_id":"cebpf4jnsgd1na2vs0mg"},{"bike_id":"541e89fd-68e2-45e9-9410-9df72c8f3593","system_id":"levelo_inurba_marseille","lat":43.28263,"lon":5.3507,"is_reserved":false,"is_disabled":false,"rental_uris":{"android":"levelo://app?vid=541e89fd-68e2-45e9-9410-9df72c8f3593","ios":"levelo://app?vid=541e89fd-68e2-45e9-9410-9df72c8f3593"},"vehicle_type_id":"4","last_reported":1752329373,"current_range_meters":16000,"station_id":"ce4bhbp2rcd13ifvqerg","pricing_plan_id":"cebpf4jnsgd1na2vs0mg"},{"bike_id":"27c0a326-266b-49ee-a8e1-471b692a4a9f","system_id":"levelo_inurba_marseille","lat":43.29278,"lon":5.36841,"is_reserved":false,"is_disabled":false,"rental_uris":{"android":"levelo://app?vid=27c0a326-266b-49ee-a8e1-471b692a4a9f","ios":"levelo://app?vid=27c0a326-266b-49ee-a8e1-471b692a4a9f"},"vehicle_type_id":"4","last_reported":1752329373,"current_range_meters":16000,"station_id":"ce4bhbp2rcd13ifvqesg","pricing_plan_id":"cebpf4jnsgd1na2vs0mg"},{"bike_id":"c57b9f1e-4826-4280-ae17-014952b44c5d","system_id":"levelo_inurba_marseille","lat":43.31071,"lon":5.38357,"is_reserved":false,"is_disabled":false,"rental_uris":{"android":"levelo://app?vid=c57b9f1e-4826-4280-ae17-014952b44c5d","ios":"levelo://app?vid=c57b9f1e-4826-4280-ae17-014952b44c5d"},"vehicle_type_id":"4","last_reported":1752329373,"current_range_meters":16000,"station_id":"ce4bgv92rcd13ifvqcr0","pricing_plan_id":"cebpf4jnsgd1na2vs0mg"},{"bike_id":"d81fc32a-e83b-43aa-88f6-45ae21d3a857","system_id":"levelo_inurba_marseille","lat":43.31687,"lon":5.40484,"is_reserved":false,"is_disabled":false,"rental_uris":{"android":"levelo://app?vid=d81fc32a-e83b-43aa-88f6-45ae21d3a857","ios":"levelo://app?vid=d81fc32a-e83b-43aa-88f6-45ae21d3a857"},"vehicle_type_id":"4","last_reported":1752329373,"current_range_meters":16000,"station_id":"ce4bh012rcd13ifvqd00","pricing_plan_id":"cebpf4jnsgd1na2vs0mg"},{"bike_id":"13ae5651-78b6-42f2-867b-703c439fab55","system_id":"levelo_inurba_marseille","lat":43.27376,"lon":5.36252,"is_reserved":false,"is_disabled":false,"rental_uris":{"android":"levelo://app?vid=13ae5651-78b6-42f2-867b-703c439fab55","ios":"levelo://app?vid=13ae5651-78b6-42f2-867b-703c439fab55"},"vehicle_type_id":"4","last_reported":1752329373,"current_range_meters":16000,"station_id":"ce4bhbh2rcd13ifvqeo0","pricing_plan_id":"cebpf4jnsgd1na2vs0mg"},{"bike_id":"d7d851de-d966-47dc-9bd8-1a9ae0c433a4","system_id":"levelo_inurba_marseille","lat":43.225055,"lon":5.347843,"is_reserved":false,"is_disabled":false,"rental_uris":{"android":"levelo://app?vid=d7d851de-d966-47dc-9bd8-1a9ae0c433a4","ios":"levelo://app?vid=d7d851de-d966-47dc-9bd8-1a9ae0c433a4"},"vehicle_type_id":"4","last_reported":1752329373,"current_range_meters":16000,"station_id":"","pricing_plan_id":"cebpf4jnsgd1na2vs0mg"},{"bike_id":"51890362-46b0-4ee7-9f02-afbf036d064e","system_id":"levelo_inurba_marseille","lat":43.21192,"lon":5.35065,"is_reserved":false,"is_disabled":false,"rental_uris":{"android":"levelo://app?vid=51890362-46b0-4ee7-9f02-afbf036d064e","ios":"levelo://app?vid=51890362-46b0-4ee7-9f02-afbf036d064e"},"vehicle_type_id":"4","last_reported":1752329373,"current_range_meters":16000,"station_id":"st_cvj6sg6p6f1abm77japg","pricing_plan_id":"cebpf4jnsgd1na2vs0mg"},{"bike_id":"82ef1451-87a5-4323-9c8b-63a8b3bec973","system_id":"levelo_inurba_marseille","lat":43.23058,"lon":5.3549,"is_reserved":false,"is_disabled":false,"rental_uris":{"android":"levelo://app?vid=82ef1451-87a5-4323-9c8b-63a8b3bec973","ios":"levelo://app?vid=82ef1451-87a5-4323-9c8b-63a8b3bec973"},"vehicle_type_id":"4","last_reported":1752329373,"current_range_meters":9600,"station_id":"cpo3342slgdg3j2ifvpg","pricing_plan_id":"cebpf4jnsgd1na2vs0mg"},{"bike_id":"c6f7dabd-b092-4554-a710-07eb4af96a4c","system_id":"levelo_inurba_marseille","lat":43.21189,"lon":5.3507,"is_reserved":false,"is_disabled":false,"rental_uris":{"android":"levelo://app?vid=c6f7dabd-b092-4554-a710-07eb4af96a4c","ios":"levelo://app?vid=c6f7dabd-b092-4554-a710-07eb4af96a4c"},"vehicle_type_id":"4","last_reported":1752329373,"current_range_meters":16000,"station_id":"st_cvj6sg6p6f1abm77japg","pricing_plan_id":"cebpf4jnsgd1na2vs0mg"},{"bike_id":"d922ebbb-7e87-45c4-852e-2463477ade83","system_id":"levelo_inurba_marseille","lat":43.28931,"lon":5.36636,"is_reserved":false,"is_disabled":false,"rental_uris":{"android":"levelo://app?vid=d922ebbb-7e87-45c4-852e-2463477ade83","ios":"levelo://app?vid=d922ebbb-7e87-45c4-852e-2463477ade83"},"vehicle_type_id":"4","last_reported":1752329373,"current_range_meters":16000,"station_id":"ce4bhap2rcd13ifvqek0","pricing_plan_id":"cebpf4jnsgd1na2vs0mg"},{"bike_id":"737ead6f-e608-42f1-8a55-8949c954e8e3","system_id":"levelo_inurba_marseille","lat":43.21211,"lon":5.35083,"is_reserved":false,"is_disabled":false,"rental_uris":{"android":"levelo://app?vid=737ead6f-e608-42f1-8a55-8949c954e8e3","ios":"levelo://app?vid=737ead6f-e608-42f1-8a55-8949c954e8e3"},"vehicle_type_id":"4","last_reported":1752329373,"current_range_meters":16000,"station_id":"st_cvj6sg6p6f1abm77japg","pricing_plan_id":"cebpf4jnsgd1na2vs0mg"},{"bike_id":"00bc0b3b-e317-4a17-a011-a3a9a29d816a","system_id":"levelo_inurba_marseille","lat":43.21194,"lon":5.35065,"is_reserved":false,"is_disabled":false,"rental_uris":{"android":"levelo://app?vid=00bc0b3b-e317-4a17-a011-a3a9a29d816a","ios":"levelo://app?vid=00bc0b3b-e317-4a17-a011-a3a9a29d816a"},"vehicle_type_id":"4","last_reported":1752329373,"current_range_meters":16400,"station_id":"st_cvj6sg6p6f1abm77japg","pricing_plan_id":"cebpf4jnsgd1na2vs0mg"},{"bike_id":"ee5338dd-18a1-4b48-a5b0-f8c72f7b1319","system_id":"levelo_inurba_marseille","lat":43.31937,"lon":5.36963,"is_reserved":false,"is_disabled":false,"rental_uris":{"android":"levelo://app?vid=ee5338dd-18a1-4b48-a5b0-f8c72f7b1319","ios":"levelo://app?vid=ee5338dd-18a1-4b48-a5b0-f8c72f7b1319"},"vehicle_type_id":"4","last_reported":1752329373,"current_range_meters":16400,"station_id":"","pricing_plan_id":"cebpf4jnsgd1na2vs0mg"},{"bike_id":"b9ef4702-89c4-44ae-835a-ce06e3cf439c","system_id":"levelo_inurba_marseille","lat":43.21756,"lon":5.34595,"is_reserved":false,"is_disabled":false,"rental_uris":{"android":"levelo://app?vid=b9ef4702-89c4-44ae-835a-ce06e3cf439c","ios":"levelo://app?vid=b9ef4702-89c4-44ae-835a-ce06e3cf439c"},"vehicle_type_id":"4","last_reported":1752329373,"current_range_meters":16400,"station_id":"st_cvj6r9ubvosntc0bgbag","pricing_plan_id":"cebpf4jnsgd1na2vs0mg"},{"bike_id":"53b2e3fb-77f4-44bd-9b1f-4c6e207a18dc","system_id":"levelo_inurba_marseille","lat":43.26497,"lon":5.3957,"is_reserved":false,"is_disabled":false,"rental_uris":{"android":"levelo://app?vid=53b2e3fb-77f4-44bd-9b1f-4c6e207a18dc","ios":"levelo://app?vid=53b2e3fb-77f4-44bd-9b1f-4c6e207a18dc"},"vehicle_type_id":"4","last_reported":1752329373,"current_range_meters":16400,"station_id":"ce4bhi12rcd13ifvqfq0","pricing_plan_id":"cebpf4jnsgd1na2vs0mg"},{"bike_id":"5a1aa169-e8de-4c42-8232-f9cf794c57f1","system_id":"levelo_inurba_marseille","lat":43.21181,"lon":5.35078,"is_reserved":false,"is_disabled":false,"rental_uris":{"android":"levelo://app?vid=5a1aa169-e8de-4c42-8232-f9cf794c57f1","ios":"levelo://app?vid=5a1aa169-e8de-4c42-8232-f9cf794c57f1"},"vehicle_type_id":"4","last_reported":1752329373,"current_range_meters":16400,"station_id":"st_cvj6sg6p6f1abm77japg","pricing_plan_id":"cebpf4jnsgd1na2vs0mg"},{"bike_id":"a0137104-c9f4-434a-a5e3-80725cd5a2b4","system_id":"levelo_inurba_marseille","lat":43.21198,"lon":5.35093,"is_reserved":false,"is_disabled":false,"rental_uris":{"android":"levelo://app?vid=a0137104-c9f4-434a-a5e3-80725cd5a2b4","ios":"levelo://app?vid=a0137104-c9f4-434a-a5e3-80725cd5a2b4"},"vehicle_type_id":"4","last_reported":1752329373,"current_range_meters":16400,"station_id":"st_cvj6sg6p6f1abm77japg","pricing_plan_id":"cebpf4jnsgd1na2vs0mg"},{"bike_id":"50d495dc-0af5-4e03-9c45-4bb47663ac45","system_id":"levelo_inurba_marseille","lat":43.24168,"lon":5.36397,"is_reserved":false,"is_disabled":false,"rental_uris":{"android":"levelo://app?vid=50d495dc-0af5-4e03-9c45-4bb47663ac45","ios":"levelo://app?vid=50d495dc-0af5-4e03-9c45-4bb47663ac45"},"vehicle_type_id":"4","last_reported":1752329373,"current_range_meters":16400,"station_id":"cpo36qri1sfpv3e86is0","pricing_plan_id":"cebpf4jnsgd1na2vs0mg"},{"bike_id":"e4aab0d8-19d7-4131-9c0e-f859174575bf","system_id":"levelo_inurba_marseille","lat":43.27259,"lon":5.39104,"is_reserved":false,"is_disabled":false,"rental_uris":{"android":"levelo://app?vid=e4aab0d8-19d7-4131-9c0e-f859174575bf","ios":"levelo://app?vid=e4aab0d8-19d7-4131-9c0e-f859174575bf"},"vehicle_type_id":"4","last_reported":1752329373,"current_range_meters":16800,"station_id":"","pricing_plan_id":"cebpf4jnsgd1na2vs0mg"},{"bike_id":"f14a7374-847b-4cad-aa16-a0ee35449972","system_id":"levelo_inurba_marseille","lat":43.23201,"lon":5.35549,"is_reserved":false,"is_disabled":false,"rental_uris":{"android":"levelo://app?vid=f14a7374-847b-4cad-aa16-a0ee35449972","ios":"levelo://app?vid=f14a7374-847b-4cad-aa16-a0ee35449972"},"vehicle_type_id":"4","last_reported":1752329373,"current_range_meters":16800,"station_id":"ce4bhu92rcd13ifvqi70","pricing_plan_id":"cebpf4jnsgd1na2vs0mg"},{"bike_id":"77274a47-89b3-4855-8a22-3432cfcdc62b","system_id":"levelo_inurba_marseille","lat":43.23208,"lon":5.35578,"is_reserved":false,"is_disabled":false,"rental_uris":{"android":"levelo://app?vid=77274a47-89b3-4855-8a22-3432cfcdc62b","ios":"levelo://app?vid=77274a47-89b3-4855-8a22-3432cfcdc62b"},"vehicle_type_id":"4","last_reported":1752329373,"current_range_meters":16800,"station_id":"ce4bhu92rcd13ifvqi70","pricing_plan_id":"cebpf4jnsgd1na2vs0mg"},{"bike_id":"8b37f03f-f226-4bbc-8648-b109da7ba145","system_id":"levelo_inurba_marseille","lat":43.30536,"lon":5.366999,"is_reserved":false,"is_disabled":false,"rental_uris":{"android":"levelo://app?vid=8b37f03f-f226-4bbc-8648-b109da7ba145","ios":"levelo://app?vid=8b37f03f-f226-4bbc-8648-b109da7ba145"},"vehicle_type_id":"4","last_reported":1752329373,"current_range_meters":16800,"station_id":"","pricing_plan_id":"cebpf4jnsgd1na2vs0mg"},{"bike_id":"49801dc2-618a-44b8-84ae-416cd87fdbe9","system_id":"levelo_inurba_marseille","lat":43.33767,"lon":5.37471,"is_reserved":false,"is_disabled":false,"rental_uris":{"android":"levelo://app?vid=49801dc2-618a-44b8-84ae-416cd87fdbe9","ios":"levelo://app?vid=49801dc2-618a-44b8-84ae-416cd87fdbe9"},"vehicle_type_id":"4","last_reported":1752329373,"current_range_meters":16800,"station_id":"","pricing_plan_id":"cebpf4jnsgd1na2vs0mg"},{"bike_id":"8dbe3bca-0d36-4ba3-b383-910faad02e64","system_id":"levelo_inurba_marseille","lat":43.28479,"lon":5.38552,"is_reserved":false,"is_disabled":false,"rental_uris":{"android":"levelo://app?vid=8dbe3bca-0d36-4ba3-b383-910faad02e64","ios":"levelo://app?vid=8dbe3bca-0d36-4ba3-b383-910faad02e64"},"vehicle_type_id":"4","last_reported":1752329373,"current_range_meters":17200,"station_id":"ce4bh8p2rcd13ifvqeb0","pricing_plan_id":"cebpf4jnsgd1na2vs0mg"},{"bike_id":"00c3a457-0c44-45db-851c-16a76d73040c","system_id":"levelo_inurba_marseille","lat":43.305511,"lon":5.365687,"is_reserved":false,"is_disabled":false,"rental_uris":{"android":"levelo://app?vid=00c3a457-0c44-45db-851c-16a76d73040c","ios":"levelo://app?vid=00c3a457-0c44-45db-851c-16a76d73040c"},"vehicle_type_id":"4","last_reported":1752329373,"current_range_meters":17200,"station_id":"ce4bgs12rcd13ifvqcag","pricing_plan_id":"cebpf4jnsgd1na2vs0mg"},{"bike_id":"3c2d13bd-bc4f-4607-9f64-68fe88da400a","system_id":"levelo_inurba_marseille","lat":43.29557,"lon":5.3751,"is_reserved":false,"is_disabled":false,"rental_uris":{"android":"levelo://app?vid=3c2d13bd-bc4f-4607-9f64-68fe88da400a","ios":"levelo://app?vid=3c2d13bd-bc4f-4607-9f64-68fe88da400a"},"vehicle_type_id":"4","last_reported":1752329373,"current_range_meters":17200,"station_id":"ce4bgh92rcd13ifvqb50","pricing_plan_id":"cebpf4jnsgd1na2vs0mg"},{"bike_id":"57692aae-9841-41ad-bc01-254866eaf8b0","system_id":"levelo_inurba_marseille","lat":43.32325,"lon":5.40608,"is_reserved":false,"is_disabled":false,"rental_uris":{"android":"levelo://app?vid=57692aae-9841-41ad-bc01-254866eaf8b0","ios":"levelo://app?vid=57692aae-9841-41ad-bc01-254866eaf8b0"},"vehicle_type_id":"4","last_reported":1752329373,"current_range_meters":17200,"station_id":"ce4bhq92rcd13ifvqhjg","pricing_plan_id":"cebpf4jnsgd1na2vs0mg"},{"bike_id":"b59e51ca-d910-4846-ae9d-c6b0b3ae1ac3","system_id":"levelo_inurba_marseille","lat":43.28313,"lon":5.35028,"is_reserved":false,"is_disabled":false,"rental_uris":{"android":"levelo://app?vid=b59e51ca-d910-4846-ae9d-c6b0b3ae1ac3","ios":"levelo://app?vid=b59e51ca-d910-4846-ae9d-c6b0b3ae1ac3"},"vehicle_type_id":"4","last_reported":1752329373,"current_range_meters":17200,"station_id":"ce4bhbp2rcd13ifvqerg","pricing_plan_id":"cebpf4jnsgd1na2vs0mg"},{"bike_id":"f23760ff-ab61-4853-aa67-28aac93822c1","system_id":"levelo_inurba_marseille","lat":43.337444,"lon":5.374475,"is_reserved":false,"is_disabled":false,"rental_uris":{"android":"levelo://app?vid=f23760ff-ab61-4853-aa67-28aac93822c1","ios":"levelo://app?vid=f23760ff-ab61-4853-aa67-28aac93822c1"},"vehicle_type_id":"4","last_reported":1752329373,"current_range_meters":17200,"station_id":"","pricing_plan_id":"cebpf4jnsgd1na2vs0mg"},{"bike_id":"956e05cd-dad9-43db-9e0d-64b5ed573262","system_id":"levelo_inurba_marseille","lat":43.28415,"lon":5.34983,"is_reserved":false,"is_disabled":false,"rental_uris":{"android":"levelo://app?vid=956e05cd-dad9-43db-9e0d-64b5ed573262","ios":"levelo://app?vid=956e05cd-dad9-43db-9e0d-64b5ed573262"},"vehicle_type_id":"4","last_reported":1752329373,"current_range_meters":17200,"station_id":"ce4bhbh2rcd13ifvqepg","pricing_plan_id":"cebpf4jnsgd1na2vs0mg"},{"bike_id":"b74832bb-6449-48c5-8077-0bfb2b852778","system_id":"levelo_inurba_marseille","lat":43.28417,"lon":5.34989,"is_reserved":false,"is_disabled":false,"rental_uris":{"android":"levelo://app?vid=b74832bb-6449-48c5-8077-0bfb2b852778","ios":"levelo://app?vid=b74832bb-6449-48c5-8077-0bfb2b852778"},"vehicle_type_id":"4","last_reported":1752329373,"current_range_meters":17600,"station_id":"ce4bhbh2rcd13ifvqepg","pricing_plan_id":"cebpf4jnsgd1na2vs0mg"},{"bike_id":"6d3f299a-d341-49bc-a1f9-7534528d9b67","system_id":"levelo_inurba_marseille","lat":43.23198,"lon":5.35556,"is_reserved":false,"is_disabled":false,"rental_uris":{"android":"levelo://app?vid=6d3f299a-d341-49bc-a1f9-7534528d9b67","ios":"levelo://app?vid=6d3f299a-d341-49bc-a1f9-7534528d9b67"},"vehicle_type_id":"4","last_reported":1752329373,"current_range_meters":17600,"station_id":"ce4bhu92rcd13ifvqi70","pricing_plan_id":"cebpf4jnsgd1na2vs0mg"},{"bike_id":"29d5f9cc-6565-4f4b-99fe-d7cd637fc2f5","system_id":"levelo_inurba_marseille","lat":43.295754,"lon":5.375095,"is_reserved":false,"is_disabled":false,"rental_uris":{"android":"levelo://app?vid=29d5f9cc-6565-4f4b-99fe-d7cd637fc2f5","ios":"levelo://app?vid=29d5f9cc-6565-4f4b-99fe-d7cd637fc2f5"},"vehicle_type_id":"4","last_reported":1752329373,"current_range_meters":17600,"station_id":"ce4bgh92rcd13ifvqb50","pricing_plan_id":"cebpf4jnsgd1na2vs0mg"},{"bike_id":"b371972f-930a-4edc-a2a2-6868be2f7a46","system_id":"levelo_inurba_marseille","lat":43.2119,"lon":5.3507,"is_reserved":false,"is_disabled":false,"rental_uris":{"android":"levelo://app?vid=b371972f-930a-4edc-a2a2-6868be2f7a46","ios":"levelo://app?vid=b371972f-930a-4edc-a2a2-6868be2f7a46"},"vehicle_type_id":"4","last_reported":1752329373,"current_range_meters":17600,"station_id":"st_cvj6sg6p6f1abm77japg","pricing_plan_id":"cebpf4jnsgd1na2vs0mg"},{"bike_id":"844b44b6-4e33-4917-878d-a3c647561239","system_id":"levelo_inurba_marseille","lat":43.3073,"lon":5.42454,"is_reserved":false,"is_disabled":false,"rental_uris":{"android":"levelo://app?vid=844b44b6-4e33-4917-878d-a3c647561239","ios":"levelo://app?vid=844b44b6-4e33-4917-878d-a3c647561239"},"vehicle_type_id":"4","last_reported":1752329373,"current_range_meters":17600,"station_id":"st_cvj6ca6bvosntc0bfgr0","pricing_plan_id":"cebpf4jnsgd1na2vs0mg"},{"bike_id":"4b8da722-ee9e-48a4-a5e5-3a8a10364708","system_id":"levelo_inurba_marseille","lat":43.31255,"lon":5.37806,"is_reserved":false,"is_disabled":false,"rental_uris":{"android":"levelo://app?vid=4b8da722-ee9e-48a4-a5e5-3a8a10364708","ios":"levelo://app?vid=4b8da722-ee9e-48a4-a5e5-3a8a10364708"},"vehicle_type_id":"4","last_reported":1752329373,"current_range_meters":17600,"station_id":"","pricing_plan_id":"cebpf4jnsgd1na2vs0mg"},{"bike_id":"a359fde9-c657-4b6f-a8ee-1b7f85aa6c3f","system_id":"levelo_inurba_marseille","lat":43.29566,"lon":5.37519,"is_reserved":false,"is_disabled":false,"rental_uris":{"android":"levelo://app?vid=a359fde9-c657-4b6f-a8ee-1b7f85aa6c3f","ios":"levelo://app?vid=a359fde9-c657-4b6f-a8ee-1b7f85aa6c3f"},"vehicle_type_id":"4","last_reported":1752329373,"current_range_meters":17600,"station_id":"ce4bgh92rcd13ifvqb50","pricing_plan_id":"cebpf4jnsgd1na2vs0mg"},{"bike_id":"6f1703f7-b636-490d-ba5a-d529b127fe6f","system_id":"levelo_inurba_marseille","lat":43.22928,"lon":5.35374,"is_reserved":false,"is_disabled":false,"rental_uris":{"android":"levelo://app?vid=6f1703f7-b636-490d-ba5a-d529b127fe6f","ios":"levelo://app?vid=6f1703f7-b636-490d-ba5a-d529b127fe6f"},"vehicle_type_id":"4","last_reported":1752329373,"current_range_meters":17600,"station_id":"","pricing_plan_id":"cebpf4jnsgd1na2vs0mg"},{"bike_id":"f4179734-f415-410b-9333-c037476dedfa","system_id":"levelo_inurba_marseille","lat":43.24075,"lon":5.37748,"is_reserved":false,"is_disabled":false,"rental_uris":{"android":"levelo://app?vid=f4179734-f415-410b-9333-c037476dedfa","ios":"levelo://app?vid=f4179734-f415-410b-9333-c037476dedfa"},"vehicle_type_id":"4","last_reported":1752329373,"current_range_meters":17600,"station_id":"ce4bhnp2rcd13ifvqgvg","pricing_plan_id":"cebpf4jnsgd1na2vs0mg"},{"bike_id":"a71b38fa-618c-4719-85dc-c82feed16bf0","system_id":"levelo_inurba_marseille","lat":43.29973,"lon":5.413,"is_reserved":false,"is_disabled":false,"rental_uris":{"android":"levelo://app?vid=a71b38fa-618c-4719-85dc-c82feed16bf0","ios":"levelo://app?vid=a71b38fa-618c-4719-85dc-c82feed16bf0"},"vehicle_type_id":"4","last_reported":1752329373,"current_range_meters":17600,"station_id":"ce4bhp12rcd13ifvqh9g","pricing_plan_id":"cebpf4jnsgd1na2vs0mg"},{"bike_id":"9a365032-6e8c-4dfd-9ee8-be99a9554287","system_id":"levelo_inurba_marseille","lat":43.3014,"lon":5.38065,"is_reserved":false,"is_disabled":false,"rental_uris":{"android":"levelo://app?vid=9a365032-6e8c-4dfd-9ee8-be99a9554287","ios":"levelo://app?vid=9a365032-6e8c-4dfd-9ee8-be99a9554287"},"vehicle_type_id":"4","last_reported":1752329373,"current_range_meters":17200,"station_id":"ce4bgjp2rcd13ifvqbh0","pricing_plan_id":"cebpf4jnsgd1na2vs0mg"},{"bike_id":"b4cfca4d-74bf-4746-9ca9-6835f5b26f77","system_id":"levelo_inurba_marseille","lat":43.26947,"lon":5.4025,"is_reserved":false,"is_disabled":false,"rental_uris":{"android":"levelo://app?vid=b4cfca4d-74bf-4746-9ca9-6835f5b26f77","ios":"levelo://app?vid=b4cfca4d-74bf-4746-9ca9-6835f5b26f77"},"vehicle_type_id":"4","last_reported":1752329373,"current_range_meters":18000,"station_id":"cjm6bp8fraef2m0cb0m0","pricing_plan_id":"cebpf4jnsgd1na2vs0mg"},{"bike_id":"5636a512-4b1a-43b3-b350-ba5761f6e3e0","system_id":"levelo_inurba_marseille","lat":43.27373,"lon":5.36259,"is_reserved":false,"is_disabled":false,"rental_uris":{"android":"levelo://app?vid=5636a512-4b1a-43b3-b350-ba5761f6e3e0","ios":"levelo://app?vid=5636a512-4b1a-43b3-b350-ba5761f6e3e0"},"vehicle_type_id":"4","last_reported":1752329373,"current_range_meters":17600,"station_id":"ce4bhbh2rcd13ifvqeo0","pricing_plan_id":"cebpf4jnsgd1na2vs0mg"},{"bike_id":"15400d2b-98bf-4307-8414-9f0eea0965c3","system_id":"levelo_inurba_marseille","lat":43.28832,"lon":5.35857,"is_reserved":false,"is_disabled":false,"rental_uris":{"android":"levelo://app?vid=15400d2b-98bf-4307-8414-9f0eea0965c3","ios":"levelo://app?vid=15400d2b-98bf-4307-8414-9f0eea0965c3"},"vehicle_type_id":"4","last_reported":1752329373,"current_range_meters":18000,"station_id":"ce4bhb12rcd13ifvqem0","pricing_plan_id":"cebpf4jnsgd1na2vs0mg"},{"bike_id":"6929fb00-76b7-4628-94e6-66764dec48b6","system_id":"levelo_inurba_marseille","lat":43.2841,"lon":5.34979,"is_reserved":false,"is_disabled":false,"rental_uris":{"android":"levelo://app?vid=6929fb00-76b7-4628-94e6-66764dec48b6","ios":"levelo://app?vid=6929fb00-76b7-4628-94e6-66764dec48b6"},"vehicle_type_id":"4","last_reported":1752329373,"current_range_meters":18000,"station_id":"ce4bhbh2rcd13ifvqepg","pricing_plan_id":"cebpf4jnsgd1na2vs0mg"},{"bike_id":"723b8cbf-666d-4de0-9c62-a4f8d6d83130","system_id":"levelo_inurba_marseille","lat":43.29265,"lon":5.38438,"is_reserved":false,"is_disabled":false,"rental_uris":{"android":"levelo://app?vid=723b8cbf-666d-4de0-9c62-a4f8d6d83130","ios":"levelo://app?vid=723b8cbf-666d-4de0-9c62-a4f8d6d83130"},"vehicle_type_id":"4","last_reported":1752329373,"current_range_meters":18000,"station_id":"ce4bh692rcd13ifvqea0","pricing_plan_id":"cebpf4jnsgd1na2vs0mg"},{"bike_id":"f36bad63-c225-4f59-878f-028d7059b783","system_id":"levelo_inurba_marseille","lat":43.28277,"lon":5.35073,"is_reserved":false,"is_disabled":false,"rental_uris":{"android":"levelo://app?vid=f36bad63-c225-4f59-878f-028d7059b783","ios":"levelo://app?vid=f36bad63-c225-4f59-878f-028d7059b783"},"vehicle_type_id":"4","last_reported":1752329373,"current_range_meters":18000,"station_id":"ce4bhbp2rcd13ifvqerg","pricing_plan_id":"cebpf4jnsgd1na2vs0mg"},{"bike_id":"e0df13f3-1542-433d-a502-cf1a4ebd8d3c","system_id":"levelo_inurba_marseille","lat":43.2841,"lon":5.3498,"is_reserved":false,"is_disabled":false,"rental_uris":{"android":"levelo://app?vid=e0df13f3-1542-433d-a502-cf1a4ebd8d3c","ios":"levelo://app?vid=e0df13f3-1542-433d-a502-cf1a4ebd8d3c"},"vehicle_type_id":"4","last_reported":1752329373,"current_range_meters":18000,"station_id":"ce4bhbh2rcd13ifvqepg","pricing_plan_id":"cebpf4jnsgd1na2vs0mg"},{"bike_id":"a258dc86-7c84-4445-ad0e-265b9f56cb91","system_id":"levelo_inurba_marseille","lat":43.29546,"lon":5.42287,"is_reserved":false,"is_disabled":false,"rental_uris":{"android":"levelo://app?vid=a258dc86-7c84-4445-ad0e-265b9f56cb91","ios":"levelo://app?vid=a258dc86-7c84-4445-ad0e-265b9f56cb91"},"vehicle_type_id":"4","last_reported":1752329373,"current_range_meters":18000,"station_id":"ce4bhph2rcd13ifvqhdg","pricing_plan_id":"cebpf4jnsgd1na2vs0mg"},{"bike_id":"87a29a10-e21a-403e-bb77-6802fb182693","system_id":"levelo_inurba_marseille","lat":43.29003,"lon":5.35614,"is_reserved":false,"is_disabled":false,"rental_uris":{"android":"levelo://app?vid=87a29a10-e21a-403e-bb77-6802fb182693","ios":"levelo://app?vid=87a29a10-e21a-403e-bb77-6802fb182693"},"vehicle_type_id":"4","last_reported":1752329373,"current_range_meters":18000,"station_id":"ce4bhb92rcd13ifvqen0","pricing_plan_id":"cebpf4jnsgd1na2vs0mg"},{"bike_id":"94ee9bc1-a935-4f1b-959f-339ac3424214","system_id":"levelo_inurba_marseille","lat":43.27372,"lon":5.36258,"is_reserved":false,"is_disabled":false,"rental_uris":{"android":"levelo://app?vid=94ee9bc1-a935-4f1b-959f-339ac3424214","ios":"levelo://app?vid=94ee9bc1-a935-4f1b-959f-339ac3424214"},"vehicle_type_id":"4","last_reported":1752329373,"current_range_meters":18000,"station_id":"ce4bhbh2rcd13ifvqeo0","pricing_plan_id":"cebpf4jnsgd1na2vs0mg"},{"bike_id":"b278939f-a65d-4eba-91fb-5029f6a78250","system_id":"levelo_inurba_marseille","lat":43.2991,"lon":5.38148,"is_reserved":false,"is_disabled":false,"rental_uris":{"android":"levelo://app?vid=b278939f-a65d-4eba-91fb-5029f6a78250","ios":"levelo://app?vid=b278939f-a65d-4eba-91fb-5029f6a78250"},"vehicle_type_id":"4","last_reported":1752329373,"current_range_meters":18000,"station_id":"ce4bgj12rcd13ifvqbc0","pricing_plan_id":"cebpf4jnsgd1na2vs0mg"},{"bike_id":"5eeb1936-b3ee-43e1-a65b-7174c355dd3a","system_id":"levelo_inurba_marseille","lat":43.29004,"lon":5.35611,"is_reserved":false,"is_disabled":false,"rental_uris":{"android":"levelo://app?vid=5eeb1936-b3ee-43e1-a65b-7174c355dd3a","ios":"levelo://app?vid=5eeb1936-b3ee-43e1-a65b-7174c355dd3a"},"vehicle_type_id":"4","last_reported":1752329373,"current_range_meters":18800,"station_id":"ce4bhb92rcd13ifvqen0","pricing_plan_id":"cebpf4jnsgd1na2vs0mg"},{"bike_id":"f9924005-c8ac-4086-8e25-9a21391f65ea","system_id":"levelo_inurba_marseille","lat":43.2119,"lon":5.35079,"is_reserved":false,"is_disabled":false,"rental_uris":{"android":"levelo://app?vid=f9924005-c8ac-4086-8e25-9a21391f65ea","ios":"levelo://app?vid=f9924005-c8ac-4086-8e25-9a21391f65ea"},"vehicle_type_id":"4","last_reported":1752329373,"current_range_meters":18800,"station_id":"st_cvj6sg6p6f1abm77japg","pricing_plan_id":"cebpf4jnsgd1na2vs0mg"},{"bike_id":"5af35bc3-c835-45dc-8089-0d78e9c38b02","system_id":"levelo_inurba_marseille","lat":43.279,"lon":5.38018,"is_reserved":false,"is_disabled":false,"rental_uris":{"android":"levelo://app?vid=5af35bc3-c835-45dc-8089-0d78e9c38b02","ios":"levelo://app?vid=5af35bc3-c835-45dc-8089-0d78e9c38b02"},"vehicle_type_id":"4","last_reported":1752329373,"current_range_meters":18800,"station_id":"ce4bhf92rcd13ifvqf50","pricing_plan_id":"cebpf4jnsgd1na2vs0mg"},{"bike_id":"2afd10ce-5f23-4122-9c7a-a3416be941b2","system_id":"levelo_inurba_marseille","lat":43.26031,"lon":5.37551,"is_reserved":false,"is_disabled":true,"rental_uris":{"android":"levelo://app?vid=2afd10ce-5f23-4122-9c7a-a3416be941b2","ios":"levelo://app?vid=2afd10ce-5f23-4122-9c7a-a3416be941b2"},"vehicle_type_id":"4","last_reported":1752329373,"current_range_meters":18800,"station_id":"ce4bhgh2rcd13ifvqfa0","pricing_plan_id":"cebpf4jnsgd1na2vs0mg"},{"bike_id":"1439409e-fcaa-42de-8e6b-6f5d9ec4abcb","system_id":"levelo_inurba_marseille","lat":43.27374,"lon":5.36259,"is_reserved":false,"is_disabled":false,"rental_uris":{"android":"levelo://app?vid=1439409e-fcaa-42de-8e6b-6f5d9ec4abcb","ios":"levelo://app?vid=1439409e-fcaa-42de-8e6b-6f5d9ec4abcb"},"vehicle_type_id":"4","last_reported":1752329373,"current_range_meters":18800,"station_id":"ce4bhbh2rcd13ifvqeo0","pricing_plan_id":"cebpf4jnsgd1na2vs0mg"},{"bike_id":"66bc7fe6-c3da-43c0-afe1-a6bdaf2c5a79","system_id":"levelo_inurba_marseille","lat":43.21176,"lon":5.35065,"is_reserved":false,"is_disabled":false,"rental_uris":{"android":"levelo://app?vid=66bc7fe6-c3da-43c0-afe1-a6bdaf2c5a79","ios":"levelo://app?vid=66bc7fe6-c3da-43c0-afe1-a6bdaf2c5a79"},"vehicle_type_id":"4","last_reported":1752329373,"current_range_meters":18800,"station_id":"st_cvj6sg6p6f1abm77japg","pricing_plan_id":"cebpf4jnsgd1na2vs0mg"},{"bike_id":"6b24281b-8627-4cc6-8164-9baa9ceda8d0","system_id":"levelo_inurba_marseille","lat":43.2842,"lon":5.34997,"is_reserved":false,"is_disabled":false,"rental_uris":{"android":"levelo://app?vid=6b24281b-8627-4cc6-8164-9baa9ceda8d0","ios":"levelo://app?vid=6b24281b-8627-4cc6-8164-9baa9ceda8d0"},"vehicle_type_id":"4","last_reported":1752329373,"current_range_meters":18800,"station_id":"ce4bhbh2rcd13ifvqepg","pricing_plan_id":"cebpf4jnsgd1na2vs0mg"},{"bike_id":"71ffafe8-ba4f-4329-9795-1b18b71c34dd","system_id":"levelo_inurba_marseille","lat":43.297811,"lon":5.371068,"is_reserved":false,"is_disabled":false,"rental_uris":{"android":"levelo://app?vid=71ffafe8-ba4f-4329-9795-1b18b71c34dd","ios":"levelo://app?vid=71ffafe8-ba4f-4329-9795-1b18b71c34dd"},"vehicle_type_id":"4","last_reported":1752329373,"current_range_meters":19200,"station_id":"ce4bgop2rcd13ifvqc1g","pricing_plan_id":"cebpf4jnsgd1na2vs0mg"},{"bike_id":"8bc65b40-0f7a-4db0-bab7-834d249697b6","system_id":"levelo_inurba_marseille","lat":43.28432,"lon":5.34995,"is_reserved":false,"is_disabled":false,"rental_uris":{"android":"levelo://app?vid=8bc65b40-0f7a-4db0-bab7-834d249697b6","ios":"levelo://app?vid=8bc65b40-0f7a-4db0-bab7-834d249697b6"},"vehicle_type_id":"4","last_reported":1752329373,"current_range_meters":19200,"station_id":"ce4bhbh2rcd13ifvqepg","pricing_plan_id":"cebpf4jnsgd1na2vs0mg"},{"bike_id":"2789363d-6c32-4f54-a6f0-e032059a9c8e","system_id":"levelo_inurba_marseille","lat":43.24387,"lon":5.3707,"is_reserved":false,"is_disabled":false,"rental_uris":{"android":"levelo://app?vid=2789363d-6c32-4f54-a6f0-e032059a9c8e","ios":"levelo://app?vid=2789363d-6c32-4f54-a6f0-e032059a9c8e"},"vehicle_type_id":"4","last_reported":1752329373,"current_range_meters":19200,"station_id":"ce4bhhh2rcd13ifvqfk0","pricing_plan_id":"cebpf4jnsgd1na2vs0mg"},{"bike_id":"721dce98-2ade-4557-b546-fe3d73ddb491","system_id":"levelo_inurba_marseille","lat":43.30298,"lon":5.39217,"is_reserved":false,"is_disabled":false,"rental_uris":{"android":"levelo://app?vid=721dce98-2ade-4557-b546-fe3d73ddb491","ios":"levelo://app?vid=721dce98-2ade-4557-b546-fe3d73ddb491"},"vehicle_type_id":"4","last_reported":1752329373,"current_range_meters":19200,"station_id":"ce4bgkh2rcd13ifvqbk0","pricing_plan_id":"cebpf4jnsgd1na2vs0mg"},{"bike_id":"d192eb85-30c6-4e26-a441-a2601c0d72ec","system_id":"levelo_inurba_marseille","lat":43.21183,"lon":5.35066,"is_reserved":false,"is_disabled":false,"rental_uris":{"android":"levelo://app?vid=d192eb85-30c6-4e26-a441-a2601c0d72ec","ios":"levelo://app?vid=d192eb85-30c6-4e26-a441-a2601c0d72ec"},"vehicle_type_id":"4","last_reported":1752329373,"current_range_meters":19200,"station_id":"st_cvj6sg6p6f1abm77japg","pricing_plan_id":"cebpf4jnsgd1na2vs0mg"},{"bike_id":"18530e59-6a86-4f2b-8228-4105493be3ef","system_id":"levelo_inurba_marseille","lat":43.24164,"lon":5.36393,"is_reserved":false,"is_disabled":false,"rental_uris":{"android":"levelo://app?vid=18530e59-6a86-4f2b-8228-4105493be3ef","ios":"levelo://app?vid=18530e59-6a86-4f2b-8228-4105493be3ef"},"vehicle_type_id":"4","last_reported":1752329373,"current_range_meters":19200,"station_id":"cpo36qri1sfpv3e86is0","pricing_plan_id":"cebpf4jnsgd1na2vs0mg"},{"bike_id":"7aba66d5-779a-4e30-b504-8ac9307c9ee8","system_id":"levelo_inurba_marseille","lat":43.24169,"lon":5.3639,"is_reserved":false,"is_disabled":false,"rental_uris":{"android":"levelo://app?vid=7aba66d5-779a-4e30-b504-8ac9307c9ee8","ios":"levelo://app?vid=7aba66d5-779a-4e30-b504-8ac9307c9ee8"},"vehicle_type_id":"4","last_reported":1752329373,"current_range_meters":19200,"station_id":"cpo36qri1sfpv3e86is0","pricing_plan_id":"cebpf4jnsgd1na2vs0mg"},{"bike_id":"c1d0629c-eaee-41e7-8c10-68b0ec1b077d","system_id":"levelo_inurba_marseille","lat":43.32972,"lon":5.388882,"is_reserved":false,"is_disabled":false,"rental_uris":{"android":"levelo://app?vid=c1d0629c-eaee-41e7-8c10-68b0ec1b077d","ios":"levelo://app?vid=c1d0629c-eaee-41e7-8c10-68b0ec1b077d"},"vehicle_type_id":"4","last_reported":1752329373,"current_range_meters":19200,"station_id":"ce4bhr92rcd13ifvqhrg","pricing_plan_id":"cebpf4jnsgd1na2vs0mg"},{"bike_id":"dabed5de-2768-4311-92bf-863ef8f1ccdc","system_id":"levelo_inurba_marseille","lat":43.29001,"lon":5.35606,"is_reserved":false,"is_disabled":false,"rental_uris":{"android":"levelo://app?vid=dabed5de-2768-4311-92bf-863ef8f1ccdc","ios":"levelo://app?vid=dabed5de-2768-4311-92bf-863ef8f1ccdc"},"vehicle_type_id":"4","last_reported":1752329373,"current_range_meters":19600,"station_id":"ce4bhb92rcd13ifvqen0","pricing_plan_id":"cebpf4jnsgd1na2vs0mg"},{"bike_id":"9b40dc73-509b-4d2f-8a27-44696719b175","system_id":"levelo_inurba_marseille","lat":43.27083,"lon":5.42271,"is_reserved":false,"is_disabled":false,"rental_uris":{"android":"levelo://app?vid=9b40dc73-509b-4d2f-8a27-44696719b175","ios":"levelo://app?vid=9b40dc73-509b-4d2f-8a27-44696719b175"},"vehicle_type_id":"4","last_reported":1752329373,"current_range_meters":19600,"station_id":"ce4bhk92rcd13ifvqgb0","pricing_plan_id":"cebpf4jnsgd1na2vs0mg"},{"bike_id":"6db2d44d-c7ca-41ac-b814-ccca58d47fae","system_id":"levelo_inurba_marseille","lat":43.26219,"lon":5.37433,"is_reserved":false,"is_disabled":false,"rental_uris":{"android":"levelo://app?vid=6db2d44d-c7ca-41ac-b814-ccca58d47fae","ios":"levelo://app?vid=6db2d44d-c7ca-41ac-b814-ccca58d47fae"},"vehicle_type_id":"4","last_reported":1752329373,"current_range_meters":19600,"station_id":"ce4bhgp2rcd13ifvqfc0","pricing_plan_id":"cebpf4jnsgd1na2vs0mg"},{"bike_id":"49d09cfe-62f3-4b30-9987-787552257af2","system_id":"levelo_inurba_marseille","lat":43.29009,"lon":5.35613,"is_reserved":false,"is_disabled":false,"rental_uris":{"android":"levelo://app?vid=49d09cfe-62f3-4b30-9987-787552257af2","ios":"levelo://app?vid=49d09cfe-62f3-4b30-9987-787552257af2"},"vehicle_type_id":"4","last_reported":1752329373,"current_range_meters":19600,"station_id":"ce4bhb92rcd13ifvqen0","pricing_plan_id":"cebpf4jnsgd1na2vs0mg"},{"bike_id":"1bb8b64b-acb3-47b2-a2d0-7bb1f16f4b16","system_id":"levelo_inurba_marseille","lat":43.24078,"lon":5.37758,"is_reserved":false,"is_disabled":false,"rental_uris":{"android":"levelo://app?vid=1bb8b64b-acb3-47b2-a2d0-7bb1f16f4b16","ios":"levelo://app?vid=1bb8b64b-acb3-47b2-a2d0-7bb1f16f4b16"},"vehicle_type_id":"4","last_reported":1752329373,"current_range_meters":19600,"station_id":"ce4bhnp2rcd13ifvqgvg","pricing_plan_id":"cebpf4jnsgd1na2vs0mg"},{"bike_id":"e8330d91-a41f-4c35-90b7-b98230320673","system_id":"levelo_inurba_marseille","lat":43.2407,"lon":5.37761,"is_reserved":false,"is_disabled":false,"rental_uris":{"android":"levelo://app?vid=e8330d91-a41f-4c35-90b7-b98230320673","ios":"levelo://app?vid=e8330d91-a41f-4c35-90b7-b98230320673"},"vehicle_type_id":"4","last_reported":1752329373,"current_range_meters":19600,"station_id":"ce4bhnp2rcd13ifvqgvg","pricing_plan_id":"cebpf4jnsgd1na2vs0mg"},{"bike_id":"6f36ff35-0f3f-4da5-9e4a-cbb6fb1b1773","system_id":"levelo_inurba_marseille","lat":43.325443,"lon":5.414273,"is_reserved":false,"is_disabled":false,"rental_uris":{"android":"levelo://app?vid=6f36ff35-0f3f-4da5-9e4a-cbb6fb1b1773","ios":"levelo://app?vid=6f36ff35-0f3f-4da5-9e4a-cbb6fb1b1773"},"vehicle_type_id":"4","last_reported":1752329373,"current_range_meters":19200,"station_id":"ce4bhq12rcd13ifvqhhg","pricing_plan_id":"cebpf4jnsgd1na2vs0mg"},{"bike_id":"c59a5657-c778-4e50-a26e-c53133a8082a","system_id":"levelo_inurba_marseille","lat":43.30125,"lon":5.38788,"is_reserved":false,"is_disabled":false,"rental_uris":{"android":"levelo://app?vid=c59a5657-c778-4e50-a26e-c53133a8082a","ios":"levelo://app?vid=c59a5657-c778-4e50-a26e-c53133a8082a"},"vehicle_type_id":"4","last_reported":1752329373,"current_range_meters":19600,"station_id":"ce4bghh2rcd13ifvqb60","pricing_plan_id":"cebpf4jnsgd1na2vs0mg"},{"bike_id":"02c71304-9c4f-4ebf-b265-2eb94afb5a95","system_id":"levelo_inurba_marseille","lat":43.30932,"lon":5.36832,"is_reserved":false,"is_disabled":false,"rental_uris":{"android":"levelo://app?vid=02c71304-9c4f-4ebf-b265-2eb94afb5a95","ios":"levelo://app?vid=02c71304-9c4f-4ebf-b265-2eb94afb5a95"},"vehicle_type_id":"4","last_reported":1752329373,"current_range_meters":20000,"station_id":"","pricing_plan_id":"cebpf4jnsgd1na2vs0mg"},{"bike_id":"638f4187-5849-4ae6-a57e-06ea400f261e","system_id":"levelo_inurba_marseille","lat":43.281596,"lon":5.378768,"is_reserved":false,"is_disabled":false,"rental_uris":{"android":"levelo://app?vid=638f4187-5849-4ae6-a57e-06ea400f261e","ios":"levelo://app?vid=638f4187-5849-4ae6-a57e-06ea400f261e"},"vehicle_type_id":"4","last_reported":1752329373,"current_range_meters":20000,"station_id":"ce4bha12rcd13ifvqee0","pricing_plan_id":"cebpf4jnsgd1na2vs0mg"},{"bike_id":"a98855e7-4d3f-46da-b3e4-61acc9992e87","system_id":"levelo_inurba_marseille","lat":43.2952,"lon":5.375,"is_reserved":false,"is_disabled":false,"rental_uris":{"android":"levelo://app?vid=a98855e7-4d3f-46da-b3e4-61acc9992e87","ios":"levelo://app?vid=a98855e7-4d3f-46da-b3e4-61acc9992e87"},"vehicle_type_id":"4","last_reported":1752329373,"current_range_meters":20000,"station_id":"ce4bgkp2rcd13ifvqbmg","pricing_plan_id":"cebpf4jnsgd1na2vs0mg"},{"bike_id":"e58f42df-6bdf-45cc-8c40-049c2b84164d","system_id":"levelo_inurba_marseille","lat":43.246515,"lon":5.38903,"is_reserved":false,"is_disabled":false,"rental_uris":{"android":"levelo://app?vid=e58f42df-6bdf-45cc-8c40-049c2b84164d","ios":"levelo://app?vid=e58f42df-6bdf-45cc-8c40-049c2b84164d"},"vehicle_type_id":"4","last_reported":1752329373,"current_range_meters":20400,"station_id":"ce4bhg12rcd13ifvqf60","pricing_plan_id":"cebpf4jnsgd1na2vs0mg"},{"bike_id":"6813b0ed-6627-44ad-8b67-222fac6b2135","system_id":"levelo_inurba_marseille","lat":43.29285,"lon":5.40115,"is_reserved":false,"is_disabled":false,"rental_uris":{"android":"levelo://app?vid=6813b0ed-6627-44ad-8b67-222fac6b2135","ios":"levelo://app?vid=6813b0ed-6627-44ad-8b67-222fac6b2135"},"vehicle_type_id":"4","last_reported":1752329373,"current_range_meters":20000,"station_id":"ce4bh312rcd13ifvqdk0","pricing_plan_id":"cebpf4jnsgd1na2vs0mg"},{"bike_id":"579c9257-e9d2-4fed-8af3-001a27548604","system_id":"levelo_inurba_marseille","lat":43.21706,"lon":5.34581,"is_reserved":false,"is_disabled":false,"rental_uris":{"android":"levelo://app?vid=579c9257-e9d2-4fed-8af3-001a27548604","ios":"levelo://app?vid=579c9257-e9d2-4fed-8af3-001a27548604"},"vehicle_type_id":"4","last_reported":1752329373,"current_range_meters":20400,"station_id":"st_cvj6r9ubvosntc0bgbag","pricing_plan_id":"cebpf4jnsgd1na2vs0mg"},{"bike_id":"75911cb5-7347-464f-8169-57e8abe5abfc","system_id":"levelo_inurba_marseille","lat":43.28725,"lon":5.36067,"is_reserved":false,"is_disabled":false,"rental_uris":{"android":"levelo://app?vid=75911cb5-7347-464f-8169-57e8abe5abfc","ios":"levelo://app?vid=75911cb5-7347-464f-8169-57e8abe5abfc"},"vehicle_type_id":"4","last_reported":1752329373,"current_range_meters":20400,"station_id":"cki0cbj6b192h4jlfktg","pricing_plan_id":"cebpf4jnsgd1na2vs0mg"},{"bike_id":"92ec4371-d4e6-4c2e-a1ed-ae4e37903998","system_id":"levelo_inurba_marseille","lat":43.25109,"lon":5.40358,"is_reserved":false,"is_disabled":false,"rental_uris":{"android":"levelo://app?vid=92ec4371-d4e6-4c2e-a1ed-ae4e37903998","ios":"levelo://app?vid=92ec4371-d4e6-4c2e-a1ed-ae4e37903998"},"vehicle_type_id":"4","last_reported":1752329373,"current_range_meters":22000,"station_id":"ce4bhlh2rcd13ifvqgig","pricing_plan_id":"cebpf4jnsgd1na2vs0mg"},{"bike_id":"30a3ce8e-05f3-4ce9-b8dc-579dc27776c5","system_id":"levelo_inurba_marseille","lat":43.297039,"lon":5.365962,"is_reserved":false,"is_disabled":false,"rental_uris":{"android":"levelo://app?vid=30a3ce8e-05f3-4ce9-b8dc-579dc27776c5","ios":"levelo://app?vid=30a3ce8e-05f3-4ce9-b8dc-579dc27776c5"},"vehicle_type_id":"4","last_reported":1752329373,"current_range_meters":20800,"station_id":"ce4bhg92rcd13ifvqf90","pricing_plan_id":"cebpf4jnsgd1na2vs0mg"},{"bike_id":"6987bbc8-07ee-4368-b3d4-ca0bbe39a7fe","system_id":"levelo_inurba_marseille","lat":43.29069,"lon":5.37165,"is_reserved":false,"is_disabled":false,"rental_uris":{"android":"levelo://app?vid=6987bbc8-07ee-4368-b3d4-ca0bbe39a7fe","ios":"levelo://app?vid=6987bbc8-07ee-4368-b3d4-ca0bbe39a7fe"},"vehicle_type_id":"4","last_reported":1752329373,"current_range_meters":20400,"station_id":"ce4bh5p2rcd13ifvqe4g","pricing_plan_id":"cebpf4jnsgd1na2vs0mg"},{"bike_id":"3647b369-1517-4aa7-a561-1837ba3ae7b4","system_id":"levelo_inurba_marseille","lat":43.232005,"lon":5.355567,"is_reserved":false,"is_disabled":false,"rental_uris":{"android":"levelo://app?vid=3647b369-1517-4aa7-a561-1837ba3ae7b4","ios":"levelo://app?vid=3647b369-1517-4aa7-a561-1837ba3ae7b4"},"vehicle_type_id":"4","last_reported":1752329373,"current_range_meters":20800,"station_id":"ce4bhu92rcd13ifvqi70","pricing_plan_id":"cebpf4jnsgd1na2vs0mg"},{"bike_id":"288104cf-663d-4e87-93e6-2036db2f1fd3","system_id":"levelo_inurba_marseille","lat":43.29008,"lon":5.35617,"is_reserved":false,"is_disabled":false,"rental_uris":{"android":"levelo://app?vid=288104cf-663d-4e87-93e6-2036db2f1fd3","ios":"levelo://app?vid=288104cf-663d-4e87-93e6-2036db2f1fd3"},"vehicle_type_id":"4","last_reported":1752329373,"current_range_meters":20800,"station_id":"ce4bhb92rcd13ifvqen0","pricing_plan_id":"cebpf4jnsgd1na2vs0mg"},{"bike_id":"cde179c3-45a5-4d00-b9f4-8d44428cb195","system_id":"levelo_inurba_marseille","lat":43.26195,"lon":5.37448,"is_reserved":false,"is_disabled":false,"rental_uris":{"android":"levelo://app?vid=cde179c3-45a5-4d00-b9f4-8d44428cb195","ios":"levelo://app?vid=cde179c3-45a5-4d00-b9f4-8d44428cb195"},"vehicle_type_id":"4","last_reported":1752329373,"current_range_meters":23200,"station_id":"ce4bhgp2rcd13ifvqfc0","pricing_plan_id":"cebpf4jnsgd1na2vs0mg"},{"bike_id":"f5a47db5-6fb2-46bd-a2de-efa4ad13bf60","system_id":"levelo_inurba_marseille","lat":43.21216,"lon":5.35068,"is_reserved":false,"is_disabled":false,"rental_uris":{"android":"levelo://app?vid=f5a47db5-6fb2-46bd-a2de-efa4ad13bf60","ios":"levelo://app?vid=f5a47db5-6fb2-46bd-a2de-efa4ad13bf60"},"vehicle_type_id":"4","last_reported":1752329373,"current_range_meters":20800,"station_id":"st_cvj6sg6p6f1abm77japg","pricing_plan_id":"cebpf4jnsgd1na2vs0mg"},{"bike_id":"215a8f1e-e8e3-4dc8-8afd-2366da9500b8","system_id":"levelo_inurba_marseille","lat":43.2481,"lon":5.37457,"is_reserved":false,"is_disabled":false,"rental_uris":{"android":"levelo://app?vid=215a8f1e-e8e3-4dc8-8afd-2366da9500b8","ios":"levelo://app?vid=215a8f1e-e8e3-4dc8-8afd-2366da9500b8"},"vehicle_type_id":"4","last_reported":1752329373,"current_range_meters":20800,"station_id":"ce4bhgh2rcd13ifvqfb0","pricing_plan_id":"cebpf4jnsgd1na2vs0mg"},{"bike_id":"58375fde-ca97-4dab-be52-59caf98323d3","system_id":"levelo_inurba_marseille","lat":43.26564,"lon":5.37278,"is_reserved":false,"is_disabled":true,"rental_uris":{"android":"levelo://app?vid=58375fde-ca97-4dab-be52-59caf98323d3","ios":"levelo://app?vid=58375fde-ca97-4dab-be52-59caf98323d3"},"vehicle_type_id":"4","last_reported":1752329373,"current_range_meters":20800,"station_id":"ce4bhg12rcd13ifvqf70","pricing_plan_id":"cebpf4jnsgd1na2vs0mg"},{"bike_id":"37e04037-4751-45cc-9e56-db1728107dad","system_id":"levelo_inurba_marseille","lat":43.31118,"lon":5.37759,"is_reserved":false,"is_disabled":false,"rental_uris":{"android":"levelo://app?vid=37e04037-4751-45cc-9e56-db1728107dad","ios":"levelo://app?vid=37e04037-4751-45cc-9e56-db1728107dad"},"vehicle_type_id":"4","last_reported":1752329373,"current_range_meters":20800,"station_id":"ce4bgt92rcd13ifvqcg0","pricing_plan_id":"cebpf4jnsgd1na2vs0mg"},{"bike_id":"9bfc7d3d-4e60-4f8a-9c32-ef3d0e77ec5b","system_id":"levelo_inurba_marseille","lat":43.21191,"lon":5.35066,"is_reserved":false,"is_disabled":false,"rental_uris":{"android":"levelo://app?vid=9bfc7d3d-4e60-4f8a-9c32-ef3d0e77ec5b","ios":"levelo://app?vid=9bfc7d3d-4e60-4f8a-9c32-ef3d0e77ec5b"},"vehicle_type_id":"4","last_reported":1752329373,"current_range_meters":20800,"station_id":"st_cvj6sg6p6f1abm77japg","pricing_plan_id":"cebpf4jnsgd1na2vs0mg"},{"bike_id":"d09b8522-f13f-45bc-a2b1-060a8ab5170e","system_id":"levelo_inurba_marseille","lat":43.26197,"lon":5.37448,"is_reserved":false,"is_disabled":false,"rental_uris":{"android":"levelo://app?vid=d09b8522-f13f-45bc-a2b1-060a8ab5170e","ios":"levelo://app?vid=d09b8522-f13f-45bc-a2b1-060a8ab5170e"},"vehicle_type_id":"4","last_reported":1752329373,"current_range_meters":21600,"station_id":"ce4bhgp2rcd13ifvqfc0","pricing_plan_id":"cebpf4jnsgd1na2vs0mg"},{"bike_id":"d2eb7848-4e16-492e-bb2e-34b216f30c20","system_id":"levelo_inurba_marseille","lat":43.25932,"lon":5.40869,"is_reserved":false,"is_disabled":false,"rental_uris":{"android":"levelo://app?vid=d2eb7848-4e16-492e-bb2e-34b216f30c20","ios":"levelo://app?vid=d2eb7848-4e16-492e-bb2e-34b216f30c20"},"vehicle_type_id":"4","last_reported":1752329373,"current_range_meters":21600,"station_id":"ce4bhm92rcd13ifvqglg","pricing_plan_id":"cebpf4jnsgd1na2vs0mg"},{"bike_id":"602b4abd-3cab-4cb4-adff-add09ae118b3","system_id":"levelo_inurba_marseille","lat":43.28268,"lon":5.35069,"is_reserved":false,"is_disabled":false,"rental_uris":{"android":"levelo://app?vid=602b4abd-3cab-4cb4-adff-add09ae118b3","ios":"levelo://app?vid=602b4abd-3cab-4cb4-adff-add09ae118b3"},"vehicle_type_id":"4","last_reported":1752329373,"current_range_meters":21600,"station_id":"ce4bhbp2rcd13ifvqerg","pricing_plan_id":"cebpf4jnsgd1na2vs0mg"},{"bike_id":"02e8b5ff-a81a-4002-bcd7-43f3c9647160","system_id":"levelo_inurba_marseille","lat":43.24389,"lon":5.37066,"is_reserved":false,"is_disabled":false,"rental_uris":{"android":"levelo://app?vid=02e8b5ff-a81a-4002-bcd7-43f3c9647160","ios":"levelo://app?vid=02e8b5ff-a81a-4002-bcd7-43f3c9647160"},"vehicle_type_id":"4","last_reported":1752329373,"current_range_meters":20000,"station_id":"ce4bhhh2rcd13ifvqfk0","pricing_plan_id":"cebpf4jnsgd1na2vs0mg"},{"bike_id":"b3c3491c-305d-44b9-99fe-71afe816f55d","system_id":"levelo_inurba_marseille","lat":43.23208,"lon":5.35564,"is_reserved":false,"is_disabled":false,"rental_uris":{"android":"levelo://app?vid=b3c3491c-305d-44b9-99fe-71afe816f55d","ios":"levelo://app?vid=b3c3491c-305d-44b9-99fe-71afe816f55d"},"vehicle_type_id":"4","last_reported":1752329373,"current_range_meters":21600,"station_id":"ce4bhu92rcd13ifvqi70","pricing_plan_id":"cebpf4jnsgd1na2vs0mg"},{"bike_id":"cc6260c7-e588-42d7-afef-96c409802ccc","system_id":"levelo_inurba_marseille","lat":43.21191,"lon":5.35073,"is_reserved":false,"is_disabled":false,"rental_uris":{"android":"levelo://app?vid=cc6260c7-e588-42d7-afef-96c409802ccc","ios":"levelo://app?vid=cc6260c7-e588-42d7-afef-96c409802ccc"},"vehicle_type_id":"4","last_reported":1752329373,"current_range_meters":21600,"station_id":"st_cvj6sg6p6f1abm77japg","pricing_plan_id":"cebpf4jnsgd1na2vs0mg"},{"bike_id":"b8eb3130-c203-4842-b5ea-03fa9e487ff4","system_id":"levelo_inurba_marseille","lat":43.24157,"lon":5.36389,"is_reserved":false,"is_disabled":false,"rental_uris":{"android":"levelo://app?vid=b8eb3130-c203-4842-b5ea-03fa9e487ff4","ios":"levelo://app?vid=b8eb3130-c203-4842-b5ea-03fa9e487ff4"},"vehicle_type_id":"4","last_reported":1752329373,"current_range_meters":21600,"station_id":"cpo36qri1sfpv3e86is0","pricing_plan_id":"cebpf4jnsgd1na2vs0mg"},{"bike_id":"7b24d22c-7607-4d99-a30c-c524d01a3c3f","system_id":"levelo_inurba_marseille","lat":43.28616,"lon":5.35103,"is_reserved":false,"is_disabled":false,"rental_uris":{"android":"levelo://app?vid=7b24d22c-7607-4d99-a30c-c524d01a3c3f","ios":"levelo://app?vid=7b24d22c-7607-4d99-a30c-c524d01a3c3f"},"vehicle_type_id":"4","last_reported":1752329373,"current_range_meters":22000,"station_id":"ce4bhch2rcd13ifvqeug","pricing_plan_id":"cebpf4jnsgd1na2vs0mg"},{"bike_id":"03e0b5f2-095a-47cc-bda4-97ecb5274773","system_id":"levelo_inurba_marseille","lat":43.295794,"lon":5.39997,"is_reserved":false,"is_disabled":false,"rental_uris":{"android":"levelo://app?vid=03e0b5f2-095a-47cc-bda4-97ecb5274773","ios":"levelo://app?vid=03e0b5f2-095a-47cc-bda4-97ecb5274773"},"vehicle_type_id":"4","last_reported":1752329373,"current_range_meters":22000,"station_id":"ce4bh312rcd13ifvqdj0","pricing_plan_id":"cebpf4jnsgd1na2vs0mg"},{"bike_id":"c8c4de1a-846f-4f5b-aace-9fb14bf7ad52","system_id":"levelo_inurba_marseille","lat":43.21196,"lon":5.350839,"is_reserved":false,"is_disabled":false,"rental_uris":{"android":"levelo://app?vid=c8c4de1a-846f-4f5b-aace-9fb14bf7ad52","ios":"levelo://app?vid=c8c4de1a-846f-4f5b-aace-9fb14bf7ad52"},"vehicle_type_id":"4","last_reported":1752329373,"current_range_meters":22000,"station_id":"st_cvj6sg6p6f1abm77japg","pricing_plan_id":"cebpf4jnsgd1na2vs0mg"},{"bike_id":"25ad1298-cca9-4027-8e0c-c5459a244d29","system_id":"levelo_inurba_marseille","lat":43.31363,"lon":5.38491,"is_reserved":false,"is_disabled":false,"rental_uris":{"android":"levelo://app?vid=25ad1298-cca9-4027-8e0c-c5459a244d29","ios":"levelo://app?vid=25ad1298-cca9-4027-8e0c-c5459a244d29"},"vehicle_type_id":"4","last_reported":1752329373,"current_range_meters":21600,"station_id":"ce4bgt92rcd13ifvqcf0","pricing_plan_id":"cebpf4jnsgd1na2vs0mg"},{"bike_id":"91e36618-f857-45af-ac89-91d909da2db3","system_id":"levelo_inurba_marseille","lat":43.29416,"lon":5.38616,"is_reserved":false,"is_disabled":true,"rental_uris":{"android":"levelo://app?vid=91e36618-f857-45af-ac89-91d909da2db3","ios":"levelo://app?vid=91e36618-f857-45af-ac89-91d909da2db3"},"vehicle_type_id":"4","last_reported":1752329373,"current_range_meters":22400,"station_id":"ce4bh2h2rcd13ifvqdh0","pricing_plan_id":"cebpf4jnsgd1na2vs0mg"},{"bike_id":"02b7cc2e-1b57-4ea5-834a-bb55a639f7d3","system_id":"levelo_inurba_marseille","lat":43.27971,"lon":5.38727,"is_reserved":false,"is_disabled":false,"rental_uris":{"android":"levelo://app?vid=02b7cc2e-1b57-4ea5-834a-bb55a639f7d3","ios":"levelo://app?vid=02b7cc2e-1b57-4ea5-834a-bb55a639f7d3"},"vehicle_type_id":"4","last_reported":1752329373,"current_range_meters":22400,"station_id":"ce4bhg12rcd13ifvqf80","pricing_plan_id":"cebpf4jnsgd1na2vs0mg"},{"bike_id":"05bfbbdf-7570-43c1-b8d1-d5691895c133","system_id":"levelo_inurba_marseille","lat":43.29909,"lon":5.38143,"is_reserved":false,"is_disabled":false,"rental_uris":{"android":"levelo://app?vid=05bfbbdf-7570-43c1-b8d1-d5691895c133","ios":"levelo://app?vid=05bfbbdf-7570-43c1-b8d1-d5691895c133"},"vehicle_type_id":"4","last_reported":1752329373,"current_range_meters":22400,"station_id":"ce4bgj12rcd13ifvqbc0","pricing_plan_id":"cebpf4jnsgd1na2vs0mg"},{"bike_id":"ceba2033-6948-441d-b548-178ddfdc54c9","system_id":"levelo_inurba_marseille","lat":43.3088,"lon":5.3965,"is_reserved":false,"is_disabled":false,"rental_uris":{"android":"levelo://app?vid=ceba2033-6948-441d-b548-178ddfdc54c9","ios":"levelo://app?vid=ceba2033-6948-441d-b548-178ddfdc54c9"},"vehicle_type_id":"4","last_reported":1752329373,"current_range_meters":22400,"station_id":"ce4bh012rcd13ifvqcv0","pricing_plan_id":"cebpf4jnsgd1na2vs0mg"},{"bike_id":"99ae43ef-9981-41ec-907c-f94f73cc9ad2","system_id":"levelo_inurba_marseille","lat":43.29985,"lon":5.38484,"is_reserved":false,"is_disabled":false,"rental_uris":{"android":"levelo://app?vid=99ae43ef-9981-41ec-907c-f94f73cc9ad2","ios":"levelo://app?vid=99ae43ef-9981-41ec-907c-f94f73cc9ad2"},"vehicle_type_id":"4","last_reported":1752329373,"current_range_meters":22400,"station_id":"ce4bgj92rcd13ifvqbd0","pricing_plan_id":"cebpf4jnsgd1na2vs0mg"},{"bike_id":"7a888645-4b0c-4379-98d8-380a5347b74c","system_id":"levelo_inurba_marseille","lat":43.27378,"lon":5.36251,"is_reserved":false,"is_disabled":true,"rental_uris":{"android":"levelo://app?vid=7a888645-4b0c-4379-98d8-380a5347b74c","ios":"levelo://app?vid=7a888645-4b0c-4379-98d8-380a5347b74c"},"vehicle_type_id":"4","last_reported":1752329373,"current_range_meters":22800,"station_id":"ce4bhbh2rcd13ifvqeo0","pricing_plan_id":"cebpf4jnsgd1na2vs0mg"},{"bike_id":"2ec427da-b403-4a7e-86be-3f48ba535d18","system_id":"levelo_inurba_marseille","lat":43.21189,"lon":5.35065,"is_reserved":false,"is_disabled":false,"rental_uris":{"android":"levelo://app?vid=2ec427da-b403-4a7e-86be-3f48ba535d18","ios":"levelo://app?vid=2ec427da-b403-4a7e-86be-3f48ba535d18"},"vehicle_type_id":"4","last_reported":1752329373,"current_range_meters":22800,"station_id":"st_cvj6sg6p6f1abm77japg","pricing_plan_id":"cebpf4jnsgd1na2vs0mg"},{"bike_id":"0ade8314-6a29-4c19-bda6-4717b8a27a7f","system_id":"levelo_inurba_marseille","lat":43.23954,"lon":5.36624,"is_reserved":false,"is_disabled":false,"rental_uris":{"android":"levelo://app?vid=0ade8314-6a29-4c19-bda6-4717b8a27a7f","ios":"levelo://app?vid=0ade8314-6a29-4c19-bda6-4717b8a27a7f"},"vehicle_type_id":"4","last_reported":1752329373,"current_range_meters":22800,"station_id":"ce4bhi12rcd13ifvqfp0","pricing_plan_id":"cebpf4jnsgd1na2vs0mg"},{"bike_id":"8fc6114a-e2d8-43fc-b3ad-d50c5090d2eb","system_id":"levelo_inurba_marseille","lat":43.29575,"lon":5.39979,"is_reserved":false,"is_disabled":false,"rental_uris":{"android":"levelo://app?vid=8fc6114a-e2d8-43fc-b3ad-d50c5090d2eb","ios":"levelo://app?vid=8fc6114a-e2d8-43fc-b3ad-d50c5090d2eb"},"vehicle_type_id":"4","last_reported":1752329373,"current_range_meters":22800,"station_id":"ce4bh312rcd13ifvqdj0","pricing_plan_id":"cebpf4jnsgd1na2vs0mg"},{"bike_id":"2a1efcc0-2a61-4039-8934-6862a4ef09f0","system_id":"levelo_inurba_marseille","lat":43.29638,"lon":5.36009,"is_reserved":false,"is_disabled":false,"rental_uris":{"android":"levelo://app?vid=2a1efcc0-2a61-4039-8934-6862a4ef09f0","ios":"levelo://app?vid=2a1efcc0-2a61-4039-8934-6862a4ef09f0"},"vehicle_type_id":"4","last_reported":1752329373,"current_range_meters":22800,"station_id":"","pricing_plan_id":"cebpf4jnsgd1na2vs0mg"},{"bike_id":"655b8d43-06b7-412b-9e47-7e9f59f7a7d8","system_id":"levelo_inurba_marseille","lat":43.28264,"lon":5.35058,"is_reserved":false,"is_disabled":false,"rental_uris":{"android":"levelo://app?vid=655b8d43-06b7-412b-9e47-7e9f59f7a7d8","ios":"levelo://app?vid=655b8d43-06b7-412b-9e47-7e9f59f7a7d8"},