{"last_updated":1761682320,"ttl":60,"version":"2.2","data":{"bikes":[{"bike_id":"dbc0e999-85bd-4a1d-a4d4-696c0adb85db","system_id":"levelo_inurba_marseille","lat":43.29848,"lon":5.36276,"is_reserved":false,"is_disabled":true,"rental_uris":{"android":"levelo://app?vid=dbc0e999-85bd-4a1d-a4d4-696c0adb85db","ios":"levelo://app?vid=dbc0e999-85bd-4a1d-a4d4-696c0adb85db"},"vehicle_type_id":"4","last_reported":1761682320,"current_range_meters":2800,"station_id":"ce4bgpp2rcd13ifvqc3g","pricing_plan_id":"cebpf4jnsgd1na2vs0mg"},{"bike_id":"971649a8-3870-410e-bde4-2698b6fde255","system_id":"levelo_inurba_marseille","lat":43.284313,"lon":5.39195,"is_reserved":false,"is_disabled":false,"rental_uris":{"android":"levelo://app?vid=971649a8-3870-410e-bde4-2698b6fde255","ios":"levelo://app?vid=971649a8-3870-410e-bde4-2698b6fde255"},"vehicle_type_id":"4","last_reported":1761682320,"current_range_meters":2800,"station_id":"ce4bhoh2rcd13ifvqh5g","pricing_plan_id":"cebpf4jnsgd1na2vs0mg"},{"bike_id":"23b9b20f-5e77-4b3c-b370-1c2a92395c28","system_id":"levelo_inurba_marseille","lat":43.30193,"lon":5.36605,"is_reserved":false,"is_disabled":true,"rental_uris":{"android":"levelo://app?vid=23b9b20f-5e77-4b3c-b370-1c2a92395c28","ios":"levelo://app?vid=23b9b20f-5e77-4b3c-b370-1c2a92395c28"},"vehicle_type_id":"4","last_reported":1761682320,"current_range_meters":2800,"station_id":"ce4bgrh2rcd13ifvqc8g","pricing_plan_id":"cebpf4jnsgd1na2vs0mg"},{"bike_id":"64b75b4a-3497-4861-8cc2-90dd62cd9f5e","system_id":"levelo_inurba_marseille","lat":43.2929,"lon":5.43458,"is_reserved":false,"is_disabled":false,"rental_uris":{"android":"levelo://app?vid=64b75b4a-3497-4861-8cc2-90dd62cd9f5e","ios":"levelo://app?vid=64b75b4a-3497-4861-8cc2-90dd62cd9f5e"},"vehicle_type_id":"4","last_reported":1761682320,"current_range_meters":2800,"station_id":"","pricing_plan_id":"cebpf4jnsgd1na2vs0mg"},{"bike_id":"0ad7a8c9-8f8d-4968-b383-38178a91449e","system_id":"levelo_inurba_marseille","lat":43.28208,"lon":5.39068,"is_reserved":false,"is_disabled":false,"rental_uris":{"android":"levelo://app?vid=0ad7a8c9-8f8d-4968-b383-38178a91449e","ios":"levelo://app?vid=0ad7a8c9-8f8d-4968-b383-38178a91449e"},"vehicle_type_id":"4","last_reported":1761682320,"current_range_meters":2800,"station_id":"ce4bhn92rcd13ifvqgsg","pricing_plan_id":"cebpf4jnsgd1na2vs0mg"},{"bike_id":"de5cece4-6186-4ccb-b70e-a25e8bd3fc86","system_id":"levelo_inurba_marseille","lat":43.337444,"lon":5.374475,"is_reserved":false,"is_disabled":false,"rental_uris":{"android":"levelo://app?vid=de5cece4-6186-4ccb-b70e-a25e8bd3fc86","ios":"levelo://app?vid=de5cece4-6186-4ccb-b70e-a25e8bd3fc86"},"vehicle_type_id":"4","last_reported":1761682320,"current_range_meters":3200,"station_id":"","pricing_plan_id":"cebpf4jnsgd1na2vs0mg"},{"bike_id":"99aa0d8a-8d1a-404d-9913-845056ffe0db","system_id":"levelo_inurba_marseille","lat":43.28103,"lon":5.37833,"is_reserved":false,"is_disabled":false,"rental_uris":{"android":"levelo://app?vid=99aa0d8a-8d1a-404d-9913-845056ffe0db","ios":"levelo://app?vid=99aa0d8a-8d1a-404d-9913-845056ffe0db"},"vehicle_type_id":"4","last_reported":1761682320,"current_range_meters":3600,"station_id":"ce4bha12rcd13ifvqee0","pricing_plan_id":"cebpf4jnsgd1na2vs0mg"},{"bike_id":"00d339ad-3a90-443b-81ff-7f46d17cc335","system_id":"levelo_inurba_marseille","lat":43.30307,"lon":5.36895,"is_reserved":false,"is_disabled":false,"rental_uris":{"android":"levelo://app?vid=00d339ad-3a90-443b-81ff-7f46d17cc335","ios":"levelo://app?vid=00d339ad-3a90-443b-81ff-7f46d17cc335"},"vehicle_type_id":"4","last_reported":1761682320,"current_range_meters":4000,"station_id":"ce4bgqh2rcd13ifvqc5g","pricing_plan_id":"cebpf4jnsgd1na2vs0mg"},{"bike_id":"b8eea18b-8d83-4402-93b1-5da399e617fc","system_id":"levelo_inurba_marseille","lat":43.27993,"lon":5.41658,"is_reserved":false,"is_disabled":false,"rental_uris":{"android":"levelo://app?vid=b8eea18b-8d83-4402-93b1-5da399e617fc","ios":"levelo://app?vid=b8eea18b-8d83-4402-93b1-5da399e617fc"},"vehicle_type_id":"4","last_reported":1761682320,"current_range_meters":4000,"station_id":"ce4bho12rcd13ifvqh1g","pricing_plan_id":"cebpf4jnsgd1na2vs0mg"},{"bike_id":"e4ccce50-4824-4895-aa8c-033835526f23","system_id":"levelo_inurba_marseille","lat":43.3188,"lon":5.39977,"is_reserved":false,"is_disabled":false,"rental_uris":{"android":"levelo://app?vid=e4ccce50-4824-4895-aa8c-033835526f23","ios":"levelo://app?vid=e4ccce50-4824-4895-aa8c-033835526f23"},"vehicle_type_id":"4","last_reported":1761682320,"current_range_meters":4000,"station_id":"","pricing_plan_id":"cebpf4jnsgd1na2vs0mg"},{"bike_id":"b5471cc1-04c0-497a-8f17-79c7dbd341af","system_id":"levelo_inurba_marseille","lat":43.29253,"lon":5.40908,"is_reserved":false,"is_disabled":false,"rental_uris":{"android":"levelo://app?vid=b5471cc1-04c0-497a-8f17-79c7dbd341af","ios":"levelo://app?vid=b5471cc1-04c0-497a-8f17-79c7dbd341af"},"vehicle_type_id":"4","last_reported":1761682320,"current_range_meters":4400,"station_id":"ce4bh192rcd13ifvqdc0","pricing_plan_id":"cebpf4jnsgd1na2vs0mg"},{"bike_id":"9c686e45-dd5f-4b01-8309-f19e6beb0790","system_id":"levelo_inurba_marseille","lat":43.25869,"lon":5.39896,"is_reserved":false,"is_disabled":false,"rental_uris":{"android":"levelo://app?vid=9c686e45-dd5f-4b01-8309-f19e6beb0790","ios":"levelo://app?vid=9c686e45-dd5f-4b01-8309-f19e6beb0790"},"vehicle_type_id":"4","last_reported":1761682320,"current_range_meters":4400,"station_id":"ce4bhl92rcd13ifvqghg","pricing_plan_id":"cebpf4jnsgd1na2vs0mg"},{"bike_id":"3f7c552a-2a9b-4bf8-95bd-507570380f71","system_id":"levelo_inurba_marseille","lat":43.28696,"lon":5.37937,"is_reserved":false,"is_disabled":false,"rental_uris":{"android":"levelo://app?vid=3f7c552a-2a9b-4bf8-95bd-507570380f71","ios":"levelo://app?vid=3f7c552a-2a9b-4bf8-95bd-507570380f71"},"vehicle_type_id":"4","last_reported":1761682320,"current_range_meters":4800,"station_id":"","pricing_plan_id":"cebpf4jnsgd1na2vs0mg"},{"bike_id":"3abb3b30-040b-4af3-b943-c7c737938f81","system_id":"levelo_inurba_marseille","lat":43.2987,"lon":5.38906,"is_reserved":false,"is_disabled":false,"rental_uris":{"android":"levelo://app?vid=3abb3b30-040b-4af3-b943-c7c737938f81","ios":"levelo://app?vid=3abb3b30-040b-4af3-b943-c7c737938f81"},"vehicle_type_id":"4","last_reported":1761682320,"current_range_meters":5600,"station_id":"ce4bh392rcd13ifvqdl0","pricing_plan_id":"cebpf4jnsgd1na2vs0mg"},{"bike_id":"c48dc094-4c25-4b99-9aa9-ff1b8c1db8dc","system_id":"levelo_inurba_marseille","lat":43.225322,"lon":5.348327,"is_reserved":false,"is_disabled":false,"rental_uris":{"android":"levelo://app?vid=c48dc094-4c25-4b99-9aa9-ff1b8c1db8dc","ios":"levelo://app?vid=c48dc094-4c25-4b99-9aa9-ff1b8c1db8dc"},"vehicle_type_id":"4","last_reported":1761682320,"current_range_meters":5600,"station_id":"","pricing_plan_id":"cebpf4jnsgd1na2vs0mg"},{"bike_id":"83abc523-624c-48e6-9a92-436b0377e810","system_id":"levelo_inurba_marseille","lat":43.29938,"lon":5.36548,"is_reserved":false,"is_disabled":false,"rental_uris":{"android":"levelo://app?vid=83abc523-624c-48e6-9a92-436b0377e810","ios":"levelo://app?vid=83abc523-624c-48e6-9a92-436b0377e810"},"vehicle_type_id":"4","last_reported":1761682320,"current_range_meters":5600,"station_id":"ce4bgm92rcd13ifvqbr0","pricing_plan_id":"cebpf4jnsgd1na2vs0mg"},{"bike_id":"dcd1ad22-f799-4d22-84a1-66b2b8d664fa","system_id":"levelo_inurba_marseille","lat":43.29019,"lon":5.3863,"is_reserved":false,"is_disabled":false,"rental_uris":{"android":"levelo://app?vid=dcd1ad22-f799-4d22-84a1-66b2b8d664fa","ios":"levelo://app?vid=dcd1ad22-f799-4d22-84a1-66b2b8d664fa"},"vehicle_type_id":"4","last_reported":1761682320,"current_range_meters":6000,"station_id":"ce4bh4p2rcd13ifvqe0g","pricing_plan_id":"cebpf4jnsgd1na2vs0mg"},{"bike_id":"aba6b563-5093-4f2c-abdc-45b501f05388","system_id":"levelo_inurba_marseille","lat":43.27062,"lon":5.38308,"is_reserved":false,"is_disabled":true,"rental_uris":{"android":"levelo://app?vid=aba6b563-5093-4f2c-abdc-45b501f05388","ios":"levelo://app?vid=aba6b563-5093-4f2c-abdc-45b501f05388"},"vehicle_type_id":"4","last_reported":1761682320,"current_range_meters":6000,"station_id":"st_d3n2fo6cfp8s73cte1j0","pricing_plan_id":"cebpf4jnsgd1na2vs0mg"},{"bike_id":"8fa53131-66a2-4264-8498-22a98c919ec8","system_id":"levelo_inurba_marseille","lat":43.28219,"lon":5.39058,"is_reserved":false,"is_disabled":false,"rental_uris":{"android":"levelo://app?vid=8fa53131-66a2-4264-8498-22a98c919ec8","ios":"levelo://app?vid=8fa53131-66a2-4264-8498-22a98c919ec8"},"vehicle_type_id":"4","last_reported":1761682320,"current_range_meters":6000,"station_id":"ce4bhn92rcd13ifvqgsg","pricing_plan_id":"cebpf4jnsgd1na2vs0mg"},{"bike_id":"d31b9fb1-06d8-48cc-99e6-4d83700d93cc","system_id":"levelo_inurba_marseille","lat":43.29893,"lon":5.43673,"is_reserved":false,"is_disabled":false,"rental_uris":{"android":"levelo://app?vid=d31b9fb1-06d8-48cc-99e6-4d83700d93cc","ios":"levelo://app?vid=d31b9fb1-06d8-48cc-99e6-4d83700d93cc"},"vehicle_type_id":"4","last_reported":1761682320,"current_range_meters":6000,"station_id":"ce4bhpp2rcd13ifvqhfg","pricing_plan_id":"cebpf4jnsgd1na2vs0mg"},{"bike_id":"24715fdb-254d-49c2-93a3-30b24ede44d7","system_id":"levelo_inurba_marseille","lat":43.28721,"lon":5.3608,"is_reserved":false,"is_disabled":false,"rental_uris":{"android":"levelo://app?vid=24715fdb-254d-49c2-93a3-30b24ede44d7","ios":"levelo://app?vid=24715fdb-254d-49c2-93a3-30b24ede44d7"},"vehicle_type_id":"4","last_reported":1761682320,"current_range_meters":6400,"station_id":"cki0cbj6b192h4jlfktg","pricing_plan_id":"cebpf4jnsgd1na2vs0mg"},{"bike_id":"8deaa439-1e68-4389-8438-23e7451f13a6","system_id":"levelo_inurba_marseille","lat":43.30359,"lon":5.42481,"is_reserved":false,"is_disabled":false,"rental_uris":{"android":"levelo://app?vid=8deaa439-1e68-4389-8438-23e7451f13a6","ios":"levelo://app?vid=8deaa439-1e68-4389-8438-23e7451f13a6"},"vehicle_type_id":"4","last_reported":1761682320,"current_range_meters":6400,"station_id":"ce4bhoh2rcd13ifvqh6g","pricing_plan_id":"cebpf4jnsgd1na2vs0mg"},{"bike_id":"a8e0f791-edf0-45ac-a080-13dfc7bd1e28","system_id":"levelo_inurba_marseille","lat":43.290283,"lon":5.386493,"is_reserved":false,"is_disabled":false,"rental_uris":{"android":"levelo://app?vid=a8e0f791-edf0-45ac-a080-13dfc7bd1e28","ios":"levelo://app?vid=a8e0f791-edf0-45ac-a080-13dfc7bd1e28"},"vehicle_type_id":"4","last_reported":1761682320,"current_range_meters":6400,"station_id":"ce4bh4p2rcd13ifvqe0g","pricing_plan_id":"cebpf4jnsgd1na2vs0mg"},{"bike_id":"3ecb0727-13ee-4444-8ab1-a73dc8cd6efe","system_id":"levelo_inurba_marseille","lat":43.24069,"lon":5.37767,"is_reserved":false,"is_disabled":false,"rental_uris":{"android":"levelo://app?vid=3ecb0727-13ee-4444-8ab1-a73dc8cd6efe","ios":"levelo://app?vid=3ecb0727-13ee-4444-8ab1-a73dc8cd6efe"},"vehicle_type_id":"4","last_reported":1761682320,"current_range_meters":6400,"station_id":"ce4bhnp2rcd13ifvqgvg","pricing_plan_id":"cebpf4jnsgd1na2vs0mg"},{"bike_id":"18619ea4-1d14-4ba8-9170-8189de5d4da4","system_id":"levelo_inurba_marseille","lat":43.29236,"lon":5.37721,"is_reserved":false,"is_disabled":false,"rental_uris":{"android":"levelo://app?vid=18619ea4-1d14-4ba8-9170-8189de5d4da4","ios":"levelo://app?vid=18619ea4-1d14-4ba8-9170-8189de5d4da4"},"vehicle_type_id":"4","last_reported":1761682320,"current_range_meters":6400,"station_id":"","pricing_plan_id":"cebpf4jnsgd1na2vs0mg"},{"bike_id":"019f8763-46c9-4175-b065-52bcdf738b89","system_id":"levelo_inurba_marseille","lat":43.28951,"lon":5.36396,"is_reserved":false,"is_disabled":false,"rental_uris":{"android":"levelo://app?vid=019f8763-46c9-4175-b065-52bcdf738b89","ios":"levelo://app?vid=019f8763-46c9-4175-b065-52bcdf738b89"},"vehicle_type_id":"4","last_reported":1761682320,"current_range_meters":6400,"station_id":"ce4bhc92rcd13ifvqetg","pricing_plan_id":"cebpf4jnsgd1na2vs0mg"},{"bike_id":"f41453ce-2830-4bbc-bd68-b1077b6fb720","system_id":"levelo_inurba_marseille","lat":43.27948,"lon":5.41034,"is_reserved":false,"is_disabled":false,"rental_uris":{"android":"levelo://app?vid=f41453ce-2830-4bbc-bd68-b1077b6fb720","ios":"levelo://app?vid=f41453ce-2830-4bbc-bd68-b1077b6fb720"},"vehicle_type_id":"4","last_reported":1761682320,"current_range_meters":6800,"station_id":"ce4bhnp2rcd13ifvqh0g","pricing_plan_id":"cebpf4jnsgd1na2vs0mg"},{"bike_id":"60b948f7-b060-48dd-87dc-36106cd232c1","system_id":"levelo_inurba_marseille","lat":43.29985,"lon":5.37176,"is_reserved":false,"is_disabled":true,"rental_uris":{"android":"levelo://app?vid=60b948f7-b060-48dd-87dc-36106cd232c1","ios":"levelo://app?vid=60b948f7-b060-48dd-87dc-36106cd232c1"},"vehicle_type_id":"4","last_reported":1761682320,"current_range_meters":6800,"station_id":"ce4bgr92rcd13ifvqc7g","pricing_plan_id":"cebpf4jnsgd1na2vs0mg"},{"bike_id":"bc23c83e-5098-4cb2-9645-f891504fb524","system_id":"levelo_inurba_marseille","lat":43.2993,"lon":5.36539,"is_reserved":false,"is_disabled":false,"rental_uris":{"android":"levelo://app?vid=bc23c83e-5098-4cb2-9645-f891504fb524","ios":"levelo://app?vid=bc23c83e-5098-4cb2-9645-f891504fb524"},"vehicle_type_id":"4","last_reported":1761682320,"current_range_meters":6800,"station_id":"ce4bgm92rcd13ifvqbr0","pricing_plan_id":"cebpf4jnsgd1na2vs0mg"},{"bike_id":"978ff5eb-3661-4659-84dd-9023fbe4a183","system_id":"levelo_inurba_marseille","lat":43.29632,"lon":5.40597,"is_reserved":false,"is_disabled":false,"rental_uris":{"android":"levelo://app?vid=978ff5eb-3661-4659-84dd-9023fbe4a183","ios":"levelo://app?vid=978ff5eb-3661-4659-84dd-9023fbe4a183"},"vehicle_type_id":"4","last_reported":1761682320,"current_range_meters":6800,"station_id":"ce4bh0h2rcd13ifvqd60","pricing_plan_id":"cebpf4jnsgd1na2vs0mg"},{"bike_id":"3c51ad95-f9ea-4292-b66d-2a49e09e699f","system_id":"levelo_inurba_marseille","lat":43.29251,"lon":5.40907,"is_reserved":false,"is_disabled":true,"rental_uris":{"android":"levelo://app?vid=3c51ad95-f9ea-4292-b66d-2a49e09e699f","ios":"levelo://app?vid=3c51ad95-f9ea-4292-b66d-2a49e09e699f"},"vehicle_type_id":"4","last_reported":1761682320,"current_range_meters":6800,"station_id":"ce4bh192rcd13ifvqdc0","pricing_plan_id":"cebpf4jnsgd1na2vs0mg"},{"bike_id":"ecf682c9-b328-42d4-bf93-c673977dea5c","system_id":"levelo_inurba_marseille","lat":43.29183,"lon":5.37133,"is_reserved":false,"is_disabled":true,"rental_uris":{"android":"levelo://app?vid=ecf682c9-b328-42d4-bf93-c673977dea5c","ios":"levelo://app?vid=ecf682c9-b328-42d4-bf93-c673977dea5c"},"vehicle_type_id":"4","last_reported":1761682320,"current_range_meters":6800,"station_id":"ce4bha92rcd13ifvqeh0","pricing_plan_id":"cebpf4jnsgd1na2vs0mg"},{"bike_id":"b714f16e-ca94-4625-9426-f179ecab8b23","system_id":"levelo_inurba_marseille","lat":43.295319,"lon":5.390395,"is_reserved":false,"is_disabled":false,"rental_uris":{"android":"levelo://app?vid=b714f16e-ca94-4625-9426-f179ecab8b23","ios":"levelo://app?vid=b714f16e-ca94-4625-9426-f179ecab8b23"},"vehicle_type_id":"4","last_reported":1761682320,"current_range_meters":6800,"station_id":"","pricing_plan_id":"cebpf4jnsgd1na2vs0mg"},{"bike_id":"609a9047-57e2-4b1e-851d-8b6ef3587f94","system_id":"levelo_inurba_marseille","lat":43.28606,"lon":5.37058,"is_reserved":false,"is_disabled":false,"rental_uris":{"android":"levelo://app?vid=609a9047-57e2-4b1e-851d-8b6ef3587f94","ios":"levelo://app?vid=609a9047-57e2-4b1e-851d-8b6ef3587f94"},"vehicle_type_id":"4","last_reported":1761682320,"current_range_meters":7200,"station_id":"ce4bht12rcd13ifvqi60","pricing_plan_id":"cebpf4jnsgd1na2vs0mg"},{"bike_id":"6ae15792-7d21-46e6-95dd-e36a007921e7","system_id":"levelo_inurba_marseille","lat":43.30794,"lon":5.37646,"is_reserved":false,"is_disabled":false,"rental_uris":{"android":"levelo://app?vid=6ae15792-7d21-46e6-95dd-e36a007921e7","ios":"levelo://app?vid=6ae15792-7d21-46e6-95dd-e36a007921e7"},"vehicle_type_id":"4","last_reported":1761682320,"current_range_meters":7200,"station_id":"ce4bgv92rcd13ifvqcq0","pricing_plan_id":"cebpf4jnsgd1na2vs0mg"},{"bike_id":"920de729-9cec-417d-9707-593e8097aa73","system_id":"levelo_inurba_marseille","lat":43.326568,"lon":5.409941,"is_reserved":false,"is_disabled":false,"rental_uris":{"android":"levelo://app?vid=920de729-9cec-417d-9707-593e8097aa73","ios":"levelo://app?vid=920de729-9cec-417d-9707-593e8097aa73"},"vehicle_type_id":"4","last_reported":1761682320,"current_range_meters":7200,"station_id":"ce4bhpp2rcd13ifvqhgg","pricing_plan_id":"cebpf4jnsgd1na2vs0mg"},{"bike_id":"b33d068f-9eaa-422f-934d-25b14d3947d0","system_id":"levelo_inurba_marseille","lat":43.29521,"lon":5.39049,"is_reserved":false,"is_disabled":false,"rental_uris":{"android":"levelo://app?vid=b33d068f-9eaa-422f-934d-25b14d3947d0","ios":"levelo://app?vid=b33d068f-9eaa-422f-934d-25b14d3947d0"},"vehicle_type_id":"4","last_reported":1761682320,"current_range_meters":7200,"station_id":"ce4bh3p2rcd13ifvqdp0","pricing_plan_id":"cebpf4jnsgd1na2vs0mg"},{"bike_id":"fd09dbe7-0bec-431b-9705-875a0c7a7829","system_id":"levelo_inurba_marseille","lat":43.23062,"lon":5.35488,"is_reserved":false,"is_disabled":true,"rental_uris":{"android":"levelo://app?vid=fd09dbe7-0bec-431b-9705-875a0c7a7829","ios":"levelo://app?vid=fd09dbe7-0bec-431b-9705-875a0c7a7829"},"vehicle_type_id":"4","last_reported":1761682320,"current_range_meters":8000,"station_id":"cpo3342slgdg3j2ifvpg","pricing_plan_id":"cebpf4jnsgd1na2vs0mg"},{"bike_id":"eea3c3c3-734f-4fd3-8061-ed84cfe47b38","system_id":"levelo_inurba_marseille","lat":43.32557,"lon":5.39129,"is_reserved":false,"is_disabled":false,"rental_uris":{"android":"levelo://app?vid=eea3c3c3-734f-4fd3-8061-ed84cfe47b38","ios":"levelo://app?vid=eea3c3c3-734f-4fd3-8061-ed84cfe47b38"},"vehicle_type_id":"4","last_reported":1761682320,"current_range_meters":8000,"station_id":"","pricing_plan_id":"cebpf4jnsgd1na2vs0mg"},{"bike_id":"0cb73de8-c257-4bf0-86a7-e0346fa54734","system_id":"levelo_inurba_marseille","lat":43.31487,"lon":5.37308,"is_reserved":false,"is_disabled":false,"rental_uris":{"android":"levelo://app?vid=0cb73de8-c257-4bf0-86a7-e0346fa54734","ios":"levelo://app?vid=0cb73de8-c257-4bf0-86a7-e0346fa54734"},"vehicle_type_id":"4","last_reported":1761682320,"current_range_meters":8000,"station_id":"ce4bgt12rcd13ifvqcd0","pricing_plan_id":"cebpf4jnsgd1na2vs0mg"},{"bike_id":"db882984-a3d5-4812-a9b1-c6b3e8a0406e","system_id":"levelo_inurba_marseille","lat":43.30389,"lon":5.4248,"is_reserved":false,"is_disabled":false,"rental_uris":{"android":"levelo://app?vid=db882984-a3d5-4812-a9b1-c6b3e8a0406e","ios":"levelo://app?vid=db882984-a3d5-4812-a9b1-c6b3e8a0406e"},"vehicle_type_id":"4","last_reported":1761682320,"current_range_meters":8000,"station_id":"ce4bhoh2rcd13ifvqh6g","pricing_plan_id":"cebpf4jnsgd1na2vs0mg"},{"bike_id":"9dfe7b3b-a07b-4b4b-b593-31acd83c990f","system_id":"levelo_inurba_marseille","lat":43.29424,"lon":5.37409,"is_reserved":false,"is_disabled":false,"rental_uris":{"android":"levelo://app?vid=9dfe7b3b-a07b-4b4b-b593-31acd83c990f","ios":"levelo://app?vid=9dfe7b3b-a07b-4b4b-b593-31acd83c990f"},"vehicle_type_id":"4","last_reported":1761682320,"current_range_meters":8000,"station_id":"","pricing_plan_id":"cebpf4jnsgd1na2vs0mg"},{"bike_id":"2a227416-22c1-42dc-a654-d7dc0e5edab6","system_id":"levelo_inurba_marseille","lat":43.3027,"lon":5.37977,"is_reserved":false,"is_disabled":false,"rental_uris":{"android":"levelo://app?vid=2a227416-22c1-42dc-a654-d7dc0e5edab6","ios":"levelo://app?vid=2a227416-22c1-42dc-a654-d7dc0e5edab6"},"vehicle_type_id":"4","last_reported":1761682320,"current_range_meters":8000,"station_id":"","pricing_plan_id":"cebpf4jnsgd1na2vs0mg"},{"bike_id":"6d9e331c-d264-4f80-8cff-cb29535fa03e","system_id":"levelo_inurba_marseille","lat":43.29529,"lon":5.385411,"is_reserved":false,"is_disabled":false,"rental_uris":{"android":"levelo://app?vid=6d9e331c-d264-4f80-8cff-cb29535fa03e","ios":"levelo://app?vid=6d9e331c-d264-4f80-8cff-cb29535fa03e"},"vehicle_type_id":"4","last_reported":1761682320,"current_range_meters":8400,"station_id":"ce4bgih2rcd13ifvqba0","pricing_plan_id":"cebpf4jnsgd1na2vs0mg"},{"bike_id":"fe9c22c2-e42a-4684-89b0-cdbadc21075a","system_id":"levelo_inurba_marseille","lat":43.31174,"lon":5.38718,"is_reserved":false,"is_disabled":false,"rental_uris":{"android":"levelo://app?vid=fe9c22c2-e42a-4684-89b0-cdbadc21075a","ios":"levelo://app?vid=fe9c22c2-e42a-4684-89b0-cdbadc21075a"},"vehicle_type_id":"4","last_reported":1761682320,"current_range_meters":8400,"station_id":"ce4bgv12rcd13ifvqcp0","pricing_plan_id":"cebpf4jnsgd1na2vs0mg"},{"bike_id":"5365bf1e-a509-4be8-9045-f7da9c3da202","system_id":"levelo_inurba_marseille","lat":43.28676,"lon":5.3866,"is_reserved":false,"is_disabled":false,"rental_uris":{"android":"levelo://app?vid=5365bf1e-a509-4be8-9045-f7da9c3da202","ios":"levelo://app?vid=5365bf1e-a509-4be8-9045-f7da9c3da202"},"vehicle_type_id":"4","last_reported":1761682320,"current_range_meters":8400,"station_id":"ce4bh492rcd13ifvqdug","pricing_plan_id":"cebpf4jnsgd1na2vs0mg"},{"bike_id":"9f7696d2-1b63-4f47-8247-0f8e6ffafc4d","system_id":"levelo_inurba_marseille","lat":43.284435,"lon":5.39206,"is_reserved":false,"is_disabled":false,"rental_uris":{"android":"levelo://app?vid=9f7696d2-1b63-4f47-8247-0f8e6ffafc4d","ios":"levelo://app?vid=9f7696d2-1b63-4f47-8247-0f8e6ffafc4d"},"vehicle_type_id":"4","last_reported":1761682320,"current_range_meters":8400,"station_id":"ce4bhoh2rcd13ifvqh5g","pricing_plan_id":"cebpf4jnsgd1na2vs0mg"},{"bike_id":"aaae0865-bafd-4217-a21f-3c6ba43cd74d","system_id":"levelo_inurba_marseille","lat":43.25082,"lon":5.3952,"is_reserved":false,"is_disabled":false,"rental_uris":{"android":"levelo://app?vid=aaae0865-bafd-4217-a21f-3c6ba43cd74d","ios":"levelo://app?vid=aaae0865-bafd-4217-a21f-3c6ba43cd74d"},"vehicle_type_id":"4","last_reported":1761682320,"current_range_meters":8800,"station_id":"ce4bhm12rcd13ifvqgkg","pricing_plan_id":"cebpf4jnsgd1na2vs0mg"},{"bike_id":"ff3ce436-1785-418e-8081-70fae0b4c310","system_id":"levelo_inurba_marseille","lat":43.27084,"lon":5.42278,"is_reserved":false,"is_disabled":false,"rental_uris":{"android":"levelo://app?vid=ff3ce436-1785-418e-8081-70fae0b4c310","ios":"levelo://app?vid=ff3ce436-1785-418e-8081-70fae0b4c310"},"vehicle_type_id":"4","last_reported":1761682320,"current_range_meters":8800,"station_id":"ce4bhk92rcd13ifvqgb0","pricing_plan_id":"cebpf4jnsgd1na2vs0mg"},{"bike_id":"208a1fa9-c371-4a9e-bc97-d54ccd03a0b4","system_id":"levelo_inurba_marseille","lat":43.33785,"lon":5.37454,"is_reserved":false,"is_disabled":false,"rental_uris":{"android":"levelo://app?vid=208a1fa9-c371-4a9e-bc97-d54ccd03a0b4","ios":"levelo://app?vid=208a1fa9-c371-4a9e-bc97-d54ccd03a0b4"},"vehicle_type_id":"4","last_reported":1761682320,"current_range_meters":8800,"station_id":"","pricing_plan_id":"cebpf4jnsgd1na2vs0mg"},{"bike_id":"1880ebb9-7edb-463e-976b-226e958b9ebe","system_id":"levelo_inurba_marseille","lat":43.31097,"lon":5.37487,"is_reserved":false,"is_disabled":false,"rental_uris":{"android":"levelo://app?vid=1880ebb9-7edb-463e-976b-226e958b9ebe","ios":"levelo://app?vid=1880ebb9-7edb-463e-976b-226e958b9ebe"},"vehicle_type_id":"4","last_reported":1761682320,"current_range_meters":9200,"station_id":"ce4bgt12rcd13ifvqce0","pricing_plan_id":"cebpf4jnsgd1na2vs0mg"},{"bike_id":"f9484733-c07f-4293-8628-46871c65b913","system_id":"levelo_inurba_marseille","lat":43.25456,"lon":5.38104,"is_reserved":false,"is_disabled":false,"rental_uris":{"android":"levelo://app?vid=f9484733-c07f-4293-8628-46871c65b913","ios":"levelo://app?vid=f9484733-c07f-4293-8628-46871c65b913"},"vehicle_type_id":"4","last_reported":1761682320,"current_range_meters":9200,"station_id":"","pricing_plan_id":"cebpf4jnsgd1na2vs0mg"},{"bike_id":"0173fcc7-da76-4707-a1f9-596ea300bc05","system_id":"levelo_inurba_marseille","lat":43.29255,"lon":5.40912,"is_reserved":false,"is_disabled":false,"rental_uris":{"android":"levelo://app?vid=0173fcc7-da76-4707-a1f9-596ea300bc05","ios":"levelo://app?vid=0173fcc7-da76-4707-a1f9-596ea300bc05"},"vehicle_type_id":"4","last_reported":1761682320,"current_range_meters":9200,"station_id":"ce4bh192rcd13ifvqdc0","pricing_plan_id":"cebpf4jnsgd1na2vs0mg"},{"bike_id":"3b82aff6-7cb9-43aa-944c-0f02fe4ef9fa","system_id":"levelo_inurba_marseille","lat":43.27951,"lon":5.387,"is_reserved":false,"is_disabled":true,"rental_uris":{"android":"levelo://app?vid=3b82aff6-7cb9-43aa-944c-0f02fe4ef9fa","ios":"levelo://app?vid=3b82aff6-7cb9-43aa-944c-0f02fe4ef9fa"},"vehicle_type_id":"4","last_reported":1761682320,"current_range_meters":9200,"station_id":"ce4bhg12rcd13ifvqf80","pricing_plan_id":"cebpf4jnsgd1na2vs0mg"},{"bike_id":"9b5fba50-dca7-4457-9e49-d03b78568ab3","system_id":"levelo_inurba_marseille","lat":43.28106,"lon":5.37838,"is_reserved":false,"is_disabled":false,"rental_uris":{"android":"levelo://app?vid=9b5fba50-dca7-4457-9e49-d03b78568ab3","ios":"levelo://app?vid=9b5fba50-dca7-4457-9e49-d03b78568ab3"},"vehicle_type_id":"4","last_reported":1761682320,"current_range_meters":9200,"station_id":"ce4bha12rcd13ifvqee0","pricing_plan_id":"cebpf4jnsgd1na2vs0mg"},{"bike_id":"2155a488-2fd6-4f5f-a3e6-3b28f5308788","system_id":"levelo_inurba_marseille","lat":43.31363,"lon":5.38492,"is_reserved":false,"is_disabled":false,"rental_uris":{"android":"levelo://app?vid=2155a488-2fd6-4f5f-a3e6-3b28f5308788","ios":"levelo://app?vid=2155a488-2fd6-4f5f-a3e6-3b28f5308788"},"vehicle_type_id":"4","last_reported":1761682320,"current_range_meters":9200,"station_id":"ce4bgt92rcd13ifvqcf0","pricing_plan_id":"cebpf4jnsgd1na2vs0mg"},{"bike_id":"90afbfff-0b35-45b7-beb1-cc02da57c9d3","system_id":"levelo_inurba_marseille","lat":43.27841,"lon":5.392,"is_reserved":false,"is_disabled":false,"rental_uris":{"android":"levelo://app?vid=90afbfff-0b35-45b7-beb1-cc02da57c9d3","ios":"levelo://app?vid=90afbfff-0b35-45b7-beb1-cc02da57c9d3"},"vehicle_type_id":"4","last_reported":1761682320,"current_range_meters":9200,"station_id":"ce4bhjp2rcd13ifvqga0","pricing_plan_id":"cebpf4jnsgd1na2vs0mg"},{"bike_id":"4b362e1d-451a-4f97-b2f0-2662c5b1b4e0","system_id":"levelo_inurba_marseille","lat":43.29775,"lon":5.4277,"is_reserved":false,"is_disabled":false,"rental_uris":{"android":"levelo://app?vid=4b362e1d-451a-4f97-b2f0-2662c5b1b4e0","ios":"levelo://app?vid=4b362e1d-451a-4f97-b2f0-2662c5b1b4e0"},"vehicle_type_id":"4","last_reported":1761682320,"current_range_meters":9600,"station_id":"st_d3md5207bmas73dh9klg","pricing_plan_id":"cebpf4jnsgd1na2vs0mg"},{"bike_id":"4b6dc9a1-dc63-4fa7-8440-5eea8c6ff74a","system_id":"levelo_inurba_marseille","lat":43.28972,"lon":5.37837,"is_reserved":false,"is_disabled":false,"rental_uris":{"android":"levelo://app?vid=4b6dc9a1-dc63-4fa7-8440-5eea8c6ff74a","ios":"levelo://app?vid=4b6dc9a1-dc63-4fa7-8440-5eea8c6ff74a"},"vehicle_type_id":"4","last_reported":1761682320,"current_range_meters":9600,"station_id":"ce4bh9p2rcd13ifvqed0","pricing_plan_id":"cebpf4jnsgd1na2vs0mg"},{"bike_id":"b9f4e929-d6f2-4d7c-8b51-19cd25c64bc9","system_id":"levelo_inurba_marseille","lat":43.33715,"lon":5.39185,"is_reserved":false,"is_disabled":false,"rental_uris":{"android":"levelo://app?vid=b9f4e929-d6f2-4d7c-8b51-19cd25c64bc9","ios":"levelo://app?vid=b9f4e929-d6f2-4d7c-8b51-19cd25c64bc9"},"vehicle_type_id":"4","last_reported":1761682320,"current_range_meters":9600,"station_id":"ce4bhr92rcd13ifvqhsg","pricing_plan_id":"cebpf4jnsgd1na2vs0mg"},{"bike_id":"94c0d23a-f06f-40ad-88dc-b44ce398022f","system_id":"levelo_inurba_marseille","lat":43.28038,"lon":5.36937,"is_reserved":false,"is_disabled":false,"rental_uris":{"android":"levelo://app?vid=94c0d23a-f06f-40ad-88dc-b44ce398022f","ios":"levelo://app?vid=94c0d23a-f06f-40ad-88dc-b44ce398022f"},"vehicle_type_id":"4","last_reported":1761682320,"current_range_meters":9600,"station_id":"ce4bha12rcd13ifvqef0","pricing_plan_id":"cebpf4jnsgd1na2vs0mg"},{"bike_id":"dbcbcef0-4b5f-446e-9d2e-80d991993c2b","system_id":"levelo_inurba_marseille","lat":43.29545,"lon":5.40203,"is_reserved":false,"is_disabled":false,"rental_uris":{"android":"levelo://app?vid=dbcbcef0-4b5f-446e-9d2e-80d991993c2b","ios":"levelo://app?vid=dbcbcef0-4b5f-446e-9d2e-80d991993c2b"},"vehicle_type_id":"4","last_reported":1761682320,"current_range_meters":9600,"station_id":"","pricing_plan_id":"cebpf4jnsgd1na2vs0mg"},{"bike_id":"cad97993-63ba-473a-8652-21013ecbb56c","system_id":"levelo_inurba_marseille","lat":43.29277,"lon":5.36848,"is_reserved":false,"is_disabled":false,"rental_uris":{"android":"levelo://app?vid=cad97993-63ba-473a-8652-21013ecbb56c","ios":"levelo://app?vid=cad97993-63ba-473a-8652-21013ecbb56c"},"vehicle_type_id":"4","last_reported":1761682320,"current_range_meters":9600,"station_id":"ce4bhbp2rcd13ifvqesg","pricing_plan_id":"cebpf4jnsgd1na2vs0mg"},{"bike_id":"39f5678c-43a7-4740-bc29-d430479c84ec","system_id":"levelo_inurba_marseille","lat":43.30731,"lon":5.42438,"is_reserved":false,"is_disabled":false,"rental_uris":{"android":"levelo://app?vid=39f5678c-43a7-4740-bc29-d430479c84ec","ios":"levelo://app?vid=39f5678c-43a7-4740-bc29-d430479c84ec"},"vehicle_type_id":"4","last_reported":1761682320,"current_range_meters":10000,"station_id":"st_cvj6ca6bvosntc0bfgr0","pricing_plan_id":"cebpf4jnsgd1na2vs0mg"},{"bike_id":"ca0d61e4-c74b-454b-8b83-93145141090c","system_id":"levelo_inurba_marseille","lat":43.25512,"lon":5.37642,"is_reserved":false,"is_disabled":false,"rental_uris":{"android":"levelo://app?vid=ca0d61e4-c74b-454b-8b83-93145141090c","ios":"levelo://app?vid=ca0d61e4-c74b-454b-8b83-93145141090c"},"vehicle_type_id":"4","last_reported":1761682320,"current_range_meters":10000,"station_id":"ce4bhh12rcd13ifvqff0","pricing_plan_id":"cebpf4jnsgd1na2vs0mg"},{"bike_id":"011ffc47-cab5-4e69-83ea-75158b7053d8","system_id":"levelo_inurba_marseille","lat":43.255821,"lon":5.382295,"is_reserved":false,"is_disabled":true,"rental_uris":{"android":"levelo://app?vid=011ffc47-cab5-4e69-83ea-75158b7053d8","ios":"levelo://app?vid=011ffc47-cab5-4e69-83ea-75158b7053d8"},"vehicle_type_id":"4","last_reported":1761682320,"current_range_meters":10000,"station_id":"ce4bhih2rcd13ifvqfs0","pricing_plan_id":"cebpf4jnsgd1na2vs0mg"},{"bike_id":"0da36f85-c9c3-4754-921b-9ff4fd26bd67","system_id":"levelo_inurba_marseille","lat":43.30303,"lon":5.39198,"is_reserved":false,"is_disabled":false,"rental_uris":{"android":"levelo://app?vid=0da36f85-c9c3-4754-921b-9ff4fd26bd67","ios":"levelo://app?vid=0da36f85-c9c3-4754-921b-9ff4fd26bd67"},"vehicle_type_id":"4","last_reported":1761682320,"current_range_meters":10000,"station_id":"ce4bgkh2rcd13ifvqbk0","pricing_plan_id":"cebpf4jnsgd1na2vs0mg"},{"bike_id":"56bf462e-4d45-4785-83a6-6cd0b15615a7","system_id":"levelo_inurba_marseille","lat":43.27918,"lon":5.39574,"is_reserved":false,"is_disabled":false,"rental_uris":{"android":"levelo://app?vid=56bf462e-4d45-4785-83a6-6cd0b15615a7","ios":"levelo://app?vid=56bf462e-4d45-4785-83a6-6cd0b15615a7"},"vehicle_type_id":"4","last_reported":1761682320,"current_range_meters":10000,"station_id":"ce4bhf92rcd13ifvqf40","pricing_plan_id":"cebpf4jnsgd1na2vs0mg"},{"bike_id":"3831a284-2977-4208-bdb0-ef755a7ea6c2","system_id":"levelo_inurba_marseille","lat":43.30434,"lon":5.38886,"is_reserved":false,"is_disabled":false,"rental_uris":{"android":"levelo://app?vid=3831a284-2977-4208-bdb0-ef755a7ea6c2","ios":"levelo://app?vid=3831a284-2977-4208-bdb0-ef755a7ea6c2"},"vehicle_type_id":"4","last_reported":1761682320,"current_range_meters":10800,"station_id":"ce4bgk12rcd13ifvqbi0","pricing_plan_id":"cebpf4jnsgd1na2vs0mg"},{"bike_id":"312bcefe-9ee0-456c-a236-c358c13c69f2","system_id":"levelo_inurba_marseille","lat":43.31369,"lon":5.38485,"is_reserved":false,"is_disabled":false,"rental_uris":{"android":"levelo://app?vid=312bcefe-9ee0-456c-a236-c358c13c69f2","ios":"levelo://app?vid=312bcefe-9ee0-456c-a236-c358c13c69f2"},"vehicle_type_id":"4","last_reported":1761682320,"current_range_meters":10800,"station_id":"ce4bgt92rcd13ifvqcf0","pricing_plan_id":"cebpf4jnsgd1na2vs0mg"},{"bike_id":"e7c51890-36a7-4c64-b6cd-994a28e61372","system_id":"levelo_inurba_marseille","lat":43.2862,"lon":5.37061,"is_reserved":false,"is_disabled":false,"rental_uris":{"android":"levelo://app?vid=e7c51890-36a7-4c64-b6cd-994a28e61372","ios":"levelo://app?vid=e7c51890-36a7-4c64-b6cd-994a28e61372"},"vehicle_type_id":"4","last_reported":1761682320,"current_range_meters":10800,"station_id":"ce4bht12rcd13ifvqi60","pricing_plan_id":"cebpf4jnsgd1na2vs0mg"},{"bike_id":"fa6bc485-dfe6-4b1d-a8d7-410b149e6fcc","system_id":"levelo_inurba_marseille","lat":43.28439,"lon":5.39215,"is_reserved":false,"is_disabled":false,"rental_uris":{"android":"levelo://app?vid=fa6bc485-dfe6-4b1d-a8d7-410b149e6fcc","ios":"levelo://app?vid=fa6bc485-dfe6-4b1d-a8d7-410b149e6fcc"},"vehicle_type_id":"4","last_reported":1761682320,"current_range_meters":10800,"station_id":"ce4bhoh2rcd13ifvqh5g","pricing_plan_id":"cebpf4jnsgd1na2vs0mg"},{"bike_id":"142bebf4-51bc-4f57-9cc1-4d34f7b1c3f8","system_id":"levelo_inurba_marseille","lat":43.33033,"lon":5.39033,"is_reserved":false,"is_disabled":false,"rental_uris":{"android":"levelo://app?vid=142bebf4-51bc-4f57-9cc1-4d34f7b1c3f8","ios":"levelo://app?vid=142bebf4-51bc-4f57-9cc1-4d34f7b1c3f8"},"vehicle_type_id":"4","last_reported":1761682320,"current_range_meters":11200,"station_id":"ce4bhr92rcd13ifvqhrg","pricing_plan_id":"cebpf4jnsgd1na2vs0mg"},{"bike_id":"dccef0b1-edb3-49b5-866c-43e10e5763cc","system_id":"levelo_inurba_marseille","lat":43.28827,"lon":5.43853,"is_reserved":false,"is_disabled":false,"rental_uris":{"android":"levelo://app?vid=dccef0b1-edb3-49b5-866c-43e10e5763cc","ios":"levelo://app?vid=dccef0b1-edb3-49b5-866c-43e10e5763cc"},"vehicle_type_id":"4","last_reported":1761682320,"current_range_meters":11200,"station_id":"","pricing_plan_id":"cebpf4jnsgd1na2vs0mg"},{"bike_id":"1658feda-bd17-4ba3-b055-fda290c11fec","system_id":"levelo_inurba_marseille","lat":43.30245,"lon":5.40067,"is_reserved":false,"is_disabled":false,"rental_uris":{"android":"levelo://app?vid=1658feda-bd17-4ba3-b055-fda290c11fec","ios":"levelo://app?vid=1658feda-bd17-4ba3-b055-fda290c11fec"},"vehicle_type_id":"4","last_reported":1761682320,"current_range_meters":11200,"station_id":"ce4bgvh2rcd13ifvqcs0","pricing_plan_id":"cebpf4jnsgd1na2vs0mg"},{"bike_id":"6abb9e09-33f3-43f3-9417-8cc0cf0144f6","system_id":"levelo_inurba_marseille","lat":43.29925,"lon":5.37443,"is_reserved":false,"is_disabled":true,"rental_uris":{"android":"levelo://app?vid=6abb9e09-33f3-43f3-9417-8cc0cf0144f6","ios":"levelo://app?vid=6abb9e09-33f3-43f3-9417-8cc0cf0144f6"},"vehicle_type_id":"4","last_reported":1761682320,"current_range_meters":11200,"station_id":"ce4bgjh2rcd13ifvqbg0","pricing_plan_id":"cebpf4jnsgd1na2vs0mg"},{"bike_id":"a8a52bee-c90b-42cf-a2a4-c186653ee417","system_id":"levelo_inurba_marseille","lat":43.28913,"lon":5.38378,"is_reserved":false,"is_disabled":false,"rental_uris":{"android":"levelo://app?vid=a8a52bee-c90b-42cf-a2a4-c186653ee417","ios":"levelo://app?vid=a8a52bee-c90b-42cf-a2a4-c186653ee417"},"vehicle_type_id":"4","last_reported":1761682320,"current_range_meters":11200,"station_id":"ce4bh612rcd13ifvqe6g","pricing_plan_id":"cebpf4jnsgd1na2vs0mg"},{"bike_id":"897d1025-cdde-48ec-9b73-6418bafdbbc5","system_id":"levelo_inurba_marseille","lat":43.2807,"lon":5.34756,"is_reserved":false,"is_disabled":false,"rental_uris":{"android":"levelo://app?vid=897d1025-cdde-48ec-9b73-6418bafdbbc5","ios":"levelo://app?vid=897d1025-cdde-48ec-9b73-6418bafdbbc5"},"vehicle_type_id":"4","last_reported":1761682320,"current_range_meters":11200,"station_id":"","pricing_plan_id":"cebpf4jnsgd1na2vs0mg"},{"bike_id":"32a863b6-26b8-457c-992a-f0253dd4c910","system_id":"levelo_inurba_marseille","lat":43.28483,"lon":5.4839,"is_reserved":false,"is_disabled":false,"rental_uris":{"android":"levelo://app?vid=32a863b6-26b8-457c-992a-f0253dd4c910","ios":"levelo://app?vid=32a863b6-26b8-457c-992a-f0253dd4c910"},"vehicle_type_id":"4","last_reported":1761682320,"current_range_meters":11200,"station_id":"st_d3svhcjqgbts73a3dn0g","pricing_plan_id":"cebpf4jnsgd1na2vs0mg"},{"bike_id":"4a1afef0-2bd1-437a-9f59-3f5fc040aeda","system_id":"levelo_inurba_marseille","lat":43.287154,"lon":5.379365,"is_reserved":false,"is_disabled":false,"rental_uris":{"android":"levelo://app?vid=4a1afef0-2bd1-437a-9f59-3f5fc040aeda","ios":"levelo://app?vid=4a1afef0-2bd1-437a-9f59-3f5fc040aeda"},"vehicle_type_id":"4","last_reported":1761682320,"current_range_meters":11600,"station_id":"ce4bh9p2rcd13ifvqec0","pricing_plan_id":"cebpf4jnsgd1na2vs0mg"},{"bike_id":"d5ca831f-8041-403e-ada8-7b4196c3d5be","system_id":"levelo_inurba_marseille","lat":43.293714,"lon":5.379385,"is_reserved":false,"is_disabled":false,"rental_uris":{"android":"levelo://app?vid=d5ca831f-8041-403e-ada8-7b4196c3d5be","ios":"levelo://app?vid=d5ca831f-8041-403e-ada8-7b4196c3d5be"},"vehicle_type_id":"4","last_reported":1761682320,"current_range_meters":11600,"station_id":"","pricing_plan_id":"cebpf4jnsgd1na2vs0mg"},{"bike_id":"7f7e1362-af0a-48a6-bf92-3f8a1d452c0a","system_id":"levelo_inurba_marseille","lat":43.290281,"lon":5.386528,"is_reserved":false,"is_disabled":false,"rental_uris":{"android":"levelo://app?vid=7f7e1362-af0a-48a6-bf92-3f8a1d452c0a","ios":"levelo://app?vid=7f7e1362-af0a-48a6-bf92-3f8a1d452c0a"},"vehicle_type_id":"4","last_reported":1761682320,"current_range_meters":11600,"station_id":"","pricing_plan_id":"cebpf4jnsgd1na2vs0mg"},{"bike_id":"405636d0-c0a4-4322-8527-78bc0343dab8","system_id":"levelo_inurba_marseille","lat":43.3372,"lon":5.3917,"is_reserved":false,"is_disabled":false,"rental_uris":{"android":"levelo://app?vid=405636d0-c0a4-4322-8527-78bc0343dab8","ios":"levelo://app?vid=405636d0-c0a4-4322-8527-78bc0343dab8"},"vehicle_type_id":"4","last_reported":1761682320,"current_range_meters":11600,"station_id":"ce4bhr92rcd13ifvqhsg","pricing_plan_id":"cebpf4jnsgd1na2vs0mg"},{"bike_id":"d05c4176-f995-472c-9849-ed781d6a7edd","system_id":"levelo_inurba_marseille","lat":43.29034,"lon":5.38633,"is_reserved":false,"is_disabled":false,"rental_uris":{"android":"levelo://app?vid=d05c4176-f995-472c-9849-ed781d6a7edd","ios":"levelo://app?vid=d05c4176-f995-472c-9849-ed781d6a7edd"},"vehicle_type_id":"4","last_reported":1761682320,"current_range_meters":12000,"station_id":"ce4bh4p2rcd13ifvqe0g","pricing_plan_id":"cebpf4jnsgd1na2vs0mg"},{"bike_id":"ae02210f-3a75-423b-b85c-34cdf2f682b3","system_id":"levelo_inurba_marseille","lat":43.28412,"lon":5.37515,"is_reserved":false,"is_disabled":false,"rental_uris":{"android":"levelo://app?vid=ae02210f-3a75-423b-b85c-34cdf2f682b3","ios":"levelo://app?vid=ae02210f-3a75-423b-b85c-34cdf2f682b3"},"vehicle_type_id":"4","last_reported":1761682320,"current_range_meters":12000,"station_id":"ce4bh412rcd13ifvqds0","pricing_plan_id":"cebpf4jnsgd1na2vs0mg"},{"bike_id":"2dadb0b7-125c-4cad-a51f-e306e38949dd","system_id":"levelo_inurba_marseille","lat":43.25325,"lon":5.42158,"is_reserved":false,"is_disabled":false,"rental_uris":{"android":"levelo://app?vid=2dadb0b7-125c-4cad-a51f-e306e38949dd","ios":"levelo://app?vid=2dadb0b7-125c-4cad-a51f-e306e38949dd"},"vehicle_type_id":"4","last_reported":1761682320,"current_range_meters":12000,"station_id":"st_d2m65c5bi1j21697t3ng","pricing_plan_id":"cebpf4jnsgd1na2vs0mg"},{"bike_id":"d2ce14a1-e9f5-407b-a0c3-2e69d0a16a79","system_id":"levelo_inurba_marseille","lat":43.28217,"lon":5.39077,"is_reserved":false,"is_disabled":true,"rental_uris":{"android":"levelo://app?vid=d2ce14a1-e9f5-407b-a0c3-2e69d0a16a79","ios":"levelo://app?vid=d2ce14a1-e9f5-407b-a0c3-2e69d0a16a79"},"vehicle_type_id":"4","last_reported":1761682320,"current_range_meters":12000,"station_id":"ce4bhn92rcd13ifvqgsg","pricing_plan_id":"cebpf4jnsgd1na2vs0mg"},{"bike_id":"a5cc4b5b-d3ce-4db1-8572-7532bcb69aa1","system_id":"levelo_inurba_marseille","lat":43.29528,"lon":5.38545,"is_reserved":false,"is_disabled":false,"rental_uris":{"android":"levelo://app?vid=a5cc4b5b-d3ce-4db1-8572-7532bcb69aa1","ios":"levelo://app?vid=a5cc4b5b-d3ce-4db1-8572-7532bcb69aa1"},"vehicle_type_id":"4","last_reported":1761682320,"current_range_meters":12000,"station_id":"ce4bgih2rcd13ifvqba0","pricing_plan_id":"cebpf4jnsgd1na2vs0mg"},{"bike_id":"6a729736-c684-4ed0-8442-dde1dd45730d","system_id":"levelo_inurba_marseille","lat":43.24175,"lon":5.39722,"is_reserved":false,"is_disabled":false,"rental_uris":{"android":"levelo://app?vid=6a729736-c684-4ed0-8442-dde1dd45730d","ios":"levelo://app?vid=6a729736-c684-4ed0-8442-dde1dd45730d"},"vehicle_type_id":"4","last_reported":1761682320,"current_range_meters":12000,"station_id":"ce4bhn12rcd13ifvqgpg","pricing_plan_id":"cebpf4jnsgd1na2vs0mg"},{"bike_id":"6697d458-38f9-4512-b600-cd3b9e804749","system_id":"levelo_inurba_marseille","lat":43.285739,"lon":5.39497,"is_reserved":false,"is_disabled":false,"rental_uris":{"android":"levelo://app?vid=6697d458-38f9-4512-b600-cd3b9e804749","ios":"levelo://app?vid=6697d458-38f9-4512-b600-cd3b9e804749"},"vehicle_type_id":"4","last_reported":1761682320,"current_range_meters":12000,"station_id":"ce4bh292rcd13ifvqdg0","pricing_plan_id":"cebpf4jnsgd1na2vs0mg"},{"bike_id":"1975be38-f301-42ba-a022-50bba37a3dac","system_id":"levelo_inurba_marseille","lat":43.2842,"lon":5.37518,"is_reserved":false,"is_disabled":false,"rental_uris":{"android":"levelo://app?vid=1975be38-f301-42ba-a022-50bba37a3dac","ios":"levelo://app?vid=1975be38-f301-42ba-a022-50bba37a3dac"},"vehicle_type_id":"4","last_reported":1761682320,"current_range_meters":12000,"station_id":"ce4bh412rcd13ifvqds0","pricing_plan_id":"cebpf4jnsgd1na2vs0mg"},{"bike_id":"840e9b42-216d-4d60-afcb-bf05b5f9fefe","system_id":"levelo_inurba_marseille","lat":43.31274,"lon":5.37755,"is_reserved":false,"is_disabled":false,"rental_uris":{"android":"levelo://app?vid=840e9b42-216d-4d60-afcb-bf05b5f9fefe","ios":"levelo://app?vid=840e9b42-216d-4d60-afcb-bf05b5f9fefe"},"vehicle_type_id":"4","last_reported":1761682320,"current_range_meters":12000,"station_id":"","pricing_plan_id":"cebpf4jnsgd1na2vs0mg"},{"bike_id":"13e2c97f-09dd-4126-9b7a-0eb2e83aba46","system_id":"levelo_inurba_marseille","lat":43.28936,"lon":5.36389,"is_reserved":false,"is_disabled":false,"rental_uris":{"android":"levelo://app?vid=13e2c97f-09dd-4126-9b7a-0eb2e83aba46","ios":"levelo://app?vid=13e2c97f-09dd-4126-9b7a-0eb2e83aba46"},"vehicle_type_id":"4","last_reported":1761682320,"current_range_meters":12000,"station_id":"ce4bhc92rcd13ifvqetg","pricing_plan_id":"cebpf4jnsgd1na2vs0mg"},{"bike_id":"f4ae9746-b1ce-4423-871f-af6ff98b156e","system_id":"levelo_inurba_marseille","lat":43.30241,"lon":5.40067,"is_reserved":false,"is_disabled":false,"rental_uris":{"android":"levelo://app?vid=f4ae9746-b1ce-4423-871f-af6ff98b156e","ios":"levelo://app?vid=f4ae9746-b1ce-4423-871f-af6ff98b156e"},"vehicle_type_id":"4","last_reported":1761682320,"current_range_meters":12000,"station_id":"ce4bgvh2rcd13ifvqcs0","pricing_plan_id":"cebpf4jnsgd1na2vs0mg"},{"bike_id":"3e63b198-d763-4fd9-b8a6-f7e11c98952a","system_id":"levelo_inurba_marseille","lat":43.29098,"lon":5.38124,"is_reserved":false,"is_disabled":false,"rental_uris":{"android":"levelo://app?vid=3e63b198-d763-4fd9-b8a6-f7e11c98952a","ios":"levelo://app?vid=3e63b198-d763-4fd9-b8a6-f7e11c98952a"},"vehicle_type_id":"4","last_reported":1761682320,"current_range_meters":12400,"station_id":"ce4bh512rcd13ifvqe2g","pricing_plan_id":"cebpf4jnsgd1na2vs0mg"},{"bike_id":"eea91071-a585-455f-a824-596ec59b39cb","system_id":"levelo_inurba_marseille","lat":43.25332,"lon":5.4218,"is_reserved":false,"is_disabled":false,"rental_uris":{"android":"levelo://app?vid=eea91071-a585-455f-a824-596ec59b39cb","ios":"levelo://app?vid=eea91071-a585-455f-a824-596ec59b39cb"},"vehicle_type_id":"4","last_reported":1761682320,"current_range_meters":12400,"station_id":"st_d2m65c5bi1j21697t3ng","pricing_plan_id":"cebpf4jnsgd1na2vs0mg"},{"bike_id":"db88a8a5-5637-4384-a6d7-41d8f099747a","system_id":"levelo_inurba_marseille","lat":43.312379,"lon":5.368484,"is_reserved":false,"is_disabled":false,"rental_uris":{"android":"levelo://app?vid=db88a8a5-5637-4384-a6d7-41d8f099747a","ios":"levelo://app?vid=db88a8a5-5637-4384-a6d7-41d8f099747a"},"vehicle_type_id":"4","last_reported":1761682320,"current_range_meters":12400,"station_id":"ce4bgr92rcd13ifvqc6g","pricing_plan_id":"cebpf4jnsgd1na2vs0mg"},{"bike_id":"fcc2934e-9013-4e15-96b4-6221ff15f205","system_id":"levelo_inurba_marseille","lat":43.23181,"lon":5.39989,"is_reserved":false,"is_disabled":false,"rental_uris":{"android":"levelo://app?vid=fcc2934e-9013-4e15-96b4-6221ff15f205","ios":"levelo://app?vid=fcc2934e-9013-4e15-96b4-6221ff15f205"},"vehicle_type_id":"4","last_reported":1761682320,"current_range_meters":12400,"station_id":"ce4bhn12rcd13ifvqgqg","pricing_plan_id":"cebpf4jnsgd1na2vs0mg"},{"bike_id":"5dae57e2-b476-4f3b-801e-fed4e7b0c558","system_id":"levelo_inurba_marseille","lat":43.24392,"lon":5.3705,"is_reserved":false,"is_disabled":false,"rental_uris":{"android":"levelo://app?vid=5dae57e2-b476-4f3b-801e-fed4e7b0c558","ios":"levelo://app?vid=5dae57e2-b476-4f3b-801e-fed4e7b0c558"},"vehicle_type_id":"4","last_reported":1761682320,"current_range_meters":12400,"station_id":"ce4bhhh2rcd13ifvqfk0","pricing_plan_id":"cebpf4jnsgd1na2vs0mg"},{"bike_id":"e68f19ec-6316-4a47-919b-a01164633315","system_id":"levelo_inurba_marseille","lat":43.250978,"lon":5.395197,"is_reserved":false,"is_disabled":true,"rental_uris":{"android":"levelo://app?vid=e68f19ec-6316-4a47-919b-a01164633315","ios":"levelo://app?vid=e68f19ec-6316-4a47-919b-a01164633315"},"vehicle_type_id":"4","last_reported":1761682320,"current_range_meters":12400,"station_id":"ce4bhm12rcd13ifvqgkg","pricing_plan_id":"cebpf4jnsgd1na2vs0mg"},{"bike_id":"a689a119-dfc2-429b-a8c0-f1c224fb6fdc","system_id":"levelo_inurba_marseille","lat":43.295189,"lon":5.390322,"is_reserved":false,"is_disabled":false,"rental_uris":{"android":"levelo://app?vid=a689a119-dfc2-429b-a8c0-f1c224fb6fdc","ios":"levelo://app?vid=a689a119-dfc2-429b-a8c0-f1c224fb6fdc"},"vehicle_type_id":"4","last_reported":1761682320,"current_range_meters":12400,"station_id":"ce4bh3p2rcd13ifvqdp0","pricing_plan_id":"cebpf4jnsgd1na2vs0mg"},{"bike_id":"0ab4ee7f-daa9-4046-91b8-1f8994cd51b1","system_id":"levelo_inurba_marseille","lat":43.30303,"lon":5.36906,"is_reserved":false,"is_disabled":false,"rental_uris":{"android":"levelo://app?vid=0ab4ee7f-daa9-4046-91b8-1f8994cd51b1","ios":"levelo://app?vid=0ab4ee7f-daa9-4046-91b8-1f8994cd51b1"},"vehicle_type_id":"4","last_reported":1761682320,"current_range_meters":12800,"station_id":"ce4bgqh2rcd13ifvqc5g","pricing_plan_id":"cebpf4jnsgd1na2vs0mg"},{"bike_id":"dced2bcc-e95f-44ce-b7d8-7bb47def612a","system_id":"levelo_inurba_marseille","lat":43.23054,"lon":5.35501,"is_reserved":false,"is_disabled":false,"rental_uris":{"android":"levelo://app?vid=dced2bcc-e95f-44ce-b7d8-7bb47def612a","ios":"levelo://app?vid=dced2bcc-e95f-44ce-b7d8-7bb47def612a"},"vehicle_type_id":"4","last_reported":1761682320,"current_range_meters":12800,"station_id":"cpo3342slgdg3j2ifvpg","pricing_plan_id":"cebpf4jnsgd1na2vs0mg"},{"bike_id":"0c6edb58-af86-422a-8b73-50f3c60d5fc5","system_id":"levelo_inurba_marseille","lat":43.27493,"lon":5.42456,"is_reserved":false,"is_disabled":false,"rental_uris":{"android":"levelo://app?vid=0c6edb58-af86-422a-8b73-50f3c60d5fc5","ios":"levelo://app?vid=0c6edb58-af86-422a-8b73-50f3c60d5fc5"},"vehicle_type_id":"4","last_reported":1761682320,"current_range_meters":12800,"station_id":"ce4bhn92rcd13ifvqgrg","pricing_plan_id":"cebpf4jnsgd1na2vs0mg"},{"bike_id":"f1b32764-5ab9-4e8e-a35a-116f87feb363","system_id":"levelo_inurba_marseille","lat":43.303193,"lon":5.404397,"is_reserved":false,"is_disabled":false,"rental_uris":{"android":"levelo://app?vid=f1b32764-5ab9-4e8e-a35a-116f87feb363","ios":"levelo://app?vid=f1b32764-5ab9-4e8e-a35a-116f87feb363"},"vehicle_type_id":"4","last_reported":1761682320,"current_range_meters":12800,"station_id":"ce4bh012rcd13ifvqd10","pricing_plan_id":"cebpf4jnsgd1na2vs0mg"},{"bike_id":"49ed0d39-51fe-4cd4-8527-50556baa8749","system_id":"levelo_inurba_marseille","lat":43.22531,"lon":5.348321,"is_reserved":false,"is_disabled":false,"rental_uris":{"android":"levelo://app?vid=49ed0d39-51fe-4cd4-8527-50556baa8749","ios":"levelo://app?vid=49ed0d39-51fe-4cd4-8527-50556baa8749"},"vehicle_type_id":"4","last_reported":1761682320,"current_range_meters":12800,"station_id":"","pricing_plan_id":"cebpf4jnsgd1na2vs0mg"},{"bike_id":"86b1c805-1428-4381-802a-544eb6ed0b5e","system_id":"levelo_inurba_marseille","lat":43.283443,"lon":5.381058,"is_reserved":false,"is_disabled":false,"rental_uris":{"android":"levelo://app?vid=86b1c805-1428-4381-802a-544eb6ed0b5e","ios":"levelo://app?vid=86b1c805-1428-4381-802a-544eb6ed0b5e"},"vehicle_type_id":"4","last_reported":1761682320,"current_range_meters":12800,"station_id":"ce4bh412rcd13ifvqdr0","pricing_plan_id":"cebpf4jnsgd1na2vs0mg"},{"bike_id":"e362f4ba-3ff5-409c-847f-dbee0482ec04","system_id":"levelo_inurba_marseille","lat":43.29993,"lon":5.37172,"is_reserved":false,"is_disabled":true,"rental_uris":{"android":"levelo://app?vid=e362f4ba-3ff5-409c-847f-dbee0482ec04","ios":"levelo://app?vid=e362f4ba-3ff5-409c-847f-dbee0482ec04"},"vehicle_type_id":"4","last_reported":1761682320,"current_range_meters":12800,"station_id":"ce4bgr92rcd13ifvqc7g","pricing_plan_id":"cebpf4jnsgd1na2vs0mg"},{"bike_id":"63dac326-4326-4d8c-b485-571f34cbb501","system_id":"levelo_inurba_marseille","lat":43.29281,"lon":5.3838,"is_reserved":false,"is_disabled":false,"rental_uris":{"android":"levelo://app?vid=63dac326-4326-4d8c-b485-571f34cbb501","ios":"levelo://app?vid=63dac326-4326-4d8c-b485-571f34cbb501"},"vehicle_type_id":"4","last_reported":1761682320,"current_range_meters":13600,"station_id":"ce4bh692rcd13ifvqea0","pricing_plan_id":"cebpf4jnsgd1na2vs0mg"},{"bike_id":"813b0e57-2c36-42ec-aee0-add73db61124","system_id":"levelo_inurba_marseille","lat":43.3088,"lon":5.39649,"is_reserved":false,"is_disabled":false,"rental_uris":{"android":"levelo://app?vid=813b0e57-2c36-42ec-aee0-add73db61124","ios":"levelo://app?vid=813b0e57-2c36-42ec-aee0-add73db61124"},"vehicle_type_id":"4","last_reported":1761682320,"current_range_meters":13600,"station_id":"ce4bh012rcd13ifvqcv0","pricing_plan_id":"cebpf4jnsgd1na2vs0mg"},{"bike_id":"45e7638c-8f27-4e4d-ac36-814394bfadd6","system_id":"levelo_inurba_marseille","lat":43.30247,"lon":5.40041,"is_reserved":false,"is_disabled":false,"rental_uris":{"android":"levelo://app?vid=45e7638c-8f27-4e4d-ac36-814394bfadd6","ios":"levelo://app?vid=45e7638c-8f27-4e4d-ac36-814394bfadd6"},"vehicle_type_id":"4","last_reported":1761682320,"current_range_meters":13600,"station_id":"ce4bgvh2rcd13ifvqcs0","pricing_plan_id":"cebpf4jnsgd1na2vs0mg"},{"bike_id":"f202aef9-db9c-4b5f-b19b-62f40b9a9dba","system_id":"levelo_inurba_marseille","lat":43.24072,"lon":5.37746,"is_reserved":false,"is_disabled":false,"rental_uris":{"android":"levelo://app?vid=f202aef9-db9c-4b5f-b19b-62f40b9a9dba","ios":"levelo://app?vid=f202aef9-db9c-4b5f-b19b-62f40b9a9dba"},"vehicle_type_id":"4","last_reported":1761682320,"current_range_meters":13600,"station_id":"ce4bhnp2rcd13ifvqgvg","pricing_plan_id":"cebpf4jnsgd1na2vs0mg"},{"bike_id":"5c1b8dcb-5d02-4d88-8837-349d552ce442","system_id":"levelo_inurba_marseille","lat":43.29528,"lon":5.38549,"is_reserved":false,"is_disabled":false,"rental_uris":{"android":"levelo://app?vid=5c1b8dcb-5d02-4d88-8837-349d552ce442","ios":"levelo://app?vid=5c1b8dcb-5d02-4d88-8837-349d552ce442"},"vehicle_type_id":"4","last_reported":1761682320,"current_range_meters":13600,"station_id":"ce4bgih2rcd13ifvqba0","pricing_plan_id":"cebpf4jnsgd1na2vs0mg"},{"bike_id":"1ba4c94a-7f92-4a79-b713-01b134a554c7","system_id":"levelo_inurba_marseille","lat":43.30241,"lon":5.40054,"is_reserved":false,"is_disabled":false,"rental_uris":{"android":"levelo://app?vid=1ba4c94a-7f92-4a79-b713-01b134a554c7","ios":"levelo://app?vid=1ba4c94a-7f92-4a79-b713-01b134a554c7"},"vehicle_type_id":"4","last_reported":1761682320,"current_range_meters":13600,"station_id":"ce4bgvh2rcd13ifvqcs0","pricing_plan_id":"cebpf4jnsgd1na2vs0mg"},{"bike_id":"29902583-9450-4aea-886e-f84d10138293","system_id":"levelo_inurba_marseille","lat":43.29986,"lon":5.38485,"is_reserved":false,"is_disabled":false,"rental_uris":{"android":"levelo://app?vid=29902583-9450-4aea-886e-f84d10138293","ios":"levelo://app?vid=29902583-9450-4aea-886e-f84d10138293"},"vehicle_type_id":"4","last_reported":1761682320,"current_range_meters":13600,"station_id":"ce4bgj92rcd13ifvqbd0","pricing_plan_id":"cebpf4jnsgd1na2vs0mg"},{"bike_id":"6363557c-959d-498a-9711-a8817904dbde","system_id":"levelo_inurba_marseille","lat":43.30128,"lon":5.39869,"is_reserved":false,"is_disabled":false,"rental_uris":{"android":"levelo://app?vid=6363557c-959d-498a-9711-a8817904dbde","ios":"levelo://app?vid=6363557c-959d-498a-9711-a8817904dbde"},"vehicle_type_id":"4","last_reported":1761682320,"current_range_meters":13600,"station_id":"ce4bh0h2rcd13ifvqd40","pricing_plan_id":"cebpf4jnsgd1na2vs0mg"},{"bike_id":"ce00e885-a781-4efe-acd7-bb2e5665d1e7","system_id":"levelo_inurba_marseille","lat":43.28416,"lon":5.37514,"is_reserved":false,"is_disabled":false,"rental_uris":{"android":"levelo://app?vid=ce00e885-a781-4efe-acd7-bb2e5665d1e7","ios":"levelo://app?vid=ce00e885-a781-4efe-acd7-bb2e5665d1e7"},"vehicle_type_id":"4","last_reported":1761682320,"current_range_meters":14000,"station_id":"ce4bh412rcd13ifvqds0","pricing_plan_id":"cebpf4jnsgd1na2vs0mg"},{"bike_id":"94e6b0aa-f8c9-477e-8091-c3a189e0f238","system_id":"levelo_inurba_marseille","lat":43.29678,"lon":5.38094,"is_reserved":false,"is_disabled":false,"rental_uris":{"android":"levelo://app?vid=94e6b0aa-f8c9-477e-8091-c3a189e0f238","ios":"levelo://app?vid=94e6b0aa-f8c9-477e-8091-c3a189e0f238"},"vehicle_type_id":"4","last_reported":1761682320,"current_range_meters":14000,"station_id":"","pricing_plan_id":"cebpf4jnsgd1na2vs0mg"},{"bike_id":"f9e3a613-e29e-4338-a770-1a9a0c8616d6","system_id":"levelo_inurba_marseille","lat":43.29174,"lon":5.39378,"is_reserved":false,"is_disabled":false,"rental_uris":{"android":"levelo://app?vid=f9e3a613-e29e-4338-a770-1a9a0c8616d6","ios":"levelo://app?vid=f9e3a613-e29e-4338-a770-1a9a0c8616d6"},"vehicle_type_id":"4","last_reported":1761682320,"current_range_meters":14000,"station_id":"","pricing_plan_id":"cebpf4jnsgd1na2vs0mg"},{"bike_id":"32d7653e-b033-4183-b4c0-f44169bb9067","system_id":"levelo_inurba_marseille","lat":43.32703,"lon":5.39197,"is_reserved":false,"is_disabled":false,"rental_uris":{"android":"levelo://app?vid=32d7653e-b033-4183-b4c0-f44169bb9067","ios":"levelo://app?vid=32d7653e-b033-4183-b4c0-f44169bb9067"},"vehicle_type_id":"4","last_reported":1761682320,"current_range_meters":14000,"station_id":"","pricing_plan_id":"cebpf4jnsgd1na2vs0mg"},{"bike_id":"2be3bf9b-39f4-4c37-8c01-9e9bcabe1c53","system_id":"levelo_inurba_marseille","lat":43.33741,"lon":5.37444,"is_reserved":false,"is_disabled":false,"rental_uris":{"android":"levelo://app?vid=2be3bf9b-39f4-4c37-8c01-9e9bcabe1c53","ios":"levelo://app?vid=2be3bf9b-39f4-4c37-8c01-9e9bcabe1c53"},"vehicle_type_id":"4","last_reported":1761682320,"current_range_meters":14000,"station_id":"","pricing_plan_id":"cebpf4jnsgd1na2vs0mg"},{"bike_id":"720466cc-999a-4d77-9e26-053a3dffc8ba","system_id":"levelo_inurba_marseille","lat":43.323675,"lon":5.388864,"is_reserved":false,"is_disabled":false,"rental_uris":{"android":"levelo://app?vid=720466cc-999a-4d77-9e26-053a3dffc8ba","ios":"levelo://app?vid=720466cc-999a-4d77-9e26-053a3dffc8ba"},"vehicle_type_id":"4","last_reported":1761682320,"current_range_meters":14000,"station_id":"ce4bhqp2rcd13ifvqhog","pricing_plan_id":"cebpf4jnsgd1na2vs0mg"},{"bike_id":"538db47c-5c7c-47b2-a3eb-37d1e1e77298","system_id":"levelo_inurba_marseille","lat":43.32159,"lon":5.41665,"is_reserved":false,"is_disabled":false,"rental_uris":{"android":"levelo://app?vid=538db47c-5c7c-47b2-a3eb-37d1e1e77298","ios":"levelo://app?vid=538db47c-5c7c-47b2-a3eb-37d1e1e77298"},"vehicle_type_id":"4","last_reported":1761682320,"current_range_meters":14400,"station_id":"","pricing_plan_id":"cebpf4jnsgd1na2vs0mg"},{"bike_id":"ae8ebe94-fc0f-4409-8f77-39eb5c613a67","system_id":"levelo_inurba_marseille","lat":43.337444,"lon":5.374475,"is_reserved":false,"is_disabled":false,"rental_uris":{"android":"levelo://app?vid=ae8ebe94-fc0f-4409-8f77-39eb5c613a67","ios":"levelo://app?vid=ae8ebe94-fc0f-4409-8f77-39eb5c613a67"},"vehicle_type_id":"4","last_reported":1761682320,"current_range_meters":14400,"station_id":"","pricing_plan_id":"cebpf4jnsgd1na2vs0mg"},{"bike_id":"aa0e7e4b-f890-4f53-a40a-615d9f77115a","system_id":"levelo_inurba_marseille","lat":43.321029,"lon":5.367778,"is_reserved":false,"is_disabled":false,"rental_uris":{"android":"levelo://app?vid=aa0e7e4b-f890-4f53-a40a-615d9f77115a","ios":"levelo://app?vid=aa0e7e4b-f890-4f53-a40a-615d9f77115a"},"vehicle_type_id":"4","last_reported":1761682320,"current_range_meters":14400,"station_id":"ce4bhrh2rcd13ifvqhug","pricing_plan_id":"cebpf4jnsgd1na2vs0mg"},{"bike_id":"8df1ba07-129e-46c8-8ce6-2388de2921b9","system_id":"levelo_inurba_marseille","lat":43.282669,"lon":5.35059,"is_reserved":false,"is_disabled":false,"rental_uris":{"android":"levelo://app?vid=8df1ba07-129e-46c8-8ce6-2388de2921b9","ios":"levelo://app?vid=8df1ba07-129e-46c8-8ce6-2388de2921b9"},"vehicle_type_id":"4","last_reported":1761682320,"current_range_meters":14400,"station_id":"ce4bhbp2rcd13ifvqerg","pricing_plan_id":"cebpf4jnsgd1na2vs0mg"},{"bike_id":"5f429273-0124-42f3-9bc4-84a4b4b750b7","system_id":"levelo_inurba_marseille","lat":43.29514,"lon":5.39042,"is_reserved":false,"is_disabled":false,"rental_uris":{"android":"levelo://app?vid=5f429273-0124-42f3-9bc4-84a4b4b750b7","ios":"levelo://app?vid=5f429273-0124-42f3-9bc4-84a4b4b750b7"},"vehicle_type_id":"4","last_reported":1761682320,"current_range_meters":14400,"station_id":"ce4bh3p2rcd13ifvqdp0","pricing_plan_id":"cebpf4jnsgd1na2vs0mg"},{"bike_id":"c2a5db04-9a47-4f57-bfc5-ecfd396760a0","system_id":"levelo_inurba_marseille","lat":43.29509,"lon":5.39039,"is_reserved":false,"is_disabled":false,"rental_uris":{"android":"levelo://app?vid=c2a5db04-9a47-4f57-bfc5-ecfd396760a0","ios":"levelo://app?vid=c2a5db04-9a47-4f57-bfc5-ecfd396760a0"},"vehicle_type_id":"4","last_reported":1761682320,"current_range_meters":14400,"station_id":"ce4bh3p2rcd13ifvqdp0","pricing_plan_id":"cebpf4jnsgd1na2vs0mg"},{"bike_id":"e4fd9ca6-7b99-43f9-a59b-0cb9e4c40d4b","system_id":"levelo_inurba_marseille","lat":43.2902,"lon":5.3865,"is_reserved":false,"is_disabled":false,"rental_uris":{"android":"levelo://app?vid=e4fd9ca6-7b99-43f9-a59b-0cb9e4c40d4b","ios":"levelo://app?vid=e4fd9ca6-7b99-43f9-a59b-0cb9e4c40d4b"},"vehicle_type_id":"4","last_reported":1761682320,"current_range_meters":14400,"station_id":"ce4bh4p2rcd13ifvqe0g","pricing_plan_id":"cebpf4jnsgd1na2vs0mg"},{"bike_id":"50458368-3c2e-46e5-bc6a-25ba3116f6df","system_id":"levelo_inurba_marseille","lat":43.298106,"lon":5.440592,"is_reserved":false,"is_disabled":false,"rental_uris":{"android":"levelo://app?vid=50458368-3c2e-46e5-bc6a-25ba3116f6df","ios":"levelo://app?vid=50458368-3c2e-46e5-bc6a-25ba3116f6df"},"vehicle_type_id":"4","last_reported":1761682320,"current_range_meters":14800,"station_id":"st_d3jp68qikq2c7381ktn0","pricing_plan_id":"cebpf4jnsgd1na2vs0mg"},{"bike_id":"e0ff5506-344a-4f05-a1d0-68f5db5c5e83","system_id":"levelo_inurba_marseille","lat":43.29537,"lon":5.38538,"is_reserved":false,"is_disabled":false,"rental_uris":{"android":"levelo://app?vid=e0ff5506-344a-4f05-a1d0-68f5db5c5e83","ios":"levelo://app?vid=e0ff5506-344a-4f05-a1d0-68f5db5c5e83"},"vehicle_type_id":"4","last_reported":1761682320,"current_range_meters":14800,"station_id":"ce4bgih2rcd13ifvqba0","pricing_plan_id":"cebpf4jnsgd1na2vs0mg"},{"bike_id":"b9d67388-e6e2-4d26-9de1-1bbf29de93ce","system_id":"levelo_inurba_marseille","lat":43.28703,"lon":5.39982,"is_reserved":false,"is_disabled":false,"rental_uris":{"android":"levelo://app?vid=b9d67388-e6e2-4d26-9de1-1bbf29de93ce","ios":"levelo://app?vid=b9d67388-e6e2-4d26-9de1-1bbf29de93ce"},"vehicle_type_id":"4","last_reported":1761682320,"current_range_meters":14800,"station_id":"ce4bho92rcd13ifvqh3g","pricing_plan_id":"cebpf4jnsgd1na2vs0mg"},{"bike_id":"ff47bb6a-259f-4abd-b272-7462ca9a56ef","system_id":"levelo_inurba_marseille","lat":43.28102,"lon":5.37838,"is_reserved":false,"is_disabled":false,"rental_uris":{"android":"levelo://app?vid=ff47bb6a-259f-4abd-b272-7462ca9a56ef","ios":"levelo://app?vid=ff47bb6a-259f-4abd-b272-7462ca9a56ef"},"vehicle_type_id":"4","last_reported":1761682320,"current_range_meters":14800,"station_id":"ce4bha12rcd13ifvqee0","pricing_plan_id":"cebpf4jnsgd1na2vs0mg"},{"bike_id":"33a47c2d-4fb5-4d91-8176-a210727b6c18","system_id":"levelo_inurba_marseille","lat":43.29625,"lon":5.40587,"is_reserved":false,"is_disabled":false,"rental_uris":{"android":"levelo://app?vid=33a47c2d-4fb5-4d91-8176-a210727b6c18","ios":"levelo://app?vid=33a47c2d-4fb5-4d91-8176-a210727b6c18"},"vehicle_type_id":"4","last_reported":1761682320,"current_range_meters":14800,"station_id":"ce4bh0h2rcd13ifvqd60","pricing_plan_id":"cebpf4jnsgd1na2vs0mg"},{"bike_id":"7aa26a18-77e4-41b2-bb4d-083d6334db1d","system_id":"levelo_inurba_marseille","lat":43.281151,"lon":5.378529,"is_reserved":false,"is_disabled":false,"rental_uris":{"android":"levelo://app?vid=7aa26a18-77e4-41b2-bb4d-083d6334db1d","ios":"levelo://app?vid=7aa26a18-77e4-41b2-bb4d-083d6334db1d"},"vehicle_type_id":"4","last_reported":1761682320,"current_range_meters":14800,"station_id":"ce4bha12rcd13ifvqee0","pricing_plan_id":"cebpf4jnsgd1na2vs0mg"},{"bike_id":"7e5e50fa-c9e1-4255-8d8e-919ab2cb3bf1","system_id":"levelo_inurba_marseille","lat":43.251,"lon":5.40324,"is_reserved":false,"is_disabled":false,"rental_uris":{"android":"levelo://app?vid=7e5e50fa-c9e1-4255-8d8e-919ab2cb3bf1","ios":"levelo://app?vid=7e5e50fa-c9e1-4255-8d8e-919ab2cb3bf1"},"vehicle_type_id":"4","last_reported":1761682320,"current_range_meters":14800,"station_id":"ce4bhlh2rcd13ifvqgig","pricing_plan_id":"cebpf4jnsgd1na2vs0mg"},{"bike_id":"dfa8043f-8ebf-4ed6-b39f-49262753d28b","system_id":"levelo_inurba_marseille","lat":43.292682,"lon":5.384265,"is_reserved":false,"is_disabled":false,"rental_uris":{"android":"levelo://app?vid=dfa8043f-8ebf-4ed6-b39f-49262753d28b","ios":"levelo://app?vid=dfa8043f-8ebf-4ed6-b39f-49262753d28b"},"vehicle_type_id":"4","last_reported":1761682320,"current_range_meters":14800,"station_id":"ce4bh692rcd13ifvqea0","pricing_plan_id":"cebpf4jnsgd1na2vs0mg"},{"bike_id":"e08a0954-1e77-4ace-99d4-fb493c406774","system_id":"levelo_inurba_marseille","lat":43.30249,"lon":5.40076,"is_reserved":false,"is_disabled":false,"rental_uris":{"android":"levelo://app?vid=e08a0954-1e77-4ace-99d4-fb493c406774","ios":"levelo://app?vid=e08a0954-1e77-4ace-99d4-fb493c406774"},"vehicle_type_id":"4","last_reported":1761682320,"current_range_meters":14800,"station_id":"ce4bgvh2rcd13ifvqcs0","pricing_plan_id":"cebpf4jnsgd1na2vs0mg"},{"bike_id":"a2c44ae7-52cc-4b80-a772-211a26fa85b1","system_id":"levelo_inurba_marseille","lat":43.30196,"lon":5.36625,"is_reserved":false,"is_disabled":true,"rental_uris":{"android":"levelo://app?vid=a2c44ae7-52cc-4b80-a772-211a26fa85b1","ios":"levelo://app?vid=a2c44ae7-52cc-4b80-a772-211a26fa85b1"},"vehicle_type_id":"4","last_reported":1761682320,"current_range_meters":15200,"station_id":"ce4bgrh2rcd13ifvqc8g","pricing_plan_id":"cebpf4jnsgd1na2vs0mg"},{"bike_id":"82c3d2c8-f0bf-446e-b125-018f07998329","system_id":"levelo_inurba_marseille","lat":43.32756,"lon":5.40088,"is_reserved":false,"is_disabled":false,"rental_uris":{"android":"levelo://app?vid=82c3d2c8-f0bf-446e-b125-018f07998329","ios":"levelo://app?vid=82c3d2c8-f0bf-446e-b125-018f07998329"},"vehicle_type_id":"4","last_reported":1761682320,"current_range_meters":15200,"station_id":"","pricing_plan_id":"cebpf4jnsgd1na2vs0mg"},{"bike_id":"0db7ed53-e3ef-4fdd-9f07-448c3452630f","system_id":"levelo_inurba_marseille","lat":43.26227,"lon":5.40449,"is_reserved":false,"is_disabled":false,"rental_uris":{"android":"levelo://app?vid=0db7ed53-e3ef-4fdd-9f07-448c3452630f","ios":"levelo://app?vid=0db7ed53-e3ef-4fdd-9f07-448c3452630f"},"vehicle_type_id":"4","last_reported":1761682320,"current_range_meters":15200,"station_id":"ce4bhmh2rcd13ifvqgmg","pricing_plan_id":"cebpf4jnsgd1na2vs0mg"},{"bike_id":"7a6fd0db-de2f-4e92-8672-19fbf948d851","system_id":"levelo_inurba_marseille","lat":43.291957,"lon":5.393277,"is_reserved":false,"is_disabled":false,"rental_uris":{"android":"levelo://app?vid=7a6fd0db-de2f-4e92-8672-19fbf948d851","ios":"levelo://app?vid=7a6fd0db-de2f-4e92-8672-19fbf948d851"},"vehicle_type_id":"4","last_reported":1761682320,"current_range_meters":15200,"station_id":"ce4bh192rcd13ifvqdd0","pricing_plan_id":"cebpf4jnsgd1na2vs0mg"},{"bike_id":"7dadf09d-637b-4168-9565-faf64f3eb916","system_id":"levelo_inurba_marseille","lat":43.23161,"lon":5.43774,"is_reserved":false,"is_disabled":false,"rental_uris":{"android":"levelo://app?vid=7dadf09d-637b-4168-9565-faf64f3eb916","ios":"levelo://app?vid=7dadf09d-637b-4168-9565-faf64f3eb916"},"vehicle_type_id":"4","last_reported":1761682320,"current_range_meters":15200,"station_id":"","pricing_plan_id":"cebpf4jnsgd1na2vs0mg"},{"bike_id":"02dd205b-e97c-4104-9683-066d2523fd3f","system_id":"levelo_inurba_marseille","lat":43.23069,"lon":5.35496,"is_reserved":false,"is_disabled":false,"rental_uris":{"android":"levelo://app?vid=02dd205b-e97c-4104-9683-066d2523fd3f","ios":"levelo://app?vid=02dd205b-e97c-4104-9683-066d2523fd3f"},"vehicle_type_id":"4","last_reported":1761682320,"current_range_meters":15200,"station_id":"cpo3342slgdg3j2ifvpg","pricing_plan_id":"cebpf4jnsgd1na2vs0mg"},{"bike_id":"d798dcd0-3180-4850-b8c7-5b89672ba022","system_id":"levelo_inurba_marseille","lat":43.29189,"lon":5.39313,"is_reserved":false,"is_disabled":false,"rental_uris":{"android":"levelo://app?vid=d798dcd0-3180-4850-b8c7-5b89672ba022","ios":"levelo://app?vid=d798dcd0-3180-4850-b8c7-5b89672ba022"},"vehicle_type_id":"4","last_reported":1761682320,"current_range_meters":16000,"station_id":"ce4bh192rcd13ifvqdd0","pricing_plan_id":"cebpf4jnsgd1na2vs0mg"},{"bike_id":"9c97335d-e5a0-4807-8718-cc9e9bd0f749","system_id":"levelo_inurba_marseille","lat":43.25099,"lon":5.39488,"is_reserved":false,"is_disabled":false,"rental_uris":{"android":"levelo://app?vid=9c97335d-e5a0-4807-8718-cc9e9bd0f749","ios":"levelo://app?vid=9c97335d-e5a0-4807-8718-cc9e9bd0f749"},"vehicle_type_id":"4","last_reported":1761682320,"current_range_meters":16000,"station_id":"ce4bhm12rcd13ifvqgkg","pricing_plan_id":"cebpf4jnsgd1na2vs0mg"},{"bike_id":"b3e0481d-6827-43e4-b8bb-5008ee74f140","system_id":"levelo_inurba_marseille","lat":43.28931,"lon":5.3664,"is_reserved":false,"is_disabled":false,"rental_uris":{"android":"levelo://app?vid=b3e0481d-6827-43e4-b8bb-5008ee74f140","ios":"levelo://app?vid=b3e0481d-6827-43e4-b8bb-5008ee74f140"},"vehicle_type_id":"4","last_reported":1761682320,"current_range_meters":16000,"station_id":"ce4bhap2rcd13ifvqek0","pricing_plan_id":"cebpf4jnsgd1na2vs0mg"},{"bike_id":"eb36d7f3-a3f6-4360-95ac-87352cefdf58","system_id":"levelo_inurba_marseille","lat":43.30373,"lon":5.42488,"is_reserved":false,"is_disabled":false,"rental_uris":{"android":"levelo://app?vid=eb36d7f3-a3f6-4360-95ac-87352cefdf58","ios":"levelo://app?vid=eb36d7f3-a3f6-4360-95ac-87352cefdf58"},"vehicle_type_id":"4","last_reported":1761682320,"current_range_meters":16000,"station_id":"ce4bhoh2rcd13ifvqh6g","pricing_plan_id":"cebpf4jnsgd1na2vs0mg"},{"bike_id":"54981271-6fcc-4bca-bad9-c46eb41508f8","system_id":"levelo_inurba_marseille","lat":43.29532,"lon":5.38527,"is_reserved":false,"is_disabled":false,"rental_uris":{"android":"levelo://app?vid=54981271-6fcc-4bca-bad9-c46eb41508f8","ios":"levelo://app?vid=54981271-6fcc-4bca-bad9-c46eb41508f8"},"vehicle_type_id":"4","last_reported":1761682320,"current_range_meters":16000,"station_id":"ce4bgih2rcd13ifvqba0","pricing_plan_id":"cebpf4jnsgd1na2vs0mg"},{"bike_id":"03a5a43b-e2ae-4791-8d34-9f5d2fab204e","system_id":"levelo_inurba_marseille","lat":43.290303,"lon":5.386426,"is_reserved":false,"is_disabled":false,"rental_uris":{"android":"levelo://app?vid=03a5a43b-e2ae-4791-8d34-9f5d2fab204e","ios":"levelo://app?vid=03a5a43b-e2ae-4791-8d34-9f5d2fab204e"},"vehicle_type_id":"4","last_reported":1761682320,"current_range_meters":16000,"station_id":"ce4bh4p2rcd13ifvqe0g","pricing_plan_id":"cebpf4jnsgd1na2vs0mg"},{"bike_id":"d719ea43-a75b-48ea-9510-247c12312c42","system_id":"levelo_inurba_marseille","lat":43.28106,"lon":5.37826,"is_reserved":false,"is_disabled":false,"rental_uris":{"android":"levelo://app?vid=d719ea43-a75b-48ea-9510-247c12312c42","ios":"levelo://app?vid=d719ea43-a75b-48ea-9510-247c12312c42"},"vehicle_type_id":"4","last_reported":1761682320,"current_range_meters":16000,"station_id":"ce4bha12rcd13ifvqee0","pricing_plan_id":"cebpf4jnsgd1na2vs0mg"},{"bike_id":"d24a2c68-94c2-4577-88eb-bd161c9ebb38","system_id":"levelo_inurba_marseille","lat":43.225311,"lon":5.348358,"is_reserved":false,"is_disabled":false,"rental_uris":{"android":"levelo://app?vid=d24a2c68-94c2-4577-88eb-bd161c9ebb38","ios":"levelo://app?vid=d24a2c68-94c2-4577-88eb-bd161c9ebb38"},"vehicle_type_id":"4","last_reported":1761682320,"current_range_meters":16000,"station_id":"","pricing_plan_id":"cebpf4jnsgd1na2vs0mg"},{"bike_id":"98ffd358-d7f9-43e6-8f16-dfc13b2d37a0","system_id":"levelo_inurba_marseille","lat":43.30326,"lon":5.40439,"is_reserved":false,"is_disabled":false,"rental_uris":{"android":"levelo://app?vid=98ffd358-d7f9-43e6-8f16-dfc13b2d37a0","ios":"levelo://app?vid=98ffd358-d7f9-43e6-8f16-dfc13b2d37a0"},"vehicle_type_id":"4","last_reported":1761682320,"current_range_meters":16000,"station_id":"ce4bh012rcd13ifvqd10","pricing_plan_id":"cebpf4jnsgd1na2vs0mg"},{"bike_id":"ed0d6f55-0fe5-42cb-9a63-d6ac03de74dd","system_id":"levelo_inurba_marseille","lat":43.302684,"lon":5.377106,"is_reserved":false,"is_disabled":false,"rental_uris":{"android":"levelo://app?vid=ed0d6f55-0fe5-42cb-9a63-d6ac03de74dd","ios":"levelo://app?vid=ed0d6f55-0fe5-42cb-9a63-d6ac03de74dd"},"vehicle_type_id":"4","last_reported":1761682320,"current_range_meters":16400,"station_id":"ce4bguh2rcd13ifvqcj0","pricing_plan_id":"cebpf4jnsgd1na2vs0mg"},{"bike_id":"11716ec0-de75-4788-aa86-bbb4f0d68f78","system_id":"levelo_inurba_marseille","lat":43.289797,"lon":5.366349,"is_reserved":false,"is_disabled":false,"rental_uris":{"android":"levelo://app?vid=11716ec0-de75-4788-aa86-bbb4f0d68f78","ios":"levelo://app?vid=11716ec0-de75-4788-aa86-bbb4f0d68f78"},"vehicle_type_id":"4","last_reported":1761682320,"current_range_meters":16400,"station_id":"ce4bhap2rcd13ifvqek0","pricing_plan_id":"cebpf4jnsgd1na2vs0mg"},{"bike_id":"025f0b58-2ca1-4f6f-a038-9584999cd0cc","system_id":"levelo_inurba_marseille","lat":43.29271,"lon":5.38444,"is_reserved":false,"is_disabled":false,"rental_uris":{"android":"levelo://app?vid=025f0b58-2ca1-4f6f-a038-9584999cd0cc","ios":"levelo://app?vid=025f0b58-2ca1-4f6f-a038-9584999cd0cc"},"vehicle_type_id":"4","last_reported":1761682320,"current_range_meters":16400,"station_id":"ce4bh692rcd13ifvqea0","pricing_plan_id":"cebpf4jnsgd1na2vs0mg"},{"bike_id":"b8e04856-8974-4e89-8a03-1c0dd51ecdf7","system_id":"levelo_inurba_marseille","lat":43.29529,"lon":5.38554,"is_reserved":false,"is_disabled":false,"rental_uris":{"android":"levelo://app?vid=b8e04856-8974-4e89-8a03-1c0dd51ecdf7","ios":"levelo://app?vid=b8e04856-8974-4e89-8a03-1c0dd51ecdf7"},"vehicle_type_id":"4","last_reported":1761682320,"current_range_meters":16800,"station_id":"ce4bgih2rcd13ifvqba0","pricing_plan_id":"cebpf4jnsgd1na2vs0mg"},{"bike_id":"d9a21a39-82a4-44e5-91ef-7ee4a7aa79c8","system_id":"levelo_inurba_marseille","lat":43.28124,"lon":5.3781,"is_reserved":false,"is_disabled":false,"rental_uris":{"android":"levelo://app?vid=d9a21a39-82a4-44e5-91ef-7ee4a7aa79c8","ios":"levelo://app?vid=d9a21a39-82a4-44e5-91ef-7ee4a7aa79c8"},"vehicle_type_id":"4","last_reported":1761682320,"current_range_meters":16800,"station_id":"ce4bha12rcd13ifvqee0","pricing_plan_id":"cebpf4jnsgd1na2vs0mg"},{"bike_id":"d3724109-bf40-4091-a944-a6f45960f313","system_id":"levelo_inurba_marseille","lat":43.29027,"lon":5.3863,"is_reserved":false,"is_disabled":false,"rental_uris":{"android":"levelo://app?vid=d3724109-bf40-4091-a944-a6f45960f313","ios":"levelo://app?vid=d3724109-bf40-4091-a944-a6f45960f313"},"vehicle_type_id":"4","last_reported":1761682320,"current_range_meters":16800,"station_id":"ce4bh4p2rcd13ifvqe0g","pricing_plan_id":"cebpf4jnsgd1na2vs0mg"},{"bike_id":"7646a48b-a165-4172-aaa5-aabda3625dff","system_id":"levelo_inurba_marseille","lat":43.29533,"lon":5.3854,"is_reserved":false,"is_disabled":false,"rental_uris":{"android":"levelo://app?vid=7646a48b-a165-4172-aaa5-aabda3625dff","ios":"levelo://app?vid=7646a48b-a165-4172-aaa5-aabda3625dff"},"vehicle_type_id":"4","last_reported":1761682320,"current_range_meters":16800,"station_id":"ce4bgih2rcd13ifvqba0","pricing_plan_id":"cebpf4jnsgd1na2vs0mg"},{"bike_id":"aa31a3fb-3127-4e0d-b956-0d546ec879aa","system_id":"levelo_inurba_marseille","lat":43.26557,"lon":5.37281,"is_reserved":false,"is_disabled":false,"rental_uris":{"android":"levelo://app?vid=aa31a3fb-3127-4e0d-b956-0d546ec879aa","ios":"levelo://app?vid=aa31a3fb-3127-4e0d-b956-0d546ec879aa"},"vehicle_type_id":"4","last_reported":1761682320,"current_range_meters":16800,"station_id":"ce4bhg12rcd13ifvqf70","pricing_plan_id":"cebpf4jnsgd1na2vs0mg"},{"bike_id":"b7853e2d-9fd8-47b7-b418-f5a31a67b88f","system_id":"levelo_inurba_marseille","lat":43.295114,"lon":5.379263,"is_reserved":false,"is_disabled":false,"rental_uris":{"android":"levelo://app?vid=b7853e2d-9fd8-47b7-b418-f5a31a67b88f","ios":"levelo://app?vid=b7853e2d-9fd8-47b7-b418-f5a31a67b88f"},"vehicle_type_id":"4","last_reported":1761682320,"current_range_meters":16800,"station_id":"","pricing_plan_id":"cebpf4jnsgd1na2vs0mg"},{"bike_id":"024c35cc-8338-4b12-876a-7fd2b358150d","system_id":"levelo_inurba_marseille","lat":43.28427,"lon":5.3751,"is_reserved":false,"is_disabled":false,"rental_uris":{"android":"levelo://app?vid=024c35cc-8338-4b12-876a-7fd2b358150d","ios":"levelo://app?vid=024c35cc-8338-4b12-876a-7fd2b358150d"},"vehicle_type_id":"4","last_reported":1761682320,"current_range_meters":16800,"station_id":"ce4bh412rcd13ifvqds0","pricing_plan_id":"cebpf4jnsgd1na2vs0mg"},{"bike_id":"e1e8515d-148e-4664-9cf2-c0e8b1ffdcc7","system_id":"levelo_inurba_marseille","lat":43.28973,"lon":5.37831,"is_reserved":false,"is_disabled":false,"rental_uris":{"android":"levelo://app?vid=e1e8515d-148e-4664-9cf2-c0e8b1ffdcc7","ios":"levelo://app?vid=e1e8515d-148e-4664-9cf2-c0e8b1ffdcc7"},"vehicle_type_id":"4","last_reported":1761682320,"current_range_meters":16800,"station_id":"ce4bh9p2rcd13ifvqed0","pricing_plan_id":"cebpf4jnsgd1na2vs0mg"},{"bike_id":"fc8dce04-fa9b-4511-9944-96d30aadef1b","system_id":"levelo_inurba_marseille","lat":43.30329,"lon":5.40441,"is_reserved":false,"is_disabled":false,"rental_uris":{"android":"levelo://app?vid=fc8dce04-fa9b-4511-9944-96d30aadef1b","ios":"levelo://app?vid=fc8dce04-fa9b-4511-9944-96d30aadef1b"},"vehicle_type_id":"4","last_reported":1761682320,"current_range_meters":16800,"station_id":"ce4bh012rcd13ifvqd10","pricing_plan_id":"cebpf4jnsgd1na2vs0mg"},{"bike_id":"e62bc63f-1623-48ba-bdc2-ffa136c40c90","system_id":"levelo_inurba_marseille","lat":43.28086,"lon":5.3566,"is_reserved":false,"is_disabled":false,"rental_uris":{"android":"levelo://app?vid=e62bc63f-1623-48ba-bdc2-ffa136c40c90","ios":"levelo://app?vid=e62bc63f-1623-48ba-bdc2-ffa136c40c90"},"vehicle_type_id":"4","last_reported":1761682320,"current_range_meters":17200,"station_id":"","pricing_plan_id":"cebpf4jnsgd1na2vs0mg"},{"bike_id":"7026e969-baa9-4bee-b66b-314a3d7f1830","system_id":"levelo_inurba_marseille","lat":43.28697,"lon":5.39977,"is_reserved":false,"is_disabled":false,"rental_uris":{"android":"levelo://app?vid=7026e969-baa9-4bee-b66b-314a3d7f1830","ios":"levelo://app?vid=7026e969-baa9-4bee-b66b-314a3d7f1830"},"vehicle_type_id":"4","last_reported":1761682320,"current_range_meters":17200,"station_id":"ce4bho92rcd13ifvqh3g","pricing_plan_id":"cebpf4jnsgd1na2vs0mg"},{"bike_id":"28ecc673-9f76-410b-bbf1-6f0559d3f1af","system_id":"levelo_inurba_marseille","lat":43.29347,"lon":5.37435,"is_reserved":false,"is_disabled":false,"rental_uris":{"android":"levelo://app?vid=28ecc673-9f76-410b-bbf1-6f0559d3f1af","ios":"levelo://app?vid=28ecc673-9f76-410b-bbf1-6f0559d3f1af"},"vehicle_type_id":"4","last_reported":1761682320,"current_range_meters":17200,"station_id":"ce4bhap2rcd13ifvqek0","pricing_plan_id":"cebpf4jnsgd1na2vs0mg"},{"bike_id":"8f88ca0d-6dd7-4cf9-ad18-09074502ae18","system_id":"levelo_inurba_marseille","lat":43.29037,"lon":5.38646,"is_reserved":false,"is_disabled":false,"rental_uris":{"android":"levelo://app?vid=8f88ca0d-6dd7-4cf9-ad18-09074502ae18","ios":"levelo://app?vid=8f88ca0d-6dd7-4cf9-ad18-09074502ae18"},"vehicle_type_id":"4","last_reported":1761682320,"current_range_meters":17200,"station_id":"ce4bh4p2rcd13ifvqe0g","pricing_plan_id":"cebpf4jnsgd1na2vs0mg"},{"bike_id":"a37e047c-f292-4319-a928-9ed4148ac5b1","system_id":"levelo_inurba_marseille","lat":43.31163,"lon":5.38719,"is_reserved":false,"is_disabled":false,"rental_uris":{"android":"levelo://app?vid=a37e047c-f292-4319-a928-9ed4148ac5b1","ios":"levelo://app?vid=a37e047c-f292-4319-a928-9ed4148ac5b1"},"vehicle_type_id":"4","last_reported":1761682320,"current_range_meters":17200,"station_id":"ce4bgv12rcd13ifvqcp0","pricing_plan_id":"cebpf4jnsgd1na2vs0mg"},{"bike_id":"c58fc144-15ec-4e8c-b623-ce1ca678d065","system_id":"levelo_inurba_marseille","lat":43.315255,"lon":5.380535,"is_reserved":false,"is_disabled":false,"rental_uris":{"android":"levelo://app?vid=c58fc144-15ec-4e8c-b623-ce1ca678d065","ios":"levelo://app?vid=c58fc144-15ec-4e8c-b623-ce1ca678d065"},"vehicle_type_id":"4","last_reported":1761682320,"current_range_meters":17600,"station_id":"ce4bhsp2rcd13ifvqi50","pricing_plan_id":"cebpf4jnsgd1na2vs0mg"},{"bike_id":"97d940a0-0146-4f43-a746-0f3122d24e52","system_id":"levelo_inurba_marseille","lat":43.29876,"lon":5.3973,"is_reserved":false,"is_disabled":false,"rental_uris":{"android":"levelo://app?vid=97d940a0-0146-4f43-a746-0f3122d24e52","ios":"levelo://app?vid=97d940a0-0146-4f43-a746-0f3122d24e52"},"vehicle_type_id":"4","last_reported":1761682320,"current_range_meters":17600,"station_id":"ce4bh0h2rcd13ifvqd50","pricing_plan_id":"cebpf4jnsgd1na2vs0mg"},{"bike_id":"fef7c7e6-8059-41aa-ae57-31b07bd2b2eb","system_id":"levelo_inurba_marseille","lat":43.225311,"lon":5.348374,"is_reserved":false,"is_disabled":false,"rental_uris":{"android":"levelo://app?vid=fef7c7e6-8059-41aa-ae57-31b07bd2b2eb","ios":"levelo://app?vid=fef7c7e6-8059-41aa-ae57-31b07bd2b2eb"},"vehicle_type_id":"4","last_reported":1761682320,"current_range_meters":17600,"station_id":"","pricing_plan_id":"cebpf4jnsgd1na2vs0mg"},{"bike_id":"991fd8cf-597f-4eec-a5a4-515407b605e3","system_id":"levelo_inurba_marseille","lat":43.29513,"lon":5.3904,"is_reserved":false,"is_disabled":false,"rental_uris":{"android":"levelo://app?vid=991fd8cf-597f-4eec-a5a4-515407b605e3","ios":"levelo://app?vid=991fd8cf-597f-4eec-a5a4-515407b605e3"},"vehicle_type_id":"4","last_reported":1761682320,"current_range_meters":17600,"station_id":"ce4bh3p2rcd13ifvqdp0","pricing_plan_id":"cebpf4jnsgd1na2vs0mg"},{"bike_id":"14c6cedd-2559-445e-b389-644995a90b39","system_id":"levelo_inurba_marseille","lat":43.3102,"lon":5.42738,"is_reserved":false,"is_disabled":false,"rental_uris":{"android":"levelo://app?vid=14c6cedd-2559-445e-b389-644995a90b39","ios":"levelo://app?vid=14c6cedd-2559-445e-b389-644995a90b39"},"vehicle_type_id":"4","last_reported":1761682320,"current_range_meters":17600,"station_id":"","pricing_plan_id":"cebpf4jnsgd1na2vs0mg"},{"bike_id":"c8337a2d-a3fa-48ba-9011-5aef55d77d2e","system_id":"levelo_inurba_marseille","lat":43.33615,"lon":5.40989,"is_reserved":false,"is_disabled":false,"rental_uris":{"android":"levelo://app?vid=c8337a2d-a3fa-48ba-9011-5aef55d77d2e","ios":"levelo://app?vid=c8337a2d-a3fa-48ba-9011-5aef55d77d2e"},"vehicle_type_id":"4","last_reported":1761682320,"current_range_meters":17600,"station_id":"ce4bhqh2rcd13ifvqhmg","pricing_plan_id":"cebpf4jnsgd1na2vs0mg"},{"bike_id":"17c8fc93-ea87-4719-b7db-ebf3775dbba3","system_id":"levelo_inurba_marseille","lat":43.32292,"lon":5.38279,"is_reserved":false,"is_disabled":false,"rental_uris":{"android":"levelo://app?vid=17c8fc93-ea87-4719-b7db-ebf3775dbba3","ios":"levelo://app?vid=17c8fc93-ea87-4719-b7db-ebf3775dbba3"},"vehicle_type_id":"4","last_reported":1761682320,"current_range_meters":17600,"station_id":"ce4bhr12rcd13ifvqhqg","pricing_plan_id":"cebpf4jnsgd1na2vs0mg"},{"bike_id":"1b118f66-73b6-4a45-8f7e-eb004a329385","system_id":"levelo_inurba_marseille","lat":43.258209,"lon":5.394423,"is_reserved":false,"is_disabled":false,"rental_uris":{"android":"levelo://app?vid=1b118f66-73b6-4a45-8f7e-eb004a329385","ios":"levelo://app?vid=1b118f66-73b6-4a45-8f7e-eb004a329385"},"vehicle_type_id":"4","last_reported":1761682320,"current_range_meters":17600,"station_id":"ce4bhip2rcd13ifvqft0","pricing_plan_id":"cebpf4jnsgd1na2vs0mg"},{"bike_id":"34cfbbfb-7fcd-4e0b-a511-b666cf091d8e","system_id":"levelo_inurba_marseille","lat":43.25084,"lon":5.39507,"is_reserved":false,"is_disabled":true,"rental_uris":{"android":"levelo://app?vid=34cfbbfb-7fcd-4e0b-a511-b666cf091d8e","ios":"levelo://app?vid=34cfbbfb-7fcd-4e0b-a511-b666cf091d8e"},"vehicle_type_id":"4","last_reported":1761682320,"current_range_meters":17600,"station_id":"ce4bhm12rcd13ifvqgkg","pricing_plan_id":"cebpf4jnsgd1na2vs0mg"},{"bike_id":"32e06ee6-88a5-4477-96a9-62d1cd6041b8","system_id":"levelo_inurba_marseille","lat":43.29624,"lon":5.40597,"is_reserved":false,"is_disabled":false,"rental_uris":{"android":"levelo://app?vid=32e06ee6-88a5-4477-96a9-62d1cd6041b8","ios":"levelo://app?vid=32e06ee6-88a5-4477-96a9-62d1cd6041b8"},"vehicle_type_id":"4","last_reported":1761682320,"current_range_meters":17600,"station_id":"ce4bh0h2rcd13ifvqd60","pricing_plan_id":"cebpf4jnsgd1na2vs0mg"},{"bike_id":"faee4aed-34d1-4e59-9f3e-bc2337688920","system_id":"levelo_inurba_marseille","lat":43.3171,"lon":5.43689,"is_reserved":false,"is_disabled":true,"rental_uris":{"android":"levelo://app?vid=faee4aed-34d1-4e59-9f3e-bc2337688920","ios":"levelo://app?vid=faee4aed-34d1-4e59-9f3e-bc2337688920"},"vehicle_type_id":"4","last_reported":1761682320,"current_range_meters":17600,"station_id":"ce4bhp92rcd13ifvqhcg","pricing_plan_id":"cebpf4jnsgd1na2vs0mg"},{"bike_id":"eaa27f99-1b2b-451b-9b6e-d89600e0e460","system_id":"levelo_inurba_marseille","lat":43.295234,"lon":5.385387,"is_reserved":false,"is_disabled":false,"rental_uris":{"android":"levelo://app?vid=eaa27f99-1b2b-451b-9b6e-d89600e0e460","ios":"levelo://app?vid=eaa27f99-1b2b-451b-9b6e-d89600e0e460"},"vehicle_type_id":"4","last_reported":1761682320,"current_range_meters":17600,"station_id":"ce4bgih2rcd13ifvqba0","pricing_plan_id":"cebpf4jnsgd1na2vs0mg"},{"bike_id":"731c6dbb-3562-49c0-8d1a-307d7d710a0c","system_id":"levelo_inurba_marseille","lat":43.29533,"lon":5.38538,"is_reserved":false,"is_disabled":false,"rental_uris":{"android":"levelo://app?vid=731c6dbb-3562-49c0-8d1a-307d7d710a0c","ios":"levelo://app?vid=731c6dbb-3562-49c0-8d1a-307d7d710a0c"},"vehicle_type_id":"4","last_reported":1761682320,"current_range_meters":17600,"station_id":"ce4bgih2rcd13ifvqba0","pricing_plan_id":"cebpf4jnsgd1na2vs0mg"},{"bike_id":"f6adb9c1-4a78-4322-baec-aa5f6f5d93b6","system_id":"levelo_inurba_marseille","lat":43.225321,"lon":5.348302,"is_reserved":false,"is_disabled":false,"rental_uris":{"android":"levelo://app?vid=f6adb9c1-4a78-4322-baec-aa5f6f5d93b6","ios":"levelo://app?vid=f6adb9c1-4a78-4322-baec-aa5f6f5d93b6"},"vehicle_type_id":"4","last_reported":1761682320,"current_range_meters":17600,"station_id":"","pricing_plan_id":"cebpf4jnsgd1na2vs0mg"},{"bike_id":"d340ce0c-a59e-46d4-8780-fe806ed042f0","system_id":"levelo_inurba_marseille","lat":43.284293,"lon":5.375412,"is_reserved":false,"is_disabled":false,"rental_uris":{"android":"levelo://app?vid=d340ce0c-a59e-46d4-8780-fe806ed042f0","ios":"levelo://app?vid=d340ce0c-a59e-46d4-8780-fe806ed042f0"},"vehicle_type_id":"4","last_reported":1761682320,"current_range_meters":18000,"station_id":"ce4bgih2rcd13ifvqba0","pricing_plan_id":"cebpf4jnsgd1na2vs0mg"},{"bike_id":"96874538-e338-47dd-8158-7284ae5bb7a5","system_id":"levelo_inurba_marseille","lat":43.2906,"lon":5.39421,"is_reserved":false,"is_disabled":false,"rental_uris":{"android":"levelo://app?vid=96874538-e338-47dd-8158-7284ae5bb7a5","ios":"levelo://app?vid=96874538-e338-47dd-8158-7284ae5bb7a5"},"vehicle_type_id":"4","last_reported":1761682320,"current_range_meters":18000,"station_id":"","pricing_plan_id":"cebpf4jnsgd1na2vs0mg"},{"bike_id":"e3260d53-1f31-4048-a6b1-57d9b1375877","system_id":"levelo_inurba_marseille","lat":43.28541,"lon":5.44096,"is_reserved":false,"is_disabled":false,"rental_uris":{"android":"levelo://app?vid=e3260d53-1f31-4048-a6b1-57d9b1375877","ios":"levelo://app?vid=e3260d53-1f31-4048-a6b1-57d9b1375877"},"vehicle_type_id":"4","last_reported":1761682320,"current_range_meters":18000,"station_id":"st_d3j3df2ikq2c7380ej80","pricing_plan_id":"cebpf4jnsgd1na2vs0mg"},{"bike_id":"3d00cf23-a66b-47a1-8eb3-f05af16b09a1","system_id":"levelo_inurba_marseille","lat":43.24412,"lon":5.37054,"is_reserved":false,"is_disabled":false,"rental_uris":{"android":"levelo://app?vid=3d00cf23-a66b-47a1-8eb3-f05af16b09a1","ios":"levelo://app?vid=3d00cf23-a66b-47a1-8eb3-f05af16b09a1"},"vehicle_type_id":"4","last_reported":1761682320,"current_range_meters":18000,"station_id":"ce4bhhh2rcd13ifvqfk0","pricing_plan_id":"cebpf4jnsgd1na2vs0mg"},{"bike_id":"bccbe444-11e1-4102-b9e2-ee54115f4a07","system_id":"levelo_inurba_marseille","lat":43.287216,"lon":5.361006,"is_reserved":false,"is_disabled":false,"rental_uris":{"android":"levelo://app?vid=bccbe444-11e1-4102-b9e2-ee54115f4a07","ios":"levelo://app?vid=bccbe444-11e1-4102-b9e2-ee54115f4a07"},"vehicle_type_id":"4","last_reported":1761682320,"current_range_meters":18000,"station_id":"cki0cbj6b192h4jlfktg","pricing_plan_id":"cebpf4jnsgd1na2vs0mg"},{"bike_id":"6b348488-d238-4b34-a50a-373e43518d1d","system_id":"levelo_inurba_marseille","lat":43.237762,"lon":5.366315,"is_reserved":false,"is_disabled":false,"rental_uris":{"android":"levelo://app?vid=6b348488-d238-4b34-a50a-373e43518d1d","ios":"levelo://app?vid=6b348488-d238-4b34-a50a-373e43518d1d"},"vehicle_type_id":"4","last_reported":1761682320,"current_range_meters":18000,"station_id":"st_d3nk18o9ro0c73en2l3g","pricing_plan_id":"cebpf4jnsgd1na2vs0mg"},{"bike_id":"5d326f57-e437-48e7-ac33-9efede1e2fa5","system_id":"levelo_inurba_marseille","lat":43.29539,"lon":5.38543,"is_reserved":false,"is_disabled":false,"rental_uris":{"android":"levelo://app?vid=5d326f57-e437-48e7-ac33-9efede1e2fa5","ios":"levelo://app?vid=5d326f57-e437-48e7-ac33-9efede1e2fa5"},"vehicle_type_id":"4","last_reported":1761682320,"current_range_meters":18000,"station_id":"ce4bgih2rcd13ifvqba0","pricing_plan_id":"cebpf4jnsgd1na2vs0mg"},{"bike_id":"3be6387f-9356-4d22-96e9-26a716368262","system_id":"levelo_inurba_marseille","lat":43.29673,"lon":5.40625,"is_reserved":false,"is_disabled":true,"rental_uris":{"android":"levelo://app?vid=3be6387f-9356-4d22-96e9-26a716368262","ios":"levelo://app?vid=3be6387f-9356-4d22-96e9-26a716368262"},"vehicle_type_id":"4","last_reported":1761682320,"current_range_meters":18000,"station_id":"","pricing_plan_id":"cebpf4jnsgd1na2vs0mg"},{"bike_id":"70871168-18dd-4754-ad19-d28c37ce9f69","system_id":"levelo_inurba_marseille","lat":43.30804,"lon":5.38153,"is_reserved":false,"is_disabled":true,"rental_uris":{"android":"levelo://app?vid=70871168-18dd-4754-ad19-d28c37ce9f69","ios":"levelo://app?vid=70871168-18dd-4754-ad19-d28c37ce9f69"},"vehicle_type_id":"4","last_reported":1761682320,"current_range_meters":18000,"station_id":"ce4bgt12rcd13ifvqce0","pricing_plan_id":"cebpf4jnsgd1na2vs0mg"},{"bike_id":"6416cd80-48f3-45e0-8405-27e81c43f849","system_id":"levelo_inurba_marseille","lat":43.3059,"lon":5.39338,"is_reserved":false,"is_disabled":false,"rental_uris":{"android":"levelo://app?vid=6416cd80-48f3-45e0-8405-27e81c43f849","ios":"levelo://app?vid=6416cd80-48f3-45e0-8405-27e81c43f849"},"vehicle_type_id":"4","last_reported":1761682320,"current_range_meters":18000,"station_id":"ce4bh0p2rcd13ifvqd80","pricing_plan_id":"cebpf4jnsgd1na2vs0mg"},{"bike_id":"8f906609-2d1e-45bc-a04c-783118033a51","system_id":"levelo_inurba_marseille","lat":43.31079,"lon":5.42428,"is_reserved":false,"is_disabled":false,"rental_uris":{"android":"levelo://app?vid=8f906609-2d1e-45bc-a04c-783118033a51","ios":"levelo://app?vid=8f906609-2d1e-45bc-a04c-783118033a51"},"vehicle_type_id":"4","last_reported":1761682320,"current_range_meters":18000,"station_id":"ce4bhp92rcd13ifvqhag","pricing_plan_id":"cebpf4jnsgd1na2vs0mg"},{"bike_id":"7fb0d27d-ec45-4de8-9c9e-90046ec376fa","system_id":"levelo_inurba_marseille","lat":43.24176,"lon":5.36369,"is_reserved":false,"is_disabled":false,"rental_uris":{"android":"levelo://app?vid=7fb0d27d-ec45-4de8-9c9e-90046ec376fa","ios":"levelo://app?vid=7fb0d27d-ec45-4de8-9c9e-90046ec376fa"},"vehicle_type_id":"4","last_reported":1761682320,"current_range_meters":18000,"station_id":"cpo36qri1sfpv3e86is0","pricing_plan_id":"cebpf4jnsgd1na2vs0mg"},{"bike_id":"738e36cd-60e8-4877-a4b5-c11d7d14c02e","system_id":"levelo_inurba_marseille","lat":43.300958,"lon":5.389832,"is_reserved":false,"is_disabled":false,"rental_uris":{"android":"levelo://app?vid=738e36cd-60e8-4877-a4b5-c11d7d14c02e","ios":"levelo://app?vid=738e36cd-60e8-4877-a4b5-c11d7d14c02e"},"vehicle_type_id":"4","last_reported":1761682320,"current_range_meters":18000,"station_id":"ce4bh192rcd13ifvqdb0","pricing_plan_id":"cebpf4jnsgd1na2vs0mg"},{"bike_id":"5c6bdd19-934c-4daf-9d08-86b6b69edc1f","system_id":"levelo_inurba_marseille","lat":43.2952,"lon":5.39046,"is_reserved":false,"is_disabled":false,"rental_uris":{"android":"levelo://app?vid=5c6bdd19-934c-4daf-9d08-86b6b69edc1f","ios":"levelo://app?vid=5c6bdd19-934c-4daf-9d08-86b6b69edc1f"},"vehicle_type_id":"4","last_reported":1761682320,"current_range_meters":18000,"station_id":"ce4bh3p2rcd13ifvqdp0","pricing_plan_id":"cebpf4jnsgd1na2vs0mg"},{"bike_id":"75dc66b3-0d26-400d-85b7-e985f64e2136","system_id":"levelo_inurba_marseille","lat":43.29016,"lon":5.43705,"is_reserved":false,"is_disabled":false,"rental_uris":{"android":"levelo://app?vid=75dc66b3-0d26-400d-85b7-e985f64e2136","ios":"levelo://app?vid=75dc66b3-0d26-400d-85b7-e985f64e2136"},"vehicle_type_id":"4","last_reported":1761682320,"current_range_meters":18800,"station_id":"","pricing_plan_id":"cebpf4jnsgd1na2vs0mg"},{"bike_id":"1a34b5a4-3c1e-479b-b6f5-76f97d5c5c52","system_id":"levelo_inurba_marseille","lat":43.28519,"lon":5.44108,"is_reserved":false,"is_disabled":false,"rental_uris":{"android":"levelo://app?vid=1a34b5a4-3c1e-479b-b6f5-76f97d5c5c52","ios":"levelo://app?vid=1a34b5a4-3c1e-479b-b6f5-76f97d5c5c52"},"vehicle_type_id":"4","last_reported":1761682320,"current_range_meters":18800,"station_id":"st_d3j3df2ikq2c7380ej80","pricing_plan_id":"cebpf4jnsgd1na2vs0mg"},{"bike_id":"7c34dc29-9b45-423a-834a-a7f85e55d450","system_id":"levelo_inurba_marseille","lat":43.29267,"lon":5.38438,"is_reserved":false,"is_disabled":false,"rental_uris":{"android":"levelo://app?vid=7c34dc29-9b45-423a-834a-a7f85e55d450","ios":"levelo://app?vid=7c34dc29-9b45-423a-834a-a7f85e55d450"},"vehicle_type_id":"4","last_reported":1761682320,"current_range_meters":18800,"station_id":"ce4bh692rcd13ifvqea0","pricing_plan_id":"cebpf4jnsgd1na2vs0mg"},{"bike_id":"09455c61-5250-4a8e-b7ba-a2bf4230ad66","system_id":"levelo_inurba_marseille","lat":43.28921,"lon":5.38394,"is_reserved":false,"is_disabled":false,"rental_uris":{"android":"levelo://app?vid=09455c61-5250-4a8e-b7ba-a2bf4230ad66","ios":"levelo://app?vid=09455c61-5250-4a8e-b7ba-a2bf4230ad66"},"vehicle_type_id":"4","last_reported":1761682320,"current_range_meters":18800,"station_id":"ce4bh612rcd13ifvqe6g","pricing_plan_id":"cebpf4jnsgd1na2vs0mg"},{"bike_id":"274a1d43-0723-4344-836f-cd185abad790","system_id":"levelo_inurba_marseille","lat":43.31686,"lon":5.40469,"is_reserved":false,"is_disabled":false,"rental_uris":{"android":"levelo://app?vid=274a1d43-0723-4344-836f-cd185abad790","ios":"levelo://app?vid=274a1d43-0723-4344-836f-cd185abad790"},"vehicle_type_id":"4","last_reported":1761682320,"current_range_meters":18800,"station_id":"ce4bh012rcd13ifvqd00","pricing_plan_id":"cebpf4jnsgd1na2vs0mg"},{"bike_id":"af657061-45d4-41f7-a25a-2f5e789e34e3","system_id":"levelo_inurba_marseille","lat":43.29538,"lon":5.38541,"is_reserved":false,"is_disabled":false,"rental_uris":{"android":"levelo://app?vid=af657061-45d4-41f7-a25a-2f5e789e34e3","ios":"levelo://app?vid=af657061-45d4-41f7-a25a-2f5e789e34e3"},"vehicle_type_id":"4","last_reported":1761682320,"current_range_meters":18800,"station_id":"ce4bgih2rcd13ifvqba0","pricing_plan_id":"cebpf4jnsgd1na2vs0mg"},{"bike_id":"86ef5a73-8fb7-49bb-8ff4-6382d145d8bb","system_id":"levelo_inurba_marseille","lat":43.29537,"lon":5.38542,"is_reserved":false,"is_disabled":false,"rental_uris":{"android":"levelo://app?vid=86ef5a73-8fb7-49bb-8ff4-6382d145d8bb","ios":"levelo://app?vid=86ef5a73-8fb7-49bb-8ff4-6382d145d8bb"},"vehicle_type_id":"4","last_reported":1761682320,"current_range_meters":18800,"station_id":"ce4bgih2rcd13ifvqba0","pricing_plan_id":"cebpf4jnsgd1na2vs0mg"},{"bike_id":"66f35c71-7548-4c33-9bb7-97e77983d5f2","system_id":"levelo_inurba_marseille","lat":43.30233,"lon":5.40031,"is_reserved":false,"is_disabled":true,"rental_uris":{"android":"levelo://app?vid=66f35c71-7548-4c33-9bb7-97e77983d5f2","ios":"levelo://app?vid=66f35c71-7548-4c33-9bb7-97e77983d5f2"},"vehicle_type_id":"4","last_reported":1761682320,"current_range_meters":19200,"station_id":"ce4bgvh2rcd13ifvqcs0","pricing_plan_id":"cebpf4jnsgd1na2vs0mg"},{"bike_id":"76aace91-61d0-4fb5-84bc-fded435c3777","system_id":"levelo_inurba_marseille","lat":43.30044,"lon":5.3864,"is_reserved":false,"is_disabled":false,"rental_uris":{"android":"levelo://app?vid=76aace91-61d0-4fb5-84bc-fded435c3777","ios":"levelo://app?vid=76aace91-61d0-4fb5-84bc-fded435c3777"},"vehicle_type_id":"4","last_reported":1761682320,"current_range_meters":19200,"station_id":"","pricing_plan_id":"cebpf4jnsgd1na2vs0mg"},{"bike_id":"9f59c1da-8e8e-4cbc-b374-2d5a9d796afb","system_id":"levelo_inurba_marseille","lat":43.32161,"lon":5.4167,"is_reserved":false,"is_disabled":false,"rental_uris":{"android":"levelo://app?vid=9f59c1da-8e8e-4cbc-b374-2d5a9d796afb","ios":"levelo://app?vid=9f59c1da-8e8e-4cbc-b374-2d5a9d796afb"},"vehicle_type_id":"4","last_reported":1761682320,"current_range_meters":19200,"station_id":"","pricing_plan_id":"cebpf4jnsgd1na2vs0mg"},{"bike_id":"5ae39c5d-5e24-440b-8fa6-9d63bbfbae68","system_id":"levelo_inurba_marseille","lat":43.291966,"lon":5.393231,"is_reserved":false,"is_disabled":false,"rental_uris":{"android":"levelo://app?vid=5ae39c5d-5e24-440b-8fa6-9d63bbfbae68","ios":"levelo://app?vid=5ae39c5d-5e24-440b-8fa6-9d63bbfbae68"},"vehicle_type_id":"4","last_reported":1761682320,"current_range_meters":19200,"station_id":"ce4bh692rcd13ifvqea0","pricing_plan_id":"cebpf4jnsgd1na2vs0mg"},{"bike_id":"31786d40-8e8e-480d-b879-56bb322ffb2f","system_id":"levelo_inurba_marseille","lat":43.27938,"lon":5.41029,"is_reserved":false,"is_disabled":false,"rental_uris":{"android":"levelo://app?vid=31786d40-8e8e-480d-b879-56bb322ffb2f","ios":"levelo://app?vid=31786d40-8e8e-480d-b879-56bb322ffb2f"},"vehicle_type_id":"4","last_reported":1761682320,"current_range_meters":19200,"station_id":"ce4bhnp2rcd13ifvqh0g","pricing_plan_id":"cebpf4jnsgd1na2vs0mg"},{"bike_id":"e50c2183-5a4d-447e-bab4-07aa7f21cdd5","system_id":"levelo_inurba_marseille","lat":43.281531,"lon":5.426473,"is_reserved":false,"is_disabled":false,"rental_uris":{"android":"levelo://app?vid=e50c2183-5a4d-447e-bab4-07aa7f21cdd5","ios":"levelo://app?vid=e50c2183-5a4d-447e-bab4-07aa7f21cdd5"},"vehicle_type_id":"4","last_reported":1761682320,"current_range_meters":19200,"station_id":"ce4bhnh2rcd13ifvqgug","pricing_plan_id":"cebpf4jnsgd1na2vs0mg"},{"bike_id":"06f2f7c3-b9c2-495e-bf4f-a98757a492d0","system_id":"levelo_inurba_marseille","lat":43.270689,"lon":5.42282,"is_reserved":false,"is_disabled":false,"rental_uris":{"android":"levelo://app?vid=06f2f7c3-b9c2-495e-bf4f-a98757a492d0","ios":"levelo://app?vid=06f2f7c3-b9c2-495e-bf4f-a98757a492d0"},"vehicle_type_id":"4","last_reported":1761682320,"current_range_meters":19600,"station_id":"ce4bhk92rcd13ifvqgb0","pricing_plan_id":"cebpf4jnsgd1na2vs0mg"},{"bike_id":"a16fc5a6-83d2-45de-8e88-d20792aedc48","system_id":"levelo_inurba_marseille","lat":43.30132,"lon":5.39878,"is_reserved":false,"is_disabled":false,"rental_uris":{"android":"levelo://app?vid=a16fc5a6-83d2-45de-8e88-d20792aedc48","ios":"levelo://app?vid=a16fc5a6-83d2-45de-8e88-d20792aedc48"},"vehicle_type_id":"4","last_reported":1761682320,"current_range_meters":19600,"station_id":"ce4bh0h2rcd13ifvqd40","pricing_plan_id":"cebpf4jnsgd1na2vs0mg"},{"bike_id":"75d57c7d-1a1a-4807-b716-f0c1fc5a0d1a","system_id":"levelo_inurba_marseille","lat":43.305938,"lon":5.372326,"is_reserved":false,"is_disabled":false,"rental_uris":{"android":"levelo://app?vid=75d57c7d-1a1a-4807-b716-f0c1fc5a0d1a","ios":"levelo://app?vid=75d57c7d-1a1a-4807-b716-f0c1fc5a0d1a"},"vehicle_type_id":"4","last_reported":1761682320,"current_range_meters":19600,"station_id":"ce4bgqh2rcd13ifvqc4g","pricing_plan_id":"cebpf4jnsgd1na2vs0mg"},{"bike_id":"1fc2cd5c-5cb6-42ed-b0f5-ddf1cc748404","system_id":"levelo_inurba_marseille","lat":43.29872,"lon":5.38909,"is_reserved":false,"is_disabled":false,"rental_uris":{"android":"levelo://app?vid=1fc2cd5c-5cb6-42ed-b0f5-ddf1cc748404","ios":"levelo://app?vid=1fc2cd5c-5cb6-42ed-b0f5-ddf1cc748404"},"vehicle_type_id":"4","last_reported":1761682320,"current_range_meters":19600,"station_id":"ce4bh392rcd13ifvqdl0","pricing_plan_id":"cebpf4jnsgd1na2vs0mg"},{"bike_id":"88d5770e-c923-4058-937f-6fe5d60fc0d8","system_id":"levelo_inurba_marseille","lat":43.285659,"lon":5.394906,"is_reserved":false,"is_disabled":false,"rental_uris":{"android":"levelo://app?vid=88d5770e-c923-4058-937f-6fe5d60fc0d8","ios":"levelo://app?vid=88d5770e-c923-4058-937f-6fe5d60fc0d8"},"vehicle_type_id":"4","last_reported":1761682320,"current_range_meters":19600,"station_id":"ce4bh292rcd13ifvqdg0","pricing_plan_id":"cebpf4jnsgd1na2vs0mg"},{"bike_id":"ba968f87-0459-48ae-bd8c-0bc00c5b625e","system_id":"levelo_inurba_marseille","lat":43.248126,"lon":5.374603,"is_reserved":false,"is_disabled":false,"rental_uris":{"android":"levelo://app?vid=ba968f87-0459-48ae-bd8c-0bc00c5b625e","ios":"levelo://app?vid=ba968f87-0459-48ae-bd8c-0bc00c5b625e"},"vehicle_type_id":"4","last_reported":1761682320,"current_range_meters":19600,"station_id":"ce4bhgh2rcd13ifvqfb0","pricing_plan_id":"cebpf4jnsgd1na2vs0mg"},{"bike_id":"556c95c4-e39d-4a50-b32b-6e1b11658636","system_id":"levelo_inurba_marseille","lat":43.241701,"lon":5.363984,"is_reserved":false,"is_disabled":false,"rental_uris":{"android":"levelo://app?vid=556c95c4-e39d-4a50-b32b-6e1b11658636","ios":"levelo://app?vid=556c95c4-e39d-4a50-b32b-6e1b11658636"},"vehicle_type_id":"4","last_reported":1761682320,"current_range_meters":19600,"station_id":"cpo36qri1sfpv3e86is0","pricing_plan_id":"cebpf4jnsgd1na2vs0mg"},{"bike_id":"8c3ba143-d438-4926-866d-297b868da285","system_id":"levelo_inurba_marseille","lat":43.32288,"lon":5.38275,"is_reserved":false,"is_disabled":false,"rental_uris":{"android":"levelo://app?vid=8c3ba143-d438-4926-866d-297b868da285","ios":"levelo://app?vid=8c3ba143-d438-4926-866d-297b868da285"},"vehicle_type_id":"4","last_reported":1761682320,"current_range_meters":19600,"station_id":"ce4bhr12rcd13ifvqhqg","pricing_plan_id":"cebpf4jnsgd1na2vs0mg"},{"bike_id":"a06c786d-e3eb-4ef1-8733-b2407d8624c3","system_id":"levelo_inurba_marseille","lat":43.28863,"lon":5.42514,"is_reserved":false,"is_disabled":false,"rental_uris":{"android":"levelo://app?vid=a06c786d-e3eb-4ef1-8733-b2407d8624c3","ios":"levelo://app?vid=a06c786d-e3eb-4ef1-8733-b2407d8624c3"},"vehicle_type_id":"4","last_reported":1761682320,"current_range_meters":19600,"station_id":"st_d3b462108ojc7389ooeg","pricing_plan_id":"cebpf4jnsgd1na2vs0mg"},