{"last_updated":1752502361,"ttl":60,"version":"2.2","data":{"bikes":[{"bike_id":"feb1ed1d-b0db-45cc-9e1b-7311a8d72058","system_id":"levelo_inurba_marseille","lat":43.33747,"lon":5.37463,"is_reserved":false,"is_disabled":false,"rental_uris":{"android":"levelo://app?vid=feb1ed1d-b0db-45cc-9e1b-7311a8d72058","ios":"levelo://app?vid=feb1ed1d-b0db-45cc-9e1b-7311a8d72058"},"vehicle_type_id":"1","last_reported":1752502362,"current_range_meters":38000,"station_id":"","pricing_plan_id":"cebpf4jnsgd1na2vs0mg"},{"bike_id":"3d2978bb-8a73-4012-9c9b-9974b53d45f7","system_id":"levelo_inurba_marseille","lat":43.28265,"lon":5.35064,"is_reserved":false,"is_disabled":false,"rental_uris":{"android":"levelo://app?vid=3d2978bb-8a73-4012-9c9b-9974b53d45f7","ios":"levelo://app?vid=3d2978bb-8a73-4012-9c9b-9974b53d45f7"},"vehicle_type_id":"4","last_reported":1752502362,"current_range_meters":2800,"station_id":"ce4bhbp2rcd13ifvqerg","pricing_plan_id":"cebpf4jnsgd1na2vs0mg"},{"bike_id":"7c2e6218-05bc-4aa5-a77b-f04ca88c99ff","system_id":"levelo_inurba_marseille","lat":43.2836,"lon":5.38094,"is_reserved":false,"is_disabled":false,"rental_uris":{"android":"levelo://app?vid=7c2e6218-05bc-4aa5-a77b-f04ca88c99ff","ios":"levelo://app?vid=7c2e6218-05bc-4aa5-a77b-f04ca88c99ff"},"vehicle_type_id":"4","last_reported":1752502362,"current_range_meters":2800,"station_id":"ce4bh412rcd13ifvqdr0","pricing_plan_id":"cebpf4jnsgd1na2vs0mg"},{"bike_id":"d7a33f00-97a9-4311-a7c6-ca26c3925a3f","system_id":"levelo_inurba_marseille","lat":43.28409,"lon":5.3751,"is_reserved":false,"is_disabled":false,"rental_uris":{"android":"levelo://app?vid=d7a33f00-97a9-4311-a7c6-ca26c3925a3f","ios":"levelo://app?vid=d7a33f00-97a9-4311-a7c6-ca26c3925a3f"},"vehicle_type_id":"4","last_reported":1752502362,"current_range_meters":2800,"station_id":"ce4bh412rcd13ifvqds0","pricing_plan_id":"cebpf4jnsgd1na2vs0mg"},{"bike_id":"3d7c83a1-d94c-4aab-95a9-8a04bec43d63","system_id":"levelo_inurba_marseille","lat":43.32361,"lon":5.36757,"is_reserved":false,"is_disabled":false,"rental_uris":{"android":"levelo://app?vid=3d7c83a1-d94c-4aab-95a9-8a04bec43d63","ios":"levelo://app?vid=3d7c83a1-d94c-4aab-95a9-8a04bec43d63"},"vehicle_type_id":"4","last_reported":1752502362,"current_range_meters":3200,"station_id":"ce4bhsh2rcd13ifvqi2g","pricing_plan_id":"cebpf4jnsgd1na2vs0mg"},{"bike_id":"4d767fbb-9698-438e-9400-4ad19fd818c4","system_id":"levelo_inurba_marseille","lat":43.28494,"lon":5.38415,"is_reserved":false,"is_disabled":false,"rental_uris":{"android":"levelo://app?vid=4d767fbb-9698-438e-9400-4ad19fd818c4","ios":"levelo://app?vid=4d767fbb-9698-438e-9400-4ad19fd818c4"},"vehicle_type_id":"4","last_reported":1752502362,"current_range_meters":3200,"station_id":"ce4bh512rcd13ifvqe3g","pricing_plan_id":"cebpf4jnsgd1na2vs0mg"},{"bike_id":"d16325b7-ca27-46c9-9180-6e170b0f379e","system_id":"levelo_inurba_marseille","lat":43.30134,"lon":5.38782,"is_reserved":false,"is_disabled":false,"rental_uris":{"android":"levelo://app?vid=d16325b7-ca27-46c9-9180-6e170b0f379e","ios":"levelo://app?vid=d16325b7-ca27-46c9-9180-6e170b0f379e"},"vehicle_type_id":"4","last_reported":1752502362,"current_range_meters":3200,"station_id":"ce4bghh2rcd13ifvqb60","pricing_plan_id":"cebpf4jnsgd1na2vs0mg"},{"bike_id":"515a18f5-9201-406c-8774-1de199436be9","system_id":"levelo_inurba_marseille","lat":43.26216,"lon":5.37449,"is_reserved":false,"is_disabled":false,"rental_uris":{"android":"levelo://app?vid=515a18f5-9201-406c-8774-1de199436be9","ios":"levelo://app?vid=515a18f5-9201-406c-8774-1de199436be9"},"vehicle_type_id":"4","last_reported":1752502362,"current_range_meters":4000,"station_id":"ce4bhgp2rcd13ifvqfc0","pricing_plan_id":"cebpf4jnsgd1na2vs0mg"},{"bike_id":"a789e7a6-7aeb-4d78-9144-6a0a923a3b6e","system_id":"levelo_inurba_marseille","lat":43.29167,"lon":5.37149,"is_reserved":false,"is_disabled":false,"rental_uris":{"android":"levelo://app?vid=a789e7a6-7aeb-4d78-9144-6a0a923a3b6e","ios":"levelo://app?vid=a789e7a6-7aeb-4d78-9144-6a0a923a3b6e"},"vehicle_type_id":"4","last_reported":1752502362,"current_range_meters":4400,"station_id":"ce4bha92rcd13ifvqeh0","pricing_plan_id":"cebpf4jnsgd1na2vs0mg"},{"bike_id":"1f16c59e-e23d-42db-8036-ddbd62348eb6","system_id":"levelo_inurba_marseille","lat":43.29302,"lon":5.37447,"is_reserved":false,"is_disabled":false,"rental_uris":{"android":"levelo://app?vid=1f16c59e-e23d-42db-8036-ddbd62348eb6","ios":"levelo://app?vid=1f16c59e-e23d-42db-8036-ddbd62348eb6"},"vehicle_type_id":"4","last_reported":1752502362,"current_range_meters":4400,"station_id":"ce4bgi12rcd13ifvqb70","pricing_plan_id":"cebpf4jnsgd1na2vs0mg"},{"bike_id":"0ae9ac3f-9ecd-4461-b575-27caaab86845","system_id":"levelo_inurba_marseille","lat":43.23067,"lon":5.35489,"is_reserved":false,"is_disabled":false,"rental_uris":{"android":"levelo://app?vid=0ae9ac3f-9ecd-4461-b575-27caaab86845","ios":"levelo://app?vid=0ae9ac3f-9ecd-4461-b575-27caaab86845"},"vehicle_type_id":"4","last_reported":1752502362,"current_range_meters":4800,"station_id":"cpo3342slgdg3j2ifvpg","pricing_plan_id":"cebpf4jnsgd1na2vs0mg"},{"bike_id":"872a2359-d60e-4de6-9fc6-7c14469b5729","system_id":"levelo_inurba_marseille","lat":43.28034,"lon":5.36946,"is_reserved":false,"is_disabled":false,"rental_uris":{"android":"levelo://app?vid=872a2359-d60e-4de6-9fc6-7c14469b5729","ios":"levelo://app?vid=872a2359-d60e-4de6-9fc6-7c14469b5729"},"vehicle_type_id":"4","last_reported":1752502362,"current_range_meters":5600,"station_id":"ce4bha12rcd13ifvqef0","pricing_plan_id":"cebpf4jnsgd1na2vs0mg"},{"bike_id":"e905217c-abda-468b-92f5-fd38a8ede7d5","system_id":"levelo_inurba_marseille","lat":43.22501,"lon":5.34779,"is_reserved":false,"is_disabled":false,"rental_uris":{"android":"levelo://app?vid=e905217c-abda-468b-92f5-fd38a8ede7d5","ios":"levelo://app?vid=e905217c-abda-468b-92f5-fd38a8ede7d5"},"vehicle_type_id":"4","last_reported":1752502362,"current_range_meters":5600,"station_id":"st_cvj5dfep6f1abm77gieg","pricing_plan_id":"cebpf4jnsgd1na2vs0mg"},{"bike_id":"470d1e9d-8c05-40b8-a6b2-039f183b9f6a","system_id":"levelo_inurba_marseille","lat":43.23189,"lon":5.35558,"is_reserved":false,"is_disabled":true,"rental_uris":{"android":"levelo://app?vid=470d1e9d-8c05-40b8-a6b2-039f183b9f6a","ios":"levelo://app?vid=470d1e9d-8c05-40b8-a6b2-039f183b9f6a"},"vehicle_type_id":"4","last_reported":1752502362,"current_range_meters":5600,"station_id":"ce4bhu92rcd13ifvqi70","pricing_plan_id":"cebpf4jnsgd1na2vs0mg"},{"bike_id":"44dd919c-32df-4fe9-8b1c-c9988fb68d5b","system_id":"levelo_inurba_marseille","lat":43.269593,"lon":5.403109,"is_reserved":false,"is_disabled":true,"rental_uris":{"android":"levelo://app?vid=44dd919c-32df-4fe9-8b1c-c9988fb68d5b","ios":"levelo://app?vid=44dd919c-32df-4fe9-8b1c-c9988fb68d5b"},"vehicle_type_id":"4","last_reported":1752502362,"current_range_meters":6000,"station_id":"cjm6bp8fraef2m0cb0m0","pricing_plan_id":"cebpf4jnsgd1na2vs0mg"},{"bike_id":"9efb8360-8563-45b9-96b2-a06e314abdb2","system_id":"levelo_inurba_marseille","lat":43.21194,"lon":5.35069,"is_reserved":false,"is_disabled":false,"rental_uris":{"android":"levelo://app?vid=9efb8360-8563-45b9-96b2-a06e314abdb2","ios":"levelo://app?vid=9efb8360-8563-45b9-96b2-a06e314abdb2"},"vehicle_type_id":"4","last_reported":1752502362,"current_range_meters":6000,"station_id":"st_cvj6sg6p6f1abm77japg","pricing_plan_id":"cebpf4jnsgd1na2vs0mg"},{"bike_id":"a753c7dd-0dc8-4c45-a9cc-28b097880cfc","system_id":"levelo_inurba_marseille","lat":43.26216,"lon":5.37445,"is_reserved":false,"is_disabled":false,"rental_uris":{"android":"levelo://app?vid=a753c7dd-0dc8-4c45-a9cc-28b097880cfc","ios":"levelo://app?vid=a753c7dd-0dc8-4c45-a9cc-28b097880cfc"},"vehicle_type_id":"4","last_reported":1752502362,"current_range_meters":6800,"station_id":"ce4bhgp2rcd13ifvqfc0","pricing_plan_id":"cebpf4jnsgd1na2vs0mg"},{"bike_id":"cc2228d2-847d-43de-972d-94130f813dc0","system_id":"levelo_inurba_marseille","lat":43.26552,"lon":5.37282,"is_reserved":false,"is_disabled":false,"rental_uris":{"android":"levelo://app?vid=cc2228d2-847d-43de-972d-94130f813dc0","ios":"levelo://app?vid=cc2228d2-847d-43de-972d-94130f813dc0"},"vehicle_type_id":"4","last_reported":1752502362,"current_range_meters":4800,"station_id":"ce4bhg12rcd13ifvqf70","pricing_plan_id":"cebpf4jnsgd1na2vs0mg"},{"bike_id":"5a8a87a7-1367-41c6-ba9b-8b3d2da37c5f","system_id":"levelo_inurba_marseille","lat":43.31536,"lon":5.38042,"is_reserved":false,"is_disabled":false,"rental_uris":{"android":"levelo://app?vid=5a8a87a7-1367-41c6-ba9b-8b3d2da37c5f","ios":"levelo://app?vid=5a8a87a7-1367-41c6-ba9b-8b3d2da37c5f"},"vehicle_type_id":"4","last_reported":1752502362,"current_range_meters":6800,"station_id":"ce4bhsp2rcd13ifvqi50","pricing_plan_id":"cebpf4jnsgd1na2vs0mg"},{"bike_id":"40b41f24-7b0a-4dfd-a6aa-660ebf284c8f","system_id":"levelo_inurba_marseille","lat":43.28299,"lon":5.35072,"is_reserved":false,"is_disabled":false,"rental_uris":{"android":"levelo://app?vid=40b41f24-7b0a-4dfd-a6aa-660ebf284c8f","ios":"levelo://app?vid=40b41f24-7b0a-4dfd-a6aa-660ebf284c8f"},"vehicle_type_id":"4","last_reported":1752502362,"current_range_meters":6800,"station_id":"ce4bhbp2rcd13ifvqerg","pricing_plan_id":"cebpf4jnsgd1na2vs0mg"},{"bike_id":"9b980559-6c87-4a41-ac1c-270bfc6fc8b0","system_id":"levelo_inurba_marseille","lat":43.29595,"lon":5.380943,"is_reserved":false,"is_disabled":true,"rental_uris":{"android":"levelo://app?vid=9b980559-6c87-4a41-ac1c-270bfc6fc8b0","ios":"levelo://app?vid=9b980559-6c87-4a41-ac1c-270bfc6fc8b0"},"vehicle_type_id":"4","last_reported":1752502362,"current_range_meters":7200,"station_id":"","pricing_plan_id":"cebpf4jnsgd1na2vs0mg"},{"bike_id":"0bf1ec1b-25c5-49a6-813d-86404b3ef877","system_id":"levelo_inurba_marseille","lat":43.26772,"lon":5.3942,"is_reserved":false,"is_disabled":false,"rental_uris":{"android":"levelo://app?vid=0bf1ec1b-25c5-49a6-813d-86404b3ef877","ios":"levelo://app?vid=0bf1ec1b-25c5-49a6-813d-86404b3ef877"},"vehicle_type_id":"4","last_reported":1752502362,"current_range_meters":7200,"station_id":"ce4bhh12rcd13ifvqfg0","pricing_plan_id":"cebpf4jnsgd1na2vs0mg"},{"bike_id":"bbf2c276-3b35-4728-b45c-2713d906bd20","system_id":"levelo_inurba_marseille","lat":43.21734,"lon":5.34602,"is_reserved":false,"is_disabled":false,"rental_uris":{"android":"levelo://app?vid=bbf2c276-3b35-4728-b45c-2713d906bd20","ios":"levelo://app?vid=bbf2c276-3b35-4728-b45c-2713d906bd20"},"vehicle_type_id":"4","last_reported":1752502362,"current_range_meters":8000,"station_id":"st_cvj6r9ubvosntc0bgbag","pricing_plan_id":"cebpf4jnsgd1na2vs0mg"},{"bike_id":"e0e438ac-c45d-457c-8d30-4f07e76f7d12","system_id":"levelo_inurba_marseille","lat":43.297084,"lon":5.376916,"is_reserved":false,"is_disabled":false,"rental_uris":{"android":"levelo://app?vid=e0e438ac-c45d-457c-8d30-4f07e76f7d12","ios":"levelo://app?vid=e0e438ac-c45d-457c-8d30-4f07e76f7d12"},"vehicle_type_id":"4","last_reported":1752502362,"current_range_meters":8000,"station_id":"","pricing_plan_id":"cebpf4jnsgd1na2vs0mg"},{"bike_id":"f23760ff-ab61-4853-aa67-28aac93822c1","system_id":"levelo_inurba_marseille","lat":43.337444,"lon":5.374475,"is_reserved":false,"is_disabled":false,"rental_uris":{"android":"levelo://app?vid=f23760ff-ab61-4853-aa67-28aac93822c1","ios":"levelo://app?vid=f23760ff-ab61-4853-aa67-28aac93822c1"},"vehicle_type_id":"4","last_reported":1752502362,"current_range_meters":8000,"station_id":"","pricing_plan_id":"cebpf4jnsgd1na2vs0mg"},{"bike_id":"2e4a8b3e-b645-4909-aaff-d7edfada1c2c","system_id":"levelo_inurba_marseille","lat":43.30884,"lon":5.39658,"is_reserved":false,"is_disabled":false,"rental_uris":{"android":"levelo://app?vid=2e4a8b3e-b645-4909-aaff-d7edfada1c2c","ios":"levelo://app?vid=2e4a8b3e-b645-4909-aaff-d7edfada1c2c"},"vehicle_type_id":"4","last_reported":1752502362,"current_range_meters":8000,"station_id":"ce4bh012rcd13ifvqcv0","pricing_plan_id":"cebpf4jnsgd1na2vs0mg"},{"bike_id":"74aeec3d-7dbe-483e-a6e0-bce47c676947","system_id":"levelo_inurba_marseille","lat":43.302975,"lon":5.392139,"is_reserved":false,"is_disabled":false,"rental_uris":{"android":"levelo://app?vid=74aeec3d-7dbe-483e-a6e0-bce47c676947","ios":"levelo://app?vid=74aeec3d-7dbe-483e-a6e0-bce47c676947"},"vehicle_type_id":"4","last_reported":1752502362,"current_range_meters":8400,"station_id":"ce4bgkh2rcd13ifvqbk0","pricing_plan_id":"cebpf4jnsgd1na2vs0mg"},{"bike_id":"439e0e71-fd5f-412b-b412-c90fac1f11db","system_id":"levelo_inurba_marseille","lat":43.28941,"lon":5.39621,"is_reserved":false,"is_disabled":false,"rental_uris":{"android":"levelo://app?vid=439e0e71-fd5f-412b-b412-c90fac1f11db","ios":"levelo://app?vid=439e0e71-fd5f-412b-b412-c90fac1f11db"},"vehicle_type_id":"4","last_reported":1752502362,"current_range_meters":8400,"station_id":"ce4bh3h2rcd13ifvqdn0","pricing_plan_id":"cebpf4jnsgd1na2vs0mg"},{"bike_id":"f3b7da2b-96f2-42cf-b58e-2b12edcba03a","system_id":"levelo_inurba_marseille","lat":43.30634,"lon":5.40095,"is_reserved":false,"is_disabled":false,"rental_uris":{"android":"levelo://app?vid=f3b7da2b-96f2-42cf-b58e-2b12edcba03a","ios":"levelo://app?vid=f3b7da2b-96f2-42cf-b58e-2b12edcba03a"},"vehicle_type_id":"4","last_reported":1752502362,"current_range_meters":8000,"station_id":"ce4bh112rcd13ifvqda0","pricing_plan_id":"cebpf4jnsgd1na2vs0mg"},{"bike_id":"004648f8-9170-40c8-9c2c-da710b6daf42","system_id":"levelo_inurba_marseille","lat":43.29007,"lon":5.35616,"is_reserved":false,"is_disabled":false,"rental_uris":{"android":"levelo://app?vid=004648f8-9170-40c8-9c2c-da710b6daf42","ios":"levelo://app?vid=004648f8-9170-40c8-9c2c-da710b6daf42"},"vehicle_type_id":"4","last_reported":1752502362,"current_range_meters":8400,"station_id":"ce4bhb92rcd13ifvqen0","pricing_plan_id":"cebpf4jnsgd1na2vs0mg"},{"bike_id":"e4776397-36e6-43fa-9cad-63dd69ef8319","system_id":"levelo_inurba_marseille","lat":43.298725,"lon":5.397684,"is_reserved":false,"is_disabled":false,"rental_uris":{"android":"levelo://app?vid=e4776397-36e6-43fa-9cad-63dd69ef8319","ios":"levelo://app?vid=e4776397-36e6-43fa-9cad-63dd69ef8319"},"vehicle_type_id":"4","last_reported":1752502362,"current_range_meters":8400,"station_id":"ce4bh0h2rcd13ifvqd50","pricing_plan_id":"cebpf4jnsgd1na2vs0mg"},{"bike_id":"2d20d04c-847b-4085-a58f-d98f887283c8","system_id":"levelo_inurba_marseille","lat":43.29693,"lon":5.37365,"is_reserved":false,"is_disabled":false,"rental_uris":{"android":"levelo://app?vid=2d20d04c-847b-4085-a58f-d98f887283c8","ios":"levelo://app?vid=2d20d04c-847b-4085-a58f-d98f887283c8"},"vehicle_type_id":"4","last_reported":1752502362,"current_range_meters":9200,"station_id":"","pricing_plan_id":"cebpf4jnsgd1na2vs0mg"},{"bike_id":"fb62ca1b-146e-4f82-b485-190d0f8ca6b2","system_id":"levelo_inurba_marseille","lat":43.21751,"lon":5.34595,"is_reserved":false,"is_disabled":false,"rental_uris":{"android":"levelo://app?vid=fb62ca1b-146e-4f82-b485-190d0f8ca6b2","ios":"levelo://app?vid=fb62ca1b-146e-4f82-b485-190d0f8ca6b2"},"vehicle_type_id":"4","last_reported":1752502362,"current_range_meters":9200,"station_id":"st_cvj6r9ubvosntc0bgbag","pricing_plan_id":"cebpf4jnsgd1na2vs0mg"},{"bike_id":"df98b24f-8426-4aca-992f-226055e655d1","system_id":"levelo_inurba_marseille","lat":43.29056,"lon":5.35908,"is_reserved":false,"is_disabled":false,"rental_uris":{"android":"levelo://app?vid=df98b24f-8426-4aca-992f-226055e655d1","ios":"levelo://app?vid=df98b24f-8426-4aca-992f-226055e655d1"},"vehicle_type_id":"4","last_reported":1752502362,"current_range_meters":9200,"station_id":"ce4bha92rcd13ifvqeg0","pricing_plan_id":"cebpf4jnsgd1na2vs0mg"},{"bike_id":"14c264ff-ea29-48d3-9ca7-811ccde41f62","system_id":"levelo_inurba_marseille","lat":43.29533,"lon":5.38546,"is_reserved":false,"is_disabled":false,"rental_uris":{"android":"levelo://app?vid=14c264ff-ea29-48d3-9ca7-811ccde41f62","ios":"levelo://app?vid=14c264ff-ea29-48d3-9ca7-811ccde41f62"},"vehicle_type_id":"4","last_reported":1752502362,"current_range_meters":9200,"station_id":"ce4bgih2rcd13ifvqba0","pricing_plan_id":"cebpf4jnsgd1na2vs0mg"},{"bike_id":"0eadb807-73f6-424a-bcd7-3b07bd18ff50","system_id":"levelo_inurba_marseille","lat":43.32127,"lon":5.36784,"is_reserved":false,"is_disabled":false,"rental_uris":{"android":"levelo://app?vid=0eadb807-73f6-424a-bcd7-3b07bd18ff50","ios":"levelo://app?vid=0eadb807-73f6-424a-bcd7-3b07bd18ff50"},"vehicle_type_id":"4","last_reported":1752502362,"current_range_meters":9200,"station_id":"ce4bhrh2rcd13ifvqhug","pricing_plan_id":"cebpf4jnsgd1na2vs0mg"},{"bike_id":"cd2a72b2-abf7-4ee0-a86c-434a6093d8dc","system_id":"levelo_inurba_marseille","lat":43.28418,"lon":5.34975,"is_reserved":false,"is_disabled":false,"rental_uris":{"android":"levelo://app?vid=cd2a72b2-abf7-4ee0-a86c-434a6093d8dc","ios":"levelo://app?vid=cd2a72b2-abf7-4ee0-a86c-434a6093d8dc"},"vehicle_type_id":"4","last_reported":1752502362,"current_range_meters":9600,"station_id":"ce4bhbh2rcd13ifvqepg","pricing_plan_id":"cebpf4jnsgd1na2vs0mg"},{"bike_id":"eb3722b3-cdc2-4784-ad0d-cc68856ddf0a","system_id":"levelo_inurba_marseille","lat":43.24808,"lon":5.37455,"is_reserved":false,"is_disabled":false,"rental_uris":{"android":"levelo://app?vid=eb3722b3-cdc2-4784-ad0d-cc68856ddf0a","ios":"levelo://app?vid=eb3722b3-cdc2-4784-ad0d-cc68856ddf0a"},"vehicle_type_id":"4","last_reported":1752502362,"current_range_meters":9600,"station_id":"ce4bhgh2rcd13ifvqfb0","pricing_plan_id":"cebpf4jnsgd1na2vs0mg"},{"bike_id":"0332ae64-4378-4913-8f52-c9ebced0b3bd","system_id":"levelo_inurba_marseille","lat":43.29272,"lon":5.40116,"is_reserved":false,"is_disabled":false,"rental_uris":{"android":"levelo://app?vid=0332ae64-4378-4913-8f52-c9ebced0b3bd","ios":"levelo://app?vid=0332ae64-4378-4913-8f52-c9ebced0b3bd"},"vehicle_type_id":"4","last_reported":1752502362,"current_range_meters":9600,"station_id":"ce4bh312rcd13ifvqdk0","pricing_plan_id":"cebpf4jnsgd1na2vs0mg"},{"bike_id":"07b80ba8-94f7-4006-b883-d44157aa02a8","system_id":"levelo_inurba_marseille","lat":43.21205,"lon":5.3506,"is_reserved":false,"is_disabled":false,"rental_uris":{"android":"levelo://app?vid=07b80ba8-94f7-4006-b883-d44157aa02a8","ios":"levelo://app?vid=07b80ba8-94f7-4006-b883-d44157aa02a8"},"vehicle_type_id":"4","last_reported":1752502362,"current_range_meters":10000,"station_id":"st_cvj6sg6p6f1abm77japg","pricing_plan_id":"cebpf4jnsgd1na2vs0mg"},{"bike_id":"e3b686d1-f0b1-4887-9c05-4bc370c43021","system_id":"levelo_inurba_marseille","lat":43.27189,"lon":5.40989,"is_reserved":false,"is_disabled":true,"rental_uris":{"android":"levelo://app?vid=e3b686d1-f0b1-4887-9c05-4bc370c43021","ios":"levelo://app?vid=e3b686d1-f0b1-4887-9c05-4bc370c43021"},"vehicle_type_id":"4","last_reported":1752502362,"current_range_meters":10000,"station_id":"ce4bhl12rcd13ifvqgf0","pricing_plan_id":"cebpf4jnsgd1na2vs0mg"},{"bike_id":"ded485db-63ab-46b1-bad8-b40e2147746e","system_id":"levelo_inurba_marseille","lat":43.22932,"lon":5.35374,"is_reserved":false,"is_disabled":false,"rental_uris":{"android":"levelo://app?vid=ded485db-63ab-46b1-bad8-b40e2147746e","ios":"levelo://app?vid=ded485db-63ab-46b1-bad8-b40e2147746e"},"vehicle_type_id":"4","last_reported":1752502362,"current_range_meters":10000,"station_id":"cpo3532slgdg3j2ikp40","pricing_plan_id":"cebpf4jnsgd1na2vs0mg"},{"bike_id":"9c03b589-5c2e-40ab-ac34-d4b2eeae458e","system_id":"levelo_inurba_marseille","lat":43.2884,"lon":5.35889,"is_reserved":false,"is_disabled":false,"rental_uris":{"android":"levelo://app?vid=9c03b589-5c2e-40ab-ac34-d4b2eeae458e","ios":"levelo://app?vid=9c03b589-5c2e-40ab-ac34-d4b2eeae458e"},"vehicle_type_id":"4","last_reported":1752502362,"current_range_meters":10000,"station_id":"ce4bhb12rcd13ifvqem0","pricing_plan_id":"cebpf4jnsgd1na2vs0mg"},{"bike_id":"61de183b-152f-4f8e-8a71-18a85a814c77","system_id":"levelo_inurba_marseille","lat":43.29525,"lon":5.38538,"is_reserved":false,"is_disabled":false,"rental_uris":{"android":"levelo://app?vid=61de183b-152f-4f8e-8a71-18a85a814c77","ios":"levelo://app?vid=61de183b-152f-4f8e-8a71-18a85a814c77"},"vehicle_type_id":"4","last_reported":1752502362,"current_range_meters":10000,"station_id":"ce4bgih2rcd13ifvqba0","pricing_plan_id":"cebpf4jnsgd1na2vs0mg"},{"bike_id":"364d9c40-7a67-46b6-aa5e-3310328e41cf","system_id":"levelo_inurba_marseille","lat":43.28467,"lon":5.35881,"is_reserved":false,"is_disabled":false,"rental_uris":{"android":"levelo://app?vid=364d9c40-7a67-46b6-aa5e-3310328e41cf","ios":"levelo://app?vid=364d9c40-7a67-46b6-aa5e-3310328e41cf"},"vehicle_type_id":"4","last_reported":1752502362,"current_range_meters":10800,"station_id":"ce4bhah2rcd13ifvqei0","pricing_plan_id":"cebpf4jnsgd1na2vs0mg"},{"bike_id":"a44f68aa-b920-4eb6-845e-df1183944a6b","system_id":"levelo_inurba_marseille","lat":43.285725,"lon":5.350855,"is_reserved":false,"is_disabled":false,"rental_uris":{"android":"levelo://app?vid=a44f68aa-b920-4eb6-845e-df1183944a6b","ios":"levelo://app?vid=a44f68aa-b920-4eb6-845e-df1183944a6b"},"vehicle_type_id":"4","last_reported":1752502362,"current_range_meters":10800,"station_id":"","pricing_plan_id":"cebpf4jnsgd1na2vs0mg"},{"bike_id":"58375fde-ca97-4dab-be52-59caf98323d3","system_id":"levelo_inurba_marseille","lat":43.26541,"lon":5.37295,"is_reserved":false,"is_disabled":true,"rental_uris":{"android":"levelo://app?vid=58375fde-ca97-4dab-be52-59caf98323d3","ios":"levelo://app?vid=58375fde-ca97-4dab-be52-59caf98323d3"},"vehicle_type_id":"4","last_reported":1752502362,"current_range_meters":10800,"station_id":"ce4bhg12rcd13ifvqf70","pricing_plan_id":"cebpf4jnsgd1na2vs0mg"},{"bike_id":"9d31d9a3-9360-47cc-9360-3d8ed75b64a4","system_id":"levelo_inurba_marseille","lat":43.3291,"lon":5.367,"is_reserved":false,"is_disabled":false,"rental_uris":{"android":"levelo://app?vid=9d31d9a3-9360-47cc-9360-3d8ed75b64a4","ios":"levelo://app?vid=9d31d9a3-9360-47cc-9360-3d8ed75b64a4"},"vehicle_type_id":"4","last_reported":1752502362,"current_range_meters":10800,"station_id":"","pricing_plan_id":"cebpf4jnsgd1na2vs0mg"},{"bike_id":"7d8c67ad-3e66-42f9-8c6e-098cca666cf3","system_id":"levelo_inurba_marseille","lat":43.32361,"lon":5.36752,"is_reserved":false,"is_disabled":false,"rental_uris":{"android":"levelo://app?vid=7d8c67ad-3e66-42f9-8c6e-098cca666cf3","ios":"levelo://app?vid=7d8c67ad-3e66-42f9-8c6e-098cca666cf3"},"vehicle_type_id":"4","last_reported":1752502362,"current_range_meters":10800,"station_id":"ce4bhsh2rcd13ifvqi2g","pricing_plan_id":"cebpf4jnsgd1na2vs0mg"},{"bike_id":"ad7c44e5-2376-44d6-ac77-2570c9205521","system_id":"levelo_inurba_marseille","lat":43.28729,"lon":5.37933,"is_reserved":false,"is_disabled":false,"rental_uris":{"android":"levelo://app?vid=ad7c44e5-2376-44d6-ac77-2570c9205521","ios":"levelo://app?vid=ad7c44e5-2376-44d6-ac77-2570c9205521"},"vehicle_type_id":"4","last_reported":1752502362,"current_range_meters":11200,"station_id":"ce4bh9p2rcd13ifvqec0","pricing_plan_id":"cebpf4jnsgd1na2vs0mg"},{"bike_id":"1700fcd6-30ad-4b74-a158-50e5dcb60b9b","system_id":"levelo_inurba_marseille","lat":43.289398,"lon":5.366295,"is_reserved":false,"is_disabled":true,"rental_uris":{"android":"levelo://app?vid=1700fcd6-30ad-4b74-a158-50e5dcb60b9b","ios":"levelo://app?vid=1700fcd6-30ad-4b74-a158-50e5dcb60b9b"},"vehicle_type_id":"4","last_reported":1752502362,"current_range_meters":11200,"station_id":"ce4bhap2rcd13ifvqek0","pricing_plan_id":"cebpf4jnsgd1na2vs0mg"},{"bike_id":"d916aace-830c-451e-a376-c1312f1fc6af","system_id":"levelo_inurba_marseille","lat":43.2251,"lon":5.34775,"is_reserved":false,"is_disabled":false,"rental_uris":{"android":"levelo://app?vid=d916aace-830c-451e-a376-c1312f1fc6af","ios":"levelo://app?vid=d916aace-830c-451e-a376-c1312f1fc6af"},"vehicle_type_id":"4","last_reported":1752502362,"current_range_meters":11200,"station_id":"","pricing_plan_id":"cebpf4jnsgd1na2vs0mg"},{"bike_id":"f2dbbcf5-4a99-44c0-87ac-22f691e8367b","system_id":"levelo_inurba_marseille","lat":43.2407,"lon":5.37765,"is_reserved":false,"is_disabled":false,"rental_uris":{"android":"levelo://app?vid=f2dbbcf5-4a99-44c0-87ac-22f691e8367b","ios":"levelo://app?vid=f2dbbcf5-4a99-44c0-87ac-22f691e8367b"},"vehicle_type_id":"4","last_reported":1752502362,"current_range_meters":11200,"station_id":"ce4bhnp2rcd13ifvqgvg","pricing_plan_id":"cebpf4jnsgd1na2vs0mg"},{"bike_id":"ad5eb277-50fe-4683-8834-d753b852b58a","system_id":"levelo_inurba_marseille","lat":43.278551,"lon":5.385525,"is_reserved":false,"is_disabled":false,"rental_uris":{"android":"levelo://app?vid=ad5eb277-50fe-4683-8834-d753b852b58a","ios":"levelo://app?vid=ad5eb277-50fe-4683-8834-d753b852b58a"},"vehicle_type_id":"4","last_reported":1752502362,"current_range_meters":11600,"station_id":"","pricing_plan_id":"cebpf4jnsgd1na2vs0mg"},{"bike_id":"b2464811-ed1c-444d-b5b2-f0f5cb56794f","system_id":"levelo_inurba_marseille","lat":43.28702,"lon":5.35199,"is_reserved":false,"is_disabled":false,"rental_uris":{"android":"levelo://app?vid=b2464811-ed1c-444d-b5b2-f0f5cb56794f","ios":"levelo://app?vid=b2464811-ed1c-444d-b5b2-f0f5cb56794f"},"vehicle_type_id":"4","last_reported":1752502362,"current_range_meters":11600,"station_id":"","pricing_plan_id":"cebpf4jnsgd1na2vs0mg"},{"bike_id":"8f5fef96-8f46-4bdd-bf7c-206d528a0d0c","system_id":"levelo_inurba_marseille","lat":43.22937,"lon":5.35372,"is_reserved":false,"is_disabled":false,"rental_uris":{"android":"levelo://app?vid=8f5fef96-8f46-4bdd-bf7c-206d528a0d0c","ios":"levelo://app?vid=8f5fef96-8f46-4bdd-bf7c-206d528a0d0c"},"vehicle_type_id":"4","last_reported":1752502362,"current_range_meters":11600,"station_id":"cpo3532slgdg3j2ikp40","pricing_plan_id":"cebpf4jnsgd1na2vs0mg"},{"bike_id":"40bded1f-8528-4065-aa77-d57a5dad68bd","system_id":"levelo_inurba_marseille","lat":43.28102,"lon":5.378423,"is_reserved":false,"is_disabled":false,"rental_uris":{"android":"levelo://app?vid=40bded1f-8528-4065-aa77-d57a5dad68bd","ios":"levelo://app?vid=40bded1f-8528-4065-aa77-d57a5dad68bd"},"vehicle_type_id":"4","last_reported":1752502362,"current_range_meters":11200,"station_id":"ce4bha12rcd13ifvqee0","pricing_plan_id":"cebpf4jnsgd1na2vs0mg"},{"bike_id":"e5b5ca62-0c23-4170-9c45-f21c8c265cc6","system_id":"levelo_inurba_marseille","lat":43.24068,"lon":5.37766,"is_reserved":false,"is_disabled":false,"rental_uris":{"android":"levelo://app?vid=e5b5ca62-0c23-4170-9c45-f21c8c265cc6","ios":"levelo://app?vid=e5b5ca62-0c23-4170-9c45-f21c8c265cc6"},"vehicle_type_id":"4","last_reported":1752502362,"current_range_meters":12000,"station_id":"ce4bhnp2rcd13ifvqgvg","pricing_plan_id":"cebpf4jnsgd1na2vs0mg"},{"bike_id":"a6359554-87d2-4db0-b05f-0ccfed29bc92","system_id":"levelo_inurba_marseille","lat":43.24799,"lon":5.37454,"is_reserved":false,"is_disabled":false,"rental_uris":{"android":"levelo://app?vid=a6359554-87d2-4db0-b05f-0ccfed29bc92","ios":"levelo://app?vid=a6359554-87d2-4db0-b05f-0ccfed29bc92"},"vehicle_type_id":"4","last_reported":1752502362,"current_range_meters":12000,"station_id":"ce4bhgh2rcd13ifvqfb0","pricing_plan_id":"cebpf4jnsgd1na2vs0mg"},{"bike_id":"8ff1dce8-e6d2-4132-8984-02a5d21c45a3","system_id":"levelo_inurba_marseille","lat":43.3107,"lon":5.38353,"is_reserved":false,"is_disabled":false,"rental_uris":{"android":"levelo://app?vid=8ff1dce8-e6d2-4132-8984-02a5d21c45a3","ios":"levelo://app?vid=8ff1dce8-e6d2-4132-8984-02a5d21c45a3"},"vehicle_type_id":"4","last_reported":1752502362,"current_range_meters":12000,"station_id":"ce4bgv92rcd13ifvqcr0","pricing_plan_id":"cebpf4jnsgd1na2vs0mg"},{"bike_id":"05f30485-dc90-4763-9dd4-c12f63ae43a2","system_id":"levelo_inurba_marseille","lat":43.30315,"lon":5.36902,"is_reserved":false,"is_disabled":true,"rental_uris":{"android":"levelo://app?vid=05f30485-dc90-4763-9dd4-c12f63ae43a2","ios":"levelo://app?vid=05f30485-dc90-4763-9dd4-c12f63ae43a2"},"vehicle_type_id":"4","last_reported":1752502362,"current_range_meters":12400,"station_id":"ce4bgqh2rcd13ifvqc5g","pricing_plan_id":"cebpf4jnsgd1na2vs0mg"},{"bike_id":"002e6944-aa53-41b5-94a1-97e8a1b31e28","system_id":"levelo_inurba_marseille","lat":43.314931,"lon":5.372973,"is_reserved":false,"is_disabled":false,"rental_uris":{"android":"levelo://app?vid=002e6944-aa53-41b5-94a1-97e8a1b31e28","ios":"levelo://app?vid=002e6944-aa53-41b5-94a1-97e8a1b31e28"},"vehicle_type_id":"4","last_reported":1752502362,"current_range_meters":12400,"station_id":"ce4bgt12rcd13ifvqcd0","pricing_plan_id":"cebpf4jnsgd1na2vs0mg"},{"bike_id":"83051a0a-e6b0-4c50-8e39-06f7b1a7bb98","system_id":"levelo_inurba_marseille","lat":43.21753,"lon":5.34605,"is_reserved":false,"is_disabled":false,"rental_uris":{"android":"levelo://app?vid=83051a0a-e6b0-4c50-8e39-06f7b1a7bb98","ios":"levelo://app?vid=83051a0a-e6b0-4c50-8e39-06f7b1a7bb98"},"vehicle_type_id":"4","last_reported":1752502362,"current_range_meters":12400,"station_id":"st_cvj6r9ubvosntc0bgbag","pricing_plan_id":"cebpf4jnsgd1na2vs0mg"},{"bike_id":"e9d8f86f-58da-4083-b5c0-de417486e0f9","system_id":"levelo_inurba_marseille","lat":43.28416,"lon":5.34988,"is_reserved":false,"is_disabled":false,"rental_uris":{"android":"levelo://app?vid=e9d8f86f-58da-4083-b5c0-de417486e0f9","ios":"levelo://app?vid=e9d8f86f-58da-4083-b5c0-de417486e0f9"},"vehicle_type_id":"4","last_reported":1752502362,"current_range_meters":12800,"station_id":"ce4bhbh2rcd13ifvqepg","pricing_plan_id":"cebpf4jnsgd1na2vs0mg"},{"bike_id":"2328eebf-fd31-4b1e-a642-0b84bcc536ea","system_id":"levelo_inurba_marseille","lat":43.26215,"lon":5.37446,"is_reserved":false,"is_disabled":false,"rental_uris":{"android":"levelo://app?vid=2328eebf-fd31-4b1e-a642-0b84bcc536ea","ios":"levelo://app?vid=2328eebf-fd31-4b1e-a642-0b84bcc536ea"},"vehicle_type_id":"4","last_reported":1752502362,"current_range_meters":12800,"station_id":"ce4bhgp2rcd13ifvqfc0","pricing_plan_id":"cebpf4jnsgd1na2vs0mg"},{"bike_id":"8a01e88a-8371-4085-9838-47ae11897cd3","system_id":"levelo_inurba_marseille","lat":43.28158,"lon":5.42642,"is_reserved":false,"is_disabled":true,"rental_uris":{"android":"levelo://app?vid=8a01e88a-8371-4085-9838-47ae11897cd3","ios":"levelo://app?vid=8a01e88a-8371-4085-9838-47ae11897cd3"},"vehicle_type_id":"4","last_reported":1752502362,"current_range_meters":12800,"station_id":"ce4bhnh2rcd13ifvqgug","pricing_plan_id":"cebpf4jnsgd1na2vs0mg"},{"bike_id":"7ebc1e7e-77d2-44ab-bded-c1b055382dcf","system_id":"levelo_inurba_marseille","lat":43.29531,"lon":5.3855,"is_reserved":false,"is_disabled":false,"rental_uris":{"android":"levelo://app?vid=7ebc1e7e-77d2-44ab-bded-c1b055382dcf","ios":"levelo://app?vid=7ebc1e7e-77d2-44ab-bded-c1b055382dcf"},"vehicle_type_id":"4","last_reported":1752502362,"current_range_meters":12800,"station_id":"ce4bgih2rcd13ifvqba0","pricing_plan_id":"cebpf4jnsgd1na2vs0mg"},{"bike_id":"1385c92b-800b-46ee-bb29-02790bad46db","system_id":"levelo_inurba_marseille","lat":43.262146,"lon":5.374403,"is_reserved":false,"is_disabled":false,"rental_uris":{"android":"levelo://app?vid=1385c92b-800b-46ee-bb29-02790bad46db","ios":"levelo://app?vid=1385c92b-800b-46ee-bb29-02790bad46db"},"vehicle_type_id":"4","last_reported":1752502362,"current_range_meters":12800,"station_id":"ce4bhgp2rcd13ifvqfc0","pricing_plan_id":"cebpf4jnsgd1na2vs0mg"},{"bike_id":"c8c4de1a-846f-4f5b-aace-9fb14bf7ad52","system_id":"levelo_inurba_marseille","lat":43.21192,"lon":5.35073,"is_reserved":false,"is_disabled":false,"rental_uris":{"android":"levelo://app?vid=c8c4de1a-846f-4f5b-aace-9fb14bf7ad52","ios":"levelo://app?vid=c8c4de1a-846f-4f5b-aace-9fb14bf7ad52"},"vehicle_type_id":"4","last_reported":1752502362,"current_range_meters":12800,"station_id":"st_cvj6sg6p6f1abm77japg","pricing_plan_id":"cebpf4jnsgd1na2vs0mg"},{"bike_id":"fa7fb764-c5ec-4d35-a197-bbac264a3629","system_id":"levelo_inurba_marseille","lat":43.26578,"lon":5.3727,"is_reserved":false,"is_disabled":false,"rental_uris":{"android":"levelo://app?vid=fa7fb764-c5ec-4d35-a197-bbac264a3629","ios":"levelo://app?vid=fa7fb764-c5ec-4d35-a197-bbac264a3629"},"vehicle_type_id":"4","last_reported":1752502362,"current_range_meters":12800,"station_id":"ce4bhg12rcd13ifvqf70","pricing_plan_id":"cebpf4jnsgd1na2vs0mg"},{"bike_id":"2ec427da-b403-4a7e-86be-3f48ba535d18","system_id":"levelo_inurba_marseille","lat":43.21189,"lon":5.35074,"is_reserved":false,"is_disabled":false,"rental_uris":{"android":"levelo://app?vid=2ec427da-b403-4a7e-86be-3f48ba535d18","ios":"levelo://app?vid=2ec427da-b403-4a7e-86be-3f48ba535d18"},"vehicle_type_id":"4","last_reported":1752502362,"current_range_meters":13600,"station_id":"st_cvj6sg6p6f1abm77japg","pricing_plan_id":"cebpf4jnsgd1na2vs0mg"},{"bike_id":"3af9fab0-ae4c-4037-928e-7c8f1ec82fad","system_id":"levelo_inurba_marseille","lat":43.28454,"lon":5.34949,"is_reserved":false,"is_disabled":false,"rental_uris":{"android":"levelo://app?vid=3af9fab0-ae4c-4037-928e-7c8f1ec82fad","ios":"levelo://app?vid=3af9fab0-ae4c-4037-928e-7c8f1ec82fad"},"vehicle_type_id":"4","last_reported":1752502362,"current_range_meters":13600,"station_id":"ce4bhbh2rcd13ifvqepg","pricing_plan_id":"cebpf4jnsgd1na2vs0mg"},{"bike_id":"a5354cf8-269d-4386-b360-f6bcc46fa353","system_id":"levelo_inurba_marseille","lat":43.26211,"lon":5.3744,"is_reserved":false,"is_disabled":false,"rental_uris":{"android":"levelo://app?vid=a5354cf8-269d-4386-b360-f6bcc46fa353","ios":"levelo://app?vid=a5354cf8-269d-4386-b360-f6bcc46fa353"},"vehicle_type_id":"4","last_reported":1752502362,"current_range_meters":13600,"station_id":"ce4bhgp2rcd13ifvqfc0","pricing_plan_id":"cebpf4jnsgd1na2vs0mg"},{"bike_id":"4aebd467-55ad-4972-9f4a-67dabf464463","system_id":"levelo_inurba_marseille","lat":43.284441,"lon":5.358559,"is_reserved":false,"is_disabled":false,"rental_uris":{"android":"levelo://app?vid=4aebd467-55ad-4972-9f4a-67dabf464463","ios":"levelo://app?vid=4aebd467-55ad-4972-9f4a-67dabf464463"},"vehicle_type_id":"4","last_reported":1752502362,"current_range_meters":12800,"station_id":"ce4bhah2rcd13ifvqei0","pricing_plan_id":"cebpf4jnsgd1na2vs0mg"},{"bike_id":"824972b2-5242-49fe-8c57-4d99d7ce0bf7","system_id":"levelo_inurba_marseille","lat":43.2738,"lon":5.36252,"is_reserved":false,"is_disabled":false,"rental_uris":{"android":"levelo://app?vid=824972b2-5242-49fe-8c57-4d99d7ce0bf7","ios":"levelo://app?vid=824972b2-5242-49fe-8c57-4d99d7ce0bf7"},"vehicle_type_id":"4","last_reported":1752502362,"current_range_meters":13600,"station_id":"ce4bhbh2rcd13ifvqeo0","pricing_plan_id":"cebpf4jnsgd1na2vs0mg"},{"bike_id":"088e6b1d-8a81-47e0-9ad0-36233ed399c0","system_id":"levelo_inurba_marseille","lat":43.279303,"lon":5.39586,"is_reserved":false,"is_disabled":true,"rental_uris":{"android":"levelo://app?vid=088e6b1d-8a81-47e0-9ad0-36233ed399c0","ios":"levelo://app?vid=088e6b1d-8a81-47e0-9ad0-36233ed399c0"},"vehicle_type_id":"4","last_reported":1752502362,"current_range_meters":13600,"station_id":"ce4bhf92rcd13ifvqf40","pricing_plan_id":"cebpf4jnsgd1na2vs0mg"},{"bike_id":"c95e69db-c279-4e26-832d-b98d42e4e80e","system_id":"levelo_inurba_marseille","lat":43.21746,"lon":5.34597,"is_reserved":false,"is_disabled":false,"rental_uris":{"android":"levelo://app?vid=c95e69db-c279-4e26-832d-b98d42e4e80e","ios":"levelo://app?vid=c95e69db-c279-4e26-832d-b98d42e4e80e"},"vehicle_type_id":"4","last_reported":1752502362,"current_range_meters":14000,"station_id":"st_cvj6r9ubvosntc0bgbag","pricing_plan_id":"cebpf4jnsgd1na2vs0mg"},{"bike_id":"c89808e0-90fe-4bed-b0de-71eb01d1540d","system_id":"levelo_inurba_marseille","lat":43.273743,"lon":5.362491,"is_reserved":false,"is_disabled":false,"rental_uris":{"android":"levelo://app?vid=c89808e0-90fe-4bed-b0de-71eb01d1540d","ios":"levelo://app?vid=c89808e0-90fe-4bed-b0de-71eb01d1540d"},"vehicle_type_id":"4","last_reported":1752502362,"current_range_meters":14000,"station_id":"ce4bhbh2rcd13ifvqeo0","pricing_plan_id":"cebpf4jnsgd1na2vs0mg"},{"bike_id":"3b8f3216-f5b6-4500-94b7-0b66ce20c2f2","system_id":"levelo_inurba_marseille","lat":43.264896,"lon":5.395412,"is_reserved":false,"is_disabled":false,"rental_uris":{"android":"levelo://app?vid=3b8f3216-f5b6-4500-94b7-0b66ce20c2f2","ios":"levelo://app?vid=3b8f3216-f5b6-4500-94b7-0b66ce20c2f2"},"vehicle_type_id":"4","last_reported":1752502362,"current_range_meters":14000,"station_id":"ce4bhi12rcd13ifvqfq0","pricing_plan_id":"cebpf4jnsgd1na2vs0mg"},{"bike_id":"f5a47db5-6fb2-46bd-a2de-efa4ad13bf60","system_id":"levelo_inurba_marseille","lat":43.2119,"lon":5.35063,"is_reserved":false,"is_disabled":false,"rental_uris":{"android":"levelo://app?vid=f5a47db5-6fb2-46bd-a2de-efa4ad13bf60","ios":"levelo://app?vid=f5a47db5-6fb2-46bd-a2de-efa4ad13bf60"},"vehicle_type_id":"4","last_reported":1752502362,"current_range_meters":14000,"station_id":"st_cvj6sg6p6f1abm77japg","pricing_plan_id":"cebpf4jnsgd1na2vs0mg"},{"bike_id":"e3538395-ba1b-423d-a35d-ffeae75b2194","system_id":"levelo_inurba_marseille","lat":43.23195,"lon":5.35553,"is_reserved":false,"is_disabled":false,"rental_uris":{"android":"levelo://app?vid=e3538395-ba1b-423d-a35d-ffeae75b2194","ios":"levelo://app?vid=e3538395-ba1b-423d-a35d-ffeae75b2194"},"vehicle_type_id":"4","last_reported":1752502362,"current_range_meters":14000,"station_id":"ce4bhu92rcd13ifvqi70","pricing_plan_id":"cebpf4jnsgd1na2vs0mg"},{"bike_id":"a4d07f45-19f9-4df9-9728-be6623530a64","system_id":"levelo_inurba_marseille","lat":43.2371,"lon":5.3882,"is_reserved":false,"is_disabled":false,"rental_uris":{"android":"levelo://app?vid=a4d07f45-19f9-4df9-9728-be6623530a64","ios":"levelo://app?vid=a4d07f45-19f9-4df9-9728-be6623530a64"},"vehicle_type_id":"4","last_reported":1752502362,"current_range_meters":14000,"station_id":"","pricing_plan_id":"cebpf4jnsgd1na2vs0mg"},{"bike_id":"1aedaa42-1f03-48cc-8e38-d983e72f730b","system_id":"levelo_inurba_marseille","lat":43.27069,"lon":5.4228,"is_reserved":false,"is_disabled":false,"rental_uris":{"android":"levelo://app?vid=1aedaa42-1f03-48cc-8e38-d983e72f730b","ios":"levelo://app?vid=1aedaa42-1f03-48cc-8e38-d983e72f730b"},"vehicle_type_id":"4","last_reported":1752502362,"current_range_meters":14000,"station_id":"ce4bhk92rcd13ifvqgb0","pricing_plan_id":"cebpf4jnsgd1na2vs0mg"},{"bike_id":"e23346fb-21bf-43f9-8584-5f807f9973cf","system_id":"levelo_inurba_marseille","lat":43.27376,"lon":5.36252,"is_reserved":false,"is_disabled":false,"rental_uris":{"android":"levelo://app?vid=e23346fb-21bf-43f9-8584-5f807f9973cf","ios":"levelo://app?vid=e23346fb-21bf-43f9-8584-5f807f9973cf"},"vehicle_type_id":"4","last_reported":1752502362,"current_range_meters":14400,"station_id":"ce4bhbh2rcd13ifvqeo0","pricing_plan_id":"cebpf4jnsgd1na2vs0mg"},{"bike_id":"3d001abf-1693-4c6f-8072-810d47dc81a8","system_id":"levelo_inurba_marseille","lat":43.23964,"lon":5.3663,"is_reserved":false,"is_disabled":false,"rental_uris":{"android":"levelo://app?vid=3d001abf-1693-4c6f-8072-810d47dc81a8","ios":"levelo://app?vid=3d001abf-1693-4c6f-8072-810d47dc81a8"},"vehicle_type_id":"4","last_reported":1752502362,"current_range_meters":14400,"station_id":"ce4bhi12rcd13ifvqfp0","pricing_plan_id":"cebpf4jnsgd1na2vs0mg"},{"bike_id":"4d5eddf7-61bd-44bd-b47f-b04f14ad57e3","system_id":"levelo_inurba_marseille","lat":43.25498,"lon":5.3765,"is_reserved":false,"is_disabled":false,"rental_uris":{"android":"levelo://app?vid=4d5eddf7-61bd-44bd-b47f-b04f14ad57e3","ios":"levelo://app?vid=4d5eddf7-61bd-44bd-b47f-b04f14ad57e3"},"vehicle_type_id":"4","last_reported":1752502362,"current_range_meters":14000,"station_id":"ce4bhh12rcd13ifvqff0","pricing_plan_id":"cebpf4jnsgd1na2vs0mg"},{"bike_id":"3cdf7207-d77b-4ad1-a2f8-9575fb02e238","system_id":"levelo_inurba_marseille","lat":43.21757,"lon":5.34604,"is_reserved":false,"is_disabled":false,"rental_uris":{"android":"levelo://app?vid=3cdf7207-d77b-4ad1-a2f8-9575fb02e238","ios":"levelo://app?vid=3cdf7207-d77b-4ad1-a2f8-9575fb02e238"},"vehicle_type_id":"4","last_reported":1752502362,"current_range_meters":14400,"station_id":"st_cvj6r9ubvosntc0bgbag","pricing_plan_id":"cebpf4jnsgd1na2vs0mg"},{"bike_id":"697d5fc4-b988-4a4e-8323-c1ce5ed61a61","system_id":"levelo_inurba_marseille","lat":43.21177,"lon":5.35071,"is_reserved":false,"is_disabled":false,"rental_uris":{"android":"levelo://app?vid=697d5fc4-b988-4a4e-8323-c1ce5ed61a61","ios":"levelo://app?vid=697d5fc4-b988-4a4e-8323-c1ce5ed61a61"},"vehicle_type_id":"4","last_reported":1752502362,"current_range_meters":14800,"station_id":"st_cvj6sg6p6f1abm77japg","pricing_plan_id":"cebpf4jnsgd1na2vs0mg"},{"bike_id":"a72ec8b0-f188-4939-9928-0fa16fdf3fdd","system_id":"levelo_inurba_marseille","lat":43.27365,"lon":5.36254,"is_reserved":false,"is_disabled":false,"rental_uris":{"android":"levelo://app?vid=a72ec8b0-f188-4939-9928-0fa16fdf3fdd","ios":"levelo://app?vid=a72ec8b0-f188-4939-9928-0fa16fdf3fdd"},"vehicle_type_id":"4","last_reported":1752502362,"current_range_meters":14800,"station_id":"ce4bhbh2rcd13ifvqeo0","pricing_plan_id":"cebpf4jnsgd1na2vs0mg"},{"bike_id":"12d48e4d-a291-49bb-ab45-967804b53d7b","system_id":"levelo_inurba_marseille","lat":43.27645,"lon":5.36087,"is_reserved":false,"is_disabled":true,"rental_uris":{"android":"levelo://app?vid=12d48e4d-a291-49bb-ab45-967804b53d7b","ios":"levelo://app?vid=12d48e4d-a291-49bb-ab45-967804b53d7b"},"vehicle_type_id":"4","last_reported":1752502362,"current_range_meters":14800,"station_id":"ce4bgj92rcd13ifvqbe0","pricing_plan_id":"cebpf4jnsgd1na2vs0mg"},{"bike_id":"e1442ff3-c767-4bb3-901d-e5f60873ad13","system_id":"levelo_inurba_marseille","lat":43.23193,"lon":5.39976,"is_reserved":false,"is_disabled":false,"rental_uris":{"android":"levelo://app?vid=e1442ff3-c767-4bb3-901d-e5f60873ad13","ios":"levelo://app?vid=e1442ff3-c767-4bb3-901d-e5f60873ad13"},"vehicle_type_id":"4","last_reported":1752502362,"current_range_meters":14800,"station_id":"ce4bhn12rcd13ifvqgqg","pricing_plan_id":"cebpf4jnsgd1na2vs0mg"},{"bike_id":"e1928b01-bff5-4cea-b60c-f8d9223daef3","system_id":"levelo_inurba_marseille","lat":43.27084,"lon":5.42274,"is_reserved":false,"is_disabled":false,"rental_uris":{"android":"levelo://app?vid=e1928b01-bff5-4cea-b60c-f8d9223daef3","ios":"levelo://app?vid=e1928b01-bff5-4cea-b60c-f8d9223daef3"},"vehicle_type_id":"4","last_reported":1752502362,"current_range_meters":14800,"station_id":"ce4bhk92rcd13ifvqgb0","pricing_plan_id":"cebpf4jnsgd1na2vs0mg"},{"bike_id":"6ac174d4-75c5-4a9c-9699-97cd631c6e65","system_id":"levelo_inurba_marseille","lat":43.25466,"lon":5.39926,"is_reserved":false,"is_disabled":false,"rental_uris":{"android":"levelo://app?vid=6ac174d4-75c5-4a9c-9699-97cd631c6e65","ios":"levelo://app?vid=6ac174d4-75c5-4a9c-9699-97cd631c6e65"},"vehicle_type_id":"4","last_reported":1752502362,"current_range_meters":14800,"station_id":"","pricing_plan_id":"cebpf4jnsgd1na2vs0mg"},{"bike_id":"e91ced2f-2041-4b38-8446-0d5d97adec95","system_id":"levelo_inurba_marseille","lat":43.25588,"lon":5.3824,"is_reserved":false,"is_disabled":true,"rental_uris":{"android":"levelo://app?vid=e91ced2f-2041-4b38-8446-0d5d97adec95","ios":"levelo://app?vid=e91ced2f-2041-4b38-8446-0d5d97adec95"},"vehicle_type_id":"4","last_reported":1752502362,"current_range_meters":14800,"station_id":"ce4bhih2rcd13ifvqfs0","pricing_plan_id":"cebpf4jnsgd1na2vs0mg"},{"bike_id":"974a8c9e-9e0c-4fb0-9089-f03c1ea978b7","system_id":"levelo_inurba_marseille","lat":43.25526,"lon":5.38242,"is_reserved":false,"is_disabled":false,"rental_uris":{"android":"levelo://app?vid=974a8c9e-9e0c-4fb0-9089-f03c1ea978b7","ios":"levelo://app?vid=974a8c9e-9e0c-4fb0-9089-f03c1ea978b7"},"vehicle_type_id":"4","last_reported":1752502362,"current_range_meters":14800,"station_id":"","pricing_plan_id":"cebpf4jnsgd1na2vs0mg"},{"bike_id":"cf61d8bc-24ed-46a2-b5ac-3ca9ced22f19","system_id":"levelo_inurba_marseille","lat":43.299753,"lon":5.384831,"is_reserved":false,"is_disabled":false,"rental_uris":{"android":"levelo://app?vid=cf61d8bc-24ed-46a2-b5ac-3ca9ced22f19","ios":"levelo://app?vid=cf61d8bc-24ed-46a2-b5ac-3ca9ced22f19"},"vehicle_type_id":"4","last_reported":1752502362,"current_range_meters":15200,"station_id":"ce4bgj92rcd13ifvqbd0","pricing_plan_id":"cebpf4jnsgd1na2vs0mg"},{"bike_id":"2c81c752-b139-48bc-a4ee-7fa7f8526278","system_id":"levelo_inurba_marseille","lat":43.21751,"lon":5.34604,"is_reserved":false,"is_disabled":false,"rental_uris":{"android":"levelo://app?vid=2c81c752-b139-48bc-a4ee-7fa7f8526278","ios":"levelo://app?vid=2c81c752-b139-48bc-a4ee-7fa7f8526278"},"vehicle_type_id":"4","last_reported":1752502362,"current_range_meters":15200,"station_id":"st_cvj6r9ubvosntc0bgbag","pricing_plan_id":"cebpf4jnsgd1na2vs0mg"},{"bike_id":"23a0fc67-4c39-4b74-8a86-2903d79b1606","system_id":"levelo_inurba_marseille","lat":43.23178,"lon":5.3554,"is_reserved":false,"is_disabled":false,"rental_uris":{"android":"levelo://app?vid=23a0fc67-4c39-4b74-8a86-2903d79b1606","ios":"levelo://app?vid=23a0fc67-4c39-4b74-8a86-2903d79b1606"},"vehicle_type_id":"4","last_reported":1752502362,"current_range_meters":15200,"station_id":"ce4bhu92rcd13ifvqi70","pricing_plan_id":"cebpf4jnsgd1na2vs0mg"},{"bike_id":"f21c5308-b1f8-4320-8550-29370c922bbb","system_id":"levelo_inurba_marseille","lat":43.28462,"lon":5.3589,"is_reserved":false,"is_disabled":false,"rental_uris":{"android":"levelo://app?vid=f21c5308-b1f8-4320-8550-29370c922bbb","ios":"levelo://app?vid=f21c5308-b1f8-4320-8550-29370c922bbb"},"vehicle_type_id":"4","last_reported":1752502362,"current_range_meters":15200,"station_id":"ce4bhah2rcd13ifvqei0","pricing_plan_id":"cebpf4jnsgd1na2vs0mg"},{"bike_id":"4c15aebe-18ab-4353-a234-87063157bf88","system_id":"levelo_inurba_marseille","lat":43.24189,"lon":5.39705,"is_reserved":false,"is_disabled":false,"rental_uris":{"android":"levelo://app?vid=4c15aebe-18ab-4353-a234-87063157bf88","ios":"levelo://app?vid=4c15aebe-18ab-4353-a234-87063157bf88"},"vehicle_type_id":"4","last_reported":1752502362,"current_range_meters":15200,"station_id":"ce4bhn12rcd13ifvqgpg","pricing_plan_id":"cebpf4jnsgd1na2vs0mg"},{"bike_id":"68f05aac-fb89-4e01-95e2-ee3746c97fce","system_id":"levelo_inurba_marseille","lat":43.27374,"lon":5.36252,"is_reserved":false,"is_disabled":false,"rental_uris":{"android":"levelo://app?vid=68f05aac-fb89-4e01-95e2-ee3746c97fce","ios":"levelo://app?vid=68f05aac-fb89-4e01-95e2-ee3746c97fce"},"vehicle_type_id":"4","last_reported":1752502362,"current_range_meters":16000,"station_id":"ce4bhbh2rcd13ifvqeo0","pricing_plan_id":"cebpf4jnsgd1na2vs0mg"},{"bike_id":"08dbf31c-b540-4ca6-b57d-3481ea73d97b","system_id":"levelo_inurba_marseille","lat":43.225065,"lon":5.347845,"is_reserved":false,"is_disabled":false,"rental_uris":{"android":"levelo://app?vid=08dbf31c-b540-4ca6-b57d-3481ea73d97b","ios":"levelo://app?vid=08dbf31c-b540-4ca6-b57d-3481ea73d97b"},"vehicle_type_id":"4","last_reported":1752502362,"current_range_meters":16000,"station_id":"st_cvj5dfep6f1abm77gieg","pricing_plan_id":"cebpf4jnsgd1na2vs0mg"},{"bike_id":"04ac1456-9549-4c49-bb54-c911df1dcd8d","system_id":"levelo_inurba_marseille","lat":43.26942,"lon":5.40251,"is_reserved":false,"is_disabled":false,"rental_uris":{"android":"levelo://app?vid=04ac1456-9549-4c49-bb54-c911df1dcd8d","ios":"levelo://app?vid=04ac1456-9549-4c49-bb54-c911df1dcd8d"},"vehicle_type_id":"4","last_reported":1752502362,"current_range_meters":16000,"station_id":"cjm6bp8fraef2m0cb0m0","pricing_plan_id":"cebpf4jnsgd1na2vs0mg"},{"bike_id":"6a96a8f4-aaff-4bf9-95b0-b7794db1a763","system_id":"levelo_inurba_marseille","lat":43.23188,"lon":5.35543,"is_reserved":false,"is_disabled":false,"rental_uris":{"android":"levelo://app?vid=6a96a8f4-aaff-4bf9-95b0-b7794db1a763","ios":"levelo://app?vid=6a96a8f4-aaff-4bf9-95b0-b7794db1a763"},"vehicle_type_id":"4","last_reported":1752502362,"current_range_meters":15200,"station_id":"ce4bhu92rcd13ifvqi70","pricing_plan_id":"cebpf4jnsgd1na2vs0mg"},{"bike_id":"2c5a0a8d-b80f-43a1-91ae-93c8cb7cac46","system_id":"levelo_inurba_marseille","lat":43.290249,"lon":5.381227,"is_reserved":false,"is_disabled":false,"rental_uris":{"android":"levelo://app?vid=2c5a0a8d-b80f-43a1-91ae-93c8cb7cac46","ios":"levelo://app?vid=2c5a0a8d-b80f-43a1-91ae-93c8cb7cac46"},"vehicle_type_id":"4","last_reported":1752502362,"current_range_meters":16000,"station_id":"","pricing_plan_id":"cebpf4jnsgd1na2vs0mg"},{"bike_id":"de4d9a61-7db5-4e1e-b108-94d76c9fbfb0","system_id":"levelo_inurba_marseille","lat":43.28263,"lon":5.35062,"is_reserved":false,"is_disabled":false,"rental_uris":{"android":"levelo://app?vid=de4d9a61-7db5-4e1e-b108-94d76c9fbfb0","ios":"levelo://app?vid=de4d9a61-7db5-4e1e-b108-94d76c9fbfb0"},"vehicle_type_id":"4","last_reported":1752502362,"current_range_meters":16000,"station_id":"ce4bhbp2rcd13ifvqerg","pricing_plan_id":"cebpf4jnsgd1na2vs0mg"},{"bike_id":"aa260077-cb0d-43c9-8e67-329c1b69779f","system_id":"levelo_inurba_marseille","lat":43.21195,"lon":5.35084,"is_reserved":false,"is_disabled":false,"rental_uris":{"android":"levelo://app?vid=aa260077-cb0d-43c9-8e67-329c1b69779f","ios":"levelo://app?vid=aa260077-cb0d-43c9-8e67-329c1b69779f"},"vehicle_type_id":"4","last_reported":1752502362,"current_range_meters":16000,"station_id":"st_cvj6sg6p6f1abm77japg","pricing_plan_id":"cebpf4jnsgd1na2vs0mg"},{"bike_id":"ed74f810-226b-4edb-a7d8-2c9a86d071a4","system_id":"levelo_inurba_marseille","lat":43.21188,"lon":5.35066,"is_reserved":false,"is_disabled":false,"rental_uris":{"android":"levelo://app?vid=ed74f810-226b-4edb-a7d8-2c9a86d071a4","ios":"levelo://app?vid=ed74f810-226b-4edb-a7d8-2c9a86d071a4"},"vehicle_type_id":"4","last_reported":1752502362,"current_range_meters":16000,"station_id":"st_cvj6sg6p6f1abm77japg","pricing_plan_id":"cebpf4jnsgd1na2vs0mg"},{"bike_id":"4c68a4e8-1762-4d65-8098-26a5fa1a6fa8","system_id":"levelo_inurba_marseille","lat":43.28633,"lon":5.35078,"is_reserved":false,"is_disabled":false,"rental_uris":{"android":"levelo://app?vid=4c68a4e8-1762-4d65-8098-26a5fa1a6fa8","ios":"levelo://app?vid=4c68a4e8-1762-4d65-8098-26a5fa1a6fa8"},"vehicle_type_id":"4","last_reported":1752502362,"current_range_meters":16000,"station_id":"ce4bhch2rcd13ifvqeug","pricing_plan_id":"cebpf4jnsgd1na2vs0mg"},{"bike_id":"b6771d12-4d0b-4004-8d85-15a22b02cf35","system_id":"levelo_inurba_marseille","lat":43.2558,"lon":5.38227,"is_reserved":false,"is_disabled":false,"rental_uris":{"android":"levelo://app?vid=b6771d12-4d0b-4004-8d85-15a22b02cf35","ios":"levelo://app?vid=b6771d12-4d0b-4004-8d85-15a22b02cf35"},"vehicle_type_id":"4","last_reported":1752502362,"current_range_meters":16000,"station_id":"ce4bhih2rcd13ifvqfs0","pricing_plan_id":"cebpf4jnsgd1na2vs0mg"},{"bike_id":"328fdc6d-b36f-4007-94a0-c32a63e1fcc0","system_id":"levelo_inurba_marseille","lat":43.2868,"lon":5.36333,"is_reserved":false,"is_disabled":false,"rental_uris":{"android":"levelo://app?vid=328fdc6d-b36f-4007-94a0-c32a63e1fcc0","ios":"levelo://app?vid=328fdc6d-b36f-4007-94a0-c32a63e1fcc0"},"vehicle_type_id":"4","last_reported":1752502362,"current_range_meters":16400,"station_id":"ce4bhah2rcd13ifvqej0","pricing_plan_id":"cebpf4jnsgd1na2vs0mg"},{"bike_id":"3945caf1-a3ed-4500-a05f-e4d3291f48da","system_id":"levelo_inurba_marseille","lat":43.28275,"lon":5.35069,"is_reserved":false,"is_disabled":false,"rental_uris":{"android":"levelo://app?vid=3945caf1-a3ed-4500-a05f-e4d3291f48da","ios":"levelo://app?vid=3945caf1-a3ed-4500-a05f-e4d3291f48da"},"vehicle_type_id":"4","last_reported":1752502362,"current_range_meters":16400,"station_id":"ce4bhbp2rcd13ifvqerg","pricing_plan_id":"cebpf4jnsgd1na2vs0mg"},{"bike_id":"383ca642-4627-444b-81ef-30a3b56d4bfb","system_id":"levelo_inurba_marseille","lat":43.22937,"lon":5.35377,"is_reserved":false,"is_disabled":false,"rental_uris":{"android":"levelo://app?vid=383ca642-4627-444b-81ef-30a3b56d4bfb","ios":"levelo://app?vid=383ca642-4627-444b-81ef-30a3b56d4bfb"},"vehicle_type_id":"4","last_reported":1752502362,"current_range_meters":16400,"station_id":"cpo3532slgdg3j2ikp40","pricing_plan_id":"cebpf4jnsgd1na2vs0mg"},{"bike_id":"0be8b6ff-89df-4994-876a-5f9632d04ae6","system_id":"levelo_inurba_marseille","lat":43.25111,"lon":5.40326,"is_reserved":false,"is_disabled":false,"rental_uris":{"android":"levelo://app?vid=0be8b6ff-89df-4994-876a-5f9632d04ae6","ios":"levelo://app?vid=0be8b6ff-89df-4994-876a-5f9632d04ae6"},"vehicle_type_id":"4","last_reported":1752502362,"current_range_meters":16400,"station_id":"ce4bhlh2rcd13ifvqgig","pricing_plan_id":"cebpf4jnsgd1na2vs0mg"},{"bike_id":"5fa858c5-b668-473d-980c-66352519635e","system_id":"levelo_inurba_marseille","lat":43.24074,"lon":5.37767,"is_reserved":false,"is_disabled":false,"rental_uris":{"android":"levelo://app?vid=5fa858c5-b668-473d-980c-66352519635e","ios":"levelo://app?vid=5fa858c5-b668-473d-980c-66352519635e"},"vehicle_type_id":"4","last_reported":1752502362,"current_range_meters":16400,"station_id":"ce4bhnp2rcd13ifvqgvg","pricing_plan_id":"cebpf4jnsgd1na2vs0mg"},{"bike_id":"1d30756e-1082-4260-8bb9-c71ee9174f26","system_id":"levelo_inurba_marseille","lat":43.27378,"lon":5.362595,"is_reserved":false,"is_disabled":false,"rental_uris":{"android":"levelo://app?vid=1d30756e-1082-4260-8bb9-c71ee9174f26","ios":"levelo://app?vid=1d30756e-1082-4260-8bb9-c71ee9174f26"},"vehicle_type_id":"4","last_reported":1752502362,"current_range_meters":16000,"station_id":"ce4bhbh2rcd13ifvqeo0","pricing_plan_id":"cebpf4jnsgd1na2vs0mg"},{"bike_id":"3b1f8658-96d1-43eb-a258-de6e5ff4d85d","system_id":"levelo_inurba_marseille","lat":43.28666,"lon":5.38656,"is_reserved":false,"is_disabled":false,"rental_uris":{"android":"levelo://app?vid=3b1f8658-96d1-43eb-a258-de6e5ff4d85d","ios":"levelo://app?vid=3b1f8658-96d1-43eb-a258-de6e5ff4d85d"},"vehicle_type_id":"4","last_reported":1752502362,"current_range_meters":16400,"station_id":"ce4bh492rcd13ifvqdug","pricing_plan_id":"cebpf4jnsgd1na2vs0mg"},{"bike_id":"c2857b8a-2544-48ae-936c-90bab1dd6ab6","system_id":"levelo_inurba_marseille","lat":43.2119,"lon":5.35091,"is_reserved":false,"is_disabled":false,"rental_uris":{"android":"levelo://app?vid=c2857b8a-2544-48ae-936c-90bab1dd6ab6","ios":"levelo://app?vid=c2857b8a-2544-48ae-936c-90bab1dd6ab6"},"vehicle_type_id":"4","last_reported":1752502362,"current_range_meters":16400,"station_id":"st_cvj6sg6p6f1abm77japg","pricing_plan_id":"cebpf4jnsgd1na2vs0mg"},{"bike_id":"7eeda42d-a820-4450-8444-c3f18e03564f","system_id":"levelo_inurba_marseille","lat":43.2816,"lon":5.42642,"is_reserved":false,"is_disabled":false,"rental_uris":{"android":"levelo://app?vid=7eeda42d-a820-4450-8444-c3f18e03564f","ios":"levelo://app?vid=7eeda42d-a820-4450-8444-c3f18e03564f"},"vehicle_type_id":"4","last_reported":1752502362,"current_range_meters":16000,"station_id":"ce4bhnh2rcd13ifvqgug","pricing_plan_id":"cebpf4jnsgd1na2vs0mg"},{"bike_id":"403880bc-8bea-46f6-8a81-b7f6860118ac","system_id":"levelo_inurba_marseille","lat":43.29253,"lon":5.38435,"is_reserved":false,"is_disabled":true,"rental_uris":{"android":"levelo://app?vid=403880bc-8bea-46f6-8a81-b7f6860118ac","ios":"levelo://app?vid=403880bc-8bea-46f6-8a81-b7f6860118ac"},"vehicle_type_id":"4","last_reported":1752502362,"current_range_meters":16400,"station_id":"ce4bh692rcd13ifvqea0","pricing_plan_id":"cebpf4jnsgd1na2vs0mg"},{"bike_id":"baf1e105-980e-4919-ae78-3687d5e4b2c3","system_id":"levelo_inurba_marseille","lat":43.28263,"lon":5.35077,"is_reserved":false,"is_disabled":false,"rental_uris":{"android":"levelo://app?vid=baf1e105-980e-4919-ae78-3687d5e4b2c3","ios":"levelo://app?vid=baf1e105-980e-4919-ae78-3687d5e4b2c3"},"vehicle_type_id":"4","last_reported":1752502362,"current_range_meters":16800,"station_id":"ce4bhbp2rcd13ifvqerg","pricing_plan_id":"cebpf4jnsgd1na2vs0mg"},{"bike_id":"fc63a067-9cf2-4c58-bfdd-3270ab1898f2","system_id":"levelo_inurba_marseille","lat":43.22924,"lon":5.35396,"is_reserved":false,"is_disabled":false,"rental_uris":{"android":"levelo://app?vid=fc63a067-9cf2-4c58-bfdd-3270ab1898f2","ios":"levelo://app?vid=fc63a067-9cf2-4c58-bfdd-3270ab1898f2"},"vehicle_type_id":"4","last_reported":1752502362,"current_range_meters":16800,"station_id":"cpo3532slgdg3j2ikp40","pricing_plan_id":"cebpf4jnsgd1na2vs0mg"},{"bike_id":"44e10618-e1b8-4569-bc24-980853c4bf04","system_id":"levelo_inurba_marseille","lat":43.22923,"lon":5.35383,"is_reserved":false,"is_disabled":true,"rental_uris":{"android":"levelo://app?vid=44e10618-e1b8-4569-bc24-980853c4bf04","ios":"levelo://app?vid=44e10618-e1b8-4569-bc24-980853c4bf04"},"vehicle_type_id":"4","last_reported":1752502362,"current_range_meters":16800,"station_id":"cpo3532slgdg3j2ikp40","pricing_plan_id":"cebpf4jnsgd1na2vs0mg"},{"bike_id":"070d9938-5e5c-4b04-b979-6a8c0ebc7255","system_id":"levelo_inurba_marseille","lat":43.284149,"lon":5.349848,"is_reserved":false,"is_disabled":false,"rental_uris":{"android":"levelo://app?vid=070d9938-5e5c-4b04-b979-6a8c0ebc7255","ios":"levelo://app?vid=070d9938-5e5c-4b04-b979-6a8c0ebc7255"},"vehicle_type_id":"4","last_reported":1752502362,"current_range_meters":16800,"station_id":"ce4bhbh2rcd13ifvqepg","pricing_plan_id":"cebpf4jnsgd1na2vs0mg"},{"bike_id":"d0f90c24-dd03-411b-9731-55305f76b7c8","system_id":"levelo_inurba_marseille","lat":43.2119,"lon":5.35068,"is_reserved":false,"is_disabled":false,"rental_uris":{"android":"levelo://app?vid=d0f90c24-dd03-411b-9731-55305f76b7c8","ios":"levelo://app?vid=d0f90c24-dd03-411b-9731-55305f76b7c8"},"vehicle_type_id":"4","last_reported":1752502362,"current_range_meters":16800,"station_id":"st_cvj6sg6p6f1abm77japg","pricing_plan_id":"cebpf4jnsgd1na2vs0mg"},{"bike_id":"3e9e8c3d-5f1f-4564-a4c4-86972c2dd72f","system_id":"levelo_inurba_marseille","lat":43.27595,"lon":5.36114,"is_reserved":false,"is_disabled":false,"rental_uris":{"android":"levelo://app?vid=3e9e8c3d-5f1f-4564-a4c4-86972c2dd72f","ios":"levelo://app?vid=3e9e8c3d-5f1f-4564-a4c4-86972c2dd72f"},"vehicle_type_id":"4","last_reported":1752502362,"current_range_meters":16800,"station_id":"ce4bgj92rcd13ifvqbe0","pricing_plan_id":"cebpf4jnsgd1na2vs0mg"},{"bike_id":"e0b88937-0cb8-4374-8110-357b6a1974b9","system_id":"levelo_inurba_marseille","lat":43.24075,"lon":5.37736,"is_reserved":false,"is_disabled":false,"rental_uris":{"android":"levelo://app?vid=e0b88937-0cb8-4374-8110-357b6a1974b9","ios":"levelo://app?vid=e0b88937-0cb8-4374-8110-357b6a1974b9"},"vehicle_type_id":"4","last_reported":1752502362,"current_range_meters":16800,"station_id":"ce4bhnp2rcd13ifvqgvg","pricing_plan_id":"cebpf4jnsgd1na2vs0mg"},{"bike_id":"96404d04-512d-4e45-b57c-350a79134d38","system_id":"levelo_inurba_marseille","lat":43.21197,"lon":5.35065,"is_reserved":false,"is_disabled":false,"rental_uris":{"android":"levelo://app?vid=96404d04-512d-4e45-b57c-350a79134d38","ios":"levelo://app?vid=96404d04-512d-4e45-b57c-350a79134d38"},"vehicle_type_id":"4","last_reported":1752502362,"current_range_meters":16800,"station_id":"st_cvj6sg6p6f1abm77japg","pricing_plan_id":"cebpf4jnsgd1na2vs0mg"},{"bike_id":"41230822-29c2-4511-a8a5-d3c785bf1ecb","system_id":"levelo_inurba_marseille","lat":43.25112,"lon":5.40314,"is_reserved":false,"is_disabled":false,"rental_uris":{"android":"levelo://app?vid=41230822-29c2-4511-a8a5-d3c785bf1ecb","ios":"levelo://app?vid=41230822-29c2-4511-a8a5-d3c785bf1ecb"},"vehicle_type_id":"4","last_reported":1752502362,"current_range_meters":16800,"station_id":"ce4bhlh2rcd13ifvqgig","pricing_plan_id":"cebpf4jnsgd1na2vs0mg"},{"bike_id":"ce4d14d7-9e5a-40df-9fcf-5fd8b2e9178f","system_id":"levelo_inurba_marseille","lat":43.25721,"lon":5.41118,"is_reserved":false,"is_disabled":false,"rental_uris":{"android":"levelo://app?vid=ce4d14d7-9e5a-40df-9fcf-5fd8b2e9178f","ios":"levelo://app?vid=ce4d14d7-9e5a-40df-9fcf-5fd8b2e9178f"},"vehicle_type_id":"4","last_reported":1752502362,"current_range_meters":17200,"station_id":"ce4bhkp2rcd13ifvqgd0","pricing_plan_id":"cebpf4jnsgd1na2vs0mg"},{"bike_id":"ac4315d8-0728-4b44-940b-f9d9de656044","system_id":"levelo_inurba_marseille","lat":43.28417,"lon":5.34973,"is_reserved":false,"is_disabled":false,"rental_uris":{"android":"levelo://app?vid=ac4315d8-0728-4b44-940b-f9d9de656044","ios":"levelo://app?vid=ac4315d8-0728-4b44-940b-f9d9de656044"},"vehicle_type_id":"4","last_reported":1752502362,"current_range_meters":18000,"station_id":"ce4bhbh2rcd13ifvqepg","pricing_plan_id":"cebpf4jnsgd1na2vs0mg"},{"bike_id":"5c604cee-8163-4508-b1f3-ec8c5d644770","system_id":"levelo_inurba_marseille","lat":43.23197,"lon":5.35566,"is_reserved":false,"is_disabled":false,"rental_uris":{"android":"levelo://app?vid=5c604cee-8163-4508-b1f3-ec8c5d644770","ios":"levelo://app?vid=5c604cee-8163-4508-b1f3-ec8c5d644770"},"vehicle_type_id":"4","last_reported":1752502362,"current_range_meters":17200,"station_id":"ce4bhu92rcd13ifvqi70","pricing_plan_id":"cebpf4jnsgd1na2vs0mg"},{"bike_id":"48a72147-d63a-4fad-9403-9184689656c8","system_id":"levelo_inurba_marseille","lat":43.24389,"lon":5.37061,"is_reserved":false,"is_disabled":true,"rental_uris":{"android":"levelo://app?vid=48a72147-d63a-4fad-9403-9184689656c8","ios":"levelo://app?vid=48a72147-d63a-4fad-9403-9184689656c8"},"vehicle_type_id":"4","last_reported":1752502362,"current_range_meters":17200,"station_id":"ce4bhhh2rcd13ifvqfk0","pricing_plan_id":"cebpf4jnsgd1na2vs0mg"},{"bike_id":"16052414-82ed-4d61-a572-6e80377b0d18","system_id":"levelo_inurba_marseille","lat":43.278035,"lon":5.407115,"is_reserved":false,"is_disabled":false,"rental_uris":{"android":"levelo://app?vid=16052414-82ed-4d61-a572-6e80377b0d18","ios":"levelo://app?vid=16052414-82ed-4d61-a572-6e80377b0d18"},"vehicle_type_id":"4","last_reported":1752502362,"current_range_meters":17200,"station_id":"ce4bhnh2rcd13ifvqgtg","pricing_plan_id":"cebpf4jnsgd1na2vs0mg"},{"bike_id":"b92dcf11-2a68-4830-8f23-be0031b7b878","system_id":"levelo_inurba_marseille","lat":43.29196,"lon":5.39294,"is_reserved":false,"is_disabled":false,"rental_uris":{"android":"levelo://app?vid=b92dcf11-2a68-4830-8f23-be0031b7b878","ios":"levelo://app?vid=b92dcf11-2a68-4830-8f23-be0031b7b878"},"vehicle_type_id":"4","last_reported":1752502362,"current_range_meters":17600,"station_id":"ce4bh192rcd13ifvqdd0","pricing_plan_id":"cebpf4jnsgd1na2vs0mg"},{"bike_id":"5084babc-9e40-4691-99c4-778b7e48f00b","system_id":"levelo_inurba_marseille","lat":43.23973,"lon":5.36623,"is_reserved":false,"is_disabled":false,"rental_uris":{"android":"levelo://app?vid=5084babc-9e40-4691-99c4-778b7e48f00b","ios":"levelo://app?vid=5084babc-9e40-4691-99c4-778b7e48f00b"},"vehicle_type_id":"4","last_reported":1752502362,"current_range_meters":17600,"station_id":"ce4bhi12rcd13ifvqfp0","pricing_plan_id":"cebpf4jnsgd1na2vs0mg"},{"bike_id":"56b18f82-6a98-4866-8883-4e793f17b0b2","system_id":"levelo_inurba_marseille","lat":43.29598,"lon":5.37731,"is_reserved":false,"is_disabled":false,"rental_uris":{"android":"levelo://app?vid=56b18f82-6a98-4866-8883-4e793f17b0b2","ios":"levelo://app?vid=56b18f82-6a98-4866-8883-4e793f17b0b2"},"vehicle_type_id":"4","last_reported":1752502362,"current_range_meters":17600,"station_id":"ce4bgi92rcd13ifvqb90","pricing_plan_id":"cebpf4jnsgd1na2vs0mg"},{"bike_id":"6c6d4d9a-6141-481c-9c1a-8e61054bdc43","system_id":"levelo_inurba_marseille","lat":43.24748,"lon":5.41804,"is_reserved":false,"is_disabled":false,"rental_uris":{"android":"levelo://app?vid=6c6d4d9a-6141-481c-9c1a-8e61054bdc43","ios":"levelo://app?vid=6c6d4d9a-6141-481c-9c1a-8e61054bdc43"},"vehicle_type_id":"4","last_reported":1752502362,"current_range_meters":17600,"station_id":"","pricing_plan_id":"cebpf4jnsgd1na2vs0mg"},{"bike_id":"f10941ce-d19a-4475-b0ba-1c38d332727e","system_id":"levelo_inurba_marseille","lat":43.32143,"lon":5.38748,"is_reserved":false,"is_disabled":false,"rental_uris":{"android":"levelo://app?vid=f10941ce-d19a-4475-b0ba-1c38d332727e","ios":"levelo://app?vid=f10941ce-d19a-4475-b0ba-1c38d332727e"},"vehicle_type_id":"4","last_reported":1752502362,"current_range_meters":17600,"station_id":"","pricing_plan_id":"cebpf4jnsgd1na2vs0mg"},{"bike_id":"c3eb31c9-e106-4cd2-bb91-f2d0ee3e7a6f","system_id":"levelo_inurba_marseille","lat":43.240249,"lon":5.362488,"is_reserved":false,"is_disabled":false,"rental_uris":{"android":"levelo://app?vid=c3eb31c9-e106-4cd2-bb91-f2d0ee3e7a6f","ios":"levelo://app?vid=c3eb31c9-e106-4cd2-bb91-f2d0ee3e7a6f"},"vehicle_type_id":"4","last_reported":1752502362,"current_range_meters":17600,"station_id":"","pricing_plan_id":"cebpf4jnsgd1na2vs0mg"},{"bike_id":"7371c6cf-28f1-446e-a302-967696d4436c","system_id":"levelo_inurba_marseille","lat":43.31481,"lon":5.37319,"is_reserved":false,"is_disabled":false,"rental_uris":{"android":"levelo://app?vid=7371c6cf-28f1-446e-a302-967696d4436c","ios":"levelo://app?vid=7371c6cf-28f1-446e-a302-967696d4436c"},"vehicle_type_id":"4","last_reported":1752502362,"current_range_meters":17600,"station_id":"ce4bgt12rcd13ifvqcd0","pricing_plan_id":"cebpf4jnsgd1na2vs0mg"},{"bike_id":"75753b66-3b46-441c-b699-a9bf8ccd05f2","system_id":"levelo_inurba_marseille","lat":43.24171,"lon":5.36395,"is_reserved":false,"is_disabled":false,"rental_uris":{"android":"levelo://app?vid=75753b66-3b46-441c-b699-a9bf8ccd05f2","ios":"levelo://app?vid=75753b66-3b46-441c-b699-a9bf8ccd05f2"},"vehicle_type_id":"4","last_reported":1752502362,"current_range_meters":17600,"station_id":"cpo36qri1sfpv3e86is0","pricing_plan_id":"cebpf4jnsgd1na2vs0mg"},{"bike_id":"08e67338-a2ff-42fc-a939-92ad435f118e","system_id":"levelo_inurba_marseille","lat":43.27674,"lon":5.35714,"is_reserved":false,"is_disabled":false,"rental_uris":{"android":"levelo://app?vid=08e67338-a2ff-42fc-a939-92ad435f118e","ios":"levelo://app?vid=08e67338-a2ff-42fc-a939-92ad435f118e"},"vehicle_type_id":"4","last_reported":1752502362,"current_range_meters":17600,"station_id":"","pricing_plan_id":"cebpf4jnsgd1na2vs0mg"},{"bike_id":"002126f6-737b-4641-9e75-1e3a41731156","system_id":"levelo_inurba_marseille","lat":43.21754,"lon":5.34604,"is_reserved":false,"is_disabled":false,"rental_uris":{"android":"levelo://app?vid=002126f6-737b-4641-9e75-1e3a41731156","ios":"levelo://app?vid=002126f6-737b-4641-9e75-1e3a41731156"},"vehicle_type_id":"4","last_reported":1752502362,"current_range_meters":17600,"station_id":"st_cvj6r9ubvosntc0bgbag","pricing_plan_id":"cebpf4jnsgd1na2vs0mg"},{"bike_id":"0755cb70-08ea-4ee0-9fc0-1b832c502a85","system_id":"levelo_inurba_marseille","lat":43.21733,"lon":5.34607,"is_reserved":false,"is_disabled":false,"rental_uris":{"android":"levelo://app?vid=0755cb70-08ea-4ee0-9fc0-1b832c502a85","ios":"levelo://app?vid=0755cb70-08ea-4ee0-9fc0-1b832c502a85"},"vehicle_type_id":"4","last_reported":1752502362,"current_range_meters":17600,"station_id":"st_cvj6r9ubvosntc0bgbag","pricing_plan_id":"cebpf4jnsgd1na2vs0mg"},{"bike_id":"def3d27f-26a3-4eb1-a992-b40bce4396e0","system_id":"levelo_inurba_marseille","lat":43.21731,"lon":5.34609,"is_reserved":false,"is_disabled":false,"rental_uris":{"android":"levelo://app?vid=def3d27f-26a3-4eb1-a992-b40bce4396e0","ios":"levelo://app?vid=def3d27f-26a3-4eb1-a992-b40bce4396e0"},"vehicle_type_id":"4","last_reported":1752502362,"current_range_meters":18000,"station_id":"st_cvj6r9ubvosntc0bgbag","pricing_plan_id":"cebpf4jnsgd1na2vs0mg"},{"bike_id":"be823f9c-3f94-4d21-8417-93b1f1be43f1","system_id":"levelo_inurba_marseille","lat":43.2293,"lon":5.35382,"is_reserved":false,"is_disabled":false,"rental_uris":{"android":"levelo://app?vid=be823f9c-3f94-4d21-8417-93b1f1be43f1","ios":"levelo://app?vid=be823f9c-3f94-4d21-8417-93b1f1be43f1"},"vehicle_type_id":"4","last_reported":1752502362,"current_range_meters":18000,"station_id":"cpo3532slgdg3j2ikp40","pricing_plan_id":"cebpf4jnsgd1na2vs0mg"},{"bike_id":"17911de8-6634-4c0a-81e9-2a901f8423b6","system_id":"levelo_inurba_marseille","lat":43.2828,"lon":5.35071,"is_reserved":false,"is_disabled":false,"rental_uris":{"android":"levelo://app?vid=17911de8-6634-4c0a-81e9-2a901f8423b6","ios":"levelo://app?vid=17911de8-6634-4c0a-81e9-2a901f8423b6"},"vehicle_type_id":"4","last_reported":1752502362,"current_range_meters":18000,"station_id":"ce4bhbp2rcd13ifvqerg","pricing_plan_id":"cebpf4jnsgd1na2vs0mg"},{"bike_id":"01beb3f2-c54f-4f68-af15-b28ae7c75196","system_id":"levelo_inurba_marseille","lat":43.30138,"lon":5.39886,"is_reserved":false,"is_disabled":true,"rental_uris":{"android":"levelo://app?vid=01beb3f2-c54f-4f68-af15-b28ae7c75196","ios":"levelo://app?vid=01beb3f2-c54f-4f68-af15-b28ae7c75196"},"vehicle_type_id":"4","last_reported":1752502362,"current_range_meters":18000,"station_id":"ce4bh0h2rcd13ifvqd40","pricing_plan_id":"cebpf4jnsgd1na2vs0mg"},{"bike_id":"32845ccb-109b-4f0f-b3f2-1a7eeef2e7f4","system_id":"levelo_inurba_marseille","lat":43.26205,"lon":5.37448,"is_reserved":false,"is_disabled":false,"rental_uris":{"android":"levelo://app?vid=32845ccb-109b-4f0f-b3f2-1a7eeef2e7f4","ios":"levelo://app?vid=32845ccb-109b-4f0f-b3f2-1a7eeef2e7f4"},"vehicle_type_id":"4","last_reported":1752502362,"current_range_meters":18000,"station_id":"ce4bhgp2rcd13ifvqfc0","pricing_plan_id":"cebpf4jnsgd1na2vs0mg"},{"bike_id":"9ec7ded0-07a0-4052-88cd-c68cfaa8fdd7","system_id":"levelo_inurba_marseille","lat":43.21755,"lon":5.34595,"is_reserved":false,"is_disabled":false,"rental_uris":{"android":"levelo://app?vid=9ec7ded0-07a0-4052-88cd-c68cfaa8fdd7","ios":"levelo://app?vid=9ec7ded0-07a0-4052-88cd-c68cfaa8fdd7"},"vehicle_type_id":"4","last_reported":1752502362,"current_range_meters":18000,"station_id":"st_cvj6r9ubvosntc0bgbag","pricing_plan_id":"cebpf4jnsgd1na2vs0mg"},{"bike_id":"0f6e2d1e-1402-4217-bd46-d4dccc77d350","system_id":"levelo_inurba_marseille","lat":43.29169,"lon":5.35579,"is_reserved":false,"is_disabled":false,"rental_uris":{"android":"levelo://app?vid=0f6e2d1e-1402-4217-bd46-d4dccc77d350","ios":"levelo://app?vid=0f6e2d1e-1402-4217-bd46-d4dccc77d350"},"vehicle_type_id":"4","last_reported":1752502362,"current_range_meters":18000,"station_id":"","pricing_plan_id":"cebpf4jnsgd1na2vs0mg"},{"bike_id":"44745ac3-4df9-409c-9422-194cd101e66b","system_id":"levelo_inurba_marseille","lat":43.28729,"lon":5.36084,"is_reserved":false,"is_disabled":false,"rental_uris":{"android":"levelo://app?vid=44745ac3-4df9-409c-9422-194cd101e66b","ios":"levelo://app?vid=44745ac3-4df9-409c-9422-194cd101e66b"},"vehicle_type_id":"4","last_reported":1752502362,"current_range_meters":18000,"station_id":"cki0cbj6b192h4jlfktg","pricing_plan_id":"cebpf4jnsgd1na2vs0mg"},{"bike_id":"da939cda-fe51-4a50-afd5-03d9c6909f77","system_id":"levelo_inurba_marseille","lat":43.25489,"lon":5.37659,"is_reserved":false,"is_disabled":false,"rental_uris":{"android":"levelo://app?vid=da939cda-fe51-4a50-afd5-03d9c6909f77","ios":"levelo://app?vid=da939cda-fe51-4a50-afd5-03d9c6909f77"},"vehicle_type_id":"4","last_reported":1752502362,"current_range_meters":16800,"station_id":"ce4bhh12rcd13ifvqff0","pricing_plan_id":"cebpf4jnsgd1na2vs0mg"},{"bike_id":"2f9043b4-5875-4794-a682-a6a782090c68","system_id":"levelo_inurba_marseille","lat":43.23194,"lon":5.35547,"is_reserved":false,"is_disabled":false,"rental_uris":{"android":"levelo://app?vid=2f9043b4-5875-4794-a682-a6a782090c68","ios":"levelo://app?vid=2f9043b4-5875-4794-a682-a6a782090c68"},"vehicle_type_id":"4","last_reported":1752502362,"current_range_meters":18000,"station_id":"ce4bhu92rcd13ifvqi70","pricing_plan_id":"cebpf4jnsgd1na2vs0mg"},{"bike_id":"f2052e77-2392-4735-a8f6-84f745fd6486","system_id":"levelo_inurba_marseille","lat":43.27378,"lon":5.36256,"is_reserved":false,"is_disabled":false,"rental_uris":{"android":"levelo://app?vid=f2052e77-2392-4735-a8f6-84f745fd6486","ios":"levelo://app?vid=f2052e77-2392-4735-a8f6-84f745fd6486"},"vehicle_type_id":"4","last_reported":1752502362,"current_range_meters":18000,"station_id":"ce4bhbh2rcd13ifvqeo0","pricing_plan_id":"cebpf4jnsgd1na2vs0mg"},{"bike_id":"c289e96b-bcdf-4ce7-bdf2-e18c1e063fb3","system_id":"levelo_inurba_marseille","lat":43.28714,"lon":5.3794,"is_reserved":false,"is_disabled":false,"rental_uris":{"android":"levelo://app?vid=c289e96b-bcdf-4ce7-bdf2-e18c1e063fb3","ios":"levelo://app?vid=c289e96b-bcdf-4ce7-bdf2-e18c1e063fb3"},"vehicle_type_id":"4","last_reported":1752502362,"current_range_meters":17600,"station_id":"ce4bh9p2rcd13ifvqec0","pricing_plan_id":"cebpf4jnsgd1na2vs0mg"},{"bike_id":"a1f0c7e1-0bdc-4118-b503-84f5f7fdb140","system_id":"levelo_inurba_marseille","lat":43.28573,"lon":5.35017,"is_reserved":false,"is_disabled":false,"rental_uris":{"android":"levelo://app?vid=a1f0c7e1-0bdc-4118-b503-84f5f7fdb140","ios":"levelo://app?vid=a1f0c7e1-0bdc-4118-b503-84f5f7fdb140"},"vehicle_type_id":"4","last_reported":1752502362,"current_range_meters":18000,"station_id":"","pricing_plan_id":"cebpf4jnsgd1na2vs0mg"},{"bike_id":"60cd0578-222b-4cea-93a9-5ed6e663f65d","system_id":"levelo_inurba_marseille","lat":43.217377,"lon":5.346085,"is_reserved":false,"is_disabled":false,"rental_uris":{"android":"levelo://app?vid=60cd0578-222b-4cea-93a9-5ed6e663f65d","ios":"levelo://app?vid=60cd0578-222b-4cea-93a9-5ed6e663f65d"},"vehicle_type_id":"4","last_reported":1752502362,"current_range_meters":18000,"station_id":"st_cvj6r9ubvosntc0bgbag","pricing_plan_id":"cebpf4jnsgd1na2vs0mg"},{"bike_id":"38b62f52-9dbf-4855-b3f6-3afc42f4292b","system_id":"levelo_inurba_marseille","lat":43.25736,"lon":5.41111,"is_reserved":false,"is_disabled":false,"rental_uris":{"android":"levelo://app?vid=38b62f52-9dbf-4855-b3f6-3afc42f4292b","ios":"levelo://app?vid=38b62f52-9dbf-4855-b3f6-3afc42f4292b"},"vehicle_type_id":"4","last_reported":1752502362,"current_range_meters":18800,"station_id":"ce4bhkp2rcd13ifvqgd0","pricing_plan_id":"cebpf4jnsgd1na2vs0mg"},{"bike_id":"144f7781-a246-4250-b3a3-da68631e312f","system_id":"levelo_inurba_marseille","lat":43.24168,"lon":5.36394,"is_reserved":false,"is_disabled":false,"rental_uris":{"android":"levelo://app?vid=144f7781-a246-4250-b3a3-da68631e312f","ios":"levelo://app?vid=144f7781-a246-4250-b3a3-da68631e312f"},"vehicle_type_id":"4","last_reported":1752502362,"current_range_meters":18800,"station_id":"cpo36qri1sfpv3e86is0","pricing_plan_id":"cebpf4jnsgd1na2vs0mg"},{"bike_id":"2ab7d655-face-469d-b1de-b3156f48f484","system_id":"levelo_inurba_marseille","lat":43.28006,"lon":5.41664,"is_reserved":false,"is_disabled":false,"rental_uris":{"android":"levelo://app?vid=2ab7d655-face-469d-b1de-b3156f48f484","ios":"levelo://app?vid=2ab7d655-face-469d-b1de-b3156f48f484"},"vehicle_type_id":"4","last_reported":1752502362,"current_range_meters":18800,"station_id":"ce4bho12rcd13ifvqh1g","pricing_plan_id":"cebpf4jnsgd1na2vs0mg"},{"bike_id":"c9601b75-1189-4dc2-869e-ec1fa6096933","system_id":"levelo_inurba_marseille","lat":43.21749,"lon":5.346,"is_reserved":false,"is_disabled":false,"rental_uris":{"android":"levelo://app?vid=c9601b75-1189-4dc2-869e-ec1fa6096933","ios":"levelo://app?vid=c9601b75-1189-4dc2-869e-ec1fa6096933"},"vehicle_type_id":"4","last_reported":1752502362,"current_range_meters":18800,"station_id":"st_cvj6r9ubvosntc0bgbag","pricing_plan_id":"cebpf4jnsgd1na2vs0mg"},{"bike_id":"cd700f17-9c20-4b8c-b060-5a541f4a78ef","system_id":"levelo_inurba_marseille","lat":43.24162,"lon":5.36393,"is_reserved":false,"is_disabled":false,"rental_uris":{"android":"levelo://app?vid=cd700f17-9c20-4b8c-b060-5a541f4a78ef","ios":"levelo://app?vid=cd700f17-9c20-4b8c-b060-5a541f4a78ef"},"vehicle_type_id":"4","last_reported":1752502362,"current_range_meters":18800,"station_id":"cpo36qri1sfpv3e86is0","pricing_plan_id":"cebpf4jnsgd1na2vs0mg"},{"bike_id":"bc01775b-e496-4423-90ac-0cb22b6b4b16","system_id":"levelo_inurba_marseille","lat":43.27377,"lon":5.36251,"is_reserved":false,"is_disabled":false,"rental_uris":{"android":"levelo://app?vid=bc01775b-e496-4423-90ac-0cb22b6b4b16","ios":"levelo://app?vid=bc01775b-e496-4423-90ac-0cb22b6b4b16"},"vehicle_type_id":"4","last_reported":1752502362,"current_range_meters":18800,"station_id":"ce4bhbh2rcd13ifvqeo0","pricing_plan_id":"cebpf4jnsgd1na2vs0mg"},{"bike_id":"6b6619c5-6cd2-4092-aacb-23aa7b5e47c6","system_id":"levelo_inurba_marseille","lat":43.24169,"lon":5.36404,"is_reserved":false,"is_disabled":false,"rental_uris":{"android":"levelo://app?vid=6b6619c5-6cd2-4092-aacb-23aa7b5e47c6","ios":"levelo://app?vid=6b6619c5-6cd2-4092-aacb-23aa7b5e47c6"},"vehicle_type_id":"4","last_reported":1752502362,"current_range_meters":18800,"station_id":"cpo36qri1sfpv3e86is0","pricing_plan_id":"cebpf4jnsgd1na2vs0mg"},{"bike_id":"d7159adf-94a3-498c-948b-458c9b026277","system_id":"levelo_inurba_marseille","lat":43.225036,"lon":5.347845,"is_reserved":false,"is_disabled":false,"rental_uris":{"android":"levelo://app?vid=d7159adf-94a3-498c-948b-458c9b026277","ios":"levelo://app?vid=d7159adf-94a3-498c-948b-458c9b026277"},"vehicle_type_id":"4","last_reported":1752502362,"current_range_meters":18800,"station_id":"","pricing_plan_id":"cebpf4jnsgd1na2vs0mg"},{"bike_id":"1aaa7e29-8268-4a68-b982-06e4cb580b86","system_id":"levelo_inurba_marseille","lat":43.33601,"lon":5.40978,"is_reserved":false,"is_disabled":false,"rental_uris":{"android":"levelo://app?vid=1aaa7e29-8268-4a68-b982-06e4cb580b86","ios":"levelo://app?vid=1aaa7e29-8268-4a68-b982-06e4cb580b86"},"vehicle_type_id":"4","last_reported":1752502362,"current_range_meters":18800,"station_id":"ce4bhqh2rcd13ifvqhmg","pricing_plan_id":"cebpf4jnsgd1na2vs0mg"},{"bike_id":"8fc15437-905b-4a26-a508-d32c4625959c","system_id":"levelo_inurba_marseille","lat":43.28003,"lon":5.41684,"is_reserved":false,"is_disabled":false,"rental_uris":{"android":"levelo://app?vid=8fc15437-905b-4a26-a508-d32c4625959c","ios":"levelo://app?vid=8fc15437-905b-4a26-a508-d32c4625959c"},"vehicle_type_id":"4","last_reported":1752502362,"current_range_meters":18800,"station_id":"ce4bho12rcd13ifvqh1g","pricing_plan_id":"cebpf4jnsgd1na2vs0mg"},{"bike_id":"74122de3-6e57-4ccd-905d-d75187fd6df1","system_id":"levelo_inurba_marseille","lat":43.23854,"lon":5.36331,"is_reserved":false,"is_disabled":false,"rental_uris":{"android":"levelo://app?vid=74122de3-6e57-4ccd-905d-d75187fd6df1","ios":"levelo://app?vid=74122de3-6e57-4ccd-905d-d75187fd6df1"},"vehicle_type_id":"4","last_reported":1752502362,"current_range_meters":19200,"station_id":"","pricing_plan_id":"cebpf4jnsgd1na2vs0mg"},{"bike_id":"489e603b-6303-4c5a-a3da-d47c39cd6b15","system_id":"levelo_inurba_marseille","lat":43.21767,"lon":5.34583,"is_reserved":false,"is_disabled":false,"rental_uris":{"android":"levelo://app?vid=489e603b-6303-4c5a-a3da-d47c39cd6b15","ios":"levelo://app?vid=489e603b-6303-4c5a-a3da-d47c39cd6b15"},"vehicle_type_id":"4","last_reported":1752502362,"current_range_meters":19200,"station_id":"st_cvj6r9ubvosntc0bgbag","pricing_plan_id":"cebpf4jnsgd1na2vs0mg"},{"bike_id":"949cac28-1e79-45e2-a946-5e224b739cae","system_id":"levelo_inurba_marseille","lat":43.24167,"lon":5.36391,"is_reserved":false,"is_disabled":false,"rental_uris":{"android":"levelo://app?vid=949cac28-1e79-45e2-a946-5e224b739cae","ios":"levelo://app?vid=949cac28-1e79-45e2-a946-5e224b739cae"},"vehicle_type_id":"4","last_reported":1752502362,"current_range_meters":19200,"station_id":"cpo36qri1sfpv3e86is0","pricing_plan_id":"cebpf4jnsgd1na2vs0mg"},{"bike_id":"7bce7a34-5113-458d-9330-3d00164f4612","system_id":"levelo_inurba_marseille","lat":43.21175,"lon":5.35083,"is_reserved":false,"is_disabled":false,"rental_uris":{"android":"levelo://app?vid=7bce7a34-5113-458d-9330-3d00164f4612","ios":"levelo://app?vid=7bce7a34-5113-458d-9330-3d00164f4612"},"vehicle_type_id":"4","last_reported":1752502362,"current_range_meters":19200,"station_id":"st_cvj6sg6p6f1abm77japg","pricing_plan_id":"cebpf4jnsgd1na2vs0mg"},{"bike_id":"0196692f-9dd4-4f43-ab4a-8a90a506eba0","system_id":"levelo_inurba_marseille","lat":43.292634,"lon":5.384339,"is_reserved":false,"is_disabled":false,"rental_uris":{"android":"levelo://app?vid=0196692f-9dd4-4f43-ab4a-8a90a506eba0","ios":"levelo://app?vid=0196692f-9dd4-4f43-ab4a-8a90a506eba0"},"vehicle_type_id":"4","last_reported":1752502362,"current_range_meters":19200,"station_id":"","pricing_plan_id":"cebpf4jnsgd1na2vs0mg"},{"bike_id":"74b145b4-5ddd-48db-a2ec-c61b6b5cb914","system_id":"levelo_inurba_marseille","lat":43.2175,"lon":5.34599,"is_reserved":false,"is_disabled":false,"rental_uris":{"android":"levelo://app?vid=74b145b4-5ddd-48db-a2ec-c61b6b5cb914","ios":"levelo://app?vid=74b145b4-5ddd-48db-a2ec-c61b6b5cb914"},"vehicle_type_id":"4","last_reported":1752502362,"current_range_meters":19200,"station_id":"st_cvj6r9ubvosntc0bgbag","pricing_plan_id":"cebpf4jnsgd1na2vs0mg"},{"bike_id":"4e6d904c-d311-49e0-b6db-d6d55faf70cb","system_id":"levelo_inurba_marseille","lat":43.272426,"lon":5.36263,"is_reserved":false,"is_disabled":false,"rental_uris":{"android":"levelo://app?vid=4e6d904c-d311-49e0-b6db-d6d55faf70cb","ios":"levelo://app?vid=4e6d904c-d311-49e0-b6db-d6d55faf70cb"},"vehicle_type_id":"4","last_reported":1752502362,"current_range_meters":19200,"station_id":"","pricing_plan_id":"cebpf4jnsgd1na2vs0mg"},{"bike_id":"09a93a64-fbb1-49a9-be1f-f86a34310e71","system_id":"levelo_inurba_marseille","lat":43.21196,"lon":5.35078,"is_reserved":false,"is_disabled":false,"rental_uris":{"android":"levelo://app?vid=09a93a64-fbb1-49a9-be1f-f86a34310e71","ios":"levelo://app?vid=09a93a64-fbb1-49a9-be1f-f86a34310e71"},"vehicle_type_id":"4","last_reported":1752502362,"current_range_meters":19200,"station_id":"st_cvj6sg6p6f1abm77japg","pricing_plan_id":"cebpf4jnsgd1na2vs0mg"},{"bike_id":"f2c37524-4a91-46ab-98fb-97b4d32d795b","system_id":"levelo_inurba_marseille","lat":43.21756,"lon":5.34592,"is_reserved":false,"is_disabled":false,"rental_uris":{"android":"levelo://app?vid=f2c37524-4a91-46ab-98fb-97b4d32d795b","ios":"levelo://app?vid=f2c37524-4a91-46ab-98fb-97b4d32d795b"},"vehicle_type_id":"4","last_reported":1752502362,"current_range_meters":19200,"station_id":"st_cvj6r9ubvosntc0bgbag","pricing_plan_id":"cebpf4jnsgd1na2vs0mg"},{"bike_id":"a64da3c3-ef36-4926-8fef-3c05e03c47d8","system_id":"levelo_inurba_marseille","lat":43.32036,"lon":5.41565,"is_reserved":false,"is_disabled":false,"rental_uris":{"android":"levelo://app?vid=a64da3c3-ef36-4926-8fef-3c05e03c47d8","ios":"levelo://app?vid=a64da3c3-ef36-4926-8fef-3c05e03c47d8"},"vehicle_type_id":"4","last_reported":1752502362,"current_range_meters":19600,"station_id":"ce4bhq92rcd13ifvqhkg","pricing_plan_id":"cebpf4jnsgd1na2vs0mg"},{"bike_id":"de3c7479-ad03-448f-a78e-88898eddd51a","system_id":"levelo_inurba_marseille","lat":43.32962,"lon":5.39747,"is_reserved":false,"is_disabled":false,"rental_uris":{"android":"levelo://app?vid=de3c7479-ad03-448f-a78e-88898eddd51a","ios":"levelo://app?vid=de3c7479-ad03-448f-a78e-88898eddd51a"},"vehicle_type_id":"4","last_reported":1752502362,"current_range_meters":19600,"station_id":"","pricing_plan_id":"cebpf4jnsgd1na2vs0mg"},{"bike_id":"903197e4-3da2-471b-9537-d88bae7e31c4","system_id":"levelo_inurba_marseille","lat":43.26489,"lon":5.39541,"is_reserved":false,"is_disabled":true,"rental_uris":{"android":"levelo://app?vid=903197e4-3da2-471b-9537-d88bae7e31c4","ios":"levelo://app?vid=903197e4-3da2-471b-9537-d88bae7e31c4"},"vehicle_type_id":"4","last_reported":1752502362,"current_range_meters":19600,"station_id":"ce4bhi12rcd13ifvqfq0","pricing_plan_id":"cebpf4jnsgd1na2vs0mg"},{"bike_id":"90d8578f-7619-4279-84b6-4ed88aa377e2","system_id":"levelo_inurba_marseille","lat":43.2119,"lon":5.35068,"is_reserved":false,"is_disabled":false,"rental_uris":{"android":"levelo://app?vid=90d8578f-7619-4279-84b6-4ed88aa377e2","ios":"levelo://app?vid=90d8578f-7619-4279-84b6-4ed88aa377e2"},"vehicle_type_id":"4","last_reported":1752502362,"current_range_meters":19600,"station_id":"st_cvj6sg6p6f1abm77japg","pricing_plan_id":"cebpf4jnsgd1na2vs0mg"},{"bike_id":"4c8f7305-a0c2-45ff-97e5-99ff127e3c5e","system_id":"levelo_inurba_marseille","lat":43.23961,"lon":5.36622,"is_reserved":false,"is_disabled":false,"rental_uris":{"android":"levelo://app?vid=4c8f7305-a0c2-45ff-97e5-99ff127e3c5e","ios":"levelo://app?vid=4c8f7305-a0c2-45ff-97e5-99ff127e3c5e"},"vehicle_type_id":"4","last_reported":1752502362,"current_range_meters":19600,"station_id":"ce4bhi12rcd13ifvqfp0","pricing_plan_id":"cebpf4jnsgd1na2vs0mg"},{"bike_id":"4852acc5-0cd4-4ac5-bd4c-3f245414b4fd","system_id":"levelo_inurba_marseille","lat":43.22485,"lon":5.34784,"is_reserved":false,"is_disabled":false,"rental_uris":{"android":"levelo://app?vid=4852acc5-0cd4-4ac5-bd4c-3f245414b4fd","ios":"levelo://app?vid=4852acc5-0cd4-4ac5-bd4c-3f245414b4fd"},"vehicle_type_id":"4","last_reported":1752502362,"current_range_meters":19600,"station_id":"st_cvj5dfep6f1abm77gieg","pricing_plan_id":"cebpf4jnsgd1na2vs0mg"},{"bike_id":"b9c91357-c4bf-43a7-b374-877fe1bc181f","system_id":"levelo_inurba_marseille","lat":43.2549,"lon":5.37642,"is_reserved":false,"is_disabled":false,"rental_uris":{"android":"levelo://app?vid=b9c91357-c4bf-43a7-b374-877fe1bc181f","ios":"levelo://app?vid=b9c91357-c4bf-43a7-b374-877fe1bc181f"},"vehicle_type_id":"4","last_reported":1752502362,"current_range_meters":19600,"station_id":"ce4bhh12rcd13ifvqff0","pricing_plan_id":"cebpf4jnsgd1na2vs0mg"},{"bike_id":"c26b5803-1934-443f-a178-b5a6c19165be","system_id":"levelo_inurba_marseille","lat":43.29901,"lon":5.38138,"is_reserved":false,"is_disabled":true,"rental_uris":{"android":"levelo://app?vid=c26b5803-1934-443f-a178-b5a6c19165be","ios":"levelo://app?vid=c26b5803-1934-443f-a178-b5a6c19165be"},"vehicle_type_id":"4","last_reported":1752502362,"current_range_meters":19600,"station_id":"ce4bgj12rcd13ifvqbc0","pricing_plan_id":"cebpf4jnsgd1na2vs0mg"},{"bike_id":"9799756d-8a1a-4311-a37c-e4137bc6d111","system_id":"levelo_inurba_marseille","lat":43.217468,"lon":5.346017,"is_reserved":false,"is_disabled":false,"rental_uris":{"android":"levelo://app?vid=9799756d-8a1a-4311-a37c-e4137bc6d111","ios":"levelo://app?vid=9799756d-8a1a-4311-a37c-e4137bc6d111"},"vehicle_type_id":"4","last_reported":1752502362,"current_range_meters":19600,"station_id":"st_cvj6r9ubvosntc0bgbag","pricing_plan_id":"cebpf4jnsgd1na2vs0mg"},{"bike_id":"1228fbbd-4fb1-4f5b-89d2-46fd73d3f7bb","system_id":"levelo_inurba_marseille","lat":43.23988,"lon":5.36616,"is_reserved":false,"is_disabled":false,"rental_uris":{"android":"levelo://app?vid=1228fbbd-4fb1-4f5b-89d2-46fd73d3f7bb","ios":"levelo://app?vid=1228fbbd-4fb1-4f5b-89d2-46fd73d3f7bb"},"vehicle_type_id":"4","last_reported":1752502362,"current_range_meters":19600,"station_id":"ce4bhi12rcd13ifvqfp0","pricing_plan_id":"cebpf4jnsgd1na2vs0mg"},{"bike_id":"9894e6b8-bde6-4e58-b954-8cb2bba9caaa","system_id":"levelo_inurba_marseille","lat":43.28409,"lon":5.34984,"is_reserved":false,"is_disabled":false,"rental_uris":{"android":"levelo://app?vid=9894e6b8-bde6-4e58-b954-8cb2bba9caaa","ios":"levelo://app?vid=9894e6b8-bde6-4e58-b954-8cb2bba9caaa"},"vehicle_type_id":"4","last_reported":1752502362,"current_range_meters":19600,"station_id":"ce4bhbh2rcd13ifvqepg","pricing_plan_id":"cebpf4jnsgd1na2vs0mg"},{"bike_id":"f27027a6-2a25-4193-9f89-90e958769b0a","system_id":"levelo_inurba_marseille","lat":43.27616,"lon":5.36118,"is_reserved":false,"is_disabled":false,"rental_uris":{"android":"levelo://app?vid=f27027a6-2a25-4193-9f89-90e958769b0a","ios":"levelo://app?vid=f27027a6-2a25-4193-9f89-90e958769b0a"},"vehicle_type_id":"4","last_reported":1752502362,"current_range_meters":19600,"station_id":"ce4bgj92rcd13ifvqbe0","pricing_plan_id":"cebpf4jnsgd1na2vs0mg"},{"bike_id":"fa507ef5-09b0-49eb-88d8-d0c9968e88c9","system_id":"levelo_inurba_marseille","lat":43.28618,"lon":5.35108,"is_reserved":false,"is_disabled":false,"rental_uris":{"android":"levelo://app?vid=fa507ef5-09b0-49eb-88d8-d0c9968e88c9","ios":"levelo://app?vid=fa507ef5-09b0-49eb-88d8-d0c9968e88c9"},"vehicle_type_id":"4","last_reported":1752502362,"current_range_meters":19600,"station_id":"ce4bhch2rcd13ifvqeug","pricing_plan_id":"cebpf4jnsgd1na2vs0mg"},{"bike_id":"ed3a226b-4ec7-465a-b998-9c1369112c1f","system_id":"levelo_inurba_marseille","lat":43.23145,"lon":5.43716,"is_reserved":false,"is_disabled":false,"rental_uris":{"android":"levelo://app?vid=ed3a226b-4ec7-465a-b998-9c1369112c1f","ios":"levelo://app?vid=ed3a226b-4ec7-465a-b998-9c1369112c1f"},"vehicle_type_id":"4","last_reported":1752502362,"current_range_meters":19600,"station_id":"ce4bhmp2rcd13ifvqgog","pricing_plan_id":"cebpf4jnsgd1na2vs0mg"},{"bike_id":"263f6f53-1897-411c-8ea7-f127f93436c4","system_id":"levelo_inurba_marseille","lat":43.21748,"lon":5.34601,"is_reserved":false,"is_disabled":false,"rental_uris":{"android":"levelo://app?vid=263f6f53-1897-411c-8ea7-f127f93436c4","ios":"levelo://app?vid=263f6f53-1897-411c-8ea7-f127f93436c4"},"vehicle_type_id":"4","last_reported":1752502362,"current_range_meters":20000,"station_id":"st_cvj6r9ubvosntc0bgbag","pricing_plan_id":"cebpf4jnsgd1na2vs0mg"},{"bike_id":"05f5f051-b50d-44fd-86bc-0eb68d2d5c66","system_id":"levelo_inurba_marseille","lat":43.29036,"lon":5.39959,"is_reserved":false,"is_disabled":false,"rental_uris":{"android":"levelo://app?vid=05f5f051-b50d-44fd-86bc-0eb68d2d5c66","ios":"levelo://app?vid=05f5f051-b50d-44fd-86bc-0eb68d2d5c66"},"vehicle_type_id":"4","last_reported":1752502362,"current_range_meters":19600,"station_id":"ce4bh392rcd13ifvqdm0","pricing_plan_id":"cebpf4jnsgd1na2vs0mg"},{"bike_id":"30807472-8cbe-46f0-912a-3ab15a5f44f5","system_id":"levelo_inurba_marseille","lat":43.31883,"lon":5.40757,"is_reserved":false,"is_disabled":false,"rental_uris":{"android":"levelo://app?vid=30807472-8cbe-46f0-912a-3ab15a5f44f5","ios":"levelo://app?vid=30807472-8cbe-46f0-912a-3ab15a5f44f5"},"vehicle_type_id":"4","last_reported":1752502362,"current_range_meters":20000,"station_id":"ce4bhq12rcd13ifvqhig","pricing_plan_id":"cebpf4jnsgd1na2vs0mg"},{"bike_id":"7344a727-b91f-481e-b08a-0f3465e83901","system_id":"levelo_inurba_marseille","lat":43.27654,"lon":5.41686,"is_reserved":false,"is_disabled":false,"rental_uris":{"android":"levelo://app?vid=7344a727-b91f-481e-b08a-0f3465e83901","ios":"levelo://app?vid=7344a727-b91f-481e-b08a-0f3465e83901"},"vehicle_type_id":"4","last_reported":1752502362,"current_range_meters":20000,"station_id":"","pricing_plan_id":"cebpf4jnsgd1na2vs0mg"},{"bike_id":"70e99ac6-c5f8-4a24-b517-2afb9240895c","system_id":"levelo_inurba_marseille","lat":43.24161,"lon":5.39706,"is_reserved":false,"is_disabled":false,"rental_uris":{"android":"levelo://app?vid=70e99ac6-c5f8-4a24-b517-2afb9240895c","ios":"levelo://app?vid=70e99ac6-c5f8-4a24-b517-2afb9240895c"},"vehicle_type_id":"4","last_reported":1752502362,"current_range_meters":20000,"station_id":"ce4bhn12rcd13ifvqgpg","pricing_plan_id":"cebpf4jnsgd1na2vs0mg"},{"bike_id":"0dcc5e91-c3cf-4991-b487-c9a10fcdfdfa","system_id":"levelo_inurba_marseille","lat":43.24383,"lon":5.37054,"is_reserved":false,"is_disabled":false,"rental_uris":{"android":"levelo://app?vid=0dcc5e91-c3cf-4991-b487-c9a10fcdfdfa","ios":"levelo://app?vid=0dcc5e91-c3cf-4991-b487-c9a10fcdfdfa"},"vehicle_type_id":"4","last_reported":1752502362,"current_range_meters":20000,"station_id":"ce4bhhh2rcd13ifvqfk0","pricing_plan_id":"cebpf4jnsgd1na2vs0mg"},{"bike_id":"a087ab4f-8a7f-43ec-bab5-8df0bc2f9583","system_id":"levelo_inurba_marseille","lat":43.28617,"lon":5.35121,"is_reserved":false,"is_disabled":false,"rental_uris":{"android":"levelo://app?vid=a087ab4f-8a7f-43ec-bab5-8df0bc2f9583","ios":"levelo://app?vid=a087ab4f-8a7f-43ec-bab5-8df0bc2f9583"},"vehicle_type_id":"4","last_reported":1752502362,"current_range_meters":20000,"station_id":"ce4bhch2rcd13ifvqeug","pricing_plan_id":"cebpf4jnsgd1na2vs0mg"},{"bike_id":"1be775c0-b763-4b2b-8a49-1e6bad97e082","system_id":"levelo_inurba_marseille","lat":43.284263,"lon":5.34983,"is_reserved":false,"is_disabled":false,"rental_uris":{"android":"levelo://app?vid=1be775c0-b763-4b2b-8a49-1e6bad97e082","ios":"levelo://app?vid=1be775c0-b763-4b2b-8a49-1e6bad97e082"},"vehicle_type_id":"4","last_reported":1752502362,"current_range_meters":20400,"station_id":"ce4bhbh2rcd13ifvqepg","pricing_plan_id":"cebpf4jnsgd1na2vs0mg"},{"bike_id":"0d59d516-5bd5-444b-9c9f-3425b328b901","system_id":"levelo_inurba_marseille","lat":43.32354,"lon":5.36758,"is_reserved":false,"is_disabled":false,"rental_uris":{"android":"levelo://app?vid=0d59d516-5bd5-444b-9c9f-3425b328b901","ios":"levelo://app?vid=0d59d516-5bd5-444b-9c9f-3425b328b901"},"vehicle_type_id":"4","last_reported":1752502362,"current_range_meters":20400,"station_id":"ce4bhsh2rcd13ifvqi2g","pricing_plan_id":"cebpf4jnsgd1na2vs0mg"},{"bike_id":"8577aaca-7915-49c3-b3eb-bc84fe946baf","system_id":"levelo_inurba_marseille","lat":43.27564,"lon":5.41705,"is_reserved":false,"is_disabled":false,"rental_uris":{"android":"levelo://app?vid=8577aaca-7915-49c3-b3eb-bc84fe946baf","ios":"levelo://app?vid=8577aaca-7915-49c3-b3eb-bc84fe946baf"},"vehicle_type_id":"4","last_reported":1752502362,"current_range_meters":20800,"station_id":"","pricing_plan_id":"cebpf4jnsgd1na2vs0mg"},{"bike_id":"9acc9a93-612a-45e9-ad2c-6e81e8832947","system_id":"levelo_inurba_marseille","lat":43.21703,"lon":5.34663,"is_reserved":false,"is_disabled":false,"rental_uris":{"android":"levelo://app?vid=9acc9a93-612a-45e9-ad2c-6e81e8832947","ios":"levelo://app?vid=9acc9a93-612a-45e9-ad2c-6e81e8832947"},"vehicle_type_id":"4","last_reported":1752502362,"current_range_meters":20400,"station_id":"","pricing_plan_id":"cebpf4jnsgd1na2vs0mg"},{"bike_id":"69470280-c898-4c61-913d-814206528e10","system_id":"levelo_inurba_marseille","lat":43.21189,"lon":5.35068,"is_reserved":false,"is_disabled":false,"rental_uris":{"android":"levelo://app?vid=69470280-c898-4c61-913d-814206528e10","ios":"levelo://app?vid=69470280-c898-4c61-913d-814206528e10"},"vehicle_type_id":"4","last_reported":1752502362,"current_range_meters":20400,"station_id":"st_cvj6sg6p6f1abm77japg","pricing_plan_id":"cebpf4jnsgd1na2vs0mg"},{"bike_id":"6f38f0a0-9a41-46e3-bbc4-c92e2dfd25ce","system_id":"levelo_inurba_marseille","lat":43.28036,"lon":5.36946,"is_reserved":false,"is_disabled":false,"rental_uris":{"android":"levelo://app?vid=6f38f0a0-9a41-46e3-bbc4-c92e2dfd25ce","ios":"levelo://app?vid=6f38f0a0-9a41-46e3-bbc4-c92e2dfd25ce"},"vehicle_type_id":"4","last_reported":1752502362,"current_range_meters":20000,"station_id":"ce4bha12rcd13ifvqef0","pricing_plan_id":"cebpf4jnsgd1na2vs0mg"},{"bike_id":"b899f22e-5828-4407-bcf7-8129df4150d0","system_id":"levelo_inurba_marseille","lat":43.315336,"lon":5.380392,"is_reserved":false,"is_disabled":false,"rental_uris":{"android":"levelo://app?vid=b899f22e-5828-4407-bcf7-8129df4150d0","ios":"levelo://app?vid=b899f22e-5828-4407-bcf7-8129df4150d0"},"vehicle_type_id":"4","last_reported":1752502362,"current_range_meters":20400,"station_id":"ce4bhsp2rcd13ifvqi50","pricing_plan_id":"cebpf4jnsgd1na2vs0mg"},{"bike_id":"553697d0-2c29-488e-9b00-46e604fe98c9","system_id":"levelo_inurba_marseille","lat":43.27356,"lon":5.36257,"is_reserved":false,"is_disabled":false,"rental_uris":{"android":"levelo://app?vid=553697d0-2c29-488e-9b00-46e604fe98c9","ios":"levelo://app?vid=553697d0-2c29-488e-9b00-46e604fe98c9"},"vehicle_type_id":"4","last_reported":1752502362,"current_range_meters":20400,"station_id":"ce4bhbh2rcd13ifvqeo0","pricing_plan_id":"cebpf4jnsgd1na2vs0mg"},{"bike_id":"9b3c3223-8111-48a9-9029-1956b7fdc2a0","system_id":"levelo_inurba_marseille","lat":43.28654,"lon":5.36356,"is_reserved":false,"is_disabled":false,"rental_uris":{"android":"levelo://app?vid=9b3c3223-8111-48a9-9029-1956b7fdc2a0","ios":"levelo://app?vid=9b3c3223-8111-48a9-9029-1956b7fdc2a0"},"vehicle_type_id":"4","last_reported":1752502362,"current_range_meters":20800,"station_id":"ce4bhah2rcd13ifvqej0","pricing_plan_id":"cebpf4jnsgd1na2vs0mg"},{"bike_id":"1f0886fb-a8a1-42a7-b7e1-4546509c4a4a","system_id":"levelo_inurba_marseille","lat":43.2866,"lon":5.3866,"is_reserved":false,"is_disabled":false,"rental_uris":{"android":"levelo://app?vid=1f0886fb-a8a1-42a7-b7e1-4546509c4a4a","ios":"levelo://app?vid=1f0886fb-a8a1-42a7-b7e1-4546509c4a4a"},"vehicle_type_id":"4","last_reported":1752502362,"current_range_meters":20800,"station_id":"ce4bh492rcd13ifvqdug","pricing_plan_id":"cebpf4jnsgd1na2vs0mg"},{"bike_id":"01bb861f-708f-4b8d-9f3b-641fa0431840","system_id":"levelo_inurba_marseille","lat":43.27054,"lon":5.40254,"is_reserved":false,"is_disabled":false,"rental_uris":{"android":"levelo://app?vid=01bb861f-708f-4b8d-9f3b-641fa0431840","ios":"levelo://app?vid=01bb861f-708f-4b8d-9f3b-641fa0431840"},"vehicle_type_id":"4","last_reported":1752502362,"current_range_meters":20800,"station_id":"ce4bhk92rcd13ifvqgc0","pricing_plan_id":"cebpf4jnsgd1na2vs0mg"},{"bike_id":"fd6ac50c-b483-413a-81ef-d90a48dbc618","system_id":"levelo_inurba_marseille","lat":43.282636,"lon":5.350574,"is_reserved":false,"is_disabled":false,"rental_uris":{"android":"levelo://app?vid=fd6ac50c-b483-413a-81ef-d90a48dbc618","ios":"levelo://app?vid=fd6ac50c-b483-413a-81ef-d90a48dbc618"},"vehicle_type_id":"4","last_reported":1752502362,"current_range_meters":20800,"station_id":"ce4bhbp2rcd13ifvqerg","pricing_plan_id":"cebpf4jnsgd1na2vs0mg"},{"bike_id":"bee0759d-3965-4ff6-8615-c8857fc29c06","system_id":"levelo_inurba_marseille","lat":43.27374,"lon":5.36256,"is_reserved":false,"is_disabled":false,"rental_uris":{"android":"levelo://app?vid=bee0759d-3965-4ff6-8615-c8857fc29c06","ios":"levelo://app?vid=bee0759d-3965-4ff6-8615-c8857fc29c06"},"vehicle_type_id":"4","last_reported":1752502362,"current_range_meters":20800,"station_id":"ce4bhbh2rcd13ifvqeo0","pricing_plan_id":"cebpf4jnsgd1na2vs0mg"},{"bike_id":"d8d60ab6-c488-42ca-96e4-553e790a9162","system_id":"levelo_inurba_marseille","lat":43.21192,"lon":5.35065,"is_reserved":false,"is_disabled":false,"rental_uris":{"android":"levelo://app?vid=d8d60ab6-c488-42ca-96e4-553e790a9162","ios":"levelo://app?vid=d8d60ab6-c488-42ca-96e4-553e790a9162"},"vehicle_type_id":"4","last_reported":1752502362,"current_range_meters":20800,"station_id":"st_cvj6sg6p6f1abm77japg","pricing_plan_id":"cebpf4jnsgd1na2vs0mg"},{"bike_id":"c599d0e6-4f14-4281-a1fd-b8b1bb66057b","system_id":"levelo_inurba_marseille","lat":43.321065,"lon":5.367714,"is_reserved":false,"is_disabled":false,"rental_uris":{"android":"levelo://app?vid=c599d0e6-4f14-4281-a1fd-b8b1bb66057b","ios":"levelo://app?vid=c599d0e6-4f14-4281-a1fd-b8b1bb66057b"},"vehicle_type_id":"4","last_reported":1752502362,"current_range_meters":21600,"station_id":"ce4bhrh2rcd13ifvqhug","pricing_plan_id":"cebpf4jnsgd1na2vs0mg"},{"bike_id":"4ef7d9bc-f3b3-43f3-a3fc-1b59ce885c7a","system_id":"levelo_inurba_marseille","lat":43.27946,"lon":5.4104,"is_reserved":false,"is_disabled":false,"rental_uris":{"android":"levelo://app?vid=4ef7d9bc-f3b3-43f3-a3fc-1b59ce885c7a","ios":"levelo://app?vid=4ef7d9bc-f3b3-43f3-a3fc-1b59ce885c7a"},"vehicle_type_id":"4","last_reported":1752502362,"current_range_meters":21600,"station_id":"ce4bhnp2rcd13ifvqh0g","pricing_plan_id":"cebpf4jnsgd1na2vs0mg"},{"bike_id":"fd859a83-abcb-4d55-9e8a-59b6247605bb","system_id":"levelo_inurba_marseille","lat":43.29455,"lon":5.39745,"is_reserved":false,"is_disabled":false,"rental_uris":{"android":"levelo://app?vid=fd859a83-abcb-4d55-9e8a-59b6247605bb","ios":"levelo://app?vid=fd859a83-abcb-4d55-9e8a-59b6247605bb"},"vehicle_type_id":"4","last_reported":1752502362,"current_range_meters":21600,"station_id":"ce4bh3h2rcd13ifvqdo0","pricing_plan_id":"cebpf4jnsgd1na2vs0mg"},{"bike_id":"fa5683f7-17f8-43cb-8cf9-13e28d22ea66","system_id":"levelo_inurba_marseille","lat":43.31489,"lon":5.37303,"is_reserved":false,"is_disabled":false,"rental_uris":{"android":"levelo://app?vid=fa5683f7-17f8-43cb-8cf9-13e28d22ea66","ios":"levelo://app?vid=fa5683f7-17f8-43cb-8cf9-13e28d22ea66"},"vehicle_type_id":"4","last_reported":1752502362,"current_range_meters":21600,"station_id":"ce4bgt12rcd13ifvqcd0","pricing_plan_id":"cebpf4jnsgd1na2vs0mg"},{"bike_id":"bc874a22-c9db-4904-811a-b5cf614264f3","system_id":"levelo_inurba_marseille","lat":43.24808,"lon":5.37455,"is_reserved":false,"is_disabled":false,"rental_uris":{"android":"levelo://app?vid=bc874a22-c9db-4904-811a-b5cf614264f3","ios":"levelo://app?vid=bc874a22-c9db-4904-811a-b5cf614264f3"},"vehicle_type_id":"4","last_reported":1752502362,"current_range_meters":21600,"station_id":"ce4bhgh2rcd13ifvqfb0","pricing_plan_id":"cebpf4jnsgd1na2vs0mg"},{"bike_id":"3c4ea467-83a7-4cd0-b8c3-ad1ae9e0df6c","system_id":"levelo_inurba_marseille","lat":43.28301,"lon":5.35051,"is_reserved":false,"is_disabled":false,"rental_uris":{"android":"levelo://app?vid=3c4ea467-83a7-4cd0-b8c3-ad1ae9e0df6c","ios":"levelo://app?vid=3c4ea467-83a7-4cd0-b8c3-ad1ae9e0df6c"},"vehicle_type_id":"4","last_reported":1752502362,"current_range_meters":21600,"station_id":"ce4bhbp2rcd13ifvqerg","pricing_plan_id":"cebpf4jnsgd1na2vs0mg"},{"bike_id":"41bef877-2da0-4697-87ca-d3db053ac368","system_id":"levelo_inurba_marseille","lat":43.27229,"lon":5.40927,"is_reserved":false,"is_disabled":false,"rental_uris":{"android":"levelo://app?vid=41bef877-2da0-4697-87ca-d3db053ac368","ios":"levelo://app?vid=41bef877-2da0-4697-87ca-d3db053ac368"},