{"last_updated":1714417532,"ttl":30,"version":"2.2","data":{"bikes":[{"bike_id":"c5cfd8ae-4877-4d0f-ae8a-8973db46427b","system_id":"levelo_inurba_marseille","lat":43.317557,"lon":5.390173,"is_reserved":false,"is_disabled":false,"rental_uris":{"android":"levelo://app?vid=c5cfd8ae-4877-4d0f-ae8a-8973db46427b","ios":"levelo://app?vid=c5cfd8ae-4877-4d0f-ae8a-8973db46427b"},"vehicle_type_id":"4","last_reported":1714417532,"current_range_meters":22800,"station_id":"ce4bhqp2rcd13ifvqhng","pricing_plan_id":"cebpf4jnsgd1na2vs0mg"},{"bike_id":"f89484b1-b08e-4dc5-bfd1-2d6668af672e","system_id":"levelo_inurba_marseille","lat":43.312239,"lon":5.368562,"is_reserved":false,"is_disabled":false,"rental_uris":{"android":"levelo://app?vid=f89484b1-b08e-4dc5-bfd1-2d6668af672e","ios":"levelo://app?vid=f89484b1-b08e-4dc5-bfd1-2d6668af672e"},"vehicle_type_id":"4","last_reported":1714417532,"current_range_meters":13600,"station_id":"ce4bgl92rcd13ifvqbq0","pricing_plan_id":"cebpf4jnsgd1na2vs0mg"},{"bike_id":"59472817-d2fa-42ff-a19a-b3ec52410bf8","system_id":"levelo_inurba_marseille","lat":43.309076,"lon":5.368465,"is_reserved":false,"is_disabled":false,"rental_uris":{"android":"levelo://app?vid=59472817-d2fa-42ff-a19a-b3ec52410bf8","ios":"levelo://app?vid=59472817-d2fa-42ff-a19a-b3ec52410bf8"},"vehicle_type_id":"4","last_reported":1714417532,"current_range_meters":10800,"station_id":"ce4bgn92rcd13ifvqbvg","pricing_plan_id":"cebpf4jnsgd1na2vs0mg"},{"bike_id":"5b1aaaaf-2035-4e52-8495-157b7c3bf186","system_id":"levelo_inurba_marseille","lat":43.314811,"lon":5.373103,"is_reserved":false,"is_disabled":false,"rental_uris":{"android":"levelo://app?vid=5b1aaaaf-2035-4e52-8495-157b7c3bf186","ios":"levelo://app?vid=5b1aaaaf-2035-4e52-8495-157b7c3bf186"},"vehicle_type_id":"4","last_reported":1714417532,"current_range_meters":0,"station_id":"ce4bgt12rcd13ifvqcd0","pricing_plan_id":"cebpf4jnsgd1na2vs0mg"},{"bike_id":"7eabb641-b47b-4ac6-8206-900e2400e146","system_id":"levelo_inurba_marseille","lat":43.314811,"lon":5.373104,"is_reserved":false,"is_disabled":false,"rental_uris":{"android":"levelo://app?vid=7eabb641-b47b-4ac6-8206-900e2400e146","ios":"levelo://app?vid=7eabb641-b47b-4ac6-8206-900e2400e146"},"vehicle_type_id":"4","last_reported":1714417532,"current_range_meters":10800,"station_id":"ce4bgt12rcd13ifvqcd0","pricing_plan_id":"cebpf4jnsgd1na2vs0mg"},{"bike_id":"f49d3ce4-a5f4-4016-8a07-eb18fee64100","system_id":"levelo_inurba_marseille","lat":43.314811,"lon":5.373103,"is_reserved":false,"is_disabled":false,"rental_uris":{"android":"levelo://app?vid=f49d3ce4-a5f4-4016-8a07-eb18fee64100","ios":"levelo://app?vid=f49d3ce4-a5f4-4016-8a07-eb18fee64100"},"vehicle_type_id":"4","last_reported":1714417532,"current_range_meters":16400,"station_id":"ce4bgt12rcd13ifvqcd0","pricing_plan_id":"cebpf4jnsgd1na2vs0mg"},{"bike_id":"75286648-de16-495f-9886-a80ece7937d5","system_id":"levelo_inurba_marseille","lat":43.31494,"lon":5.37314,"is_reserved":false,"is_disabled":false,"rental_uris":{"android":"levelo://app?vid=75286648-de16-495f-9886-a80ece7937d5","ios":"levelo://app?vid=75286648-de16-495f-9886-a80ece7937d5"},"vehicle_type_id":"4","last_reported":1714417532,"current_range_meters":0,"station_id":"ce4bgt12rcd13ifvqcd0","pricing_plan_id":"cebpf4jnsgd1na2vs0mg"},{"bike_id":"c3c33725-3da8-4c6c-bd84-48ed98c64721","system_id":"levelo_inurba_marseille","lat":43.314811,"lon":5.373103,"is_reserved":false,"is_disabled":false,"rental_uris":{"android":"levelo://app?vid=c3c33725-3da8-4c6c-bd84-48ed98c64721","ios":"levelo://app?vid=c3c33725-3da8-4c6c-bd84-48ed98c64721"},"vehicle_type_id":"4","last_reported":1714417532,"current_range_meters":24000,"station_id":"ce4bgt12rcd13ifvqcd0","pricing_plan_id":"cebpf4jnsgd1na2vs0mg"},{"bike_id":"3081906e-5969-458f-9859-f4b48e6b7945","system_id":"levelo_inurba_marseille","lat":43.309039,"lon":5.371797,"is_reserved":false,"is_disabled":false,"rental_uris":{"android":"levelo://app?vid=3081906e-5969-458f-9859-f4b48e6b7945","ios":"levelo://app?vid=3081906e-5969-458f-9859-f4b48e6b7945"},"vehicle_type_id":"4","last_reported":1714417532,"current_range_meters":30000,"station_id":"ce4bguh2rcd13ifvqckg","pricing_plan_id":"cebpf4jnsgd1na2vs0mg"},{"bike_id":"700d8c22-f510-456a-9eae-288de629e4b5","system_id":"levelo_inurba_marseille","lat":43.305714,"lon":5.365633,"is_reserved":false,"is_disabled":false,"rental_uris":{"android":"levelo://app?vid=700d8c22-f510-456a-9eae-288de629e4b5","ios":"levelo://app?vid=700d8c22-f510-456a-9eae-288de629e4b5"},"vehicle_type_id":"4","last_reported":1714417532,"current_range_meters":31200,"station_id":"ce4bgs12rcd13ifvqcag","pricing_plan_id":"cebpf4jnsgd1na2vs0mg"},{"bike_id":"ac0922ee-bc8a-40fd-9187-f6babee55240","system_id":"levelo_inurba_marseille","lat":43.30537,"lon":5.36703,"is_reserved":false,"is_disabled":false,"rental_uris":{"android":"levelo://app?vid=ac0922ee-bc8a-40fd-9187-f6babee55240","ios":"levelo://app?vid=ac0922ee-bc8a-40fd-9187-f6babee55240"},"vehicle_type_id":"4","last_reported":1714417532,"current_range_meters":29200,"station_id":"","pricing_plan_id":"cebpf4jnsgd1na2vs0mg"},{"bike_id":"cdca8724-47c6-4293-8b16-aca8576a06dd","system_id":"levelo_inurba_marseille","lat":43.305368,"lon":5.367343,"is_reserved":false,"is_disabled":false,"rental_uris":{"android":"levelo://app?vid=cdca8724-47c6-4293-8b16-aca8576a06dd","ios":"levelo://app?vid=cdca8724-47c6-4293-8b16-aca8576a06dd"},"vehicle_type_id":"4","last_reported":1714417532,"current_range_meters":13200,"station_id":"ce4bgrp2rcd13ifvqc9g","pricing_plan_id":"cebpf4jnsgd1na2vs0mg"},{"bike_id":"5ae697ec-b7e5-4b5a-bf2e-59d316924130","system_id":"levelo_inurba_marseille","lat":43.305989,"lon":5.37225,"is_reserved":false,"is_disabled":false,"rental_uris":{"android":"levelo://app?vid=5ae697ec-b7e5-4b5a-bf2e-59d316924130","ios":"levelo://app?vid=5ae697ec-b7e5-4b5a-bf2e-59d316924130"},"vehicle_type_id":"4","last_reported":1714417532,"current_range_meters":14800,"station_id":"ce4bgqh2rcd13ifvqc4g","pricing_plan_id":"cebpf4jnsgd1na2vs0mg"},{"bike_id":"e81b82a4-e6aa-4274-886f-4a589fac93ac","system_id":"levelo_inurba_marseille","lat":43.31117,"lon":5.37755,"is_reserved":false,"is_disabled":false,"rental_uris":{"android":"levelo://app?vid=e81b82a4-e6aa-4274-886f-4a589fac93ac","ios":"levelo://app?vid=e81b82a4-e6aa-4274-886f-4a589fac93ac"},"vehicle_type_id":"4","last_reported":1714417532,"current_range_meters":0,"station_id":"ce4bgt92rcd13ifvqcg0","pricing_plan_id":"cebpf4jnsgd1na2vs0mg"},{"bike_id":"65e82390-3e8c-47b4-bc61-ff1bef4487eb","system_id":"levelo_inurba_marseille","lat":43.311125,"lon":5.377624,"is_reserved":false,"is_disabled":false,"rental_uris":{"android":"levelo://app?vid=65e82390-3e8c-47b4-bc61-ff1bef4487eb","ios":"levelo://app?vid=65e82390-3e8c-47b4-bc61-ff1bef4487eb"},"vehicle_type_id":"4","last_reported":1714417532,"current_range_meters":5200,"station_id":"ce4bgt92rcd13ifvqcg0","pricing_plan_id":"cebpf4jnsgd1na2vs0mg"},{"bike_id":"773201b4-8962-4c92-a77a-e501d461cefb","system_id":"levelo_inurba_marseille","lat":43.311125,"lon":5.377624,"is_reserved":false,"is_disabled":false,"rental_uris":{"android":"levelo://app?vid=773201b4-8962-4c92-a77a-e501d461cefb","ios":"levelo://app?vid=773201b4-8962-4c92-a77a-e501d461cefb"},"vehicle_type_id":"4","last_reported":1714417532,"current_range_meters":23200,"station_id":"ce4bgt92rcd13ifvqcg0","pricing_plan_id":"cebpf4jnsgd1na2vs0mg"},{"bike_id":"d1402e43-18b8-424c-929b-dcedd7bde9a6","system_id":"levelo_inurba_marseille","lat":43.311131,"lon":5.377651,"is_reserved":false,"is_disabled":false,"rental_uris":{"android":"levelo://app?vid=d1402e43-18b8-424c-929b-dcedd7bde9a6","ios":"levelo://app?vid=d1402e43-18b8-424c-929b-dcedd7bde9a6"},"vehicle_type_id":"4","last_reported":1714417532,"current_range_meters":29200,"station_id":"ce4bgt92rcd13ifvqcg0","pricing_plan_id":"cebpf4jnsgd1na2vs0mg"},{"bike_id":"3e27c25c-b5c1-436d-bacc-4bdf93b390bb","system_id":"levelo_inurba_marseille","lat":43.31113,"lon":5.37782,"is_reserved":false,"is_disabled":false,"rental_uris":{"android":"levelo://app?vid=3e27c25c-b5c1-436d-bacc-4bdf93b390bb","ios":"levelo://app?vid=3e27c25c-b5c1-436d-bacc-4bdf93b390bb"},"vehicle_type_id":"4","last_reported":1714417532,"current_range_meters":0,"station_id":"ce4bgt92rcd13ifvqcg0","pricing_plan_id":"cebpf4jnsgd1na2vs0mg"},{"bike_id":"8f04e827-c4d1-4d65-ad65-3a8b537f0fa8","system_id":"levelo_inurba_marseille","lat":43.305989,"lon":5.37225,"is_reserved":false,"is_disabled":false,"rental_uris":{"android":"levelo://app?vid=8f04e827-c4d1-4d65-ad65-3a8b537f0fa8","ios":"levelo://app?vid=8f04e827-c4d1-4d65-ad65-3a8b537f0fa8"},"vehicle_type_id":"4","last_reported":1714417532,"current_range_meters":2000,"station_id":"ce4bgqh2rcd13ifvqc4g","pricing_plan_id":"cebpf4jnsgd1na2vs0mg"},{"bike_id":"04442232-818b-4a94-b3e7-6600e1d254f4","system_id":"levelo_inurba_marseille","lat":43.30481,"lon":5.37321,"is_reserved":false,"is_disabled":false,"rental_uris":{"android":"levelo://app?vid=04442232-818b-4a94-b3e7-6600e1d254f4","ios":"levelo://app?vid=04442232-818b-4a94-b3e7-6600e1d254f4"},"vehicle_type_id":"4","last_reported":1714417532,"current_range_meters":14000,"station_id":"","pricing_plan_id":"cebpf4jnsgd1na2vs0mg"},{"bike_id":"06e0efcf-97b3-4525-82f0-45e62b3060e0","system_id":"levelo_inurba_marseille","lat":43.303046,"lon":5.368981,"is_reserved":false,"is_disabled":false,"rental_uris":{"android":"levelo://app?vid=06e0efcf-97b3-4525-82f0-45e62b3060e0","ios":"levelo://app?vid=06e0efcf-97b3-4525-82f0-45e62b3060e0"},"vehicle_type_id":"4","last_reported":1714417532,"current_range_meters":0,"station_id":"ce4bgqh2rcd13ifvqc5g","pricing_plan_id":"cebpf4jnsgd1na2vs0mg"},{"bike_id":"eddb8e1a-0191-4a56-9bfc-45631c4e8e46","system_id":"levelo_inurba_marseille","lat":43.303046,"lon":5.368981,"is_reserved":false,"is_disabled":false,"rental_uris":{"android":"levelo://app?vid=eddb8e1a-0191-4a56-9bfc-45631c4e8e46","ios":"levelo://app?vid=eddb8e1a-0191-4a56-9bfc-45631c4e8e46"},"vehicle_type_id":"4","last_reported":1714417532,"current_range_meters":0,"station_id":"ce4bgqh2rcd13ifvqc5g","pricing_plan_id":"cebpf4jnsgd1na2vs0mg"},{"bike_id":"7f7980c4-115f-4840-9311-8726cbfac525","system_id":"levelo_inurba_marseille","lat":43.31532,"lon":5.38041,"is_reserved":false,"is_disabled":false,"rental_uris":{"android":"levelo://app?vid=7f7980c4-115f-4840-9311-8726cbfac525","ios":"levelo://app?vid=7f7980c4-115f-4840-9311-8726cbfac525"},"vehicle_type_id":"4","last_reported":1714417532,"current_range_meters":31200,"station_id":"ce4bhsp2rcd13ifvqi50","pricing_plan_id":"cebpf4jnsgd1na2vs0mg"},{"bike_id":"6217c7be-3f74-4df0-9f8d-54071ca21eb5","system_id":"levelo_inurba_marseille","lat":43.31535,"lon":5.38046,"is_reserved":false,"is_disabled":false,"rental_uris":{"android":"levelo://app?vid=6217c7be-3f74-4df0-9f8d-54071ca21eb5","ios":"levelo://app?vid=6217c7be-3f74-4df0-9f8d-54071ca21eb5"},"vehicle_type_id":"4","last_reported":1714417532,"current_range_meters":0,"station_id":"ce4bhsp2rcd13ifvqi50","pricing_plan_id":"cebpf4jnsgd1na2vs0mg"},{"bike_id":"0fad807d-faf0-4bba-b074-d33c85bd4fe5","system_id":"levelo_inurba_marseille","lat":43.301939,"lon":5.366286,"is_reserved":false,"is_disabled":false,"rental_uris":{"android":"levelo://app?vid=0fad807d-faf0-4bba-b074-d33c85bd4fe5","ios":"levelo://app?vid=0fad807d-faf0-4bba-b074-d33c85bd4fe5"},"vehicle_type_id":"4","last_reported":1714417532,"current_range_meters":18000,"station_id":"ce4bgrh2rcd13ifvqc8g","pricing_plan_id":"cebpf4jnsgd1na2vs0mg"},{"bike_id":"678df334-9b5d-43ac-9c6d-bc23dbd7e03a","system_id":"levelo_inurba_marseille","lat":43.308012,"lon":5.381511,"is_reserved":false,"is_disabled":false,"rental_uris":{"android":"levelo://app?vid=678df334-9b5d-43ac-9c6d-bc23dbd7e03a","ios":"levelo://app?vid=678df334-9b5d-43ac-9c6d-bc23dbd7e03a"},"vehicle_type_id":"4","last_reported":1714417532,"current_range_meters":14400,"station_id":"ce4bgt12rcd13ifvqce0","pricing_plan_id":"cebpf4jnsgd1na2vs0mg"},{"bike_id":"ed4f93b0-bd02-4383-9f31-e49049bae9a8","system_id":"levelo_inurba_marseille","lat":43.308012,"lon":5.381511,"is_reserved":false,"is_disabled":false,"rental_uris":{"android":"levelo://app?vid=ed4f93b0-bd02-4383-9f31-e49049bae9a8","ios":"levelo://app?vid=ed4f93b0-bd02-4383-9f31-e49049bae9a8"},"vehicle_type_id":"4","last_reported":1714417532,"current_range_meters":26000,"station_id":"ce4bgt12rcd13ifvqce0","pricing_plan_id":"cebpf4jnsgd1na2vs0mg"},{"bike_id":"86cd7304-286c-4bb0-9778-6764435dfac1","system_id":"levelo_inurba_marseille","lat":43.308012,"lon":5.381511,"is_reserved":false,"is_disabled":false,"rental_uris":{"android":"levelo://app?vid=86cd7304-286c-4bb0-9778-6764435dfac1","ios":"levelo://app?vid=86cd7304-286c-4bb0-9778-6764435dfac1"},"vehicle_type_id":"4","last_reported":1714417532,"current_range_meters":0,"station_id":"ce4bgt12rcd13ifvqce0","pricing_plan_id":"cebpf4jnsgd1na2vs0mg"},{"bike_id":"132bacdc-8e73-4afa-9890-359e4c1c3ca1","system_id":"levelo_inurba_marseille","lat":43.324771,"lon":5.36557,"is_reserved":false,"is_disabled":false,"rental_uris":{"android":"levelo://app?vid=132bacdc-8e73-4afa-9890-359e4c1c3ca1","ios":"levelo://app?vid=132bacdc-8e73-4afa-9890-359e4c1c3ca1"},"vehicle_type_id":"4","last_reported":1714417532,"current_range_meters":10400,"station_id":"ce4bhs12rcd13ifvqhvg","pricing_plan_id":"cebpf4jnsgd1na2vs0mg"},{"bike_id":"da7cf71b-c76d-435c-8bcc-78ee9cc66204","system_id":"levelo_inurba_marseille","lat":43.324771,"lon":5.36557,"is_reserved":false,"is_disabled":false,"rental_uris":{"android":"levelo://app?vid=da7cf71b-c76d-435c-8bcc-78ee9cc66204","ios":"levelo://app?vid=da7cf71b-c76d-435c-8bcc-78ee9cc66204"},"vehicle_type_id":"4","last_reported":1714417532,"current_range_meters":14400,"station_id":"ce4bhs12rcd13ifvqhvg","pricing_plan_id":"cebpf4jnsgd1na2vs0mg"},{"bike_id":"b84ccaf2-f52d-43b2-8c19-ab25afebfda2","system_id":"levelo_inurba_marseille","lat":43.324771,"lon":5.36557,"is_reserved":false,"is_disabled":false,"rental_uris":{"android":"levelo://app?vid=b84ccaf2-f52d-43b2-8c19-ab25afebfda2","ios":"levelo://app?vid=b84ccaf2-f52d-43b2-8c19-ab25afebfda2"},"vehicle_type_id":"4","last_reported":1714417532,"current_range_meters":19200,"station_id":"ce4bhs12rcd13ifvqhvg","pricing_plan_id":"cebpf4jnsgd1na2vs0mg"},{"bike_id":"2bd54964-39ec-4baf-8d62-ee67fc4efecf","system_id":"levelo_inurba_marseille","lat":43.324771,"lon":5.36557,"is_reserved":false,"is_disabled":false,"rental_uris":{"android":"levelo://app?vid=2bd54964-39ec-4baf-8d62-ee67fc4efecf","ios":"levelo://app?vid=2bd54964-39ec-4baf-8d62-ee67fc4efecf"},"vehicle_type_id":"4","last_reported":1714417532,"current_range_meters":19600,"station_id":"ce4bhs12rcd13ifvqhvg","pricing_plan_id":"cebpf4jnsgd1na2vs0mg"},{"bike_id":"fed24aee-80a4-4b73-a424-9a65cb9ef4bf","system_id":"levelo_inurba_marseille","lat":43.324771,"lon":5.36557,"is_reserved":false,"is_disabled":false,"rental_uris":{"android":"levelo://app?vid=fed24aee-80a4-4b73-a424-9a65cb9ef4bf","ios":"levelo://app?vid=fed24aee-80a4-4b73-a424-9a65cb9ef4bf"},"vehicle_type_id":"4","last_reported":1714417532,"current_range_meters":23600,"station_id":"ce4bhs12rcd13ifvqhvg","pricing_plan_id":"cebpf4jnsgd1na2vs0mg"},{"bike_id":"ea9f8f61-be81-43ec-8055-fdf55dd5c39f","system_id":"levelo_inurba_marseille","lat":43.324771,"lon":5.36557,"is_reserved":false,"is_disabled":false,"rental_uris":{"android":"levelo://app?vid=ea9f8f61-be81-43ec-8055-fdf55dd5c39f","ios":"levelo://app?vid=ea9f8f61-be81-43ec-8055-fdf55dd5c39f"},"vehicle_type_id":"4","last_reported":1714417532,"current_range_meters":28000,"station_id":"ce4bhs12rcd13ifvqhvg","pricing_plan_id":"cebpf4jnsgd1na2vs0mg"},{"bike_id":"43b64350-638b-4fde-955e-6a2365e245df","system_id":"levelo_inurba_marseille","lat":43.324771,"lon":5.36557,"is_reserved":false,"is_disabled":false,"rental_uris":{"android":"levelo://app?vid=43b64350-638b-4fde-955e-6a2365e245df","ios":"levelo://app?vid=43b64350-638b-4fde-955e-6a2365e245df"},"vehicle_type_id":"4","last_reported":1714417532,"current_range_meters":13200,"station_id":"ce4bhs12rcd13ifvqhvg","pricing_plan_id":"cebpf4jnsgd1na2vs0mg"},{"bike_id":"7d2182b4-dbc2-4a24-a45c-47ca0cb96df7","system_id":"levelo_inurba_marseille","lat":43.324771,"lon":5.36557,"is_reserved":false,"is_disabled":false,"rental_uris":{"android":"levelo://app?vid=7d2182b4-dbc2-4a24-a45c-47ca0cb96df7","ios":"levelo://app?vid=7d2182b4-dbc2-4a24-a45c-47ca0cb96df7"},"vehicle_type_id":"4","last_reported":1714417532,"current_range_meters":9200,"station_id":"ce4bhs12rcd13ifvqhvg","pricing_plan_id":"cebpf4jnsgd1na2vs0mg"},{"bike_id":"0a99ee72-e43a-44c1-9027-262098246010","system_id":"levelo_inurba_marseille","lat":43.324771,"lon":5.36557,"is_reserved":false,"is_disabled":false,"rental_uris":{"android":"levelo://app?vid=0a99ee72-e43a-44c1-9027-262098246010","ios":"levelo://app?vid=0a99ee72-e43a-44c1-9027-262098246010"},"vehicle_type_id":"4","last_reported":1714417532,"current_range_meters":18400,"station_id":"ce4bhs12rcd13ifvqhvg","pricing_plan_id":"cebpf4jnsgd1na2vs0mg"},{"bike_id":"e2f0d488-485b-42ce-a5eb-a605ce20dfe8","system_id":"levelo_inurba_marseille","lat":43.324771,"lon":5.36557,"is_reserved":false,"is_disabled":false,"rental_uris":{"android":"levelo://app?vid=e2f0d488-485b-42ce-a5eb-a605ce20dfe8","ios":"levelo://app?vid=e2f0d488-485b-42ce-a5eb-a605ce20dfe8"},"vehicle_type_id":"4","last_reported":1714417532,"current_range_meters":14000,"station_id":"ce4bhs12rcd13ifvqhvg","pricing_plan_id":"cebpf4jnsgd1na2vs0mg"},{"bike_id":"8b58a7c2-18e3-45ad-acbd-655ea693af73","system_id":"levelo_inurba_marseille","lat":43.324771,"lon":5.36557,"is_reserved":false,"is_disabled":false,"rental_uris":{"android":"levelo://app?vid=8b58a7c2-18e3-45ad-acbd-655ea693af73","ios":"levelo://app?vid=8b58a7c2-18e3-45ad-acbd-655ea693af73"},"vehicle_type_id":"4","last_reported":1714417532,"current_range_meters":22800,"station_id":"ce4bhs12rcd13ifvqhvg","pricing_plan_id":"cebpf4jnsgd1na2vs0mg"},{"bike_id":"5a1e7eae-de16-40e4-8f25-124bfbb8516e","system_id":"levelo_inurba_marseille","lat":43.324771,"lon":5.36557,"is_reserved":false,"is_disabled":false,"rental_uris":{"android":"levelo://app?vid=5a1e7eae-de16-40e4-8f25-124bfbb8516e","ios":"levelo://app?vid=5a1e7eae-de16-40e4-8f25-124bfbb8516e"},"vehicle_type_id":"4","last_reported":1714417532,"current_range_meters":15600,"station_id":"ce4bhs12rcd13ifvqhvg","pricing_plan_id":"cebpf4jnsgd1na2vs0mg"},{"bike_id":"48dd3ec6-b180-43ee-a7ce-834648a3ca81","system_id":"levelo_inurba_marseille","lat":43.32485,"lon":5.36579,"is_reserved":false,"is_disabled":false,"rental_uris":{"android":"levelo://app?vid=48dd3ec6-b180-43ee-a7ce-834648a3ca81","ios":"levelo://app?vid=48dd3ec6-b180-43ee-a7ce-834648a3ca81"},"vehicle_type_id":"4","last_reported":1714417532,"current_range_meters":4000,"station_id":"ce4bhs12rcd13ifvqhvg","pricing_plan_id":"cebpf4jnsgd1na2vs0mg"},{"bike_id":"cf0f8186-3423-4c8b-bbb6-5d421d0e57bf","system_id":"levelo_inurba_marseille","lat":43.324771,"lon":5.36557,"is_reserved":false,"is_disabled":false,"rental_uris":{"android":"levelo://app?vid=cf0f8186-3423-4c8b-bbb6-5d421d0e57bf","ios":"levelo://app?vid=cf0f8186-3423-4c8b-bbb6-5d421d0e57bf"},"vehicle_type_id":"4","last_reported":1714417532,"current_range_meters":9600,"station_id":"ce4bhs12rcd13ifvqhvg","pricing_plan_id":"cebpf4jnsgd1na2vs0mg"},{"bike_id":"bf86c245-53a6-4c88-a168-0d313437f078","system_id":"levelo_inurba_marseille","lat":43.324771,"lon":5.36557,"is_reserved":false,"is_disabled":false,"rental_uris":{"android":"levelo://app?vid=bf86c245-53a6-4c88-a168-0d313437f078","ios":"levelo://app?vid=bf86c245-53a6-4c88-a168-0d313437f078"},"vehicle_type_id":"4","last_reported":1714417532,"current_range_meters":8800,"station_id":"ce4bhs12rcd13ifvqhvg","pricing_plan_id":"cebpf4jnsgd1na2vs0mg"},{"bike_id":"0c158e1b-4722-4f12-8396-1c9d9f4a29d5","system_id":"levelo_inurba_marseille","lat":43.324771,"lon":5.36557,"is_reserved":false,"is_disabled":false,"rental_uris":{"android":"levelo://app?vid=0c158e1b-4722-4f12-8396-1c9d9f4a29d5","ios":"levelo://app?vid=0c158e1b-4722-4f12-8396-1c9d9f4a29d5"},"vehicle_type_id":"4","last_reported":1714417532,"current_range_meters":12800,"station_id":"ce4bhs12rcd13ifvqhvg","pricing_plan_id":"cebpf4jnsgd1na2vs0mg"},{"bike_id":"70fb4549-3b6d-4d72-b915-ed8e6cd24dd8","system_id":"levelo_inurba_marseille","lat":43.324771,"lon":5.36557,"is_reserved":false,"is_disabled":false,"rental_uris":{"android":"levelo://app?vid=70fb4549-3b6d-4d72-b915-ed8e6cd24dd8","ios":"levelo://app?vid=70fb4549-3b6d-4d72-b915-ed8e6cd24dd8"},"vehicle_type_id":"4","last_reported":1714417532,"current_range_meters":17600,"station_id":"ce4bhs12rcd13ifvqhvg","pricing_plan_id":"cebpf4jnsgd1na2vs0mg"},{"bike_id":"543576bd-b295-4580-81b0-e36e0805c360","system_id":"levelo_inurba_marseille","lat":43.324863,"lon":5.365805,"is_reserved":false,"is_disabled":false,"rental_uris":{"android":"levelo://app?vid=543576bd-b295-4580-81b0-e36e0805c360","ios":"levelo://app?vid=543576bd-b295-4580-81b0-e36e0805c360"},"vehicle_type_id":"4","last_reported":1714417532,"current_range_meters":11200,"station_id":"ce4bhs12rcd13ifvqhvg","pricing_plan_id":"cebpf4jnsgd1na2vs0mg"},{"bike_id":"fd1360a1-fed0-4851-b9bf-5735671c98cc","system_id":"levelo_inurba_marseille","lat":43.324771,"lon":5.36557,"is_reserved":false,"is_disabled":false,"rental_uris":{"android":"levelo://app?vid=fd1360a1-fed0-4851-b9bf-5735671c98cc","ios":"levelo://app?vid=fd1360a1-fed0-4851-b9bf-5735671c98cc"},"vehicle_type_id":"4","last_reported":1714417532,"current_range_meters":13200,"station_id":"ce4bhs12rcd13ifvqhvg","pricing_plan_id":"cebpf4jnsgd1na2vs0mg"},{"bike_id":"b144120d-38dd-4e64-847f-ed76d7dcc561","system_id":"levelo_inurba_marseille","lat":43.324771,"lon":5.36557,"is_reserved":false,"is_disabled":false,"rental_uris":{"android":"levelo://app?vid=b144120d-38dd-4e64-847f-ed76d7dcc561","ios":"levelo://app?vid=b144120d-38dd-4e64-847f-ed76d7dcc561"},"vehicle_type_id":"4","last_reported":1714417532,"current_range_meters":8400,"station_id":"ce4bhs12rcd13ifvqhvg","pricing_plan_id":"cebpf4jnsgd1na2vs0mg"},{"bike_id":"1b4acdb9-b533-4fbe-be14-3d235a47355f","system_id":"levelo_inurba_marseille","lat":43.324771,"lon":5.36557,"is_reserved":false,"is_disabled":false,"rental_uris":{"android":"levelo://app?vid=1b4acdb9-b533-4fbe-be14-3d235a47355f","ios":"levelo://app?vid=1b4acdb9-b533-4fbe-be14-3d235a47355f"},"vehicle_type_id":"4","last_reported":1714417532,"current_range_meters":27600,"station_id":"ce4bhs12rcd13ifvqhvg","pricing_plan_id":"cebpf4jnsgd1na2vs0mg"},{"bike_id":"990e7b59-0333-4854-a267-1d421a56d48a","system_id":"levelo_inurba_marseille","lat":43.324944,"lon":5.365766,"is_reserved":false,"is_disabled":false,"rental_uris":{"android":"levelo://app?vid=990e7b59-0333-4854-a267-1d421a56d48a","ios":"levelo://app?vid=990e7b59-0333-4854-a267-1d421a56d48a"},"vehicle_type_id":"4","last_reported":1714417532,"current_range_meters":14000,"station_id":"ce4bhs12rcd13ifvqhvg","pricing_plan_id":"cebpf4jnsgd1na2vs0mg"},{"bike_id":"5db0d1fe-2bb7-4316-b726-7a5f6079a1fd","system_id":"levelo_inurba_marseille","lat":43.310804,"lon":5.38359,"is_reserved":false,"is_disabled":false,"rental_uris":{"android":"levelo://app?vid=5db0d1fe-2bb7-4316-b726-7a5f6079a1fd","ios":"levelo://app?vid=5db0d1fe-2bb7-4316-b726-7a5f6079a1fd"},"vehicle_type_id":"4","last_reported":1714417532,"current_range_meters":0,"station_id":"ce4bgv92rcd13ifvqcr0","pricing_plan_id":"cebpf4jnsgd1na2vs0mg"},{"bike_id":"12fa1dc1-f370-4470-822c-840de61dc2bc","system_id":"levelo_inurba_marseille","lat":43.30143,"lon":5.37413,"is_reserved":false,"is_disabled":false,"rental_uris":{"android":"levelo://app?vid=12fa1dc1-f370-4470-822c-840de61dc2bc","ios":"levelo://app?vid=12fa1dc1-f370-4470-822c-840de61dc2bc"},"vehicle_type_id":"4","last_reported":1714417532,"current_range_meters":25200,"station_id":"ce4bgs92rcd13ifvqcc0","pricing_plan_id":"cebpf4jnsgd1na2vs0mg"},{"bike_id":"0252697a-6e53-47d7-8dba-13b64c0dfad2","system_id":"levelo_inurba_marseille","lat":43.303046,"lon":5.368981,"is_reserved":false,"is_disabled":false,"rental_uris":{"android":"levelo://app?vid=0252697a-6e53-47d7-8dba-13b64c0dfad2","ios":"levelo://app?vid=0252697a-6e53-47d7-8dba-13b64c0dfad2"},"vehicle_type_id":"4","last_reported":1714417532,"current_range_meters":12800,"station_id":"ce4bgqh2rcd13ifvqc5g","pricing_plan_id":"cebpf4jnsgd1na2vs0mg"},{"bike_id":"e73c16d2-3e2c-4371-98ae-f2b70ee9d561","system_id":"levelo_inurba_marseille","lat":43.324771,"lon":5.36557,"is_reserved":false,"is_disabled":false,"rental_uris":{"android":"levelo://app?vid=e73c16d2-3e2c-4371-98ae-f2b70ee9d561","ios":"levelo://app?vid=e73c16d2-3e2c-4371-98ae-f2b70ee9d561"},"vehicle_type_id":"4","last_reported":1714417532,"current_range_meters":6800,"station_id":"ce4bhs12rcd13ifvqhvg","pricing_plan_id":"cebpf4jnsgd1na2vs0mg"},{"bike_id":"246112fa-fdc1-4741-a0e1-d3ab3d623a5d","system_id":"levelo_inurba_marseille","lat":43.302504,"lon":5.377033,"is_reserved":false,"is_disabled":false,"rental_uris":{"android":"levelo://app?vid=246112fa-fdc1-4741-a0e1-d3ab3d623a5d","ios":"levelo://app?vid=246112fa-fdc1-4741-a0e1-d3ab3d623a5d"},"vehicle_type_id":"4","last_reported":1714417532,"current_range_meters":0,"station_id":"ce4bguh2rcd13ifvqcj0","pricing_plan_id":"cebpf4jnsgd1na2vs0mg"},{"bike_id":"57564487-dc35-4e27-8f50-deca87251429","system_id":"levelo_inurba_marseille","lat":43.319935,"lon":5.381699,"is_reserved":false,"is_disabled":false,"rental_uris":{"android":"levelo://app?vid=57564487-dc35-4e27-8f50-deca87251429","ios":"levelo://app?vid=57564487-dc35-4e27-8f50-deca87251429"},"vehicle_type_id":"4","last_reported":1714417532,"current_range_meters":14000,"station_id":"ce4bhr12rcd13ifvqhpg","pricing_plan_id":"cebpf4jnsgd1na2vs0mg"},{"bike_id":"7896ab24-a320-4c14-82c9-b3055bad100e","system_id":"levelo_inurba_marseille","lat":43.319935,"lon":5.381699,"is_reserved":false,"is_disabled":false,"rental_uris":{"android":"levelo://app?vid=7896ab24-a320-4c14-82c9-b3055bad100e","ios":"levelo://app?vid=7896ab24-a320-4c14-82c9-b3055bad100e"},"vehicle_type_id":"4","last_reported":1714417532,"current_range_meters":14000,"station_id":"ce4bhr12rcd13ifvqhpg","pricing_plan_id":"cebpf4jnsgd1na2vs0mg"},{"bike_id":"d4a93352-25cf-45d9-be28-f962b9e65449","system_id":"levelo_inurba_marseille","lat":43.319935,"lon":5.381699,"is_reserved":false,"is_disabled":false,"rental_uris":{"android":"levelo://app?vid=d4a93352-25cf-45d9-be28-f962b9e65449","ios":"levelo://app?vid=d4a93352-25cf-45d9-be28-f962b9e65449"},"vehicle_type_id":"4","last_reported":1714417532,"current_range_meters":17600,"station_id":"ce4bhr12rcd13ifvqhpg","pricing_plan_id":"cebpf4jnsgd1na2vs0mg"},{"bike_id":"3a0dd3af-d859-4d73-9903-f7eeb8ebaee4","system_id":"levelo_inurba_marseille","lat":43.319935,"lon":5.381699,"is_reserved":false,"is_disabled":false,"rental_uris":{"android":"levelo://app?vid=3a0dd3af-d859-4d73-9903-f7eeb8ebaee4","ios":"levelo://app?vid=3a0dd3af-d859-4d73-9903-f7eeb8ebaee4"},"vehicle_type_id":"4","last_reported":1714417532,"current_range_meters":30400,"station_id":"ce4bhr12rcd13ifvqhpg","pricing_plan_id":"cebpf4jnsgd1na2vs0mg"},{"bike_id":"bc17e830-37da-4449-84c8-3f7b98523efa","system_id":"levelo_inurba_marseille","lat":43.313571,"lon":5.384829,"is_reserved":false,"is_disabled":false,"rental_uris":{"android":"levelo://app?vid=bc17e830-37da-4449-84c8-3f7b98523efa","ios":"levelo://app?vid=bc17e830-37da-4449-84c8-3f7b98523efa"},"vehicle_type_id":"4","last_reported":1714417532,"current_range_meters":21200,"station_id":"ce4bgt92rcd13ifvqcf0","pricing_plan_id":"cebpf4jnsgd1na2vs0mg"},{"bike_id":"3c56a522-3f22-41a4-9398-70a099542c97","system_id":"levelo_inurba_marseille","lat":43.310798,"lon":5.384705,"is_reserved":false,"is_disabled":false,"rental_uris":{"android":"levelo://app?vid=3c56a522-3f22-41a4-9398-70a099542c97","ios":"levelo://app?vid=3c56a522-3f22-41a4-9398-70a099542c97"},"vehicle_type_id":"4","last_reported":1714417532,"current_range_meters":21600,"station_id":"","pricing_plan_id":"cebpf4jnsgd1na2vs0mg"},{"bike_id":"afe3ffca-d1d1-43c5-86b2-34093dff5fb4","system_id":"levelo_inurba_marseille","lat":43.313571,"lon":5.384829,"is_reserved":false,"is_disabled":false,"rental_uris":{"android":"levelo://app?vid=afe3ffca-d1d1-43c5-86b2-34093dff5fb4","ios":"levelo://app?vid=afe3ffca-d1d1-43c5-86b2-34093dff5fb4"},"vehicle_type_id":"4","last_reported":1714417532,"current_range_meters":5600,"station_id":"ce4bgt92rcd13ifvqcf0","pricing_plan_id":"cebpf4jnsgd1na2vs0mg"},{"bike_id":"225e7c15-398f-4c19-97ce-792e0b9ea0f3","system_id":"levelo_inurba_marseille","lat":43.313571,"lon":5.384829,"is_reserved":false,"is_disabled":false,"rental_uris":{"android":"levelo://app?vid=225e7c15-398f-4c19-97ce-792e0b9ea0f3","ios":"levelo://app?vid=225e7c15-398f-4c19-97ce-792e0b9ea0f3"},"vehicle_type_id":"4","last_reported":1714417532,"current_range_meters":30400,"station_id":"ce4bgt92rcd13ifvqcf0","pricing_plan_id":"cebpf4jnsgd1na2vs0mg"},{"bike_id":"962a4b7f-7040-4679-ad3c-62d0395f99e0","system_id":"levelo_inurba_marseille","lat":43.313571,"lon":5.384829,"is_reserved":false,"is_disabled":false,"rental_uris":{"android":"levelo://app?vid=962a4b7f-7040-4679-ad3c-62d0395f99e0","ios":"levelo://app?vid=962a4b7f-7040-4679-ad3c-62d0395f99e0"},"vehicle_type_id":"4","last_reported":1714417532,"current_range_meters":20400,"station_id":"ce4bgt92rcd13ifvqcf0","pricing_plan_id":"cebpf4jnsgd1na2vs0mg"},{"bike_id":"82a9d743-4d85-4b5c-9f9e-d6506f3058f7","system_id":"levelo_inurba_marseille","lat":43.29985,"lon":5.3719,"is_reserved":false,"is_disabled":false,"rental_uris":{"android":"levelo://app?vid=82a9d743-4d85-4b5c-9f9e-d6506f3058f7","ios":"levelo://app?vid=82a9d743-4d85-4b5c-9f9e-d6506f3058f7"},"vehicle_type_id":"4","last_reported":1714417532,"current_range_meters":0,"station_id":"ce4bgr92rcd13ifvqc7g","pricing_plan_id":"cebpf4jnsgd1na2vs0mg"},{"bike_id":"750083c9-a622-4e78-a907-11687758fa51","system_id":"levelo_inurba_marseille","lat":43.29977,"lon":5.37183,"is_reserved":false,"is_disabled":false,"rental_uris":{"android":"levelo://app?vid=750083c9-a622-4e78-a907-11687758fa51","ios":"levelo://app?vid=750083c9-a622-4e78-a907-11687758fa51"},"vehicle_type_id":"4","last_reported":1714417532,"current_range_meters":19200,"station_id":"ce4bgr92rcd13ifvqc7g","pricing_plan_id":"cebpf4jnsgd1na2vs0mg"},{"bike_id":"4cc97d39-f47c-4672-9942-eebe67ac1f04","system_id":"levelo_inurba_marseille","lat":43.29976,"lon":5.3718,"is_reserved":false,"is_disabled":false,"rental_uris":{"android":"levelo://app?vid=4cc97d39-f47c-4672-9942-eebe67ac1f04","ios":"levelo://app?vid=4cc97d39-f47c-4672-9942-eebe67ac1f04"},"vehicle_type_id":"4","last_reported":1714417532,"current_range_meters":0,"station_id":"ce4bgr92rcd13ifvqc7g","pricing_plan_id":"cebpf4jnsgd1na2vs0mg"},{"bike_id":"c0122c56-5601-4d1e-9fcf-aad05404a1a8","system_id":"levelo_inurba_marseille","lat":43.29973,"lon":5.37182,"is_reserved":false,"is_disabled":false,"rental_uris":{"android":"levelo://app?vid=c0122c56-5601-4d1e-9fcf-aad05404a1a8","ios":"levelo://app?vid=c0122c56-5601-4d1e-9fcf-aad05404a1a8"},"vehicle_type_id":"4","last_reported":1714417532,"current_range_meters":24400,"station_id":"ce4bgr92rcd13ifvqc7g","pricing_plan_id":"cebpf4jnsgd1na2vs0mg"},{"bike_id":"cf172bf1-5c6e-4080-bc20-7223cce218c4","system_id":"levelo_inurba_marseille","lat":43.310804,"lon":5.38359,"is_reserved":false,"is_disabled":false,"rental_uris":{"android":"levelo://app?vid=cf172bf1-5c6e-4080-bc20-7223cce218c4","ios":"levelo://app?vid=cf172bf1-5c6e-4080-bc20-7223cce218c4"},"vehicle_type_id":"4","last_reported":1714417532,"current_range_meters":1200,"station_id":"ce4bgv92rcd13ifvqcr0","pricing_plan_id":"cebpf4jnsgd1na2vs0mg"},{"bike_id":"913811df-fda7-4453-aa03-8c7dbaa05721","system_id":"levelo_inurba_marseille","lat":43.299243,"lon":5.37481,"is_reserved":false,"is_disabled":false,"rental_uris":{"android":"levelo://app?vid=913811df-fda7-4453-aa03-8c7dbaa05721","ios":"levelo://app?vid=913811df-fda7-4453-aa03-8c7dbaa05721"},"vehicle_type_id":"4","last_reported":1714417532,"current_range_meters":1600,"station_id":"ce4bgjh2rcd13ifvqbg0","pricing_plan_id":"cebpf4jnsgd1na2vs0mg"},{"bike_id":"d38e480f-9afd-4957-b1e0-afe52e676b51","system_id":"levelo_inurba_marseille","lat":43.300175,"lon":5.377099,"is_reserved":false,"is_disabled":false,"rental_uris":{"android":"levelo://app?vid=d38e480f-9afd-4957-b1e0-afe52e676b51","ios":"levelo://app?vid=d38e480f-9afd-4957-b1e0-afe52e676b51"},"vehicle_type_id":"4","last_reported":1714417532,"current_range_meters":7200,"station_id":"","pricing_plan_id":"cebpf4jnsgd1na2vs0mg"},{"bike_id":"a6e65cfd-a9d3-4334-bbe1-0918022b3e35","system_id":"levelo_inurba_marseille","lat":43.298433,"lon":5.362774,"is_reserved":false,"is_disabled":false,"rental_uris":{"android":"levelo://app?vid=a6e65cfd-a9d3-4334-bbe1-0918022b3e35","ios":"levelo://app?vid=a6e65cfd-a9d3-4334-bbe1-0918022b3e35"},"vehicle_type_id":"4","last_reported":1714417532,"current_range_meters":29200,"station_id":"ce4bgpp2rcd13ifvqc3g","pricing_plan_id":"cebpf4jnsgd1na2vs0mg"},{"bike_id":"aad9cfb8-144c-45de-9e6c-24c589bc869a","system_id":"levelo_inurba_marseille","lat":43.29844,"lon":5.36264,"is_reserved":false,"is_disabled":false,"rental_uris":{"android":"levelo://app?vid=aad9cfb8-144c-45de-9e6c-24c589bc869a","ios":"levelo://app?vid=aad9cfb8-144c-45de-9e6c-24c589bc869a"},"vehicle_type_id":"4","last_reported":1714417532,"current_range_meters":6400,"station_id":"ce4bgpp2rcd13ifvqc3g","pricing_plan_id":"cebpf4jnsgd1na2vs0mg"},{"bike_id":"62e3672a-5145-4461-b9f7-3cc81b1d10f3","system_id":"levelo_inurba_marseille","lat":43.31181,"lon":5.38705,"is_reserved":false,"is_disabled":false,"rental_uris":{"android":"levelo://app?vid=62e3672a-5145-4461-b9f7-3cc81b1d10f3","ios":"levelo://app?vid=62e3672a-5145-4461-b9f7-3cc81b1d10f3"},"vehicle_type_id":"4","last_reported":1714417532,"current_range_meters":0,"station_id":"ce4bgv12rcd13ifvqcp0","pricing_plan_id":"cebpf4jnsgd1na2vs0mg"},{"bike_id":"91deb4e9-2a12-49dc-b88c-65e9cdb40a51","system_id":"levelo_inurba_marseille","lat":43.311722,"lon":5.387247,"is_reserved":false,"is_disabled":false,"rental_uris":{"android":"levelo://app?vid=91deb4e9-2a12-49dc-b88c-65e9cdb40a51","ios":"levelo://app?vid=91deb4e9-2a12-49dc-b88c-65e9cdb40a51"},"vehicle_type_id":"4","last_reported":1714417532,"current_range_meters":30000,"station_id":"ce4bgv12rcd13ifvqcp0","pricing_plan_id":"cebpf4jnsgd1na2vs0mg"},{"bike_id":"0be3b687-fd8b-421d-b4d6-d44b4ba12a91","system_id":"levelo_inurba_marseille","lat":43.299243,"lon":5.374807,"is_reserved":false,"is_disabled":false,"rental_uris":{"android":"levelo://app?vid=0be3b687-fd8b-421d-b4d6-d44b4ba12a91","ios":"levelo://app?vid=0be3b687-fd8b-421d-b4d6-d44b4ba12a91"},"vehicle_type_id":"4","last_reported":1714417532,"current_range_meters":6000,"station_id":"ce4bgjh2rcd13ifvqbg0","pricing_plan_id":"cebpf4jnsgd1na2vs0mg"},{"bike_id":"7a770c05-0fd6-4f2d-aee6-f9a028dada4a","system_id":"levelo_inurba_marseille","lat":43.311722,"lon":5.387247,"is_reserved":false,"is_disabled":false,"rental_uris":{"android":"levelo://app?vid=7a770c05-0fd6-4f2d-aee6-f9a028dada4a","ios":"levelo://app?vid=7a770c05-0fd6-4f2d-aee6-f9a028dada4a"},"vehicle_type_id":"4","last_reported":1714417532,"current_range_meters":31200,"station_id":"ce4bgv12rcd13ifvqcp0","pricing_plan_id":"cebpf4jnsgd1na2vs0mg"},{"bike_id":"08c5bd74-a18e-45ce-9e0f-49d7502b854e","system_id":"levelo_inurba_marseille","lat":43.311722,"lon":5.387247,"is_reserved":false,"is_disabled":false,"rental_uris":{"android":"levelo://app?vid=08c5bd74-a18e-45ce-9e0f-49d7502b854e","ios":"levelo://app?vid=08c5bd74-a18e-45ce-9e0f-49d7502b854e"},"vehicle_type_id":"4","last_reported":1714417532,"current_range_meters":13200,"station_id":"ce4bgv12rcd13ifvqcp0","pricing_plan_id":"cebpf4jnsgd1na2vs0mg"},{"bike_id":"857a7113-e781-4819-9bd0-b27805f2bd58","system_id":"levelo_inurba_marseille","lat":43.311722,"lon":5.387247,"is_reserved":false,"is_disabled":false,"rental_uris":{"android":"levelo://app?vid=857a7113-e781-4819-9bd0-b27805f2bd58","ios":"levelo://app?vid=857a7113-e781-4819-9bd0-b27805f2bd58"},"vehicle_type_id":"4","last_reported":1714417532,"current_range_meters":31600,"station_id":"ce4bgv12rcd13ifvqcp0","pricing_plan_id":"cebpf4jnsgd1na2vs0mg"},{"bike_id":"2eeac0cc-eca0-4b71-894e-8b6bdc7cbd22","system_id":"levelo_inurba_marseille","lat":43.311722,"lon":5.387247,"is_reserved":false,"is_disabled":false,"rental_uris":{"android":"levelo://app?vid=2eeac0cc-eca0-4b71-894e-8b6bdc7cbd22","ios":"levelo://app?vid=2eeac0cc-eca0-4b71-894e-8b6bdc7cbd22"},"vehicle_type_id":"4","last_reported":1714417532,"current_range_meters":22800,"station_id":"ce4bgv12rcd13ifvqcp0","pricing_plan_id":"cebpf4jnsgd1na2vs0mg"},{"bike_id":"dcd8a128-dd43-458f-be9b-27ea2e9406e5","system_id":"levelo_inurba_marseille","lat":43.311722,"lon":5.387247,"is_reserved":false,"is_disabled":false,"rental_uris":{"android":"levelo://app?vid=dcd8a128-dd43-458f-be9b-27ea2e9406e5","ios":"levelo://app?vid=dcd8a128-dd43-458f-be9b-27ea2e9406e5"},"vehicle_type_id":"4","last_reported":1714417532,"current_range_meters":22800,"station_id":"ce4bgv12rcd13ifvqcp0","pricing_plan_id":"cebpf4jnsgd1na2vs0mg"},{"bike_id":"5fabc68a-2f51-4486-8eb9-a7f37e7f40c2","system_id":"levelo_inurba_marseille","lat":43.311722,"lon":5.387247,"is_reserved":false,"is_disabled":false,"rental_uris":{"android":"levelo://app?vid=5fabc68a-2f51-4486-8eb9-a7f37e7f40c2","ios":"levelo://app?vid=5fabc68a-2f51-4486-8eb9-a7f37e7f40c2"},"vehicle_type_id":"4","last_reported":1714417532,"current_range_meters":8400,"station_id":"ce4bgv12rcd13ifvqcp0","pricing_plan_id":"cebpf4jnsgd1na2vs0mg"},{"bike_id":"1c8c8ef4-7ad7-40b5-ad96-0f5d102b6629","system_id":"levelo_inurba_marseille","lat":43.311722,"lon":5.387247,"is_reserved":false,"is_disabled":false,"rental_uris":{"android":"levelo://app?vid=1c8c8ef4-7ad7-40b5-ad96-0f5d102b6629","ios":"levelo://app?vid=1c8c8ef4-7ad7-40b5-ad96-0f5d102b6629"},"vehicle_type_id":"4","last_reported":1714417532,"current_range_meters":8000,"station_id":"ce4bgv12rcd13ifvqcp0","pricing_plan_id":"cebpf4jnsgd1na2vs0mg"},{"bike_id":"0abbaede-faef-4d60-8e7a-673b9060851e","system_id":"levelo_inurba_marseille","lat":43.311722,"lon":5.387247,"is_reserved":false,"is_disabled":false,"rental_uris":{"android":"levelo://app?vid=0abbaede-faef-4d60-8e7a-673b9060851e","ios":"levelo://app?vid=0abbaede-faef-4d60-8e7a-673b9060851e"},"vehicle_type_id":"4","last_reported":1714417532,"current_range_meters":6800,"station_id":"ce4bgv12rcd13ifvqcp0","pricing_plan_id":"cebpf4jnsgd1na2vs0mg"},{"bike_id":"5aba64c9-a5ab-4b74-9f99-c3d02eac84ec","system_id":"levelo_inurba_marseille","lat":43.311722,"lon":5.387247,"is_reserved":false,"is_disabled":false,"rental_uris":{"android":"levelo://app?vid=5aba64c9-a5ab-4b74-9f99-c3d02eac84ec","ios":"levelo://app?vid=5aba64c9-a5ab-4b74-9f99-c3d02eac84ec"},"vehicle_type_id":"4","last_reported":1714417532,"current_range_meters":19200,"station_id":"ce4bgv12rcd13ifvqcp0","pricing_plan_id":"cebpf4jnsgd1na2vs0mg"},{"bike_id":"87db1f56-0222-4014-a901-7b5956bb816e","system_id":"levelo_inurba_marseille","lat":43.297794,"lon":5.370888,"is_reserved":false,"is_disabled":false,"rental_uris":{"android":"levelo://app?vid=87db1f56-0222-4014-a901-7b5956bb816e","ios":"levelo://app?vid=87db1f56-0222-4014-a901-7b5956bb816e"},"vehicle_type_id":"4","last_reported":1714417532,"current_range_meters":10800,"station_id":"ce4bgop2rcd13ifvqc1g","pricing_plan_id":"cebpf4jnsgd1na2vs0mg"},{"bike_id":"0844ce6a-ec2c-4a29-806f-c9275f3d8ad8","system_id":"levelo_inurba_marseille","lat":43.297794,"lon":5.370888,"is_reserved":false,"is_disabled":false,"rental_uris":{"android":"levelo://app?vid=0844ce6a-ec2c-4a29-806f-c9275f3d8ad8","ios":"levelo://app?vid=0844ce6a-ec2c-4a29-806f-c9275f3d8ad8"},"vehicle_type_id":"4","last_reported":1714417532,"current_range_meters":16000,"station_id":"ce4bgop2rcd13ifvqc1g","pricing_plan_id":"cebpf4jnsgd1na2vs0mg"},{"bike_id":"73c3995f-9731-4dce-ba81-fc1ff1760f00","system_id":"levelo_inurba_marseille","lat":43.297794,"lon":5.370888,"is_reserved":false,"is_disabled":false,"rental_uris":{"android":"levelo://app?vid=73c3995f-9731-4dce-ba81-fc1ff1760f00","ios":"levelo://app?vid=73c3995f-9731-4dce-ba81-fc1ff1760f00"},"vehicle_type_id":"4","last_reported":1714417532,"current_range_meters":14800,"station_id":"ce4bgop2rcd13ifvqc1g","pricing_plan_id":"cebpf4jnsgd1na2vs0mg"},{"bike_id":"7d0dc6e4-237d-4e2c-9f6d-5a67d8478718","system_id":"levelo_inurba_marseille","lat":43.322872,"lon":5.382756,"is_reserved":false,"is_disabled":false,"rental_uris":{"android":"levelo://app?vid=7d0dc6e4-237d-4e2c-9f6d-5a67d8478718","ios":"levelo://app?vid=7d0dc6e4-237d-4e2c-9f6d-5a67d8478718"},"vehicle_type_id":"4","last_reported":1714417532,"current_range_meters":23200,"station_id":"ce4bhr12rcd13ifvqhqg","pricing_plan_id":"cebpf4jnsgd1na2vs0mg"},{"bike_id":"90f46afa-97a4-48f2-84a2-899bcf460e9a","system_id":"levelo_inurba_marseille","lat":43.322872,"lon":5.382756,"is_reserved":false,"is_disabled":false,"rental_uris":{"android":"levelo://app?vid=90f46afa-97a4-48f2-84a2-899bcf460e9a","ios":"levelo://app?vid=90f46afa-97a4-48f2-84a2-899bcf460e9a"},"vehicle_type_id":"4","last_reported":1714417532,"current_range_meters":25200,"station_id":"ce4bhr12rcd13ifvqhqg","pricing_plan_id":"cebpf4jnsgd1na2vs0mg"},{"bike_id":"e7620d48-0589-458f-9112-8f2d8a96c05b","system_id":"levelo_inurba_marseille","lat":43.322872,"lon":5.382756,"is_reserved":false,"is_disabled":false,"rental_uris":{"android":"levelo://app?vid=e7620d48-0589-458f-9112-8f2d8a96c05b","ios":"levelo://app?vid=e7620d48-0589-458f-9112-8f2d8a96c05b"},"vehicle_type_id":"4","last_reported":1714417532,"current_range_meters":7200,"station_id":"ce4bhr12rcd13ifvqhqg","pricing_plan_id":"cebpf4jnsgd1na2vs0mg"},{"bike_id":"b46b8a58-bd5d-4598-90cd-10c626b528ca","system_id":"levelo_inurba_marseille","lat":43.322872,"lon":5.382756,"is_reserved":false,"is_disabled":false,"rental_uris":{"android":"levelo://app?vid=b46b8a58-bd5d-4598-90cd-10c626b528ca","ios":"levelo://app?vid=b46b8a58-bd5d-4598-90cd-10c626b528ca"},"vehicle_type_id":"4","last_reported":1714417532,"current_range_meters":31200,"station_id":"ce4bhr12rcd13ifvqhqg","pricing_plan_id":"cebpf4jnsgd1na2vs0mg"},{"bike_id":"f02e7649-dc40-48fa-8c4d-12d98c304645","system_id":"levelo_inurba_marseille","lat":43.32294,"lon":5.3827,"is_reserved":false,"is_disabled":false,"rental_uris":{"android":"levelo://app?vid=f02e7649-dc40-48fa-8c4d-12d98c304645","ios":"levelo://app?vid=f02e7649-dc40-48fa-8c4d-12d98c304645"},"vehicle_type_id":"4","last_reported":1714417532,"current_range_meters":27600,"station_id":"ce4bhr12rcd13ifvqhqg","pricing_plan_id":"cebpf4jnsgd1na2vs0mg"},{"bike_id":"1eb014b0-d233-4917-a9dc-6a24e8b31219","system_id":"levelo_inurba_marseille","lat":43.322872,"lon":5.382756,"is_reserved":false,"is_disabled":false,"rental_uris":{"android":"levelo://app?vid=1eb014b0-d233-4917-a9dc-6a24e8b31219","ios":"levelo://app?vid=1eb014b0-d233-4917-a9dc-6a24e8b31219"},"vehicle_type_id":"4","last_reported":1714417532,"current_range_meters":28000,"station_id":"ce4bhr12rcd13ifvqhqg","pricing_plan_id":"cebpf4jnsgd1na2vs0mg"},{"bike_id":"20a74c7a-b479-474c-a985-443ff7e353c9","system_id":"levelo_inurba_marseille","lat":43.322872,"lon":5.382756,"is_reserved":false,"is_disabled":false,"rental_uris":{"android":"levelo://app?vid=20a74c7a-b479-474c-a985-443ff7e353c9","ios":"levelo://app?vid=20a74c7a-b479-474c-a985-443ff7e353c9"},"vehicle_type_id":"4","last_reported":1714417532,"current_range_meters":0,"station_id":"ce4bhr12rcd13ifvqhqg","pricing_plan_id":"cebpf4jnsgd1na2vs0mg"},{"bike_id":"2a1a44d8-ce53-43ea-88f4-395d552bc36f","system_id":"levelo_inurba_marseille","lat":43.29702,"lon":5.36617,"is_reserved":false,"is_disabled":false,"rental_uris":{"android":"levelo://app?vid=2a1a44d8-ce53-43ea-88f4-395d552bc36f","ios":"levelo://app?vid=2a1a44d8-ce53-43ea-88f4-395d552bc36f"},"vehicle_type_id":"4","last_reported":1714417532,"current_range_meters":22400,"station_id":"ce4bgn12rcd13ifvqbt0","pricing_plan_id":"cebpf4jnsgd1na2vs0mg"},{"bike_id":"0fe0cae5-e15e-482e-b65e-14ed0a88e787","system_id":"levelo_inurba_marseille","lat":43.29573,"lon":5.367355,"is_reserved":false,"is_disabled":false,"rental_uris":{"android":"levelo://app?vid=0fe0cae5-e15e-482e-b65e-14ed0a88e787","ios":"levelo://app?vid=0fe0cae5-e15e-482e-b65e-14ed0a88e787"},"vehicle_type_id":"4","last_reported":1714417532,"current_range_meters":20400,"station_id":"ce4bgph2rcd13ifvqc2g","pricing_plan_id":"cebpf4jnsgd1na2vs0mg"},{"bike_id":"e53b305a-b06e-47bd-b930-dc31e18a5019","system_id":"levelo_inurba_marseille","lat":43.296131,"lon":5.370773,"is_reserved":false,"is_disabled":false,"rental_uris":{"android":"levelo://app?vid=e53b305a-b06e-47bd-b930-dc31e18a5019","ios":"levelo://app?vid=e53b305a-b06e-47bd-b930-dc31e18a5019"},"vehicle_type_id":"4","last_reported":1714417532,"current_range_meters":25600,"station_id":"ce4bgnh2rcd13ifvqc0g","pricing_plan_id":"cebpf4jnsgd1na2vs0mg"},{"bike_id":"3d8ff6be-78e2-4b99-83c4-2b0a0d0af2e1","system_id":"levelo_inurba_marseille","lat":43.29573,"lon":5.367355,"is_reserved":false,"is_disabled":false,"rental_uris":{"android":"levelo://app?vid=3d8ff6be-78e2-4b99-83c4-2b0a0d0af2e1","ios":"levelo://app?vid=3d8ff6be-78e2-4b99-83c4-2b0a0d0af2e1"},"vehicle_type_id":"4","last_reported":1714417532,"current_range_meters":0,"station_id":"ce4bgph2rcd13ifvqc2g","pricing_plan_id":"cebpf4jnsgd1na2vs0mg"},{"bike_id":"a348bb8e-bec6-404c-a83d-c12049f9ebae","system_id":"levelo_inurba_marseille","lat":43.29739,"lon":5.37673,"is_reserved":false,"is_disabled":false,"rental_uris":{"android":"levelo://app?vid=a348bb8e-bec6-404c-a83d-c12049f9ebae","ios":"levelo://app?vid=a348bb8e-bec6-404c-a83d-c12049f9ebae"},"vehicle_type_id":"4","last_reported":1714417532,"current_range_meters":0,"station_id":"ce4bgkh2rcd13ifvqbl0","pricing_plan_id":"cebpf4jnsgd1na2vs0mg"},{"bike_id":"3dadb9f0-df40-4a1e-bc2e-89010622e5a3","system_id":"levelo_inurba_marseille","lat":43.299028,"lon":5.381509,"is_reserved":false,"is_disabled":false,"rental_uris":{"android":"levelo://app?vid=3dadb9f0-df40-4a1e-bc2e-89010622e5a3","ios":"levelo://app?vid=3dadb9f0-df40-4a1e-bc2e-89010622e5a3"},"vehicle_type_id":"4","last_reported":1714417532,"current_range_meters":800,"station_id":"ce4bgj12rcd13ifvqbc0","pricing_plan_id":"cebpf4jnsgd1na2vs0mg"},{"bike_id":"a2b4ddee-e4d9-4360-8973-73b9fca89ccd","system_id":"levelo_inurba_marseille","lat":43.29912,"lon":5.3814,"is_reserved":false,"is_disabled":false,"rental_uris":{"android":"levelo://app?vid=a2b4ddee-e4d9-4360-8973-73b9fca89ccd","ios":"levelo://app?vid=a2b4ddee-e4d9-4360-8973-73b9fca89ccd"},"vehicle_type_id":"4","last_reported":1714417532,"current_range_meters":0,"station_id":"ce4bgj12rcd13ifvqbc0","pricing_plan_id":"cebpf4jnsgd1na2vs0mg"},{"bike_id":"cf472e77-4f9e-4957-85a6-8ce13666956f","system_id":"levelo_inurba_marseille","lat":43.30957,"lon":5.390207,"is_reserved":false,"is_disabled":false,"rental_uris":{"android":"levelo://app?vid=cf472e77-4f9e-4957-85a6-8ce13666956f","ios":"levelo://app?vid=cf472e77-4f9e-4957-85a6-8ce13666956f"},"vehicle_type_id":"4","last_reported":1714417532,"current_range_meters":0,"station_id":"ce4bgup2rcd13ifvqco0","pricing_plan_id":"cebpf4jnsgd1na2vs0mg"},{"bike_id":"ab443b2a-a7e2-4afa-b9b8-e2679e843b9e","system_id":"levelo_inurba_marseille","lat":43.29913,"lon":5.3816,"is_reserved":false,"is_disabled":false,"rental_uris":{"android":"levelo://app?vid=ab443b2a-a7e2-4afa-b9b8-e2679e843b9e","ios":"levelo://app?vid=ab443b2a-a7e2-4afa-b9b8-e2679e843b9e"},"vehicle_type_id":"4","last_reported":1714417532,"current_range_meters":0,"station_id":"ce4bgj12rcd13ifvqbc0","pricing_plan_id":"cebpf4jnsgd1na2vs0mg"},{"bike_id":"50724f85-9ec1-4499-9fa1-985ab63919ec","system_id":"levelo_inurba_marseille","lat":43.296921,"lon":5.376579,"is_reserved":false,"is_disabled":false,"rental_uris":{"android":"levelo://app?vid=50724f85-9ec1-4499-9fa1-985ab63919ec","ios":"levelo://app?vid=50724f85-9ec1-4499-9fa1-985ab63919ec"},"vehicle_type_id":"4","last_reported":1714417532,"current_range_meters":5600,"station_id":"ce4bgkh2rcd13ifvqbl0","pricing_plan_id":"cebpf4jnsgd1na2vs0mg"},{"bike_id":"143c7cad-e466-494d-b120-2753bfb38726","system_id":"levelo_inurba_marseille","lat":43.309589,"lon":5.390258,"is_reserved":false,"is_disabled":false,"rental_uris":{"android":"levelo://app?vid=143c7cad-e466-494d-b120-2753bfb38726","ios":"levelo://app?vid=143c7cad-e466-494d-b120-2753bfb38726"},"vehicle_type_id":"4","last_reported":1714417532,"current_range_meters":8800,"station_id":"ce4bgup2rcd13ifvqco0","pricing_plan_id":"cebpf4jnsgd1na2vs0mg"},{"bike_id":"3dde9fc9-89bb-4fb1-ba75-ebea88f685f8","system_id":"levelo_inurba_marseille","lat":43.290336,"lon":5.386425,"is_reserved":false,"is_disabled":false,"rental_uris":{"android":"levelo://app?vid=3dde9fc9-89bb-4fb1-ba75-ebea88f685f8","ios":"levelo://app?vid=3dde9fc9-89bb-4fb1-ba75-ebea88f685f8"},"vehicle_type_id":"4","last_reported":1714417532,"current_range_meters":0,"station_id":"ce4bh4p2rcd13ifvqe0g","pricing_plan_id":"cebpf4jnsgd1na2vs0mg"},{"bike_id":"d48c01b5-ae45-446d-9ea9-05ec2dd84bd9","system_id":"levelo_inurba_marseille","lat":43.309589,"lon":5.390258,"is_reserved":false,"is_disabled":false,"rental_uris":{"android":"levelo://app?vid=d48c01b5-ae45-446d-9ea9-05ec2dd84bd9","ios":"levelo://app?vid=d48c01b5-ae45-446d-9ea9-05ec2dd84bd9"},"vehicle_type_id":"4","last_reported":1714417532,"current_range_meters":9200,"station_id":"ce4bgup2rcd13ifvqco0","pricing_plan_id":"cebpf4jnsgd1na2vs0mg"},{"bike_id":"2c945302-c1d5-4f69-8fa8-a8870f123b5a","system_id":"levelo_inurba_marseille","lat":43.317557,"lon":5.390173,"is_reserved":false,"is_disabled":false,"rental_uris":{"android":"levelo://app?vid=2c945302-c1d5-4f69-8fa8-a8870f123b5a","ios":"levelo://app?vid=2c945302-c1d5-4f69-8fa8-a8870f123b5a"},"vehicle_type_id":"4","last_reported":1714417532,"current_range_meters":5600,"station_id":"ce4bhqp2rcd13ifvqhng","pricing_plan_id":"cebpf4jnsgd1na2vs0mg"},{"bike_id":"d63bbd91-6e5f-4d34-93e8-eb3619db06a8","system_id":"levelo_inurba_marseille","lat":43.317557,"lon":5.390173,"is_reserved":false,"is_disabled":false,"rental_uris":{"android":"levelo://app?vid=d63bbd91-6e5f-4d34-93e8-eb3619db06a8","ios":"levelo://app?vid=d63bbd91-6e5f-4d34-93e8-eb3619db06a8"},"vehicle_type_id":"4","last_reported":1714417532,"current_range_meters":23200,"station_id":"ce4bhqp2rcd13ifvqhng","pricing_plan_id":"cebpf4jnsgd1na2vs0mg"},{"bike_id":"a210f509-a231-4e66-9ab8-4cb8c544e300","system_id":"levelo_inurba_marseille","lat":43.317557,"lon":5.390173,"is_reserved":false,"is_disabled":false,"rental_uris":{"android":"levelo://app?vid=a210f509-a231-4e66-9ab8-4cb8c544e300","ios":"levelo://app?vid=a210f509-a231-4e66-9ab8-4cb8c544e300"},"vehicle_type_id":"4","last_reported":1714417532,"current_range_meters":23200,"station_id":"ce4bhqp2rcd13ifvqhng","pricing_plan_id":"cebpf4jnsgd1na2vs0mg"},{"bike_id":"c53d716a-cdec-41a4-a6f3-72219a5ee3a5","system_id":"levelo_inurba_marseille","lat":43.317557,"lon":5.390173,"is_reserved":false,"is_disabled":false,"rental_uris":{"android":"levelo://app?vid=c53d716a-cdec-41a4-a6f3-72219a5ee3a5","ios":"levelo://app?vid=c53d716a-cdec-41a4-a6f3-72219a5ee3a5"},"vehicle_type_id":"4","last_reported":1714417532,"current_range_meters":12800,"station_id":"ce4bhqp2rcd13ifvqhng","pricing_plan_id":"cebpf4jnsgd1na2vs0mg"},{"bike_id":"ab0d2e41-fdad-4489-beb8-58ccc13d9420","system_id":"levelo_inurba_marseille","lat":43.317557,"lon":5.390173,"is_reserved":false,"is_disabled":false,"rental_uris":{"android":"levelo://app?vid=ab0d2e41-fdad-4489-beb8-58ccc13d9420","ios":"levelo://app?vid=ab0d2e41-fdad-4489-beb8-58ccc13d9420"},"vehicle_type_id":"4","last_reported":1714417532,"current_range_meters":4400,"station_id":"ce4bhqp2rcd13ifvqhng","pricing_plan_id":"cebpf4jnsgd1na2vs0mg"},{"bike_id":"34fa1cb8-d6c4-4996-b288-134de4a53dd8","system_id":"levelo_inurba_marseille","lat":43.317557,"lon":5.390173,"is_reserved":false,"is_disabled":false,"rental_uris":{"android":"levelo://app?vid=34fa1cb8-d6c4-4996-b288-134de4a53dd8","ios":"levelo://app?vid=34fa1cb8-d6c4-4996-b288-134de4a53dd8"},"vehicle_type_id":"4","last_reported":1714417532,"current_range_meters":10800,"station_id":"ce4bhqp2rcd13ifvqhng","pricing_plan_id":"cebpf4jnsgd1na2vs0mg"},{"bike_id":"a6f7ad73-c585-4e2d-8a35-6604a83b7104","system_id":"levelo_inurba_marseille","lat":43.317557,"lon":5.390173,"is_reserved":false,"is_disabled":false,"rental_uris":{"android":"levelo://app?vid=a6f7ad73-c585-4e2d-8a35-6604a83b7104","ios":"levelo://app?vid=a6f7ad73-c585-4e2d-8a35-6604a83b7104"},"vehicle_type_id":"4","last_reported":1714417532,"current_range_meters":5200,"station_id":"ce4bhqp2rcd13ifvqhng","pricing_plan_id":"cebpf4jnsgd1na2vs0mg"},{"bike_id":"3312060f-961b-4e89-ba23-464e92092e30","system_id":"levelo_inurba_marseille","lat":43.317557,"lon":5.390173,"is_reserved":false,"is_disabled":false,"rental_uris":{"android":"levelo://app?vid=3312060f-961b-4e89-ba23-464e92092e30","ios":"levelo://app?vid=3312060f-961b-4e89-ba23-464e92092e30"},"vehicle_type_id":"4","last_reported":1714417532,"current_range_meters":3200,"station_id":"ce4bhqp2rcd13ifvqhng","pricing_plan_id":"cebpf4jnsgd1na2vs0mg"},{"bike_id":"0381cdcb-ebbd-48d0-a9b0-cf07d8bd5cee","system_id":"levelo_inurba_marseille","lat":43.317557,"lon":5.390173,"is_reserved":false,"is_disabled":false,"rental_uris":{"android":"levelo://app?vid=0381cdcb-ebbd-48d0-a9b0-cf07d8bd5cee","ios":"levelo://app?vid=0381cdcb-ebbd-48d0-a9b0-cf07d8bd5cee"},"vehicle_type_id":"4","last_reported":1714417532,"current_range_meters":17600,"station_id":"ce4bhqp2rcd13ifvqhng","pricing_plan_id":"cebpf4jnsgd1na2vs0mg"},{"bike_id":"8862cb81-7bdf-40db-af2b-9e8876463bc5","system_id":"levelo_inurba_marseille","lat":43.317557,"lon":5.390173,"is_reserved":false,"is_disabled":false,"rental_uris":{"android":"levelo://app?vid=8862cb81-7bdf-40db-af2b-9e8876463bc5","ios":"levelo://app?vid=8862cb81-7bdf-40db-af2b-9e8876463bc5"},"vehicle_type_id":"4","last_reported":1714417532,"current_range_meters":10400,"station_id":"ce4bhqp2rcd13ifvqhng","pricing_plan_id":"cebpf4jnsgd1na2vs0mg"},{"bike_id":"6f0bd85b-049d-4003-a913-11e472322e13","system_id":"levelo_inurba_marseille","lat":43.295748,"lon":5.37522,"is_reserved":false,"is_disabled":false,"rental_uris":{"android":"levelo://app?vid=6f0bd85b-049d-4003-a913-11e472322e13","ios":"levelo://app?vid=6f0bd85b-049d-4003-a913-11e472322e13"},"vehicle_type_id":"4","last_reported":1714417532,"current_range_meters":31200,"station_id":"ce4bgh92rcd13ifvqb50","pricing_plan_id":"cebpf4jnsgd1na2vs0mg"},{"bike_id":"2e908aa6-1aa3-4f2a-a3ae-8438cd76811d","system_id":"levelo_inurba_marseille","lat":43.298037,"lon":5.381066,"is_reserved":false,"is_disabled":false,"rental_uris":{"android":"levelo://app?vid=2e908aa6-1aa3-4f2a-a3ae-8438cd76811d","ios":"levelo://app?vid=2e908aa6-1aa3-4f2a-a3ae-8438cd76811d"},"vehicle_type_id":"4","last_reported":1714417532,"current_range_meters":4400,"station_id":"ce4bgip2rcd13ifvqbb0","pricing_plan_id":"cebpf4jnsgd1na2vs0mg"},{"bike_id":"9aeec80b-5e2d-4cae-858b-b9cc4e4dc6a4","system_id":"levelo_inurba_marseille","lat":43.296263,"lon":5.377094,"is_reserved":false,"is_disabled":false,"rental_uris":{"android":"levelo://app?vid=9aeec80b-5e2d-4cae-858b-b9cc4e4dc6a4","ios":"levelo://app?vid=9aeec80b-5e2d-4cae-858b-b9cc4e4dc6a4"},"vehicle_type_id":"4","last_reported":1714417532,"current_range_meters":2800,"station_id":"ce4bgi92rcd13ifvqb90","pricing_plan_id":"cebpf4jnsgd1na2vs0mg"},{"bike_id":"a5c26fc5-3483-4a3d-bec3-2d266692c03b","system_id":"levelo_inurba_marseille","lat":43.304278,"lon":5.388868,"is_reserved":false,"is_disabled":false,"rental_uris":{"android":"levelo://app?vid=a5c26fc5-3483-4a3d-bec3-2d266692c03b","ios":"levelo://app?vid=a5c26fc5-3483-4a3d-bec3-2d266692c03b"},"vehicle_type_id":"4","last_reported":1714417532,"current_range_meters":28800,"station_id":"ce4bgk12rcd13ifvqbi0","pricing_plan_id":"cebpf4jnsgd1na2vs0mg"},{"bike_id":"18bce9cf-4c03-4749-95ce-4dc5cd60bf41","system_id":"levelo_inurba_marseille","lat":43.298037,"lon":5.381066,"is_reserved":false,"is_disabled":false,"rental_uris":{"android":"levelo://app?vid=18bce9cf-4c03-4749-95ce-4dc5cd60bf41","ios":"levelo://app?vid=18bce9cf-4c03-4749-95ce-4dc5cd60bf41"},"vehicle_type_id":"4","last_reported":1714417532,"current_range_meters":29200,"station_id":"ce4bgip2rcd13ifvqbb0","pricing_plan_id":"cebpf4jnsgd1na2vs0mg"},{"bike_id":"cf91edd0-acc0-46fb-ad7b-967a260b1436","system_id":"levelo_inurba_marseille","lat":43.296158,"lon":5.377193,"is_reserved":false,"is_disabled":false,"rental_uris":{"android":"levelo://app?vid=cf91edd0-acc0-46fb-ad7b-967a260b1436","ios":"levelo://app?vid=cf91edd0-acc0-46fb-ad7b-967a260b1436"},"vehicle_type_id":"4","last_reported":1714417532,"current_range_meters":0,"station_id":"ce4bgi92rcd13ifvqb90","pricing_plan_id":"cebpf4jnsgd1na2vs0mg"},{"bike_id":"9ed7f259-ecd8-4739-9c3a-49be90e40870","system_id":"levelo_inurba_marseille","lat":43.296277,"lon":5.377108,"is_reserved":false,"is_disabled":false,"rental_uris":{"android":"levelo://app?vid=9ed7f259-ecd8-4739-9c3a-49be90e40870","ios":"levelo://app?vid=9ed7f259-ecd8-4739-9c3a-49be90e40870"},"vehicle_type_id":"4","last_reported":1714417532,"current_range_meters":0,"station_id":"ce4bgi92rcd13ifvqb90","pricing_plan_id":"cebpf4jnsgd1na2vs0mg"},{"bike_id":"ced9ec54-4987-4fa2-bfae-0a77a1f75ab5","system_id":"levelo_inurba_marseille","lat":43.298037,"lon":5.381066,"is_reserved":false,"is_disabled":false,"rental_uris":{"android":"levelo://app?vid=ced9ec54-4987-4fa2-bfae-0a77a1f75ab5","ios":"levelo://app?vid=ced9ec54-4987-4fa2-bfae-0a77a1f75ab5"},"vehicle_type_id":"4","last_reported":1714417532,"current_range_meters":8000,"station_id":"ce4bgip2rcd13ifvqbb0","pricing_plan_id":"cebpf4jnsgd1na2vs0mg"},{"bike_id":"1443f249-6a62-4008-bd60-6ff929310edf","system_id":"levelo_inurba_marseille","lat":43.305989,"lon":5.37225,"is_reserved":false,"is_disabled":false,"rental_uris":{"android":"levelo://app?vid=1443f249-6a62-4008-bd60-6ff929310edf","ios":"levelo://app?vid=1443f249-6a62-4008-bd60-6ff929310edf"},"vehicle_type_id":"4","last_reported":1714417532,"current_range_meters":15600,"station_id":"ce4bgqh2rcd13ifvqc4g","pricing_plan_id":"cebpf4jnsgd1na2vs0mg"},{"bike_id":"51a25de1-6f0a-44e7-9f0f-0a0a1a2fee5f","system_id":"levelo_inurba_marseille","lat":43.299757,"lon":5.384843,"is_reserved":false,"is_disabled":false,"rental_uris":{"android":"levelo://app?vid=51a25de1-6f0a-44e7-9f0f-0a0a1a2fee5f","ios":"levelo://app?vid=51a25de1-6f0a-44e7-9f0f-0a0a1a2fee5f"},"vehicle_type_id":"4","last_reported":1714417532,"current_range_meters":0,"station_id":"","pricing_plan_id":"cebpf4jnsgd1na2vs0mg"},{"bike_id":"629a0359-38b2-4959-93e8-44ca5f587c91","system_id":"levelo_inurba_marseille","lat":43.29972,"lon":5.38485,"is_reserved":false,"is_disabled":false,"rental_uris":{"android":"levelo://app?vid=629a0359-38b2-4959-93e8-44ca5f587c91","ios":"levelo://app?vid=629a0359-38b2-4959-93e8-44ca5f587c91"},"vehicle_type_id":"4","last_reported":1714417532,"current_range_meters":4000,"station_id":"ce4bgj92rcd13ifvqbd0","pricing_plan_id":"cebpf4jnsgd1na2vs0mg"},{"bike_id":"f50dce22-be4a-4d8a-9fd4-66a5ef9fda71","system_id":"levelo_inurba_marseille","lat":43.29965,"lon":5.38494,"is_reserved":false,"is_disabled":false,"rental_uris":{"android":"levelo://app?vid=f50dce22-be4a-4d8a-9fd4-66a5ef9fda71","ios":"levelo://app?vid=f50dce22-be4a-4d8a-9fd4-66a5ef9fda71"},"vehicle_type_id":"4","last_reported":1714417532,"current_range_meters":0,"station_id":"ce4bgj92rcd13ifvqbd0","pricing_plan_id":"cebpf4jnsgd1na2vs0mg"},{"bike_id":"653a2490-b5d8-4d40-b211-23e2d5b77e98","system_id":"levelo_inurba_marseille","lat":43.289184,"lon":5.366408,"is_reserved":false,"is_disabled":false,"rental_uris":{"android":"levelo://app?vid=653a2490-b5d8-4d40-b211-23e2d5b77e98","ios":"levelo://app?vid=653a2490-b5d8-4d40-b211-23e2d5b77e98"},"vehicle_type_id":"4","last_reported":1714417532,"current_range_meters":7600,"station_id":"ce4bhap2rcd13ifvqek0","pricing_plan_id":"cebpf4jnsgd1na2vs0mg"},{"bike_id":"eca2410f-c13e-4b1a-b7ce-1b86e310060b","system_id":"levelo_inurba_marseille","lat":43.299717,"lon":5.384845,"is_reserved":false,"is_disabled":false,"rental_uris":{"android":"levelo://app?vid=eca2410f-c13e-4b1a-b7ce-1b86e310060b","ios":"levelo://app?vid=eca2410f-c13e-4b1a-b7ce-1b86e310060b"},"vehicle_type_id":"4","last_reported":1714417532,"current_range_meters":2400,"station_id":"ce4bgj92rcd13ifvqbd0","pricing_plan_id":"cebpf4jnsgd1na2vs0mg"},{"bike_id":"bfa3348f-2baa-463e-8285-b7dc1340e1e2","system_id":"levelo_inurba_marseille","lat":43.308012,"lon":5.381511,"is_reserved":false,"is_disabled":false,"rental_uris":{"android":"levelo://app?vid=bfa3348f-2baa-463e-8285-b7dc1340e1e2","ios":"levelo://app?vid=bfa3348f-2baa-463e-8285-b7dc1340e1e2"},"vehicle_type_id":"4","last_reported":1714417532,"current_range_meters":6800,"station_id":"ce4bgt12rcd13ifvqce0","pricing_plan_id":"cebpf4jnsgd1na2vs0mg"},{"bike_id":"412cae72-9b5f-466b-91c4-921a36268d42","system_id":"levelo_inurba_marseille","lat":43.299724,"lon":5.384848,"is_reserved":false,"is_disabled":false,"rental_uris":{"android":"levelo://app?vid=412cae72-9b5f-466b-91c4-921a36268d42","ios":"levelo://app?vid=412cae72-9b5f-466b-91c4-921a36268d42"},"vehicle_type_id":"4","last_reported":1714417532,"current_range_meters":0,"station_id":"ce4bgj92rcd13ifvqbd0","pricing_plan_id":"cebpf4jnsgd1na2vs0mg"},{"bike_id":"73b37800-277b-4d68-afd4-4b2ddd3b798e","system_id":"levelo_inurba_marseille","lat":43.296156,"lon":5.37963,"is_reserved":false,"is_disabled":false,"rental_uris":{"android":"levelo://app?vid=73b37800-277b-4d68-afd4-4b2ddd3b798e","ios":"levelo://app?vid=73b37800-277b-4d68-afd4-4b2ddd3b798e"},"vehicle_type_id":"4","last_reported":1714417532,"current_range_meters":6800,"station_id":"","pricing_plan_id":"cebpf4jnsgd1na2vs0mg"},{"bike_id":"1e90664a-dafe-4aeb-9f16-5ddf47cf772f","system_id":"levelo_inurba_marseille","lat":43.29652,"lon":5.38125,"is_reserved":false,"is_disabled":false,"rental_uris":{"android":"levelo://app?vid=1e90664a-dafe-4aeb-9f16-5ddf47cf772f","ios":"levelo://app?vid=1e90664a-dafe-4aeb-9f16-5ddf47cf772f"},"vehicle_type_id":"4","last_reported":1714417532,"current_range_meters":23600,"station_id":"","pricing_plan_id":"cebpf4jnsgd1na2vs0mg"},{"bike_id":"063e3121-e52b-4a7e-86f1-0f26b9f69773","system_id":"levelo_inurba_marseille","lat":43.32364,"lon":5.38884,"is_reserved":false,"is_disabled":false,"rental_uris":{"android":"levelo://app?vid=063e3121-e52b-4a7e-86f1-0f26b9f69773","ios":"levelo://app?vid=063e3121-e52b-4a7e-86f1-0f26b9f69773"},"vehicle_type_id":"4","last_reported":1714417532,"current_range_meters":0,"station_id":"ce4bhqp2rcd13ifvqhog","pricing_plan_id":"cebpf4jnsgd1na2vs0mg"},{"bike_id":"cdb9b4c0-b1f7-4c28-8c72-c3fba037cf28","system_id":"levelo_inurba_marseille","lat":43.32368,"lon":5.38882,"is_reserved":false,"is_disabled":false,"rental_uris":{"android":"levelo://app?vid=cdb9b4c0-b1f7-4c28-8c72-c3fba037cf28","ios":"levelo://app?vid=cdb9b4c0-b1f7-4c28-8c72-c3fba037cf28"},"vehicle_type_id":"4","last_reported":1714417532,"current_range_meters":2400,"station_id":"ce4bhqp2rcd13ifvqhog","pricing_plan_id":"cebpf4jnsgd1na2vs0mg"},{"bike_id":"087d8383-b66d-48b4-b066-be0321234331","system_id":"levelo_inurba_marseille","lat":43.32367,"lon":5.388836,"is_reserved":false,"is_disabled":false,"rental_uris":{"android":"levelo://app?vid=087d8383-b66d-48b4-b066-be0321234331","ios":"levelo://app?vid=087d8383-b66d-48b4-b066-be0321234331"},"vehicle_type_id":"4","last_reported":1714417532,"current_range_meters":0,"station_id":"ce4bhqp2rcd13ifvqhog","pricing_plan_id":"cebpf4jnsgd1na2vs0mg"},{"bike_id":"32d9b063-7292-4386-9a8e-7d0d8cd0efeb","system_id":"levelo_inurba_marseille","lat":43.32367,"lon":5.38886,"is_reserved":false,"is_disabled":false,"rental_uris":{"android":"levelo://app?vid=32d9b063-7292-4386-9a8e-7d0d8cd0efeb","ios":"levelo://app?vid=32d9b063-7292-4386-9a8e-7d0d8cd0efeb"},"vehicle_type_id":"4","last_reported":1714417532,"current_range_meters":0,"station_id":"ce4bhqp2rcd13ifvqhog","pricing_plan_id":"cebpf4jnsgd1na2vs0mg"},{"bike_id":"64f12ff7-9334-47a3-af3a-48efca30762e","system_id":"levelo_inurba_marseille","lat":43.32367,"lon":5.388836,"is_reserved":false,"is_disabled":false,"rental_uris":{"android":"levelo://app?vid=64f12ff7-9334-47a3-af3a-48efca30762e","ios":"levelo://app?vid=64f12ff7-9334-47a3-af3a-48efca30762e"},"vehicle_type_id":"4","last_reported":1714417532,"current_range_meters":27600,"station_id":"ce4bhqp2rcd13ifvqhog","pricing_plan_id":"cebpf4jnsgd1na2vs0mg"},{"bike_id":"d2e3530a-4454-4809-9fb4-7fa2a4fd47b8","system_id":"levelo_inurba_marseille","lat":43.29605,"lon":5.38102,"is_reserved":false,"is_disabled":false,"rental_uris":{"android":"levelo://app?vid=d2e3530a-4454-4809-9fb4-7fa2a4fd47b8","ios":"levelo://app?vid=d2e3530a-4454-4809-9fb4-7fa2a4fd47b8"},"vehicle_type_id":"4","last_reported":1714417532,"current_range_meters":0,"station_id":"ce4bgl12rcd13ifvqbo0","pricing_plan_id":"cebpf4jnsgd1na2vs0mg"},{"bike_id":"75c9d737-4729-49b0-bf13-1e11c7c3a2a5","system_id":"levelo_inurba_marseille","lat":43.29602,"lon":5.381084,"is_reserved":false,"is_disabled":false,"rental_uris":{"android":"levelo://app?vid=75c9d737-4729-49b0-bf13-1e11c7c3a2a5","ios":"levelo://app?vid=75c9d737-4729-49b0-bf13-1e11c7c3a2a5"},"vehicle_type_id":"4","last_reported":1714417532,"current_range_meters":8000,"station_id":"ce4bgl12rcd13ifvqbo0","pricing_plan_id":"cebpf4jnsgd1na2vs0mg"},{"bike_id":"3190e011-9d54-48c3-8df4-24c375041388","system_id":"levelo_inurba_marseille","lat":43.292749,"lon":5.368402,"is_reserved":false,"is_disabled":false,"rental_uris":{"android":"levelo://app?vid=3190e011-9d54-48c3-8df4-24c375041388","ios":"levelo://app?vid=3190e011-9d54-48c3-8df4-24c375041388"},"vehicle_type_id":"4","last_reported":1714417532,"current_range_meters":25600,"station_id":"ce4bhbp2rcd13ifvqesg","pricing_plan_id":"cebpf4jnsgd1na2vs0mg"},{"bike_id":"d74342b1-35b0-4d3c-8048-dcd67bddd97d","system_id":"levelo_inurba_marseille","lat":43.293009,"lon":5.374584,"is_reserved":false,"is_disabled":false,"rental_uris":{"android":"levelo://app?vid=d74342b1-35b0-4d3c-8048-dcd67bddd97d","ios":"levelo://app?vid=d74342b1-35b0-4d3c-8048-dcd67bddd97d"},"vehicle_type_id":"4","last_reported":1714417532,"current_range_meters":9600,"station_id":"ce4bgi12rcd13ifvqb70","pricing_plan_id":"cebpf4jnsgd1na2vs0mg"},{"bike_id":"543c74a0-e4c3-4c7a-98a4-e6afcfc9d2a9","system_id":"levelo_inurba_marseille","lat":43.305994,"lon":5.393687,"is_reserved":false,"is_disabled":false,"rental_uris":{"android":"levelo://app?vid=543c74a0-e4c3-4c7a-98a4-e6afcfc9d2a9","ios":"levelo://app?vid=543c74a0-e4c3-4c7a-98a4-e6afcfc9d2a9"},"vehicle_type_id":"4","last_reported":1714417532,"current_range_meters":9600,"station_id":"ce4bh0p2rcd13ifvqd80","pricing_plan_id":"cebpf4jnsgd1na2vs0mg"},{"bike_id":"baae7751-26b6-4c82-bd66-57da5e5ff1f9","system_id":"levelo_inurba_marseille","lat":43.302992,"lon":5.392136,"is_reserved":false,"is_disabled":false,"rental_uris":{"android":"levelo://app?vid=baae7751-26b6-4c82-bd66-57da5e5ff1f9","ios":"levelo://app?vid=baae7751-26b6-4c82-bd66-57da5e5ff1f9"},"vehicle_type_id":"4","last_reported":1714417532,"current_range_meters":13600,"station_id":"ce4bgkh2rcd13ifvqbk0","pricing_plan_id":"cebpf4jnsgd1na2vs0mg"},{"bike_id":"0787831f-8843-4785-b5e3-32fccdff87de","system_id":"levelo_inurba_marseille","lat":43.305994,"lon":5.393687,"is_reserved":false,"is_disabled":false,"rental_uris":{"android":"levelo://app?vid=0787831f-8843-4785-b5e3-32fccdff87de","ios":"levelo://app?vid=0787831f-8843-4785-b5e3-32fccdff87de"},"vehicle_type_id":"4","last_reported":1714417532,"current_range_meters":23600,"station_id":"ce4bh0p2rcd13ifvqd80","pricing_plan_id":"cebpf4jnsgd1na2vs0mg"},{"bike_id":"482697f4-d9f8-4f8c-9bf3-a2c30dc3bb31","system_id":"levelo_inurba_marseille","lat":43.302992,"lon":5.392136,"is_reserved":false,"is_disabled":false,"rental_uris":{"android":"levelo://app?vid=482697f4-d9f8-4f8c-9bf3-a2c30dc3bb31","ios":"levelo://app?vid=482697f4-d9f8-4f8c-9bf3-a2c30dc3bb31"},"vehicle_type_id":"4","last_reported":1714417532,"current_range_meters":1600,"station_id":"ce4bgkh2rcd13ifvqbk0","pricing_plan_id":"cebpf4jnsgd1na2vs0mg"},{"bike_id":"ae58078f-cf7d-41d3-a847-f5e998644713","system_id":"levelo_inurba_marseille","lat":43.303002,"lon":5.392142,"is_reserved":false,"is_disabled":false,"rental_uris":{"android":"levelo://app?vid=ae58078f-cf7d-41d3-a847-f5e998644713","ios":"levelo://app?vid=ae58078f-cf7d-41d3-a847-f5e998644713"},"vehicle_type_id":"4","last_reported":1714417532,"current_range_meters":24000,"station_id":"ce4bgkh2rcd13ifvqbk0","pricing_plan_id":"cebpf4jnsgd1na2vs0mg"},{"bike_id":"c10bb9ee-3c1d-47c3-8743-c7925ee13e12","system_id":"levelo_inurba_marseille","lat":43.298764,"lon":5.388973,"is_reserved":false,"is_disabled":false,"rental_uris":{"android":"levelo://app?vid=c10bb9ee-3c1d-47c3-8743-c7925ee13e12","ios":"levelo://app?vid=c10bb9ee-3c1d-47c3-8743-c7925ee13e12"},"vehicle_type_id":"4","last_reported":1714417532,"current_range_meters":0,"station_id":"ce4bh392rcd13ifvqdl0","pricing_plan_id":"cebpf4jnsgd1na2vs0mg"},{"bike_id":"16318c6d-08d5-407b-b75d-15b5649210b5","system_id":"levelo_inurba_marseille","lat":43.2936,"lon":5.37835,"is_reserved":false,"is_disabled":false,"rental_uris":{"android":"levelo://app?vid=16318c6d-08d5-407b-b75d-15b5649210b5","ios":"levelo://app?vid=16318c6d-08d5-407b-b75d-15b5649210b5"},"vehicle_type_id":"4","last_reported":1714417532,"current_range_meters":30000,"station_id":"ce4bgjh2rcd13ifvqbf0","pricing_plan_id":"cebpf4jnsgd1na2vs0mg"},{"bike_id":"b32eb10c-986d-4392-8fd8-999357008ee8","system_id":"levelo_inurba_marseille","lat":43.2936,"lon":5.37835,"is_reserved":false,"is_disabled":false,"rental_uris":{"android":"levelo://app?vid=b32eb10c-986d-4392-8fd8-999357008ee8","ios":"levelo://app?vid=b32eb10c-986d-4392-8fd8-999357008ee8"},"vehicle_type_id":"4","last_reported":1714417532,"current_range_meters":27600,"station_id":"ce4bgjh2rcd13ifvqbf0","pricing_plan_id":"cebpf4jnsgd1na2vs0mg"},{"bike_id":"de26972b-bf1e-4b34-b5a7-1afe24762adb","system_id":"levelo_inurba_marseille","lat":43.302992,"lon":5.392136,"is_reserved":false,"is_disabled":false,"rental_uris":{"android":"levelo://app?vid=de26972b-bf1e-4b34-b5a7-1afe24762adb","ios":"levelo://app?vid=de26972b-bf1e-4b34-b5a7-1afe24762adb"},"vehicle_type_id":"4","last_reported":1714417532,"current_range_meters":3200,"station_id":"ce4bgkh2rcd13ifvqbk0","pricing_plan_id":"cebpf4jnsgd1na2vs0mg"},{"bike_id":"433b0005-867c-4ddf-98c6-8a718b6f6dc2","system_id":"levelo_inurba_marseille","lat":43.300852,"lon":5.390859,"is_reserved":false,"is_disabled":false,"rental_uris":{"android":"levelo://app?vid=433b0005-867c-4ddf-98c6-8a718b6f6dc2","ios":"levelo://app?vid=433b0005-867c-4ddf-98c6-8a718b6f6dc2"},"vehicle_type_id":"4","last_reported":1714417532,"current_range_meters":8800,"station_id":"ce4bh192rcd13ifvqdb0","pricing_plan_id":"cebpf4jnsgd1na2vs0mg"},{"bike_id":"d19b95aa-b45c-49ce-8c0e-f3ce7515e227","system_id":"levelo_inurba_marseille","lat":43.300852,"lon":5.390859,"is_reserved":false,"is_disabled":false,"rental_uris":{"android":"levelo://app?vid=d19b95aa-b45c-49ce-8c0e-f3ce7515e227","ios":"levelo://app?vid=d19b95aa-b45c-49ce-8c0e-f3ce7515e227"},"vehicle_type_id":"4","last_reported":1714417532,"current_range_meters":19200,"station_id":"ce4bh192rcd13ifvqdb0","pricing_plan_id":"cebpf4jnsgd1na2vs0mg"},{"bike_id":"ca8945f0-219e-4f12-a796-a4ddf3184f0e","system_id":"levelo_inurba_marseille","lat":43.291671,"lon":5.371575,"is_reserved":false,"is_disabled":false,"rental_uris":{"android":"levelo://app?vid=ca8945f0-219e-4f12-a796-a4ddf3184f0e","ios":"levelo://app?vid=ca8945f0-219e-4f12-a796-a4ddf3184f0e"},"vehicle_type_id":"4","last_reported":1714417532,"current_range_meters":18800,"station_id":"ce4bha92rcd13ifvqeh0","pricing_plan_id":"cebpf4jnsgd1na2vs0mg"},{"bike_id":"25fd10be-4dfa-4386-aa94-ec64a38ae499","system_id":"levelo_inurba_marseille","lat":43.292311,"lon":5.360731,"is_reserved":false,"is_disabled":false,"rental_uris":{"android":"levelo://app?vid=25fd10be-4dfa-4386-aa94-ec64a38ae499","ios":"levelo://app?vid=25fd10be-4dfa-4386-aa94-ec64a38ae499"},"vehicle_type_id":"4","last_reported":1714417532,"current_range_meters":17200,"station_id":"ce4bhbh2rcd13ifvqeqg","pricing_plan_id":"cebpf4jnsgd1na2vs0mg"},{"bike_id":"bba2b2df-76f2-41df-84fd-5f43412761d2","system_id":"levelo_inurba_marseille","lat":43.292311,"lon":5.360731,"is_reserved":false,"is_disabled":false,"rental_uris":{"android":"levelo://app?vid=bba2b2df-76f2-41df-84fd-5f43412761d2","ios":"levelo://app?vid=bba2b2df-76f2-41df-84fd-5f43412761d2"},"vehicle_type_id":"4","last_reported":1714417532,"current_range_meters":0,"station_id":"ce4bhbh2rcd13ifvqeqg","pricing_plan_id":"cebpf4jnsgd1na2vs0mg"},{"bike_id":"594014a0-c090-40ea-b592-5a89b4ceae2d","system_id":"levelo_inurba_marseille","lat":43.30085,"lon":5.390856,"is_reserved":false,"is_disabled":false,"rental_uris":{"android":"levelo://app?vid=594014a0-c090-40ea-b592-5a89b4ceae2d","ios":"levelo://app?vid=594014a0-c090-40ea-b592-5a89b4ceae2d"},"vehicle_type_id":"4","last_reported":1714417532,"current_range_meters":8800,"station_id":"ce4bh192rcd13ifvqdb0","pricing_plan_id":"cebpf4jnsgd1na2vs0mg"},{"bike_id":"5d93b2b0-2159-4ebf-9b50-8daccff37ce2","system_id":"levelo_inurba_marseille","lat":43.292783,"lon":5.376237,"is_reserved":false,"is_disabled":false,"rental_uris":{"android":"levelo://app?vid=5d93b2b0-2159-4ebf-9b50-8daccff37ce2","ios":"levelo://app?vid=5d93b2b0-2159-4ebf-9b50-8daccff37ce2"},"vehicle_type_id":"4","last_reported":1714417532,"current_range_meters":19600,"station_id":"","pricing_plan_id":"cebpf4jnsgd1na2vs0mg"},{"bike_id":"5c57c915-9bd0-4409-a16a-59215b9fc796","system_id":"levelo_inurba_marseille","lat":43.298764,"lon":5.388973,"is_reserved":false,"is_disabled":false,"rental_uris":{"android":"levelo://app?vid=5c57c915-9bd0-4409-a16a-59215b9fc796","ios":"levelo://app?vid=5c57c915-9bd0-4409-a16a-59215b9fc796"},"vehicle_type_id":"4","last_reported":1714417532,"current_range_meters":10800,"station_id":"ce4bh392rcd13ifvqdl0","pricing_plan_id":"cebpf4jnsgd1na2vs0mg"},{"bike_id":"5bda9a79-38c7-4c01-9881-49c760af767d","system_id":"levelo_inurba_marseille","lat":43.298764,"lon":5.388973,"is_reserved":false,"is_disabled":false,"rental_uris":{"android":"levelo://app?vid=5bda9a79-38c7-4c01-9881-49c760af767d","ios":"levelo://app?vid=5bda9a79-38c7-4c01-9881-49c760af767d"},"vehicle_type_id":"4","last_reported":1714417532,"current_range_meters":0,"station_id":"ce4bh392rcd13ifvqdl0","pricing_plan_id":"cebpf4jnsgd1na2vs0mg"},{"bike_id":"60ed96fa-2aec-44dd-b62c-04bc6124f2f1","system_id":"levelo_inurba_marseille","lat":43.310804,"lon":5.38359,"is_reserved":false,"is_disabled":false,"rental_uris":{"android":"levelo://app?vid=60ed96fa-2aec-44dd-b62c-04bc6124f2f1","ios":"levelo://app?vid=60ed96fa-2aec-44dd-b62c-04bc6124f2f1"},"vehicle_type_id":"4","last_reported":1714417532,"current_range_meters":3600,"station_id":"ce4bgv92rcd13ifvqcr0","pricing_plan_id":"cebpf4jnsgd1na2vs0mg"},{"bike_id":"0fa59905-b1d0-4f53-9a5a-64c46f5c53e3","system_id":"levelo_inurba_marseille","lat":43.298764,"lon":5.388973,"is_reserved":false,"is_disabled":false,"rental_uris":{"android":"levelo://app?vid=0fa59905-b1d0-4f53-9a5a-64c46f5c53e3","ios":"levelo://app?vid=0fa59905-b1d0-4f53-9a5a-64c46f5c53e3"},"vehicle_type_id":"4","last_reported":1714417532,"current_range_meters":21600,"station_id":"ce4bh392rcd13ifvqdl0","pricing_plan_id":"cebpf4jnsgd1na2vs0mg"},{"bike_id":"2e83fba3-f2a9-43d8-bbd9-56def08b1699","system_id":"levelo_inurba_marseille","lat":43.298764,"lon":5.388973,"is_reserved":false,"is_disabled":false,"rental_uris":{"android":"levelo://app?vid=2e83fba3-f2a9-43d8-bbd9-56def08b1699","ios":"levelo://app?vid=2e83fba3-f2a9-43d8-bbd9-56def08b1699"},"vehicle_type_id":"4","last_reported":1714417532,"current_range_meters":13200,"station_id":"ce4bh392rcd13ifvqdl0","pricing_plan_id":"cebpf4jnsgd1na2vs0mg"},{"bike_id":"1dd05304-80e3-4cf1-819b-f6147a6ae56f","system_id":"levelo_inurba_marseille","lat":43.298764,"lon":5.388973,"is_reserved":false,"is_disabled":false,"rental_uris":{"android":"levelo://app?vid=1dd05304-80e3-4cf1-819b-f6147a6ae56f","ios":"levelo://app?vid=1dd05304-80e3-4cf1-819b-f6147a6ae56f"},"vehicle_type_id":"4","last_reported":1714417532,"current_range_meters":18000,"station_id":"ce4bh392rcd13ifvqdl0","pricing_plan_id":"cebpf4jnsgd1na2vs0mg"},{"bike_id":"f066ac3f-da69-4e71-a014-d2d0f5d7edb3","system_id":"levelo_inurba_marseille","lat":43.298764,"lon":5.388973,"is_reserved":false,"is_disabled":false,"rental_uris":{"android":"levelo://app?vid=f066ac3f-da69-4e71-a014-d2d0f5d7edb3","ios":"levelo://app?vid=f066ac3f-da69-4e71-a014-d2d0f5d7edb3"},"vehicle_type_id":"4","last_reported":1714417532,"current_range_meters":3600,"station_id":"ce4bh392rcd13ifvqdl0","pricing_plan_id":"cebpf4jnsgd1na2vs0mg"},{"bike_id":"e8dfbcf2-f81a-42b3-a7e2-9b39b42c5552","system_id":"levelo_inurba_marseille","lat":43.298764,"lon":5.388973,"is_reserved":false,"is_disabled":false,"rental_uris":{"android":"levelo://app?vid=e8dfbcf2-f81a-42b3-a7e2-9b39b42c5552","ios":"levelo://app?vid=e8dfbcf2-f81a-42b3-a7e2-9b39b42c5552"},"vehicle_type_id":"4","last_reported":1714417532,"current_range_meters":400,"station_id":"ce4bh392rcd13ifvqdl0","pricing_plan_id":"cebpf4jnsgd1na2vs0mg"},{"bike_id":"668a459b-167b-4dd6-a6a7-877c62a56a1f","system_id":"levelo_inurba_marseille","lat":43.298764,"lon":5.388973,"is_reserved":false,"is_disabled":false,"rental_uris":{"android":"levelo://app?vid=668a459b-167b-4dd6-a6a7-877c62a56a1f","ios":"levelo://app?vid=668a459b-167b-4dd6-a6a7-877c62a56a1f"},"vehicle_type_id":"4","last_reported":1714417532,"current_range_meters":8000,"station_id":"ce4bh392rcd13ifvqdl0","pricing_plan_id":"cebpf4jnsgd1na2vs0mg"},{"bike_id":"942f4c2e-6bc8-4522-b312-b846782e3ec5","system_id":"levelo_inurba_marseille","lat":43.298764,"lon":5.388973,"is_reserved":false,"is_disabled":false,"rental_uris":{"android":"levelo://app?vid=942f4c2e-6bc8-4522-b312-b846782e3ec5","ios":"levelo://app?vid=942f4c2e-6bc8-4522-b312-b846782e3ec5"},"vehicle_type_id":"4","last_reported":1714417532,"current_range_meters":12400,"station_id":"ce4bh392rcd13ifvqdl0","pricing_plan_id":"cebpf4jnsgd1na2vs0mg"},{"bike_id":"322e4767-b117-42f7-bb80-9928f8900292","system_id":"levelo_inurba_marseille","lat":43.292005,"lon":5.357875,"is_reserved":false,"is_disabled":false,"rental_uris":{"android":"levelo://app?vid=322e4767-b117-42f7-bb80-9928f8900292","ios":"levelo://app?vid=322e4767-b117-42f7-bb80-9928f8900292"},"vehicle_type_id":"4","last_reported":1714417532,"current_range_meters":0,"station_id":"ce4bhb12rcd13ifvqel0","pricing_plan_id":"cebpf4jnsgd1na2vs0mg"},{"bike_id":"9010b2f1-01a2-448d-a0a0-0030b7eee01c","system_id":"levelo_inurba_marseille","lat":43.30887,"lon":5.39637,"is_reserved":false,"is_disabled":false,"rental_uris":{"android":"levelo://app?vid=9010b2f1-01a2-448d-a0a0-0030b7eee01c","ios":"levelo://app?vid=9010b2f1-01a2-448d-a0a0-0030b7eee01c"},"vehicle_type_id":"4","last_reported":1714417532,"current_range_meters":0,"station_id":"ce4bh012rcd13ifvqcv0","pricing_plan_id":"cebpf4jnsgd1na2vs0mg"},{"bike_id":"cc8638ee-6094-45d8-b879-5352432ac0b5","system_id":"levelo_inurba_marseille","lat":43.285742,"lon":5.395004,"is_reserved":false,"is_disabled":false,"rental_uris":{"android":"levelo://app?vid=cc8638ee-6094-45d8-b879-5352432ac0b5","ios":"levelo://app?vid=cc8638ee-6094-45d8-b879-5352432ac0b5"},"vehicle_type_id":"4","last_reported":1714417532,"current_range_meters":400,"station_id":"ce4bh292rcd13ifvqdg0","pricing_plan_id":"cebpf4jnsgd1na2vs0mg"},{"bike_id":"2c93879d-d982-4d54-b218-ac3794909aef","system_id":"levelo_inurba_marseille","lat":43.313291,"lon":5.396838,"is_reserved":false,"is_disabled":false,"rental_uris":{"android":"levelo://app?vid=2c93879d-d982-4d54-b218-ac3794909aef","ios":"levelo://app?vid=2c93879d-d982-4d54-b218-ac3794909aef"},"vehicle_type_id":"4","last_reported":1714417532,"current_range_meters":6800,"station_id":"ce4bgvp2rcd13ifvqcu0","pricing_plan_id":"cebpf4jnsgd1na2vs0mg"},{"bike_id":"ec575c12-06c2-445d-a2f9-6a99ece276c0","system_id":"levelo_inurba_marseille","lat":43.313291,"lon":5.396838,"is_reserved":false,"is_disabled":false,"rental_uris":{"android":"levelo://app?vid=ec575c12-06c2-445d-a2f9-6a99ece276c0","ios":"levelo://app?vid=ec575c12-06c2-445d-a2f9-6a99ece276c0"},"vehicle_type_id":"4","last_reported":1714417532,"current_range_meters":13200,"station_id":"ce4bgvp2rcd13ifvqcu0","pricing_plan_id":"cebpf4jnsgd1na2vs0mg"},{"bike_id":"7630cc94-f5ba-492e-8fa9-6a45eeb2ca97","system_id":"levelo_inurba_marseille","lat":43.313291,"lon":5.396838,"is_reserved":false,"is_disabled":false,"rental_uris":{"android":"levelo://app?vid=7630cc94-f5ba-492e-8fa9-6a45eeb2ca97","ios":"levelo://app?vid=7630cc94-f5ba-492e-8fa9-6a45eeb2ca97"},"vehicle_type_id":"4","last_reported":1714417532,"current_range_meters":30800,"station_id":"ce4bgvp2rcd13ifvqcu0","pricing_plan_id":"cebpf4jnsgd1na2vs0mg"},{"bike_id":"07067107-1042-4bb8-b020-267f4b89a161","system_id":"levelo_inurba_marseille","lat":43.313291,"lon":5.396838,"is_reserved":false,"is_disabled":false,"rental_uris":{"android":"levelo://app?vid=07067107-1042-4bb8-b020-267f4b89a161","ios":"levelo://app?vid=07067107-1042-4bb8-b020-267f4b89a161"},"vehicle_type_id":"4","last_reported":1714417532,"current_range_meters":11200,"station_id":"ce4bgvp2rcd13ifvqcu0","pricing_plan_id":"cebpf4jnsgd1na2vs0mg"},{"bike_id":"3bbe1f25-c7dd-44e5-85f3-4d256d10853c","system_id":"levelo_inurba_marseille","lat":43.29529,"lon":5.385581,"is_reserved":false,"is_disabled":false,"rental_uris":{"android":"levelo://app?vid=3bbe1f25-c7dd-44e5-85f3-4d256d10853c","ios":"levelo://app?vid=3bbe1f25-c7dd-44e5-85f3-4d256d10853c"},"vehicle_type_id":"4","last_reported":1714417532,"current_range_meters":3200,"station_id":"ce4bgih2rcd13ifvqba0","pricing_plan_id":"cebpf4jnsgd1na2vs0mg"},{"bike_id":"d3f92643-5f91-40b6-a9d7-4e75107133b3","system_id":"levelo_inurba_marseille","lat":43.30884,"lon":5.39657,"is_reserved":false,"is_disabled":false,"rental_uris":{"android":"levelo://app?vid=d3f92643-5f91-40b6-a9d7-4e75107133b3","ios":"levelo://app?vid=d3f92643-5f91-40b6-a9d7-4e75107133b3"},"vehicle_type_id":"4","last_reported":1714417532,"current_range_meters":0,"station_id":"ce4bh012rcd13ifvqcv0","pricing_plan_id":"cebpf4jnsgd1na2vs0mg"},{"bike_id":"d61e3010-88e6-4172-955f-ec4d84e6d02c","system_id":"levelo_inurba_marseille","lat":43.30888,"lon":5.39658,"is_reserved":false,"is_disabled":false,"rental_uris":{"android":"levelo://app?vid=d61e3010-88e6-4172-955f-ec4d84e6d02c","ios":"levelo://app?vid=d61e3010-88e6-4172-955f-ec4d84e6d02c"},"vehicle_type_id":"4","last_reported":1714417532,"current_range_meters":5200,"station_id":"ce4bh012rcd13ifvqcv0","pricing_plan_id":"cebpf4jnsgd1na2vs0mg"},{"bike_id":"7048c132-e021-4875-883c-a23f2b30a66f","system_id":"levelo_inurba_marseille","lat":43.295441,"lon":5.385453,"is_reserved":false,"is_disabled":false,"rental_uris":{"android":"levelo://app?vid=7048c132-e021-4875-883c-a23f2b30a66f","ios":"levelo://app?vid=7048c132-e021-4875-883c-a23f2b30a66f"},"vehicle_type_id":"4","last_reported":1714417532,"current_range_meters":24000,"station_id":"ce4bgih2rcd13ifvqba0","pricing_plan_id":"cebpf4jnsgd1na2vs0mg"},{"bike_id":"87f8db0c-7730-4d55-a541-a4bbe79113c6","system_id":"levelo_inurba_marseille","lat":43.29545,"lon":5.38547,"is_reserved":false,"is_disabled":false,"rental_uris":{"android":"levelo://app?vid=87f8db0c-7730-4d55-a541-a4bbe79113c6","ios":"levelo://app?vid=87f8db0c-7730-4d55-a541-a4bbe79113c6"},"vehicle_type_id":"4","last_reported":1714417532,"current_range_meters":6800,"station_id":"ce4bgih2rcd13ifvqba0","pricing_plan_id":"cebpf4jnsgd1na2vs0mg"},{"bike_id":"6e412ba5-1c87-45eb-a6bb-b300a23f077f","system_id":"levelo_inurba_marseille","lat":43.29529,"lon":5.385581,"is_reserved":false,"is_disabled":false,"rental_uris":{"android":"levelo://app?vid=6e412ba5-1c87-45eb-a6bb-b300a23f077f","ios":"levelo://app?vid=6e412ba5-1c87-45eb-a6bb-b300a23f077f"},"vehicle_type_id":"4","last_reported":1714417532,"current_range_meters":24800,"station_id":"ce4bgih2rcd13ifvqba0","pricing_plan_id":"cebpf4jnsgd1na2vs0mg"},{"bike_id":"76a68913-b485-4361-8157-823ff08ac3a0","system_id":"levelo_inurba_marseille","lat":43.29529,"lon":5.385581,"is_reserved":false,"is_disabled":false,"rental_uris":{"android":"levelo://app?vid=76a68913-b485-4361-8157-823ff08ac3a0","ios":"levelo://app?vid=76a68913-b485-4361-8157-823ff08ac3a0"},"vehicle_type_id":"4","last_reported":1714417532,"current_range_meters":25600,"station_id":"ce4bgih2rcd13ifvqba0","pricing_plan_id":"cebpf4jnsgd1na2vs0mg"},{"bike_id":"4ddbff96-8557-466f-81bf-4330d2963f4f","system_id":"levelo_inurba_marseille","lat":43.309047,"lon":5.396551,"is_reserved":false,"is_disabled":false,"rental_uris":{"android":"levelo://app?vid=4ddbff96-8557-466f-81bf-4330d2963f4f","ios":"levelo://app?vid=4ddbff96-8557-466f-81bf-4330d2963f4f"},"vehicle_type_id":"4","last_reported":1714417532,"current_range_meters":5600,"station_id":"ce4bh012rcd13ifvqcv0","pricing_plan_id":"cebpf4jnsgd1na2vs0mg"},{"bike_id":"e8b744ba-f73d-45a0-bc09-b035b387f0d0","system_id":"levelo_inurba_marseille","lat":43.29529,"lon":5.385581,"is_reserved":false,"is_disabled":false,"rental_uris":{"android":"levelo://app?vid=e8b744ba-f73d-45a0-bc09-b035b387f0d0","ios":"levelo://app?vid=e8b744ba-f73d-45a0-bc09-b035b387f0d0"},"vehicle_type_id":"4","last_reported":1714417532,"current_range_meters":11200,"station_id":"ce4bgih2rcd13ifvqba0","pricing_plan_id":"cebpf4jnsgd1na2vs0mg"},{"bike_id":"40c3ca83-a07b-4b02-9272-f70178a7dd4c","system_id":"levelo_inurba_marseille","lat":43.29529,"lon":5.385581,"is_reserved":false,"is_disabled":false,"rental_uris":{"android":"levelo://app?vid=40c3ca83-a07b-4b02-9272-f70178a7dd4c","ios":"levelo://app?vid=40c3ca83-a07b-4b02-9272-f70178a7dd4c"},"vehicle_type_id":"4","last_reported":1714417532,"current_range_meters":2800,"station_id":"ce4bgih2rcd13ifvqba0","pricing_plan_id":"cebpf4jnsgd1na2vs0mg"},{"bike_id":"30b235e8-6443-4e5d-86f0-6b08aff3f0a3","system_id":"levelo_inurba_marseille","lat":43.29529,"lon":5.385581,"is_reserved":false,"is_disabled":false,"rental_uris":{"android":"levelo://app?vid=30b235e8-6443-4e5d-86f0-6b08aff3f0a3","ios":"levelo://app?vid=30b235e8-6443-4e5d-86f0-6b08aff3f0a3"},"vehicle_type_id":"4","last_reported":1714417532,"current_range_meters":24400,"station_id":"ce4bgih2rcd13ifvqba0","pricing_plan_id":"cebpf4jnsgd1na2vs0mg"},{"bike_id":"0ba399a7-acb9-46a5-b828-7d61dad25319","system_id":"levelo_inurba_marseille","lat":43.29529,"lon":5.385581,"is_reserved":false,"is_disabled":false,"rental_uris":{"android":"levelo://app?vid=0ba399a7-acb9-46a5-b828-7d61dad25319","ios":"levelo://app?vid=0ba399a7-acb9-46a5-b828-7d61dad25319"},"vehicle_type_id":"4","last_reported":1714417532,"current_range_meters":6400,"station_id":"ce4bgih2rcd13ifvqba0","pricing_plan_id":"cebpf4jnsgd1na2vs0mg"},{"bike_id":"2ba430de-a3d3-4163-b2e3-6f80e8976de5","system_id":"levelo_inurba_marseille","lat":43.29529,"lon":5.385581,"is_reserved":false,"is_disabled":false,"rental_uris":{"android":"levelo://app?vid=2ba430de-a3d3-4163-b2e3-6f80e8976de5","ios":"levelo://app?vid=2ba430de-a3d3-4163-b2e3-6f80e8976de5"},"vehicle_type_id":"4","last_reported":1714417532,"current_range_meters":21600,"station_id":"ce4bgih2rcd13ifvqba0","pricing_plan_id":"cebpf4jnsgd1na2vs0mg"},{"bike_id":"adc4c840-3492-4bc3-b1aa-9a7bfc4d17ea","system_id":"levelo_inurba_marseille","lat":43.29533,"lon":5.3854,"is_reserved":false,"is_disabled":false,"rental_uris":{"android":"levelo://app?vid=adc4c840-3492-4bc3-b1aa-9a7bfc4d17ea","ios":"levelo://app?vid=adc4c840-3492-4bc3-b1aa-9a7bfc4d17ea"},"vehicle_type_id":"4","last_reported":1714417532,"current_range_meters":12400,"station_id":"ce4bgih2rcd13ifvqba0","pricing_plan_id":"cebpf4jnsgd1na2vs0mg"},{"bike_id":"5551551b-a26b-4d06-b906-f5dfa7c7aa6c","system_id":"levelo_inurba_marseille","lat":43.29534,"lon":5.38542,"is_reserved":false,"is_disabled":false,"rental_uris":{"android":"levelo://app?vid=5551551b-a26b-4d06-b906-f5dfa7c7aa6c","ios":"levelo://app?vid=5551551b-a26b-4d06-b906-f5dfa7c7aa6c"},"vehicle_type_id":"4","last_reported":1714417532,"current_range_meters":20400,"station_id":"ce4bgih2rcd13ifvqba0","pricing_plan_id":"cebpf4jnsgd1na2vs0mg"},{"bike_id":"0564f59f-72d3-4994-9855-085c04f8daed","system_id":"levelo_inurba_marseille","lat":43.29533,"lon":5.38543,"is_reserved":false,"is_disabled":false,"rental_uris":{"android":"levelo://app?vid=0564f59f-72d3-4994-9855-085c04f8daed","ios":"levelo://app?vid=0564f59f-72d3-4994-9855-085c04f8daed"},"vehicle_type_id":"4","last_reported":1714417532,"current_range_meters":11200,"station_id":"ce4bgih2rcd13ifvqba0","pricing_plan_id":"cebpf4jnsgd1na2vs0mg"},{"bike_id":"0f5e171d-7f13-4c8b-a368-bf589697b8a0","system_id":"levelo_inurba_marseille","lat":43.29529,"lon":5.385581,"is_reserved":false,"is_disabled":false,"rental_uris":{"android":"levelo://app?vid=0f5e171d-7f13-4c8b-a368-bf589697b8a0","ios":"levelo://app?vid=0f5e171d-7f13-4c8b-a368-bf589697b8a0"},"vehicle_type_id":"4","last_reported":1714417532,"current_range_meters":24800,"station_id":"ce4bgih2rcd13ifvqba0","pricing_plan_id":"cebpf4jnsgd1na2vs0mg"},{"bike_id":"ebf1cb2b-71aa-4c3c-9daf-9ae15c6ac9cb","system_id":"levelo_inurba_marseille","lat":43.29529,"lon":5.385581,"is_reserved":false,"is_disabled":false,"rental_uris":{"android":"levelo://app?vid=ebf1cb2b-71aa-4c3c-9daf-9ae15c6ac9cb","ios":"levelo://app?vid=ebf1cb2b-71aa-4c3c-9daf-9ae15c6ac9cb"},"vehicle_type_id":"4","last_reported":1714417532,"current_range_meters":8400,"station_id":"ce4bgih2rcd13ifvqba0","pricing_plan_id":"cebpf4jnsgd1na2vs0mg"},{"bike_id":"515246b9-3865-4bbb-9771-92febcffcc57","system_id":"levelo_inurba_marseille","lat":43.29529,"lon":5.385581,"is_reserved":false,"is_disabled":false,"rental_uris":{"android":"levelo://app?vid=515246b9-3865-4bbb-9771-92febcffcc57","ios":"levelo://app?vid=515246b9-3865-4bbb-9771-92febcffcc57"},"vehicle_type_id":"4","last_reported":1714417532,"current_range_meters":28000,"station_id":"ce4bgih2rcd13ifvqba0","pricing_plan_id":"cebpf4jnsgd1na2vs0mg"},{"bike_id":"6c416a85-8c6c-4111-b915-b6bfeb17961f","system_id":"levelo_inurba_marseille","lat":43.29531,"lon":5.38548,"is_reserved":false,"is_disabled":false,"rental_uris":{"android":"levelo://app?vid=6c416a85-8c6c-4111-b915-b6bfeb17961f","ios":"levelo://app?vid=6c416a85-8c6c-4111-b915-b6bfeb17961f"},"vehicle_type_id":"4","last_reported":1714417532,"current_range_meters":23600,"station_id":"ce4bgih2rcd13ifvqba0","pricing_plan_id":"cebpf4jnsgd1na2vs0mg"},{"bike_id":"83e1cf35-d9f4-4869-811a-dc7c474fb079","system_id":"levelo_inurba_marseille","lat":43.290779,"lon":5.371482,"is_reserved":false,"is_disabled":false,"rental_uris":{"android":"levelo://app?vid=83e1cf35-d9f4-4869-811a-dc7c474fb079","ios":"levelo://app?vid=83e1cf35-d9f4-4869-811a-dc7c474fb079"},"vehicle_type_id":"4","last_reported":1714417532,"current_range_meters":2400,"station_id":"ce4bh5p2rcd13ifvqe4g","pricing_plan_id":"cebpf4jnsgd1na2vs0mg"},{"bike_id":"feac9602-1abf-4e26-a418-3e9c404c3ae0","system_id":"levelo_inurba_marseille","lat":43.292644,"lon":5.384257,"is_reserved":false,"is_disabled":false,"rental_uris":{"android":"levelo://app?vid=feac9602-1abf-4e26-a418-3e9c404c3ae0","ios":"levelo://app?vid=feac9602-1abf-4e26-a418-3e9c404c3ae0"},"vehicle_type_id":"4","last_reported":1714417532,"current_range_meters":20800,"station_id":"ce4bh692rcd13ifvqea0","pricing_plan_id":"cebpf4jnsgd1na2vs0mg"},{"bike_id":"1c020e51-7d8b-422f-be9a-d2fd22aabeff","system_id":"levelo_inurba_marseille","lat":43.29071,"lon":5.37161,"is_reserved":false,"is_disabled":false,"rental_uris":{"android":"levelo://app?vid=1c020e51-7d8b-422f-be9a-d2fd22aabeff","ios":"levelo://app?vid=1c020e51-7d8b-422f-be9a-d2fd22aabeff"},"vehicle_type_id":"4","last_reported":1714417532,"current_range_meters":0,"station_id":"ce4bh5p2rcd13ifvqe4g","pricing_plan_id":"cebpf4jnsgd1na2vs0mg"},{"bike_id":"2359b004-e857-4528-9b9e-c954db4c94b1","system_id":"levelo_inurba_marseille","lat":43.290631,"lon":5.359244,"is_reserved":false,"is_disabled":false,"rental_uris":{"android":"levelo://app?vid=2359b004-e857-4528-9b9e-c954db4c94b1","ios":"levelo://app?vid=2359b004-e857-4528-9b9e-c954db4c94b1"},"vehicle_type_id":"4","last_reported":1714417532,"current_range_meters":24800,"station_id":"ce4bha92rcd13ifvqeg0","pricing_plan_id":"cebpf4jnsgd1na2vs0mg"},{"bike_id":"7e9c2a1f-9a9b-4db5-9b1a-997c03ad15b3","system_id":"levelo_inurba_marseille","lat":43.302103,"lon":5.394601,"is_reserved":false,"is_disabled":false,"rental_uris":{"android":"levelo://app?vid=7e9c2a1f-9a9b-4db5-9b1a-997c03ad15b3","ios":"levelo://app?vid=7e9c2a1f-9a9b-4db5-9b1a-997c03ad15b3"},"vehicle_type_id":"4","last_reported":1714417532,"current_range_meters":22400,"station_id":"ce4bh0p2rcd13ifvqd70","pricing_plan_id":"cebpf4jnsgd1na2vs0mg"},{"bike_id":"ba97dedf-3502-4e50-9e27-90202e4f7bab","system_id":"levelo_inurba_marseille","lat":43.302008,"lon":5.394694,"is_reserved":false,"is_disabled":false,"rental_uris":{"android":"levelo://app?vid=ba97dedf-3502-4e50-9e27-90202e4f7bab","ios":"levelo://app?vid=ba97dedf-3502-4e50-9e27-90202e4f7bab"},"vehicle_type_id":"4","last_reported":1714417532,"current_range_meters":18400,"station_id":"ce4bh0p2rcd13ifvqd70","pricing_plan_id":"cebpf4jnsgd1na2vs0mg"},{"bike_id":"a8313e0d-bee4-4a50-bc0e-06d6fcdb493a","system_id":"levelo_inurba_marseille","lat":43.30216,"lon":5.39468,"is_reserved":false,"is_disabled":false,"rental_uris":{"android":"levelo://app?vid=a8313e0d-bee4-4a50-bc0e-06d6fcdb493a","ios":"levelo://app?vid=a8313e0d-bee4-4a50-bc0e-06d6fcdb493a"},"vehicle_type_id":"4","last_reported":1714417532,"current_range_meters":0,"station_id":"ce4bh0p2rcd13ifvqd70","pricing_plan_id":"cebpf4jnsgd1na2vs0mg"},{"bike_id":"ce4cccbc-db35-458f-a75a-21a8528be306","system_id":"levelo_inurba_marseille","lat":43.302008,"lon":5.394694,"is_reserved":false,"is_disabled":false,"rental_uris":{"android":"levelo://app?vid=ce4cccbc-db35-458f-a75a-21a8528be306","ios":"levelo://app?vid=ce4cccbc-db35-458f-a75a-21a8528be306"},"vehicle_type_id":"4","last_reported":1714417532,"current_range_meters":24800,"station_id":"ce4bh0p2rcd13ifvqd70","pricing_plan_id":"cebpf4jnsgd1na2vs0mg"},{"bike_id":"0584d719-5f93-407b-9ee7-a318f6829293","system_id":"levelo_inurba_marseille","lat":43.302107,"lon":5.39467,"is_reserved":false,"is_disabled":false,"rental_uris":{"android":"levelo://app?vid=0584d719-5f93-407b-9ee7-a318f6829293","ios":"levelo://app?vid=0584d719-5f93-407b-9ee7-a318f6829293"},"vehicle_type_id":"4","last_reported":1714417532,"current_range_meters":2000,"station_id":"ce4bh0p2rcd13ifvqd70","pricing_plan_id":"cebpf4jnsgd1na2vs0mg"},{"bike_id":"d0cf1867-8973-468b-b99a-7c7832849afd","system_id":"levelo_inurba_marseille","lat":43.302097,"lon":5.394668,"is_reserved":false,"is_disabled":false,"rental_uris":{"android":"levelo://app?vid=d0cf1867-8973-468b-b99a-7c7832849afd","ios":"levelo://app?vid=d0cf1867-8973-468b-b99a-7c7832849afd"},"vehicle_type_id":"4","last_reported":1714417532,"current_range_meters":400,"station_id":"ce4bh0p2rcd13ifvqd70","pricing_plan_id":"cebpf4jnsgd1na2vs0mg"},{"bike_id":"e7eed5e9-b8b8-4e4b-a3a5-5e794275c4cd","system_id":"levelo_inurba_marseille","lat":43.29529,"lon":5.385581,"is_reserved":false,"is_disabled":false,"rental_uris":{"android":"levelo://app?vid=e7eed5e9-b8b8-4e4b-a3a5-5e794275c4cd","ios":"levelo://app?vid=e7eed5e9-b8b8-4e4b-a3a5-5e794275c4cd"},"vehicle_type_id":"4","last_reported":1714417532,"current_range_meters":15200,"station_id":"ce4bgih2rcd13ifvqba0","pricing_plan_id":"cebpf4jnsgd1na2vs0mg"},{"bike_id":"7ca20631-1cfc-4a4b-beb7-623e93188943","system_id":"levelo_inurba_marseille","lat":43.3021,"lon":5.394698,"is_reserved":false,"is_disabled":false,"rental_uris":{"android":"levelo://app?vid=7ca20631-1cfc-4a4b-beb7-623e93188943","ios":"levelo://app?vid=7ca20631-1cfc-4a4b-beb7-623e93188943"},"vehicle_type_id":"4","last_reported":1714417532,"current_range_meters":22400,"station_id":"ce4bh0p2rcd13ifvqd70","pricing_plan_id":"cebpf4jnsgd1na2vs0mg"},{"bike_id":"04701eba-8942-4ada-ac25-6f2d4a10dde4","system_id":"levelo_inurba_marseille","lat":43.302143,"lon":5.39473,"is_reserved":false,"is_disabled":false,"rental_uris":{"android":"levelo://app?vid=04701eba-8942-4ada-ac25-6f2d4a10dde4","ios":"levelo://app?vid=04701eba-8942-4ada-ac25-6f2d4a10dde4"},"vehicle_type_id":"4","last_reported":1714417532,"current_range_meters":2000,"station_id":"ce4bh0p2rcd13ifvqd70","pricing_plan_id":"cebpf4jnsgd1na2vs0mg"},{"bike_id":"023ec1d4-debe-4900-9f29-77db77267ef7","system_id":"levelo_inurba_marseille","lat":43.302008,"lon":5.394694,"is_reserved":false,"is_disabled":false,"rental_uris":{"android":"levelo://app?vid=023ec1d4-debe-4900-9f29-77db77267ef7","ios":"levelo://app?vid=023ec1d4-debe-4900-9f29-77db77267ef7"},"vehicle_type_id":"4","last_reported":1714417532,"current_range_meters":31200,"station_id":"ce4bh0p2rcd13ifvqd70","pricing_plan_id":"cebpf4jnsgd1na2vs0mg"},{"bike_id":"c7993405-1b8d-455c-acaf-c77fd68f7e76","system_id":"levelo_inurba_marseille","lat":43.302008,"lon":5.394694,"is_reserved":false,"is_disabled":false,"rental_uris":{"android":"levelo://app?vid=c7993405-1b8d-455c-acaf-c77fd68f7e76","ios":"levelo://app?vid=c7993405-1b8d-455c-acaf-c77fd68f7e76"},"vehicle_type_id":"4","last_reported":1714417532,"current_range_meters":19600,"station_id":"ce4bh0p2rcd13ifvqd70","pricing_plan_id":"cebpf4jnsgd1na2vs0mg"},{"bike_id":"49c3da1e-04e1-424f-86d8-9de5f186bd31","system_id":"levelo_inurba_marseille","lat":43.30209,"lon":5.39471,"is_reserved":false,"is_disabled":false,"rental_uris":{"android":"levelo://app?vid=49c3da1e-04e1-424f-86d8-9de5f186bd31","ios":"levelo://app?vid=49c3da1e-04e1-424f-86d8-9de5f186bd31"},"vehicle_type_id":"4","last_reported":1714417532,"current_range_meters":4800,"station_id":"ce4bh0p2rcd13ifvqd70","pricing_plan_id":"cebpf4jnsgd1na2vs0mg"},{"bike_id":"ad318097-3db5-455a-b4a4-e281398c1f92","system_id":"levelo_inurba_marseille","lat":43.30214,"lon":5.39475,"is_reserved":false,"is_disabled":false,"rental_uris":{"android":"levelo://app?vid=ad318097-3db5-455a-b4a4-e281398c1f92","ios":"levelo://app?vid=ad318097-3db5-455a-b4a4-e281398c1f92"},"vehicle_type_id":"4","last_reported":1714417532,"current_range_meters":0,"station_id":"ce4bh0p2rcd13ifvqd70","pricing_plan_id":"cebpf4jnsgd1na2vs0mg"},{"bike_id":"293941a1-e29c-452f-9a23-04b4b2b53334","system_id":"levelo_inurba_marseille","lat":43.274103,"lon":5.394016,"is_reserved":false,"is_disabled":false,"rental_uris":{"android":"levelo://app?vid=293941a1-e29c-452f-9a23-04b4b2b53334","ios":"levelo://app?vid=293941a1-e29c-452f-9a23-04b4b2b53334"},"vehicle_type_id":"4","last_reported":1714417532,"current_range_meters":0,"station_id":"ce4bhdp2rcd13ifvqf20","pricing_plan_id":"cebpf4jnsgd1na2vs0mg"},{"bike_id":"ce5cf0cf-37bf-40f5-bf84-c8cd1c028449","system_id":"levelo_inurba_marseille","lat":43.290502,"lon":5.359199,"is_reserved":false,"is_disabled":false,"rental_uris":{"android":"levelo://app?vid=ce5cf0cf-37bf-40f5-bf84-c8cd1c028449","ios":"levelo://app?vid=ce5cf0cf-37bf-40f5-bf84-c8cd1c028449"},"vehicle_type_id":"4","last_reported":1714417532,"current_range_meters":1200,"station_id":"ce4bh412rcd13ifvqds0","pricing_plan_id":"cebpf4jnsgd1na2vs0mg"},{"bike_id":"e3ba7475-8835-410e-8d86-399a9f2f5950","system_id":"levelo_inurba_marseille","lat":43.289184,"lon":5.366408,"is_reserved":false,"is_disabled":false,"rental_uris":{"android":"levelo://app?vid=e3ba7475-8835-410e-8d86-399a9f2f5950","ios":"levelo://app?vid=e3ba7475-8835-410e-8d86-399a9f2f5950"},"vehicle_type_id":"4","last_reported":1714417532,"current_range_meters":17200,"station_id":"ce4bhap2rcd13ifvqek0","pricing_plan_id":"cebpf4jnsgd1na2vs0mg"},{"bike_id":"de468cf9-4716-482f-bede-391cad659195","system_id":"levelo_inurba_marseille","lat":43.289184,"lon":5.366408,"is_reserved":false,"is_disabled":false,"rental_uris":{"android":"levelo://app?vid=de468cf9-4716-482f-bede-391cad659195","ios":"levelo://app?vid=de468cf9-4716-482f-bede-391cad659195"},