{"last_updated":1762628808,"ttl":60,"version":"2.2","data":{"bikes":[{"bike_id":"f6ca3376-6c37-4f5b-8212-007c073cf046","system_id":"levelo_inurba_marseille","lat":43.22555,"lon":5.41623,"is_reserved":false,"is_disabled":true,"rental_uris":{"android":"levelo://app?vid=f6ca3376-6c37-4f5b-8212-007c073cf046","ios":"levelo://app?vid=f6ca3376-6c37-4f5b-8212-007c073cf046"},"vehicle_type_id":"4","last_reported":1762628808,"current_range_meters":2800,"station_id":"st_d2o4gvlbi1j2169b742g","pricing_plan_id":"cebpf4jnsgd1na2vs0mg"},{"bike_id":"4c0d9936-449e-4dbc-82ef-965e4719c40c","system_id":"levelo_inurba_marseille","lat":43.267694,"lon":5.402468,"is_reserved":false,"is_disabled":false,"rental_uris":{"android":"levelo://app?vid=4c0d9936-449e-4dbc-82ef-965e4719c40c","ios":"levelo://app?vid=4c0d9936-449e-4dbc-82ef-965e4719c40c"},"vehicle_type_id":"4","last_reported":1762628808,"current_range_meters":2800,"station_id":"ce501612rcd8frsf0b60","pricing_plan_id":"cebpf4jnsgd1na2vs0mg"},{"bike_id":"062bdfd2-f47f-4e5a-9631-f5157c1eb45c","system_id":"levelo_inurba_marseille","lat":43.30374,"lon":5.4249,"is_reserved":false,"is_disabled":false,"rental_uris":{"android":"levelo://app?vid=062bdfd2-f47f-4e5a-9631-f5157c1eb45c","ios":"levelo://app?vid=062bdfd2-f47f-4e5a-9631-f5157c1eb45c"},"vehicle_type_id":"4","last_reported":1762628808,"current_range_meters":2800,"station_id":"ce4bhoh2rcd13ifvqh6g","pricing_plan_id":"cebpf4jnsgd1na2vs0mg"},{"bike_id":"1c6bc4d8-4da5-45ff-af52-f68cec0dacd6","system_id":"levelo_inurba_marseille","lat":43.30418,"lon":5.4128,"is_reserved":false,"is_disabled":false,"rental_uris":{"android":"levelo://app?vid=1c6bc4d8-4da5-45ff-af52-f68cec0dacd6","ios":"levelo://app?vid=1c6bc4d8-4da5-45ff-af52-f68cec0dacd6"},"vehicle_type_id":"4","last_reported":1762628808,"current_range_meters":2800,"station_id":"ce4bhop2rcd13ifvqh8g","pricing_plan_id":"cebpf4jnsgd1na2vs0mg"},{"bike_id":"07ba2d2e-e93e-4c4a-acf1-89cd658bf3d1","system_id":"levelo_inurba_marseille","lat":43.29521,"lon":5.39395,"is_reserved":false,"is_disabled":false,"rental_uris":{"android":"levelo://app?vid=07ba2d2e-e93e-4c4a-acf1-89cd658bf3d1","ios":"levelo://app?vid=07ba2d2e-e93e-4c4a-acf1-89cd658bf3d1"},"vehicle_type_id":"4","last_reported":1762628808,"current_range_meters":2800,"station_id":"ce4bh292rcd13ifvqdf0","pricing_plan_id":"cebpf4jnsgd1na2vs0mg"},{"bike_id":"c08b481d-6385-4672-89bc-1fcd4ebd5730","system_id":"levelo_inurba_marseille","lat":43.30128,"lon":5.36942,"is_reserved":false,"is_disabled":false,"rental_uris":{"android":"levelo://app?vid=c08b481d-6385-4672-89bc-1fcd4ebd5730","ios":"levelo://app?vid=c08b481d-6385-4672-89bc-1fcd4ebd5730"},"vehicle_type_id":"4","last_reported":1762628808,"current_range_meters":3200,"station_id":"","pricing_plan_id":"cebpf4jnsgd1na2vs0mg"},{"bike_id":"05c639a2-6660-40ed-a12f-85b485fe188e","system_id":"levelo_inurba_marseille","lat":43.292141,"lon":5.357748,"is_reserved":false,"is_disabled":false,"rental_uris":{"android":"levelo://app?vid=05c639a2-6660-40ed-a12f-85b485fe188e","ios":"levelo://app?vid=05c639a2-6660-40ed-a12f-85b485fe188e"},"vehicle_type_id":"4","last_reported":1762628808,"current_range_meters":3200,"station_id":"ce4bhb12rcd13ifvqel0","pricing_plan_id":"cebpf4jnsgd1na2vs0mg"},{"bike_id":"daf94b15-a263-4b78-b809-84de8b4794fe","system_id":"levelo_inurba_marseille","lat":43.308053,"lon":5.381461,"is_reserved":false,"is_disabled":false,"rental_uris":{"android":"levelo://app?vid=daf94b15-a263-4b78-b809-84de8b4794fe","ios":"levelo://app?vid=daf94b15-a263-4b78-b809-84de8b4794fe"},"vehicle_type_id":"4","last_reported":1762628808,"current_range_meters":3200,"station_id":"ce4bgt12rcd13ifvqce0","pricing_plan_id":"cebpf4jnsgd1na2vs0mg"},{"bike_id":"32c4054d-c111-4f1c-b188-9138aed42210","system_id":"levelo_inurba_marseille","lat":43.31995,"lon":5.41594,"is_reserved":false,"is_disabled":false,"rental_uris":{"android":"levelo://app?vid=32c4054d-c111-4f1c-b188-9138aed42210","ios":"levelo://app?vid=32c4054d-c111-4f1c-b188-9138aed42210"},"vehicle_type_id":"4","last_reported":1762628808,"current_range_meters":3200,"station_id":"","pricing_plan_id":"cebpf4jnsgd1na2vs0mg"},{"bike_id":"1c3c4622-83c1-4aa8-a877-256f780972c3","system_id":"levelo_inurba_marseille","lat":43.31362,"lon":5.38488,"is_reserved":false,"is_disabled":false,"rental_uris":{"android":"levelo://app?vid=1c3c4622-83c1-4aa8-a877-256f780972c3","ios":"levelo://app?vid=1c3c4622-83c1-4aa8-a877-256f780972c3"},"vehicle_type_id":"4","last_reported":1762628808,"current_range_meters":3200,"station_id":"ce4bgt92rcd13ifvqcf0","pricing_plan_id":"cebpf4jnsgd1na2vs0mg"},{"bike_id":"59b31ef2-3fe3-46e5-b5a5-685f264695ce","system_id":"levelo_inurba_marseille","lat":43.28476,"lon":5.484024,"is_reserved":false,"is_disabled":false,"rental_uris":{"android":"levelo://app?vid=59b31ef2-3fe3-46e5-b5a5-685f264695ce","ios":"levelo://app?vid=59b31ef2-3fe3-46e5-b5a5-685f264695ce"},"vehicle_type_id":"4","last_reported":1762628808,"current_range_meters":3200,"station_id":"st_d3svhcjqgbts73a3dn0g","pricing_plan_id":"cebpf4jnsgd1na2vs0mg"},{"bike_id":"b424973e-53a1-48fd-8201-4869d8c390ca","system_id":"levelo_inurba_marseille","lat":43.336061,"lon":5.410423,"is_reserved":false,"is_disabled":false,"rental_uris":{"android":"levelo://app?vid=b424973e-53a1-48fd-8201-4869d8c390ca","ios":"levelo://app?vid=b424973e-53a1-48fd-8201-4869d8c390ca"},"vehicle_type_id":"4","last_reported":1762628808,"current_range_meters":3600,"station_id":"ce4bhqh2rcd13ifvqhmg","pricing_plan_id":"cebpf4jnsgd1na2vs0mg"},{"bike_id":"938ee7e4-7339-4a9b-a7d9-a4e4f5f97926","system_id":"levelo_inurba_marseille","lat":43.29023,"lon":5.38638,"is_reserved":false,"is_disabled":false,"rental_uris":{"android":"levelo://app?vid=938ee7e4-7339-4a9b-a7d9-a4e4f5f97926","ios":"levelo://app?vid=938ee7e4-7339-4a9b-a7d9-a4e4f5f97926"},"vehicle_type_id":"4","last_reported":1762628808,"current_range_meters":3600,"station_id":"ce4bh4p2rcd13ifvqe0g","pricing_plan_id":"cebpf4jnsgd1na2vs0mg"},{"bike_id":"02523bdd-7d29-45aa-8b55-8e495090b4fd","system_id":"levelo_inurba_marseille","lat":43.29185,"lon":5.39312,"is_reserved":false,"is_disabled":false,"rental_uris":{"android":"levelo://app?vid=02523bdd-7d29-45aa-8b55-8e495090b4fd","ios":"levelo://app?vid=02523bdd-7d29-45aa-8b55-8e495090b4fd"},"vehicle_type_id":"4","last_reported":1762628808,"current_range_meters":3600,"station_id":"ce4bh192rcd13ifvqdd0","pricing_plan_id":"cebpf4jnsgd1na2vs0mg"},{"bike_id":"e774e600-3d8a-4b13-a1e6-9aa67ac84e1b","system_id":"levelo_inurba_marseille","lat":43.25927,"lon":5.40884,"is_reserved":false,"is_disabled":false,"rental_uris":{"android":"levelo://app?vid=e774e600-3d8a-4b13-a1e6-9aa67ac84e1b","ios":"levelo://app?vid=e774e600-3d8a-4b13-a1e6-9aa67ac84e1b"},"vehicle_type_id":"4","last_reported":1762628808,"current_range_meters":3600,"station_id":"ce4bhm92rcd13ifvqglg","pricing_plan_id":"cebpf4jnsgd1na2vs0mg"},{"bike_id":"4cd9ad14-e2f9-4182-b003-bd450eb5502c","system_id":"levelo_inurba_marseille","lat":43.29306,"lon":5.37166,"is_reserved":false,"is_disabled":false,"rental_uris":{"android":"levelo://app?vid=4cd9ad14-e2f9-4182-b003-bd450eb5502c","ios":"levelo://app?vid=4cd9ad14-e2f9-4182-b003-bd450eb5502c"},"vehicle_type_id":"4","last_reported":1762628808,"current_range_meters":4000,"station_id":"ce4bgh92rcd13ifvqb40","pricing_plan_id":"cebpf4jnsgd1na2vs0mg"},{"bike_id":"ab3a4d6b-b442-44b9-8f02-c1c222f445ba","system_id":"levelo_inurba_marseille","lat":43.27482,"lon":5.39256,"is_reserved":false,"is_disabled":false,"rental_uris":{"android":"levelo://app?vid=ab3a4d6b-b442-44b9-8f02-c1c222f445ba","ios":"levelo://app?vid=ab3a4d6b-b442-44b9-8f02-c1c222f445ba"},"vehicle_type_id":"4","last_reported":1762628808,"current_range_meters":4000,"station_id":"","pricing_plan_id":"cebpf4jnsgd1na2vs0mg"},{"bike_id":"75bc333b-dfc1-46da-a386-e67c86771450","system_id":"levelo_inurba_marseille","lat":43.301553,"lon":5.385943,"is_reserved":false,"is_disabled":false,"rental_uris":{"android":"levelo://app?vid=75bc333b-dfc1-46da-a386-e67c86771450","ios":"levelo://app?vid=75bc333b-dfc1-46da-a386-e67c86771450"},"vehicle_type_id":"4","last_reported":1762628808,"current_range_meters":4000,"station_id":"","pricing_plan_id":"cebpf4jnsgd1na2vs0mg"},{"bike_id":"69288bad-da7e-452e-a90d-39e282732494","system_id":"levelo_inurba_marseille","lat":43.28362,"lon":5.381,"is_reserved":false,"is_disabled":false,"rental_uris":{"android":"levelo://app?vid=69288bad-da7e-452e-a90d-39e282732494","ios":"levelo://app?vid=69288bad-da7e-452e-a90d-39e282732494"},"vehicle_type_id":"4","last_reported":1762628808,"current_range_meters":4000,"station_id":"ce4bh412rcd13ifvqdr0","pricing_plan_id":"cebpf4jnsgd1na2vs0mg"},{"bike_id":"acdc7342-c1a6-4a70-b129-b9cf7ad80643","system_id":"levelo_inurba_marseille","lat":43.21181,"lon":5.35062,"is_reserved":false,"is_disabled":false,"rental_uris":{"android":"levelo://app?vid=acdc7342-c1a6-4a70-b129-b9cf7ad80643","ios":"levelo://app?vid=acdc7342-c1a6-4a70-b129-b9cf7ad80643"},"vehicle_type_id":"4","last_reported":1762628808,"current_range_meters":4400,"station_id":"st_cvj6sg6p6f1abm77japg","pricing_plan_id":"cebpf4jnsgd1na2vs0mg"},{"bike_id":"964c6a1d-247c-49b9-bc4d-13e9e5309efe","system_id":"levelo_inurba_marseille","lat":43.30796,"lon":5.43528,"is_reserved":false,"is_disabled":false,"rental_uris":{"android":"levelo://app?vid=964c6a1d-247c-49b9-bc4d-13e9e5309efe","ios":"levelo://app?vid=964c6a1d-247c-49b9-bc4d-13e9e5309efe"},"vehicle_type_id":"4","last_reported":1762628808,"current_range_meters":4400,"station_id":"","pricing_plan_id":"cebpf4jnsgd1na2vs0mg"},{"bike_id":"122cbd0e-f27f-4234-ad8e-6802c7b2b7a4","system_id":"levelo_inurba_marseille","lat":43.29894,"lon":5.43671,"is_reserved":false,"is_disabled":false,"rental_uris":{"android":"levelo://app?vid=122cbd0e-f27f-4234-ad8e-6802c7b2b7a4","ios":"levelo://app?vid=122cbd0e-f27f-4234-ad8e-6802c7b2b7a4"},"vehicle_type_id":"4","last_reported":1762628808,"current_range_meters":4400,"station_id":"ce4bhpp2rcd13ifvqhfg","pricing_plan_id":"cebpf4jnsgd1na2vs0mg"},{"bike_id":"e5387bed-1330-419a-bf00-a3d4728f86be","system_id":"levelo_inurba_marseille","lat":43.293148,"lon":5.371658,"is_reserved":false,"is_disabled":false,"rental_uris":{"android":"levelo://app?vid=e5387bed-1330-419a-bf00-a3d4728f86be","ios":"levelo://app?vid=e5387bed-1330-419a-bf00-a3d4728f86be"},"vehicle_type_id":"4","last_reported":1762628808,"current_range_meters":4400,"station_id":"ce4bgh92rcd13ifvqb40","pricing_plan_id":"cebpf4jnsgd1na2vs0mg"},{"bike_id":"4a0259c1-bd7a-4ca1-bc12-fcf57b920290","system_id":"levelo_inurba_marseille","lat":43.309069,"lon":5.368537,"is_reserved":false,"is_disabled":false,"rental_uris":{"android":"levelo://app?vid=4a0259c1-bd7a-4ca1-bc12-fcf57b920290","ios":"levelo://app?vid=4a0259c1-bd7a-4ca1-bc12-fcf57b920290"},"vehicle_type_id":"4","last_reported":1762628808,"current_range_meters":4800,"station_id":"ce4bgn92rcd13ifvqbvg","pricing_plan_id":"cebpf4jnsgd1na2vs0mg"},{"bike_id":"5b98d579-5d9e-4fea-93b7-a7307fb6f858","system_id":"levelo_inurba_marseille","lat":43.23801,"lon":5.36622,"is_reserved":false,"is_disabled":false,"rental_uris":{"android":"levelo://app?vid=5b98d579-5d9e-4fea-93b7-a7307fb6f858","ios":"levelo://app?vid=5b98d579-5d9e-4fea-93b7-a7307fb6f858"},"vehicle_type_id":"4","last_reported":1762628808,"current_range_meters":4800,"station_id":"","pricing_plan_id":"cebpf4jnsgd1na2vs0mg"},{"bike_id":"32fa44b7-ee72-495b-965a-2cf0bb7e4981","system_id":"levelo_inurba_marseille","lat":43.29805,"lon":5.38652,"is_reserved":false,"is_disabled":false,"rental_uris":{"android":"levelo://app?vid=32fa44b7-ee72-495b-965a-2cf0bb7e4981","ios":"levelo://app?vid=32fa44b7-ee72-495b-965a-2cf0bb7e4981"},"vehicle_type_id":"4","last_reported":1762628808,"current_range_meters":4800,"station_id":"","pricing_plan_id":"cebpf4jnsgd1na2vs0mg"},{"bike_id":"ef2fe57e-ecba-4765-96d3-8349654ec56e","system_id":"levelo_inurba_marseille","lat":43.32943,"lon":5.36412,"is_reserved":false,"is_disabled":false,"rental_uris":{"android":"levelo://app?vid=ef2fe57e-ecba-4765-96d3-8349654ec56e","ios":"levelo://app?vid=ef2fe57e-ecba-4765-96d3-8349654ec56e"},"vehicle_type_id":"4","last_reported":1762628808,"current_range_meters":4800,"station_id":"","pricing_plan_id":"cebpf4jnsgd1na2vs0mg"},{"bike_id":"446b649e-03cf-41b1-92d4-8524f7369041","system_id":"levelo_inurba_marseille","lat":43.29267,"lon":5.38459,"is_reserved":false,"is_disabled":false,"rental_uris":{"android":"levelo://app?vid=446b649e-03cf-41b1-92d4-8524f7369041","ios":"levelo://app?vid=446b649e-03cf-41b1-92d4-8524f7369041"},"vehicle_type_id":"4","last_reported":1762628808,"current_range_meters":4800,"station_id":"ce4bh692rcd13ifvqea0","pricing_plan_id":"cebpf4jnsgd1na2vs0mg"},{"bike_id":"fc2f15b2-9232-42d6-9f25-90be249b8662","system_id":"levelo_inurba_marseille","lat":43.30142,"lon":5.38784,"is_reserved":false,"is_disabled":false,"rental_uris":{"android":"levelo://app?vid=fc2f15b2-9232-42d6-9f25-90be249b8662","ios":"levelo://app?vid=fc2f15b2-9232-42d6-9f25-90be249b8662"},"vehicle_type_id":"4","last_reported":1762628808,"current_range_meters":4800,"station_id":"ce4bghh2rcd13ifvqb60","pricing_plan_id":"cebpf4jnsgd1na2vs0mg"},{"bike_id":"27f1512f-10b8-40be-ba41-d971b1b27a7e","system_id":"levelo_inurba_marseille","lat":43.32469,"lon":5.36564,"is_reserved":false,"is_disabled":false,"rental_uris":{"android":"levelo://app?vid=27f1512f-10b8-40be-ba41-d971b1b27a7e","ios":"levelo://app?vid=27f1512f-10b8-40be-ba41-d971b1b27a7e"},"vehicle_type_id":"4","last_reported":1762628808,"current_range_meters":4800,"station_id":"ce4bhs12rcd13ifvqhvg","pricing_plan_id":"cebpf4jnsgd1na2vs0mg"},{"bike_id":"999e4975-56c4-467e-9b2d-5f0aea845f83","system_id":"levelo_inurba_marseille","lat":43.29605,"lon":5.38105,"is_reserved":false,"is_disabled":false,"rental_uris":{"android":"levelo://app?vid=999e4975-56c4-467e-9b2d-5f0aea845f83","ios":"levelo://app?vid=999e4975-56c4-467e-9b2d-5f0aea845f83"},"vehicle_type_id":"4","last_reported":1762628808,"current_range_meters":4800,"station_id":"ce4bgl12rcd13ifvqbo0","pricing_plan_id":"cebpf4jnsgd1na2vs0mg"},{"bike_id":"cae51eb0-2a45-46ef-9d56-e30bdb36870c","system_id":"levelo_inurba_marseille","lat":43.30305,"lon":5.36895,"is_reserved":false,"is_disabled":false,"rental_uris":{"android":"levelo://app?vid=cae51eb0-2a45-46ef-9d56-e30bdb36870c","ios":"levelo://app?vid=cae51eb0-2a45-46ef-9d56-e30bdb36870c"},"vehicle_type_id":"4","last_reported":1762628808,"current_range_meters":4800,"station_id":"ce4bgqh2rcd13ifvqc5g","pricing_plan_id":"cebpf4jnsgd1na2vs0mg"},{"bike_id":"453544c8-c36c-4f75-a790-5c0405ae854f","system_id":"levelo_inurba_marseille","lat":43.2594,"lon":5.40902,"is_reserved":false,"is_disabled":false,"rental_uris":{"android":"levelo://app?vid=453544c8-c36c-4f75-a790-5c0405ae854f","ios":"levelo://app?vid=453544c8-c36c-4f75-a790-5c0405ae854f"},"vehicle_type_id":"4","last_reported":1762628808,"current_range_meters":5600,"station_id":"ce4bhm92rcd13ifvqglg","pricing_plan_id":"cebpf4jnsgd1na2vs0mg"},{"bike_id":"5665eda2-bd46-425c-831f-c7d5a20e743f","system_id":"levelo_inurba_marseille","lat":43.292591,"lon":5.384446,"is_reserved":false,"is_disabled":false,"rental_uris":{"android":"levelo://app?vid=5665eda2-bd46-425c-831f-c7d5a20e743f","ios":"levelo://app?vid=5665eda2-bd46-425c-831f-c7d5a20e743f"},"vehicle_type_id":"4","last_reported":1762628808,"current_range_meters":5600,"station_id":"ce4bh692rcd13ifvqea0","pricing_plan_id":"cebpf4jnsgd1na2vs0mg"},{"bike_id":"01ddaf86-faaa-4b4f-acf8-d5fb70479bdb","system_id":"levelo_inurba_marseille","lat":43.293,"lon":5.3717,"is_reserved":false,"is_disabled":false,"rental_uris":{"android":"levelo://app?vid=01ddaf86-faaa-4b4f-acf8-d5fb70479bdb","ios":"levelo://app?vid=01ddaf86-faaa-4b4f-acf8-d5fb70479bdb"},"vehicle_type_id":"4","last_reported":1762628808,"current_range_meters":5600,"station_id":"ce4bgh92rcd13ifvqb40","pricing_plan_id":"cebpf4jnsgd1na2vs0mg"},{"bike_id":"ced5f2f1-afe1-481c-8470-04ab5e607b54","system_id":"levelo_inurba_marseille","lat":43.30533,"lon":5.38414,"is_reserved":false,"is_disabled":false,"rental_uris":{"android":"levelo://app?vid=ced5f2f1-afe1-481c-8470-04ab5e607b54","ios":"levelo://app?vid=ced5f2f1-afe1-481c-8470-04ab5e607b54"},"vehicle_type_id":"4","last_reported":1762628808,"current_range_meters":6000,"station_id":"ce4bgg92rcd13ifvqb30","pricing_plan_id":"cebpf4jnsgd1na2vs0mg"},{"bike_id":"711b5184-06a1-46c6-b1ad-270408b914a4","system_id":"levelo_inurba_marseille","lat":43.299986,"lon":5.409799,"is_reserved":false,"is_disabled":false,"rental_uris":{"android":"levelo://app?vid=711b5184-06a1-46c6-b1ad-270408b914a4","ios":"levelo://app?vid=711b5184-06a1-46c6-b1ad-270408b914a4"},"vehicle_type_id":"4","last_reported":1762628808,"current_range_meters":6000,"station_id":"","pricing_plan_id":"cebpf4jnsgd1na2vs0mg"},{"bike_id":"e1719d0e-e927-4dea-b084-bec16b8ea3f9","system_id":"levelo_inurba_marseille","lat":43.29002,"lon":5.35606,"is_reserved":false,"is_disabled":false,"rental_uris":{"android":"levelo://app?vid=e1719d0e-e927-4dea-b084-bec16b8ea3f9","ios":"levelo://app?vid=e1719d0e-e927-4dea-b084-bec16b8ea3f9"},"vehicle_type_id":"4","last_reported":1762628808,"current_range_meters":6000,"station_id":"ce4bhb92rcd13ifvqen0","pricing_plan_id":"cebpf4jnsgd1na2vs0mg"},{"bike_id":"3017da39-e910-46eb-97bd-84c089ef33f4","system_id":"levelo_inurba_marseille","lat":43.27615,"lon":5.36103,"is_reserved":false,"is_disabled":false,"rental_uris":{"android":"levelo://app?vid=3017da39-e910-46eb-97bd-84c089ef33f4","ios":"levelo://app?vid=3017da39-e910-46eb-97bd-84c089ef33f4"},"vehicle_type_id":"4","last_reported":1762628808,"current_range_meters":6000,"station_id":"ce4bgj92rcd13ifvqbe0","pricing_plan_id":"cebpf4jnsgd1na2vs0mg"},{"bike_id":"043d6fe1-c263-47ed-a92b-8f9d09fb9bdd","system_id":"levelo_inurba_marseille","lat":43.299405,"lon":5.371621,"is_reserved":false,"is_disabled":false,"rental_uris":{"android":"levelo://app?vid=043d6fe1-c263-47ed-a92b-8f9d09fb9bdd","ios":"levelo://app?vid=043d6fe1-c263-47ed-a92b-8f9d09fb9bdd"},"vehicle_type_id":"4","last_reported":1762628808,"current_range_meters":6000,"station_id":"ce4bgr92rcd13ifvqc7g","pricing_plan_id":"cebpf4jnsgd1na2vs0mg"},{"bike_id":"5d63f2aa-8446-4f1d-92da-1e2d5b4a6cc8","system_id":"levelo_inurba_marseille","lat":43.296642,"lon":5.377618,"is_reserved":false,"is_disabled":false,"rental_uris":{"android":"levelo://app?vid=5d63f2aa-8446-4f1d-92da-1e2d5b4a6cc8","ios":"levelo://app?vid=5d63f2aa-8446-4f1d-92da-1e2d5b4a6cc8"},"vehicle_type_id":"4","last_reported":1762628808,"current_range_meters":6400,"station_id":"","pricing_plan_id":"cebpf4jnsgd1na2vs0mg"},{"bike_id":"c687f5b8-73fc-4bba-bdba-8dae557f7ae6","system_id":"levelo_inurba_marseille","lat":43.27373,"lon":5.36244,"is_reserved":false,"is_disabled":true,"rental_uris":{"android":"levelo://app?vid=c687f5b8-73fc-4bba-bdba-8dae557f7ae6","ios":"levelo://app?vid=c687f5b8-73fc-4bba-bdba-8dae557f7ae6"},"vehicle_type_id":"4","last_reported":1762628808,"current_range_meters":6400,"station_id":"ce4bhbh2rcd13ifvqeo0","pricing_plan_id":"cebpf4jnsgd1na2vs0mg"},{"bike_id":"1990bacd-ee48-437d-9908-4b528c5e73a2","system_id":"levelo_inurba_marseille","lat":43.33024,"lon":5.39044,"is_reserved":false,"is_disabled":false,"rental_uris":{"android":"levelo://app?vid=1990bacd-ee48-437d-9908-4b528c5e73a2","ios":"levelo://app?vid=1990bacd-ee48-437d-9908-4b528c5e73a2"},"vehicle_type_id":"4","last_reported":1762628808,"current_range_meters":6400,"station_id":"ce4bhr92rcd13ifvqhrg","pricing_plan_id":"cebpf4jnsgd1na2vs0mg"},{"bike_id":"b05048b6-3636-4628-97b9-678771374061","system_id":"levelo_inurba_marseille","lat":43.31493,"lon":5.37279,"is_reserved":false,"is_disabled":false,"rental_uris":{"android":"levelo://app?vid=b05048b6-3636-4628-97b9-678771374061","ios":"levelo://app?vid=b05048b6-3636-4628-97b9-678771374061"},"vehicle_type_id":"4","last_reported":1762628808,"current_range_meters":6400,"station_id":"ce4bgt12rcd13ifvqcd0","pricing_plan_id":"cebpf4jnsgd1na2vs0mg"},{"bike_id":"6580beb2-f281-473f-9ef4-7b331653ef2e","system_id":"levelo_inurba_marseille","lat":43.29125,"lon":5.40795,"is_reserved":false,"is_disabled":false,"rental_uris":{"android":"levelo://app?vid=6580beb2-f281-473f-9ef4-7b331653ef2e","ios":"levelo://app?vid=6580beb2-f281-473f-9ef4-7b331653ef2e"},"vehicle_type_id":"4","last_reported":1762628808,"current_range_meters":6400,"station_id":"","pricing_plan_id":"cebpf4jnsgd1na2vs0mg"},{"bike_id":"f6cef8d5-8fe8-4923-948c-afab7026b14f","system_id":"levelo_inurba_marseille","lat":43.29787,"lon":5.39339,"is_reserved":false,"is_disabled":false,"rental_uris":{"android":"levelo://app?vid=f6cef8d5-8fe8-4923-948c-afab7026b14f","ios":"levelo://app?vid=f6cef8d5-8fe8-4923-948c-afab7026b14f"},"vehicle_type_id":"4","last_reported":1762628808,"current_range_meters":6400,"station_id":"chh1huq6cuj3fo74tm60","pricing_plan_id":"cebpf4jnsgd1na2vs0mg"},{"bike_id":"348bf609-07f6-4ffc-add0-6df7615d023f","system_id":"levelo_inurba_marseille","lat":43.337669,"lon":5.37438,"is_reserved":false,"is_disabled":false,"rental_uris":{"android":"levelo://app?vid=348bf609-07f6-4ffc-add0-6df7615d023f","ios":"levelo://app?vid=348bf609-07f6-4ffc-add0-6df7615d023f"},"vehicle_type_id":"4","last_reported":1762628808,"current_range_meters":6400,"station_id":"","pricing_plan_id":"cebpf4jnsgd1na2vs0mg"},{"bike_id":"663f01f2-a070-4eb3-8191-8937892b104d","system_id":"levelo_inurba_marseille","lat":43.30806,"lon":5.38137,"is_reserved":false,"is_disabled":false,"rental_uris":{"android":"levelo://app?vid=663f01f2-a070-4eb3-8191-8937892b104d","ios":"levelo://app?vid=663f01f2-a070-4eb3-8191-8937892b104d"},"vehicle_type_id":"4","last_reported":1762628808,"current_range_meters":6800,"station_id":"ce4bgt12rcd13ifvqce0","pricing_plan_id":"cebpf4jnsgd1na2vs0mg"},{"bike_id":"704b3d71-9047-4f21-a056-7c7f4e839bda","system_id":"levelo_inurba_marseille","lat":43.29969,"lon":5.38492,"is_reserved":false,"is_disabled":false,"rental_uris":{"android":"levelo://app?vid=704b3d71-9047-4f21-a056-7c7f4e839bda","ios":"levelo://app?vid=704b3d71-9047-4f21-a056-7c7f4e839bda"},"vehicle_type_id":"4","last_reported":1762628808,"current_range_meters":6800,"station_id":"ce4bgj92rcd13ifvqbd0","pricing_plan_id":"cebpf4jnsgd1na2vs0mg"},{"bike_id":"20b1fd88-80b2-4699-bb10-dd71467b3068","system_id":"levelo_inurba_marseille","lat":43.28945,"lon":5.36404,"is_reserved":false,"is_disabled":false,"rental_uris":{"android":"levelo://app?vid=20b1fd88-80b2-4699-bb10-dd71467b3068","ios":"levelo://app?vid=20b1fd88-80b2-4699-bb10-dd71467b3068"},"vehicle_type_id":"4","last_reported":1762628808,"current_range_meters":6800,"station_id":"ce4bhc92rcd13ifvqetg","pricing_plan_id":"cebpf4jnsgd1na2vs0mg"},{"bike_id":"b7f88d4b-5e9e-4259-925c-e827ec61aea7","system_id":"levelo_inurba_marseille","lat":43.29877,"lon":5.38906,"is_reserved":false,"is_disabled":false,"rental_uris":{"android":"levelo://app?vid=b7f88d4b-5e9e-4259-925c-e827ec61aea7","ios":"levelo://app?vid=b7f88d4b-5e9e-4259-925c-e827ec61aea7"},"vehicle_type_id":"4","last_reported":1762628808,"current_range_meters":6800,"station_id":"ce4bh392rcd13ifvqdl0","pricing_plan_id":"cebpf4jnsgd1na2vs0mg"},{"bike_id":"34c14480-831b-41a9-b30b-a1e8f994a110","system_id":"levelo_inurba_marseille","lat":43.30824,"lon":5.37161,"is_reserved":false,"is_disabled":false,"rental_uris":{"android":"levelo://app?vid=34c14480-831b-41a9-b30b-a1e8f994a110","ios":"levelo://app?vid=34c14480-831b-41a9-b30b-a1e8f994a110"},"vehicle_type_id":"4","last_reported":1762628808,"current_range_meters":6800,"station_id":"","pricing_plan_id":"cebpf4jnsgd1na2vs0mg"},{"bike_id":"7c392732-2900-41fd-8c6d-e5b49cdf67b5","system_id":"levelo_inurba_marseille","lat":43.29719,"lon":5.38264,"is_reserved":false,"is_disabled":false,"rental_uris":{"android":"levelo://app?vid=7c392732-2900-41fd-8c6d-e5b49cdf67b5","ios":"levelo://app?vid=7c392732-2900-41fd-8c6d-e5b49cdf67b5"},"vehicle_type_id":"4","last_reported":1762628808,"current_range_meters":6800,"station_id":"","pricing_plan_id":"cebpf4jnsgd1na2vs0mg"},{"bike_id":"f8398a2a-50d0-42b1-b16d-ea5eb2bd5b40","system_id":"levelo_inurba_marseille","lat":43.2987,"lon":5.39741,"is_reserved":false,"is_disabled":false,"rental_uris":{"android":"levelo://app?vid=f8398a2a-50d0-42b1-b16d-ea5eb2bd5b40","ios":"levelo://app?vid=f8398a2a-50d0-42b1-b16d-ea5eb2bd5b40"},"vehicle_type_id":"4","last_reported":1762628808,"current_range_meters":6800,"station_id":"ce4bh0h2rcd13ifvqd50","pricing_plan_id":"cebpf4jnsgd1na2vs0mg"},{"bike_id":"a9e1d438-2293-4765-ac89-9905951af55e","system_id":"levelo_inurba_marseille","lat":43.253538,"lon":5.421664,"is_reserved":false,"is_disabled":false,"rental_uris":{"android":"levelo://app?vid=a9e1d438-2293-4765-ac89-9905951af55e","ios":"levelo://app?vid=a9e1d438-2293-4765-ac89-9905951af55e"},"vehicle_type_id":"4","last_reported":1762628808,"current_range_meters":6800,"station_id":"st_d2m65c5bi1j21697t3ng","pricing_plan_id":"cebpf4jnsgd1na2vs0mg"},{"bike_id":"78bd5f74-b07f-4aac-b566-26ecec6fd5df","system_id":"levelo_inurba_marseille","lat":43.30679,"lon":5.380458,"is_reserved":false,"is_disabled":false,"rental_uris":{"android":"levelo://app?vid=78bd5f74-b07f-4aac-b566-26ecec6fd5df","ios":"levelo://app?vid=78bd5f74-b07f-4aac-b566-26ecec6fd5df"},"vehicle_type_id":"4","last_reported":1762628808,"current_range_meters":6800,"station_id":"","pricing_plan_id":"cebpf4jnsgd1na2vs0mg"},{"bike_id":"5bee8f0f-57fe-4257-a72a-04a4967570b5","system_id":"levelo_inurba_marseille","lat":43.300464,"lon":5.377124,"is_reserved":false,"is_disabled":false,"rental_uris":{"android":"levelo://app?vid=5bee8f0f-57fe-4257-a72a-04a4967570b5","ios":"levelo://app?vid=5bee8f0f-57fe-4257-a72a-04a4967570b5"},"vehicle_type_id":"4","last_reported":1762628808,"current_range_meters":6800,"station_id":"","pricing_plan_id":"cebpf4jnsgd1na2vs0mg"},{"bike_id":"c03bd52b-534b-4ae1-bb73-924e391fe2f5","system_id":"levelo_inurba_marseille","lat":43.25525,"lon":5.37645,"is_reserved":false,"is_disabled":true,"rental_uris":{"android":"levelo://app?vid=c03bd52b-534b-4ae1-bb73-924e391fe2f5","ios":"levelo://app?vid=c03bd52b-534b-4ae1-bb73-924e391fe2f5"},"vehicle_type_id":"4","last_reported":1762628808,"current_range_meters":7200,"station_id":"ce4bhh12rcd13ifvqff0","pricing_plan_id":"cebpf4jnsgd1na2vs0mg"},{"bike_id":"030271d1-25f7-40fa-bc04-dd21448cbb54","system_id":"levelo_inurba_marseille","lat":43.24616,"lon":5.43122,"is_reserved":false,"is_disabled":false,"rental_uris":{"android":"levelo://app?vid=030271d1-25f7-40fa-bc04-dd21448cbb54","ios":"levelo://app?vid=030271d1-25f7-40fa-bc04-dd21448cbb54"},"vehicle_type_id":"4","last_reported":1762628808,"current_range_meters":7200,"station_id":"st_d2m6c4gdas8pm72e190g","pricing_plan_id":"cebpf4jnsgd1na2vs0mg"},{"bike_id":"e2b37979-8562-4c07-9c1c-d1b8eb250f5d","system_id":"levelo_inurba_marseille","lat":43.31724,"lon":5.42392,"is_reserved":false,"is_disabled":false,"rental_uris":{"android":"levelo://app?vid=e2b37979-8562-4c07-9c1c-d1b8eb250f5d","ios":"levelo://app?vid=e2b37979-8562-4c07-9c1c-d1b8eb250f5d"},"vehicle_type_id":"4","last_reported":1762628808,"current_range_meters":7200,"station_id":"ce4bhp92rcd13ifvqhbg","pricing_plan_id":"cebpf4jnsgd1na2vs0mg"},{"bike_id":"3822be5d-87ff-48fe-aef8-9c3de911ee69","system_id":"levelo_inurba_marseille","lat":43.29075,"lon":5.3809,"is_reserved":false,"is_disabled":false,"rental_uris":{"android":"levelo://app?vid=3822be5d-87ff-48fe-aef8-9c3de911ee69","ios":"levelo://app?vid=3822be5d-87ff-48fe-aef8-9c3de911ee69"},"vehicle_type_id":"4","last_reported":1762628808,"current_range_meters":7200,"station_id":"ce4bh512rcd13ifvqe2g","pricing_plan_id":"cebpf4jnsgd1na2vs0mg"},{"bike_id":"b2773aa2-52ab-4636-bc31-6852d94c3ad6","system_id":"levelo_inurba_marseille","lat":43.29364,"lon":5.37841,"is_reserved":false,"is_disabled":false,"rental_uris":{"android":"levelo://app?vid=b2773aa2-52ab-4636-bc31-6852d94c3ad6","ios":"levelo://app?vid=b2773aa2-52ab-4636-bc31-6852d94c3ad6"},"vehicle_type_id":"4","last_reported":1762628808,"current_range_meters":8000,"station_id":"ce4bgjh2rcd13ifvqbf0","pricing_plan_id":"cebpf4jnsgd1na2vs0mg"},{"bike_id":"5c17ed12-8897-4f84-bbfc-85419a7f8038","system_id":"levelo_inurba_marseille","lat":43.270918,"lon":5.394383,"is_reserved":false,"is_disabled":false,"rental_uris":{"android":"levelo://app?vid=5c17ed12-8897-4f84-bbfc-85419a7f8038","ios":"levelo://app?vid=5c17ed12-8897-4f84-bbfc-85419a7f8038"},"vehicle_type_id":"4","last_reported":1762628808,"current_range_meters":8000,"station_id":"","pricing_plan_id":"cebpf4jnsgd1na2vs0mg"},{"bike_id":"5eee5a29-c652-47f2-a842-6e90b65d4c46","system_id":"levelo_inurba_marseille","lat":43.29254,"lon":5.38439,"is_reserved":false,"is_disabled":false,"rental_uris":{"android":"levelo://app?vid=5eee5a29-c652-47f2-a842-6e90b65d4c46","ios":"levelo://app?vid=5eee5a29-c652-47f2-a842-6e90b65d4c46"},"vehicle_type_id":"4","last_reported":1762628808,"current_range_meters":8000,"station_id":"ce4bh692rcd13ifvqea0","pricing_plan_id":"cebpf4jnsgd1na2vs0mg"},{"bike_id":"d4478796-99a5-49ec-b0a7-5d2a28981beb","system_id":"levelo_inurba_marseille","lat":43.260594,"lon":5.39399,"is_reserved":false,"is_disabled":false,"rental_uris":{"android":"levelo://app?vid=d4478796-99a5-49ec-b0a7-5d2a28981beb","ios":"levelo://app?vid=d4478796-99a5-49ec-b0a7-5d2a28981beb"},"vehicle_type_id":"4","last_reported":1762628808,"current_range_meters":8000,"station_id":"ce4bhh92rcd13ifvqfj0","pricing_plan_id":"cebpf4jnsgd1na2vs0mg"},{"bike_id":"932325d9-17cb-42fb-9697-5de3becd7727","system_id":"levelo_inurba_marseille","lat":43.30534,"lon":5.38426,"is_reserved":false,"is_disabled":false,"rental_uris":{"android":"levelo://app?vid=932325d9-17cb-42fb-9697-5de3becd7727","ios":"levelo://app?vid=932325d9-17cb-42fb-9697-5de3becd7727"},"vehicle_type_id":"4","last_reported":1762628808,"current_range_meters":8000,"station_id":"ce4bgg92rcd13ifvqb30","pricing_plan_id":"cebpf4jnsgd1na2vs0mg"},{"bike_id":"b16d56e3-c4b9-4bbe-94a6-317c3a4a03df","system_id":"levelo_inurba_marseille","lat":43.31072,"lon":5.38352,"is_reserved":false,"is_disabled":false,"rental_uris":{"android":"levelo://app?vid=b16d56e3-c4b9-4bbe-94a6-317c3a4a03df","ios":"levelo://app?vid=b16d56e3-c4b9-4bbe-94a6-317c3a4a03df"},"vehicle_type_id":"4","last_reported":1762628808,"current_range_meters":8000,"station_id":"ce4bgv92rcd13ifvqcr0","pricing_plan_id":"cebpf4jnsgd1na2vs0mg"},{"bike_id":"a0ea519d-554f-42a0-93a3-d4c181552c78","system_id":"levelo_inurba_marseille","lat":43.31275,"lon":5.37766,"is_reserved":false,"is_disabled":false,"rental_uris":{"android":"levelo://app?vid=a0ea519d-554f-42a0-93a3-d4c181552c78","ios":"levelo://app?vid=a0ea519d-554f-42a0-93a3-d4c181552c78"},"vehicle_type_id":"4","last_reported":1762628808,"current_range_meters":8000,"station_id":"","pricing_plan_id":"cebpf4jnsgd1na2vs0mg"},{"bike_id":"5e74b995-d3e0-4d20-a662-d63344a83975","system_id":"levelo_inurba_marseille","lat":43.29532,"lon":5.38549,"is_reserved":false,"is_disabled":false,"rental_uris":{"android":"levelo://app?vid=5e74b995-d3e0-4d20-a662-d63344a83975","ios":"levelo://app?vid=5e74b995-d3e0-4d20-a662-d63344a83975"},"vehicle_type_id":"4","last_reported":1762628808,"current_range_meters":8000,"station_id":"ce4bgih2rcd13ifvqba0","pricing_plan_id":"cebpf4jnsgd1na2vs0mg"},{"bike_id":"e54be9d9-b0a9-48fd-844d-2e219918e74f","system_id":"levelo_inurba_marseille","lat":43.29309,"lon":5.372,"is_reserved":false,"is_disabled":false,"rental_uris":{"android":"levelo://app?vid=e54be9d9-b0a9-48fd-844d-2e219918e74f","ios":"levelo://app?vid=e54be9d9-b0a9-48fd-844d-2e219918e74f"},"vehicle_type_id":"4","last_reported":1762628808,"current_range_meters":8000,"station_id":"ce4bgh92rcd13ifvqb40","pricing_plan_id":"cebpf4jnsgd1na2vs0mg"},{"bike_id":"2bb3d8ca-2936-4c0b-9f17-889f7f560b23","system_id":"levelo_inurba_marseille","lat":43.29268,"lon":5.38446,"is_reserved":false,"is_disabled":false,"rental_uris":{"android":"levelo://app?vid=2bb3d8ca-2936-4c0b-9f17-889f7f560b23","ios":"levelo://app?vid=2bb3d8ca-2936-4c0b-9f17-889f7f560b23"},"vehicle_type_id":"4","last_reported":1762628808,"current_range_meters":8000,"station_id":"ce4bh692rcd13ifvqea0","pricing_plan_id":"cebpf4jnsgd1na2vs0mg"},{"bike_id":"84bdde46-1046-4f35-959f-60cf7521bf10","system_id":"levelo_inurba_marseille","lat":43.33759,"lon":5.37468,"is_reserved":false,"is_disabled":false,"rental_uris":{"android":"levelo://app?vid=84bdde46-1046-4f35-959f-60cf7521bf10","ios":"levelo://app?vid=84bdde46-1046-4f35-959f-60cf7521bf10"},"vehicle_type_id":"4","last_reported":1762628808,"current_range_meters":8400,"station_id":"","pricing_plan_id":"cebpf4jnsgd1na2vs0mg"},{"bike_id":"c81d0c0e-28d7-4d6e-a85b-d5314970f92f","system_id":"levelo_inurba_marseille","lat":43.29169,"lon":5.3717,"is_reserved":false,"is_disabled":false,"rental_uris":{"android":"levelo://app?vid=c81d0c0e-28d7-4d6e-a85b-d5314970f92f","ios":"levelo://app?vid=c81d0c0e-28d7-4d6e-a85b-d5314970f92f"},"vehicle_type_id":"4","last_reported":1762628808,"current_range_meters":8400,"station_id":"ce4bha92rcd13ifvqeh0","pricing_plan_id":"cebpf4jnsgd1na2vs0mg"},{"bike_id":"2bda9569-8855-4749-9a29-a9c55ba153ed","system_id":"levelo_inurba_marseille","lat":43.22556,"lon":5.41621,"is_reserved":false,"is_disabled":false,"rental_uris":{"android":"levelo://app?vid=2bda9569-8855-4749-9a29-a9c55ba153ed","ios":"levelo://app?vid=2bda9569-8855-4749-9a29-a9c55ba153ed"},"vehicle_type_id":"4","last_reported":1762628808,"current_range_meters":8400,"station_id":"st_d2o4gvlbi1j2169b742g","pricing_plan_id":"cebpf4jnsgd1na2vs0mg"},{"bike_id":"eb46c66d-5104-4495-80f5-a25d45718f4c","system_id":"levelo_inurba_marseille","lat":43.30375,"lon":5.42493,"is_reserved":false,"is_disabled":false,"rental_uris":{"android":"levelo://app?vid=eb46c66d-5104-4495-80f5-a25d45718f4c","ios":"levelo://app?vid=eb46c66d-5104-4495-80f5-a25d45718f4c"},"vehicle_type_id":"4","last_reported":1762628808,"current_range_meters":8400,"station_id":"ce4bhoh2rcd13ifvqh6g","pricing_plan_id":"cebpf4jnsgd1na2vs0mg"},{"bike_id":"ceecbade-7a1d-43e5-93a1-f5197868e5e8","system_id":"levelo_inurba_marseille","lat":43.29966,"lon":5.38491,"is_reserved":false,"is_disabled":false,"rental_uris":{"android":"levelo://app?vid=ceecbade-7a1d-43e5-93a1-f5197868e5e8","ios":"levelo://app?vid=ceecbade-7a1d-43e5-93a1-f5197868e5e8"},"vehicle_type_id":"4","last_reported":1762628808,"current_range_meters":8400,"station_id":"ce4bgj92rcd13ifvqbd0","pricing_plan_id":"cebpf4jnsgd1na2vs0mg"},{"bike_id":"46748178-17b8-4dc8-80b3-39159ff743e0","system_id":"levelo_inurba_marseille","lat":43.300495,"lon":5.383228,"is_reserved":false,"is_disabled":false,"rental_uris":{"android":"levelo://app?vid=46748178-17b8-4dc8-80b3-39159ff743e0","ios":"levelo://app?vid=46748178-17b8-4dc8-80b3-39159ff743e0"},"vehicle_type_id":"4","last_reported":1762628808,"current_range_meters":8400,"station_id":"","pricing_plan_id":"cebpf4jnsgd1na2vs0mg"},{"bike_id":"d194eb3d-a767-4bd7-9df4-eb4a32bda2ef","system_id":"levelo_inurba_marseille","lat":43.29268,"lon":5.38432,"is_reserved":false,"is_disabled":false,"rental_uris":{"android":"levelo://app?vid=d194eb3d-a767-4bd7-9df4-eb4a32bda2ef","ios":"levelo://app?vid=d194eb3d-a767-4bd7-9df4-eb4a32bda2ef"},"vehicle_type_id":"4","last_reported":1762628808,"current_range_meters":8400,"station_id":"ce4bh692rcd13ifvqea0","pricing_plan_id":"cebpf4jnsgd1na2vs0mg"},{"bike_id":"6894af30-e2cb-4a66-ab62-0d10a5c21383","system_id":"levelo_inurba_marseille","lat":43.286974,"lon":5.399847,"is_reserved":false,"is_disabled":false,"rental_uris":{"android":"levelo://app?vid=6894af30-e2cb-4a66-ab62-0d10a5c21383","ios":"levelo://app?vid=6894af30-e2cb-4a66-ab62-0d10a5c21383"},"vehicle_type_id":"4","last_reported":1762628808,"current_range_meters":8400,"station_id":"ce4bh692rcd13ifvqea0","pricing_plan_id":"cebpf4jnsgd1na2vs0mg"},{"bike_id":"310115a0-7bf2-4a4a-9d53-56bf6918e4d0","system_id":"levelo_inurba_marseille","lat":43.28485,"lon":5.48387,"is_reserved":false,"is_disabled":false,"rental_uris":{"android":"levelo://app?vid=310115a0-7bf2-4a4a-9d53-56bf6918e4d0","ios":"levelo://app?vid=310115a0-7bf2-4a4a-9d53-56bf6918e4d0"},"vehicle_type_id":"4","last_reported":1762628808,"current_range_meters":8800,"station_id":"st_d3svhcjqgbts73a3dn0g","pricing_plan_id":"cebpf4jnsgd1na2vs0mg"},{"bike_id":"06fe1b57-c5ec-4b13-9c47-109a846e37d1","system_id":"levelo_inurba_marseille","lat":43.29968,"lon":5.38485,"is_reserved":false,"is_disabled":false,"rental_uris":{"android":"levelo://app?vid=06fe1b57-c5ec-4b13-9c47-109a846e37d1","ios":"levelo://app?vid=06fe1b57-c5ec-4b13-9c47-109a846e37d1"},"vehicle_type_id":"4","last_reported":1762628808,"current_range_meters":8800,"station_id":"ce4bgj92rcd13ifvqbd0","pricing_plan_id":"cebpf4jnsgd1na2vs0mg"},{"bike_id":"c11f70de-6fc9-4310-8b9a-45c2b16b383c","system_id":"levelo_inurba_marseille","lat":43.27929,"lon":5.38001,"is_reserved":false,"is_disabled":false,"rental_uris":{"android":"levelo://app?vid=c11f70de-6fc9-4310-8b9a-45c2b16b383c","ios":"levelo://app?vid=c11f70de-6fc9-4310-8b9a-45c2b16b383c"},"vehicle_type_id":"4","last_reported":1762628808,"current_range_meters":8800,"station_id":"ce4bhf92rcd13ifvqf50","pricing_plan_id":"cebpf4jnsgd1na2vs0mg"},{"bike_id":"663cd7c1-d330-4518-9a12-9f03e251ebed","system_id":"levelo_inurba_marseille","lat":43.28151,"lon":5.42634,"is_reserved":false,"is_disabled":false,"rental_uris":{"android":"levelo://app?vid=663cd7c1-d330-4518-9a12-9f03e251ebed","ios":"levelo://app?vid=663cd7c1-d330-4518-9a12-9f03e251ebed"},"vehicle_type_id":"4","last_reported":1762628808,"current_range_meters":8800,"station_id":"ce4bhnh2rcd13ifvqgug","pricing_plan_id":"cebpf4jnsgd1na2vs0mg"},{"bike_id":"860059d5-7fe3-4602-abdf-77ec8d8306a0","system_id":"levelo_inurba_marseille","lat":43.27101,"lon":5.3923,"is_reserved":false,"is_disabled":false,"rental_uris":{"android":"levelo://app?vid=860059d5-7fe3-4602-abdf-77ec8d8306a0","ios":"levelo://app?vid=860059d5-7fe3-4602-abdf-77ec8d8306a0"},"vehicle_type_id":"4","last_reported":1762628808,"current_range_meters":8800,"station_id":"","pricing_plan_id":"cebpf4jnsgd1na2vs0mg"},{"bike_id":"74b65221-debd-4ea0-aef3-c1ab8067f490","system_id":"levelo_inurba_marseille","lat":43.30729,"lon":5.42426,"is_reserved":false,"is_disabled":false,"rental_uris":{"android":"levelo://app?vid=74b65221-debd-4ea0-aef3-c1ab8067f490","ios":"levelo://app?vid=74b65221-debd-4ea0-aef3-c1ab8067f490"},"vehicle_type_id":"4","last_reported":1762628808,"current_range_meters":8800,"station_id":"st_cvj6ca6bvosntc0bfgr0","pricing_plan_id":"cebpf4jnsgd1na2vs0mg"},{"bike_id":"5be14db4-2b06-429f-96c7-68255232d8cf","system_id":"levelo_inurba_marseille","lat":43.297096,"lon":5.366177,"is_reserved":false,"is_disabled":false,"rental_uris":{"android":"levelo://app?vid=5be14db4-2b06-429f-96c7-68255232d8cf","ios":"levelo://app?vid=5be14db4-2b06-429f-96c7-68255232d8cf"},"vehicle_type_id":"4","last_reported":1762628808,"current_range_meters":8800,"station_id":"","pricing_plan_id":"cebpf4jnsgd1na2vs0mg"},{"bike_id":"1838733c-6ff3-4df1-99be-4e3eb44bd3a0","system_id":"levelo_inurba_marseille","lat":43.2534,"lon":5.42172,"is_reserved":false,"is_disabled":false,"rental_uris":{"android":"levelo://app?vid=1838733c-6ff3-4df1-99be-4e3eb44bd3a0","ios":"levelo://app?vid=1838733c-6ff3-4df1-99be-4e3eb44bd3a0"},"vehicle_type_id":"4","last_reported":1762628808,"current_range_meters":8800,"station_id":"st_d2m65c5bi1j21697t3ng","pricing_plan_id":"cebpf4jnsgd1na2vs0mg"},{"bike_id":"02ab9aa1-a034-48f4-b2cd-1a329fc9f093","system_id":"levelo_inurba_marseille","lat":43.29306,"lon":5.37455,"is_reserved":false,"is_disabled":false,"rental_uris":{"android":"levelo://app?vid=02ab9aa1-a034-48f4-b2cd-1a329fc9f093","ios":"levelo://app?vid=02ab9aa1-a034-48f4-b2cd-1a329fc9f093"},"vehicle_type_id":"4","last_reported":1762628808,"current_range_meters":8800,"station_id":"ce4bgi12rcd13ifvqb70","pricing_plan_id":"cebpf4jnsgd1na2vs0mg"},{"bike_id":"d13f7aac-3326-47eb-8c83-0485dd333747","system_id":"levelo_inurba_marseille","lat":43.30496,"lon":5.39241,"is_reserved":false,"is_disabled":false,"rental_uris":{"android":"levelo://app?vid=d13f7aac-3326-47eb-8c83-0485dd333747","ios":"levelo://app?vid=d13f7aac-3326-47eb-8c83-0485dd333747"},"vehicle_type_id":"4","last_reported":1762628808,"current_range_meters":8800,"station_id":"","pricing_plan_id":"cebpf4jnsgd1na2vs0mg"},{"bike_id":"2f1cb12b-9070-4bc3-ba9c-d65b391394e4","system_id":"levelo_inurba_marseille","lat":43.24656,"lon":5.38154,"is_reserved":false,"is_disabled":false,"rental_uris":{"android":"levelo://app?vid=2f1cb12b-9070-4bc3-ba9c-d65b391394e4","ios":"levelo://app?vid=2f1cb12b-9070-4bc3-ba9c-d65b391394e4"},"vehicle_type_id":"4","last_reported":1762628808,"current_range_meters":9200,"station_id":"ce4bhih2rcd13ifvqfr0","pricing_plan_id":"cebpf4jnsgd1na2vs0mg"},{"bike_id":"27189b0d-465d-48fe-afae-7e6467da9ef8","system_id":"levelo_inurba_marseille","lat":43.29072,"lon":5.37172,"is_reserved":false,"is_disabled":false,"rental_uris":{"android":"levelo://app?vid=27189b0d-465d-48fe-afae-7e6467da9ef8","ios":"levelo://app?vid=27189b0d-465d-48fe-afae-7e6467da9ef8"},"vehicle_type_id":"4","last_reported":1762628808,"current_range_meters":9200,"station_id":"ce4bh5p2rcd13ifvqe4g","pricing_plan_id":"cebpf4jnsgd1na2vs0mg"},{"bike_id":"9af0687b-3e79-4e11-b844-dd239618aeba","system_id":"levelo_inurba_marseille","lat":43.28849,"lon":5.42542,"is_reserved":false,"is_disabled":false,"rental_uris":{"android":"levelo://app?vid=9af0687b-3e79-4e11-b844-dd239618aeba","ios":"levelo://app?vid=9af0687b-3e79-4e11-b844-dd239618aeba"},"vehicle_type_id":"4","last_reported":1762628808,"current_range_meters":9200,"station_id":"st_d3b462108ojc7389ooeg","pricing_plan_id":"cebpf4jnsgd1na2vs0mg"},{"bike_id":"183f671b-440d-49f9-8e69-2b52b6aa0ffb","system_id":"levelo_inurba_marseille","lat":43.29789,"lon":5.39332,"is_reserved":false,"is_disabled":false,"rental_uris":{"android":"levelo://app?vid=183f671b-440d-49f9-8e69-2b52b6aa0ffb","ios":"levelo://app?vid=183f671b-440d-49f9-8e69-2b52b6aa0ffb"},"vehicle_type_id":"4","last_reported":1762628808,"current_range_meters":9200,"station_id":"chh1huq6cuj3fo74tm60","pricing_plan_id":"cebpf4jnsgd1na2vs0mg"},{"bike_id":"bad93078-b484-4873-a1ce-359b2e630abc","system_id":"levelo_inurba_marseille","lat":43.29364,"lon":5.38432,"is_reserved":false,"is_disabled":false,"rental_uris":{"android":"levelo://app?vid=bad93078-b484-4873-a1ce-359b2e630abc","ios":"levelo://app?vid=bad93078-b484-4873-a1ce-359b2e630abc"},"vehicle_type_id":"4","last_reported":1762628808,"current_range_meters":9200,"station_id":"","pricing_plan_id":"cebpf4jnsgd1na2vs0mg"},{"bike_id":"b48bc2bc-2802-437c-a4c1-e3b84b39c648","system_id":"levelo_inurba_marseille","lat":43.31331,"lon":5.3968,"is_reserved":false,"is_disabled":false,"rental_uris":{"android":"levelo://app?vid=b48bc2bc-2802-437c-a4c1-e3b84b39c648","ios":"levelo://app?vid=b48bc2bc-2802-437c-a4c1-e3b84b39c648"},"vehicle_type_id":"4","last_reported":1762628808,"current_range_meters":9200,"station_id":"ce4bgvp2rcd13ifvqcu0","pricing_plan_id":"cebpf4jnsgd1na2vs0mg"},{"bike_id":"a82f1c8c-4b33-4ef4-a4ce-a2e5e6bb2c0a","system_id":"levelo_inurba_marseille","lat":43.29971,"lon":5.37185,"is_reserved":false,"is_disabled":false,"rental_uris":{"android":"levelo://app?vid=a82f1c8c-4b33-4ef4-a4ce-a2e5e6bb2c0a","ios":"levelo://app?vid=a82f1c8c-4b33-4ef4-a4ce-a2e5e6bb2c0a"},"vehicle_type_id":"4","last_reported":1762628808,"current_range_meters":9600,"station_id":"ce4bgr92rcd13ifvqc7g","pricing_plan_id":"cebpf4jnsgd1na2vs0mg"},{"bike_id":"75e258c0-abe7-4aea-a46c-d8e648d4533c","system_id":"levelo_inurba_marseille","lat":43.310732,"lon":5.383519,"is_reserved":false,"is_disabled":false,"rental_uris":{"android":"levelo://app?vid=75e258c0-abe7-4aea-a46c-d8e648d4533c","ios":"levelo://app?vid=75e258c0-abe7-4aea-a46c-d8e648d4533c"},"vehicle_type_id":"4","last_reported":1762628808,"current_range_meters":9600,"station_id":"ce4bgv92rcd13ifvqcr0","pricing_plan_id":"cebpf4jnsgd1na2vs0mg"},{"bike_id":"0cf81589-082c-470d-a00b-1616300895b1","system_id":"levelo_inurba_marseille","lat":43.28713,"lon":5.37393,"is_reserved":false,"is_disabled":false,"rental_uris":{"android":"levelo://app?vid=0cf81589-082c-470d-a00b-1616300895b1","ios":"levelo://app?vid=0cf81589-082c-470d-a00b-1616300895b1"},"vehicle_type_id":"4","last_reported":1762628808,"current_range_meters":9600,"station_id":"ce4bh3p2rcd13ifvqdq0","pricing_plan_id":"cebpf4jnsgd1na2vs0mg"},{"bike_id":"26aad628-bd01-4664-890e-ba85447bad9f","system_id":"levelo_inurba_marseille","lat":43.303332,"lon":5.40429,"is_reserved":false,"is_disabled":true,"rental_uris":{"android":"levelo://app?vid=26aad628-bd01-4664-890e-ba85447bad9f","ios":"levelo://app?vid=26aad628-bd01-4664-890e-ba85447bad9f"},"vehicle_type_id":"4","last_reported":1762628808,"current_range_meters":9600,"station_id":"ce4bh012rcd13ifvqd10","pricing_plan_id":"cebpf4jnsgd1na2vs0mg"},{"bike_id":"e0ae9410-d919-4f29-aa9b-8d102763302d","system_id":"levelo_inurba_marseille","lat":43.289418,"lon":5.36637,"is_reserved":false,"is_disabled":false,"rental_uris":{"android":"levelo://app?vid=e0ae9410-d919-4f29-aa9b-8d102763302d","ios":"levelo://app?vid=e0ae9410-d919-4f29-aa9b-8d102763302d"},"vehicle_type_id":"4","last_reported":1762628808,"current_range_meters":9600,"station_id":"ce4bhap2rcd13ifvqek0","pricing_plan_id":"cebpf4jnsgd1na2vs0mg"},{"bike_id":"9d001bd6-2c50-4fe0-987b-f4c0aee9f670","system_id":"levelo_inurba_marseille","lat":43.30139,"lon":5.38405,"is_reserved":false,"is_disabled":false,"rental_uris":{"android":"levelo://app?vid=9d001bd6-2c50-4fe0-987b-f4c0aee9f670","ios":"levelo://app?vid=9d001bd6-2c50-4fe0-987b-f4c0aee9f670"},"vehicle_type_id":"4","last_reported":1762628808,"current_range_meters":9600,"station_id":"","pricing_plan_id":"cebpf4jnsgd1na2vs0mg"},{"bike_id":"95565d88-4e0c-4b5d-b6d1-9a4c73bcb1f1","system_id":"levelo_inurba_marseille","lat":43.33772,"lon":5.37456,"is_reserved":false,"is_disabled":false,"rental_uris":{"android":"levelo://app?vid=95565d88-4e0c-4b5d-b6d1-9a4c73bcb1f1","ios":"levelo://app?vid=95565d88-4e0c-4b5d-b6d1-9a4c73bcb1f1"},"vehicle_type_id":"4","last_reported":1762628808,"current_range_meters":9600,"station_id":"","pricing_plan_id":"cebpf4jnsgd1na2vs0mg"},{"bike_id":"89a6a21b-6ffc-4b7e-a395-80626ef481a5","system_id":"levelo_inurba_marseille","lat":43.2707,"lon":5.42274,"is_reserved":false,"is_disabled":false,"rental_uris":{"android":"levelo://app?vid=89a6a21b-6ffc-4b7e-a395-80626ef481a5","ios":"levelo://app?vid=89a6a21b-6ffc-4b7e-a395-80626ef481a5"},"vehicle_type_id":"4","last_reported":1762628808,"current_range_meters":9600,"station_id":"ce4bhk92rcd13ifvqgb0","pricing_plan_id":"cebpf4jnsgd1na2vs0mg"},{"bike_id":"e825c6f9-4be0-4def-8f7f-63ade6bb075d","system_id":"levelo_inurba_marseille","lat":43.28016,"lon":5.41666,"is_reserved":false,"is_disabled":false,"rental_uris":{"android":"levelo://app?vid=e825c6f9-4be0-4def-8f7f-63ade6bb075d","ios":"levelo://app?vid=e825c6f9-4be0-4def-8f7f-63ade6bb075d"},"vehicle_type_id":"4","last_reported":1762628808,"current_range_meters":9600,"station_id":"ce4bho12rcd13ifvqh1g","pricing_plan_id":"cebpf4jnsgd1na2vs0mg"},{"bike_id":"89d7a981-ab85-42f8-83e1-b0b12ff24471","system_id":"levelo_inurba_marseille","lat":43.28857,"lon":5.35854,"is_reserved":false,"is_disabled":false,"rental_uris":{"android":"levelo://app?vid=89d7a981-ab85-42f8-83e1-b0b12ff24471","ios":"levelo://app?vid=89d7a981-ab85-42f8-83e1-b0b12ff24471"},"vehicle_type_id":"4","last_reported":1762628808,"current_range_meters":9600,"station_id":"ce4bhb12rcd13ifvqem0","pricing_plan_id":"cebpf4jnsgd1na2vs0mg"},{"bike_id":"514820e0-4a30-4558-ac89-1997e391d3a5","system_id":"levelo_inurba_marseille","lat":43.30787,"lon":5.37647,"is_reserved":false,"is_disabled":false,"rental_uris":{"android":"levelo://app?vid=514820e0-4a30-4558-ac89-1997e391d3a5","ios":"levelo://app?vid=514820e0-4a30-4558-ac89-1997e391d3a5"},"vehicle_type_id":"4","last_reported":1762628808,"current_range_meters":9600,"station_id":"ce4bgv92rcd13ifvqcq0","pricing_plan_id":"cebpf4jnsgd1na2vs0mg"},{"bike_id":"b05d1bfc-9d5f-4d13-a72d-e46791ddf9b7","system_id":"levelo_inurba_marseille","lat":43.29265,"lon":5.38427,"is_reserved":false,"is_disabled":false,"rental_uris":{"android":"levelo://app?vid=b05d1bfc-9d5f-4d13-a72d-e46791ddf9b7","ios":"levelo://app?vid=b05d1bfc-9d5f-4d13-a72d-e46791ddf9b7"},"vehicle_type_id":"4","last_reported":1762628808,"current_range_meters":10000,"station_id":"ce4bh692rcd13ifvqea0","pricing_plan_id":"cebpf4jnsgd1na2vs0mg"},{"bike_id":"b758b265-5aa1-4ec8-8853-7d19be5588f9","system_id":"levelo_inurba_marseille","lat":43.27077,"lon":5.4228,"is_reserved":false,"is_disabled":false,"rental_uris":{"android":"levelo://app?vid=b758b265-5aa1-4ec8-8853-7d19be5588f9","ios":"levelo://app?vid=b758b265-5aa1-4ec8-8853-7d19be5588f9"},"vehicle_type_id":"4","last_reported":1762628808,"current_range_meters":10000,"station_id":"ce4bhk92rcd13ifvqgb0","pricing_plan_id":"cebpf4jnsgd1na2vs0mg"},{"bike_id":"6ff95486-ffed-4717-ab87-555580e0ad79","system_id":"levelo_inurba_marseille","lat":43.30472,"lon":5.37908,"is_reserved":false,"is_disabled":false,"rental_uris":{"android":"levelo://app?vid=6ff95486-ffed-4717-ab87-555580e0ad79","ios":"levelo://app?vid=6ff95486-ffed-4717-ab87-555580e0ad79"},"vehicle_type_id":"4","last_reported":1762628808,"current_range_meters":10000,"station_id":"ce4bgup2rcd13ifvqcn0","pricing_plan_id":"cebpf4jnsgd1na2vs0mg"},{"bike_id":"1011e01a-e4c4-4d7c-82ea-50e768bf58aa","system_id":"levelo_inurba_marseille","lat":43.30643,"lon":5.36549,"is_reserved":false,"is_disabled":false,"rental_uris":{"android":"levelo://app?vid=1011e01a-e4c4-4d7c-82ea-50e768bf58aa","ios":"levelo://app?vid=1011e01a-e4c4-4d7c-82ea-50e768bf58aa"},"vehicle_type_id":"4","last_reported":1762628808,"current_range_meters":10000,"station_id":"","pricing_plan_id":"cebpf4jnsgd1na2vs0mg"},{"bike_id":"a4b610ef-5dc5-47fb-9228-87e17fe490d3","system_id":"levelo_inurba_marseille","lat":43.270723,"lon":5.422711,"is_reserved":false,"is_disabled":true,"rental_uris":{"android":"levelo://app?vid=a4b610ef-5dc5-47fb-9228-87e17fe490d3","ios":"levelo://app?vid=a4b610ef-5dc5-47fb-9228-87e17fe490d3"},"vehicle_type_id":"4","last_reported":1762628808,"current_range_meters":10000,"station_id":"ce4bhk92rcd13ifvqgb0","pricing_plan_id":"cebpf4jnsgd1na2vs0mg"},{"bike_id":"7ec45808-2f30-440d-8247-c25b77b0a1a7","system_id":"levelo_inurba_marseille","lat":43.29983,"lon":5.38489,"is_reserved":false,"is_disabled":false,"rental_uris":{"android":"levelo://app?vid=7ec45808-2f30-440d-8247-c25b77b0a1a7","ios":"levelo://app?vid=7ec45808-2f30-440d-8247-c25b77b0a1a7"},"vehicle_type_id":"4","last_reported":1762628808,"current_range_meters":10000,"station_id":"ce4bgj92rcd13ifvqbd0","pricing_plan_id":"cebpf4jnsgd1na2vs0mg"},{"bike_id":"be923258-9511-406e-a8a0-5a2052926600","system_id":"levelo_inurba_marseille","lat":43.30902,"lon":5.37188,"is_reserved":false,"is_disabled":false,"rental_uris":{"android":"levelo://app?vid=be923258-9511-406e-a8a0-5a2052926600","ios":"levelo://app?vid=be923258-9511-406e-a8a0-5a2052926600"},"vehicle_type_id":"4","last_reported":1762628808,"current_range_meters":10000,"station_id":"ce4bguh2rcd13ifvqckg","pricing_plan_id":"cebpf4jnsgd1na2vs0mg"},{"bike_id":"3b294fa9-3f9f-4381-a2a8-e3592d375a68","system_id":"levelo_inurba_marseille","lat":43.26686,"lon":5.39682,"is_reserved":false,"is_disabled":false,"rental_uris":{"android":"levelo://app?vid=3b294fa9-3f9f-4381-a2a8-e3592d375a68","ios":"levelo://app?vid=3b294fa9-3f9f-4381-a2a8-e3592d375a68"},"vehicle_type_id":"4","last_reported":1762628808,"current_range_meters":10000,"station_id":"","pricing_plan_id":"cebpf4jnsgd1na2vs0mg"},{"bike_id":"afaf72f5-0d84-4c6a-97f6-a7fe8c133930","system_id":"levelo_inurba_marseille","lat":43.29171,"lon":5.37162,"is_reserved":false,"is_disabled":false,"rental_uris":{"android":"levelo://app?vid=afaf72f5-0d84-4c6a-97f6-a7fe8c133930","ios":"levelo://app?vid=afaf72f5-0d84-4c6a-97f6-a7fe8c133930"},"vehicle_type_id":"4","last_reported":1762628808,"current_range_meters":10000,"station_id":"ce4bha92rcd13ifvqeh0","pricing_plan_id":"cebpf4jnsgd1na2vs0mg"},{"bike_id":"5a5522fe-831b-43d9-bfed-9370bc0e227a","system_id":"levelo_inurba_marseille","lat":43.29529,"lon":5.38545,"is_reserved":false,"is_disabled":false,"rental_uris":{"android":"levelo://app?vid=5a5522fe-831b-43d9-bfed-9370bc0e227a","ios":"levelo://app?vid=5a5522fe-831b-43d9-bfed-9370bc0e227a"},"vehicle_type_id":"4","last_reported":1762628808,"current_range_meters":10800,"station_id":"ce4bgih2rcd13ifvqba0","pricing_plan_id":"cebpf4jnsgd1na2vs0mg"},{"bike_id":"382f597e-181c-4839-b1de-04339df9aa55","system_id":"levelo_inurba_marseille","lat":43.26803,"lon":5.40271,"is_reserved":false,"is_disabled":true,"rental_uris":{"android":"levelo://app?vid=382f597e-181c-4839-b1de-04339df9aa55","ios":"levelo://app?vid=382f597e-181c-4839-b1de-04339df9aa55"},"vehicle_type_id":"4","last_reported":1762628808,"current_range_meters":10800,"station_id":"ce501612rcd8frsf0b60","pricing_plan_id":"cebpf4jnsgd1na2vs0mg"},{"bike_id":"b98c59d1-12c0-4a03-b198-cf728a9bdad0","system_id":"levelo_inurba_marseille","lat":43.29322,"lon":5.37155,"is_reserved":false,"is_disabled":false,"rental_uris":{"android":"levelo://app?vid=b98c59d1-12c0-4a03-b198-cf728a9bdad0","ios":"levelo://app?vid=b98c59d1-12c0-4a03-b198-cf728a9bdad0"},"vehicle_type_id":"4","last_reported":1762628808,"current_range_meters":10800,"station_id":"","pricing_plan_id":"cebpf4jnsgd1na2vs0mg"},{"bike_id":"7be7c32b-d079-405b-81f9-69e044a592bc","system_id":"levelo_inurba_marseille","lat":43.29261,"lon":5.38445,"is_reserved":false,"is_disabled":false,"rental_uris":{"android":"levelo://app?vid=7be7c32b-d079-405b-81f9-69e044a592bc","ios":"levelo://app?vid=7be7c32b-d079-405b-81f9-69e044a592bc"},"vehicle_type_id":"4","last_reported":1762628808,"current_range_meters":10800,"station_id":"ce4bh692rcd13ifvqea0","pricing_plan_id":"cebpf4jnsgd1na2vs0mg"},{"bike_id":"d510b29d-06c6-4a67-8cee-2182097a14e2","system_id":"levelo_inurba_marseille","lat":43.29262,"lon":5.37605,"is_reserved":false,"is_disabled":true,"rental_uris":{"android":"levelo://app?vid=d510b29d-06c6-4a67-8cee-2182097a14e2","ios":"levelo://app?vid=d510b29d-06c6-4a67-8cee-2182097a14e2"},"vehicle_type_id":"4","last_reported":1762628808,"current_range_meters":10800,"station_id":"ce4bgi12rcd13ifvqb80","pricing_plan_id":"cebpf4jnsgd1na2vs0mg"},{"bike_id":"d043a334-516e-45ee-ab10-6c413cc3141e","system_id":"levelo_inurba_marseille","lat":43.29037,"lon":5.37564,"is_reserved":false,"is_disabled":false,"rental_uris":{"android":"levelo://app?vid=d043a334-516e-45ee-ab10-6c413cc3141e","ios":"levelo://app?vid=d043a334-516e-45ee-ab10-6c413cc3141e"},"vehicle_type_id":"4","last_reported":1762628808,"current_range_meters":10800,"station_id":"ce4bh692rcd13ifvqe90","pricing_plan_id":"cebpf4jnsgd1na2vs0mg"},{"bike_id":"321d43c2-a97c-419e-a110-a172b4ee23e9","system_id":"levelo_inurba_marseille","lat":43.26154,"lon":5.41783,"is_reserved":false,"is_disabled":false,"rental_uris":{"android":"levelo://app?vid=321d43c2-a97c-419e-a110-a172b4ee23e9","ios":"levelo://app?vid=321d43c2-a97c-419e-a110-a172b4ee23e9"},"vehicle_type_id":"4","last_reported":1762628808,"current_range_meters":10800,"station_id":"","pricing_plan_id":"cebpf4jnsgd1na2vs0mg"},{"bike_id":"9fd220aa-6269-41ca-8733-af0183790563","system_id":"levelo_inurba_marseille","lat":43.29246,"lon":5.40911,"is_reserved":false,"is_disabled":false,"rental_uris":{"android":"levelo://app?vid=9fd220aa-6269-41ca-8733-af0183790563","ios":"levelo://app?vid=9fd220aa-6269-41ca-8733-af0183790563"},"vehicle_type_id":"4","last_reported":1762628808,"current_range_meters":10800,"station_id":"ce4bh192rcd13ifvqdc0","pricing_plan_id":"cebpf4jnsgd1na2vs0mg"},{"bike_id":"e95f4fbf-e18a-4764-9d1e-413b96476e00","system_id":"levelo_inurba_marseille","lat":43.2316,"lon":5.4374,"is_reserved":false,"is_disabled":false,"rental_uris":{"android":"levelo://app?vid=e95f4fbf-e18a-4764-9d1e-413b96476e00","ios":"levelo://app?vid=e95f4fbf-e18a-4764-9d1e-413b96476e00"},"vehicle_type_id":"4","last_reported":1762628808,"current_range_meters":10800,"station_id":"ce4bhmp2rcd13ifvqgog","pricing_plan_id":"cebpf4jnsgd1na2vs0mg"},{"bike_id":"860c0eb2-7a8f-46c1-bc7e-ce0827d8c983","system_id":"levelo_inurba_marseille","lat":43.27994,"lon":5.41663,"is_reserved":false,"is_disabled":false,"rental_uris":{"android":"levelo://app?vid=860c0eb2-7a8f-46c1-bc7e-ce0827d8c983","ios":"levelo://app?vid=860c0eb2-7a8f-46c1-bc7e-ce0827d8c983"},"vehicle_type_id":"4","last_reported":1762628808,"current_range_meters":10800,"station_id":"ce4bho12rcd13ifvqh1g","pricing_plan_id":"cebpf4jnsgd1na2vs0mg"},{"bike_id":"08800a7f-3058-4ed0-a60f-c12bee9e25dd","system_id":"levelo_inurba_marseille","lat":43.246334,"lon":5.431466,"is_reserved":false,"is_disabled":false,"rental_uris":{"android":"levelo://app?vid=08800a7f-3058-4ed0-a60f-c12bee9e25dd","ios":"levelo://app?vid=08800a7f-3058-4ed0-a60f-c12bee9e25dd"},"vehicle_type_id":"4","last_reported":1762628808,"current_range_meters":11200,"station_id":"st_d2m6c4gdas8pm72e190g","pricing_plan_id":"cebpf4jnsgd1na2vs0mg"},{"bike_id":"ad96e6a9-697f-4cbc-ab0e-acea2cc2ff89","system_id":"levelo_inurba_marseille","lat":43.29254,"lon":5.38273,"is_reserved":false,"is_disabled":false,"rental_uris":{"android":"levelo://app?vid=ad96e6a9-697f-4cbc-ab0e-acea2cc2ff89","ios":"levelo://app?vid=ad96e6a9-697f-4cbc-ab0e-acea2cc2ff89"},"vehicle_type_id":"4","last_reported":1762628808,"current_range_meters":11200,"station_id":"","pricing_plan_id":"cebpf4jnsgd1na2vs0mg"},{"bike_id":"0342d0d8-8837-414c-85e6-56e0ae1ef674","system_id":"levelo_inurba_marseille","lat":43.290293,"lon":5.386466,"is_reserved":false,"is_disabled":false,"rental_uris":{"android":"levelo://app?vid=0342d0d8-8837-414c-85e6-56e0ae1ef674","ios":"levelo://app?vid=0342d0d8-8837-414c-85e6-56e0ae1ef674"},"vehicle_type_id":"4","last_reported":1762628808,"current_range_meters":11200,"station_id":"ce4bh4p2rcd13ifvqe0g","pricing_plan_id":"cebpf4jnsgd1na2vs0mg"},{"bike_id":"c880a743-38fc-402e-9106-066031c73d1d","system_id":"levelo_inurba_marseille","lat":43.29979,"lon":5.37181,"is_reserved":false,"is_disabled":false,"rental_uris":{"android":"levelo://app?vid=c880a743-38fc-402e-9106-066031c73d1d","ios":"levelo://app?vid=c880a743-38fc-402e-9106-066031c73d1d"},"vehicle_type_id":"4","last_reported":1762628808,"current_range_meters":11200,"station_id":"ce4bgr92rcd13ifvqc7g","pricing_plan_id":"cebpf4jnsgd1na2vs0mg"},{"bike_id":"786643ca-c0bc-4c11-9042-5fb7efaa8d8c","system_id":"levelo_inurba_marseille","lat":43.2397,"lon":5.36628,"is_reserved":false,"is_disabled":false,"rental_uris":{"android":"levelo://app?vid=786643ca-c0bc-4c11-9042-5fb7efaa8d8c","ios":"levelo://app?vid=786643ca-c0bc-4c11-9042-5fb7efaa8d8c"},"vehicle_type_id":"4","last_reported":1762628808,"current_range_meters":11200,"station_id":"ce4bhi12rcd13ifvqfp0","pricing_plan_id":"cebpf4jnsgd1na2vs0mg"},{"bike_id":"9ebef3d4-869b-4d45-88d8-3f0848097e7c","system_id":"levelo_inurba_marseille","lat":43.30884,"lon":5.37188,"is_reserved":false,"is_disabled":false,"rental_uris":{"android":"levelo://app?vid=9ebef3d4-869b-4d45-88d8-3f0848097e7c","ios":"levelo://app?vid=9ebef3d4-869b-4d45-88d8-3f0848097e7c"},"vehicle_type_id":"4","last_reported":1762628808,"current_range_meters":11200,"station_id":"ce4bguh2rcd13ifvqckg","pricing_plan_id":"cebpf4jnsgd1na2vs0mg"},{"bike_id":"07fa188f-c189-4c26-8665-2bbc103f52a6","system_id":"levelo_inurba_marseille","lat":43.292041,"lon":5.393471,"is_reserved":false,"is_disabled":false,"rental_uris":{"android":"levelo://app?vid=07fa188f-c189-4c26-8665-2bbc103f52a6","ios":"levelo://app?vid=07fa188f-c189-4c26-8665-2bbc103f52a6"},"vehicle_type_id":"4","last_reported":1762628808,"current_range_meters":11200,"station_id":"ce4bh192rcd13ifvqdd0","pricing_plan_id":"cebpf4jnsgd1na2vs0mg"},{"bike_id":"06593175-4f55-4c26-aa1d-46c35aa595df","system_id":"levelo_inurba_marseille","lat":43.307298,"lon":5.424415,"is_reserved":false,"is_disabled":false,"rental_uris":{"android":"levelo://app?vid=06593175-4f55-4c26-aa1d-46c35aa595df","ios":"levelo://app?vid=06593175-4f55-4c26-aa1d-46c35aa595df"},"vehicle_type_id":"4","last_reported":1762628808,"current_range_meters":11200,"station_id":"st_cvj6ca6bvosntc0bfgr0","pricing_plan_id":"cebpf4jnsgd1na2vs0mg"},{"bike_id":"dfde87bb-1a24-4866-bcda-6d9da60c1cf9","system_id":"levelo_inurba_marseille","lat":43.28602,"lon":5.39365,"is_reserved":false,"is_disabled":false,"rental_uris":{"android":"levelo://app?vid=dfde87bb-1a24-4866-bcda-6d9da60c1cf9","ios":"levelo://app?vid=dfde87bb-1a24-4866-bcda-6d9da60c1cf9"},"vehicle_type_id":"4","last_reported":1762628808,"current_range_meters":11200,"station_id":"","pricing_plan_id":"cebpf4jnsgd1na2vs0mg"},{"bike_id":"4c8d527a-1c50-42ba-b148-156abe25b523","system_id":"levelo_inurba_marseille","lat":43.24635,"lon":5.43145,"is_reserved":false,"is_disabled":false,"rental_uris":{"android":"levelo://app?vid=4c8d527a-1c50-42ba-b148-156abe25b523","ios":"levelo://app?vid=4c8d527a-1c50-42ba-b148-156abe25b523"},"vehicle_type_id":"4","last_reported":1762628808,"current_range_meters":11200,"station_id":"st_d2m6c4gdas8pm72e190g","pricing_plan_id":"cebpf4jnsgd1na2vs0mg"},{"bike_id":"0cd51c1d-9e1b-455f-812a-461f369a1fb1","system_id":"levelo_inurba_marseille","lat":43.28705,"lon":5.37374,"is_reserved":false,"is_disabled":false,"rental_uris":{"android":"levelo://app?vid=0cd51c1d-9e1b-455f-812a-461f369a1fb1","ios":"levelo://app?vid=0cd51c1d-9e1b-455f-812a-461f369a1fb1"},"vehicle_type_id":"4","last_reported":1762628808,"current_range_meters":11600,"station_id":"ce4bh3p2rcd13ifvqdq0","pricing_plan_id":"cebpf4jnsgd1na2vs0mg"},{"bike_id":"abbbb7be-2df2-470a-8453-2a130d26d2d5","system_id":"levelo_inurba_marseille","lat":43.2606,"lon":5.39351,"is_reserved":false,"is_disabled":false,"rental_uris":{"android":"levelo://app?vid=abbbb7be-2df2-470a-8453-2a130d26d2d5","ios":"levelo://app?vid=abbbb7be-2df2-470a-8453-2a130d26d2d5"},"vehicle_type_id":"4","last_reported":1762628808,"current_range_meters":11600,"station_id":"ce4bhh92rcd13ifvqfj0","pricing_plan_id":"cebpf4jnsgd1na2vs0mg"},{"bike_id":"9ba2cc20-6639-4d03-ab1b-5eca73cf55d3","system_id":"levelo_inurba_marseille","lat":43.28147,"lon":5.42651,"is_reserved":false,"is_disabled":false,"rental_uris":{"android":"levelo://app?vid=9ba2cc20-6639-4d03-ab1b-5eca73cf55d3","ios":"levelo://app?vid=9ba2cc20-6639-4d03-ab1b-5eca73cf55d3"},"vehicle_type_id":"4","last_reported":1762628808,"current_range_meters":11600,"station_id":"ce4bhnh2rcd13ifvqgug","pricing_plan_id":"cebpf4jnsgd1na2vs0mg"},{"bike_id":"e179449b-f27b-421e-b73c-00856b2aae30","system_id":"levelo_inurba_marseille","lat":43.29048,"lon":5.37564,"is_reserved":false,"is_disabled":false,"rental_uris":{"android":"levelo://app?vid=e179449b-f27b-421e-b73c-00856b2aae30","ios":"levelo://app?vid=e179449b-f27b-421e-b73c-00856b2aae30"},"vehicle_type_id":"4","last_reported":1762628808,"current_range_meters":12000,"station_id":"ce4bh692rcd13ifvqe90","pricing_plan_id":"cebpf4jnsgd1na2vs0mg"},{"bike_id":"6ba0f1d1-5706-4a14-b89f-505a4c6aa756","system_id":"levelo_inurba_marseille","lat":43.29491,"lon":5.43313,"is_reserved":false,"is_disabled":false,"rental_uris":{"android":"levelo://app?vid=6ba0f1d1-5706-4a14-b89f-505a4c6aa756","ios":"levelo://app?vid=6ba0f1d1-5706-4a14-b89f-505a4c6aa756"},"vehicle_type_id":"4","last_reported":1762628808,"current_range_meters":12000,"station_id":"st_d3j5ugp08ojc73fj9d10","pricing_plan_id":"cebpf4jnsgd1na2vs0mg"},{"bike_id":"665a5ba2-246e-4ac7-a969-6694219b1452","system_id":"levelo_inurba_marseille","lat":43.28854,"lon":5.3584,"is_reserved":false,"is_disabled":true,"rental_uris":{"android":"levelo://app?vid=665a5ba2-246e-4ac7-a969-6694219b1452","ios":"levelo://app?vid=665a5ba2-246e-4ac7-a969-6694219b1452"},"vehicle_type_id":"4","last_reported":1762628808,"current_range_meters":12000,"station_id":"ce4bhb12rcd13ifvqem0","pricing_plan_id":"cebpf4jnsgd1na2vs0mg"},{"bike_id":"5707b086-f1ea-4421-a46b-55e69416b353","system_id":"levelo_inurba_marseille","lat":43.2781,"lon":5.40709,"is_reserved":false,"is_disabled":false,"rental_uris":{"android":"levelo://app?vid=5707b086-f1ea-4421-a46b-55e69416b353","ios":"levelo://app?vid=5707b086-f1ea-4421-a46b-55e69416b353"},"vehicle_type_id":"4","last_reported":1762628808,"current_range_meters":12000,"station_id":"ce4bhnh2rcd13ifvqgtg","pricing_plan_id":"cebpf4jnsgd1na2vs0mg"},{"bike_id":"9b79fb2a-54d8-4b5a-8d9e-269b093ed5ef","system_id":"levelo_inurba_marseille","lat":43.29025,"lon":5.38128,"is_reserved":false,"is_disabled":false,"rental_uris":{"android":"levelo://app?vid=9b79fb2a-54d8-4b5a-8d9e-269b093ed5ef","ios":"levelo://app?vid=9b79fb2a-54d8-4b5a-8d9e-269b093ed5ef"},"vehicle_type_id":"4","last_reported":1762628808,"current_range_meters":12000,"station_id":"ce4bh4p2rcd13ifvqe1g","pricing_plan_id":"cebpf4jnsgd1na2vs0mg"},{"bike_id":"870a9ad1-db35-4ab0-bc9a-84476efc6571","system_id":"levelo_inurba_marseille","lat":43.32788,"lon":5.4267,"is_reserved":false,"is_disabled":false,"rental_uris":{"android":"levelo://app?vid=870a9ad1-db35-4ab0-bc9a-84476efc6571","ios":"levelo://app?vid=870a9ad1-db35-4ab0-bc9a-84476efc6571"},"vehicle_type_id":"4","last_reported":1762628808,"current_range_meters":12000,"station_id":"","pricing_plan_id":"cebpf4jnsgd1na2vs0mg"},{"bike_id":"4bce02cb-bdba-488a-a39f-eae80d4c7da8","system_id":"levelo_inurba_marseille","lat":43.282,"lon":5.39024,"is_reserved":false,"is_disabled":true,"rental_uris":{"android":"levelo://app?vid=4bce02cb-bdba-488a-a39f-eae80d4c7da8","ios":"levelo://app?vid=4bce02cb-bdba-488a-a39f-eae80d4c7da8"},"vehicle_type_id":"4","last_reported":1762628808,"current_range_meters":12000,"station_id":"ce4bhn92rcd13ifvqgsg","pricing_plan_id":"cebpf4jnsgd1na2vs0mg"},{"bike_id":"30d8fad0-b359-483b-8b6b-1430c712d4de","system_id":"levelo_inurba_marseille","lat":43.2811,"lon":5.37848,"is_reserved":false,"is_disabled":false,"rental_uris":{"android":"levelo://app?vid=30d8fad0-b359-483b-8b6b-1430c712d4de","ios":"levelo://app?vid=30d8fad0-b359-483b-8b6b-1430c712d4de"},"vehicle_type_id":"4","last_reported":1762628808,"current_range_meters":12400,"station_id":"ce4bha12rcd13ifvqee0","pricing_plan_id":"cebpf4jnsgd1na2vs0mg"},{"bike_id":"f577d93f-82b1-45ab-a2e7-46ded920236a","system_id":"levelo_inurba_marseille","lat":43.29509,"lon":5.39407,"is_reserved":false,"is_disabled":false,"rental_uris":{"android":"levelo://app?vid=f577d93f-82b1-45ab-a2e7-46ded920236a","ios":"levelo://app?vid=f577d93f-82b1-45ab-a2e7-46ded920236a"},"vehicle_type_id":"4","last_reported":1762628808,"current_range_meters":12400,"station_id":"ce4bh292rcd13ifvqdf0","pricing_plan_id":"cebpf4jnsgd1na2vs0mg"},{"bike_id":"1d32ebc5-69db-47b3-94e6-88804fb1dfa8","system_id":"levelo_inurba_marseille","lat":43.29276,"lon":5.36848,"is_reserved":false,"is_disabled":false,"rental_uris":{"android":"levelo://app?vid=1d32ebc5-69db-47b3-94e6-88804fb1dfa8","ios":"levelo://app?vid=1d32ebc5-69db-47b3-94e6-88804fb1dfa8"},"vehicle_type_id":"4","last_reported":1762628808,"current_range_meters":12400,"station_id":"ce4bhbp2rcd13ifvqesg","pricing_plan_id":"cebpf4jnsgd1na2vs0mg"},{"bike_id":"8a9ac7ad-bb73-491a-a1a8-c3f2b39b3768","system_id":"levelo_inurba_marseille","lat":43.31758,"lon":5.39019,"is_reserved":false,"is_disabled":false,"rental_uris":{"android":"levelo://app?vid=8a9ac7ad-bb73-491a-a1a8-c3f2b39b3768","ios":"levelo://app?vid=8a9ac7ad-bb73-491a-a1a8-c3f2b39b3768"},"vehicle_type_id":"4","last_reported":1762628808,"current_range_meters":12400,"station_id":"ce4bhqp2rcd13ifvqhng","pricing_plan_id":"cebpf4jnsgd1na2vs0mg"},{"bike_id":"4a44bd76-5618-45d7-92a4-b032df71a2ae","system_id":"levelo_inurba_marseille","lat":43.30592,"lon":5.3721,"is_reserved":false,"is_disabled":false,"rental_uris":{"android":"levelo://app?vid=4a44bd76-5618-45d7-92a4-b032df71a2ae","ios":"levelo://app?vid=4a44bd76-5618-45d7-92a4-b032df71a2ae"},"vehicle_type_id":"4","last_reported":1762628808,"current_range_meters":12400,"station_id":"ce4bgqh2rcd13ifvqc4g","pricing_plan_id":"cebpf4jnsgd1na2vs0mg"},{"bike_id":"1a11f6d9-15cd-4d99-9ec5-e1ede82db56a","system_id":"levelo_inurba_marseille","lat":43.25087,"lon":5.39518,"is_reserved":false,"is_disabled":false,"rental_uris":{"android":"levelo://app?vid=1a11f6d9-15cd-4d99-9ec5-e1ede82db56a","ios":"levelo://app?vid=1a11f6d9-15cd-4d99-9ec5-e1ede82db56a"},"vehicle_type_id":"4","last_reported":1762628808,"current_range_meters":12400,"station_id":"ce4bhm12rcd13ifvqgkg","pricing_plan_id":"cebpf4jnsgd1na2vs0mg"},{"bike_id":"a60bc9fd-77f2-4d32-b008-8a423987f1ea","system_id":"levelo_inurba_marseille","lat":43.29968,"lon":5.37175,"is_reserved":false,"is_disabled":false,"rental_uris":{"android":"levelo://app?vid=a60bc9fd-77f2-4d32-b008-8a423987f1ea","ios":"levelo://app?vid=a60bc9fd-77f2-4d32-b008-8a423987f1ea"},"vehicle_type_id":"4","last_reported":1762628808,"current_range_meters":12400,"station_id":"ce4bgr92rcd13ifvqc7g","pricing_plan_id":"cebpf4jnsgd1na2vs0mg"},{"bike_id":"d2991a60-dcfa-4252-8f9d-bfff4b1dc433","system_id":"levelo_inurba_marseille","lat":43.31079,"lon":5.3712,"is_reserved":false,"is_disabled":false,"rental_uris":{"android":"levelo://app?vid=d2991a60-dcfa-4252-8f9d-bfff4b1dc433","ios":"levelo://app?vid=d2991a60-dcfa-4252-8f9d-bfff4b1dc433"},"vehicle_type_id":"4","last_reported":1762628808,"current_range_meters":12400,"station_id":"","pricing_plan_id":"cebpf4jnsgd1na2vs0mg"},{"bike_id":"823f9d7f-5db5-4876-8b5d-28b6923592c8","system_id":"levelo_inurba_marseille","lat":43.269638,"lon":5.388182,"is_reserved":false,"is_disabled":false,"rental_uris":{"android":"levelo://app?vid=823f9d7f-5db5-4876-8b5d-28b6923592c8","ios":"levelo://app?vid=823f9d7f-5db5-4876-8b5d-28b6923592c8"},"vehicle_type_id":"4","last_reported":1762628808,"current_range_meters":12400,"station_id":"st_d2ngiaodas8pm72gd1h0","pricing_plan_id":"cebpf4jnsgd1na2vs0mg"},{"bike_id":"31800347-6952-4e4c-aa3f-f865647b86c9","system_id":"levelo_inurba_marseille","lat":43.29519,"lon":5.38527,"is_reserved":false,"is_disabled":false,"rental_uris":{"android":"levelo://app?vid=31800347-6952-4e4c-aa3f-f865647b86c9","ios":"levelo://app?vid=31800347-6952-4e4c-aa3f-f865647b86c9"},"vehicle_type_id":"4","last_reported":1762628808,"current_range_meters":12800,"station_id":"ce4bgih2rcd13ifvqba0","pricing_plan_id":"cebpf4jnsgd1na2vs0mg"},{"bike_id":"d773fd60-5dd7-46e4-85c6-174efcb1ce05","system_id":"levelo_inurba_marseille","lat":43.28694,"lon":5.37398,"is_reserved":false,"is_disabled":false,"rental_uris":{"android":"levelo://app?vid=d773fd60-5dd7-46e4-85c6-174efcb1ce05","ios":"levelo://app?vid=d773fd60-5dd7-46e4-85c6-174efcb1ce05"},"vehicle_type_id":"4","last_reported":1762628808,"current_range_meters":12800,"station_id":"ce4bh3p2rcd13ifvqdq0","pricing_plan_id":"cebpf4jnsgd1na2vs0mg"},{"bike_id":"731ec291-4b47-43b7-9520-53c0d9623986","system_id":"levelo_inurba_marseille","lat":43.28081,"lon":5.39655,"is_reserved":false,"is_disabled":false,"rental_uris":{"android":"levelo://app?vid=731ec291-4b47-43b7-9520-53c0d9623986","ios":"levelo://app?vid=731ec291-4b47-43b7-9520-53c0d9623986"},"vehicle_type_id":"4","last_reported":1762628808,"current_range_meters":12800,"station_id":"ce4bho12rcd13ifvqh2g","pricing_plan_id":"cebpf4jnsgd1na2vs0mg"},{"bike_id":"54fa92af-5541-4137-afea-d36fade5cb4b","system_id":"levelo_inurba_marseille","lat":43.24644,"lon":5.43143,"is_reserved":false,"is_disabled":false,"rental_uris":{"android":"levelo://app?vid=54fa92af-5541-4137-afea-d36fade5cb4b","ios":"levelo://app?vid=54fa92af-5541-4137-afea-d36fade5cb4b"},"vehicle_type_id":"4","last_reported":1762628808,"current_range_meters":12800,"station_id":"st_d2m6c4gdas8pm72e190g","pricing_plan_id":"cebpf4jnsgd1na2vs0mg"},{"bike_id":"152dc96a-1568-4177-b651-4b950d2a0e73","system_id":"levelo_inurba_marseille","lat":43.32705,"lon":5.39183,"is_reserved":false,"is_disabled":false,"rental_uris":{"android":"levelo://app?vid=152dc96a-1568-4177-b651-4b950d2a0e73","ios":"levelo://app?vid=152dc96a-1568-4177-b651-4b950d2a0e73"},"vehicle_type_id":"4","last_reported":1762628808,"current_range_meters":12800,"station_id":"","pricing_plan_id":"cebpf4jnsgd1na2vs0mg"},{"bike_id":"968e9c29-84ee-4827-bcab-ac08bc4ab6d5","system_id":"levelo_inurba_marseille","lat":43.29275,"lon":5.36847,"is_reserved":false,"is_disabled":true,"rental_uris":{"android":"levelo://app?vid=968e9c29-84ee-4827-bcab-ac08bc4ab6d5","ios":"levelo://app?vid=968e9c29-84ee-4827-bcab-ac08bc4ab6d5"},"vehicle_type_id":"4","last_reported":1762628808,"current_range_meters":12800,"station_id":"ce4bhbp2rcd13ifvqesg","pricing_plan_id":"cebpf4jnsgd1na2vs0mg"},{"bike_id":"2d09d6a2-f592-48df-a952-68864ae6960f","system_id":"levelo_inurba_marseille","lat":43.24489,"lon":5.40966,"is_reserved":false,"is_disabled":false,"rental_uris":{"android":"levelo://app?vid=2d09d6a2-f592-48df-a952-68864ae6960f","ios":"levelo://app?vid=2d09d6a2-f592-48df-a952-68864ae6960f"},"vehicle_type_id":"4","last_reported":1762628808,"current_range_meters":12800,"station_id":"","pricing_plan_id":"cebpf4jnsgd1na2vs0mg"},{"bike_id":"7304ea05-1f78-41fe-8725-e76f079910b3","system_id":"levelo_inurba_marseille","lat":43.295274,"lon":5.385432,"is_reserved":false,"is_disabled":false,"rental_uris":{"android":"levelo://app?vid=7304ea05-1f78-41fe-8725-e76f079910b3","ios":"levelo://app?vid=7304ea05-1f78-41fe-8725-e76f079910b3"},"vehicle_type_id":"4","last_reported":1762628808,"current_range_meters":13600,"station_id":"ce4bgih2rcd13ifvqba0","pricing_plan_id":"cebpf4jnsgd1na2vs0mg"},{"bike_id":"825a1957-d327-49da-97b3-2485c79c40e7","system_id":"levelo_inurba_marseille","lat":43.21752,"lon":5.34604,"is_reserved":false,"is_disabled":true,"rental_uris":{"android":"levelo://app?vid=825a1957-d327-49da-97b3-2485c79c40e7","ios":"levelo://app?vid=825a1957-d327-49da-97b3-2485c79c40e7"},"vehicle_type_id":"4","last_reported":1762628808,"current_range_meters":13600,"station_id":"","pricing_plan_id":"cebpf4jnsgd1na2vs0mg"},{"bike_id":"d86e902c-a007-43b4-b73e-84d36fd8458a","system_id":"levelo_inurba_marseille","lat":43.29883,"lon":5.39732,"is_reserved":false,"is_disabled":false,"rental_uris":{"android":"levelo://app?vid=d86e902c-a007-43b4-b73e-84d36fd8458a","ios":"levelo://app?vid=d86e902c-a007-43b4-b73e-84d36fd8458a"},"vehicle_type_id":"4","last_reported":1762628808,"current_range_meters":13600,"station_id":"ce4bh0h2rcd13ifvqd50","pricing_plan_id":"cebpf4jnsgd1na2vs0mg"},{"bike_id":"0b37b69f-4d88-45a5-bb59-8daa184f4232","system_id":"levelo_inurba_marseille","lat":43.29866,"lon":5.36275,"is_reserved":false,"is_disabled":false,"rental_uris":{"android":"levelo://app?vid=0b37b69f-4d88-45a5-bb59-8daa184f4232","ios":"levelo://app?vid=0b37b69f-4d88-45a5-bb59-8daa184f4232"},"vehicle_type_id":"4","last_reported":1762628808,"current_range_meters":13600,"station_id":"ce4bgpp2rcd13ifvqc3g","pricing_plan_id":"cebpf4jnsgd1na2vs0mg"},{"bike_id":"d00b842c-7a1c-4d04-8ee6-2bd101dd85f9","system_id":"levelo_inurba_marseille","lat":43.337272,"lon":5.391812,"is_reserved":false,"is_disabled":false,"rental_uris":{"android":"levelo://app?vid=d00b842c-7a1c-4d04-8ee6-2bd101dd85f9","ios":"levelo://app?vid=d00b842c-7a1c-4d04-8ee6-2bd101dd85f9"},"vehicle_type_id":"4","last_reported":1762628808,"current_range_meters":13600,"station_id":"ce4bhr92rcd13ifvqhsg","pricing_plan_id":"cebpf4jnsgd1na2vs0mg"},{"bike_id":"3439a8cb-8214-4321-b614-d69fa7098072","system_id":"levelo_inurba_marseille","lat":43.31269,"lon":5.3894,"is_reserved":false,"is_disabled":false,"rental_uris":{"android":"levelo://app?vid=3439a8cb-8214-4321-b614-d69fa7098072","ios":"levelo://app?vid=3439a8cb-8214-4321-b614-d69fa7098072"},"vehicle_type_id":"4","last_reported":1762628808,"current_range_meters":13600,"station_id":"","pricing_plan_id":"cebpf4jnsgd1na2vs0mg"},{"bike_id":"fdfdde80-7f98-4492-a263-3964ecfbbb45","system_id":"levelo_inurba_marseille","lat":43.28281,"lon":5.35071,"is_reserved":false,"is_disabled":true,"rental_uris":{"android":"levelo://app?vid=fdfdde80-7f98-4492-a263-3964ecfbbb45","ios":"levelo://app?vid=fdfdde80-7f98-4492-a263-3964ecfbbb45"},"vehicle_type_id":"4","last_reported":1762628808,"current_range_meters":13600,"station_id":"ce4bhbp2rcd13ifvqerg","pricing_plan_id":"cebpf4jnsgd1na2vs0mg"},{"bike_id":"21dcb4e2-bef4-415f-aa59-cd0b9e2cb07b","system_id":"levelo_inurba_marseille","lat":43.22816,"lon":5.43489,"is_reserved":false,"is_disabled":false,"rental_uris":{"android":"levelo://app?vid=21dcb4e2-bef4-415f-aa59-cd0b9e2cb07b","ios":"levelo://app?vid=21dcb4e2-bef4-415f-aa59-cd0b9e2cb07b"},"vehicle_type_id":"4","last_reported":1762628808,"current_range_meters":13600,"station_id":"","pricing_plan_id":"cebpf4jnsgd1na2vs0mg"},{"bike_id":"a8e92df2-fe26-4f1d-8eaf-49b969680af9","system_id":"levelo_inurba_marseille","lat":43.29532,"lon":5.38545,"is_reserved":false,"is_disabled":false,"rental_uris":{"android":"levelo://app?vid=a8e92df2-fe26-4f1d-8eaf-49b969680af9","ios":"levelo://app?vid=a8e92df2-fe26-4f1d-8eaf-49b969680af9"},"vehicle_type_id":"4","last_reported":1762628808,"current_range_meters":14000,"station_id":"ce4bgih2rcd13ifvqba0","pricing_plan_id":"cebpf4jnsgd1na2vs0mg"},{"bike_id":"38be0317-463e-4ff6-9d1c-4600efb8fc5a","system_id":"levelo_inurba_marseille","lat":43.28577,"lon":5.39494,"is_reserved":false,"is_disabled":false,"rental_uris":{"android":"levelo://app?vid=38be0317-463e-4ff6-9d1c-4600efb8fc5a","ios":"levelo://app?vid=38be0317-463e-4ff6-9d1c-4600efb8fc5a"},"vehicle_type_id":"4","last_reported":1762628808,"current_range_meters":14000,"station_id":"ce4bh292rcd13ifvqdg0","pricing_plan_id":"cebpf4jnsgd1na2vs0mg"},{"bike_id":"c5c2beb1-64b4-42b1-9696-40fae03ac378","system_id":"levelo_inurba_marseille","lat":43.2903,"lon":5.38623,"is_reserved":false,"is_disabled":false,"rental_uris":{"android":"levelo://app?vid=c5c2beb1-64b4-42b1-9696-40fae03ac378","ios":"levelo://app?vid=c5c2beb1-64b4-42b1-9696-40fae03ac378"},"vehicle_type_id":"4","last_reported":1762628808,"current_range_meters":14000,"station_id":"ce4bh4p2rcd13ifvqe0g","pricing_plan_id":"cebpf4jnsgd1na2vs0mg"},{"bike_id":"25fd7d6d-bc1d-48dc-b741-729fe0e49332","system_id":"levelo_inurba_marseille","lat":43.25339,"lon":5.42173,"is_reserved":false,"is_disabled":false,"rental_uris":{"android":"levelo://app?vid=25fd7d6d-bc1d-48dc-b741-729fe0e49332","ios":"levelo://app?vid=25fd7d6d-bc1d-48dc-b741-729fe0e49332"},"vehicle_type_id":"4","last_reported":1762628808,"current_range_meters":14000,"station_id":"st_d2m65c5bi1j21697t3ng","pricing_plan_id":"cebpf4jnsgd1na2vs0mg"},{"bike_id":"a630d70e-d466-46de-bd9f-14c9a7757ee6","system_id":"levelo_inurba_marseille","lat":43.24649,"lon":5.38891,"is_reserved":false,"is_disabled":false,"rental_uris":{"android":"levelo://app?vid=a630d70e-d466-46de-bd9f-14c9a7757ee6","ios":"levelo://app?vid=a630d70e-d466-46de-bd9f-14c9a7757ee6"},"vehicle_type_id":"4","last_reported":1762628808,"current_range_meters":14000,"station_id":"ce4bhg12rcd13ifvqf60","pricing_plan_id":"cebpf4jnsgd1na2vs0mg"},{"bike_id":"7e116551-bd2c-4e6e-8d4f-ea2d08961f93","system_id":"levelo_inurba_marseille","lat":43.292311,"lon":5.384486,"is_reserved":false,"is_disabled":false,"rental_uris":{"android":"levelo://app?vid=7e116551-bd2c-4e6e-8d4f-ea2d08961f93","ios":"levelo://app?vid=7e116551-bd2c-4e6e-8d4f-ea2d08961f93"},"vehicle_type_id":"4","last_reported":1762628808,"current_range_meters":14000,"station_id":"ce4bh692rcd13ifvqea0","pricing_plan_id":"cebpf4jnsgd1na2vs0mg"},{"bike_id":"205c8cef-abd3-431f-9e41-a507cb315fe2","system_id":"levelo_inurba_marseille","lat":43.29248,"lon":5.40908,"is_reserved":false,"is_disabled":false,"rental_uris":{"android":"levelo://app?vid=205c8cef-abd3-431f-9e41-a507cb315fe2","ios":"levelo://app?vid=205c8cef-abd3-431f-9e41-a507cb315fe2"},"vehicle_type_id":"4","last_reported":1762628808,"current_range_meters":14000,"station_id":"ce4bh192rcd13ifvqdc0","pricing_plan_id":"cebpf4jnsgd1na2vs0mg"},{"bike_id":"d0b5feab-4e16-49e5-9d4a-c8741c92807f","system_id":"levelo_inurba_marseille","lat":43.29027,"lon":5.38633,"is_reserved":false,"is_disabled":false,"rental_uris":{"android":"levelo://app?vid=d0b5feab-4e16-49e5-9d4a-c8741c92807f","ios":"levelo://app?vid=d0b5feab-4e16-49e5-9d4a-c8741c92807f"},"vehicle_type_id":"4","last_reported":1762628808,"current_range_meters":14000,"station_id":"ce4bh4p2rcd13ifvqe0g","pricing_plan_id":"cebpf4jnsgd1na2vs0mg"},{"bike_id":"d64d51e9-1840-45e2-b4ad-499dfbc7a077","system_id":"levelo_inurba_marseille","lat":43.29276,"lon":5.36862,"is_reserved":false,"is_disabled":false,"rental_uris":{"android":"levelo://app?vid=d64d51e9-1840-45e2-b4ad-499dfbc7a077","ios":"levelo://app?vid=d64d51e9-1840-45e2-b4ad-499dfbc7a077"},"vehicle_type_id":"4","last_reported":1762628808,"current_range_meters":14000,"station_id":"ce4bhbp2rcd13ifvqesg","pricing_plan_id":"cebpf4jnsgd1na2vs0mg"},{"bike_id":"b4629f60-4dd5-407b-9260-97e82082af2c","system_id":"levelo_inurba_marseille","lat":43.31129,"lon":5.37743,"is_reserved":false,"is_disabled":false,"rental_uris":{"android":"levelo://app?vid=b4629f60-4dd5-407b-9260-97e82082af2c","ios":"levelo://app?vid=b4629f60-4dd5-407b-9260-97e82082af2c"},"vehicle_type_id":"4","last_reported":1762628808,"current_range_meters":14000,"station_id":"ce4bgt92rcd13ifvqcg0","pricing_plan_id":"cebpf4jnsgd1na2vs0mg"},{"bike_id":"c7d52006-ed2f-4ae5-ae08-b966d64ee716","system_id":"levelo_inurba_marseille","lat":43.307983,"lon":5.381518,"is_reserved":false,"is_disabled":false,"rental_uris":{"android":"levelo://app?vid=c7d52006-ed2f-4ae5-ae08-b966d64ee716","ios":"levelo://app?vid=c7d52006-ed2f-4ae5-ae08-b966d64ee716"},"vehicle_type_id":"4","last_reported":1762628808,"current_range_meters":14400,"station_id":"ce4bgt12rcd13ifvqce0","pricing_plan_id":"cebpf4jnsgd1na2vs0mg"},{"bike_id":"034b45fe-fc8a-40e2-930b-00715a4950c7","system_id":"levelo_inurba_marseille","lat":43.22534,"lon":5.34833,"is_reserved":false,"is_disabled":false,"rental_uris":{"android":"levelo://app?vid=034b45fe-fc8a-40e2-930b-00715a4950c7","ios":"levelo://app?vid=034b45fe-fc8a-40e2-930b-00715a4950c7"},"vehicle_type_id":"4","last_reported":1762628808,"current_range_meters":14400,"station_id":"","pricing_plan_id":"cebpf4jnsgd1na2vs0mg"},{"bike_id":"46422a6e-ef17-4a43-abdf-be9a940d9d7c","system_id":"levelo_inurba_marseille","lat":43.31531,"lon":5.3802,"is_reserved":false,"is_disabled":false,"rental_uris":{"android":"levelo://app?vid=46422a6e-ef17-4a43-abdf-be9a940d9d7c","ios":"levelo://app?vid=46422a6e-ef17-4a43-abdf-be9a940d9d7c"},"vehicle_type_id":"4","last_reported":1762628808,"current_range_meters":14400,"station_id":"ce4bhsp2rcd13ifvqi50","pricing_plan_id":"cebpf4jnsgd1na2vs0mg"},{"bike_id":"42f1d31d-b0b5-48f8-b88c-a2adae506543","system_id":"levelo_inurba_marseille","lat":43.2982,"lon":5.44008,"is_reserved":false,"is_disabled":false,"rental_uris":{"android":"levelo://app?vid=42f1d31d-b0b5-48f8-b88c-a2adae506543","ios":"levelo://app?vid=42f1d31d-b0b5-48f8-b88c-a2adae506543"},"vehicle_type_id":"4","last_reported":1762628808,"current_range_meters":14400,"station_id":"st_d3jp68qikq2c7381ktn0","pricing_plan_id":"cebpf4jnsgd1na2vs0mg"},{"bike_id":"d31d8e92-d18c-4392-889f-275e251a6472","system_id":"levelo_inurba_marseille","lat":43.30888,"lon":5.39641,"is_reserved":false,"is_disabled":false,"rental_uris":{"android":"levelo://app?vid=d31d8e92-d18c-4392-889f-275e251a6472","ios":"levelo://app?vid=d31d8e92-d18c-4392-889f-275e251a6472"},"vehicle_type_id":"4","last_reported":1762628808,"current_range_meters":14400,"station_id":"ce4bh012rcd13ifvqcv0","pricing_plan_id":"cebpf4jnsgd1na2vs0mg"},{"bike_id":"186f06b7-9a2a-4013-92c3-74ac21b89f0d","system_id":"levelo_inurba_marseille","lat":43.29337,"lon":5.38508,"is_reserved":false,"is_disabled":false,"rental_uris":{"android":"levelo://app?vid=186f06b7-9a2a-4013-92c3-74ac21b89f0d","ios":"levelo://app?vid=186f06b7-9a2a-4013-92c3-74ac21b89f0d"},"vehicle_type_id":"4","last_reported":1762628808,"current_range_meters":14400,"station_id":"","pricing_plan_id":"cebpf4jnsgd1na2vs0mg"},{"bike_id":"5e22660c-53e1-48d3-bb52-43bf62db509c","system_id":"levelo_inurba_marseille","lat":43.30444,"lon":5.38885,"is_reserved":false,"is_disabled":false,"rental_uris":{"android":"levelo://app?vid=5e22660c-53e1-48d3-bb52-43bf62db509c","ios":"levelo://app?vid=5e22660c-53e1-48d3-bb52-43bf62db509c"},"vehicle_type_id":"4","last_reported":1762628808,"current_range_meters":14400,"station_id":"ce4bgk12rcd13ifvqbi0","pricing_plan_id":"cebpf4jnsgd1na2vs0mg"},{"bike_id":"8b937aff-02c5-4534-919f-2d9de20c3421","system_id":"levelo_inurba_marseille","lat":43.29871,"lon":5.39732,"is_reserved":false,"is_disabled":false,"rental_uris":{"android":"levelo://app?vid=8b937aff-02c5-4534-919f-2d9de20c3421","ios":"levelo://app?vid=8b937aff-02c5-4534-919f-2d9de20c3421"},"vehicle_type_id":"4","last_reported":1762628808,"current_range_meters":14400,"station_id":"ce4bh0h2rcd13ifvqd50","pricing_plan_id":"cebpf4jnsgd1na2vs0mg"},{"bike_id":"5c91f7a5-bf4a-47b4-82be-e1c1e11e7df2","system_id":"levelo_inurba_marseille","lat":43.29489,"lon":5.43302,"is_reserved":false,"is_disabled":false,"rental_uris":{"android":"levelo://app?vid=5c91f7a5-bf4a-47b4-82be-e1c1e11e7df2","ios":"levelo://app?vid=5c91f7a5-bf4a-47b4-82be-e1c1e11e7df2"},"vehicle_type_id":"4","last_reported":1762628808,"current_range_meters":14400,"station_id":"st_d3j5ugp08ojc73fj9d10","pricing_plan_id":"cebpf4jnsgd1na2vs0mg"},{"bike_id":"7d5e3357-11eb-4f05-8314-b465bc4cc45c","system_id":"levelo_inurba_marseille","lat":43.279105,"lon":5.380055,"is_reserved":false,"is_disabled":false,"rental_uris":{"android":"levelo://app?vid=7d5e3357-11eb-4f05-8314-b465bc4cc45c","ios":"levelo://app?vid=7d5e3357-11eb-4f05-8314-b465bc4cc45c"},"vehicle_type_id":"4","last_reported":1762628808,"current_range_meters":14400,"station_id":"ce4bhf92rcd13ifvqf50","pricing_plan_id":"cebpf4jnsgd1na2vs0mg"},{"bike_id":"462fd3fb-de6a-4a66-9e94-cfd2b0d801c6","system_id":"levelo_inurba_marseille","lat":43.30315,"lon":5.37667,"is_reserved":false,"is_disabled":false,"rental_uris":{"android":"levelo://app?vid=462fd3fb-de6a-4a66-9e94-cfd2b0d801c6","ios":"levelo://app?vid=462fd3fb-de6a-4a66-9e94-cfd2b0d801c6"},"vehicle_type_id":"4","last_reported":1762628808,"current_range_meters":14400,"station_id":"","pricing_plan_id":"cebpf4jnsgd1na2vs0mg"},{"bike_id":"bad509b5-7881-4055-989e-a86c454fbc97","system_id":"levelo_inurba_marseille","lat":43.289629,"lon":5.364323,"is_reserved":false,"is_disabled":false,"rental_uris":{"android":"levelo://app?vid=bad509b5-7881-4055-989e-a86c454fbc97","ios":"levelo://app?vid=bad509b5-7881-4055-989e-a86c454fbc97"},"vehicle_type_id":"4","last_reported":1762628808,"current_range_meters":14400,"station_id":"ce4bhc92rcd13ifvqetg","pricing_plan_id":"cebpf4jnsgd1na2vs0mg"},{"bike_id":"05ee822f-f259-4a31-839c-1f4d340a367b","system_id":"levelo_inurba_marseille","lat":43.31688,"lon":5.40479,"is_reserved":false,"is_disabled":false,"rental_uris":{"android":"levelo://app?vid=05ee822f-f259-4a31-839c-1f4d340a367b","ios":"levelo://app?vid=05ee822f-f259-4a31-839c-1f4d340a367b"},"vehicle_type_id":"4","last_reported":1762628808,"current_range_meters":14400,"station_id":"ce4bh012rcd13ifvqd00","pricing_plan_id":"cebpf4jnsgd1na2vs0mg"},{"bike_id":"7b9ecb2d-30bc-4f1c-adb6-39eb3c485c41","system_id":"levelo_inurba_marseille","lat":43.22569,"lon":5.4162,"is_reserved":false,"is_disabled":false,"rental_uris":{"android":"levelo://app?vid=7b9ecb2d-30bc-4f1c-adb6-39eb3c485c41","ios":"levelo://app?vid=7b9ecb2d-30bc-4f1c-adb6-39eb3c485c41"},"vehicle_type_id":"4","last_reported":1762628808,"current_range_meters":14400,"station_id":"st_d2o4gvlbi1j2169b742g","pricing_plan_id":"cebpf4jnsgd1na2vs0mg"},{"bike_id":"56a17711-0c37-47c9-9073-2a6e0c1aada7","system_id":"levelo_inurba_marseille","lat":43.29571,"lon":5.37513,"is_reserved":false,"is_disabled":false,"rental_uris":{"android":"levelo://app?vid=56a17711-0c37-47c9-9073-2a6e0c1aada7","ios":"levelo://app?vid=56a17711-0c37-47c9-9073-2a6e0c1aada7"},"vehicle_type_id":"4","last_reported":1762628808,"current_range_meters":14800,"station_id":"ce4bgh92rcd13ifvqb50","pricing_plan_id":"cebpf4jnsgd1na2vs0mg"},{"bike_id":"a07eee62-9d57-4305-a3b9-5271338fd36d","system_id":"levelo_inurba_marseille","lat":43.256367,"lon":5.39394,"is_reserved":false,"is_disabled":false,"rental_uris":{"android":"levelo://app?vid=a07eee62-9d57-4305-a3b9-5271338fd36d","ios":"levelo://app?vid=a07eee62-9d57-4305-a3b9-5271338fd36d"},"vehicle_type_id":"4","last_reported":1762628808,"current_range_meters":14800,"station_id":"","pricing_plan_id":"cebpf4jnsgd1na2vs0mg"},{"bike_id":"e4cfe488-02c0-40c7-9b79-06076445ed3b","system_id":"levelo_inurba_marseille","lat":43.29308,"lon":5.37187,"is_reserved":false,"is_disabled":false,"rental_uris":{"android":"levelo://app?vid=e4cfe488-02c0-40c7-9b79-06076445ed3b","ios":"levelo://app?vid=e4cfe488-02c0-40c7-9b79-06076445ed3b"},"vehicle_type_id":"4","last_reported":1762628808,"current_range_meters":14800,"station_id":"ce4bgh92rcd13ifvqb40","pricing_plan_id":"cebpf4jnsgd1na2vs0mg"},{"bike_id":"5f971262-80be-4ebc-b9cf-9631837013f2","system_id":"levelo_inurba_marseille","lat":43.29175,"lon":5.37153,"is_reserved":false,"is_disabled":false,"rental_uris":{"android":"levelo://app?vid=5f971262-80be-4ebc-b9cf-9631837013f2","ios":"levelo://app?vid=5f971262-80be-4ebc-b9cf-9631837013f2"},"vehicle_type_id":"4","last_reported":1762628808,"current_range_meters":14800,"station_id":"ce4bha92rcd13ifvqeh0","pricing_plan_id":"cebpf4jnsgd1na2vs0mg"},{"bike_id":"1a85bd73-f6c9-483d-ac28-5d95b6775d78","system_id":"levelo_inurba_marseille","lat":43.28725,"lon":5.37955,"is_reserved":false,"is_disabled":true,"rental_uris":{"android":"levelo://app?vid=1a85bd73-f6c9-483d-ac28-5d95b6775d78","ios":"levelo://app?vid=1a85bd73-f6c9-483d-ac28-5d95b6775d78"},"vehicle_type_id":"4","last_reported":1762628808,"current_range_meters":15200,"station_id":"ce4bh9p2rcd13ifvqec0","pricing_plan_id":"cebpf4jnsgd1na2vs0mg"},{"bike_id":"c1fa8207-457e-4e5f-9718-b72406091c96","system_id":"levelo_inurba_marseille","lat":43.29302,"lon":5.37169,"is_reserved":false,"is_disabled":false,"rental_uris":{"android":"levelo://app?vid=c1fa8207-457e-4e5f-9718-b72406091c96","ios":"levelo://app?vid=c1fa8207-457e-4e5f-9718-b72406091c96"},"vehicle_type_id":"4","last_reported":1762628808,"current_range_meters":15200,"station_id":"ce4bgh92rcd13ifvqb40","pricing_plan_id":"cebpf4jnsgd1na2vs0mg"},{"bike_id":"f114550f-0e97-467f-a15f-491fe7ea5021","system_id":"levelo_inurba_marseille","lat":43.29315,"lon":5.3718,"is_reserved":false,"is_disabled":true,"rental_uris":{"android":"levelo://app?vid=f114550f-0e97-467f-a15f-491fe7ea5021","ios":"levelo://app?vid=f114550f-0e97-467f-a15f-491fe7ea5021"},"vehicle_type_id":"4","last_reported":1762628808,"current_range_meters":15200,"station_id":"ce4bgh92rcd13ifvqb40","pricing_plan_id":"cebpf4jnsgd1na2vs0mg"},{"bike_id":"3ee4bd7a-bd3e-459e-adb4-f7aa8b8048b8","system_id":"levelo_inurba_marseille","lat":43.29574,"lon":5.36744,"is_reserved":false,"is_disabled":false,"rental_uris":{"android":"levelo://app?vid=3ee4bd7a-bd3e-459e-adb4-f7aa8b8048b8","ios":"levelo://app?vid=3ee4bd7a-bd3e-459e-adb4-f7aa8b8048b8"},"vehicle_type_id":"4","last_reported":1762628808,"current_range_meters":15200,"station_id":"ce4bgph2rcd13ifvqc2g","pricing_plan_id":"cebpf4jnsgd1na2vs0mg"},{"bike_id":"26b0c57e-6c58-491a-893d-44d3fb2332fa","system_id":"levelo_inurba_marseille","lat":43.28077,"lon":5.39661,"is_reserved":false,"is_disabled":false,"rental_uris":{"android":"levelo://app?vid=26b0c57e-6c58-491a-893d-44d3fb2332fa","ios":"levelo://app?vid=26b0c57e-6c58-491a-893d-44d3fb2332fa"},"vehicle_type_id":"4","last_reported":1762628808,"current_range_meters":15200,"station_id":"ce4bho12rcd13ifvqh2g","pricing_plan_id":"cebpf4jnsgd1na2vs0mg"},{"bike_id":"53529ee7-fa79-4bfe-8ac3-2ffb63a46b11","system_id":"levelo_inurba_marseille","lat":43.31821,"lon":5.38818,"is_reserved":false,"is_disabled":false,"rental_uris":{"android":"levelo://app?vid=53529ee7-fa79-4bfe-8ac3-2ffb63a46b11","ios":"levelo://app?vid=53529ee7-fa79-4bfe-8ac3-2ffb63a46b11"},"vehicle_type_id":"4","last_reported":1762628808,"current_range_meters":15200,"station_id":"","pricing_plan_id":"cebpf4jnsgd1na2vs0mg"},{"bike_id":"c73c5513-728d-4700-9395-e31e4399cd51","system_id":"levelo_inurba_marseille","lat":43.292003,"lon":5.402951,"is_reserved":false,"is_disabled":false,"rental_uris":{"android":"levelo://app?vid=c73c5513-728d-4700-9395-e31e4399cd51","ios":"levelo://app?vid=c73c5513-728d-4700-9395-e31e4399cd51"},"vehicle_type_id":"4","last_reported":1762628808,"current_range_meters":15200,"station_id":"","pricing_plan_id":"cebpf4jnsgd1na2vs0mg"},{"bike_id":"15db09df-59b0-446a-87c5-e354a3319258","system_id":"levelo_inurba_marseille","lat":43.28477,"lon":5.48391,"is_reserved":false,"is_disabled":false,"rental_uris":{"android":"levelo://app?vid=15db09df-59b0-446a-87c5-e354a3319258","ios":"levelo://app?vid=15db09df-59b0-446a-87c5-e354a3319258"},"vehicle_type_id":"4","last_reported":1762628808,"current_range_meters":15200,"station_id":"st_d3svhcjqgbts73a3dn0g","pricing_plan_id":"cebpf4jnsgd1na2vs0mg"},{"bike_id":"06b572d6-d95a-4f1a-9a9a-b316897ad6d5","system_id":"levelo_inurba_marseille","lat":43.29545,"lon":5.3752,"is_reserved":false,"is_disabled":false,"rental_uris":{"android":"levelo://app?vid=06b572d6-d95a-4f1a-9a9a-b316897ad6d5","ios":"levelo://app?vid=06b572d6-d95a-4f1a-9a9a-b316897ad6d5"},"vehicle_type_id":"4","last_reported":1762628808,"current_range_meters":15200,"station_id":"ce4bgkp2rcd13ifvqbmg","pricing_plan_id":"cebpf4jnsgd1na2vs0mg"},{"bike_id":"95c2a582-1eba-4ebc-bdda-a353604dc20d","system_id":"levelo_inurba_marseille","lat":43.31254,"lon":5.36852,"is_reserved":false,"is_disabled":false,"rental_uris":{"android":"levelo://app?vid=95c2a582-1eba-4ebc-bdda-a353604dc20d","ios":"levelo://app?vid=95c2a582-1eba-4ebc-bdda-a353604dc20d"},"vehicle_type_id":"4","last_reported":1762628808,"current_range_meters":15200,"station_id":"ce4bgl92rcd13ifvqbq0","pricing_plan_id":"cebpf4jnsgd1na2vs0mg"},{"bike_id":"5ad6357f-ef3c-47cb-88b9-5bf3b7d02323","system_id":"levelo_inurba_marseille","lat":43.306849,"lon":5.367879,"is_reserved":false,"is_disabled":false,"rental_uris":{"android":"levelo://app?vid=5ad6357f-ef3c-47cb-88b9-5bf3b7d02323","ios":"levelo://app?vid=5ad6357f-ef3c-47cb-88b9-5bf3b7d02323"},"vehicle_type_id":"4","last_reported":1762628808,"current_range_meters":15200,"station_id":"ce4bgn92rcd13ifvqbvg","pricing_plan_id":"cebpf4jnsgd1na2vs0mg"},{"bike_id":"3737f8b4-8a68-4f87-b348-86385cb6d333","system_id":"levelo_inurba_marseille","lat":43.34143,"lon":5.40906,"is_reserved":false,"is_disabled":false,"rental_uris":{"android":"levelo://app?vid=3737f8b4-8a68-4f87-b348-86385cb6d333","ios":"levelo://app?vid=3737f8b4-8a68-4f87-b348-86385cb6d333"},"vehicle_type_id":"4","last_reported":1762628808,"current_range_meters":15200,"station_id":"ce4bhqh2rcd13ifvqhlg","pricing_plan_id":"cebpf4jnsgd1na2vs0mg"},{"bike_id":"d14931a0-78e7-45e7-802d-c5a8a7c60ec5","system_id":"levelo_inurba_marseille","lat":43.28562,"lon":5.39523,"is_reserved":false,"is_disabled":false,"rental_uris":{"android":"levelo://app?vid=d14931a0-78e7-45e7-802d-c5a8a7c60ec5","ios":"levelo://app?vid=d14931a0-78e7-45e7-802d-c5a8a7c60ec5"},"vehicle_type_id":"4","last_reported":1762628808,"current_range_meters":15200,"station_id":"ce4bh292rcd13ifvqdg0","pricing_plan_id":"cebpf4jnsgd1na2vs0mg"},{"bike_id":"f6f9eaa2-3c45-4644-a8fc-8d9058cb1fe8","system_id":"levelo_inurba_marseille","lat":43.30252,"lon":5.40061,"is_reserved":false,"is_disabled":false,"rental_uris":{"android":"levelo://app?vid=f6f9eaa2-3c45-4644-a8fc-8d9058cb1fe8","ios":"levelo://app?vid=f6f9eaa2-3c45-4644-a8fc-8d9058cb1fe8"},"vehicle_type_id":"4","last_reported":1762628808,"current_range_meters":16000,"station_id":"ce4bgvh2rcd13ifvqcs0","pricing_plan_id":"cebpf4jnsgd1na2vs0mg"},{"bike_id":"fecd52af-29bb-4bb2-9160-9e83d6376c53","system_id":"levelo_inurba_marseille","lat":43.28743,"lon":5.39595,"is_reserved":false,"is_disabled":false,"rental_uris":{"android":"levelo://app?vid=fecd52af-29bb-4bb2-9160-9e83d6376c53","ios":"levelo://app?vid=fecd52af-29bb-4bb2-9160-9e83d6376c53"},"vehicle_type_id":"4","last_reported":1762628808,"current_range_meters":16000,"station_id":"","pricing_plan_id":"cebpf4jnsgd1na2vs0mg"},{"bike_id":"3d2f5cf1-3cfa-41c1-ab97-fc5abc42da8a","system_id":"levelo_inurba_marseille","lat":43.24546,"lon":5.39524,"is_reserved":false,"is_disabled":false,"rental_uris":{"android":"levelo://app?vid=3d2f5cf1-3cfa-41c1-ab97-fc5abc42da8a","ios":"levelo://app?vid=3d2f5cf1-3cfa-41c1-ab97-fc5abc42da8a"},"vehicle_type_id":"4","last_reported":1762628808,"current_range_meters":16000,"station_id":"ce4bhlp2rcd13ifvqgjg","pricing_plan_id":"cebpf4jnsgd1na2vs0mg"},{"bike_id":"9411d5cb-39b7-429d-9da1-4afe5a7f9ab3","system_id":"levelo_inurba_marseille","lat":43.29303,"lon":5.3745,"is_reserved":false,"is_disabled":false,"rental_uris":{"android":"levelo://app?vid=9411d5cb-39b7-429d-9da1-4afe5a7f9ab3","ios":"levelo://app?vid=9411d5cb-39b7-429d-9da1-4afe5a7f9ab3"},"vehicle_type_id":"4","last_reported":1762628808,"current_range_meters":16000,"station_id":"ce4bgi12rcd13ifvqb70","pricing_plan_id":"cebpf4jnsgd1na2vs0mg"},{"bike_id":"9ee730ec-3d2c-4627-8620-b354f7510d6c","system_id":"levelo_inurba_marseille","lat":43.28714,"lon":5.37386,"is_reserved":false,"is_disabled":false,"rental_uris":{"android":"levelo://app?vid=9ee730ec-3d2c-4627-8620-b354f7510d6c","ios":"levelo://app?vid=9ee730ec-3d2c-4627-8620-b354f7510d6c"},"vehicle_type_id":"4","last_reported":1762628808,"current_range_meters":16000,"station_id":"ce4bh3p2rcd13ifvqdq0","pricing_plan_id":"cebpf4jnsgd1na2vs0mg"},{"bike_id":"4c7ed203-8072-4618-8534-7fce4c89158b","system_id":"levelo_inurba_marseille","lat":43.290963,"lon":5.381323,"is_reserved":false,"is_disabled":false,"rental_uris":{"android":"levelo://app?vid=4c7ed203-8072-4618-8534-7fce4c89158b","ios":"levelo://app?vid=4c7ed203-8072-4618-8534-7fce4c89158b"},"vehicle_type_id":"4","last_reported":1762628808,"current_range_meters":16400,"station_id":"ce4bh512rcd13ifvqe2g","pricing_plan_id":"cebpf4jnsgd1na2vs0mg"},{"bike_id":"e374f4d6-676c-4d62-af2d-1f0734c48172","system_id":"levelo_inurba_marseille","lat":43.294917,"lon":5.43307,"is_reserved":false,"is_disabled":false,"rental_uris":{"android":"levelo://app?vid=e374f4d6-676c-4d62-af2d-1f0734c48172","ios":"levelo://app?vid=e374f4d6-676c-4d62-af2d-1f0734c48172"},"vehicle_type_id":"4","last_reported":1762628808,"current_range_meters":16400,"station_id":"st_d3j5ugp08ojc73fj9d10","pricing_plan_id":"cebpf4jnsgd1na2vs0mg"},{"bike_id":"6ca580b9-ae87-4e9b-a62c-4e0f6a07370c","system_id":"levelo_inurba_marseille","lat":43.21189,"lon":5.35065,"is_reserved":false,"is_disabled":false,"rental_uris":{"android":"levelo://app?vid=6ca580b9-ae87-4e9b-a62c-4e0f6a07370c","ios":"levelo://app?vid=6ca580b9-ae87-4e9b-a62c-4e0f6a07370c"},"vehicle_type_id":"4","last_reported":1762628808,"current_range_meters":16400,"station_id":"st_cvj6sg6p6f1abm77japg","pricing_plan_id":"cebpf4jnsgd1na2vs0mg"},{"bike_id":"4db12bf6-3bf5-4434-88f7-21daf20dade4","system_id":"levelo_inurba_marseille","lat":43.30306,"lon":5.39205,"is_reserved":false,"is_disabled":false,"rental_uris":{"android":"levelo://app?vid=4db12bf6-3bf5-4434-88f7-21daf20dade4","ios":"levelo://app?vid=4db12bf6-3bf5-4434-88f7-21daf20dade4"},"vehicle_type_id":"4","last_reported":1762628808,"current_range_meters":16400,"station_id":"ce4bgkh2rcd13ifvqbk0","pricing_plan_id":"cebpf4jnsgd1na2vs0mg"},{"bike_id":"d1cbe8b1-b39b-4e6a-b4e1-914b6f778fce","system_id":"levelo_inurba_marseille","lat":43.31579,"lon":5.38825,"is_reserved":false,"is_disabled":true,"rental_uris":{"android":"levelo://app?vid=d1cbe8b1-b39b-4e6a-b4e1-914b6f778fce","ios":"levelo://app?vid=d1cbe8b1-b39b-4e6a-b4e1-914b6f778fce"},"vehicle_type_id":"4","last_reported":1762628808,"current_range_meters":16400,"station_id":"","pricing_plan_id":"cebpf4jnsgd1na2vs0mg"},{"bike_id":"4fa93e58-ad51-41bb-b7cd-c71dad4e22b9","system_id":"levelo_inurba_marseille","lat":43.21189,"lon":5.35076,"is_reserved":false,"is_disabled":true,"rental_uris":{"android":"levelo://app?vid=4fa93e58-ad51-41bb-b7cd-c71dad4e22b9","ios":"levelo://app?vid=4fa93e58-ad51-41bb-b7cd-c71dad4e22b9"},