{"last_updated":1747170580,"ttl":60,"version":"2.2","data":{"bikes":[{"bike_id":"c0b9fd4f-e181-46ce-b0bf-f5119973334f","system_id":"levelo_inurba_marseille","lat":43.33771,"lon":5.37424,"is_reserved":false,"is_disabled":false,"rental_uris":{"android":"levelo://app?vid=c0b9fd4f-e181-46ce-b0bf-f5119973334f","ios":"levelo://app?vid=c0b9fd4f-e181-46ce-b0bf-f5119973334f"},"vehicle_type_id":"4","last_reported":1747170580,"current_range_meters":22000,"station_id":"","pricing_plan_id":"cebpf4jnsgd1na2vs0mg"},{"bike_id":"a2ae26c9-3a89-4142-a096-4b0533460118","system_id":"levelo_inurba_marseille","lat":43.27054,"lon":5.40257,"is_reserved":false,"is_disabled":true,"rental_uris":{"android":"levelo://app?vid=a2ae26c9-3a89-4142-a096-4b0533460118","ios":"levelo://app?vid=a2ae26c9-3a89-4142-a096-4b0533460118"},"vehicle_type_id":"4","last_reported":1747170580,"current_range_meters":0,"station_id":"","pricing_plan_id":"cebpf4jnsgd1na2vs0mg"},{"bike_id":"fc2577e7-1497-425b-9d4f-ab8d7dc843c6","system_id":"levelo_inurba_marseille","lat":43.33771,"lon":5.37485,"is_reserved":false,"is_disabled":true,"rental_uris":{"android":"levelo://app?vid=fc2577e7-1497-425b-9d4f-ab8d7dc843c6","ios":"levelo://app?vid=fc2577e7-1497-425b-9d4f-ab8d7dc843c6"},"vehicle_type_id":"4","last_reported":1747170580,"current_range_meters":0,"station_id":"","pricing_plan_id":"cebpf4jnsgd1na2vs0mg"},{"bike_id":"32ab2f6f-d857-4fc8-88fb-7ebfc19c0608","system_id":"levelo_inurba_marseille","lat":43.26861,"lon":5.41247,"is_reserved":false,"is_disabled":true,"rental_uris":{"android":"levelo://app?vid=32ab2f6f-d857-4fc8-88fb-7ebfc19c0608","ios":"levelo://app?vid=32ab2f6f-d857-4fc8-88fb-7ebfc19c0608"},"vehicle_type_id":"4","last_reported":1747170580,"current_range_meters":0,"station_id":"","pricing_plan_id":"cebpf4jnsgd1na2vs0mg"},{"bike_id":"0fedde00-40eb-40d2-8fc2-e61ecce46b7b","system_id":"levelo_inurba_marseille","lat":43.28313,"lon":5.43227,"is_reserved":false,"is_disabled":true,"rental_uris":{"android":"levelo://app?vid=0fedde00-40eb-40d2-8fc2-e61ecce46b7b","ios":"levelo://app?vid=0fedde00-40eb-40d2-8fc2-e61ecce46b7b"},"vehicle_type_id":"4","last_reported":1747170580,"current_range_meters":0,"station_id":"","pricing_plan_id":"cebpf4jnsgd1na2vs0mg"},{"bike_id":"727c4684-f63f-4c08-83b6-b043d1b81a1c","system_id":"levelo_inurba_marseille","lat":43.30011,"lon":5.47627,"is_reserved":false,"is_disabled":true,"rental_uris":{"android":"levelo://app?vid=727c4684-f63f-4c08-83b6-b043d1b81a1c","ios":"levelo://app?vid=727c4684-f63f-4c08-83b6-b043d1b81a1c"},"vehicle_type_id":"4","last_reported":1747170580,"current_range_meters":0,"station_id":"","pricing_plan_id":"cebpf4jnsgd1na2vs0mg"},{"bike_id":"d19ebaab-ef98-4efa-b952-7192b9b2f014","system_id":"levelo_inurba_marseille","lat":43.26153,"lon":5.39243,"is_reserved":false,"is_disabled":true,"rental_uris":{"android":"levelo://app?vid=d19ebaab-ef98-4efa-b952-7192b9b2f014","ios":"levelo://app?vid=d19ebaab-ef98-4efa-b952-7192b9b2f014"},"vehicle_type_id":"4","last_reported":1747170580,"current_range_meters":0,"station_id":"","pricing_plan_id":"cebpf4jnsgd1na2vs0mg"},{"bike_id":"792567c6-0442-4011-aff0-9c05e25deb48","system_id":"levelo_inurba_marseille","lat":43.28071,"lon":5.44168,"is_reserved":false,"is_disabled":true,"rental_uris":{"android":"levelo://app?vid=792567c6-0442-4011-aff0-9c05e25deb48","ios":"levelo://app?vid=792567c6-0442-4011-aff0-9c05e25deb48"},"vehicle_type_id":"4","last_reported":1747170580,"current_range_meters":0,"station_id":"","pricing_plan_id":"cebpf4jnsgd1na2vs0mg"},{"bike_id":"ddaa999c-b039-42a8-840e-d56af82334f9","system_id":"levelo_inurba_marseille","lat":43.29586,"lon":5.36738,"is_reserved":false,"is_disabled":true,"rental_uris":{"android":"levelo://app?vid=ddaa999c-b039-42a8-840e-d56af82334f9","ios":"levelo://app?vid=ddaa999c-b039-42a8-840e-d56af82334f9"},"vehicle_type_id":"4","last_reported":1747170580,"current_range_meters":0,"station_id":"","pricing_plan_id":"cebpf4jnsgd1na2vs0mg"},{"bike_id":"9cc9a609-4da1-4e59-b742-6eb3bb11af87","system_id":"levelo_inurba_marseille","lat":43.27966,"lon":5.38712,"is_reserved":false,"is_disabled":true,"rental_uris":{"android":"levelo://app?vid=9cc9a609-4da1-4e59-b742-6eb3bb11af87","ios":"levelo://app?vid=9cc9a609-4da1-4e59-b742-6eb3bb11af87"},"vehicle_type_id":"4","last_reported":1747170580,"current_range_meters":0,"station_id":"ce4bhg12rcd13ifvqf80","pricing_plan_id":"cebpf4jnsgd1na2vs0mg"},{"bike_id":"7d648bb7-ab7e-409a-add7-d4a17f03de12","system_id":"levelo_inurba_marseille","lat":43.23141,"lon":5.43737,"is_reserved":false,"is_disabled":true,"rental_uris":{"android":"levelo://app?vid=7d648bb7-ab7e-409a-add7-d4a17f03de12","ios":"levelo://app?vid=7d648bb7-ab7e-409a-add7-d4a17f03de12"},"vehicle_type_id":"4","last_reported":1747170580,"current_range_meters":0,"station_id":"ce4bhmp2rcd13ifvqgog","pricing_plan_id":"cebpf4jnsgd1na2vs0mg"},{"bike_id":"986c18d8-74d7-4caf-9a65-ed5970f61353","system_id":"levelo_inurba_marseille","lat":43.21163,"lon":5.35097,"is_reserved":false,"is_disabled":true,"rental_uris":{"android":"levelo://app?vid=986c18d8-74d7-4caf-9a65-ed5970f61353","ios":"levelo://app?vid=986c18d8-74d7-4caf-9a65-ed5970f61353"},"vehicle_type_id":"4","last_reported":1747170580,"current_range_meters":0,"station_id":"st_cvj6sg6p6f1abm77japg","pricing_plan_id":"cebpf4jnsgd1na2vs0mg"},{"bike_id":"49c47ed7-52af-4f8e-abc1-3485cf2c06af","system_id":"levelo_inurba_marseille","lat":43.22494,"lon":5.34784,"is_reserved":false,"is_disabled":true,"rental_uris":{"android":"levelo://app?vid=49c47ed7-52af-4f8e-abc1-3485cf2c06af","ios":"levelo://app?vid=49c47ed7-52af-4f8e-abc1-3485cf2c06af"},"vehicle_type_id":"4","last_reported":1747170580,"current_range_meters":400,"station_id":"st_cvj5dfep6f1abm77gieg","pricing_plan_id":"cebpf4jnsgd1na2vs0mg"},{"bike_id":"bbb4056d-3b5b-499c-aa55-a6f4e0388cad","system_id":"levelo_inurba_marseille","lat":43.27556,"lon":5.38445,"is_reserved":false,"is_disabled":true,"rental_uris":{"android":"levelo://app?vid=bbb4056d-3b5b-499c-aa55-a6f4e0388cad","ios":"levelo://app?vid=bbb4056d-3b5b-499c-aa55-a6f4e0388cad"},"vehicle_type_id":"4","last_reported":1747170580,"current_range_meters":1200,"station_id":"ce4bhh92rcd13ifvqfi0","pricing_plan_id":"cebpf4jnsgd1na2vs0mg"},{"bike_id":"86a4c3b1-465f-4e5c-aad8-1d8e5f4f6994","system_id":"levelo_inurba_marseille","lat":43.28155,"lon":5.42642,"is_reserved":false,"is_disabled":true,"rental_uris":{"android":"levelo://app?vid=86a4c3b1-465f-4e5c-aad8-1d8e5f4f6994","ios":"levelo://app?vid=86a4c3b1-465f-4e5c-aad8-1d8e5f4f6994"},"vehicle_type_id":"4","last_reported":1747170580,"current_range_meters":1200,"station_id":"ce4bhnh2rcd13ifvqgug","pricing_plan_id":"cebpf4jnsgd1na2vs0mg"},{"bike_id":"21060685-fcd1-43af-a49e-70a7a37baa0b","system_id":"levelo_inurba_marseille","lat":43.29536,"lon":5.38542,"is_reserved":false,"is_disabled":true,"rental_uris":{"android":"levelo://app?vid=21060685-fcd1-43af-a49e-70a7a37baa0b","ios":"levelo://app?vid=21060685-fcd1-43af-a49e-70a7a37baa0b"},"vehicle_type_id":"4","last_reported":1747170580,"current_range_meters":1600,"station_id":"ce4bgih2rcd13ifvqba0","pricing_plan_id":"cebpf4jnsgd1na2vs0mg"},{"bike_id":"66e291b3-305e-4a23-8346-cf679c9f2e15","system_id":"levelo_inurba_marseille","lat":43.32112,"lon":5.36764,"is_reserved":false,"is_disabled":true,"rental_uris":{"android":"levelo://app?vid=66e291b3-305e-4a23-8346-cf679c9f2e15","ios":"levelo://app?vid=66e291b3-305e-4a23-8346-cf679c9f2e15"},"vehicle_type_id":"4","last_reported":1747170580,"current_range_meters":1600,"station_id":"ce4bhrh2rcd13ifvqhug","pricing_plan_id":"cebpf4jnsgd1na2vs0mg"},{"bike_id":"8aecad1a-6a65-4d9a-bc60-67a3daa52852","system_id":"levelo_inurba_marseille","lat":43.217483,"lon":5.346092,"is_reserved":false,"is_disabled":true,"rental_uris":{"android":"levelo://app?vid=8aecad1a-6a65-4d9a-bc60-67a3daa52852","ios":"levelo://app?vid=8aecad1a-6a65-4d9a-bc60-67a3daa52852"},"vehicle_type_id":"4","last_reported":1747170580,"current_range_meters":1600,"station_id":"st_cvj6r9ubvosntc0bgbag","pricing_plan_id":"cebpf4jnsgd1na2vs0mg"},{"bike_id":"3071c56b-ce80-4fb6-b5b1-b157555fc3f4","system_id":"levelo_inurba_marseille","lat":43.24543,"lon":5.3953,"is_reserved":false,"is_disabled":true,"rental_uris":{"android":"levelo://app?vid=3071c56b-ce80-4fb6-b5b1-b157555fc3f4","ios":"levelo://app?vid=3071c56b-ce80-4fb6-b5b1-b157555fc3f4"},"vehicle_type_id":"4","last_reported":1747170580,"current_range_meters":2000,"station_id":"ce4bhlp2rcd13ifvqgjg","pricing_plan_id":"cebpf4jnsgd1na2vs0mg"},{"bike_id":"388e8245-f37d-4035-8342-45f000e14ae4","system_id":"levelo_inurba_marseille","lat":43.23746,"lon":5.36291,"is_reserved":false,"is_disabled":false,"rental_uris":{"android":"levelo://app?vid=388e8245-f37d-4035-8342-45f000e14ae4","ios":"levelo://app?vid=388e8245-f37d-4035-8342-45f000e14ae4"},"vehicle_type_id":"4","last_reported":1747170580,"current_range_meters":2800,"station_id":"","pricing_plan_id":"cebpf4jnsgd1na2vs0mg"},{"bike_id":"97fbce1b-1020-44d8-950b-a0c99f0606ff","system_id":"levelo_inurba_marseille","lat":43.25192,"lon":5.37577,"is_reserved":false,"is_disabled":false,"rental_uris":{"android":"levelo://app?vid=97fbce1b-1020-44d8-950b-a0c99f0606ff","ios":"levelo://app?vid=97fbce1b-1020-44d8-950b-a0c99f0606ff"},"vehicle_type_id":"4","last_reported":1747170580,"current_range_meters":3200,"station_id":"","pricing_plan_id":"cebpf4jnsgd1na2vs0mg"},{"bike_id":"75ba8592-051e-4cf2-a3bb-8cc08118d7c1","system_id":"levelo_inurba_marseille","lat":43.29884,"lon":5.38896,"is_reserved":false,"is_disabled":false,"rental_uris":{"android":"levelo://app?vid=75ba8592-051e-4cf2-a3bb-8cc08118d7c1","ios":"levelo://app?vid=75ba8592-051e-4cf2-a3bb-8cc08118d7c1"},"vehicle_type_id":"4","last_reported":1747170580,"current_range_meters":3600,"station_id":"ce4bh392rcd13ifvqdl0","pricing_plan_id":"cebpf4jnsgd1na2vs0mg"},{"bike_id":"e2d041cb-aea3-459c-9597-774dc8a981b5","system_id":"levelo_inurba_marseille","lat":43.26565,"lon":5.37287,"is_reserved":false,"is_disabled":false,"rental_uris":{"android":"levelo://app?vid=e2d041cb-aea3-459c-9597-774dc8a981b5","ios":"levelo://app?vid=e2d041cb-aea3-459c-9597-774dc8a981b5"},"vehicle_type_id":"4","last_reported":1747170580,"current_range_meters":3600,"station_id":"ce4bhg12rcd13ifvqf70","pricing_plan_id":"cebpf4jnsgd1na2vs0mg"},{"bike_id":"d991382c-9312-4a59-b021-052b5426210e","system_id":"levelo_inurba_marseille","lat":43.26072,"lon":5.39387,"is_reserved":false,"is_disabled":false,"rental_uris":{"android":"levelo://app?vid=d991382c-9312-4a59-b021-052b5426210e","ios":"levelo://app?vid=d991382c-9312-4a59-b021-052b5426210e"},"vehicle_type_id":"4","last_reported":1747170580,"current_range_meters":3600,"station_id":"ce4bhh92rcd13ifvqfj0","pricing_plan_id":"cebpf4jnsgd1na2vs0mg"},{"bike_id":"1df8f959-a521-44fe-a69e-ed77d1cd6b18","system_id":"levelo_inurba_marseille","lat":43.2657,"lon":5.39041,"is_reserved":false,"is_disabled":false,"rental_uris":{"android":"levelo://app?vid=1df8f959-a521-44fe-a69e-ed77d1cd6b18","ios":"levelo://app?vid=1df8f959-a521-44fe-a69e-ed77d1cd6b18"},"vehicle_type_id":"4","last_reported":1747170580,"current_range_meters":4800,"station_id":"ce4bhe12rcd13ifvqf30","pricing_plan_id":"cebpf4jnsgd1na2vs0mg"},{"bike_id":"679a1652-9834-4e25-8720-e5f793f672e7","system_id":"levelo_inurba_marseille","lat":43.25085,"lon":5.39526,"is_reserved":false,"is_disabled":false,"rental_uris":{"android":"levelo://app?vid=679a1652-9834-4e25-8720-e5f793f672e7","ios":"levelo://app?vid=679a1652-9834-4e25-8720-e5f793f672e7"},"vehicle_type_id":"4","last_reported":1747170580,"current_range_meters":5600,"station_id":"ce4bhm12rcd13ifvqgkg","pricing_plan_id":"cebpf4jnsgd1na2vs0mg"},{"bike_id":"764a7013-3fc3-4d32-b171-097f58534232","system_id":"levelo_inurba_marseille","lat":43.28069,"lon":5.39646,"is_reserved":false,"is_disabled":false,"rental_uris":{"android":"levelo://app?vid=764a7013-3fc3-4d32-b171-097f58534232","ios":"levelo://app?vid=764a7013-3fc3-4d32-b171-097f58534232"},"vehicle_type_id":"4","last_reported":1747170580,"current_range_meters":5600,"station_id":"ce4bho12rcd13ifvqh2g","pricing_plan_id":"cebpf4jnsgd1na2vs0mg"},{"bike_id":"3edb7b63-428a-45ba-ba26-de8cf49e7498","system_id":"levelo_inurba_marseille","lat":43.30934,"lon":5.40141,"is_reserved":false,"is_disabled":false,"rental_uris":{"android":"levelo://app?vid=3edb7b63-428a-45ba-ba26-de8cf49e7498","ios":"levelo://app?vid=3edb7b63-428a-45ba-ba26-de8cf49e7498"},"vehicle_type_id":"4","last_reported":1747170580,"current_range_meters":6000,"station_id":"ce4bgvp2rcd13ifvqct0","pricing_plan_id":"cebpf4jnsgd1na2vs0mg"},{"bike_id":"893c56ca-5952-44f0-af39-6f0f16bacb0b","system_id":"levelo_inurba_marseille","lat":43.231545,"lon":5.437066,"is_reserved":false,"is_disabled":false,"rental_uris":{"android":"levelo://app?vid=893c56ca-5952-44f0-af39-6f0f16bacb0b","ios":"levelo://app?vid=893c56ca-5952-44f0-af39-6f0f16bacb0b"},"vehicle_type_id":"4","last_reported":1747170580,"current_range_meters":6000,"station_id":"ce4bhmp2rcd13ifvqgog","pricing_plan_id":"cebpf4jnsgd1na2vs0mg"},{"bike_id":"6f8dd7ef-13eb-4876-a227-f3db3ef6fe94","system_id":"levelo_inurba_marseille","lat":43.26827,"lon":5.40218,"is_reserved":false,"is_disabled":false,"rental_uris":{"android":"levelo://app?vid=6f8dd7ef-13eb-4876-a227-f3db3ef6fe94","ios":"levelo://app?vid=6f8dd7ef-13eb-4876-a227-f3db3ef6fe94"},"vehicle_type_id":"4","last_reported":1747170580,"current_range_meters":6000,"station_id":"ce501612rcd8frsf0b60","pricing_plan_id":"cebpf4jnsgd1na2vs0mg"},{"bike_id":"51b19f62-fdde-4306-af97-d53738085728","system_id":"levelo_inurba_marseille","lat":43.30134,"lon":5.39857,"is_reserved":false,"is_disabled":false,"rental_uris":{"android":"levelo://app?vid=51b19f62-fdde-4306-af97-d53738085728","ios":"levelo://app?vid=51b19f62-fdde-4306-af97-d53738085728"},"vehicle_type_id":"4","last_reported":1747170580,"current_range_meters":6400,"station_id":"ce4bh0h2rcd13ifvqd40","pricing_plan_id":"cebpf4jnsgd1na2vs0mg"},{"bike_id":"4a7a989c-172d-4f21-a17f-a1e0e81980c4","system_id":"levelo_inurba_marseille","lat":43.25882,"lon":5.39985,"is_reserved":false,"is_disabled":false,"rental_uris":{"android":"levelo://app?vid=4a7a989c-172d-4f21-a17f-a1e0e81980c4","ios":"levelo://app?vid=4a7a989c-172d-4f21-a17f-a1e0e81980c4"},"vehicle_type_id":"4","last_reported":1747170580,"current_range_meters":6800,"station_id":"","pricing_plan_id":"cebpf4jnsgd1na2vs0mg"},{"bike_id":"abe19c7b-dd48-4f23-ad5b-10c07cbeffa6","system_id":"levelo_inurba_marseille","lat":43.29586,"lon":5.37871,"is_reserved":false,"is_disabled":false,"rental_uris":{"android":"levelo://app?vid=abe19c7b-dd48-4f23-ad5b-10c07cbeffa6","ios":"levelo://app?vid=abe19c7b-dd48-4f23-ad5b-10c07cbeffa6"},"vehicle_type_id":"4","last_reported":1747170580,"current_range_meters":6800,"station_id":"","pricing_plan_id":"cebpf4jnsgd1na2vs0mg"},{"bike_id":"74ce7741-5813-4b25-8268-d773ddb37d17","system_id":"levelo_inurba_marseille","lat":43.30195,"lon":5.45397,"is_reserved":false,"is_disabled":false,"rental_uris":{"android":"levelo://app?vid=74ce7741-5813-4b25-8268-d773ddb37d17","ios":"levelo://app?vid=74ce7741-5813-4b25-8268-d773ddb37d17"},"vehicle_type_id":"4","last_reported":1747170580,"current_range_meters":7200,"station_id":"","pricing_plan_id":"cebpf4jnsgd1na2vs0mg"},{"bike_id":"e475a48b-78cb-42a0-a61e-f55afd2527d5","system_id":"levelo_inurba_marseille","lat":43.29883,"lon":5.38899,"is_reserved":false,"is_disabled":false,"rental_uris":{"android":"levelo://app?vid=e475a48b-78cb-42a0-a61e-f55afd2527d5","ios":"levelo://app?vid=e475a48b-78cb-42a0-a61e-f55afd2527d5"},"vehicle_type_id":"4","last_reported":1747170580,"current_range_meters":7200,"station_id":"ce4bh392rcd13ifvqdl0","pricing_plan_id":"cebpf4jnsgd1na2vs0mg"},{"bike_id":"ba458a5d-d478-4103-836d-59da615565d8","system_id":"levelo_inurba_marseille","lat":43.27069,"lon":5.42278,"is_reserved":false,"is_disabled":false,"rental_uris":{"android":"levelo://app?vid=ba458a5d-d478-4103-836d-59da615565d8","ios":"levelo://app?vid=ba458a5d-d478-4103-836d-59da615565d8"},"vehicle_type_id":"4","last_reported":1747170580,"current_range_meters":8400,"station_id":"ce4bhk92rcd13ifvqgb0","pricing_plan_id":"cebpf4jnsgd1na2vs0mg"},{"bike_id":"597e7865-b942-4532-81ea-d2c26c4cbf33","system_id":"levelo_inurba_marseille","lat":43.2407,"lon":5.37763,"is_reserved":false,"is_disabled":false,"rental_uris":{"android":"levelo://app?vid=597e7865-b942-4532-81ea-d2c26c4cbf33","ios":"levelo://app?vid=597e7865-b942-4532-81ea-d2c26c4cbf33"},"vehicle_type_id":"4","last_reported":1747170580,"current_range_meters":8400,"station_id":"ce4bhnp2rcd13ifvqgvg","pricing_plan_id":"cebpf4jnsgd1na2vs0mg"},{"bike_id":"0a4875eb-20ac-44a9-be68-dd539cdcedad","system_id":"levelo_inurba_marseille","lat":43.31687,"lon":5.40477,"is_reserved":false,"is_disabled":false,"rental_uris":{"android":"levelo://app?vid=0a4875eb-20ac-44a9-be68-dd539cdcedad","ios":"levelo://app?vid=0a4875eb-20ac-44a9-be68-dd539cdcedad"},"vehicle_type_id":"4","last_reported":1747170580,"current_range_meters":8800,"station_id":"ce4bh012rcd13ifvqd00","pricing_plan_id":"cebpf4jnsgd1na2vs0mg"},{"bike_id":"23bfae5d-adbc-487a-a024-c8962e33e86d","system_id":"levelo_inurba_marseille","lat":43.24624,"lon":5.38917,"is_reserved":false,"is_disabled":false,"rental_uris":{"android":"levelo://app?vid=23bfae5d-adbc-487a-a024-c8962e33e86d","ios":"levelo://app?vid=23bfae5d-adbc-487a-a024-c8962e33e86d"},"vehicle_type_id":"4","last_reported":1747170580,"current_range_meters":8800,"station_id":"ce4bhg12rcd13ifvqf60","pricing_plan_id":"cebpf4jnsgd1na2vs0mg"},{"bike_id":"55a82d97-745b-41fd-8dda-f8ea9e4d2f06","system_id":"levelo_inurba_marseille","lat":43.33579,"lon":5.42819,"is_reserved":false,"is_disabled":false,"rental_uris":{"android":"levelo://app?vid=55a82d97-745b-41fd-8dda-f8ea9e4d2f06","ios":"levelo://app?vid=55a82d97-745b-41fd-8dda-f8ea9e4d2f06"},"vehicle_type_id":"4","last_reported":1747170580,"current_range_meters":9200,"station_id":"","pricing_plan_id":"cebpf4jnsgd1na2vs0mg"},{"bike_id":"6e09efd0-ae69-455b-a95f-47dfe1e3828d","system_id":"levelo_inurba_marseille","lat":43.30802,"lon":5.43523,"is_reserved":false,"is_disabled":false,"rental_uris":{"android":"levelo://app?vid=6e09efd0-ae69-455b-a95f-47dfe1e3828d","ios":"levelo://app?vid=6e09efd0-ae69-455b-a95f-47dfe1e3828d"},"vehicle_type_id":"4","last_reported":1747170580,"current_range_meters":9600,"station_id":"ce4bhph2rcd13ifvqheg","pricing_plan_id":"cebpf4jnsgd1na2vs0mg"},{"bike_id":"1466ea0a-656f-485b-939a-7c9e9c76ce64","system_id":"levelo_inurba_marseille","lat":43.31898,"lon":5.40723,"is_reserved":false,"is_disabled":false,"rental_uris":{"android":"levelo://app?vid=1466ea0a-656f-485b-939a-7c9e9c76ce64","ios":"levelo://app?vid=1466ea0a-656f-485b-939a-7c9e9c76ce64"},"vehicle_type_id":"4","last_reported":1747170580,"current_range_meters":9600,"station_id":"ce4bhq12rcd13ifvqhig","pricing_plan_id":"cebpf4jnsgd1na2vs0mg"},{"bike_id":"f5c9e376-68a0-408e-b8a5-bcfff9fa40c1","system_id":"levelo_inurba_marseille","lat":43.30144,"lon":5.37423,"is_reserved":false,"is_disabled":false,"rental_uris":{"android":"levelo://app?vid=f5c9e376-68a0-408e-b8a5-bcfff9fa40c1","ios":"levelo://app?vid=f5c9e376-68a0-408e-b8a5-bcfff9fa40c1"},"vehicle_type_id":"4","last_reported":1747170580,"current_range_meters":10000,"station_id":"ce4bgs92rcd13ifvqcc0","pricing_plan_id":"cebpf4jnsgd1na2vs0mg"},{"bike_id":"8c49d71a-c08c-4402-91cc-2df201f32382","system_id":"levelo_inurba_marseille","lat":43.30151,"lon":5.37413,"is_reserved":false,"is_disabled":false,"rental_uris":{"android":"levelo://app?vid=8c49d71a-c08c-4402-91cc-2df201f32382","ios":"levelo://app?vid=8c49d71a-c08c-4402-91cc-2df201f32382"},"vehicle_type_id":"4","last_reported":1747170580,"current_range_meters":10000,"station_id":"ce4bgs92rcd13ifvqcc0","pricing_plan_id":"cebpf4jnsgd1na2vs0mg"},{"bike_id":"eda320a9-c748-41fe-8957-3c5ad95195ad","system_id":"levelo_inurba_marseille","lat":43.31071,"lon":5.38352,"is_reserved":false,"is_disabled":false,"rental_uris":{"android":"levelo://app?vid=eda320a9-c748-41fe-8957-3c5ad95195ad","ios":"levelo://app?vid=eda320a9-c748-41fe-8957-3c5ad95195ad"},"vehicle_type_id":"4","last_reported":1747170580,"current_range_meters":10000,"station_id":"ce4bgv92rcd13ifvqcr0","pricing_plan_id":"cebpf4jnsgd1na2vs0mg"},{"bike_id":"a4cc5d03-eca3-417a-9499-7f5743bd2e43","system_id":"levelo_inurba_marseille","lat":43.287093,"lon":5.373787,"is_reserved":false,"is_disabled":false,"rental_uris":{"android":"levelo://app?vid=a4cc5d03-eca3-417a-9499-7f5743bd2e43","ios":"levelo://app?vid=a4cc5d03-eca3-417a-9499-7f5743bd2e43"},"vehicle_type_id":"4","last_reported":1747170580,"current_range_meters":10000,"station_id":"ce4bh3p2rcd13ifvqdq0","pricing_plan_id":"cebpf4jnsgd1na2vs0mg"},{"bike_id":"2ae710ab-09e8-436c-9511-872543091bb0","system_id":"levelo_inurba_marseille","lat":43.29532,"lon":5.3854,"is_reserved":false,"is_disabled":false,"rental_uris":{"android":"levelo://app?vid=2ae710ab-09e8-436c-9511-872543091bb0","ios":"levelo://app?vid=2ae710ab-09e8-436c-9511-872543091bb0"},"vehicle_type_id":"4","last_reported":1747170580,"current_range_meters":10800,"station_id":"ce4bgih2rcd13ifvqba0","pricing_plan_id":"cebpf4jnsgd1na2vs0mg"},{"bike_id":"fab41164-e42b-46bd-be5d-f3e06e158750","system_id":"levelo_inurba_marseille","lat":43.27837,"lon":5.3921,"is_reserved":false,"is_disabled":false,"rental_uris":{"android":"levelo://app?vid=fab41164-e42b-46bd-be5d-f3e06e158750","ios":"levelo://app?vid=fab41164-e42b-46bd-be5d-f3e06e158750"},"vehicle_type_id":"4","last_reported":1747170580,"current_range_meters":10800,"station_id":"ce4bhjp2rcd13ifvqga0","pricing_plan_id":"cebpf4jnsgd1na2vs0mg"},{"bike_id":"bae0709b-c933-441a-ab47-3aad58f66d78","system_id":"levelo_inurba_marseille","lat":43.21744,"lon":5.34604,"is_reserved":false,"is_disabled":false,"rental_uris":{"android":"levelo://app?vid=bae0709b-c933-441a-ab47-3aad58f66d78","ios":"levelo://app?vid=bae0709b-c933-441a-ab47-3aad58f66d78"},"vehicle_type_id":"4","last_reported":1747170580,"current_range_meters":10800,"station_id":"st_cvj6r9ubvosntc0bgbag","pricing_plan_id":"cebpf4jnsgd1na2vs0mg"},{"bike_id":"f4f44ecb-d1f2-458e-9c20-4902d78902fa","system_id":"levelo_inurba_marseille","lat":43.30588,"lon":5.39351,"is_reserved":false,"is_disabled":false,"rental_uris":{"android":"levelo://app?vid=f4f44ecb-d1f2-458e-9c20-4902d78902fa","ios":"levelo://app?vid=f4f44ecb-d1f2-458e-9c20-4902d78902fa"},"vehicle_type_id":"4","last_reported":1747170580,"current_range_meters":11200,"station_id":"ce4bh0p2rcd13ifvqd80","pricing_plan_id":"cebpf4jnsgd1na2vs0mg"},{"bike_id":"bdfb75ca-fefb-4fb9-becc-bd378613ab46","system_id":"levelo_inurba_marseille","lat":43.29443,"lon":5.3975,"is_reserved":false,"is_disabled":false,"rental_uris":{"android":"levelo://app?vid=bdfb75ca-fefb-4fb9-becc-bd378613ab46","ios":"levelo://app?vid=bdfb75ca-fefb-4fb9-becc-bd378613ab46"},"vehicle_type_id":"4","last_reported":1747170580,"current_range_meters":11200,"station_id":"ce4bh3h2rcd13ifvqdo0","pricing_plan_id":"cebpf4jnsgd1na2vs0mg"},{"bike_id":"127f6762-1f70-43ae-8938-79f5184b1ee2","system_id":"levelo_inurba_marseille","lat":43.24073,"lon":5.37792,"is_reserved":false,"is_disabled":false,"rental_uris":{"android":"levelo://app?vid=127f6762-1f70-43ae-8938-79f5184b1ee2","ios":"levelo://app?vid=127f6762-1f70-43ae-8938-79f5184b1ee2"},"vehicle_type_id":"4","last_reported":1747170580,"current_range_meters":11200,"station_id":"ce4bhnp2rcd13ifvqgvg","pricing_plan_id":"cebpf4jnsgd1na2vs0mg"},{"bike_id":"45a4b869-3aaf-4be3-b6b7-4f73b02496bc","system_id":"levelo_inurba_marseille","lat":43.29193,"lon":5.39326,"is_reserved":false,"is_disabled":false,"rental_uris":{"android":"levelo://app?vid=45a4b869-3aaf-4be3-b6b7-4f73b02496bc","ios":"levelo://app?vid=45a4b869-3aaf-4be3-b6b7-4f73b02496bc"},"vehicle_type_id":"4","last_reported":1747170580,"current_range_meters":11600,"station_id":"ce4bh192rcd13ifvqdd0","pricing_plan_id":"cebpf4jnsgd1na2vs0mg"},{"bike_id":"d559a899-b1bd-4a71-a12e-4458bcd0cdbf","system_id":"levelo_inurba_marseille","lat":43.23061,"lon":5.35484,"is_reserved":false,"is_disabled":false,"rental_uris":{"android":"levelo://app?vid=d559a899-b1bd-4a71-a12e-4458bcd0cdbf","ios":"levelo://app?vid=d559a899-b1bd-4a71-a12e-4458bcd0cdbf"},"vehicle_type_id":"4","last_reported":1747170580,"current_range_meters":11600,"station_id":"cpo3342slgdg3j2ifvpg","pricing_plan_id":"cebpf4jnsgd1na2vs0mg"},{"bike_id":"83119d09-9efb-429c-b5b9-f2163d6f4389","system_id":"levelo_inurba_marseille","lat":43.31062,"lon":5.38352,"is_reserved":false,"is_disabled":false,"rental_uris":{"android":"levelo://app?vid=83119d09-9efb-429c-b5b9-f2163d6f4389","ios":"levelo://app?vid=83119d09-9efb-429c-b5b9-f2163d6f4389"},"vehicle_type_id":"4","last_reported":1747170580,"current_range_meters":12000,"station_id":"ce4bgv92rcd13ifvqcr0","pricing_plan_id":"cebpf4jnsgd1na2vs0mg"},{"bike_id":"f992a421-1974-43d2-890b-13f18604b31c","system_id":"levelo_inurba_marseille","lat":43.24637,"lon":5.38911,"is_reserved":false,"is_disabled":false,"rental_uris":{"android":"levelo://app?vid=f992a421-1974-43d2-890b-13f18604b31c","ios":"levelo://app?vid=f992a421-1974-43d2-890b-13f18604b31c"},"vehicle_type_id":"4","last_reported":1747170580,"current_range_meters":12000,"station_id":"ce4bhg12rcd13ifvqf60","pricing_plan_id":"cebpf4jnsgd1na2vs0mg"},{"bike_id":"11e495cb-e2b0-4615-bc23-02982335ed54","system_id":"levelo_inurba_marseille","lat":43.25101,"lon":5.39522,"is_reserved":false,"is_disabled":false,"rental_uris":{"android":"levelo://app?vid=11e495cb-e2b0-4615-bc23-02982335ed54","ios":"levelo://app?vid=11e495cb-e2b0-4615-bc23-02982335ed54"},"vehicle_type_id":"4","last_reported":1747170580,"current_range_meters":12000,"station_id":"ce4bhm12rcd13ifvqgkg","pricing_plan_id":"cebpf4jnsgd1na2vs0mg"},{"bike_id":"a09ce3b4-bc71-4fd7-b0c2-73a44cb50730","system_id":"levelo_inurba_marseille","lat":43.28849,"lon":5.39309,"is_reserved":false,"is_disabled":false,"rental_uris":{"android":"levelo://app?vid=a09ce3b4-bc71-4fd7-b0c2-73a44cb50730","ios":"levelo://app?vid=a09ce3b4-bc71-4fd7-b0c2-73a44cb50730"},"vehicle_type_id":"4","last_reported":1747170580,"current_range_meters":12400,"station_id":"ce4bh2p2rcd13ifvqdi0","pricing_plan_id":"cebpf4jnsgd1na2vs0mg"},{"bike_id":"63582912-f314-437d-bdb9-8991ea5c92a6","system_id":"levelo_inurba_marseille","lat":43.24647,"lon":5.38897,"is_reserved":false,"is_disabled":false,"rental_uris":{"android":"levelo://app?vid=63582912-f314-437d-bdb9-8991ea5c92a6","ios":"levelo://app?vid=63582912-f314-437d-bdb9-8991ea5c92a6"},"vehicle_type_id":"4","last_reported":1747170580,"current_range_meters":12400,"station_id":"ce4bhg12rcd13ifvqf60","pricing_plan_id":"cebpf4jnsgd1na2vs0mg"},{"bike_id":"29ca8818-f2ee-47ec-a332-2860bcc2fb2a","system_id":"levelo_inurba_marseille","lat":43.23192,"lon":5.35559,"is_reserved":false,"is_disabled":false,"rental_uris":{"android":"levelo://app?vid=29ca8818-f2ee-47ec-a332-2860bcc2fb2a","ios":"levelo://app?vid=29ca8818-f2ee-47ec-a332-2860bcc2fb2a"},"vehicle_type_id":"4","last_reported":1747170580,"current_range_meters":12400,"station_id":"ce4bhu92rcd13ifvqi70","pricing_plan_id":"cebpf4jnsgd1na2vs0mg"},{"bike_id":"7d8a940b-fa41-48ed-bc64-d4da3160240b","system_id":"levelo_inurba_marseille","lat":43.30824,"lon":5.37912,"is_reserved":false,"is_disabled":false,"rental_uris":{"android":"levelo://app?vid=7d8a940b-fa41-48ed-bc64-d4da3160240b","ios":"levelo://app?vid=7d8a940b-fa41-48ed-bc64-d4da3160240b"},"vehicle_type_id":"4","last_reported":1747170580,"current_range_meters":12800,"station_id":"","pricing_plan_id":"cebpf4jnsgd1na2vs0mg"},{"bike_id":"54eef44a-69f8-4bca-b404-62961f877bee","system_id":"levelo_inurba_marseille","lat":43.307847,"lon":5.376501,"is_reserved":false,"is_disabled":false,"rental_uris":{"android":"levelo://app?vid=54eef44a-69f8-4bca-b404-62961f877bee","ios":"levelo://app?vid=54eef44a-69f8-4bca-b404-62961f877bee"},"vehicle_type_id":"4","last_reported":1747170580,"current_range_meters":12800,"station_id":"ce4bgv92rcd13ifvqcq0","pricing_plan_id":"cebpf4jnsgd1na2vs0mg"},{"bike_id":"ffc6879f-a245-4d68-a699-afc6cc6c2490","system_id":"levelo_inurba_marseille","lat":43.3033,"lon":5.40441,"is_reserved":false,"is_disabled":false,"rental_uris":{"android":"levelo://app?vid=ffc6879f-a245-4d68-a699-afc6cc6c2490","ios":"levelo://app?vid=ffc6879f-a245-4d68-a699-afc6cc6c2490"},"vehicle_type_id":"4","last_reported":1747170580,"current_range_meters":12800,"station_id":"ce4bh012rcd13ifvqd10","pricing_plan_id":"cebpf4jnsgd1na2vs0mg"},{"bike_id":"485f36f8-f5b5-4b39-aa91-9cd33c8f655c","system_id":"levelo_inurba_marseille","lat":43.30097,"lon":5.39076,"is_reserved":false,"is_disabled":false,"rental_uris":{"android":"levelo://app?vid=485f36f8-f5b5-4b39-aa91-9cd33c8f655c","ios":"levelo://app?vid=485f36f8-f5b5-4b39-aa91-9cd33c8f655c"},"vehicle_type_id":"4","last_reported":1747170580,"current_range_meters":12800,"station_id":"ce4bh192rcd13ifvqdb0","pricing_plan_id":"cebpf4jnsgd1na2vs0mg"},{"bike_id":"7a0d3db7-e6fa-4dcd-9346-4ca0cef0f399","system_id":"levelo_inurba_marseille","lat":43.268084,"lon":5.40277,"is_reserved":false,"is_disabled":false,"rental_uris":{"android":"levelo://app?vid=7a0d3db7-e6fa-4dcd-9346-4ca0cef0f399","ios":"levelo://app?vid=7a0d3db7-e6fa-4dcd-9346-4ca0cef0f399"},"vehicle_type_id":"4","last_reported":1747170580,"current_range_meters":12800,"station_id":"ce501612rcd8frsf0b60","pricing_plan_id":"cebpf4jnsgd1na2vs0mg"},{"bike_id":"4d1dec91-681c-43ec-bef1-6f9ae59b99c1","system_id":"levelo_inurba_marseille","lat":43.308007,"lon":5.381607,"is_reserved":false,"is_disabled":false,"rental_uris":{"android":"levelo://app?vid=4d1dec91-681c-43ec-bef1-6f9ae59b99c1","ios":"levelo://app?vid=4d1dec91-681c-43ec-bef1-6f9ae59b99c1"},"vehicle_type_id":"4","last_reported":1747170580,"current_range_meters":13600,"station_id":"ce4bgt12rcd13ifvqce0","pricing_plan_id":"cebpf4jnsgd1na2vs0mg"},{"bike_id":"e15dd958-cc90-41eb-8c8a-6663f7bccd99","system_id":"levelo_inurba_marseille","lat":43.311145,"lon":5.37769,"is_reserved":false,"is_disabled":false,"rental_uris":{"android":"levelo://app?vid=e15dd958-cc90-41eb-8c8a-6663f7bccd99","ios":"levelo://app?vid=e15dd958-cc90-41eb-8c8a-6663f7bccd99"},"vehicle_type_id":"4","last_reported":1747170580,"current_range_meters":13600,"station_id":"ce4bgt92rcd13ifvqcg0","pricing_plan_id":"cebpf4jnsgd1na2vs0mg"},{"bike_id":"f6f851f2-f97b-46bd-8825-a1535387dd49","system_id":"levelo_inurba_marseille","lat":43.28414,"lon":5.37517,"is_reserved":false,"is_disabled":false,"rental_uris":{"android":"levelo://app?vid=f6f851f2-f97b-46bd-8825-a1535387dd49","ios":"levelo://app?vid=f6f851f2-f97b-46bd-8825-a1535387dd49"},"vehicle_type_id":"4","last_reported":1747170580,"current_range_meters":13600,"station_id":"ce4bh412rcd13ifvqds0","pricing_plan_id":"cebpf4jnsgd1na2vs0mg"},{"bike_id":"8095b97c-b5aa-4f55-89cd-644499e4be93","system_id":"levelo_inurba_marseille","lat":43.29259,"lon":5.38452,"is_reserved":false,"is_disabled":false,"rental_uris":{"android":"levelo://app?vid=8095b97c-b5aa-4f55-89cd-644499e4be93","ios":"levelo://app?vid=8095b97c-b5aa-4f55-89cd-644499e4be93"},"vehicle_type_id":"4","last_reported":1747170580,"current_range_meters":13600,"station_id":"ce4bh692rcd13ifvqea0","pricing_plan_id":"cebpf4jnsgd1na2vs0mg"},{"bike_id":"26e09eef-f5bb-4c23-8c87-682fa27fa79a","system_id":"levelo_inurba_marseille","lat":43.24386,"lon":5.37052,"is_reserved":false,"is_disabled":false,"rental_uris":{"android":"levelo://app?vid=26e09eef-f5bb-4c23-8c87-682fa27fa79a","ios":"levelo://app?vid=26e09eef-f5bb-4c23-8c87-682fa27fa79a"},"vehicle_type_id":"4","last_reported":1747170580,"current_range_meters":13600,"station_id":"ce4bhhh2rcd13ifvqfk0","pricing_plan_id":"cebpf4jnsgd1na2vs0mg"},{"bike_id":"b0242bf4-b83b-4d62-aa3e-64266801fbe9","system_id":"levelo_inurba_marseille","lat":43.31083,"lon":5.42433,"is_reserved":false,"is_disabled":false,"rental_uris":{"android":"levelo://app?vid=b0242bf4-b83b-4d62-aa3e-64266801fbe9","ios":"levelo://app?vid=b0242bf4-b83b-4d62-aa3e-64266801fbe9"},"vehicle_type_id":"4","last_reported":1747170580,"current_range_meters":13600,"station_id":"ce4bhp92rcd13ifvqhag","pricing_plan_id":"cebpf4jnsgd1na2vs0mg"},{"bike_id":"301a3a6f-3f8e-4707-9290-d6655e615c25","system_id":"levelo_inurba_marseille","lat":43.3172,"lon":5.4239,"is_reserved":false,"is_disabled":false,"rental_uris":{"android":"levelo://app?vid=301a3a6f-3f8e-4707-9290-d6655e615c25","ios":"levelo://app?vid=301a3a6f-3f8e-4707-9290-d6655e615c25"},"vehicle_type_id":"4","last_reported":1747170580,"current_range_meters":13600,"station_id":"ce4bhp92rcd13ifvqhbg","pricing_plan_id":"cebpf4jnsgd1na2vs0mg"},{"bike_id":"4821750a-72fd-4a71-957e-987850a371e2","system_id":"levelo_inurba_marseille","lat":43.301537,"lon":5.476497,"is_reserved":false,"is_disabled":false,"rental_uris":{"android":"levelo://app?vid=4821750a-72fd-4a71-957e-987850a371e2","ios":"levelo://app?vid=4821750a-72fd-4a71-957e-987850a371e2"},"vehicle_type_id":"4","last_reported":1747170580,"current_range_meters":14000,"station_id":"","pricing_plan_id":"cebpf4jnsgd1na2vs0mg"},{"bike_id":"932e2eea-2ef5-46ab-b128-64df19c5d658","system_id":"levelo_inurba_marseille","lat":43.3048,"lon":5.39281,"is_reserved":false,"is_disabled":false,"rental_uris":{"android":"levelo://app?vid=932e2eea-2ef5-46ab-b128-64df19c5d658","ios":"levelo://app?vid=932e2eea-2ef5-46ab-b128-64df19c5d658"},"vehicle_type_id":"4","last_reported":1747170580,"current_range_meters":14000,"station_id":"","pricing_plan_id":"cebpf4jnsgd1na2vs0mg"},{"bike_id":"382da604-28cd-407b-adb2-1bed2bb48c46","system_id":"levelo_inurba_marseille","lat":43.32033,"lon":5.38616,"is_reserved":false,"is_disabled":false,"rental_uris":{"android":"levelo://app?vid=382da604-28cd-407b-adb2-1bed2bb48c46","ios":"levelo://app?vid=382da604-28cd-407b-adb2-1bed2bb48c46"},"vehicle_type_id":"4","last_reported":1747170580,"current_range_meters":14000,"station_id":"","pricing_plan_id":"cebpf4jnsgd1na2vs0mg"},{"bike_id":"797c76a9-976e-4597-9e2d-a02266067e9f","system_id":"levelo_inurba_marseille","lat":43.29914,"lon":5.38142,"is_reserved":false,"is_disabled":false,"rental_uris":{"android":"levelo://app?vid=797c76a9-976e-4597-9e2d-a02266067e9f","ios":"levelo://app?vid=797c76a9-976e-4597-9e2d-a02266067e9f"},"vehicle_type_id":"4","last_reported":1747170580,"current_range_meters":14000,"station_id":"ce4bgj12rcd13ifvqbc0","pricing_plan_id":"cebpf4jnsgd1na2vs0mg"},{"bike_id":"ee95d7b1-23aa-4ba2-8604-c3c7e16b2172","system_id":"levelo_inurba_marseille","lat":43.289156,"lon":5.366652,"is_reserved":false,"is_disabled":false,"rental_uris":{"android":"levelo://app?vid=ee95d7b1-23aa-4ba2-8604-c3c7e16b2172","ios":"levelo://app?vid=ee95d7b1-23aa-4ba2-8604-c3c7e16b2172"},"vehicle_type_id":"4","last_reported":1747170580,"current_range_meters":14000,"station_id":"ce4bhap2rcd13ifvqek0","pricing_plan_id":"cebpf4jnsgd1na2vs0mg"},{"bike_id":"dffa2b43-f40b-4332-96dc-2b3d6acff247","system_id":"levelo_inurba_marseille","lat":43.30935,"lon":5.40129,"is_reserved":false,"is_disabled":false,"rental_uris":{"android":"levelo://app?vid=dffa2b43-f40b-4332-96dc-2b3d6acff247","ios":"levelo://app?vid=dffa2b43-f40b-4332-96dc-2b3d6acff247"},"vehicle_type_id":"4","last_reported":1747170580,"current_range_meters":14400,"station_id":"ce4bgvp2rcd13ifvqct0","pricing_plan_id":"cebpf4jnsgd1na2vs0mg"},{"bike_id":"545b5b8f-6d7c-412b-8329-98f83d218099","system_id":"levelo_inurba_marseille","lat":43.28362,"lon":5.38106,"is_reserved":false,"is_disabled":false,"rental_uris":{"android":"levelo://app?vid=545b5b8f-6d7c-412b-8329-98f83d218099","ios":"levelo://app?vid=545b5b8f-6d7c-412b-8329-98f83d218099"},"vehicle_type_id":"4","last_reported":1747170580,"current_range_meters":14400,"station_id":"ce4bh412rcd13ifvqdr0","pricing_plan_id":"cebpf4jnsgd1na2vs0mg"},{"bike_id":"f4f686b9-96ac-4872-9628-82d1c833f2f8","system_id":"levelo_inurba_marseille","lat":43.246627,"lon":5.381633,"is_reserved":false,"is_disabled":false,"rental_uris":{"android":"levelo://app?vid=f4f686b9-96ac-4872-9628-82d1c833f2f8","ios":"levelo://app?vid=f4f686b9-96ac-4872-9628-82d1c833f2f8"},"vehicle_type_id":"4","last_reported":1747170580,"current_range_meters":14400,"station_id":"ce4bhih2rcd13ifvqfr0","pricing_plan_id":"cebpf4jnsgd1na2vs0mg"},{"bike_id":"5c8b9c5b-5c2a-483e-865d-ae36047d40b5","system_id":"levelo_inurba_marseille","lat":43.30021,"lon":5.47634,"is_reserved":false,"is_disabled":false,"rental_uris":{"android":"levelo://app?vid=5c8b9c5b-5c2a-483e-865d-ae36047d40b5","ios":"levelo://app?vid=5c8b9c5b-5c2a-483e-865d-ae36047d40b5"},"vehicle_type_id":"4","last_reported":1747170580,"current_range_meters":14800,"station_id":"","pricing_plan_id":"cebpf4jnsgd1na2vs0mg"},{"bike_id":"352b870d-d866-401d-b117-d33ba49d8e8f","system_id":"levelo_inurba_marseille","lat":43.30325,"lon":5.40434,"is_reserved":false,"is_disabled":false,"rental_uris":{"android":"levelo://app?vid=352b870d-d866-401d-b117-d33ba49d8e8f","ios":"levelo://app?vid=352b870d-d866-401d-b117-d33ba49d8e8f"},"vehicle_type_id":"4","last_reported":1747170580,"current_range_meters":14800,"station_id":"ce4bh012rcd13ifvqd10","pricing_plan_id":"cebpf4jnsgd1na2vs0mg"},{"bike_id":"ed970d43-45ea-48d2-8a3e-380054471e7f","system_id":"levelo_inurba_marseille","lat":43.29876,"lon":5.39729,"is_reserved":false,"is_disabled":false,"rental_uris":{"android":"levelo://app?vid=ed970d43-45ea-48d2-8a3e-380054471e7f","ios":"levelo://app?vid=ed970d43-45ea-48d2-8a3e-380054471e7f"},"vehicle_type_id":"4","last_reported":1747170580,"current_range_meters":14800,"station_id":"ce4bh0h2rcd13ifvqd50","pricing_plan_id":"cebpf4jnsgd1na2vs0mg"},{"bike_id":"42f24545-40d6-451d-a9cd-adefb5cd3e39","system_id":"levelo_inurba_marseille","lat":43.28112,"lon":5.37828,"is_reserved":false,"is_disabled":false,"rental_uris":{"android":"levelo://app?vid=42f24545-40d6-451d-a9cd-adefb5cd3e39","ios":"levelo://app?vid=42f24545-40d6-451d-a9cd-adefb5cd3e39"},"vehicle_type_id":"4","last_reported":1747170580,"current_range_meters":14800,"station_id":"ce4bha12rcd13ifvqee0","pricing_plan_id":"cebpf4jnsgd1na2vs0mg"},{"bike_id":"f8f1723d-98a8-4f57-b09b-e0626a73568c","system_id":"levelo_inurba_marseille","lat":43.27902,"lon":5.37996,"is_reserved":false,"is_disabled":false,"rental_uris":{"android":"levelo://app?vid=f8f1723d-98a8-4f57-b09b-e0626a73568c","ios":"levelo://app?vid=f8f1723d-98a8-4f57-b09b-e0626a73568c"},"vehicle_type_id":"4","last_reported":1747170580,"current_range_meters":14800,"station_id":"ce4bhf92rcd13ifvqf50","pricing_plan_id":"cebpf4jnsgd1na2vs0mg"},{"bike_id":"2961a935-16be-48c2-94c1-9ff3457eb17c","system_id":"levelo_inurba_marseille","lat":43.26056,"lon":5.39397,"is_reserved":false,"is_disabled":false,"rental_uris":{"android":"levelo://app?vid=2961a935-16be-48c2-94c1-9ff3457eb17c","ios":"levelo://app?vid=2961a935-16be-48c2-94c1-9ff3457eb17c"},"vehicle_type_id":"4","last_reported":1747170580,"current_range_meters":14800,"station_id":"ce4bhh92rcd13ifvqfj0","pricing_plan_id":"cebpf4jnsgd1na2vs0mg"},{"bike_id":"a0c836bd-3175-4f52-b689-ec99736589ef","system_id":"levelo_inurba_marseille","lat":43.24552,"lon":5.39515,"is_reserved":false,"is_disabled":false,"rental_uris":{"android":"levelo://app?vid=a0c836bd-3175-4f52-b689-ec99736589ef","ios":"levelo://app?vid=a0c836bd-3175-4f52-b689-ec99736589ef"},"vehicle_type_id":"4","last_reported":1747170580,"current_range_meters":14800,"station_id":"ce4bhlp2rcd13ifvqgjg","pricing_plan_id":"cebpf4jnsgd1na2vs0mg"},{"bike_id":"7395c0f9-eb26-4cbc-9f9b-9c1edf7364f4","system_id":"levelo_inurba_marseille","lat":43.329648,"lon":5.405608,"is_reserved":false,"is_disabled":false,"rental_uris":{"android":"levelo://app?vid=7395c0f9-eb26-4cbc-9f9b-9c1edf7364f4","ios":"levelo://app?vid=7395c0f9-eb26-4cbc-9f9b-9c1edf7364f4"},"vehicle_type_id":"4","last_reported":1747170580,"current_range_meters":15200,"station_id":"","pricing_plan_id":"cebpf4jnsgd1na2vs0mg"},{"bike_id":"f57e6f12-c038-4a7e-8f40-23ed2bed5616","system_id":"levelo_inurba_marseille","lat":43.30004,"lon":5.47571,"is_reserved":false,"is_disabled":false,"rental_uris":{"android":"levelo://app?vid=f57e6f12-c038-4a7e-8f40-23ed2bed5616","ios":"levelo://app?vid=f57e6f12-c038-4a7e-8f40-23ed2bed5616"},"vehicle_type_id":"4","last_reported":1747170580,"current_range_meters":15200,"station_id":"","pricing_plan_id":"cebpf4jnsgd1na2vs0mg"},{"bike_id":"42cfaabc-d4d4-405c-ab84-52ce3ce3032a","system_id":"levelo_inurba_marseille","lat":43.31721,"lon":5.43605,"is_reserved":false,"is_disabled":false,"rental_uris":{"android":"levelo://app?vid=42cfaabc-d4d4-405c-ab84-52ce3ce3032a","ios":"levelo://app?vid=42cfaabc-d4d4-405c-ab84-52ce3ce3032a"},"vehicle_type_id":"4","last_reported":1747170580,"current_range_meters":15200,"station_id":"","pricing_plan_id":"cebpf4jnsgd1na2vs0mg"},{"bike_id":"a5062a41-0c3b-4ddf-97db-368ea5011721","system_id":"levelo_inurba_marseille","lat":43.28475,"lon":5.38562,"is_reserved":false,"is_disabled":false,"rental_uris":{"android":"levelo://app?vid=a5062a41-0c3b-4ddf-97db-368ea5011721","ios":"levelo://app?vid=a5062a41-0c3b-4ddf-97db-368ea5011721"},"vehicle_type_id":"4","last_reported":1747170580,"current_range_meters":15200,"station_id":"ce4bh8p2rcd13ifvqeb0","pricing_plan_id":"cebpf4jnsgd1na2vs0mg"},{"bike_id":"96760e65-1edd-4bd1-a549-c34a1098b2d8","system_id":"levelo_inurba_marseille","lat":43.28104,"lon":5.37833,"is_reserved":false,"is_disabled":false,"rental_uris":{"android":"levelo://app?vid=96760e65-1edd-4bd1-a549-c34a1098b2d8","ios":"levelo://app?vid=96760e65-1edd-4bd1-a549-c34a1098b2d8"},"vehicle_type_id":"4","last_reported":1747170580,"current_range_meters":15200,"station_id":"ce4bha12rcd13ifvqee0","pricing_plan_id":"cebpf4jnsgd1na2vs0mg"},{"bike_id":"7727903e-adfb-4f54-bc21-04e661fcfd04","system_id":"levelo_inurba_marseille","lat":43.298743,"lon":5.389139,"is_reserved":false,"is_disabled":false,"rental_uris":{"android":"levelo://app?vid=7727903e-adfb-4f54-bc21-04e661fcfd04","ios":"levelo://app?vid=7727903e-adfb-4f54-bc21-04e661fcfd04"},"vehicle_type_id":"4","last_reported":1747170580,"current_range_meters":16000,"station_id":"ce4bh392rcd13ifvqdl0","pricing_plan_id":"cebpf4jnsgd1na2vs0mg"},{"bike_id":"ebbb3db5-66b4-4907-9a7b-ed749cb4c62b","system_id":"levelo_inurba_marseille","lat":43.31744,"lon":5.39024,"is_reserved":false,"is_disabled":false,"rental_uris":{"android":"levelo://app?vid=ebbb3db5-66b4-4907-9a7b-ed749cb4c62b","ios":"levelo://app?vid=ebbb3db5-66b4-4907-9a7b-ed749cb4c62b"},"vehicle_type_id":"4","last_reported":1747170580,"current_range_meters":16000,"station_id":"ce4bhqp2rcd13ifvqhng","pricing_plan_id":"cebpf4jnsgd1na2vs0mg"},{"bike_id":"0c893fb7-8626-4706-85bf-f404b871dea5","system_id":"levelo_inurba_marseille","lat":43.28139,"lon":5.44561,"is_reserved":false,"is_disabled":false,"rental_uris":{"android":"levelo://app?vid=0c893fb7-8626-4706-85bf-f404b871dea5","ios":"levelo://app?vid=0c893fb7-8626-4706-85bf-f404b871dea5"},"vehicle_type_id":"4","last_reported":1747170580,"current_range_meters":16400,"station_id":"","pricing_plan_id":"cebpf4jnsgd1na2vs0mg"},{"bike_id":"b9c1597d-2a64-4ed8-9607-d696789cb56c","system_id":"levelo_inurba_marseille","lat":43.304003,"lon":5.377508,"is_reserved":false,"is_disabled":false,"rental_uris":{"android":"levelo://app?vid=b9c1597d-2a64-4ed8-9607-d696789cb56c","ios":"levelo://app?vid=b9c1597d-2a64-4ed8-9607-d696789cb56c"},"vehicle_type_id":"4","last_reported":1747170580,"current_range_meters":16400,"station_id":"","pricing_plan_id":"cebpf4jnsgd1na2vs0mg"},{"bike_id":"356eb65b-4211-494a-b4a2-fba28f60c55b","system_id":"levelo_inurba_marseille","lat":43.31264,"lon":5.40157,"is_reserved":false,"is_disabled":false,"rental_uris":{"android":"levelo://app?vid=356eb65b-4211-494a-b4a2-fba28f60c55b","ios":"levelo://app?vid=356eb65b-4211-494a-b4a2-fba28f60c55b"},"vehicle_type_id":"4","last_reported":1747170580,"current_range_meters":16400,"station_id":"ce4bh092rcd13ifvqd30","pricing_plan_id":"cebpf4jnsgd1na2vs0mg"},{"bike_id":"1e297e0e-a907-489c-9a22-1dfb89bfb64f","system_id":"levelo_inurba_marseille","lat":43.29226,"lon":5.36432,"is_reserved":false,"is_disabled":false,"rental_uris":{"android":"levelo://app?vid=1e297e0e-a907-489c-9a22-1dfb89bfb64f","ios":"levelo://app?vid=1e297e0e-a907-489c-9a22-1dfb89bfb64f"},"vehicle_type_id":"4","last_reported":1747170580,"current_range_meters":16800,"station_id":"","pricing_plan_id":"cebpf4jnsgd1na2vs0mg"},{"bike_id":"e1b7877d-b413-4fd3-b7e0-fbf47c737189","system_id":"levelo_inurba_marseille","lat":43.28461,"lon":5.39148,"is_reserved":false,"is_disabled":false,"rental_uris":{"android":"levelo://app?vid=e1b7877d-b413-4fd3-b7e0-fbf47c737189","ios":"levelo://app?vid=e1b7877d-b413-4fd3-b7e0-fbf47c737189"},"vehicle_type_id":"4","last_reported":1747170580,"current_range_meters":16800,"station_id":"","pricing_plan_id":"cebpf4jnsgd1na2vs0mg"},{"bike_id":"b5c11848-85d4-400a-83e2-4c50c36fe00f","system_id":"levelo_inurba_marseille","lat":43.30266,"lon":5.37719,"is_reserved":false,"is_disabled":false,"rental_uris":{"android":"levelo://app?vid=b5c11848-85d4-400a-83e2-4c50c36fe00f","ios":"levelo://app?vid=b5c11848-85d4-400a-83e2-4c50c36fe00f"},"vehicle_type_id":"4","last_reported":1747170580,"current_range_meters":16800,"station_id":"ce4bguh2rcd13ifvqcj0","pricing_plan_id":"cebpf4jnsgd1na2vs0mg"},{"bike_id":"140a4313-931b-4531-86c2-56a878302554","system_id":"levelo_inurba_marseille","lat":43.30935,"lon":5.40149,"is_reserved":false,"is_disabled":false,"rental_uris":{"android":"levelo://app?vid=140a4313-931b-4531-86c2-56a878302554","ios":"levelo://app?vid=140a4313-931b-4531-86c2-56a878302554"},"vehicle_type_id":"4","last_reported":1747170580,"current_range_meters":16800,"station_id":"ce4bgvp2rcd13ifvqct0","pricing_plan_id":"cebpf4jnsgd1na2vs0mg"},{"bike_id":"6877d619-488c-4f7d-86ca-29f49de58b39","system_id":"levelo_inurba_marseille","lat":43.26681,"lon":5.38268,"is_reserved":false,"is_disabled":false,"rental_uris":{"android":"levelo://app?vid=6877d619-488c-4f7d-86ca-29f49de58b39","ios":"levelo://app?vid=6877d619-488c-4f7d-86ca-29f49de58b39"},"vehicle_type_id":"4","last_reported":1747170580,"current_range_meters":16800,"station_id":"ce4bhg92rcd13ifvqf90","pricing_plan_id":"cebpf4jnsgd1na2vs0mg"},{"bike_id":"bd2b5a4c-e937-4cff-a5f6-59cf103d5392","system_id":"levelo_inurba_marseille","lat":43.30248,"lon":5.40052,"is_reserved":false,"is_disabled":false,"rental_uris":{"android":"levelo://app?vid=bd2b5a4c-e937-4cff-a5f6-59cf103d5392","ios":"levelo://app?vid=bd2b5a4c-e937-4cff-a5f6-59cf103d5392"},"vehicle_type_id":"4","last_reported":1747170580,"current_range_meters":17200,"station_id":"ce4bgvh2rcd13ifvqcs0","pricing_plan_id":"cebpf4jnsgd1na2vs0mg"},{"bike_id":"e2b21a24-f0bb-4109-80c1-8bb5a06c4e36","system_id":"levelo_inurba_marseille","lat":43.31267,"lon":5.40149,"is_reserved":false,"is_disabled":false,"rental_uris":{"android":"levelo://app?vid=e2b21a24-f0bb-4109-80c1-8bb5a06c4e36","ios":"levelo://app?vid=e2b21a24-f0bb-4109-80c1-8bb5a06c4e36"},"vehicle_type_id":"4","last_reported":1747170580,"current_range_meters":17200,"station_id":"ce4bh092rcd13ifvqd30","pricing_plan_id":"cebpf4jnsgd1na2vs0mg"},{"bike_id":"8d2cdeb1-17c1-4351-9440-803e64809bdf","system_id":"levelo_inurba_marseille","lat":43.28935,"lon":5.36633,"is_reserved":false,"is_disabled":false,"rental_uris":{"android":"levelo://app?vid=8d2cdeb1-17c1-4351-9440-803e64809bdf","ios":"levelo://app?vid=8d2cdeb1-17c1-4351-9440-803e64809bdf"},"vehicle_type_id":"4","last_reported":1747170580,"current_range_meters":17200,"station_id":"ce4bhap2rcd13ifvqek0","pricing_plan_id":"cebpf4jnsgd1na2vs0mg"},{"bike_id":"e9101973-c941-4a38-9c83-45a1c33e13c4","system_id":"levelo_inurba_marseille","lat":43.24556,"lon":5.39517,"is_reserved":false,"is_disabled":false,"rental_uris":{"android":"levelo://app?vid=e9101973-c941-4a38-9c83-45a1c33e13c4","ios":"levelo://app?vid=e9101973-c941-4a38-9c83-45a1c33e13c4"},"vehicle_type_id":"4","last_reported":1747170580,"current_range_meters":17200,"station_id":"ce4bhlp2rcd13ifvqgjg","pricing_plan_id":"cebpf4jnsgd1na2vs0mg"},{"bike_id":"8d563e64-e76f-43b4-934f-0ef8b1e94d35","system_id":"levelo_inurba_marseille","lat":43.31856,"lon":5.37372,"is_reserved":false,"is_disabled":false,"rental_uris":{"android":"levelo://app?vid=8d563e64-e76f-43b4-934f-0ef8b1e94d35","ios":"levelo://app?vid=8d563e64-e76f-43b4-934f-0ef8b1e94d35"},"vehicle_type_id":"4","last_reported":1747170580,"current_range_meters":17600,"station_id":"","pricing_plan_id":"cebpf4jnsgd1na2vs0mg"},{"bike_id":"71184bd5-3817-43b3-8b7e-8c7eedcc81a3","system_id":"levelo_inurba_marseille","lat":43.303223,"lon":5.404403,"is_reserved":false,"is_disabled":false,"rental_uris":{"android":"levelo://app?vid=71184bd5-3817-43b3-8b7e-8c7eedcc81a3","ios":"levelo://app?vid=71184bd5-3817-43b3-8b7e-8c7eedcc81a3"},"vehicle_type_id":"4","last_reported":1747170580,"current_range_meters":18000,"station_id":"ce4bh012rcd13ifvqd10","pricing_plan_id":"cebpf4jnsgd1na2vs0mg"},{"bike_id":"678d5e50-e779-48a3-ad27-ff14e6baaad8","system_id":"levelo_inurba_marseille","lat":43.29196,"lon":5.39325,"is_reserved":false,"is_disabled":false,"rental_uris":{"android":"levelo://app?vid=678d5e50-e779-48a3-ad27-ff14e6baaad8","ios":"levelo://app?vid=678d5e50-e779-48a3-ad27-ff14e6baaad8"},"vehicle_type_id":"4","last_reported":1747170580,"current_range_meters":18000,"station_id":"ce4bh192rcd13ifvqdd0","pricing_plan_id":"cebpf4jnsgd1na2vs0mg"},{"bike_id":"6a7cbd4f-81ec-4cfe-be25-14cc1944eb6b","system_id":"levelo_inurba_marseille","lat":43.2928,"lon":5.40112,"is_reserved":false,"is_disabled":false,"rental_uris":{"android":"levelo://app?vid=6a7cbd4f-81ec-4cfe-be25-14cc1944eb6b","ios":"levelo://app?vid=6a7cbd4f-81ec-4cfe-be25-14cc1944eb6b"},"vehicle_type_id":"4","last_reported":1747170580,"current_range_meters":18000,"station_id":"ce4bh312rcd13ifvqdk0","pricing_plan_id":"cebpf4jnsgd1na2vs0mg"},{"bike_id":"d61201b2-86a6-4e21-92d1-c628e3eda0ea","system_id":"levelo_inurba_marseille","lat":43.29099,"lon":5.38116,"is_reserved":false,"is_disabled":false,"rental_uris":{"android":"levelo://app?vid=d61201b2-86a6-4e21-92d1-c628e3eda0ea","ios":"levelo://app?vid=d61201b2-86a6-4e21-92d1-c628e3eda0ea"},"vehicle_type_id":"4","last_reported":1747170580,"current_range_meters":18000,"station_id":"ce4bh512rcd13ifvqe2g","pricing_plan_id":"cebpf4jnsgd1na2vs0mg"},{"bike_id":"b21fd0aa-8e93-4c32-a5f2-220627502e3c","system_id":"levelo_inurba_marseille","lat":43.28662,"lon":5.36343,"is_reserved":false,"is_disabled":false,"rental_uris":{"android":"levelo://app?vid=b21fd0aa-8e93-4c32-a5f2-220627502e3c","ios":"levelo://app?vid=b21fd0aa-8e93-4c32-a5f2-220627502e3c"},"vehicle_type_id":"4","last_reported":1747170580,"current_range_meters":18000,"station_id":"ce4bhah2rcd13ifvqej0","pricing_plan_id":"cebpf4jnsgd1na2vs0mg"},{"bike_id":"10f98a35-89c5-4475-9c01-49b1c98311db","system_id":"levelo_inurba_marseille","lat":43.27571,"lon":5.38442,"is_reserved":false,"is_disabled":false,"rental_uris":{"android":"levelo://app?vid=10f98a35-89c5-4475-9c01-49b1c98311db","ios":"levelo://app?vid=10f98a35-89c5-4475-9c01-49b1c98311db"},"vehicle_type_id":"4","last_reported":1747170580,"current_range_meters":18000,"station_id":"ce4bhh92rcd13ifvqfi0","pricing_plan_id":"cebpf4jnsgd1na2vs0mg"},{"bike_id":"c11d672d-5ac8-4a85-b01e-f9e4763d878d","system_id":"levelo_inurba_marseille","lat":43.33603,"lon":5.41036,"is_reserved":false,"is_disabled":false,"rental_uris":{"android":"levelo://app?vid=c11d672d-5ac8-4a85-b01e-f9e4763d878d","ios":"levelo://app?vid=c11d672d-5ac8-4a85-b01e-f9e4763d878d"},"vehicle_type_id":"4","last_reported":1747170580,"current_range_meters":18000,"station_id":"ce4bhqh2rcd13ifvqhmg","pricing_plan_id":"cebpf4jnsgd1na2vs0mg"},{"bike_id":"7725aa1e-b0b3-4e99-93ab-eefed6b422bc","system_id":"levelo_inurba_marseille","lat":43.32025,"lon":5.38278,"is_reserved":false,"is_disabled":false,"rental_uris":{"android":"levelo://app?vid=7725aa1e-b0b3-4e99-93ab-eefed6b422bc","ios":"levelo://app?vid=7725aa1e-b0b3-4e99-93ab-eefed6b422bc"},"vehicle_type_id":"4","last_reported":1747170580,"current_range_meters":18800,"station_id":"","pricing_plan_id":"cebpf4jnsgd1na2vs0mg"},{"bike_id":"967c3cc8-291c-4648-8bac-2bf60c07fdba","system_id":"levelo_inurba_marseille","lat":43.30305,"lon":5.3922,"is_reserved":false,"is_disabled":false,"rental_uris":{"android":"levelo://app?vid=967c3cc8-291c-4648-8bac-2bf60c07fdba","ios":"levelo://app?vid=967c3cc8-291c-4648-8bac-2bf60c07fdba"},"vehicle_type_id":"4","last_reported":1747170580,"current_range_meters":18800,"station_id":"ce4bgkh2rcd13ifvqbk0","pricing_plan_id":"cebpf4jnsgd1na2vs0mg"},{"bike_id":"b1676e4e-d79e-40ba-9db4-5345e0944fc1","system_id":"levelo_inurba_marseille","lat":43.30914,"lon":5.36844,"is_reserved":false,"is_disabled":false,"rental_uris":{"android":"levelo://app?vid=b1676e4e-d79e-40ba-9db4-5345e0944fc1","ios":"levelo://app?vid=b1676e4e-d79e-40ba-9db4-5345e0944fc1"},"vehicle_type_id":"4","last_reported":1747170580,"current_range_meters":18800,"station_id":"ce4bgn92rcd13ifvqbvg","pricing_plan_id":"cebpf4jnsgd1na2vs0mg"},{"bike_id":"b4777d59-fc56-46ae-8a48-c6f6a5536c77","system_id":"levelo_inurba_marseille","lat":43.30319,"lon":5.404403,"is_reserved":false,"is_disabled":false,"rental_uris":{"android":"levelo://app?vid=b4777d59-fc56-46ae-8a48-c6f6a5536c77","ios":"levelo://app?vid=b4777d59-fc56-46ae-8a48-c6f6a5536c77"},"vehicle_type_id":"4","last_reported":1747170580,"current_range_meters":18800,"station_id":"ce4bh012rcd13ifvqd10","pricing_plan_id":"cebpf4jnsgd1na2vs0mg"},{"bike_id":"20f91c8a-6334-4f1e-bc19-9dd3770dbba2","system_id":"levelo_inurba_marseille","lat":43.29291,"lon":5.40116,"is_reserved":false,"is_disabled":false,"rental_uris":{"android":"levelo://app?vid=20f91c8a-6334-4f1e-bc19-9dd3770dbba2","ios":"levelo://app?vid=20f91c8a-6334-4f1e-bc19-9dd3770dbba2"},"vehicle_type_id":"4","last_reported":1747170580,"current_range_meters":18800,"station_id":"ce4bh312rcd13ifvqdk0","pricing_plan_id":"cebpf4jnsgd1na2vs0mg"},{"bike_id":"b2bc6c72-2bdc-433f-8aa0-edc486889e5c","system_id":"levelo_inurba_marseille","lat":43.28943,"lon":5.36641,"is_reserved":false,"is_disabled":false,"rental_uris":{"android":"levelo://app?vid=b2bc6c72-2bdc-433f-8aa0-edc486889e5c","ios":"levelo://app?vid=b2bc6c72-2bdc-433f-8aa0-edc486889e5c"},"vehicle_type_id":"4","last_reported":1747170580,"current_range_meters":18800,"station_id":"ce4bhap2rcd13ifvqek0","pricing_plan_id":"cebpf4jnsgd1na2vs0mg"},{"bike_id":"1cf8bc10-6a49-4a45-808e-3f0ffd5aea2e","system_id":"levelo_inurba_marseille","lat":43.25865,"lon":5.39896,"is_reserved":false,"is_disabled":false,"rental_uris":{"android":"levelo://app?vid=1cf8bc10-6a49-4a45-808e-3f0ffd5aea2e","ios":"levelo://app?vid=1cf8bc10-6a49-4a45-808e-3f0ffd5aea2e"},"vehicle_type_id":"4","last_reported":1747170580,"current_range_meters":18800,"station_id":"ce4bhl92rcd13ifvqghg","pricing_plan_id":"cebpf4jnsgd1na2vs0mg"},{"bike_id":"51436966-3bae-4f05-bd39-e136a6553cbf","system_id":"levelo_inurba_marseille","lat":43.28439,"lon":5.39178,"is_reserved":false,"is_disabled":false,"rental_uris":{"android":"levelo://app?vid=51436966-3bae-4f05-bd39-e136a6553cbf","ios":"levelo://app?vid=51436966-3bae-4f05-bd39-e136a6553cbf"},"vehicle_type_id":"4","last_reported":1747170580,"current_range_meters":18800,"station_id":"ce4bhoh2rcd13ifvqh5g","pricing_plan_id":"cebpf4jnsgd1na2vs0mg"},{"bike_id":"eb167b9d-0333-4e8f-8219-ae8937d06aab","system_id":"levelo_inurba_marseille","lat":43.336086,"lon":5.410129,"is_reserved":false,"is_disabled":false,"rental_uris":{"android":"levelo://app?vid=eb167b9d-0333-4e8f-8219-ae8937d06aab","ios":"levelo://app?vid=eb167b9d-0333-4e8f-8219-ae8937d06aab"},"vehicle_type_id":"4","last_reported":1747170580,"current_range_meters":18800,"station_id":"ce4bhqh2rcd13ifvqhmg","pricing_plan_id":"cebpf4jnsgd1na2vs0mg"},{"bike_id":"29ce2bff-29c9-4638-a93d-53611c79a41e","system_id":"levelo_inurba_marseille","lat":43.323633,"lon":5.388871,"is_reserved":false,"is_disabled":false,"rental_uris":{"android":"levelo://app?vid=29ce2bff-29c9-4638-a93d-53611c79a41e","ios":"levelo://app?vid=29ce2bff-29c9-4638-a93d-53611c79a41e"},"vehicle_type_id":"4","last_reported":1747170580,"current_range_meters":18800,"station_id":"ce4bhqp2rcd13ifvqhog","pricing_plan_id":"cebpf4jnsgd1na2vs0mg"},{"bike_id":"c5a6038e-e242-4c42-a6da-186787771b16","system_id":"levelo_inurba_marseille","lat":43.21751,"lon":5.3462,"is_reserved":false,"is_disabled":false,"rental_uris":{"android":"levelo://app?vid=c5a6038e-e242-4c42-a6da-186787771b16","ios":"levelo://app?vid=c5a6038e-e242-4c42-a6da-186787771b16"},"vehicle_type_id":"4","last_reported":1747170580,"current_range_meters":18800,"station_id":"st_cvj6r9ubvosntc0bgbag","pricing_plan_id":"cebpf4jnsgd1na2vs0mg"},{"bike_id":"743d0d38-9a78-4c3b-bda7-0ebf8bc2b883","system_id":"levelo_inurba_marseille","lat":43.2919,"lon":5.39318,"is_reserved":false,"is_disabled":false,"rental_uris":{"android":"levelo://app?vid=743d0d38-9a78-4c3b-bda7-0ebf8bc2b883","ios":"levelo://app?vid=743d0d38-9a78-4c3b-bda7-0ebf8bc2b883"},"vehicle_type_id":"4","last_reported":1747170580,"current_range_meters":19200,"station_id":"ce4bh192rcd13ifvqdd0","pricing_plan_id":"cebpf4jnsgd1na2vs0mg"},{"bike_id":"c177bd42-5db3-4693-9477-530375794cb6","system_id":"levelo_inurba_marseille","lat":43.24653,"lon":5.38899,"is_reserved":false,"is_disabled":false,"rental_uris":{"android":"levelo://app?vid=c177bd42-5db3-4693-9477-530375794cb6","ios":"levelo://app?vid=c177bd42-5db3-4693-9477-530375794cb6"},"vehicle_type_id":"4","last_reported":1747170580,"current_range_meters":19200,"station_id":"ce4bhg12rcd13ifvqf60","pricing_plan_id":"cebpf4jnsgd1na2vs0mg"},{"bike_id":"9618bc80-5e16-4c53-987b-84e407ef5797","system_id":"levelo_inurba_marseille","lat":43.26953,"lon":5.38634,"is_reserved":false,"is_disabled":false,"rental_uris":{"android":"levelo://app?vid=9618bc80-5e16-4c53-987b-84e407ef5797","ios":"levelo://app?vid=9618bc80-5e16-4c53-987b-84e407ef5797"},"vehicle_type_id":"4","last_reported":1747170580,"current_range_meters":19200,"station_id":"ce4bhh92rcd13ifvqfh0","pricing_plan_id":"cebpf4jnsgd1na2vs0mg"},{"bike_id":"4fc49f79-fa67-4460-a03b-8373ee1b7092","system_id":"levelo_inurba_marseille","lat":43.26807,"lon":5.40261,"is_reserved":false,"is_disabled":false,"rental_uris":{"android":"levelo://app?vid=4fc49f79-fa67-4460-a03b-8373ee1b7092","ios":"levelo://app?vid=4fc49f79-fa67-4460-a03b-8373ee1b7092"},"vehicle_type_id":"4","last_reported":1747170580,"current_range_meters":19200,"station_id":"ce501612rcd8frsf0b60","pricing_plan_id":"cebpf4jnsgd1na2vs0mg"},{"bike_id":"80e8d3fb-b5a0-453d-aa09-9b85882eb52a","system_id":"levelo_inurba_marseille","lat":43.28456,"lon":5.35891,"is_reserved":false,"is_disabled":false,"rental_uris":{"android":"levelo://app?vid=80e8d3fb-b5a0-453d-aa09-9b85882eb52a","ios":"levelo://app?vid=80e8d3fb-b5a0-453d-aa09-9b85882eb52a"},"vehicle_type_id":"4","last_reported":1747170580,"current_range_meters":19600,"station_id":"ce4bhah2rcd13ifvqei0","pricing_plan_id":"cebpf4jnsgd1na2vs0mg"},{"bike_id":"a7076ddf-3aef-4fa5-8574-5a911ce2696b","system_id":"levelo_inurba_marseille","lat":43.28942,"lon":5.379255,"is_reserved":false,"is_disabled":false,"rental_uris":{"android":"levelo://app?vid=a7076ddf-3aef-4fa5-8574-5a911ce2696b","ios":"levelo://app?vid=a7076ddf-3aef-4fa5-8574-5a911ce2696b"},"vehicle_type_id":"4","last_reported":1747170580,"current_range_meters":19600,"station_id":"ce4bhmh2rcd13ifvqgmg","pricing_plan_id":"cebpf4jnsgd1na2vs0mg"},{"bike_id":"41534364-62ff-4459-92c4-4f300a43681b","system_id":"levelo_inurba_marseille","lat":43.28418,"lon":5.39198,"is_reserved":false,"is_disabled":false,"rental_uris":{"android":"levelo://app?vid=41534364-62ff-4459-92c4-4f300a43681b","ios":"levelo://app?vid=41534364-62ff-4459-92c4-4f300a43681b"},"vehicle_type_id":"4","last_reported":1747170580,"current_range_meters":19600,"station_id":"ce4bhoh2rcd13ifvqh5g","pricing_plan_id":"cebpf4jnsgd1na2vs0mg"},{"bike_id":"5647a91f-31a6-41fb-82bb-83893a94fc73","system_id":"levelo_inurba_marseille","lat":43.21211,"lon":5.35086,"is_reserved":false,"is_disabled":false,"rental_uris":{"android":"levelo://app?vid=5647a91f-31a6-41fb-82bb-83893a94fc73","ios":"levelo://app?vid=5647a91f-31a6-41fb-82bb-83893a94fc73"},"vehicle_type_id":"4","last_reported":1747170580,"current_range_meters":19600,"station_id":"st_cvj6sg6p6f1abm77japg","pricing_plan_id":"cebpf4jnsgd1na2vs0mg"},{"bike_id":"c77744cd-dd85-473a-952b-e9873b6afa4f","system_id":"levelo_inurba_marseille","lat":43.33254,"lon":5.40408,"is_reserved":false,"is_disabled":false,"rental_uris":{"android":"levelo://app?vid=c77744cd-dd85-473a-952b-e9873b6afa4f","ios":"levelo://app?vid=c77744cd-dd85-473a-952b-e9873b6afa4f"},"vehicle_type_id":"4","last_reported":1747170580,"current_range_meters":20000,"station_id":"","pricing_plan_id":"cebpf4jnsgd1na2vs0mg"},{"bike_id":"83ee3360-e8b4-4d44-951a-61844eaed584","system_id":"levelo_inurba_marseille","lat":43.29706,"lon":5.36599,"is_reserved":false,"is_disabled":false,"rental_uris":{"android":"levelo://app?vid=83ee3360-e8b4-4d44-951a-61844eaed584","ios":"levelo://app?vid=83ee3360-e8b4-4d44-951a-61844eaed584"},"vehicle_type_id":"4","last_reported":1747170580,"current_range_meters":20000,"station_id":"ce4bgn12rcd13ifvqbt0","pricing_plan_id":"cebpf4jnsgd1na2vs0mg"},{"bike_id":"7d64c372-5993-466a-bedf-325828237cdc","system_id":"levelo_inurba_marseille","lat":43.31341,"lon":5.36717,"is_reserved":false,"is_disabled":false,"rental_uris":{"android":"levelo://app?vid=7d64c372-5993-466a-bedf-325828237cdc","ios":"levelo://app?vid=7d64c372-5993-466a-bedf-325828237cdc"},"vehicle_type_id":"4","last_reported":1747170580,"current_range_meters":20000,"station_id":"ce4bgr92rcd13ifvqc6g","pricing_plan_id":"cebpf4jnsgd1na2vs0mg"},{"bike_id":"0b9607ef-f196-4c2a-a63c-3384ebed5fb2","system_id":"levelo_inurba_marseille","lat":43.29958,"lon":5.39775,"is_reserved":false,"is_disabled":false,"rental_uris":{"android":"levelo://app?vid=0b9607ef-f196-4c2a-a63c-3384ebed5fb2","ios":"levelo://app?vid=0b9607ef-f196-4c2a-a63c-3384ebed5fb2"},"vehicle_type_id":"4","last_reported":1747170580,"current_range_meters":20000,"station_id":"ce4bh0h2rcd13ifvqd50","pricing_plan_id":"cebpf4jnsgd1na2vs0mg"},{"bike_id":"ccc156fd-c38e-4a4a-99f4-7864a7f9fcc3","system_id":"levelo_inurba_marseille","lat":43.28356,"lon":5.38102,"is_reserved":false,"is_disabled":false,"rental_uris":{"android":"levelo://app?vid=ccc156fd-c38e-4a4a-99f4-7864a7f9fcc3","ios":"levelo://app?vid=ccc156fd-c38e-4a4a-99f4-7864a7f9fcc3"},"vehicle_type_id":"4","last_reported":1747170580,"current_range_meters":20000,"station_id":"ce4bh412rcd13ifvqdr0","pricing_plan_id":"cebpf4jnsgd1na2vs0mg"},{"bike_id":"c2b14f17-082d-4942-ac27-c2062cd954d6","system_id":"levelo_inurba_marseille","lat":43.26197,"lon":5.37934,"is_reserved":false,"is_disabled":false,"rental_uris":{"android":"levelo://app?vid=c2b14f17-082d-4942-ac27-c2062cd954d6","ios":"levelo://app?vid=c2b14f17-082d-4942-ac27-c2062cd954d6"},"vehicle_type_id":"4","last_reported":1747170580,"current_range_meters":20000,"station_id":"ce4bhjp2rcd13ifvqg90","pricing_plan_id":"cebpf4jnsgd1na2vs0mg"},{"bike_id":"3315caf7-376f-4460-bd73-ddce057d5263","system_id":"levelo_inurba_marseille","lat":43.24072,"lon":5.37757,"is_reserved":false,"is_disabled":false,"rental_uris":{"android":"levelo://app?vid=3315caf7-376f-4460-bd73-ddce057d5263","ios":"levelo://app?vid=3315caf7-376f-4460-bd73-ddce057d5263"},"vehicle_type_id":"4","last_reported":1747170580,"current_range_meters":20000,"station_id":"ce4bhnp2rcd13ifvqgvg","pricing_plan_id":"cebpf4jnsgd1na2vs0mg"},{"bike_id":"1530f5fb-709b-42ab-a446-173edfc18786","system_id":"levelo_inurba_marseille","lat":43.33608,"lon":5.41033,"is_reserved":false,"is_disabled":false,"rental_uris":{"android":"levelo://app?vid=1530f5fb-709b-42ab-a446-173edfc18786","ios":"levelo://app?vid=1530f5fb-709b-42ab-a446-173edfc18786"},"vehicle_type_id":"4","last_reported":1747170580,"current_range_meters":20000,"station_id":"ce4bhqh2rcd13ifvqhmg","pricing_plan_id":"cebpf4jnsgd1na2vs0mg"},{"bike_id":"49a5f454-00ee-4b17-84b8-175848e72351","system_id":"levelo_inurba_marseille","lat":43.30638,"lon":5.40052,"is_reserved":false,"is_disabled":false,"rental_uris":{"android":"levelo://app?vid=49a5f454-00ee-4b17-84b8-175848e72351","ios":"levelo://app?vid=49a5f454-00ee-4b17-84b8-175848e72351"},"vehicle_type_id":"4","last_reported":1747170580,"current_range_meters":20400,"station_id":"ce4bh112rcd13ifvqda0","pricing_plan_id":"cebpf4jnsgd1na2vs0mg"},{"bike_id":"99a0df19-ff50-4181-a67e-7744b85befd8","system_id":"levelo_inurba_marseille","lat":43.28935,"lon":5.36628,"is_reserved":false,"is_disabled":false,"rental_uris":{"android":"levelo://app?vid=99a0df19-ff50-4181-a67e-7744b85befd8","ios":"levelo://app?vid=99a0df19-ff50-4181-a67e-7744b85befd8"},"vehicle_type_id":"4","last_reported":1747170580,"current_range_meters":20400,"station_id":"ce4bhap2rcd13ifvqek0","pricing_plan_id":"cebpf4jnsgd1na2vs0mg"},{"bike_id":"1d7e1e84-f023-4727-b479-d47a4e279fe7","system_id":"levelo_inurba_marseille","lat":43.25119,"lon":5.40315,"is_reserved":false,"is_disabled":false,"rental_uris":{"android":"levelo://app?vid=1d7e1e84-f023-4727-b479-d47a4e279fe7","ios":"levelo://app?vid=1d7e1e84-f023-4727-b479-d47a4e279fe7"},"vehicle_type_id":"4","last_reported":1747170580,"current_range_meters":20400,"station_id":"ce4bhlh2rcd13ifvqgig","pricing_plan_id":"cebpf4jnsgd1na2vs0mg"},{"bike_id":"000c0b13-a9a2-4019-bac1-98362dbbca8f","system_id":"levelo_inurba_marseille","lat":43.24066,"lon":5.37768,"is_reserved":false,"is_disabled":false,"rental_uris":{"android":"levelo://app?vid=000c0b13-a9a2-4019-bac1-98362dbbca8f","ios":"levelo://app?vid=000c0b13-a9a2-4019-bac1-98362dbbca8f"},"vehicle_type_id":"4","last_reported":1747170580,"current_range_meters":20400,"station_id":"ce4bhnp2rcd13ifvqgvg","pricing_plan_id":"cebpf4jnsgd1na2vs0mg"},{"bike_id":"ac0112c9-313e-422c-910b-a3523b05b0c9","system_id":"levelo_inurba_marseille","lat":43.23061,"lon":5.35489,"is_reserved":false,"is_disabled":false,"rental_uris":{"android":"levelo://app?vid=ac0112c9-313e-422c-910b-a3523b05b0c9","ios":"levelo://app?vid=ac0112c9-313e-422c-910b-a3523b05b0c9"},"vehicle_type_id":"4","last_reported":1747170580,"current_range_meters":20400,"station_id":"cpo3342slgdg3j2ifvpg","pricing_plan_id":"cebpf4jnsgd1na2vs0mg"},{"bike_id":"f0649364-0107-4d97-ae7e-c2cb5ebd23f0","system_id":"levelo_inurba_marseille","lat":43.21752,"lon":5.34599,"is_reserved":false,"is_disabled":false,"rental_uris":{"android":"levelo://app?vid=f0649364-0107-4d97-ae7e-c2cb5ebd23f0","ios":"levelo://app?vid=f0649364-0107-4d97-ae7e-c2cb5ebd23f0"},"vehicle_type_id":"4","last_reported":1747170580,"current_range_meters":20400,"station_id":"st_cvj6r9ubvosntc0bgbag","pricing_plan_id":"cebpf4jnsgd1na2vs0mg"},{"bike_id":"d1b177cb-35f8-4932-a50a-258962e8c213","system_id":"levelo_inurba_marseille","lat":43.28271,"lon":5.35058,"is_reserved":false,"is_disabled":false,"rental_uris":{"android":"levelo://app?vid=d1b177cb-35f8-4932-a50a-258962e8c213","ios":"levelo://app?vid=d1b177cb-35f8-4932-a50a-258962e8c213"},"vehicle_type_id":"4","last_reported":1747170580,"current_range_meters":20800,"station_id":"ce4bhbp2rcd13ifvqerg","pricing_plan_id":"cebpf4jnsgd1na2vs0mg"},{"bike_id":"e409cd08-b9c4-4d62-aefb-05d029e2c480","system_id":"levelo_inurba_marseille","lat":43.306487,"lon":5.428108,"is_reserved":false,"is_disabled":false,"rental_uris":{"android":"levelo://app?vid=e409cd08-b9c4-4d62-aefb-05d029e2c480","ios":"levelo://app?vid=e409cd08-b9c4-4d62-aefb-05d029e2c480"},"vehicle_type_id":"4","last_reported":1747170580,"current_range_meters":21600,"station_id":"","pricing_plan_id":"cebpf4jnsgd1na2vs0mg"},{"bike_id":"604622e8-4774-4183-b207-b413a1bbcee8","system_id":"levelo_inurba_marseille","lat":43.27615,"lon":5.36112,"is_reserved":false,"is_disabled":false,"rental_uris":{"android":"levelo://app?vid=604622e8-4774-4183-b207-b413a1bbcee8","ios":"levelo://app?vid=604622e8-4774-4183-b207-b413a1bbcee8"},"vehicle_type_id":"4","last_reported":1747170580,"current_range_meters":21600,"station_id":"ce4bgj92rcd13ifvqbe0","pricing_plan_id":"cebpf4jnsgd1na2vs0mg"},{"bike_id":"97858773-738d-4f94-805b-253bff545d56","system_id":"levelo_inurba_marseille","lat":43.3052,"lon":5.37272,"is_reserved":false,"is_disabled":false,"rental_uris":{"android":"levelo://app?vid=97858773-738d-4f94-805b-253bff545d56","ios":"levelo://app?vid=97858773-738d-4f94-805b-253bff545d56"},"vehicle_type_id":"4","last_reported":1747170580,"current_range_meters":21600,"station_id":"ce4bgqh2rcd13ifvqc4g","pricing_plan_id":"cebpf4jnsgd1na2vs0mg"},{"bike_id":"1a693d3a-16a3-45ed-b906-531531ff12b0","system_id":"levelo_inurba_marseille","lat":43.3059,"lon":5.37234,"is_reserved":false,"is_disabled":false,"rental_uris":{"android":"levelo://app?vid=1a693d3a-16a3-45ed-b906-531531ff12b0","ios":"levelo://app?vid=1a693d3a-16a3-45ed-b906-531531ff12b0"},"vehicle_type_id":"4","last_reported":1747170580,"current_range_meters":21600,"station_id":"ce4bgqh2rcd13ifvqc4g","pricing_plan_id":"cebpf4jnsgd1na2vs0mg"},{"bike_id":"e46528c9-be4d-4b17-9919-22ec681c2159","system_id":"levelo_inurba_marseille","lat":43.29934,"lon":5.38518,"is_reserved":false,"is_disabled":false,"rental_uris":{"android":"levelo://app?vid=e46528c9-be4d-4b17-9919-22ec681c2159","ios":"levelo://app?vid=e46528c9-be4d-4b17-9919-22ec681c2159"},"vehicle_type_id":"4","last_reported":1747170580,"current_range_meters":22000,"station_id":"","pricing_plan_id":"cebpf4jnsgd1na2vs0mg"},{"bike_id":"a2efea7a-e698-4a8c-9d4e-b1603e4bc014","system_id":"levelo_inurba_marseille","lat":43.30431,"lon":5.38892,"is_reserved":false,"is_disabled":false,"rental_uris":{"android":"levelo://app?vid=a2efea7a-e698-4a8c-9d4e-b1603e4bc014","ios":"levelo://app?vid=a2efea7a-e698-4a8c-9d4e-b1603e4bc014"},"vehicle_type_id":"4","last_reported":1747170580,"current_range_meters":22000,"station_id":"ce4bgk12rcd13ifvqbi0","pricing_plan_id":"cebpf4jnsgd1na2vs0mg"},{"bike_id":"96f52810-3485-4f77-83a5-0593aba802ec","system_id":"levelo_inurba_marseille","lat":43.29792,"lon":5.371,"is_reserved":false,"is_disabled":false,"rental_uris":{"android":"levelo://app?vid=96f52810-3485-4f77-83a5-0593aba802ec","ios":"levelo://app?vid=96f52810-3485-4f77-83a5-0593aba802ec"},"vehicle_type_id":"4","last_reported":1747170580,"current_range_meters":22000,"station_id":"ce4bgop2rcd13ifvqc1g","pricing_plan_id":"cebpf4jnsgd1na2vs0mg"},{"bike_id":"ad5f0583-4b26-4c10-ac3e-a706c4bbb371","system_id":"levelo_inurba_marseille","lat":43.295995,"lon":5.367892,"is_reserved":false,"is_disabled":false,"rental_uris":{"android":"levelo://app?vid=ad5f0583-4b26-4c10-ac3e-a706c4bbb371","ios":"levelo://app?vid=ad5f0583-4b26-4c10-ac3e-a706c4bbb371"},"vehicle_type_id":"4","last_reported":1747170580,"current_range_meters":22000,"station_id":"ce4bgph2rcd13ifvqc2g","pricing_plan_id":"cebpf4jnsgd1na2vs0mg"},{"bike_id":"65a2976c-8b04-429a-95dd-f42d445408eb","system_id":"levelo_inurba_marseille","lat":43.28939,"lon":5.39627,"is_reserved":false,"is_disabled":false,"rental_uris":{"android":"levelo://app?vid=65a2976c-8b04-429a-95dd-f42d445408eb","ios":"levelo://app?vid=65a2976c-8b04-429a-95dd-f42d445408eb"},"vehicle_type_id":"4","last_reported":1747170580,"current_range_meters":22000,"station_id":"ce4bh3h2rcd13ifvqdn0","pricing_plan_id":"cebpf4jnsgd1na2vs0mg"},{"bike_id":"136620a0-ebfd-4e50-a6cb-78894afffc3d","system_id":"levelo_inurba_marseille","lat":43.28102,"lon":5.37834,"is_reserved":false,"is_disabled":false,"rental_uris":{"android":"levelo://app?vid=136620a0-ebfd-4e50-a6cb-78894afffc3d","ios":"levelo://app?vid=136620a0-ebfd-4e50-a6cb-78894afffc3d"},"vehicle_type_id":"4","last_reported":1747170580,"current_range_meters":22000,"station_id":"ce4bha12rcd13ifvqee0","pricing_plan_id":"cebpf4jnsgd1na2vs0mg"},{"bike_id":"d0defc80-2fab-4418-bff4-67ea2449baa8","system_id":"levelo_inurba_marseille","lat":43.28106,"lon":5.37841,"is_reserved":false,"is_disabled":false,"rental_uris":{"android":"levelo://app?vid=d0defc80-2fab-4418-bff4-67ea2449baa8","ios":"levelo://app?vid=d0defc80-2fab-4418-bff4-67ea2449baa8"},"vehicle_type_id":"4","last_reported":1747170580,"current_range_meters":22000,"station_id":"ce4bha12rcd13ifvqee0","pricing_plan_id":"cebpf4jnsgd1na2vs0mg"},{"bike_id":"68bd40db-e76c-4167-888e-a375f5a26ea6","system_id":"levelo_inurba_marseille","lat":43.28155,"lon":5.42628,"is_reserved":false,"is_disabled":false,"rental_uris":{"android":"levelo://app?vid=68bd40db-e76c-4167-888e-a375f5a26ea6","ios":"levelo://app?vid=68bd40db-e76c-4167-888e-a375f5a26ea6"},"vehicle_type_id":"4","last_reported":1747170580,"current_range_meters":22000,"station_id":"ce4bhnh2rcd13ifvqgug","pricing_plan_id":"cebpf4jnsgd1na2vs0mg"},{"bike_id":"641340e1-c590-4edb-be11-d598004e7be2","system_id":"levelo_inurba_marseille","lat":43.30791,"lon":5.37643,"is_reserved":false,"is_disabled":false,"rental_uris":{"android":"levelo://app?vid=641340e1-c590-4edb-be11-d598004e7be2","ios":"levelo://app?vid=641340e1-c590-4edb-be11-d598004e7be2"},"vehicle_type_id":"4","last_reported":1747170580,"current_range_meters":22400,"station_id":"ce4bgv92rcd13ifvqcq0","pricing_plan_id":"cebpf4jnsgd1na2vs0mg"},{"bike_id":"644511a3-94a8-4d9e-a99e-a8a4681f0634","system_id":"levelo_inurba_marseille","lat":43.24178,"lon":5.39731,"is_reserved":false,"is_disabled":false,"rental_uris":{"android":"levelo://app?vid=644511a3-94a8-4d9e-a99e-a8a4681f0634","ios":"levelo://app?vid=644511a3-94a8-4d9e-a99e-a8a4681f0634"},"vehicle_type_id":"4","last_reported":1747170580,"current_range_meters":22400,"station_id":"ce4bhn12rcd13ifvqgpg","pricing_plan_id":"cebpf4jnsgd1na2vs0mg"},{"bike_id":"512bd0de-0544-4022-9a10-dde35d5325c0","system_id":"levelo_inurba_marseille","lat":43.30418,"lon":5.41276,"is_reserved":false,"is_disabled":false,"rental_uris":{"android":"levelo://app?vid=512bd0de-0544-4022-9a10-dde35d5325c0","ios":"levelo://app?vid=512bd0de-0544-4022-9a10-dde35d5325c0"},"vehicle_type_id":"4","last_reported":1747170580,"current_range_meters":22400,"station_id":"ce4bhop2rcd13ifvqh8g","pricing_plan_id":"cebpf4jnsgd1na2vs0mg"},{"bike_id":"75a04286-59ac-414b-8504-5e75f05efef7","system_id":"levelo_inurba_marseille","lat":43.28721,"lon":5.36079,"is_reserved":false,"is_disabled":false,"rental_uris":{"android":"levelo://app?vid=75a04286-59ac-414b-8504-5e75f05efef7","ios":"levelo://app?vid=75a04286-59ac-414b-8504-5e75f05efef7"},"vehicle_type_id":"4","last_reported":1747170580,"current_range_meters":22400,"station_id":"cki0cbj6b192h4jlfktg","pricing_plan_id":"cebpf4jnsgd1na2vs0mg"},{"bike_id":"b6df1ef4-d5f7-49cc-b6d6-45e21292bd56","system_id":"levelo_inurba_marseille","lat":43.30801,"lon":5.37668,"is_reserved":false,"is_disabled":false,"rental_uris":{"android":"levelo://app?vid=b6df1ef4-d5f7-49cc-b6d6-45e21292bd56","ios":"levelo://app?vid=b6df1ef4-d5f7-49cc-b6d6-45e21292bd56"},"vehicle_type_id":"4","last_reported":1747170580,"current_range_meters":22800,"station_id":"ce4bgv92rcd13ifvqcq0","pricing_plan_id":"cebpf4jnsgd1na2vs0mg"},{"bike_id":"2ddb487e-2c51-47eb-83d2-8a3054a8a2eb","system_id":"levelo_inurba_marseille","lat":43.28849,"lon":5.39319,"is_reserved":false,"is_disabled":false,"rental_uris":{"android":"levelo://app?vid=2ddb487e-2c51-47eb-83d2-8a3054a8a2eb","ios":"levelo://app?vid=2ddb487e-2c51-47eb-83d2-8a3054a8a2eb"},"vehicle_type_id":"4","last_reported":1747170580,"current_range_meters":22800,"station_id":"ce4bh2p2rcd13ifvqdi0","pricing_plan_id":"cebpf4jnsgd1na2vs0mg"},{"bike_id":"fb2ebe71-a972-4841-8a7b-179c7ab5c8ff","system_id":"levelo_inurba_marseille","lat":43.28363,"lon":5.38098,"is_reserved":false,"is_disabled":false,"rental_uris":{"android":"levelo://app?vid=fb2ebe71-a972-4841-8a7b-179c7ab5c8ff","ios":"levelo://app?vid=fb2ebe71-a972-4841-8a7b-179c7ab5c8ff"},"vehicle_type_id":"4","last_reported":1747170580,"current_range_meters":22800,"station_id":"ce4bh412rcd13ifvqdr0","pricing_plan_id":"cebpf4jnsgd1na2vs0mg"},{"bike_id":"54b88169-7864-4ea5-8dfd-e6de0b6f93b5","system_id":"levelo_inurba_marseille","lat":43.31889,"lon":5.40731,"is_reserved":false,"is_disabled":false,"rental_uris":{"android":"levelo://app?vid=54b88169-7864-4ea5-8dfd-e6de0b6f93b5","ios":"levelo://app?vid=54b88169-7864-4ea5-8dfd-e6de0b6f93b5"},"vehicle_type_id":"4","last_reported":1747170580,"current_range_meters":22800,"station_id":"ce4bhq12rcd13ifvqhig","pricing_plan_id":"cebpf4jnsgd1na2vs0mg"},{"bike_id":"5fab546e-80b4-48aa-89d8-447ec5826966","system_id":"levelo_inurba_marseille","lat":43.32471,"lon":5.36577,"is_reserved":false,"is_disabled":false,"rental_uris":{"android":"levelo://app?vid=5fab546e-80b4-48aa-89d8-447ec5826966","ios":"levelo://app?vid=5fab546e-80b4-48aa-89d8-447ec5826966"},"vehicle_type_id":"4","last_reported":1747170580,"current_range_meters":22800,"station_id":"ce4bhs12rcd13ifvqhvg","pricing_plan_id":"cebpf4jnsgd1na2vs0mg"},{"bike_id":"08a93b84-f9e2-4480-b23a-2ee7a592645e","system_id":"levelo_inurba_marseille","lat":43.21757,"lon":5.34606,"is_reserved":false,"is_disabled":false,"rental_uris":{"android":"levelo://app?vid=08a93b84-f9e2-4480-b23a-2ee7a592645e","ios":"levelo://app?vid=08a93b84-f9e2-4480-b23a-2ee7a592645e"},"vehicle_type_id":"4","last_reported":1747170580,"current_range_meters":22800,"station_id":"st_cvj6r9ubvosntc0bgbag","pricing_plan_id":"cebpf4jnsgd1na2vs0mg"},{"bike_id":"64824209-6cba-4c12-875a-1502c403c27a","system_id":"levelo_inurba_marseille","lat":43.212,"lon":5.35084,"is_reserved":false,"is_disabled":false,"rental_uris":{"android":"levelo://app?vid=64824209-6cba-4c12-875a-1502c403c27a","ios":"levelo://app?vid=64824209-6cba-4c12-875a-1502c403c27a"},"vehicle_type_id":"4","last_reported":1747170580,"current_range_meters":22800,"station_id":"st_cvj6sg6p6f1abm77japg","pricing_plan_id":"cebpf4jnsgd1na2vs0mg"},{"bike_id":"e1f49d6b-4e4e-4113-9f4e-900e9b695e3d","system_id":"levelo_inurba_marseille","lat":43.30645,"lon":5.40091,"is_reserved":false,"is_disabled":false,"rental_uris":{"android":"levelo://app?vid=e1f49d6b-4e4e-4113-9f4e-900e9b695e3d","ios":"levelo://app?vid=e1f49d6b-4e4e-4113-9f4e-900e9b695e3d"},"vehicle_type_id":"4","last_reported":1747170580,"current_range_meters":23200,"station_id":"ce4bh112rcd13ifvqda0","pricing_plan_id":"cebpf4jnsgd1na2vs0mg"},{"bike_id":"2da62259-aca1-4b43-a162-523a6e640209","system_id":"levelo_inurba_marseille","lat":43.29249,"lon":5.40914,"is_reserved":false,"is_disabled":false,"rental_uris":{"android":"levelo://app?vid=2da62259-aca1-4b43-a162-523a6e640209","ios":"levelo://app?vid=2da62259-aca1-4b43-a162-523a6e640209"},"vehicle_type_id":"4","last_reported":1747170580,"current_range_meters":23200,"station_id":"ce4bh192rcd13ifvqdc0","pricing_plan_id":"cebpf4jnsgd1na2vs0mg"},{"bike_id":"384179a7-798b-4897-b30a-aae95a183b8a","system_id":"levelo_inurba_marseille","lat":43.23155,"lon":5.43706,"is_reserved":false,"is_disabled":false,"rental_uris":{"android":"levelo://app?vid=384179a7-798b-4897-b30a-aae95a183b8a","ios":"levelo://app?vid=384179a7-798b-4897-b30a-aae95a183b8a"},"vehicle_type_id":"4","last_reported":1747170580,"current_range_meters":23200,"station_id":"ce4bhmp2rcd13ifvqgog","pricing_plan_id":"cebpf4jnsgd1na2vs0mg"},{"bike_id":"1ea2f5c1-c00f-4b63-ac3e-d9a38e876a16","system_id":"levelo_inurba_marseille","lat":43.304383,"lon":5.36857,"is_reserved":false,"is_disabled":false,"rental_uris":{"android":"levelo://app?vid=1ea2f5c1-c00f-4b63-ac3e-d9a38e876a16","ios":"levelo://app?vid=1ea2f5c1-c00f-4b63-ac3e-d9a38e876a16"},"vehicle_type_id":"4","last_reported":1747170580,"current_range_meters":24000,"station_id":"","pricing_plan_id":"cebpf4jnsgd1na2vs0mg"},{"bike_id":"c92b5e04-0911-4cce-ab57-59b15f848b4d","system_id":"levelo_inurba_marseille","lat":43.308013,"lon":5.381693,"is_reserved":false,"is_disabled":false,"rental_uris":{"android":"levelo://app?vid=c92b5e04-0911-4cce-ab57-59b15f848b4d","ios":"levelo://app?vid=c92b5e04-0911-4cce-ab57-59b15f848b4d"},"vehicle_type_id":"4","last_reported":1747170580,"current_range_meters":24000,"station_id":"ce4bgt12rcd13ifvqce0","pricing_plan_id":"cebpf4jnsgd1na2vs0mg"},{"bike_id":"ac8abe46-20a0-4731-bdc6-feb75ccffcbf","system_id":"levelo_inurba_marseille","lat":43.29643,"lon":5.40592,"is_reserved":false,"is_disabled":false,"rental_uris":{"android":"levelo://app?vid=ac8abe46-20a0-4731-bdc6-feb75ccffcbf","ios":"levelo://app?vid=ac8abe46-20a0-4731-bdc6-feb75ccffcbf"},"vehicle_type_id":"4","last_reported":1747170580,"current_range_meters":24000,"station_id":"ce4bh0h2rcd13ifvqd60","pricing_plan_id":"cebpf4jnsgd1na2vs0mg"},{"bike_id":"02bcf0b2-d4db-49f9-ac6a-ae351a17a7aa","system_id":"levelo_inurba_marseille","lat":43.30638,"lon":5.4009,"is_reserved":false,"is_disabled":false,"rental_uris":{"android":"levelo://app?vid=02bcf0b2-d4db-49f9-ac6a-ae351a17a7aa","ios":"levelo://app?vid=02bcf0b2-d4db-49f9-ac6a-ae351a17a7aa"},"vehicle_type_id":"4","last_reported":1747170580,"current_range_meters":24000,"station_id":"ce4bh112rcd13ifvqda0","pricing_plan_id":"cebpf4jnsgd1na2vs0mg"},{"bike_id":"c856ddfb-082e-4661-82c2-838bf16107a9","system_id":"levelo_inurba_marseille","lat":43.28105,"lon":5.3784,"is_reserved":false,"is_disabled":false,"rental_uris":{"android":"levelo://app?vid=c856ddfb-082e-4661-82c2-838bf16107a9","ios":"levelo://app?vid=c856ddfb-082e-4661-82c2-838bf16107a9"},"vehicle_type_id":"4","last_reported":1747170580,"current_range_meters":24000,"station_id":"ce4bha12rcd13ifvqee0","pricing_plan_id":"cebpf4jnsgd1na2vs0mg"},{"bike_id":"3612d1d1-a443-4d0c-9660-76715cf2f5b8","system_id":"levelo_inurba_marseille","lat":43.29896,"lon":5.43669,"is_reserved":false,"is_disabled":false,"rental_uris":{"android":"levelo://app?vid=3612d1d1-a443-4d0c-9660-76715cf2f5b8","ios":"levelo://app?vid=3612d1d1-a443-4d0c-9660-76715cf2f5b8"},"vehicle_type_id":"4","last_reported":1747170580,"current_range_meters":24000,"station_id":"ce4bhpp2rcd13ifvqhfg","pricing_plan_id":"cebpf4jnsgd1na2vs0mg"},{"bike_id":"9a402898-f116-408b-8709-c62dd77d2b5d","system_id":"levelo_inurba_marseille","lat":43.2937,"lon":5.42833,"is_reserved":false,"is_disabled":false,"rental_uris":{"android":"levelo://app?vid=9a402898-f116-408b-8709-c62dd77d2b5d","ios":"levelo://app?vid=9a402898-f116-408b-8709-c62dd77d2b5d"},"vehicle_type_id":"4","last_reported":1747170580,"current_range_meters":24400,"station_id":"","pricing_plan_id":"cebpf4jnsgd1na2vs0mg"},{"bike_id":"95043cc4-7d6b-412a-ae79-4f4ea549efe6","system_id":"levelo_inurba_marseille","lat":43.29936,"lon":5.36546,"is_reserved":false,"is_disabled":false,"rental_uris":{"android":"levelo://app?vid=95043cc4-7d6b-412a-ae79-4f4ea549efe6","ios":"levelo://app?vid=95043cc4-7d6b-412a-ae79-4f4ea549efe6"},"vehicle_type_id":"4","last_reported":1747170580,"current_range_meters":24400,"station_id":"ce4bgm92rcd13ifvqbr0","pricing_plan_id":"cebpf4jnsgd1na2vs0mg"},{"bike_id":"6c4f3fe3-6b84-4743-9622-add0a91d6bf5","system_id":"levelo_inurba_marseille","lat":43.29576,"lon":5.39963,"is_reserved":false,"is_disabled":false,"rental_uris":{"android":"levelo://app?vid=6c4f3fe3-6b84-4743-9622-add0a91d6bf5","ios":"levelo://app?vid=6c4f3fe3-6b84-4743-9622-add0a91d6bf5"},"vehicle_type_id":"4","last_reported":1747170580,"current_range_meters":24400,"station_id":"ce4bh312rcd13ifvqdj0","pricing_plan_id":"cebpf4jnsgd1na2vs0mg"},{"bike_id":"e9d48777-e077-4f69-9975-4e7747079725","system_id":"levelo_inurba_marseille","lat":43.29037,"lon":5.35922,"is_reserved":false,"is_disabled":false,"rental_uris":{"android":"levelo://app?vid=e9d48777-e077-4f69-9975-4e7747079725","ios":"levelo://app?vid=e9d48777-e077-4f69-9975-4e7747079725"},"vehicle_type_id":"4","last_reported":1747170580,"current_range_meters":24400,"station_id":"ce4bha92rcd13ifvqeg0","pricing_plan_id":"cebpf4jnsgd1na2vs0mg"},{"bike_id":"49102ddc-8ccf-4957-a156-0101ab994ad4","system_id":"levelo_inurba_marseille","lat":43.29255,"lon":5.409,"is_reserved":false,"is_disabled":false,"rental_uris":{"android":"levelo://app?vid=49102ddc-8ccf-4957-a156-0101ab994ad4","ios":"levelo://app?vid=49102ddc-8ccf-4957-a156-0101ab994ad4"},"vehicle_type_id":"4","last_reported":1747170580,"current_range_meters":24800,"station_id":"ce4bh192rcd13ifvqdc0","pricing_plan_id":"cebpf4jnsgd1na2vs0mg"},{"bike_id":"efefba7d-9a8f-4252-9bb1-3f66c7f2fb60","system_id":"levelo_inurba_marseille","lat":43.28704,"lon":5.37387,"is_reserved":false,"is_disabled":false,"rental_uris":{"android":"levelo://app?vid=efefba7d-9a8f-4252-9bb1-3f66c7f2fb60","ios":"levelo://app?vid=efefba7d-9a8f-4252-9bb1-3f66c7f2fb60"},"vehicle_type_id":"4","last_reported":1747170580,"current_range_meters":24800,"station_id":"ce4bh3p2rcd13ifvqdq0","pricing_plan_id":"cebpf4jnsgd1na2vs0mg"},{"bike_id":"cc22c8cb-d1a0-492b-be55-7c35fd3b519d","system_id":"levelo_inurba_marseille","lat":43.28351,"lon":5.381079,"is_reserved":false,"is_disabled":false,"rental_uris":{"android":"levelo://app?vid=cc22c8cb-d1a0-492b-be55-7c35fd3b519d","ios":"levelo://app?vid=cc22c8cb-d1a0-492b-be55-7c35fd3b519d"},"vehicle_type_id":"4","last_reported":1747170580,"current_range_meters":24800,"station_id":"ce4bh412rcd13ifvqdr0","pricing_plan_id":"cebpf4jnsgd1na2vs0mg"},{"bike_id":"261407df-7290-40d8-9227-0819e51992b3","system_id":"levelo_inurba_marseille","lat":43.31122,"lon":5.3776,"is_reserved":false,"is_disabled":false,"rental_uris":{"android":"levelo://app?vid=261407df-7290-40d8-9227-0819e51992b3","ios":"levelo://app?vid=261407df-7290-40d8-9227-0819e51992b3"},"vehicle_type_id":"4","last_reported":1747170580,"current_range_meters":25200,"station_id":"ce4bgt92rcd13ifvqcg0","pricing_plan_id":"cebpf4jnsgd1na2vs0mg"},{"bike_id":"e1be95cf-0ee0-4e85-94fb-f6caf3281371","system_id":"levelo_inurba_marseille","lat":43.31167,"lon":5.38717,"is_reserved":false,"is_disabled":false,"rental_uris":{"android":"levelo://app?vid=e1be95cf-0ee0-4e85-94fb-f6caf3281371","ios":"levelo://app?vid=e1be95cf-0ee0-4e85-94fb-f6caf3281371"},"vehicle_type_id":"4","last_reported":1747170580,"current_range_meters":25200,"station_id":"ce4bgv12rcd13ifvqcp0","pricing_plan_id":"cebpf4jnsgd1na2vs0mg"},{"bike_id":"c7d6c562-b7e1-4d6b-9698-3ded696f5564","system_id":"levelo_inurba_marseille","lat":43.30307,"lon":5.40444,"is_reserved":false,"is_disabled":false,"rental_uris":{"android":"levelo://app?vid=c7d6c562-b7e1-4d6b-9698-3ded696f5564","ios":"levelo://app?vid=c7d6c562-b7e1-4d6b-9698-3ded696f5564"},"vehicle_type_id":"4","last_reported":1747170580,"current_range_meters":25200,"station_id":"ce4bh012rcd13ifvqd10","pricing_plan_id":"cebpf4jnsgd1na2vs0mg"},{"bike_id":"d92dceb4-9a4b-4a92-a388-831979eb6a3f","system_id":"levelo_inurba_marseille","lat":43.291932,"lon":5.393299,"is_reserved":false,"is_disabled":false,"rental_uris":{"android":"levelo://app?vid=d92dceb4-9a4b-4a92-a388-831979eb6a3f","ios":"levelo://app?vid=d92dceb4-9a4b-4a92-a388-831979eb6a3f"},"vehicle_type_id":"4","last_reported":1747170580,"current_range_meters":25200,"station_id":"ce4bh192rcd13ifvqdd0","pricing_plan_id":"cebpf4jnsgd1na2vs0mg"},{"bike_id":"84cb6767-3eec-4008-94f2-cf384810ff36","system_id":"levelo_inurba_marseille","lat":43.28932,"lon":5.39628,"is_reserved":false,"is_disabled":false,"rental_uris":{"android":"levelo://app?vid=84cb6767-3eec-4008-94f2-cf384810ff36","ios":"levelo://app?vid=84cb6767-3eec-4008-94f2-cf384810ff36"},"vehicle_type_id":"4","last_reported":1747170580,"current_range_meters":25200,"station_id":"ce4bh3h2rcd13ifvqdn0","pricing_plan_id":"cebpf4jnsgd1na2vs0mg"},{"bike_id":"7eb022b3-71a6-4090-bd35-6df3d46372c9","system_id":"levelo_inurba_marseille","lat":43.28941,"lon":5.36631,"is_reserved":false,"is_disabled":false,"rental_uris":{"android":"levelo://app?vid=7eb022b3-71a6-4090-bd35-6df3d46372c9","ios":"levelo://app?vid=7eb022b3-71a6-4090-bd35-6df3d46372c9"},"vehicle_type_id":"4","last_reported":1747170580,"current_range_meters":25200,"station_id":"ce4bhap2rcd13ifvqek0","pricing_plan_id":"cebpf4jnsgd1na2vs0mg"},{"bike_id":"0d479c96-7f55-45e2-b309-1f9f02fc7258","system_id":"levelo_inurba_marseille","lat":43.2439,"lon":5.37051,"is_reserved":false,"is_disabled":false,"rental_uris":{"android":"levelo://app?vid=0d479c96-7f55-45e2-b309-1f9f02fc7258","ios":"levelo://app?vid=0d479c96-7f55-45e2-b309-1f9f02fc7258"},"vehicle_type_id":"4","last_reported":1747170580,"current_range_meters":25200,"station_id":"ce4bhhh2rcd13ifvqfk0","pricing_plan_id":"cebpf4jnsgd1na2vs0mg"},{"bike_id":"ec4ec925-d047-4a5b-8edc-c2495e9b04cc","system_id":"levelo_inurba_marseille","lat":43.2816,"lon":5.42645,"is_reserved":false,"is_disabled":false,"rental_uris":{"android":"levelo://app?vid=ec4ec925-d047-4a5b-8edc-c2495e9b04cc","ios":"levelo://app?vid=ec4ec925-d047-4a5b-8edc-c2495e9b04cc"},"vehicle_type_id":"4","last_reported":1747170580,"current_range_meters":25200,"station_id":"ce4bhnh2rcd13ifvqgug","pricing_plan_id":"cebpf4jnsgd1na2vs0mg"},{"bike_id":"c012b351-7a0a-41bf-949f-2e38284e5387","system_id":"levelo_inurba_marseille","lat":43.31998,"lon":5.38145,"is_reserved":false,"is_disabled":false,"rental_uris":{"android":"levelo://app?vid=c012b351-7a0a-41bf-949f-2e38284e5387","ios":"levelo://app?vid=c012b351-7a0a-41bf-949f-2e38284e5387"},"vehicle_type_id":"4","last_reported":1747170580,"current_range_meters":25200,"station_id":"ce4bhr12rcd13ifvqhpg","pricing_plan_id":"cebpf4jnsgd1na2vs0mg"},{"bike_id":"c351ad74-cfad-4524-b23a-5f995cfa52ab","system_id":"levelo_inurba_marseille","lat":43.22504,"lon":5.3478,"is_reserved":false,"is_disabled":false,"rental_uris":{"android":"levelo://app?vid=c351ad74-cfad-4524-b23a-5f995cfa52ab","ios":"levelo://app?vid=c351ad74-cfad-4524-b23a-5f995cfa52ab"},"vehicle_type_id":"4","last_reported":1747170580,"current_range_meters":25200,"station_id":"st_cvj5dfep6f1abm77gieg","pricing_plan_id":"cebpf4jnsgd1na2vs0mg"},{"bike_id":"1995e567-578e-4f33-8ed5-b839c88d6f4e","system_id":"levelo_inurba_marseille","lat":43.30002,"lon":5.4759,"is_reserved":false,"is_disabled":false,"rental_uris":{"android":"levelo://app?vid=1995e567-578e-4f33-8ed5-b839c88d6f4e","ios":"levelo://app?vid=1995e567-578e-4f33-8ed5-b839c88d6f4e"},"vehicle_type_id":"4","last_reported":1747170580,"current_range_meters":25600,"station_id":"","pricing_plan_id":"cebpf4jnsgd1na2vs0mg"},{"bike_id":"809884b3-0792-40ec-9e6c-6eba587096d9","system_id":"levelo_inurba_marseille","lat":43.30145,"lon":5.39841,"is_reserved":false,"is_disabled":false,"rental_uris":{"android":"levelo://app?vid=809884b3-0792-40ec-9e6c-6eba587096d9","ios":"levelo://app?vid=809884b3-0792-40ec-9e6c-6eba587096d9"},"vehicle_type_id":"4","last_reported":1747170580,"current_range_meters":25600,"station_id":"ce4bh0h2rcd13ifvqd40","pricing_plan_id":"cebpf4jnsgd1na2vs0mg"},{"bike_id":"9abf956f-330a-4b60-b728-d986a0d4748e","system_id":"levelo_inurba_marseille","lat":43.30631,"lon":5.40071,"is_reserved":false,"is_disabled":false,"rental_uris":{"android":"levelo://app?vid=9abf956f-330a-4b60-b728-d986a0d4748e","ios":"levelo://app?vid=9abf956f-330a-4b60-b728-d986a0d4748e"},"vehicle_type_id":"4","last_reported":1747170580,"current_range_meters":25600,"station_id":"ce4bh112rcd13ifvqda0","pricing_plan_id":"cebpf4jnsgd1na2vs0mg"},{"bike_id":"67ae952c-112e-4ee2-acad-6dd3965dda13","system_id":"levelo_inurba_marseille","lat":43.28845,"lon":5.39322,"is_reserved":false,"is_disabled":false,"rental_uris":{"android":"levelo://app?vid=67ae952c-112e-4ee2-acad-6dd3965dda13","ios":"levelo://app?vid=67ae952c-112e-4ee2-acad-6dd3965dda13"},"vehicle_type_id":"4","last_reported":1747170580,"current_range_meters":25600,"station_id":"ce4bh2p2rcd13ifvqdi0","pricing_plan_id":"cebpf4jnsgd1na2vs0mg"},{"bike_id":"51dbade9-328e-46fc-a05a-af1ee5e114c3","system_id":"levelo_inurba_marseille","lat":43.28474,"lon":5.3588,"is_reserved":false,"is_disabled":false,"rental_uris":{"android":"levelo://app?vid=51dbade9-328e-46fc-a05a-af1ee5e114c3","ios":"levelo://app?vid=51dbade9-328e-46fc-a05a-af1ee5e114c3"},"vehicle_type_id":"4","last_reported":1747170580,"current_range_meters":25600,"station_id":"ce4bhah2rcd13ifvqei0","pricing_plan_id":"cebpf4jnsgd1na2vs0mg"},{"bike_id":"cffc9f34-83c2-4106-8712-f739dc730c58","system_id":"levelo_inurba_marseille","lat":43.24388,"lon":5.37062,"is_reserved":false,"is_disabled":false,"rental_uris":{"android":"levelo://app?vid=cffc9f34-83c2-4106-8712-f739dc730c58","ios":"levelo://app?vid=cffc9f34-83c2-4106-8712-f739dc730c58"},"vehicle_type_id":"4","last_reported":1747170580,"current_range_meters":25600,"station_id":"ce4bhhh2rcd13ifvqfk0","pricing_plan_id":"cebpf4jnsgd1na2vs0mg"},{"bike_id":"1e283348-10fd-4b1b-8624-2e774362988e","system_id":"levelo_inurba_marseille","lat":43.28153,"lon":5.42643,"is_reserved":false,"is_disabled":false,"rental_uris":{"android":"levelo://app?vid=1e283348-10fd-4b1b-8624-2e774362988e","ios":"levelo://app?vid=1e283348-10fd-4b1b-8624-2e774362988e"},"vehicle_type_id":"4","last_reported":1747170580,"current_range_meters":25600,"station_id":"ce4bhnh2rcd13ifvqgug","pricing_plan_id":"cebpf4jnsgd1na2vs0mg"},{"bike_id":"6fbcf1fb-167a-4f7c-a653-b4a37a6e087c","system_id":"levelo_inurba_marseille","lat":43.28727,"lon":5.36086,"is_reserved":false,"is_disabled":false,"rental_uris":{"android":"levelo://app?vid=6fbcf1fb-167a-4f7c-a653-b4a37a6e087c","ios":"levelo://app?vid=6fbcf1fb-167a-4f7c-a653-b4a37a6e087c"},"vehicle_type_id":"4","last_reported":1747170580,"current_range_meters":25600,"station_id":"cki0cbj6b192h4jlfktg","pricing_plan_id":"cebpf4jnsgd1na2vs0mg"},{"bike_id":"49efdab0-886a-4b6e-a79a-5c5bc5d6d492","system_id":"levelo_inurba_marseille","lat":43.331987,"lon":5.381744,"is_reserved":false,"is_disabled":false,"rental_uris":{"android":"levelo://app?vid=49efdab0-886a-4b6e-a79a-5c5bc5d6d492","ios":"levelo://app?vid=49efdab0-886a-4b6e-a79a-5c5bc5d6d492"},"vehicle_type_id":"4","last_reported":1747170580,"current_range_meters":26000,"station_id":"","pricing_plan_id":"cebpf4jnsgd1na2vs0mg"},{"bike_id":"454c5e1f-ea79-48e9-af02-7212870eecaf","system_id":"levelo_inurba_marseille","lat":43.308038,"lon":5.381602,"is_reserved":false,"is_disabled":false,"rental_uris":{"android":"levelo://app?vid=454c5e1f-ea79-48e9-af02-7212870eecaf","ios":"levelo://app?vid=454c5e1f-ea79-48e9-af02-7212870eecaf"},"vehicle_type_id":"4","last_reported":1747170580,"current_range_meters":26000,"station_id":"ce4bgt12rcd13ifvqce0","pricing_plan_id":"cebpf4jnsgd1na2vs0mg"},{"bike_id":"207676f9-59c8-44e5-b210-2fdd9f2fc6b8","system_id":"levelo_inurba_marseille","lat":43.303284,"lon":5.4043,"is_reserved":false,"is_disabled":false,"rental_uris":{"android":"levelo://app?vid=207676f9-59c8-44e5-b210-2fdd9f2fc6b8","ios":"levelo://app?vid=207676f9-59c8-44e5-b210-2fdd9f2fc6b8"},"vehicle_type_id":"4","last_reported":1747170580,"current_range_meters":26000,"station_id":"ce4bh012rcd13ifvqd10","pricing_plan_id":"cebpf4jnsgd1na2vs0mg"},{"bike_id":"23635e74-8bd1-446b-8828-461966d206bb","system_id":"levelo_inurba_marseille","lat":43.28566,"lon":5.39503,"is_reserved":false,"is_disabled":false,"rental_uris":{"android":"levelo://app?vid=23635e74-8bd1-446b-8828-461966d206bb","ios":"levelo://app?vid=23635e74-8bd1-446b-8828-461966d206bb"},"vehicle_type_id":"4","last_reported":1747170580,"current_range_meters":26000,"station_id":"ce4bh292rcd13ifvqdg0","pricing_plan_id":"cebpf4jnsgd1na2vs0mg"},{"bike_id":"bd7f48b5-122d-4623-b8e5-1b0c5a029f53","system_id":"levelo_inurba_marseille","lat":43.31774,"lon":5.3901,"is_reserved":false,"is_disabled":false,"rental_uris":{"android":"levelo://app?vid=bd7f48b5-122d-4623-b8e5-1b0c5a029f53","ios":"levelo://app?vid=bd7f48b5-122d-4623-b8e5-1b0c5a029f53"},"vehicle_type_id":"4","last_reported":1747170580,"current_range_meters":26000,"station_id":"ce4bhqp2rcd13ifvqhng","pricing_plan_id":"cebpf4jnsgd1na2vs0mg"},{"bike_id":"6390cc8e-3afa-40ba-81a3-2743384ffd08","system_id":"levelo_inurba_marseille","lat":43.26805,"lon":5.40269,"is_reserved":false,"is_disabled":false,"rental_uris":{"android":"levelo://app?vid=6390cc8e-3afa-40ba-81a3-2743384ffd08","ios":"levelo://app?vid=6390cc8e-3afa-40ba-81a3-2743384ffd08"},"vehicle_type_id":"4","last_reported":1747170580,"current_range_meters":26000,"station_id":"ce501612rcd8frsf0b60","pricing_plan_id":"cebpf4jnsgd1na2vs0mg"},{"bike_id":"c7fe9ce9-d589-478c-be0a-50ab1965f950","system_id":"levelo_inurba_marseille","lat":43.34238,"lon":5.43695,"is_reserved":false,"is_disabled":false,"rental_uris":{"android":"levelo://app?vid=c7fe9ce9-d589-478c-be0a-50ab1965f950","ios":"levelo://app?vid=c7fe9ce9-d589-478c-be0a-50ab1965f950"},"vehicle_type_id":"4","last_reported":1747170580,"current_range_meters":26800,"station_id":"","pricing_plan_id":"cebpf4jnsgd1na2vs0mg"},{"bike_id":"b045219f-ea0a-4d44-9f2a-9cb062cf360e","system_id":"levelo_inurba_marseille","lat":43.30087,"lon":5.390903,"is_reserved":false,"is_disabled":false,"rental_uris":{"android":"levelo://app?vid=b045219f-ea0a-4d44-9f2a-9cb062cf360e","ios":"levelo://app?vid=b045219f-ea0a-4d44-9f2a-9cb062cf360e"},"vehicle_type_id":"4","last_reported":1747170580,"current_range_meters":26800,"station_id":"ce4bh192rcd13ifvqdb0","pricing_plan_id":"cebpf4jnsgd1na2vs0mg"},{"bike_id":"eba395c9-1614-4698-b688-e8e98d55f1af","system_id":"levelo_inurba_marseille","lat":43.29882,"lon":5.38904,"is_reserved":false,"is_disabled":false,"rental_uris":{"android":"levelo://app?vid=eba395c9-1614-4698-b688-e8e98d55f1af","ios":"levelo://app?vid=eba395c9-1614-4698-b688-e8e98d55f1af"},"vehicle_type_id":"4","last_reported":1747170580,"current_range_meters":26800,"station_id":"ce4bh392rcd13ifvqdl0","pricing_plan_id":"cebpf4jnsgd1na2vs0mg"},{"bike_id":"5b76d150-17fa-4da0-8bfb-472197ebf3b7","system_id":"levelo_inurba_marseille","lat":43.28939,"lon":5.36641,"is_reserved":false,"is_disabled":false,"rental_uris":{"android":"levelo://app?vid=5b76d150-17fa-4da0-8bfb-472197ebf3b7","ios":"levelo://app?vid=5b76d150-17fa-4da0-8bfb-472197ebf3b7"},"vehicle_type_id":"4","last_reported":1747170580,"current_range_meters":26800,"station_id":"ce4bhap2rcd13ifvqek0","pricing_plan_id":"cebpf4jnsgd1na2vs0mg"},{"bike_id":"6492e350-2161-40c1-9a3b-40e44f09a787","system_id":"levelo_inurba_marseille","lat":43.28275,"lon":5.3506,"is_reserved":false,"is_disabled":false,"rental_uris":{"android":"levelo://app?vid=6492e350-2161-40c1-9a3b-40e44f09a787","ios":"levelo://app?vid=6492e350-2161-40c1-9a3b-40e44f09a787"},"vehicle_type_id":"4","last_reported":1747170580,"current_range_meters":26800,"station_id":"ce4bhbp2rcd13ifvqerg","pricing_plan_id":"cebpf4jnsgd1na2vs0mg"},{"bike_id":"9414d1aa-fa3e-4d08-b0f5-bf9258d9712a","system_id":"levelo_inurba_marseille","lat":43.292633,"lon":5.376346,"is_reserved":false,"is_disabled":false,"rental_uris":{"android":"levelo://app?vid=9414d1aa-fa3e-4d08-b0f5-bf9258d9712a","ios":"levelo://app?vid=9414d1aa-fa3e-4d08-b0f5-bf9258d9712a"},"vehicle_type_id":"4","last_reported":1747170580,"current_range_meters":27200,"station_id":"ce4bgi12rcd13ifvqb80","pricing_plan_id":"cebpf4jnsgd1na2vs0mg"},{"bike_id":"12cc6439-af14-4289-9812-11ad666fc275","system_id":"levelo_inurba_marseille","lat":43.30305,"lon":5.36864,"is_reserved":false,"is_disabled":false,"rental_uris":{"android":"levelo://app?vid=12cc6439-af14-4289-9812-11ad666fc275","ios":"levelo://app?vid=12cc6439-af14-4289-9812-11ad666fc275"},"vehicle_type_id":"4","last_reported":1747170580,"current_range_meters":27200,"station_id":"ce4bgqh2rcd13ifvqc5g","pricing_plan_id":"cebpf4jnsgd1na2vs0mg"},{"bike_id":"00136932-a92b-443c-bc4a-18f36f5a42f8","system_id":"levelo_inurba_marseille","lat":43.30253,"lon":5.40048,"is_reserved":false,"is_disabled":false,"rental_uris":{"android":"levelo://app?vid=00136932-a92b-443c-bc4a-18f36f5a42f8","ios":"levelo://app?vid=00136932-a92b-443c-bc4a-18f36f5a42f8"},"vehicle_type_id":"4","last_reported":1747170580,"current_range_meters":27200,"station_id":"ce4bgvh2rcd13ifvqcs0","pricing_plan_id":"cebpf4jnsgd1na2vs0mg"},{"bike_id":"1a8bbed0-20d8-4d56-8520-13cdbb546168","system_id":"levelo_inurba_marseille","lat":43.31326,"lon":5.39693,"is_reserved":false,"is_disabled":false,"rental_uris":{"android":"levelo://app?vid=1a8bbed0-20d8-4d56-8520-13cdbb546168","ios":"levelo://app?vid=1a8bbed0-20d8-4d56-8520-13cdbb546168"},"vehicle_type_id":"4","last_reported":1747170580,"current_range_meters":27200,"station_id":"ce4bgvp2rcd13ifvqcu0","pricing_plan_id":"cebpf4jnsgd1na2vs0mg"},