{"last_updated":1746655816,"ttl":60,"version":"2.2","data":{"bikes":[{"bike_id":"646ce932-e3b6-448c-a87b-52e6b01e32fa","system_id":"levelo_inurba_marseille","lat":43.26203,"lon":5.38729,"is_reserved":false,"is_disabled":true,"rental_uris":{"android":"levelo://app?vid=646ce932-e3b6-448c-a87b-52e6b01e32fa","ios":"levelo://app?vid=646ce932-e3b6-448c-a87b-52e6b01e32fa"},"vehicle_type_id":"4","last_reported":1746655816,"current_range_meters":0,"station_id":"","pricing_plan_id":"cebpf4jnsgd1na2vs0mg"},{"bike_id":"9afdaa32-5437-40bb-b5dc-0e42f55a33ee","system_id":"levelo_inurba_marseille","lat":43.25412,"lon":5.41841,"is_reserved":false,"is_disabled":true,"rental_uris":{"android":"levelo://app?vid=9afdaa32-5437-40bb-b5dc-0e42f55a33ee","ios":"levelo://app?vid=9afdaa32-5437-40bb-b5dc-0e42f55a33ee"},"vehicle_type_id":"4","last_reported":1746655816,"current_range_meters":0,"station_id":"","pricing_plan_id":"cebpf4jnsgd1na2vs0mg"},{"bike_id":"66b646b3-6352-44bb-9bfb-21570512e3e5","system_id":"levelo_inurba_marseille","lat":43.28111,"lon":5.40399,"is_reserved":false,"is_disabled":true,"rental_uris":{"android":"levelo://app?vid=66b646b3-6352-44bb-9bfb-21570512e3e5","ios":"levelo://app?vid=66b646b3-6352-44bb-9bfb-21570512e3e5"},"vehicle_type_id":"4","last_reported":1746655816,"current_range_meters":0,"station_id":"","pricing_plan_id":"cebpf4jnsgd1na2vs0mg"},{"bike_id":"a38c2d49-7988-4ef8-83e8-42a2504085da","system_id":"levelo_inurba_marseille","lat":43.24544,"lon":5.41196,"is_reserved":false,"is_disabled":true,"rental_uris":{"android":"levelo://app?vid=a38c2d49-7988-4ef8-83e8-42a2504085da","ios":"levelo://app?vid=a38c2d49-7988-4ef8-83e8-42a2504085da"},"vehicle_type_id":"4","last_reported":1746655816,"current_range_meters":0,"station_id":"","pricing_plan_id":"cebpf4jnsgd1na2vs0mg"},{"bike_id":"b56eeeb9-9ded-4dd2-9efa-c8d4f8a5e387","system_id":"levelo_inurba_marseille","lat":43.27384,"lon":5.42237,"is_reserved":false,"is_disabled":true,"rental_uris":{"android":"levelo://app?vid=b56eeeb9-9ded-4dd2-9efa-c8d4f8a5e387","ios":"levelo://app?vid=b56eeeb9-9ded-4dd2-9efa-c8d4f8a5e387"},"vehicle_type_id":"4","last_reported":1746655816,"current_range_meters":0,"station_id":"","pricing_plan_id":"cebpf4jnsgd1na2vs0mg"},{"bike_id":"88c3c6c1-a33a-48ed-b2a4-48c16332184c","system_id":"levelo_inurba_marseille","lat":43.27903,"lon":5.37334,"is_reserved":false,"is_disabled":true,"rental_uris":{"android":"levelo://app?vid=88c3c6c1-a33a-48ed-b2a4-48c16332184c","ios":"levelo://app?vid=88c3c6c1-a33a-48ed-b2a4-48c16332184c"},"vehicle_type_id":"4","last_reported":1746655816,"current_range_meters":0,"station_id":"","pricing_plan_id":"cebpf4jnsgd1na2vs0mg"},{"bike_id":"edaf51df-2b4b-4d63-a4ec-c1762e310aff","system_id":"levelo_inurba_marseille","lat":43.30603,"lon":5.37544,"is_reserved":false,"is_disabled":true,"rental_uris":{"android":"levelo://app?vid=edaf51df-2b4b-4d63-a4ec-c1762e310aff","ios":"levelo://app?vid=edaf51df-2b4b-4d63-a4ec-c1762e310aff"},"vehicle_type_id":"4","last_reported":1746655816,"current_range_meters":0,"station_id":"","pricing_plan_id":"cebpf4jnsgd1na2vs0mg"},{"bike_id":"2d251c8d-e9d0-476f-8622-cb88831f30c3","system_id":"levelo_inurba_marseille","lat":43.27008,"lon":5.38775,"is_reserved":false,"is_disabled":true,"rental_uris":{"android":"levelo://app?vid=2d251c8d-e9d0-476f-8622-cb88831f30c3","ios":"levelo://app?vid=2d251c8d-e9d0-476f-8622-cb88831f30c3"},"vehicle_type_id":"4","last_reported":1746655816,"current_range_meters":0,"station_id":"","pricing_plan_id":"cebpf4jnsgd1na2vs0mg"},{"bike_id":"718447f3-b6d2-4455-9edd-b1cf56662f96","system_id":"levelo_inurba_marseille","lat":43.3253,"lon":5.43149,"is_reserved":false,"is_disabled":true,"rental_uris":{"android":"levelo://app?vid=718447f3-b6d2-4455-9edd-b1cf56662f96","ios":"levelo://app?vid=718447f3-b6d2-4455-9edd-b1cf56662f96"},"vehicle_type_id":"4","last_reported":1746655816,"current_range_meters":0,"station_id":"","pricing_plan_id":"cebpf4jnsgd1na2vs0mg"},{"bike_id":"f6e6f7fb-4049-442a-8d28-9a1d01d2a199","system_id":"levelo_inurba_marseille","lat":43.31166,"lon":5.38714,"is_reserved":false,"is_disabled":true,"rental_uris":{"android":"levelo://app?vid=f6e6f7fb-4049-442a-8d28-9a1d01d2a199","ios":"levelo://app?vid=f6e6f7fb-4049-442a-8d28-9a1d01d2a199"},"vehicle_type_id":"4","last_reported":1746655816,"current_range_meters":0,"station_id":"ce4bgv12rcd13ifvqcp0","pricing_plan_id":"cebpf4jnsgd1na2vs0mg"},{"bike_id":"78ed8164-5ebe-43a2-a490-33eea25a7149","system_id":"levelo_inurba_marseille","lat":43.30135,"lon":5.39853,"is_reserved":false,"is_disabled":true,"rental_uris":{"android":"levelo://app?vid=78ed8164-5ebe-43a2-a490-33eea25a7149","ios":"levelo://app?vid=78ed8164-5ebe-43a2-a490-33eea25a7149"},"vehicle_type_id":"4","last_reported":1746655816,"current_range_meters":0,"station_id":"ce4bh0h2rcd13ifvqd40","pricing_plan_id":"cebpf4jnsgd1na2vs0mg"},{"bike_id":"8530ec1e-62ba-4878-929d-537cb7158d2f","system_id":"levelo_inurba_marseille","lat":43.30585,"lon":5.39361,"is_reserved":false,"is_disabled":true,"rental_uris":{"android":"levelo://app?vid=8530ec1e-62ba-4878-929d-537cb7158d2f","ios":"levelo://app?vid=8530ec1e-62ba-4878-929d-537cb7158d2f"},"vehicle_type_id":"4","last_reported":1746655816,"current_range_meters":0,"station_id":"ce4bh0p2rcd13ifvqd80","pricing_plan_id":"cebpf4jnsgd1na2vs0mg"},{"bike_id":"f156d225-1eb2-4ecb-a085-15f56a94525e","system_id":"levelo_inurba_marseille","lat":43.246536,"lon":5.388897,"is_reserved":false,"is_disabled":true,"rental_uris":{"android":"levelo://app?vid=f156d225-1eb2-4ecb-a085-15f56a94525e","ios":"levelo://app?vid=f156d225-1eb2-4ecb-a085-15f56a94525e"},"vehicle_type_id":"4","last_reported":1746655816,"current_range_meters":0,"station_id":"ce4bhg12rcd13ifvqf60","pricing_plan_id":"cebpf4jnsgd1na2vs0mg"},{"bike_id":"3f97dc8f-8144-4b8f-a361-3b06e845d1cf","system_id":"levelo_inurba_marseille","lat":43.27555,"lon":5.38424,"is_reserved":false,"is_disabled":true,"rental_uris":{"android":"levelo://app?vid=3f97dc8f-8144-4b8f-a361-3b06e845d1cf","ios":"levelo://app?vid=3f97dc8f-8144-4b8f-a361-3b06e845d1cf"},"vehicle_type_id":"4","last_reported":1746655816,"current_range_meters":0,"station_id":"ce4bhh92rcd13ifvqfi0","pricing_plan_id":"cebpf4jnsgd1na2vs0mg"},{"bike_id":"fb158fd2-2336-47ee-a8b2-1a7cf41ae5f2","system_id":"levelo_inurba_marseille","lat":43.26501,"lon":5.39536,"is_reserved":false,"is_disabled":true,"rental_uris":{"android":"levelo://app?vid=fb158fd2-2336-47ee-a8b2-1a7cf41ae5f2","ios":"levelo://app?vid=fb158fd2-2336-47ee-a8b2-1a7cf41ae5f2"},"vehicle_type_id":"4","last_reported":1746655816,"current_range_meters":0,"station_id":"ce4bhi12rcd13ifvqfq0","pricing_plan_id":"cebpf4jnsgd1na2vs0mg"},{"bike_id":"feb890b8-0780-4f81-9c02-374fb45aa1e0","system_id":"levelo_inurba_marseille","lat":43.25117,"lon":5.40318,"is_reserved":false,"is_disabled":true,"rental_uris":{"android":"levelo://app?vid=feb890b8-0780-4f81-9c02-374fb45aa1e0","ios":"levelo://app?vid=feb890b8-0780-4f81-9c02-374fb45aa1e0"},"vehicle_type_id":"4","last_reported":1746655816,"current_range_meters":0,"station_id":"ce4bhlh2rcd13ifvqgig","pricing_plan_id":"cebpf4jnsgd1na2vs0mg"},{"bike_id":"0fd18902-1263-48a4-a2d9-06b1ad7abb43","system_id":"levelo_inurba_marseille","lat":43.30326,"lon":5.40441,"is_reserved":false,"is_disabled":true,"rental_uris":{"android":"levelo://app?vid=0fd18902-1263-48a4-a2d9-06b1ad7abb43","ios":"levelo://app?vid=0fd18902-1263-48a4-a2d9-06b1ad7abb43"},"vehicle_type_id":"4","last_reported":1746655816,"current_range_meters":1200,"station_id":"ce4bh012rcd13ifvqd10","pricing_plan_id":"cebpf4jnsgd1na2vs0mg"},{"bike_id":"fcafb82b-9698-4211-8262-3e76367a854e","system_id":"levelo_inurba_marseille","lat":43.26497,"lon":5.3954,"is_reserved":false,"is_disabled":true,"rental_uris":{"android":"levelo://app?vid=fcafb82b-9698-4211-8262-3e76367a854e","ios":"levelo://app?vid=fcafb82b-9698-4211-8262-3e76367a854e"},"vehicle_type_id":"4","last_reported":1746655816,"current_range_meters":1200,"station_id":"ce4bhi12rcd13ifvqfq0","pricing_plan_id":"cebpf4jnsgd1na2vs0mg"},{"bike_id":"13970ab4-3afc-4a6f-8c66-1e066c8e41a0","system_id":"levelo_inurba_marseille","lat":43.30328,"lon":5.40456,"is_reserved":false,"is_disabled":true,"rental_uris":{"android":"levelo://app?vid=13970ab4-3afc-4a6f-8c66-1e066c8e41a0","ios":"levelo://app?vid=13970ab4-3afc-4a6f-8c66-1e066c8e41a0"},"vehicle_type_id":"4","last_reported":1746655816,"current_range_meters":1600,"station_id":"ce4bh012rcd13ifvqd10","pricing_plan_id":"cebpf4jnsgd1na2vs0mg"},{"bike_id":"adc4cb67-6870-430e-8e95-5dfa24834934","system_id":"levelo_inurba_marseille","lat":43.25503,"lon":5.37652,"is_reserved":false,"is_disabled":true,"rental_uris":{"android":"levelo://app?vid=adc4cb67-6870-430e-8e95-5dfa24834934","ios":"levelo://app?vid=adc4cb67-6870-430e-8e95-5dfa24834934"},"vehicle_type_id":"4","last_reported":1746655816,"current_range_meters":1600,"station_id":"ce4bhh12rcd13ifvqff0","pricing_plan_id":"cebpf4jnsgd1na2vs0mg"},{"bike_id":"b0e217c6-2365-400d-8fb1-7610046e5319","system_id":"levelo_inurba_marseille","lat":43.23965,"lon":5.36629,"is_reserved":false,"is_disabled":true,"rental_uris":{"android":"levelo://app?vid=b0e217c6-2365-400d-8fb1-7610046e5319","ios":"levelo://app?vid=b0e217c6-2365-400d-8fb1-7610046e5319"},"vehicle_type_id":"4","last_reported":1746655816,"current_range_meters":2000,"station_id":"","pricing_plan_id":"cebpf4jnsgd1na2vs0mg"},{"bike_id":"2ec15b6e-c8be-44af-ab5a-b1cce17e6d1f","system_id":"levelo_inurba_marseille","lat":43.27952,"lon":5.41034,"is_reserved":false,"is_disabled":true,"rental_uris":{"android":"levelo://app?vid=2ec15b6e-c8be-44af-ab5a-b1cce17e6d1f","ios":"levelo://app?vid=2ec15b6e-c8be-44af-ab5a-b1cce17e6d1f"},"vehicle_type_id":"4","last_reported":1746655816,"current_range_meters":2000,"station_id":"ce4bhnp2rcd13ifvqh0g","pricing_plan_id":"cebpf4jnsgd1na2vs0mg"},{"bike_id":"ce1a1ffc-82f8-4f2c-8017-da400b200d0b","system_id":"levelo_inurba_marseille","lat":43.27434,"lon":5.39409,"is_reserved":false,"is_disabled":false,"rental_uris":{"android":"levelo://app?vid=ce1a1ffc-82f8-4f2c-8017-da400b200d0b","ios":"levelo://app?vid=ce1a1ffc-82f8-4f2c-8017-da400b200d0b"},"vehicle_type_id":"4","last_reported":1746655816,"current_range_meters":2800,"station_id":"ce4bhdp2rcd13ifvqf20","pricing_plan_id":"cebpf4jnsgd1na2vs0mg"},{"bike_id":"bfb95bc3-63f2-42e8-87ee-211a06cc9c10","system_id":"levelo_inurba_marseille","lat":43.27999,"lon":5.41659,"is_reserved":false,"is_disabled":false,"rental_uris":{"android":"levelo://app?vid=bfb95bc3-63f2-42e8-87ee-211a06cc9c10","ios":"levelo://app?vid=bfb95bc3-63f2-42e8-87ee-211a06cc9c10"},"vehicle_type_id":"4","last_reported":1746655816,"current_range_meters":2800,"station_id":"ce4bho12rcd13ifvqh1g","pricing_plan_id":"cebpf4jnsgd1na2vs0mg"},{"bike_id":"9d9b5b16-06f8-43ba-8fde-fc897d99734e","system_id":"levelo_inurba_marseille","lat":43.30792,"lon":5.37639,"is_reserved":false,"is_disabled":false,"rental_uris":{"android":"levelo://app?vid=9d9b5b16-06f8-43ba-8fde-fc897d99734e","ios":"levelo://app?vid=9d9b5b16-06f8-43ba-8fde-fc897d99734e"},"vehicle_type_id":"4","last_reported":1746655816,"current_range_meters":3200,"station_id":"ce4bgv92rcd13ifvqcq0","pricing_plan_id":"cebpf4jnsgd1na2vs0mg"},{"bike_id":"79537e37-13f8-41c4-a795-4e07b7e648d9","system_id":"levelo_inurba_marseille","lat":43.30146,"lon":5.39849,"is_reserved":false,"is_disabled":false,"rental_uris":{"android":"levelo://app?vid=79537e37-13f8-41c4-a795-4e07b7e648d9","ios":"levelo://app?vid=79537e37-13f8-41c4-a795-4e07b7e648d9"},"vehicle_type_id":"4","last_reported":1746655816,"current_range_meters":3200,"station_id":"ce4bh0h2rcd13ifvqd40","pricing_plan_id":"cebpf4jnsgd1na2vs0mg"},{"bike_id":"dffbaaa9-bc0d-4f7b-9034-49cc095eabf5","system_id":"levelo_inurba_marseille","lat":43.284647,"lon":5.358816,"is_reserved":false,"is_disabled":false,"rental_uris":{"android":"levelo://app?vid=dffbaaa9-bc0d-4f7b-9034-49cc095eabf5","ios":"levelo://app?vid=dffbaaa9-bc0d-4f7b-9034-49cc095eabf5"},"vehicle_type_id":"4","last_reported":1746655816,"current_range_meters":3200,"station_id":"ce4bhah2rcd13ifvqei0","pricing_plan_id":"cebpf4jnsgd1na2vs0mg"},{"bike_id":"9748a0c4-d6b8-4d04-814d-c8cd66193aaf","system_id":"levelo_inurba_marseille","lat":43.25213,"lon":5.41049,"is_reserved":false,"is_disabled":false,"rental_uris":{"android":"levelo://app?vid=9748a0c4-d6b8-4d04-814d-c8cd66193aaf","ios":"levelo://app?vid=9748a0c4-d6b8-4d04-814d-c8cd66193aaf"},"vehicle_type_id":"4","last_reported":1746655816,"current_range_meters":3600,"station_id":"","pricing_plan_id":"cebpf4jnsgd1na2vs0mg"},{"bike_id":"e08e60f4-3a16-4679-b97d-ffef39af9f52","system_id":"levelo_inurba_marseille","lat":43.30948,"lon":5.39033,"is_reserved":false,"is_disabled":false,"rental_uris":{"android":"levelo://app?vid=e08e60f4-3a16-4679-b97d-ffef39af9f52","ios":"levelo://app?vid=e08e60f4-3a16-4679-b97d-ffef39af9f52"},"vehicle_type_id":"4","last_reported":1746655816,"current_range_meters":3600,"station_id":"ce4bgup2rcd13ifvqco0","pricing_plan_id":"cebpf4jnsgd1na2vs0mg"},{"bike_id":"b3781d95-ce19-4102-97b8-cd42956fe4ca","system_id":"levelo_inurba_marseille","lat":43.28417,"lon":5.37503,"is_reserved":false,"is_disabled":false,"rental_uris":{"android":"levelo://app?vid=b3781d95-ce19-4102-97b8-cd42956fe4ca","ios":"levelo://app?vid=b3781d95-ce19-4102-97b8-cd42956fe4ca"},"vehicle_type_id":"4","last_reported":1746655816,"current_range_meters":3600,"station_id":"ce4bh412rcd13ifvqds0","pricing_plan_id":"cebpf4jnsgd1na2vs0mg"},{"bike_id":"63cb73aa-86fe-4599-9b76-3790ec130780","system_id":"levelo_inurba_marseille","lat":43.29574,"lon":5.37887,"is_reserved":false,"is_disabled":false,"rental_uris":{"android":"levelo://app?vid=63cb73aa-86fe-4599-9b76-3790ec130780","ios":"levelo://app?vid=63cb73aa-86fe-4599-9b76-3790ec130780"},"vehicle_type_id":"4","last_reported":1746655816,"current_range_meters":4000,"station_id":"","pricing_plan_id":"cebpf4jnsgd1na2vs0mg"},{"bike_id":"964f1d57-f3d4-4a93-bc5e-7847f6a37d38","system_id":"levelo_inurba_marseille","lat":43.29916,"lon":5.37458,"is_reserved":false,"is_disabled":false,"rental_uris":{"android":"levelo://app?vid=964f1d57-f3d4-4a93-bc5e-7847f6a37d38","ios":"levelo://app?vid=964f1d57-f3d4-4a93-bc5e-7847f6a37d38"},"vehicle_type_id":"4","last_reported":1746655816,"current_range_meters":4000,"station_id":"ce4bgjh2rcd13ifvqbg0","pricing_plan_id":"cebpf4jnsgd1na2vs0mg"},{"bike_id":"68bb2fce-6cd6-46bb-93b6-b48d280afede","system_id":"levelo_inurba_marseille","lat":43.30884,"lon":5.39657,"is_reserved":false,"is_disabled":false,"rental_uris":{"android":"levelo://app?vid=68bb2fce-6cd6-46bb-93b6-b48d280afede","ios":"levelo://app?vid=68bb2fce-6cd6-46bb-93b6-b48d280afede"},"vehicle_type_id":"4","last_reported":1746655816,"current_range_meters":4000,"station_id":"ce4bh012rcd13ifvqcv0","pricing_plan_id":"cebpf4jnsgd1na2vs0mg"},{"bike_id":"e8576f2d-c2c3-4bf0-8eff-76ada0a81525","system_id":"levelo_inurba_marseille","lat":43.28462,"lon":5.35889,"is_reserved":false,"is_disabled":false,"rental_uris":{"android":"levelo://app?vid=e8576f2d-c2c3-4bf0-8eff-76ada0a81525","ios":"levelo://app?vid=e8576f2d-c2c3-4bf0-8eff-76ada0a81525"},"vehicle_type_id":"4","last_reported":1746655816,"current_range_meters":4000,"station_id":"ce4bhah2rcd13ifvqei0","pricing_plan_id":"cebpf4jnsgd1na2vs0mg"},{"bike_id":"0e10e92a-439e-4081-803c-5f351bcf88ef","system_id":"levelo_inurba_marseille","lat":43.2795,"lon":5.41038,"is_reserved":false,"is_disabled":false,"rental_uris":{"android":"levelo://app?vid=0e10e92a-439e-4081-803c-5f351bcf88ef","ios":"levelo://app?vid=0e10e92a-439e-4081-803c-5f351bcf88ef"},"vehicle_type_id":"4","last_reported":1746655816,"current_range_meters":4000,"station_id":"ce4bhnp2rcd13ifvqh0g","pricing_plan_id":"cebpf4jnsgd1na2vs0mg"},{"bike_id":"c9592205-9409-4f74-aed1-7c4141a58caa","system_id":"levelo_inurba_marseille","lat":43.27149,"lon":5.36343,"is_reserved":false,"is_disabled":false,"rental_uris":{"android":"levelo://app?vid=c9592205-9409-4f74-aed1-7c4141a58caa","ios":"levelo://app?vid=c9592205-9409-4f74-aed1-7c4141a58caa"},"vehicle_type_id":"4","last_reported":1746655816,"current_range_meters":4400,"station_id":"","pricing_plan_id":"cebpf4jnsgd1na2vs0mg"},{"bike_id":"ac1da9e4-bb5f-45ff-90ee-81358909ef6f","system_id":"levelo_inurba_marseille","lat":43.30144,"lon":5.3807,"is_reserved":false,"is_disabled":false,"rental_uris":{"android":"levelo://app?vid=ac1da9e4-bb5f-45ff-90ee-81358909ef6f","ios":"levelo://app?vid=ac1da9e4-bb5f-45ff-90ee-81358909ef6f"},"vehicle_type_id":"4","last_reported":1746655816,"current_range_meters":4400,"station_id":"ce4bgjp2rcd13ifvqbh0","pricing_plan_id":"cebpf4jnsgd1na2vs0mg"},{"bike_id":"036f68fa-61e5-42c7-9862-ddfc347c09b5","system_id":"levelo_inurba_marseille","lat":43.29524,"lon":5.37517,"is_reserved":false,"is_disabled":false,"rental_uris":{"android":"levelo://app?vid=036f68fa-61e5-42c7-9862-ddfc347c09b5","ios":"levelo://app?vid=036f68fa-61e5-42c7-9862-ddfc347c09b5"},"vehicle_type_id":"4","last_reported":1746655816,"current_range_meters":4400,"station_id":"ce4bgkp2rcd13ifvqbmg","pricing_plan_id":"cebpf4jnsgd1na2vs0mg"},{"bike_id":"97c604d1-5cd8-464b-9c2a-3cc04d3c28be","system_id":"levelo_inurba_marseille","lat":43.290757,"lon":5.399757,"is_reserved":false,"is_disabled":false,"rental_uris":{"android":"levelo://app?vid=97c604d1-5cd8-464b-9c2a-3cc04d3c28be","ios":"levelo://app?vid=97c604d1-5cd8-464b-9c2a-3cc04d3c28be"},"vehicle_type_id":"4","last_reported":1746655816,"current_range_meters":4400,"station_id":"ce4bh392rcd13ifvqdm0","pricing_plan_id":"cebpf4jnsgd1na2vs0mg"},{"bike_id":"96ade3a1-86c8-455f-867b-2c1fd914202e","system_id":"levelo_inurba_marseille","lat":43.28919,"lon":5.38391,"is_reserved":false,"is_disabled":false,"rental_uris":{"android":"levelo://app?vid=96ade3a1-86c8-455f-867b-2c1fd914202e","ios":"levelo://app?vid=96ade3a1-86c8-455f-867b-2c1fd914202e"},"vehicle_type_id":"4","last_reported":1746655816,"current_range_meters":4400,"station_id":"ce4bh612rcd13ifvqe6g","pricing_plan_id":"cebpf4jnsgd1na2vs0mg"},{"bike_id":"351c998d-7524-4daf-aa92-d5e4d72a1b49","system_id":"levelo_inurba_marseille","lat":43.30811,"lon":5.38134,"is_reserved":false,"is_disabled":false,"rental_uris":{"android":"levelo://app?vid=351c998d-7524-4daf-aa92-d5e4d72a1b49","ios":"levelo://app?vid=351c998d-7524-4daf-aa92-d5e4d72a1b49"},"vehicle_type_id":"4","last_reported":1746655816,"current_range_meters":4800,"station_id":"ce4bgt12rcd13ifvqce0","pricing_plan_id":"cebpf4jnsgd1na2vs0mg"},{"bike_id":"50c10ca4-a32c-4963-97e0-433175ba4e2e","system_id":"levelo_inurba_marseille","lat":43.28674,"lon":5.38677,"is_reserved":false,"is_disabled":false,"rental_uris":{"android":"levelo://app?vid=50c10ca4-a32c-4963-97e0-433175ba4e2e","ios":"levelo://app?vid=50c10ca4-a32c-4963-97e0-433175ba4e2e"},"vehicle_type_id":"4","last_reported":1746655816,"current_range_meters":4800,"station_id":"ce4bh492rcd13ifvqdug","pricing_plan_id":"cebpf4jnsgd1na2vs0mg"},{"bike_id":"44cfe909-3151-4418-97ce-778c6e54ee86","system_id":"levelo_inurba_marseille","lat":43.25498,"lon":5.37648,"is_reserved":false,"is_disabled":false,"rental_uris":{"android":"levelo://app?vid=44cfe909-3151-4418-97ce-778c6e54ee86","ios":"levelo://app?vid=44cfe909-3151-4418-97ce-778c6e54ee86"},"vehicle_type_id":"4","last_reported":1746655816,"current_range_meters":5600,"station_id":"ce4bhh12rcd13ifvqff0","pricing_plan_id":"cebpf4jnsgd1na2vs0mg"},{"bike_id":"93bc13b8-0242-4459-89ba-fdaff1d35e39","system_id":"levelo_inurba_marseille","lat":43.27212,"lon":5.39187,"is_reserved":false,"is_disabled":false,"rental_uris":{"android":"levelo://app?vid=93bc13b8-0242-4459-89ba-fdaff1d35e39","ios":"levelo://app?vid=93bc13b8-0242-4459-89ba-fdaff1d35e39"},"vehicle_type_id":"4","last_reported":1746655816,"current_range_meters":5600,"station_id":"ce4bhhp2rcd13ifvqfm0","pricing_plan_id":"cebpf4jnsgd1na2vs0mg"},{"bike_id":"705f1f6f-d92c-4df1-a512-943b0bf79900","system_id":"levelo_inurba_marseille","lat":43.225,"lon":5.34777,"is_reserved":false,"is_disabled":false,"rental_uris":{"android":"levelo://app?vid=705f1f6f-d92c-4df1-a512-943b0bf79900","ios":"levelo://app?vid=705f1f6f-d92c-4df1-a512-943b0bf79900"},"vehicle_type_id":"4","last_reported":1746655816,"current_range_meters":5600,"station_id":"st_cvj5dfep6f1abm77gieg","pricing_plan_id":"cebpf4jnsgd1na2vs0mg"},{"bike_id":"5f89e5d8-8e5e-4a6d-901c-70aafb0a905d","system_id":"levelo_inurba_marseille","lat":43.29245,"lon":5.37378,"is_reserved":false,"is_disabled":false,"rental_uris":{"android":"levelo://app?vid=5f89e5d8-8e5e-4a6d-901c-70aafb0a905d","ios":"levelo://app?vid=5f89e5d8-8e5e-4a6d-901c-70aafb0a905d"},"vehicle_type_id":"4","last_reported":1746655816,"current_range_meters":6000,"station_id":"","pricing_plan_id":"cebpf4jnsgd1na2vs0mg"},{"bike_id":"3f05e42b-9d09-4214-97a4-6c1605095ad4","system_id":"levelo_inurba_marseille","lat":43.29004,"lon":5.35613,"is_reserved":false,"is_disabled":false,"rental_uris":{"android":"levelo://app?vid=3f05e42b-9d09-4214-97a4-6c1605095ad4","ios":"levelo://app?vid=3f05e42b-9d09-4214-97a4-6c1605095ad4"},"vehicle_type_id":"4","last_reported":1746655816,"current_range_meters":6000,"station_id":"ce4bhb92rcd13ifvqen0","pricing_plan_id":"cebpf4jnsgd1na2vs0mg"},{"bike_id":"d962a997-fc8f-4f2c-8e37-5ef49764bd03","system_id":"levelo_inurba_marseille","lat":43.27952,"lon":5.4105,"is_reserved":false,"is_disabled":false,"rental_uris":{"android":"levelo://app?vid=d962a997-fc8f-4f2c-8e37-5ef49764bd03","ios":"levelo://app?vid=d962a997-fc8f-4f2c-8e37-5ef49764bd03"},"vehicle_type_id":"4","last_reported":1746655816,"current_range_meters":6000,"station_id":"ce4bhnp2rcd13ifvqh0g","pricing_plan_id":"cebpf4jnsgd1na2vs0mg"},{"bike_id":"f884cd7a-4f4d-4862-a780-0aa77922f3e7","system_id":"levelo_inurba_marseille","lat":43.31324,"lon":5.39693,"is_reserved":false,"is_disabled":false,"rental_uris":{"android":"levelo://app?vid=f884cd7a-4f4d-4862-a780-0aa77922f3e7","ios":"levelo://app?vid=f884cd7a-4f4d-4862-a780-0aa77922f3e7"},"vehicle_type_id":"4","last_reported":1746655816,"current_range_meters":6400,"station_id":"ce4bgvp2rcd13ifvqcu0","pricing_plan_id":"cebpf4jnsgd1na2vs0mg"},{"bike_id":"b309296a-5a1b-445a-9a01-8252b5594238","system_id":"levelo_inurba_marseille","lat":43.24142,"lon":5.39767,"is_reserved":false,"is_disabled":false,"rental_uris":{"android":"levelo://app?vid=b309296a-5a1b-445a-9a01-8252b5594238","ios":"levelo://app?vid=b309296a-5a1b-445a-9a01-8252b5594238"},"vehicle_type_id":"4","last_reported":1746655816,"current_range_meters":6400,"station_id":"ce4bhn12rcd13ifvqgpg","pricing_plan_id":"cebpf4jnsgd1na2vs0mg"},{"bike_id":"b0e5964e-da0e-4b0e-bc51-35acce30e418","system_id":"levelo_inurba_marseille","lat":43.27949,"lon":5.41044,"is_reserved":false,"is_disabled":false,"rental_uris":{"android":"levelo://app?vid=b0e5964e-da0e-4b0e-bc51-35acce30e418","ios":"levelo://app?vid=b0e5964e-da0e-4b0e-bc51-35acce30e418"},"vehicle_type_id":"4","last_reported":1746655816,"current_range_meters":6400,"station_id":"ce4bhnp2rcd13ifvqh0g","pricing_plan_id":"cebpf4jnsgd1na2vs0mg"},{"bike_id":"88f90c5c-6128-4b9d-bb34-6e1b40933e50","system_id":"levelo_inurba_marseille","lat":43.28294,"lon":5.4323,"is_reserved":false,"is_disabled":false,"rental_uris":{"android":"levelo://app?vid=88f90c5c-6128-4b9d-bb34-6e1b40933e50","ios":"levelo://app?vid=88f90c5c-6128-4b9d-bb34-6e1b40933e50"},"vehicle_type_id":"4","last_reported":1746655816,"current_range_meters":6800,"station_id":"","pricing_plan_id":"cebpf4jnsgd1na2vs0mg"},{"bike_id":"91602321-f66d-4d7f-92ce-3c4bc4f4ddc5","system_id":"levelo_inurba_marseille","lat":43.29269,"lon":5.37632,"is_reserved":false,"is_disabled":false,"rental_uris":{"android":"levelo://app?vid=91602321-f66d-4d7f-92ce-3c4bc4f4ddc5","ios":"levelo://app?vid=91602321-f66d-4d7f-92ce-3c4bc4f4ddc5"},"vehicle_type_id":"4","last_reported":1746655816,"current_range_meters":6800,"station_id":"ce4bgi12rcd13ifvqb80","pricing_plan_id":"cebpf4jnsgd1na2vs0mg"},{"bike_id":"dce814c0-4c4e-4a20-a33b-97af480f0bcb","system_id":"levelo_inurba_marseille","lat":43.29028,"lon":5.42622,"is_reserved":false,"is_disabled":false,"rental_uris":{"android":"levelo://app?vid=dce814c0-4c4e-4a20-a33b-97af480f0bcb","ios":"levelo://app?vid=dce814c0-4c4e-4a20-a33b-97af480f0bcb"},"vehicle_type_id":"4","last_reported":1746655816,"current_range_meters":7200,"station_id":"","pricing_plan_id":"cebpf4jnsgd1na2vs0mg"},{"bike_id":"a9468771-a40e-4108-b575-25d03a37ce24","system_id":"levelo_inurba_marseille","lat":43.3079,"lon":5.3816,"is_reserved":false,"is_disabled":false,"rental_uris":{"android":"levelo://app?vid=a9468771-a40e-4108-b575-25d03a37ce24","ios":"levelo://app?vid=a9468771-a40e-4108-b575-25d03a37ce24"},"vehicle_type_id":"4","last_reported":1746655816,"current_range_meters":7200,"station_id":"ce4bgt12rcd13ifvqce0","pricing_plan_id":"cebpf4jnsgd1na2vs0mg"},{"bike_id":"aee6ec02-002b-4aa4-8755-27e6a4930598","system_id":"levelo_inurba_marseille","lat":43.30779,"lon":5.37642,"is_reserved":false,"is_disabled":false,"rental_uris":{"android":"levelo://app?vid=aee6ec02-002b-4aa4-8755-27e6a4930598","ios":"levelo://app?vid=aee6ec02-002b-4aa4-8755-27e6a4930598"},"vehicle_type_id":"4","last_reported":1746655816,"current_range_meters":7200,"station_id":"ce4bgv92rcd13ifvqcq0","pricing_plan_id":"cebpf4jnsgd1na2vs0mg"},{"bike_id":"3e8d8104-67f6-4ceb-98a1-a0150fb4c1b0","system_id":"levelo_inurba_marseille","lat":43.30328,"lon":5.40434,"is_reserved":false,"is_disabled":false,"rental_uris":{"android":"levelo://app?vid=3e8d8104-67f6-4ceb-98a1-a0150fb4c1b0","ios":"levelo://app?vid=3e8d8104-67f6-4ceb-98a1-a0150fb4c1b0"},"vehicle_type_id":"4","last_reported":1746655816,"current_range_meters":7200,"station_id":"ce4bh012rcd13ifvqd10","pricing_plan_id":"cebpf4jnsgd1na2vs0mg"},{"bike_id":"e9e536ab-7f9a-4ca9-aa21-e4b652795026","system_id":"levelo_inurba_marseille","lat":43.30595,"lon":5.39363,"is_reserved":false,"is_disabled":false,"rental_uris":{"android":"levelo://app?vid=e9e536ab-7f9a-4ca9-aa21-e4b652795026","ios":"levelo://app?vid=e9e536ab-7f9a-4ca9-aa21-e4b652795026"},"vehicle_type_id":"4","last_reported":1746655816,"current_range_meters":7200,"station_id":"ce4bh0p2rcd13ifvqd80","pricing_plan_id":"cebpf4jnsgd1na2vs0mg"},{"bike_id":"4bfd4d1c-23c3-4630-a869-7e02c20c16fb","system_id":"levelo_inurba_marseille","lat":43.27417,"lon":5.39411,"is_reserved":false,"is_disabled":false,"rental_uris":{"android":"levelo://app?vid=4bfd4d1c-23c3-4630-a869-7e02c20c16fb","ios":"levelo://app?vid=4bfd4d1c-23c3-4630-a869-7e02c20c16fb"},"vehicle_type_id":"4","last_reported":1746655816,"current_range_meters":7200,"station_id":"ce4bhdp2rcd13ifvqf20","pricing_plan_id":"cebpf4jnsgd1na2vs0mg"},{"bike_id":"aa6eaa6f-a172-4a31-8500-b76476b59cb3","system_id":"levelo_inurba_marseille","lat":43.232,"lon":5.39977,"is_reserved":false,"is_disabled":false,"rental_uris":{"android":"levelo://app?vid=aa6eaa6f-a172-4a31-8500-b76476b59cb3","ios":"levelo://app?vid=aa6eaa6f-a172-4a31-8500-b76476b59cb3"},"vehicle_type_id":"4","last_reported":1746655816,"current_range_meters":7200,"station_id":"ce4bhn12rcd13ifvqgqg","pricing_plan_id":"cebpf4jnsgd1na2vs0mg"},{"bike_id":"eccba332-1be7-42d7-a3c4-90b0d1cb293e","system_id":"levelo_inurba_marseille","lat":43.27991,"lon":5.41645,"is_reserved":false,"is_disabled":false,"rental_uris":{"android":"levelo://app?vid=eccba332-1be7-42d7-a3c4-90b0d1cb293e","ios":"levelo://app?vid=eccba332-1be7-42d7-a3c4-90b0d1cb293e"},"vehicle_type_id":"4","last_reported":1746655816,"current_range_meters":7200,"station_id":"ce4bho12rcd13ifvqh1g","pricing_plan_id":"cebpf4jnsgd1na2vs0mg"},{"bike_id":"ec17dcbd-174f-48ab-bc1c-271ed3aba84f","system_id":"levelo_inurba_marseille","lat":43.31535,"lon":5.38035,"is_reserved":false,"is_disabled":false,"rental_uris":{"android":"levelo://app?vid=ec17dcbd-174f-48ab-bc1c-271ed3aba84f","ios":"levelo://app?vid=ec17dcbd-174f-48ab-bc1c-271ed3aba84f"},"vehicle_type_id":"4","last_reported":1746655816,"current_range_meters":7200,"station_id":"ce4bhsp2rcd13ifvqi50","pricing_plan_id":"cebpf4jnsgd1na2vs0mg"},{"bike_id":"9d03e3b9-cc02-47cb-8220-42e752a6ad34","system_id":"levelo_inurba_marseille","lat":43.29011,"lon":5.47685,"is_reserved":false,"is_disabled":false,"rental_uris":{"android":"levelo://app?vid=9d03e3b9-cc02-47cb-8220-42e752a6ad34","ios":"levelo://app?vid=9d03e3b9-cc02-47cb-8220-42e752a6ad34"},"vehicle_type_id":"4","last_reported":1746655816,"current_range_meters":8000,"station_id":"","pricing_plan_id":"cebpf4jnsgd1na2vs0mg"},{"bike_id":"de06eedd-5fdd-447c-9942-8ee8b0d14db9","system_id":"levelo_inurba_marseille","lat":43.29946,"lon":5.3653,"is_reserved":false,"is_disabled":false,"rental_uris":{"android":"levelo://app?vid=de06eedd-5fdd-447c-9942-8ee8b0d14db9","ios":"levelo://app?vid=de06eedd-5fdd-447c-9942-8ee8b0d14db9"},"vehicle_type_id":"4","last_reported":1746655816,"current_range_meters":8000,"station_id":"ce4bgm92rcd13ifvqbr0","pricing_plan_id":"cebpf4jnsgd1na2vs0mg"},{"bike_id":"ad764181-3511-4e9b-9ebc-12e60cee93b6","system_id":"levelo_inurba_marseille","lat":43.29641,"lon":5.37149,"is_reserved":false,"is_disabled":false,"rental_uris":{"android":"levelo://app?vid=ad764181-3511-4e9b-9ebc-12e60cee93b6","ios":"levelo://app?vid=ad764181-3511-4e9b-9ebc-12e60cee93b6"},"vehicle_type_id":"4","last_reported":1746655816,"current_range_meters":8000,"station_id":"ce4bgnh2rcd13ifvqc0g","pricing_plan_id":"cebpf4jnsgd1na2vs0mg"},{"bike_id":"dfd27e22-9b34-42f8-9fdf-f3a07c5bdce7","system_id":"levelo_inurba_marseille","lat":43.24167,"lon":5.36399,"is_reserved":false,"is_disabled":false,"rental_uris":{"android":"levelo://app?vid=dfd27e22-9b34-42f8-9fdf-f3a07c5bdce7","ios":"levelo://app?vid=dfd27e22-9b34-42f8-9fdf-f3a07c5bdce7"},"vehicle_type_id":"4","last_reported":1746655816,"current_range_meters":8000,"station_id":"cpo36qri1sfpv3e86is0","pricing_plan_id":"cebpf4jnsgd1na2vs0mg"},{"bike_id":"81ba7db5-5264-4e66-9236-ac68ced72379","system_id":"levelo_inurba_marseille","lat":43.31381,"lon":5.38487,"is_reserved":false,"is_disabled":false,"rental_uris":{"android":"levelo://app?vid=81ba7db5-5264-4e66-9236-ac68ced72379","ios":"levelo://app?vid=81ba7db5-5264-4e66-9236-ac68ced72379"},"vehicle_type_id":"4","last_reported":1746655816,"current_range_meters":8400,"station_id":"ce4bgt92rcd13ifvqcf0","pricing_plan_id":"cebpf4jnsgd1na2vs0mg"},{"bike_id":"606204f1-5145-42e8-b746-c5c6c08abc5b","system_id":"levelo_inurba_marseille","lat":43.28706,"lon":5.39986,"is_reserved":false,"is_disabled":false,"rental_uris":{"android":"levelo://app?vid=606204f1-5145-42e8-b746-c5c6c08abc5b","ios":"levelo://app?vid=606204f1-5145-42e8-b746-c5c6c08abc5b"},"vehicle_type_id":"4","last_reported":1746655816,"current_range_meters":8400,"station_id":"ce4bho92rcd13ifvqh3g","pricing_plan_id":"cebpf4jnsgd1na2vs0mg"},{"bike_id":"2c3302d5-a1d6-46cf-9ce0-e3db4a12c976","system_id":"levelo_inurba_marseille","lat":43.30416,"lon":5.41285,"is_reserved":false,"is_disabled":false,"rental_uris":{"android":"levelo://app?vid=2c3302d5-a1d6-46cf-9ce0-e3db4a12c976","ios":"levelo://app?vid=2c3302d5-a1d6-46cf-9ce0-e3db4a12c976"},"vehicle_type_id":"4","last_reported":1746655816,"current_range_meters":8400,"station_id":"ce4bhop2rcd13ifvqh8g","pricing_plan_id":"cebpf4jnsgd1na2vs0mg"},{"bike_id":"0686d0ab-9614-4540-ac01-e9a5a006735f","system_id":"levelo_inurba_marseille","lat":43.319122,"lon":5.408246,"is_reserved":false,"is_disabled":false,"rental_uris":{"android":"levelo://app?vid=0686d0ab-9614-4540-ac01-e9a5a006735f","ios":"levelo://app?vid=0686d0ab-9614-4540-ac01-e9a5a006735f"},"vehicle_type_id":"4","last_reported":1746655816,"current_range_meters":8400,"station_id":"ce4bhq12rcd13ifvqhig","pricing_plan_id":"cebpf4jnsgd1na2vs0mg"},{"bike_id":"b7bdbe3a-b7ec-4256-908f-dfa71835a5d1","system_id":"levelo_inurba_marseille","lat":43.28864,"lon":5.37142,"is_reserved":false,"is_disabled":false,"rental_uris":{"android":"levelo://app?vid=b7bdbe3a-b7ec-4256-908f-dfa71835a5d1","ios":"levelo://app?vid=b7bdbe3a-b7ec-4256-908f-dfa71835a5d1"},"vehicle_type_id":"4","last_reported":1746655816,"current_range_meters":8800,"station_id":"","pricing_plan_id":"cebpf4jnsgd1na2vs0mg"},{"bike_id":"b7b9d896-8f3a-4cbb-96b1-4dc7fe2035b7","system_id":"levelo_inurba_marseille","lat":43.28343,"lon":5.38106,"is_reserved":false,"is_disabled":false,"rental_uris":{"android":"levelo://app?vid=b7b9d896-8f3a-4cbb-96b1-4dc7fe2035b7","ios":"levelo://app?vid=b7b9d896-8f3a-4cbb-96b1-4dc7fe2035b7"},"vehicle_type_id":"4","last_reported":1746655816,"current_range_meters":8800,"station_id":"ce4bh412rcd13ifvqdr0","pricing_plan_id":"cebpf4jnsgd1na2vs0mg"},{"bike_id":"4c66ee4b-5844-435d-a800-f4d1b96529a7","system_id":"levelo_inurba_marseille","lat":43.2718,"lon":5.40985,"is_reserved":false,"is_disabled":false,"rental_uris":{"android":"levelo://app?vid=4c66ee4b-5844-435d-a800-f4d1b96529a7","ios":"levelo://app?vid=4c66ee4b-5844-435d-a800-f4d1b96529a7"},"vehicle_type_id":"4","last_reported":1746655816,"current_range_meters":8800,"station_id":"ce4bhl12rcd13ifvqgf0","pricing_plan_id":"cebpf4jnsgd1na2vs0mg"},{"bike_id":"12d11cd6-622e-498d-8eb9-e4d5613e5912","system_id":"levelo_inurba_marseille","lat":43.27945,"lon":5.41047,"is_reserved":false,"is_disabled":false,"rental_uris":{"android":"levelo://app?vid=12d11cd6-622e-498d-8eb9-e4d5613e5912","ios":"levelo://app?vid=12d11cd6-622e-498d-8eb9-e4d5613e5912"},"vehicle_type_id":"4","last_reported":1746655816,"current_range_meters":8800,"station_id":"ce4bhnp2rcd13ifvqh0g","pricing_plan_id":"cebpf4jnsgd1na2vs0mg"},{"bike_id":"6675a5e8-5c8e-47e3-9935-5e27adad727a","system_id":"levelo_inurba_marseille","lat":43.27942,"lon":5.41045,"is_reserved":false,"is_disabled":false,"rental_uris":{"android":"levelo://app?vid=6675a5e8-5c8e-47e3-9935-5e27adad727a","ios":"levelo://app?vid=6675a5e8-5c8e-47e3-9935-5e27adad727a"},"vehicle_type_id":"4","last_reported":1746655816,"current_range_meters":8800,"station_id":"ce4bhnp2rcd13ifvqh0g","pricing_plan_id":"cebpf4jnsgd1na2vs0mg"},{"bike_id":"5872f101-9271-4805-860d-0ee54b52f844","system_id":"levelo_inurba_marseille","lat":43.322966,"lon":5.382753,"is_reserved":false,"is_disabled":false,"rental_uris":{"android":"levelo://app?vid=5872f101-9271-4805-860d-0ee54b52f844","ios":"levelo://app?vid=5872f101-9271-4805-860d-0ee54b52f844"},"vehicle_type_id":"4","last_reported":1746655816,"current_range_meters":8800,"station_id":"ce4bhr12rcd13ifvqhqg","pricing_plan_id":"cebpf4jnsgd1na2vs0mg"},{"bike_id":"149dbc3f-738a-4425-9044-fb81967ea585","system_id":"levelo_inurba_marseille","lat":43.23056,"lon":5.35495,"is_reserved":false,"is_disabled":false,"rental_uris":{"android":"levelo://app?vid=149dbc3f-738a-4425-9044-fb81967ea585","ios":"levelo://app?vid=149dbc3f-738a-4425-9044-fb81967ea585"},"vehicle_type_id":"4","last_reported":1746655816,"current_range_meters":8800,"station_id":"cpo3342slgdg3j2ifvpg","pricing_plan_id":"cebpf4jnsgd1na2vs0mg"},{"bike_id":"871d92dc-153b-42ec-8d90-34c9e0fb29bf","system_id":"levelo_inurba_marseille","lat":43.30673,"lon":5.3982,"is_reserved":false,"is_disabled":false,"rental_uris":{"android":"levelo://app?vid=871d92dc-153b-42ec-8d90-34c9e0fb29bf","ios":"levelo://app?vid=871d92dc-153b-42ec-8d90-34c9e0fb29bf"},"vehicle_type_id":"4","last_reported":1746655816,"current_range_meters":9200,"station_id":"","pricing_plan_id":"cebpf4jnsgd1na2vs0mg"},{"bike_id":"89420609-8590-4e4d-9042-8fb0e02b5686","system_id":"levelo_inurba_marseille","lat":43.24167,"lon":5.36393,"is_reserved":false,"is_disabled":false,"rental_uris":{"android":"levelo://app?vid=89420609-8590-4e4d-9042-8fb0e02b5686","ios":"levelo://app?vid=89420609-8590-4e4d-9042-8fb0e02b5686"},"vehicle_type_id":"4","last_reported":1746655816,"current_range_meters":9200,"station_id":"cpo36qri1sfpv3e86is0","pricing_plan_id":"cebpf4jnsgd1na2vs0mg"},{"bike_id":"6fcecdbd-a5d7-498c-85d8-462b7a653c6a","system_id":"levelo_inurba_marseille","lat":43.28459,"lon":5.35886,"is_reserved":false,"is_disabled":false,"rental_uris":{"android":"levelo://app?vid=6fcecdbd-a5d7-498c-85d8-462b7a653c6a","ios":"levelo://app?vid=6fcecdbd-a5d7-498c-85d8-462b7a653c6a"},"vehicle_type_id":"4","last_reported":1746655816,"current_range_meters":9600,"station_id":"ce4bhah2rcd13ifvqei0","pricing_plan_id":"cebpf4jnsgd1na2vs0mg"},{"bike_id":"e8f2e017-ef03-4bc6-bcb9-e6015310306c","system_id":"levelo_inurba_marseille","lat":43.24811,"lon":5.37449,"is_reserved":false,"is_disabled":false,"rental_uris":{"android":"levelo://app?vid=e8f2e017-ef03-4bc6-bcb9-e6015310306c","ios":"levelo://app?vid=e8f2e017-ef03-4bc6-bcb9-e6015310306c"},"vehicle_type_id":"4","last_reported":1746655816,"current_range_meters":9600,"station_id":"ce4bhgh2rcd13ifvqfb0","pricing_plan_id":"cebpf4jnsgd1na2vs0mg"},{"bike_id":"c650db92-e467-494a-8ffb-fba552729a60","system_id":"levelo_inurba_marseille","lat":43.2399,"lon":5.36612,"is_reserved":false,"is_disabled":false,"rental_uris":{"android":"levelo://app?vid=c650db92-e467-494a-8ffb-fba552729a60","ios":"levelo://app?vid=c650db92-e467-494a-8ffb-fba552729a60"},"vehicle_type_id":"4","last_reported":1746655816,"current_range_meters":9600,"station_id":"ce4bhi12rcd13ifvqfp0","pricing_plan_id":"cebpf4jnsgd1na2vs0mg"},{"bike_id":"dc4c68a6-1f07-407b-9b2d-d057aaa3ae1d","system_id":"levelo_inurba_marseille","lat":43.27941,"lon":5.41039,"is_reserved":false,"is_disabled":false,"rental_uris":{"android":"levelo://app?vid=dc4c68a6-1f07-407b-9b2d-d057aaa3ae1d","ios":"levelo://app?vid=dc4c68a6-1f07-407b-9b2d-d057aaa3ae1d"},"vehicle_type_id":"4","last_reported":1746655816,"current_range_meters":9600,"station_id":"ce4bhnp2rcd13ifvqh0g","pricing_plan_id":"cebpf4jnsgd1na2vs0mg"},{"bike_id":"dbe6c090-a883-4f7a-86ca-f7062cab9bbf","system_id":"levelo_inurba_marseille","lat":43.21753,"lon":5.34585,"is_reserved":false,"is_disabled":false,"rental_uris":{"android":"levelo://app?vid=dbe6c090-a883-4f7a-86ca-f7062cab9bbf","ios":"levelo://app?vid=dbe6c090-a883-4f7a-86ca-f7062cab9bbf"},"vehicle_type_id":"4","last_reported":1746655816,"current_range_meters":9600,"station_id":"st_cvj6r9ubvosntc0bgbag","pricing_plan_id":"cebpf4jnsgd1na2vs0mg"},{"bike_id":"ce40ea43-bacf-49f3-b5af-ffaf2a1f03b1","system_id":"levelo_inurba_marseille","lat":43.30471,"lon":5.36769,"is_reserved":false,"is_disabled":false,"rental_uris":{"android":"levelo://app?vid=ce40ea43-bacf-49f3-b5af-ffaf2a1f03b1","ios":"levelo://app?vid=ce40ea43-bacf-49f3-b5af-ffaf2a1f03b1"},"vehicle_type_id":"4","last_reported":1746655816,"current_range_meters":10000,"station_id":"","pricing_plan_id":"cebpf4jnsgd1na2vs0mg"},{"bike_id":"21bf2ed3-a48c-415f-a1af-5d993023a10e","system_id":"levelo_inurba_marseille","lat":43.28696,"lon":5.38663,"is_reserved":false,"is_disabled":false,"rental_uris":{"android":"levelo://app?vid=21bf2ed3-a48c-415f-a1af-5d993023a10e","ios":"levelo://app?vid=21bf2ed3-a48c-415f-a1af-5d993023a10e"},"vehicle_type_id":"4","last_reported":1746655816,"current_range_meters":10000,"station_id":"ce4bh492rcd13ifvqdug","pricing_plan_id":"cebpf4jnsgd1na2vs0mg"},{"bike_id":"f29f7b63-6f39-4414-947e-d5e3209b6c9e","system_id":"levelo_inurba_marseille","lat":43.27387,"lon":5.36272,"is_reserved":false,"is_disabled":false,"rental_uris":{"android":"levelo://app?vid=f29f7b63-6f39-4414-947e-d5e3209b6c9e","ios":"levelo://app?vid=f29f7b63-6f39-4414-947e-d5e3209b6c9e"},"vehicle_type_id":"4","last_reported":1746655816,"current_range_meters":10000,"station_id":"ce4bhbh2rcd13ifvqeo0","pricing_plan_id":"cebpf4jnsgd1na2vs0mg"},{"bike_id":"1d4682d1-043b-4b83-b0f0-445153ebacc8","system_id":"levelo_inurba_marseille","lat":43.28963,"lon":5.36411,"is_reserved":false,"is_disabled":false,"rental_uris":{"android":"levelo://app?vid=1d4682d1-043b-4b83-b0f0-445153ebacc8","ios":"levelo://app?vid=1d4682d1-043b-4b83-b0f0-445153ebacc8"},"vehicle_type_id":"4","last_reported":1746655816,"current_range_meters":10000,"station_id":"ce4bhc92rcd13ifvqetg","pricing_plan_id":"cebpf4jnsgd1na2vs0mg"},{"bike_id":"1ff298f4-1f0c-4922-8097-818f34a3d794","system_id":"levelo_inurba_marseille","lat":43.33583,"lon":5.40968,"is_reserved":false,"is_disabled":false,"rental_uris":{"android":"levelo://app?vid=1ff298f4-1f0c-4922-8097-818f34a3d794","ios":"levelo://app?vid=1ff298f4-1f0c-4922-8097-818f34a3d794"},"vehicle_type_id":"4","last_reported":1746655816,"current_range_meters":10000,"station_id":"ce4bhqh2rcd13ifvqhmg","pricing_plan_id":"cebpf4jnsgd1na2vs0mg"},{"bike_id":"b15fe93b-1059-4d75-abd3-040e349ce402","system_id":"levelo_inurba_marseille","lat":43.30113,"lon":5.37004,"is_reserved":false,"is_disabled":false,"rental_uris":{"android":"levelo://app?vid=b15fe93b-1059-4d75-abd3-040e349ce402","ios":"levelo://app?vid=b15fe93b-1059-4d75-abd3-040e349ce402"},"vehicle_type_id":"4","last_reported":1746655816,"current_range_meters":10800,"station_id":"","pricing_plan_id":"cebpf4jnsgd1na2vs0mg"},{"bike_id":"a96833c3-7aad-4769-953e-d8192a324355","system_id":"levelo_inurba_marseille","lat":43.337444,"lon":5.374475,"is_reserved":false,"is_disabled":false,"rental_uris":{"android":"levelo://app?vid=a96833c3-7aad-4769-953e-d8192a324355","ios":"levelo://app?vid=a96833c3-7aad-4769-953e-d8192a324355"},"vehicle_type_id":"4","last_reported":1746655816,"current_range_meters":10800,"station_id":"","pricing_plan_id":"cebpf4jnsgd1na2vs0mg"},{"bike_id":"5c357307-1a87-4010-be73-1912e0c0ebcf","system_id":"levelo_inurba_marseille","lat":43.28539,"lon":5.39471,"is_reserved":false,"is_disabled":false,"rental_uris":{"android":"levelo://app?vid=5c357307-1a87-4010-be73-1912e0c0ebcf","ios":"levelo://app?vid=5c357307-1a87-4010-be73-1912e0c0ebcf"},"vehicle_type_id":"4","last_reported":1746655816,"current_range_meters":10800,"station_id":"ce4bh292rcd13ifvqdg0","pricing_plan_id":"cebpf4jnsgd1na2vs0mg"},{"bike_id":"40604081-f5e4-4a6b-8ab7-71f0909c7fc0","system_id":"levelo_inurba_marseille","lat":43.27368,"lon":5.36244,"is_reserved":false,"is_disabled":false,"rental_uris":{"android":"levelo://app?vid=40604081-f5e4-4a6b-8ab7-71f0909c7fc0","ios":"levelo://app?vid=40604081-f5e4-4a6b-8ab7-71f0909c7fc0"},"vehicle_type_id":"4","last_reported":1746655816,"current_range_meters":10800,"station_id":"ce4bhbh2rcd13ifvqeo0","pricing_plan_id":"cebpf4jnsgd1na2vs0mg"},{"bike_id":"1694bc2e-08ff-457d-b538-64074b38a3d4","system_id":"levelo_inurba_marseille","lat":43.27171,"lon":5.40993,"is_reserved":false,"is_disabled":false,"rental_uris":{"android":"levelo://app?vid=1694bc2e-08ff-457d-b538-64074b38a3d4","ios":"levelo://app?vid=1694bc2e-08ff-457d-b538-64074b38a3d4"},"vehicle_type_id":"4","last_reported":1746655816,"current_range_meters":10800,"station_id":"ce4bhl12rcd13ifvqgf0","pricing_plan_id":"cebpf4jnsgd1na2vs0mg"},{"bike_id":"569154da-5aba-4b6a-9874-971785801a0f","system_id":"levelo_inurba_marseille","lat":43.27811,"lon":5.40709,"is_reserved":false,"is_disabled":false,"rental_uris":{"android":"levelo://app?vid=569154da-5aba-4b6a-9874-971785801a0f","ios":"levelo://app?vid=569154da-5aba-4b6a-9874-971785801a0f"},"vehicle_type_id":"4","last_reported":1746655816,"current_range_meters":10800,"station_id":"ce4bhnh2rcd13ifvqgtg","pricing_plan_id":"cebpf4jnsgd1na2vs0mg"},{"bike_id":"1ea8714f-9dd1-4b7c-a258-9444b5a947af","system_id":"levelo_inurba_marseille","lat":43.28079,"lon":5.39659,"is_reserved":false,"is_disabled":false,"rental_uris":{"android":"levelo://app?vid=1ea8714f-9dd1-4b7c-a258-9444b5a947af","ios":"levelo://app?vid=1ea8714f-9dd1-4b7c-a258-9444b5a947af"},"vehicle_type_id":"4","last_reported":1746655816,"current_range_meters":10800,"station_id":"ce4bho12rcd13ifvqh2g","pricing_plan_id":"cebpf4jnsgd1na2vs0mg"},{"bike_id":"c460d626-46dc-4323-977a-1bf36ca4902b","system_id":"levelo_inurba_marseille","lat":43.28056,"lon":5.36932,"is_reserved":false,"is_disabled":false,"rental_uris":{"android":"levelo://app?vid=c460d626-46dc-4323-977a-1bf36ca4902b","ios":"levelo://app?vid=c460d626-46dc-4323-977a-1bf36ca4902b"},"vehicle_type_id":"4","last_reported":1746655816,"current_range_meters":11200,"station_id":"ce4bha12rcd13ifvqef0","pricing_plan_id":"cebpf4jnsgd1na2vs0mg"},{"bike_id":"ed95ba89-64a8-4bb9-994f-92af2793b9bb","system_id":"levelo_inurba_marseille","lat":43.25839,"lon":5.39421,"is_reserved":false,"is_disabled":false,"rental_uris":{"android":"levelo://app?vid=ed95ba89-64a8-4bb9-994f-92af2793b9bb","ios":"levelo://app?vid=ed95ba89-64a8-4bb9-994f-92af2793b9bb"},"vehicle_type_id":"4","last_reported":1746655816,"current_range_meters":11200,"station_id":"ce4bhip2rcd13ifvqft0","pricing_plan_id":"cebpf4jnsgd1na2vs0mg"},{"bike_id":"2ffa008f-4045-404e-a632-f92e2b79f62f","system_id":"levelo_inurba_marseille","lat":43.28146,"lon":5.42619,"is_reserved":false,"is_disabled":false,"rental_uris":{"android":"levelo://app?vid=2ffa008f-4045-404e-a632-f92e2b79f62f","ios":"levelo://app?vid=2ffa008f-4045-404e-a632-f92e2b79f62f"},"vehicle_type_id":"4","last_reported":1746655816,"current_range_meters":11200,"station_id":"ce4bhnh2rcd13ifvqgug","pricing_plan_id":"cebpf4jnsgd1na2vs0mg"},{"bike_id":"be2ea01e-901c-4275-b9a1-758d91918d20","system_id":"levelo_inurba_marseille","lat":43.31037,"lon":5.38353,"is_reserved":false,"is_disabled":false,"rental_uris":{"android":"levelo://app?vid=be2ea01e-901c-4275-b9a1-758d91918d20","ios":"levelo://app?vid=be2ea01e-901c-4275-b9a1-758d91918d20"},"vehicle_type_id":"4","last_reported":1746655816,"current_range_meters":11600,"station_id":"ce4bgv92rcd13ifvqcr0","pricing_plan_id":"cebpf4jnsgd1na2vs0mg"},{"bike_id":"db823666-8f97-438c-8230-0115db4a7694","system_id":"levelo_inurba_marseille","lat":43.282714,"lon":5.361723,"is_reserved":false,"is_disabled":false,"rental_uris":{"android":"levelo://app?vid=db823666-8f97-438c-8230-0115db4a7694","ios":"levelo://app?vid=db823666-8f97-438c-8230-0115db4a7694"},"vehicle_type_id":"4","last_reported":1746655816,"current_range_meters":12000,"station_id":"","pricing_plan_id":"cebpf4jnsgd1na2vs0mg"},{"bike_id":"7dd5a980-4989-44f4-8514-fcc84322bba0","system_id":"levelo_inurba_marseille","lat":43.27362,"lon":5.36209,"is_reserved":false,"is_disabled":false,"rental_uris":{"android":"levelo://app?vid=7dd5a980-4989-44f4-8514-fcc84322bba0","ios":"levelo://app?vid=7dd5a980-4989-44f4-8514-fcc84322bba0"},"vehicle_type_id":"4","last_reported":1746655816,"current_range_meters":12000,"station_id":"","pricing_plan_id":"cebpf4jnsgd1na2vs0mg"},{"bike_id":"907d9cfc-925d-4c95-9fd2-bd435b92fbfa","system_id":"levelo_inurba_marseille","lat":43.29709,"lon":5.36613,"is_reserved":false,"is_disabled":false,"rental_uris":{"android":"levelo://app?vid=907d9cfc-925d-4c95-9fd2-bd435b92fbfa","ios":"levelo://app?vid=907d9cfc-925d-4c95-9fd2-bd435b92fbfa"},"vehicle_type_id":"4","last_reported":1746655816,"current_range_meters":12000,"station_id":"ce4bgn12rcd13ifvqbt0","pricing_plan_id":"cebpf4jnsgd1na2vs0mg"},{"bike_id":"d7e50d8a-82b6-4f1b-8ad4-280d05f92477","system_id":"levelo_inurba_marseille","lat":43.31716,"lon":5.40433,"is_reserved":false,"is_disabled":false,"rental_uris":{"android":"levelo://app?vid=d7e50d8a-82b6-4f1b-8ad4-280d05f92477","ios":"levelo://app?vid=d7e50d8a-82b6-4f1b-8ad4-280d05f92477"},"vehicle_type_id":"4","last_reported":1746655816,"current_range_meters":12000,"station_id":"ce4bh012rcd13ifvqd00","pricing_plan_id":"cebpf4jnsgd1na2vs0mg"},{"bike_id":"60578ee4-0ece-4ec5-9815-6954985b46f5","system_id":"levelo_inurba_marseille","lat":43.30334,"lon":5.404325,"is_reserved":false,"is_disabled":false,"rental_uris":{"android":"levelo://app?vid=60578ee4-0ece-4ec5-9815-6954985b46f5","ios":"levelo://app?vid=60578ee4-0ece-4ec5-9815-6954985b46f5"},"vehicle_type_id":"4","last_reported":1746655816,"current_range_meters":12000,"station_id":"ce4bh012rcd13ifvqd10","pricing_plan_id":"cebpf4jnsgd1na2vs0mg"},{"bike_id":"87b9a829-6d08-4a6d-9a8e-b298b8a08212","system_id":"levelo_inurba_marseille","lat":43.28458,"lon":5.35889,"is_reserved":false,"is_disabled":false,"rental_uris":{"android":"levelo://app?vid=87b9a829-6d08-4a6d-9a8e-b298b8a08212","ios":"levelo://app?vid=87b9a829-6d08-4a6d-9a8e-b298b8a08212"},"vehicle_type_id":"4","last_reported":1746655816,"current_range_meters":12000,"station_id":"ce4bhah2rcd13ifvqei0","pricing_plan_id":"cebpf4jnsgd1na2vs0mg"},{"bike_id":"c7a81e0a-b603-4980-9001-bcd08e2a3210","system_id":"levelo_inurba_marseille","lat":43.24549,"lon":5.39521,"is_reserved":false,"is_disabled":false,"rental_uris":{"android":"levelo://app?vid=c7a81e0a-b603-4980-9001-bcd08e2a3210","ios":"levelo://app?vid=c7a81e0a-b603-4980-9001-bcd08e2a3210"},"vehicle_type_id":"4","last_reported":1746655816,"current_range_meters":12000,"station_id":"ce4bhlp2rcd13ifvqgjg","pricing_plan_id":"cebpf4jnsgd1na2vs0mg"},{"bike_id":"eff01a47-9a9f-4a02-be20-e3fd0c3270dd","system_id":"levelo_inurba_marseille","lat":43.30642,"lon":5.40049,"is_reserved":false,"is_disabled":false,"rental_uris":{"android":"levelo://app?vid=eff01a47-9a9f-4a02-be20-e3fd0c3270dd","ios":"levelo://app?vid=eff01a47-9a9f-4a02-be20-e3fd0c3270dd"},"vehicle_type_id":"4","last_reported":1746655816,"current_range_meters":12400,"station_id":"ce4bh112rcd13ifvqda0","pricing_plan_id":"cebpf4jnsgd1na2vs0mg"},{"bike_id":"cb5561fb-3ed2-49bf-bd58-7c8862116c78","system_id":"levelo_inurba_marseille","lat":43.212,"lon":5.35078,"is_reserved":false,"is_disabled":false,"rental_uris":{"android":"levelo://app?vid=cb5561fb-3ed2-49bf-bd58-7c8862116c78","ios":"levelo://app?vid=cb5561fb-3ed2-49bf-bd58-7c8862116c78"},"vehicle_type_id":"4","last_reported":1746655816,"current_range_meters":12400,"station_id":"st_cvj6sg6p6f1abm77japg","pricing_plan_id":"cebpf4jnsgd1na2vs0mg"},{"bike_id":"1661de55-4d67-477c-90e4-53ea01c1dbf0","system_id":"levelo_inurba_marseille","lat":43.27375,"lon":5.36231,"is_reserved":false,"is_disabled":false,"rental_uris":{"android":"levelo://app?vid=1661de55-4d67-477c-90e4-53ea01c1dbf0","ios":"levelo://app?vid=1661de55-4d67-477c-90e4-53ea01c1dbf0"},"vehicle_type_id":"4","last_reported":1746655816,"current_range_meters":12800,"station_id":"ce4bhbh2rcd13ifvqeo0","pricing_plan_id":"cebpf4jnsgd1na2vs0mg"},{"bike_id":"b3dda9f1-e281-4acc-a3e5-f9bdd89841dd","system_id":"levelo_inurba_marseille","lat":43.28422,"lon":5.37513,"is_reserved":false,"is_disabled":false,"rental_uris":{"android":"levelo://app?vid=b3dda9f1-e281-4acc-a3e5-f9bdd89841dd","ios":"levelo://app?vid=b3dda9f1-e281-4acc-a3e5-f9bdd89841dd"},"vehicle_type_id":"4","last_reported":1746655816,"current_range_meters":13600,"station_id":"ce4bh412rcd13ifvqds0","pricing_plan_id":"cebpf4jnsgd1na2vs0mg"},{"bike_id":"0aa7891c-d4e7-4322-bc35-ca00696aff9a","system_id":"levelo_inurba_marseille","lat":43.27369,"lon":5.3625,"is_reserved":false,"is_disabled":false,"rental_uris":{"android":"levelo://app?vid=0aa7891c-d4e7-4322-bc35-ca00696aff9a","ios":"levelo://app?vid=0aa7891c-d4e7-4322-bc35-ca00696aff9a"},"vehicle_type_id":"4","last_reported":1746655816,"current_range_meters":13600,"station_id":"ce4bhbh2rcd13ifvqeo0","pricing_plan_id":"cebpf4jnsgd1na2vs0mg"},{"bike_id":"4de6755a-50c3-4c39-a8c3-401fa684bfb9","system_id":"levelo_inurba_marseille","lat":43.29275,"lon":5.36848,"is_reserved":false,"is_disabled":false,"rental_uris":{"android":"levelo://app?vid=4de6755a-50c3-4c39-a8c3-401fa684bfb9","ios":"levelo://app?vid=4de6755a-50c3-4c39-a8c3-401fa684bfb9"},"vehicle_type_id":"4","last_reported":1746655816,"current_range_meters":13600,"station_id":"ce4bhbp2rcd13ifvqesg","pricing_plan_id":"cebpf4jnsgd1na2vs0mg"},{"bike_id":"9209774a-06b7-47c7-a6eb-adc0c3f47cff","system_id":"levelo_inurba_marseille","lat":43.25577,"lon":5.38232,"is_reserved":false,"is_disabled":false,"rental_uris":{"android":"levelo://app?vid=9209774a-06b7-47c7-a6eb-adc0c3f47cff","ios":"levelo://app?vid=9209774a-06b7-47c7-a6eb-adc0c3f47cff"},"vehicle_type_id":"4","last_reported":1746655816,"current_range_meters":13600,"station_id":"ce4bhih2rcd13ifvqfs0","pricing_plan_id":"cebpf4jnsgd1na2vs0mg"},{"bike_id":"c6d1142d-9ae8-4e65-b16b-8f1fee1f0293","system_id":"levelo_inurba_marseille","lat":43.29507,"lon":5.39387,"is_reserved":false,"is_disabled":false,"rental_uris":{"android":"levelo://app?vid=c6d1142d-9ae8-4e65-b16b-8f1fee1f0293","ios":"levelo://app?vid=c6d1142d-9ae8-4e65-b16b-8f1fee1f0293"},"vehicle_type_id":"4","last_reported":1746655816,"current_range_meters":14000,"station_id":"ce4bh292rcd13ifvqdf0","pricing_plan_id":"cebpf4jnsgd1na2vs0mg"},{"bike_id":"93e4aecf-ce36-4081-9fb9-1652ccd4af61","system_id":"levelo_inurba_marseille","lat":43.28346,"lon":5.38111,"is_reserved":false,"is_disabled":false,"rental_uris":{"android":"levelo://app?vid=93e4aecf-ce36-4081-9fb9-1652ccd4af61","ios":"levelo://app?vid=93e4aecf-ce36-4081-9fb9-1652ccd4af61"},"vehicle_type_id":"4","last_reported":1746655816,"current_range_meters":14000,"station_id":"ce4bh412rcd13ifvqdr0","pricing_plan_id":"cebpf4jnsgd1na2vs0mg"},{"bike_id":"b0c70e14-f44e-433e-9134-7dab1033467b","system_id":"levelo_inurba_marseille","lat":43.27384,"lon":5.36252,"is_reserved":false,"is_disabled":false,"rental_uris":{"android":"levelo://app?vid=b0c70e14-f44e-433e-9134-7dab1033467b","ios":"levelo://app?vid=b0c70e14-f44e-433e-9134-7dab1033467b"},"vehicle_type_id":"4","last_reported":1746655816,"current_range_meters":14000,"station_id":"ce4bhbh2rcd13ifvqeo0","pricing_plan_id":"cebpf4jnsgd1na2vs0mg"},{"bike_id":"b1b1397f-decb-4b09-8bd2-0b90da3b8b74","system_id":"levelo_inurba_marseille","lat":43.24545,"lon":5.3952,"is_reserved":false,"is_disabled":false,"rental_uris":{"android":"levelo://app?vid=b1b1397f-decb-4b09-8bd2-0b90da3b8b74","ios":"levelo://app?vid=b1b1397f-decb-4b09-8bd2-0b90da3b8b74"},"vehicle_type_id":"4","last_reported":1746655816,"current_range_meters":14000,"station_id":"ce4bhlp2rcd13ifvqgjg","pricing_plan_id":"cebpf4jnsgd1na2vs0mg"},{"bike_id":"de1c4770-4e5b-40bb-bd95-5e7d86e7a8be","system_id":"levelo_inurba_marseille","lat":43.30596,"lon":5.37174,"is_reserved":false,"is_disabled":false,"rental_uris":{"android":"levelo://app?vid=de1c4770-4e5b-40bb-bd95-5e7d86e7a8be","ios":"levelo://app?vid=de1c4770-4e5b-40bb-bd95-5e7d86e7a8be"},"vehicle_type_id":"4","last_reported":1746655816,"current_range_meters":14400,"station_id":"ce4bgqh2rcd13ifvqc4g","pricing_plan_id":"cebpf4jnsgd1na2vs0mg"},{"bike_id":"5453c7c8-d7df-431d-98db-167d3c16d978","system_id":"levelo_inurba_marseille","lat":43.31358,"lon":5.385,"is_reserved":false,"is_disabled":false,"rental_uris":{"android":"levelo://app?vid=5453c7c8-d7df-431d-98db-167d3c16d978","ios":"levelo://app?vid=5453c7c8-d7df-431d-98db-167d3c16d978"},"vehicle_type_id":"4","last_reported":1746655816,"current_range_meters":14400,"station_id":"ce4bgt92rcd13ifvqcf0","pricing_plan_id":"cebpf4jnsgd1na2vs0mg"},{"bike_id":"17b214d6-99b5-4fbd-a65f-6ac3467903ea","system_id":"levelo_inurba_marseille","lat":43.31066,"lon":5.38346,"is_reserved":false,"is_disabled":false,"rental_uris":{"android":"levelo://app?vid=17b214d6-99b5-4fbd-a65f-6ac3467903ea","ios":"levelo://app?vid=17b214d6-99b5-4fbd-a65f-6ac3467903ea"},"vehicle_type_id":"4","last_reported":1746655816,"current_range_meters":14400,"station_id":"ce4bgv92rcd13ifvqcr0","pricing_plan_id":"cebpf4jnsgd1na2vs0mg"},{"bike_id":"d996e0e8-c952-4e5c-b9d9-57c77261aa9d","system_id":"levelo_inurba_marseille","lat":43.27376,"lon":5.36251,"is_reserved":false,"is_disabled":false,"rental_uris":{"android":"levelo://app?vid=d996e0e8-c952-4e5c-b9d9-57c77261aa9d","ios":"levelo://app?vid=d996e0e8-c952-4e5c-b9d9-57c77261aa9d"},"vehicle_type_id":"4","last_reported":1746655816,"current_range_meters":14400,"station_id":"ce4bhbh2rcd13ifvqeo0","pricing_plan_id":"cebpf4jnsgd1na2vs0mg"},{"bike_id":"f44f1a89-67d8-4c00-9599-b3a2c38876d9","system_id":"levelo_inurba_marseille","lat":43.27997,"lon":5.41658,"is_reserved":false,"is_disabled":false,"rental_uris":{"android":"levelo://app?vid=f44f1a89-67d8-4c00-9599-b3a2c38876d9","ios":"levelo://app?vid=f44f1a89-67d8-4c00-9599-b3a2c38876d9"},"vehicle_type_id":"4","last_reported":1746655816,"current_range_meters":14400,"station_id":"ce4bho12rcd13ifvqh1g","pricing_plan_id":"cebpf4jnsgd1na2vs0mg"},{"bike_id":"411c6817-e036-48ec-a788-11332e1e89f4","system_id":"levelo_inurba_marseille","lat":43.33729,"lon":5.39181,"is_reserved":false,"is_disabled":false,"rental_uris":{"android":"levelo://app?vid=411c6817-e036-48ec-a788-11332e1e89f4","ios":"levelo://app?vid=411c6817-e036-48ec-a788-11332e1e89f4"},"vehicle_type_id":"4","last_reported":1746655816,"current_range_meters":14400,"station_id":"ce4bhr92rcd13ifvqhsg","pricing_plan_id":"cebpf4jnsgd1na2vs0mg"},{"bike_id":"99fde332-20cc-43dc-9efe-63dd5770b720","system_id":"levelo_inurba_marseille","lat":43.269423,"lon":5.402527,"is_reserved":false,"is_disabled":false,"rental_uris":{"android":"levelo://app?vid=99fde332-20cc-43dc-9efe-63dd5770b720","ios":"levelo://app?vid=99fde332-20cc-43dc-9efe-63dd5770b720"},"vehicle_type_id":"4","last_reported":1746655816,"current_range_meters":14400,"station_id":"cjm6bp8fraef2m0cb0m0","pricing_plan_id":"cebpf4jnsgd1na2vs0mg"},{"bike_id":"1c01df8c-3268-463a-b14b-098eb41b9905","system_id":"levelo_inurba_marseille","lat":43.288954,"lon":5.400095,"is_reserved":false,"is_disabled":false,"rental_uris":{"android":"levelo://app?vid=1c01df8c-3268-463a-b14b-098eb41b9905","ios":"levelo://app?vid=1c01df8c-3268-463a-b14b-098eb41b9905"},"vehicle_type_id":"4","last_reported":1746655816,"current_range_meters":14800,"station_id":"","pricing_plan_id":"cebpf4jnsgd1na2vs0mg"},{"bike_id":"e945a495-d359-4bb7-bb94-1340aff95955","system_id":"levelo_inurba_marseille","lat":43.28144,"lon":5.40605,"is_reserved":false,"is_disabled":false,"rental_uris":{"android":"levelo://app?vid=e945a495-d359-4bb7-bb94-1340aff95955","ios":"levelo://app?vid=e945a495-d359-4bb7-bb94-1340aff95955"},"vehicle_type_id":"4","last_reported":1746655816,"current_range_meters":14800,"station_id":"","pricing_plan_id":"cebpf4jnsgd1na2vs0mg"},{"bike_id":"5d6a2fd5-907e-408f-850c-103d60d953e5","system_id":"levelo_inurba_marseille","lat":43.25593,"lon":5.38219,"is_reserved":false,"is_disabled":false,"rental_uris":{"android":"levelo://app?vid=5d6a2fd5-907e-408f-850c-103d60d953e5","ios":"levelo://app?vid=5d6a2fd5-907e-408f-850c-103d60d953e5"},"vehicle_type_id":"4","last_reported":1746655816,"current_range_meters":14800,"station_id":"ce4bhih2rcd13ifvqfs0","pricing_plan_id":"cebpf4jnsgd1na2vs0mg"},{"bike_id":"809c8673-c032-46b9-aa07-62c38e26d44e","system_id":"levelo_inurba_marseille","lat":43.250429,"lon":5.387895,"is_reserved":false,"is_disabled":false,"rental_uris":{"android":"levelo://app?vid=809c8673-c032-46b9-aa07-62c38e26d44e","ios":"levelo://app?vid=809c8673-c032-46b9-aa07-62c38e26d44e"},"vehicle_type_id":"4","last_reported":1746655816,"current_range_meters":15200,"station_id":"","pricing_plan_id":"cebpf4jnsgd1na2vs0mg"},{"bike_id":"e6282093-23fb-41a9-859d-c0d9ad966535","system_id":"levelo_inurba_marseille","lat":43.31717,"lon":5.37706,"is_reserved":false,"is_disabled":false,"rental_uris":{"android":"levelo://app?vid=e6282093-23fb-41a9-859d-c0d9ad966535","ios":"levelo://app?vid=e6282093-23fb-41a9-859d-c0d9ad966535"},"vehicle_type_id":"4","last_reported":1746655816,"current_range_meters":15200,"station_id":"ce4bgth2rcd13ifvqch0","pricing_plan_id":"cebpf4jnsgd1na2vs0mg"},{"bike_id":"8ecf2470-610e-4e0e-9b04-0460de7d58d4","system_id":"levelo_inurba_marseille","lat":43.29031,"lon":5.39961,"is_reserved":false,"is_disabled":false,"rental_uris":{"android":"levelo://app?vid=8ecf2470-610e-4e0e-9b04-0460de7d58d4","ios":"levelo://app?vid=8ecf2470-610e-4e0e-9b04-0460de7d58d4"},"vehicle_type_id":"4","last_reported":1746655816,"current_range_meters":15200,"station_id":"ce4bh392rcd13ifvqdm0","pricing_plan_id":"cebpf4jnsgd1na2vs0mg"},{"bike_id":"492a7a57-4c14-4260-ba62-da55dda4a419","system_id":"levelo_inurba_marseille","lat":43.32338,"lon":5.4062,"is_reserved":false,"is_disabled":false,"rental_uris":{"android":"levelo://app?vid=492a7a57-4c14-4260-ba62-da55dda4a419","ios":"levelo://app?vid=492a7a57-4c14-4260-ba62-da55dda4a419"},"vehicle_type_id":"4","last_reported":1746655816,"current_range_meters":15200,"station_id":"ce4bhq92rcd13ifvqhjg","pricing_plan_id":"cebpf4jnsgd1na2vs0mg"},{"bike_id":"47cd9dba-9c5a-4de3-a27d-45ec0de547bc","system_id":"levelo_inurba_marseille","lat":43.28845,"lon":5.43322,"is_reserved":false,"is_disabled":false,"rental_uris":{"android":"levelo://app?vid=47cd9dba-9c5a-4de3-a27d-45ec0de547bc","ios":"levelo://app?vid=47cd9dba-9c5a-4de3-a27d-45ec0de547bc"},"vehicle_type_id":"4","last_reported":1746655816,"current_range_meters":16000,"station_id":"","pricing_plan_id":"cebpf4jnsgd1na2vs0mg"},{"bike_id":"23d79a11-a7ee-4bbf-a9b3-60d1a2187987","system_id":"levelo_inurba_marseille","lat":43.29714,"lon":5.3662,"is_reserved":false,"is_disabled":false,"rental_uris":{"android":"levelo://app?vid=23d79a11-a7ee-4bbf-a9b3-60d1a2187987","ios":"levelo://app?vid=23d79a11-a7ee-4bbf-a9b3-60d1a2187987"},"vehicle_type_id":"4","last_reported":1746655816,"current_range_meters":16000,"station_id":"ce4bgn12rcd13ifvqbt0","pricing_plan_id":"cebpf4jnsgd1na2vs0mg"},{"bike_id":"56df4ce2-68df-434e-971e-da2753bfacfc","system_id":"levelo_inurba_marseille","lat":43.30892,"lon":5.39657,"is_reserved":false,"is_disabled":false,"rental_uris":{"android":"levelo://app?vid=56df4ce2-68df-434e-971e-da2753bfacfc","ios":"levelo://app?vid=56df4ce2-68df-434e-971e-da2753bfacfc"},"vehicle_type_id":"4","last_reported":1746655816,"current_range_meters":16000,"station_id":"ce4bh012rcd13ifvqcv0","pricing_plan_id":"cebpf4jnsgd1na2vs0mg"},{"bike_id":"1f120129-aa16-4bd8-b2c4-6c98c732b3d2","system_id":"levelo_inurba_marseille","lat":43.31685,"lon":5.40469,"is_reserved":false,"is_disabled":false,"rental_uris":{"android":"levelo://app?vid=1f120129-aa16-4bd8-b2c4-6c98c732b3d2","ios":"levelo://app?vid=1f120129-aa16-4bd8-b2c4-6c98c732b3d2"},"vehicle_type_id":"4","last_reported":1746655816,"current_range_meters":16000,"station_id":"ce4bh012rcd13ifvqd00","pricing_plan_id":"cebpf4jnsgd1na2vs0mg"},{"bike_id":"2aace568-ac2f-49c7-9458-5246d5166cd0","system_id":"levelo_inurba_marseille","lat":43.28887,"lon":5.44973,"is_reserved":false,"is_disabled":false,"rental_uris":{"android":"levelo://app?vid=2aace568-ac2f-49c7-9458-5246d5166cd0","ios":"levelo://app?vid=2aace568-ac2f-49c7-9458-5246d5166cd0"},"vehicle_type_id":"4","last_reported":1746655816,"current_range_meters":16400,"station_id":"","pricing_plan_id":"cebpf4jnsgd1na2vs0mg"},{"bike_id":"caccb556-2ad0-45b8-84b8-819024dd44e6","system_id":"levelo_inurba_marseille","lat":43.29793,"lon":5.36797,"is_reserved":false,"is_disabled":false,"rental_uris":{"android":"levelo://app?vid=caccb556-2ad0-45b8-84b8-819024dd44e6","ios":"levelo://app?vid=caccb556-2ad0-45b8-84b8-819024dd44e6"},"vehicle_type_id":"4","last_reported":1746655816,"current_range_meters":16400,"station_id":"","pricing_plan_id":"cebpf4jnsgd1na2vs0mg"},{"bike_id":"5090961f-1c7d-4202-8794-ee3f3eb80c81","system_id":"levelo_inurba_marseille","lat":43.30506,"lon":5.39301,"is_reserved":false,"is_disabled":false,"rental_uris":{"android":"levelo://app?vid=5090961f-1c7d-4202-8794-ee3f3eb80c81","ios":"levelo://app?vid=5090961f-1c7d-4202-8794-ee3f3eb80c81"},"vehicle_type_id":"4","last_reported":1746655816,"current_range_meters":16400,"station_id":"","pricing_plan_id":"cebpf4jnsgd1na2vs0mg"},{"bike_id":"3650bc5d-bbf1-4b70-8bc7-3e009efba460","system_id":"levelo_inurba_marseille","lat":43.28561,"lon":5.39497,"is_reserved":false,"is_disabled":false,"rental_uris":{"android":"levelo://app?vid=3650bc5d-bbf1-4b70-8bc7-3e009efba460","ios":"levelo://app?vid=3650bc5d-bbf1-4b70-8bc7-3e009efba460"},"vehicle_type_id":"4","last_reported":1746655816,"current_range_meters":16400,"station_id":"ce4bh292rcd13ifvqdg0","pricing_plan_id":"cebpf4jnsgd1na2vs0mg"},{"bike_id":"36090ce0-6ed8-4071-9bef-710348e8f3d4","system_id":"levelo_inurba_marseille","lat":43.29429,"lon":5.39755,"is_reserved":false,"is_disabled":false,"rental_uris":{"android":"levelo://app?vid=36090ce0-6ed8-4071-9bef-710348e8f3d4","ios":"levelo://app?vid=36090ce0-6ed8-4071-9bef-710348e8f3d4"},"vehicle_type_id":"4","last_reported":1746655816,"current_range_meters":16400,"station_id":"ce4bh3h2rcd13ifvqdo0","pricing_plan_id":"cebpf4jnsgd1na2vs0mg"},{"bike_id":"8a35b817-8956-4602-a0c6-92a63fd5305c","system_id":"levelo_inurba_marseille","lat":43.28938,"lon":5.36412,"is_reserved":false,"is_disabled":false,"rental_uris":{"android":"levelo://app?vid=8a35b817-8956-4602-a0c6-92a63fd5305c","ios":"levelo://app?vid=8a35b817-8956-4602-a0c6-92a63fd5305c"},"vehicle_type_id":"4","last_reported":1746655816,"current_range_meters":16400,"station_id":"ce4bhc92rcd13ifvqetg","pricing_plan_id":"cebpf4jnsgd1na2vs0mg"},{"bike_id":"e35759c4-df2e-4d65-8a7e-d532a1287a63","system_id":"levelo_inurba_marseille","lat":43.2732,"lon":5.39085,"is_reserved":false,"is_disabled":false,"rental_uris":{"android":"levelo://app?vid=e35759c4-df2e-4d65-8a7e-d532a1287a63","ios":"levelo://app?vid=e35759c4-df2e-4d65-8a7e-d532a1287a63"},"vehicle_type_id":"4","last_reported":1746655816,"current_range_meters":16400,"station_id":"ce4bhgp2rcd13ifvqfe0","pricing_plan_id":"cebpf4jnsgd1na2vs0mg"},{"bike_id":"02d9cd67-e8df-407b-bacf-aeda0d44cb4b","system_id":"levelo_inurba_marseille","lat":43.27841,"lon":5.39209,"is_reserved":false,"is_disabled":false,"rental_uris":{"android":"levelo://app?vid=02d9cd67-e8df-407b-bacf-aeda0d44cb4b","ios":"levelo://app?vid=02d9cd67-e8df-407b-bacf-aeda0d44cb4b"},"vehicle_type_id":"4","last_reported":1746655816,"current_range_meters":16400,"station_id":"ce4bhjp2rcd13ifvqga0","pricing_plan_id":"cebpf4jnsgd1na2vs0mg"},{"bike_id":"ef7b5cc3-6baa-45d8-808d-68c2899d6f9a","system_id":"levelo_inurba_marseille","lat":43.24171,"lon":5.39713,"is_reserved":false,"is_disabled":false,"rental_uris":{"android":"levelo://app?vid=ef7b5cc3-6baa-45d8-808d-68c2899d6f9a","ios":"levelo://app?vid=ef7b5cc3-6baa-45d8-808d-68c2899d6f9a"},"vehicle_type_id":"4","last_reported":1746655816,"current_range_meters":16400,"station_id":"ce4bhn12rcd13ifvqgpg","pricing_plan_id":"cebpf4jnsgd1na2vs0mg"},{"bike_id":"05dc4990-e4e9-47ec-88a0-d6db56ee509e","system_id":"levelo_inurba_marseille","lat":43.31889,"lon":5.407251,"is_reserved":false,"is_disabled":false,"rental_uris":{"android":"levelo://app?vid=05dc4990-e4e9-47ec-88a0-d6db56ee509e","ios":"levelo://app?vid=05dc4990-e4e9-47ec-88a0-d6db56ee509e"},"vehicle_type_id":"4","last_reported":1746655816,"current_range_meters":16400,"station_id":"ce4bhq12rcd13ifvqhig","pricing_plan_id":"cebpf4jnsgd1na2vs0mg"},{"bike_id":"de9cec45-cb9d-4cbf-afe9-1c3bdf3b02f6","system_id":"levelo_inurba_marseille","lat":43.27369,"lon":5.36222,"is_reserved":false,"is_disabled":false,"rental_uris":{"android":"levelo://app?vid=de9cec45-cb9d-4cbf-afe9-1c3bdf3b02f6","ios":"levelo://app?vid=de9cec45-cb9d-4cbf-afe9-1c3bdf3b02f6"},"vehicle_type_id":"4","last_reported":1746655816,"current_range_meters":16800,"station_id":"ce4bhbh2rcd13ifvqeo0","pricing_plan_id":"cebpf4jnsgd1na2vs0mg"},{"bike_id":"c5f7834e-ce95-434e-af74-c58df4885ce5","system_id":"levelo_inurba_marseille","lat":43.28953,"lon":5.36396,"is_reserved":false,"is_disabled":false,"rental_uris":{"android":"levelo://app?vid=c5f7834e-ce95-434e-af74-c58df4885ce5","ios":"levelo://app?vid=c5f7834e-ce95-434e-af74-c58df4885ce5"},"vehicle_type_id":"4","last_reported":1746655816,"current_range_meters":16800,"station_id":"ce4bhc92rcd13ifvqetg","pricing_plan_id":"cebpf4jnsgd1na2vs0mg"},{"bike_id":"c59addc8-a412-4081-8a5d-85350323e794","system_id":"levelo_inurba_marseille","lat":43.32366,"lon":5.36755,"is_reserved":false,"is_disabled":false,"rental_uris":{"android":"levelo://app?vid=c59addc8-a412-4081-8a5d-85350323e794","ios":"levelo://app?vid=c59addc8-a412-4081-8a5d-85350323e794"},"vehicle_type_id":"4","last_reported":1746655816,"current_range_meters":16800,"station_id":"ce4bhsh2rcd13ifvqi2g","pricing_plan_id":"cebpf4jnsgd1na2vs0mg"},{"bike_id":"dba1415a-4028-406c-9a36-75764da7f367","system_id":"levelo_inurba_marseille","lat":43.31531,"lon":5.38035,"is_reserved":false,"is_disabled":false,"rental_uris":{"android":"levelo://app?vid=dba1415a-4028-406c-9a36-75764da7f367","ios":"levelo://app?vid=dba1415a-4028-406c-9a36-75764da7f367"},"vehicle_type_id":"4","last_reported":1746655816,"current_range_meters":16800,"station_id":"ce4bhsp2rcd13ifvqi50","pricing_plan_id":"cebpf4jnsgd1na2vs0mg"},{"bike_id":"6971f759-8594-489e-a8f6-9153c9a9c438","system_id":"levelo_inurba_marseille","lat":43.27699,"lon":5.41973,"is_reserved":false,"is_disabled":false,"rental_uris":{"android":"levelo://app?vid=6971f759-8594-489e-a8f6-9153c9a9c438","ios":"levelo://app?vid=6971f759-8594-489e-a8f6-9153c9a9c438"},"vehicle_type_id":"4","last_reported":1746655816,"current_range_meters":17200,"station_id":"","pricing_plan_id":"cebpf4jnsgd1na2vs0mg"},{"bike_id":"76d5ee98-f9f0-4532-904d-9bb230cf6ec0","system_id":"levelo_inurba_marseille","lat":43.31326,"lon":5.39687,"is_reserved":false,"is_disabled":false,"rental_uris":{"android":"levelo://app?vid=76d5ee98-f9f0-4532-904d-9bb230cf6ec0","ios":"levelo://app?vid=76d5ee98-f9f0-4532-904d-9bb230cf6ec0"},"vehicle_type_id":"4","last_reported":1746655816,"current_range_meters":17200,"station_id":"ce4bgvp2rcd13ifvqcu0","pricing_plan_id":"cebpf4jnsgd1na2vs0mg"},{"bike_id":"49e1edb5-3fad-4311-9de7-56cceb654a91","system_id":"levelo_inurba_marseille","lat":43.26804,"lon":5.40262,"is_reserved":false,"is_disabled":false,"rental_uris":{"android":"levelo://app?vid=49e1edb5-3fad-4311-9de7-56cceb654a91","ios":"levelo://app?vid=49e1edb5-3fad-4311-9de7-56cceb654a91"},"vehicle_type_id":"4","last_reported":1746655816,"current_range_meters":17200,"station_id":"ce501612rcd8frsf0b60","pricing_plan_id":"cebpf4jnsgd1na2vs0mg"},{"bike_id":"0e988669-e125-4f4a-888c-25b93392dd1e","system_id":"levelo_inurba_marseille","lat":43.28352,"lon":5.38101,"is_reserved":false,"is_disabled":false,"rental_uris":{"android":"levelo://app?vid=0e988669-e125-4f4a-888c-25b93392dd1e","ios":"levelo://app?vid=0e988669-e125-4f4a-888c-25b93392dd1e"},"vehicle_type_id":"4","last_reported":1746655816,"current_range_meters":17600,"station_id":"ce4bh412rcd13ifvqdr0","pricing_plan_id":"cebpf4jnsgd1na2vs0mg"},{"bike_id":"289eece8-ee7b-4bc2-b8ac-d879891b73e9","system_id":"levelo_inurba_marseille","lat":43.28726,"lon":5.36105,"is_reserved":false,"is_disabled":false,"rental_uris":{"android":"levelo://app?vid=289eece8-ee7b-4bc2-b8ac-d879891b73e9","ios":"levelo://app?vid=289eece8-ee7b-4bc2-b8ac-d879891b73e9"},"vehicle_type_id":"4","last_reported":1746655816,"current_range_meters":17600,"station_id":"cki0cbj6b192h4jlfktg","pricing_plan_id":"cebpf4jnsgd1na2vs0mg"},{"bike_id":"a60892ec-d65f-4ea1-a529-725b1e5fe55a","system_id":"levelo_inurba_marseille","lat":43.31075,"lon":5.38364,"is_reserved":false,"is_disabled":false,"rental_uris":{"android":"levelo://app?vid=a60892ec-d65f-4ea1-a529-725b1e5fe55a","ios":"levelo://app?vid=a60892ec-d65f-4ea1-a529-725b1e5fe55a"},"vehicle_type_id":"4","last_reported":1746655816,"current_range_meters":18000,"station_id":"ce4bgv92rcd13ifvqcr0","pricing_plan_id":"cebpf4jnsgd1na2vs0mg"},{"bike_id":"520259ba-639e-402c-a76f-8192f90eaead","system_id":"levelo_inurba_marseille","lat":43.30332,"lon":5.40428,"is_reserved":false,"is_disabled":false,"rental_uris":{"android":"levelo://app?vid=520259ba-639e-402c-a76f-8192f90eaead","ios":"levelo://app?vid=520259ba-639e-402c-a76f-8192f90eaead"},"vehicle_type_id":"4","last_reported":1746655816,"current_range_meters":18000,"station_id":"ce4bh012rcd13ifvqd10","pricing_plan_id":"cebpf4jnsgd1na2vs0mg"},{"bike_id":"b061b31b-81f3-4b7a-8a28-4619c718df98","system_id":"levelo_inurba_marseille","lat":43.29613,"lon":5.40574,"is_reserved":false,"is_disabled":false,"rental_uris":{"android":"levelo://app?vid=b061b31b-81f3-4b7a-8a28-4619c718df98","ios":"levelo://app?vid=b061b31b-81f3-4b7a-8a28-4619c718df98"},"vehicle_type_id":"4","last_reported":1746655816,"current_range_meters":18000,"station_id":"ce4bh0h2rcd13ifvqd60","pricing_plan_id":"cebpf4jnsgd1na2vs0mg"},{"bike_id":"cba9399e-d991-4631-881f-8bf1d2e05a93","system_id":"levelo_inurba_marseille","lat":43.30255,"lon":5.40062,"is_reserved":false,"is_disabled":false,"rental_uris":{"android":"levelo://app?vid=cba9399e-d991-4631-881f-8bf1d2e05a93","ios":"levelo://app?vid=cba9399e-d991-4631-881f-8bf1d2e05a93"},"vehicle_type_id":"4","last_reported":1746655816,"current_range_meters":18800,"station_id":"ce4bgvh2rcd13ifvqcs0","pricing_plan_id":"cebpf4jnsgd1na2vs0mg"},{"bike_id":"86b197b1-658c-40db-8b30-e30cbe42070a","system_id":"levelo_inurba_marseille","lat":43.27372,"lon":5.36248,"is_reserved":false,"is_disabled":false,"rental_uris":{"android":"levelo://app?vid=86b197b1-658c-40db-8b30-e30cbe42070a","ios":"levelo://app?vid=86b197b1-658c-40db-8b30-e30cbe42070a"},"vehicle_type_id":"4","last_reported":1746655816,"current_range_meters":18800,"station_id":"ce4bhbh2rcd13ifvqeo0","pricing_plan_id":"cebpf4jnsgd1na2vs0mg"},{"bike_id":"0260e567-a895-4700-b31b-24e894a79118","system_id":"levelo_inurba_marseille","lat":43.27954,"lon":5.41047,"is_reserved":false,"is_disabled":false,"rental_uris":{"android":"levelo://app?vid=0260e567-a895-4700-b31b-24e894a79118","ios":"levelo://app?vid=0260e567-a895-4700-b31b-24e894a79118"},"vehicle_type_id":"4","last_reported":1746655816,"current_range_meters":18800,"station_id":"ce4bhnp2rcd13ifvqh0g","pricing_plan_id":"cebpf4jnsgd1na2vs0mg"},{"bike_id":"ad3912e1-02bc-450f-9f15-6e4766049115","system_id":"levelo_inurba_marseille","lat":43.29553,"lon":5.42289,"is_reserved":false,"is_disabled":false,"rental_uris":{"android":"levelo://app?vid=ad3912e1-02bc-450f-9f15-6e4766049115","ios":"levelo://app?vid=ad3912e1-02bc-450f-9f15-6e4766049115"},"vehicle_type_id":"4","last_reported":1746655816,"current_range_meters":18800,"station_id":"ce4bhph2rcd13ifvqhdg","pricing_plan_id":"cebpf4jnsgd1na2vs0mg"},{"bike_id":"bb602378-239a-441f-a2f7-f8a4e2cef444","system_id":"levelo_inurba_marseille","lat":43.324799,"lon":5.365716,"is_reserved":false,"is_disabled":false,"rental_uris":{"android":"levelo://app?vid=bb602378-239a-441f-a2f7-f8a4e2cef444","ios":"levelo://app?vid=bb602378-239a-441f-a2f7-f8a4e2cef444"},"vehicle_type_id":"4","last_reported":1746655816,"current_range_meters":18800,"station_id":"ce4bhs12rcd13ifvqhvg","pricing_plan_id":"cebpf4jnsgd1na2vs0mg"},{"bike_id":"70a29a45-574c-4ff1-aca3-740aa0e705be","system_id":"levelo_inurba_marseille","lat":43.24178,"lon":5.36377,"is_reserved":false,"is_disabled":false,"rental_uris":{"android":"levelo://app?vid=70a29a45-574c-4ff1-aca3-740aa0e705be","ios":"levelo://app?vid=70a29a45-574c-4ff1-aca3-740aa0e705be"},"vehicle_type_id":"4","last_reported":1746655816,"current_range_meters":18800,"station_id":"cpo36qri1sfpv3e86is0","pricing_plan_id":"cebpf4jnsgd1na2vs0mg"},{"bike_id":"86faaeb0-89f8-42b9-be93-a34d16b7bcf7","system_id":"levelo_inurba_marseille","lat":43.301,"lon":5.37022,"is_reserved":false,"is_disabled":false,"rental_uris":{"android":"levelo://app?vid=86faaeb0-89f8-42b9-be93-a34d16b7bcf7","ios":"levelo://app?vid=86faaeb0-89f8-42b9-be93-a34d16b7bcf7"},"vehicle_type_id":"4","last_reported":1746655816,"current_range_meters":19200,"station_id":"","pricing_plan_id":"cebpf4jnsgd1na2vs0mg"},{"bike_id":"2f6b1765-d22e-4cb7-9d62-a6594f1bdc05","system_id":"levelo_inurba_marseille","lat":43.28929,"lon":5.38394,"is_reserved":false,"is_disabled":false,"rental_uris":{"android":"levelo://app?vid=2f6b1765-d22e-4cb7-9d62-a6594f1bdc05","ios":"levelo://app?vid=2f6b1765-d22e-4cb7-9d62-a6594f1bdc05"},"vehicle_type_id":"4","last_reported":1746655816,"current_range_meters":19200,"station_id":"ce4bh612rcd13ifvqe6g","pricing_plan_id":"cebpf4jnsgd1na2vs0mg"},{"bike_id":"da7a9321-f13f-4027-8af6-2f810c42f7c8","system_id":"levelo_inurba_marseille","lat":43.31757,"lon":5.39011,"is_reserved":false,"is_disabled":false,"rental_uris":{"android":"levelo://app?vid=da7a9321-f13f-4027-8af6-2f810c42f7c8","ios":"levelo://app?vid=da7a9321-f13f-4027-8af6-2f810c42f7c8"},"vehicle_type_id":"4","last_reported":1746655816,"current_range_meters":19200,"station_id":"ce4bhqp2rcd13ifvqhng","pricing_plan_id":"cebpf4jnsgd1na2vs0mg"},{"bike_id":"084222e8-109d-40e5-bbed-f1d8a90c69e1","system_id":"levelo_inurba_marseille","lat":43.30222,"lon":5.39463,"is_reserved":false,"is_disabled":false,"rental_uris":{"android":"levelo://app?vid=084222e8-109d-40e5-bbed-f1d8a90c69e1","ios":"levelo://app?vid=084222e8-109d-40e5-bbed-f1d8a90c69e1"},"vehicle_type_id":"4","last_reported":1746655816,"current_range_meters":19600,"station_id":"ce4bh0p2rcd13ifvqd70","pricing_plan_id":"cebpf4jnsgd1na2vs0mg"},{"bike_id":"4fed92a5-37ca-48d5-b5f6-804b16e78467","system_id":"levelo_inurba_marseille","lat":43.26955,"lon":5.38627,"is_reserved":false,"is_disabled":false,"rental_uris":{"android":"levelo://app?vid=4fed92a5-37ca-48d5-b5f6-804b16e78467","ios":"levelo://app?vid=4fed92a5-37ca-48d5-b5f6-804b16e78467"},"vehicle_type_id":"4","last_reported":1746655816,"current_range_meters":19600,"station_id":"ce4bhh92rcd13ifvqfh0","pricing_plan_id":"cebpf4jnsgd1na2vs0mg"},{"bike_id":"9f7f6004-dda5-4819-9fde-caa09cde3d6b","system_id":"levelo_inurba_marseille","lat":43.27569,"lon":5.38409,"is_reserved":false,"is_disabled":false,"rental_uris":{"android":"levelo://app?vid=9f7f6004-dda5-4819-9fde-caa09cde3d6b","ios":"levelo://app?vid=9f7f6004-dda5-4819-9fde-caa09cde3d6b"},"vehicle_type_id":"4","last_reported":1746655816,"current_range_meters":19600,"station_id":"ce4bhh92rcd13ifvqfi0","pricing_plan_id":"cebpf4jnsgd1na2vs0mg"},{"bike_id":"d937d3d4-2f84-4572-89f6-55b5b0568287","system_id":"levelo_inurba_marseille","lat":43.27946,"lon":5.4104,"is_reserved":false,"is_disabled":false,"rental_uris":{"android":"levelo://app?vid=d937d3d4-2f84-4572-89f6-55b5b0568287","ios":"levelo://app?vid=d937d3d4-2f84-4572-89f6-55b5b0568287"},"vehicle_type_id":"4","last_reported":1746655816,"current_range_meters":19600,"station_id":"ce4bhnp2rcd13ifvqh0g","pricing_plan_id":"cebpf4jnsgd1na2vs0mg"},{"bike_id":"63019037-0b3d-4533-859d-3368230f1a08","system_id":"levelo_inurba_marseille","lat":43.31884,"lon":5.40728,"is_reserved":false,"is_disabled":false,"rental_uris":{"android":"levelo://app?vid=63019037-0b3d-4533-859d-3368230f1a08","ios":"levelo://app?vid=63019037-0b3d-4533-859d-3368230f1a08"},"vehicle_type_id":"4","last_reported":1746655816,"current_range_meters":19600,"station_id":"ce4bhq12rcd13ifvqhig","pricing_plan_id":"cebpf4jnsgd1na2vs0mg"},{"bike_id":"16d82653-e2e5-4531-a384-7902e244f0cf","system_id":"levelo_inurba_marseille","lat":43.22494,"lon":5.34797,"is_reserved":false,"is_disabled":false,"rental_uris":{"android":"levelo://app?vid=16d82653-e2e5-4531-a384-7902e244f0cf","ios":"levelo://app?vid=16d82653-e2e5-4531-a384-7902e244f0cf"},"vehicle_type_id":"4","last_reported":1746655816,"current_range_meters":19600,"station_id":"st_cvj5dfep6f1abm77gieg","pricing_plan_id":"cebpf4jnsgd1na2vs0mg"},{"bike_id":"89b5c51b-cd9c-475c-ba7a-726b12d22f75","system_id":"levelo_inurba_marseille","lat":43.21191,"lon":5.35069,"is_reserved":false,"is_disabled":false,"rental_uris":{"android":"levelo://app?vid=89b5c51b-cd9c-475c-ba7a-726b12d22f75","ios":"levelo://app?vid=89b5c51b-cd9c-475c-ba7a-726b12d22f75"},"vehicle_type_id":"4","last_reported":1746655816,"current_range_meters":19600,"station_id":"st_cvj6sg6p6f1abm77japg","pricing_plan_id":"cebpf4jnsgd1na2vs0mg"},{"bike_id":"545f7335-f587-48c6-bdc0-fb5f2925857f","system_id":"levelo_inurba_marseille","lat":43.310686,"lon":5.383546,"is_reserved":false,"is_disabled":false,"rental_uris":{"android":"levelo://app?vid=545f7335-f587-48c6-bdc0-fb5f2925857f","ios":"levelo://app?vid=545f7335-f587-48c6-bdc0-fb5f2925857f"},"vehicle_type_id":"4","last_reported":1746655816,"current_range_meters":20000,"station_id":"ce4bgv92rcd13ifvqcr0","pricing_plan_id":"cebpf4jnsgd1na2vs0mg"},{"bike_id":"2eeb8438-1893-48c7-9af0-59391ac079d8","system_id":"levelo_inurba_marseille","lat":43.31684,"lon":5.40468,"is_reserved":false,"is_disabled":false,"rental_uris":{"android":"levelo://app?vid=2eeb8438-1893-48c7-9af0-59391ac079d8","ios":"levelo://app?vid=2eeb8438-1893-48c7-9af0-59391ac079d8"},"vehicle_type_id":"4","last_reported":1746655816,"current_range_meters":20000,"station_id":"ce4bh012rcd13ifvqd00","pricing_plan_id":"cebpf4jnsgd1na2vs0mg"},{"bike_id":"ff1b2b69-d803-4a18-934f-9a60648b115c","system_id":"levelo_inurba_marseille","lat":43.274203,"lon":5.394185,"is_reserved":false,"is_disabled":false,"rental_uris":{"android":"levelo://app?vid=ff1b2b69-d803-4a18-934f-9a60648b115c","ios":"levelo://app?vid=ff1b2b69-d803-4a18-934f-9a60648b115c"},"vehicle_type_id":"4","last_reported":1746655816,"current_range_meters":20000,"station_id":"ce4bhdp2rcd13ifvqf20","pricing_plan_id":"cebpf4jnsgd1na2vs0mg"},{"bike_id":"3cac0407-9710-44bd-a04a-af262a1048b3","system_id":"levelo_inurba_marseille","lat":43.2815,"lon":5.42632,"is_reserved":false,"is_disabled":false,"rental_uris":{"android":"levelo://app?vid=3cac0407-9710-44bd-a04a-af262a1048b3","ios":"levelo://app?vid=3cac0407-9710-44bd-a04a-af262a1048b3"},"vehicle_type_id":"4","last_reported":1746655816,"current_range_meters":20000,"station_id":"ce4bhnh2rcd13ifvqgug","pricing_plan_id":"cebpf4jnsgd1na2vs0mg"},{"bike_id":"ff807334-3ad3-4e40-bbde-648eb2b1c45b","system_id":"levelo_inurba_marseille","lat":43.21184,"lon":5.35093,"is_reserved":false,"is_disabled":false,"rental_uris":{"android":"levelo://app?vid=ff807334-3ad3-4e40-bbde-648eb2b1c45b","ios":"levelo://app?vid=ff807334-3ad3-4e40-bbde-648eb2b1c45b"},"vehicle_type_id":"4","last_reported":1746655816,"current_range_meters":20000,"station_id":"st_cvj6sg6p6f1abm77japg","pricing_plan_id":"cebpf4jnsgd1na2vs0mg"},{"bike_id":"08f13c7a-2eb9-4abf-8400-826a57aabaef","system_id":"levelo_inurba_marseille","lat":43.31693,"lon":5.37236,"is_reserved":false,"is_disabled":false,"rental_uris":{"android":"levelo://app?vid=08f13c7a-2eb9-4abf-8400-826a57aabaef","ios":"levelo://app?vid=08f13c7a-2eb9-4abf-8400-826a57aabaef"},"vehicle_type_id":"4","last_reported":1746655816,"current_range_meters":20400,"station_id":"","pricing_plan_id":"cebpf4jnsgd1na2vs0mg"},{"bike_id":"8d07c3e4-4780-432f-81a8-525c811272d6","system_id":"levelo_inurba_marseille","lat":43.314484,"lon":5.373115,"is_reserved":false,"is_disabled":false,"rental_uris":{"android":"levelo://app?vid=8d07c3e4-4780-432f-81a8-525c811272d6","ios":"levelo://app?vid=8d07c3e4-4780-432f-81a8-525c811272d6"},"vehicle_type_id":"4","last_reported":1746655816,"current_range_meters":20400,"station_id":"ce4bgt12rcd13ifvqcd0","pricing_plan_id":"cebpf4jnsgd1na2vs0mg"},{"bike_id":"2ef07337-3100-4a30-8930-732c4bb9091e","system_id":"levelo_inurba_marseille","lat":43.303293,"lon":5.404328,"is_reserved":false,"is_disabled":false,"rental_uris":{"android":"levelo://app?vid=2ef07337-3100-4a30-8930-732c4bb9091e","ios":"levelo://app?vid=2ef07337-3100-4a30-8930-732c4bb9091e"},"vehicle_type_id":"4","last_reported":1746655816,"current_range_meters":20400,"station_id":"ce4bh012rcd13ifvqd10","pricing_plan_id":"cebpf4jnsgd1na2vs0mg"},{"bike_id":"caade901-7bef-49d5-8e81-6d84ccc017d3","system_id":"levelo_inurba_marseille","lat":43.28865,"lon":5.39322,"is_reserved":false,"is_disabled":false,"rental_uris":{"android":"levelo://app?vid=caade901-7bef-49d5-8e81-6d84ccc017d3","ios":"levelo://app?vid=caade901-7bef-49d5-8e81-6d84ccc017d3"},"vehicle_type_id":"4","last_reported":1746655816,"current_range_meters":20400,"station_id":"ce4bh2p2rcd13ifvqdi0","pricing_plan_id":"cebpf4jnsgd1na2vs0mg"},{"bike_id":"41c629f7-6203-40b7-b2b0-ff3294fffbc2","system_id":"levelo_inurba_marseille","lat":43.292782,"lon":5.401225,"is_reserved":false,"is_disabled":false,"rental_uris":{"android":"levelo://app?vid=41c629f7-6203-40b7-b2b0-ff3294fffbc2","ios":"levelo://app?vid=41c629f7-6203-40b7-b2b0-ff3294fffbc2"},"vehicle_type_id":"4","last_reported":1746655816,"current_range_meters":20400,"station_id":"ce4bh312rcd13ifvqdk0","pricing_plan_id":"cebpf4jnsgd1na2vs0mg"},{"bike_id":"a6f7d5c6-b787-4cad-b436-0dc6a7f8207b","system_id":"levelo_inurba_marseille","lat":43.306,"lon":5.37224,"is_reserved":false,"is_disabled":false,"rental_uris":{"android":"levelo://app?vid=a6f7d5c6-b787-4cad-b436-0dc6a7f8207b","ios":"levelo://app?vid=a6f7d5c6-b787-4cad-b436-0dc6a7f8207b"},"vehicle_type_id":"4","last_reported":1746655816,"current_range_meters":20800,"station_id":"ce4bgqh2rcd13ifvqc4g","pricing_plan_id":"cebpf4jnsgd1na2vs0mg"},{"bike_id":"ff2138b3-6002-4baa-a4d5-7441f041dff3","system_id":"levelo_inurba_marseille","lat":43.27429,"lon":5.39417,"is_reserved":false,"is_disabled":false,"rental_uris":{"android":"levelo://app?vid=ff2138b3-6002-4baa-a4d5-7441f041dff3","ios":"levelo://app?vid=ff2138b3-6002-4baa-a4d5-7441f041dff3"},"vehicle_type_id":"4","last_reported":1746655816,"current_range_meters":20800,"station_id":"ce4bhdp2rcd13ifvqf20","pricing_plan_id":"cebpf4jnsgd1na2vs0mg"},{"bike_id":"5f2f64f2-fc04-4543-b21b-53f74a82bad6","system_id":"levelo_inurba_marseille","lat":43.24805,"lon":5.3745,"is_reserved":false,"is_disabled":false,"rental_uris":{"android":"levelo://app?vid=5f2f64f2-fc04-4543-b21b-53f74a82bad6","ios":"levelo://app?vid=5f2f64f2-fc04-4543-b21b-53f74a82bad6"},"vehicle_type_id":"4","last_reported":1746655816,"current_range_meters":20800,"station_id":"ce4bhgh2rcd13ifvqfb0","pricing_plan_id":"cebpf4jnsgd1na2vs0mg"},{"bike_id":"c821e32e-d925-441c-80d2-d5a984744aba","system_id":"levelo_inurba_marseille","lat":43.21206,"lon":5.3506,"is_reserved":false,"is_disabled":false,"rental_uris":{"android":"levelo://app?vid=c821e32e-d925-441c-80d2-d5a984744aba","ios":"levelo://app?vid=c821e32e-d925-441c-80d2-d5a984744aba"},"vehicle_type_id":"4","last_reported":1746655816,"current_range_meters":20800,"station_id":"st_cvj6sg6p6f1abm77japg","pricing_plan_id":"cebpf4jnsgd1na2vs0mg"},{"bike_id":"2ea80854-b581-4d73-b0aa-99fa23f0aaa8","system_id":"levelo_inurba_marseille","lat":43.30297,"lon":5.39209,"is_reserved":false,"is_disabled":false,"rental_uris":{"android":"levelo://app?vid=2ea80854-b581-4d73-b0aa-99fa23f0aaa8","ios":"levelo://app?vid=2ea80854-b581-4d73-b0aa-99fa23f0aaa8"},"vehicle_type_id":"4","last_reported":1746655816,"current_range_meters":21600,"station_id":"ce4bgkh2rcd13ifvqbk0","pricing_plan_id":"cebpf4jnsgd1na2vs0mg"},{"bike_id":"90dd7ece-e0e3-4e3f-8585-4f4f345a0f96","system_id":"levelo_inurba_marseille","lat":43.3169,"lon":5.40483,"is_reserved":false,"is_disabled":false,"rental_uris":{"android":"levelo://app?vid=90dd7ece-e0e3-4e3f-8585-4f4f345a0f96","ios":"levelo://app?vid=90dd7ece-e0e3-4e3f-8585-4f4f345a0f96"},"vehicle_type_id":"4","last_reported":1746655816,"current_range_meters":21600,"station_id":"ce4bh012rcd13ifvqd00","pricing_plan_id":"cebpf4jnsgd1na2vs0mg"},{"bike_id":"c00b4dc3-faff-4d5a-88c8-7b701ca8bbe6","system_id":"levelo_inurba_marseille","lat":43.31691,"lon":5.40481,"is_reserved":false,"is_disabled":false,"rental_uris":{"android":"levelo://app?vid=c00b4dc3-faff-4d5a-88c8-7b701ca8bbe6","ios":"levelo://app?vid=c00b4dc3-faff-4d5a-88c8-7b701ca8bbe6"},"vehicle_type_id":"4","last_reported":1746655816,"current_range_meters":21600,"station_id":"ce4bh012rcd13ifvqd00","pricing_plan_id":"cebpf4jnsgd1na2vs0mg"},{"bike_id":"ba1723d3-a795-4b58-8956-7323d9cc69e0","system_id":"levelo_inurba_marseille","lat":43.29513,"lon":5.39398,"is_reserved":false,"is_disabled":false,"rental_uris":{"android":"levelo://app?vid=ba1723d3-a795-4b58-8956-7323d9cc69e0","ios":"levelo://app?vid=ba1723d3-a795-4b58-8956-7323d9cc69e0"},"vehicle_type_id":"4","last_reported":1746655816,"current_range_meters":21600,"station_id":"ce4bh292rcd13ifvqdf0","pricing_plan_id":"cebpf4jnsgd1na2vs0mg"},{"bike_id":"7900c13b-b9d2-434d-a02f-fd861afb443b","system_id":"levelo_inurba_marseille","lat":43.28461,"lon":5.35883,"is_reserved":false,"is_disabled":false,"rental_uris":{"android":"levelo://app?vid=7900c13b-b9d2-434d-a02f-fd861afb443b","ios":"levelo://app?vid=7900c13b-b9d2-434d-a02f-fd861afb443b"},"vehicle_type_id":"4","last_reported":1746655816,"current_range_meters":21600,"station_id":"ce4bhah2rcd13ifvqei0","pricing_plan_id":"cebpf4jnsgd1na2vs0mg"},{"bike_id":"82b86ea7-e1b8-4f5a-ad95-98f75a17962e","system_id":"levelo_inurba_marseille","lat":43.27945,"lon":5.4104,"is_reserved":false,"is_disabled":false,"rental_uris":{"android":"levelo://app?vid=82b86ea7-e1b8-4f5a-ad95-98f75a17962e","ios":"levelo://app?vid=82b86ea7-e1b8-4f5a-ad95-98f75a17962e"},"vehicle_type_id":"4","last_reported":1746655816,"current_range_meters":21600,"station_id":"ce4bhnp2rcd13ifvqh0g","pricing_plan_id":"cebpf4jnsgd1na2vs0mg"},{"bike_id":"8a868461-332c-4739-8cb3-02de99b2b6ef","system_id":"levelo_inurba_marseille","lat":43.27998,"lon":5.4001,"is_reserved":false,"is_disabled":false,"rental_uris":{"android":"levelo://app?vid=8a868461-332c-4739-8cb3-02de99b2b6ef","ios":"levelo://app?vid=8a868461-332c-4739-8cb3-02de99b2b6ef"},"vehicle_type_id":"4","last_reported":1746655816,"current_range_meters":21600,"station_id":"ce4bho92rcd13ifvqh4g","pricing_plan_id":"cebpf4jnsgd1na2vs0mg"},{"bike_id":"c05e539f-dc69-4086-a309-daffa231390b","system_id":"levelo_inurba_marseille","lat":43.29713,"lon":5.3661,"is_reserved":false,"is_disabled":false,"rental_uris":{"android":"levelo://app?vid=c05e539f-dc69-4086-a309-daffa231390b","ios":"levelo://app?vid=c05e539f-dc69-4086-a309-daffa231390b"},"vehicle_type_id":"4","last_reported":1746655816,"current_range_meters":22000,"station_id":"ce4bgn12rcd13ifvqbt0","pricing_plan_id":"cebpf4jnsgd1na2vs0mg"},{"bike_id":"8c75ffef-8d17-478e-a90b-7dfa29b86a71","system_id":"levelo_inurba_marseille","lat":43.2956,"lon":5.42289,"is_reserved":false,"is_disabled":false,"rental_uris":{"android":"levelo://app?vid=8c75ffef-8d17-478e-a90b-7dfa29b86a71","ios":"levelo://app?vid=8c75ffef-8d17-478e-a90b-7dfa29b86a71"},"vehicle_type_id":"4","last_reported":1746655816,"current_range_meters":22000,"station_id":"ce4bhph2rcd13ifvqhdg","pricing_plan_id":"cebpf4jnsgd1na2vs0mg"},{"bike_id":"f3e9ab38-3242-4aa5-83f9-529a16ccf936","system_id":"levelo_inurba_marseille","lat":43.22504,"lon":5.34778,"is_reserved":false,"is_disabled":false,"rental_uris":{"android":"levelo://app?vid=f3e9ab38-3242-4aa5-83f9-529a16ccf936","ios":"levelo://app?vid=f3e9ab38-3242-4aa5-83f9-529a16ccf936"},"vehicle_type_id":"4","last_reported":1746655816,"current_range_meters":22000,"station_id":"st_cvj5dfep6f1abm77gieg","pricing_plan_id":"cebpf4jnsgd1na2vs0mg"},{"bike_id":"f0deccb7-a270-4fd4-a51e-39844e0ae45a","system_id":"levelo_inurba_marseille","lat":43.34762,"lon":5.34946,"is_reserved":false,"is_disabled":false,"rental_uris":{"android":"levelo://app?vid=f0deccb7-a270-4fd4-a51e-39844e0ae45a","ios":"levelo://app?vid=f0deccb7-a270-4fd4-a51e-39844e0ae45a"},"vehicle_type_id":"4","last_reported":1746655816,"current_range_meters":22400,"station_id":"","pricing_plan_id":"cebpf4jnsgd1na2vs0mg"},{"bike_id":"73fa15f9-c546-4ce3-9e60-08d8cb3e47b0","system_id":"levelo_inurba_marseille","lat":43.30303,"lon":5.36882,"is_reserved":false,"is_disabled":false,"rental_uris":{"android":"levelo://app?vid=73fa15f9-c546-4ce3-9e60-08d8cb3e47b0","ios":"levelo://app?vid=73fa15f9-c546-4ce3-9e60-08d8cb3e47b0"},"vehicle_type_id":"4","last_reported":1746655816,"current_range_meters":22400,"station_id":"ce4bgqh2rcd13ifvqc5g","pricing_plan_id":"cebpf4jnsgd1na2vs0mg"},{"bike_id":"5bfe63b9-ecc2-4be2-9709-511877d985d6","system_id":"levelo_inurba_marseille","lat":43.30651,"lon":5.4008,"is_reserved":false,"is_disabled":false,"rental_uris":{"android":"levelo://app?vid=5bfe63b9-ecc2-4be2-9709-511877d985d6","ios":"levelo://app?vid=5bfe63b9-ecc2-4be2-9709-511877d985d6"},"vehicle_type_id":"4","last_reported":1746655816,"current_range_meters":22400,"station_id":"ce4bh112rcd13ifvqda0","pricing_plan_id":"cebpf4jnsgd1na2vs0mg"},{"bike_id":"02f4c14b-7539-48d9-8b3d-667d4a185f57","system_id":"levelo_inurba_marseille","lat":43.2846,"lon":5.35882,"is_reserved":false,"is_disabled":false,"rental_uris":{"android":"levelo://app?vid=02f4c14b-7539-48d9-8b3d-667d4a185f57","ios":"levelo://app?vid=02f4c14b-7539-48d9-8b3d-667d4a185f57"},"vehicle_type_id":"4","last_reported":1746655816,"current_range_meters":22400,"station_id":"ce4bhah2rcd13ifvqei0","pricing_plan_id":"cebpf4jnsgd1na2vs0mg"},{"bike_id":"3aafa2ea-a055-4d4b-8e99-fb74282731e1","system_id":"levelo_inurba_marseille","lat":43.27919,"lon":5.39575,"is_reserved":false,"is_disabled":false,"rental_uris":{"android":"levelo://app?vid=3aafa2ea-a055-4d4b-8e99-fb74282731e1","ios":"levelo://app?vid=3aafa2ea-a055-4d4b-8e99-fb74282731e1"},"vehicle_type_id":"4","last_reported":1746655816,"current_range_meters":22400,"station_id":"ce4bhf92rcd13ifvqf40","pricing_plan_id":"cebpf4jnsgd1na2vs0mg"},{"bike_id":"f73d450b-fde6-4898-99b1-916875a407c6","system_id":"levelo_inurba_marseille","lat":43.22505,"lon":5.34786,"is_reserved":false,"is_disabled":false,"rental_uris":{"android":"levelo://app?vid=f73d450b-fde6-4898-99b1-916875a407c6","ios":"levelo://app?vid=f73d450b-fde6-4898-99b1-916875a407c6"},"vehicle_type_id":"4","last_reported":1746655816,"current_range_meters":22400,"station_id":"st_cvj5dfep6f1abm77gieg","pricing_plan_id":"cebpf4jnsgd1na2vs0mg"},{"bike_id":"8edaf248-e5a8-46ea-a005-53ebe6e2f2b1","system_id":"levelo_inurba_marseille","lat":43.28469,"lon":5.35901,"is_reserved":false,"is_disabled":false,"rental_uris":{"android":"levelo://app?vid=8edaf248-e5a8-46ea-a005-53ebe6e2f2b1","ios":"levelo://app?vid=8edaf248-e5a8-46ea-a005-53ebe6e2f2b1"},"vehicle_type_id":"4","last_reported":1746655816,"current_range_meters":22800,"station_id":"ce4bhah2rcd13ifvqei0","pricing_plan_id":"cebpf4jnsgd1na2vs0mg"},{"bike_id":"5eff3279-85d7-441c-9830-1c46804847d1","system_id":"levelo_inurba_marseille","lat":43.28258,"lon":5.35066,"is_reserved":false,"is_disabled":false,"rental_uris":{"android":"levelo://app?vid=5eff3279-85d7-441c-9830-1c46804847d1","ios":"levelo://app?vid=5eff3279-85d7-441c-9830-1c46804847d1"},"vehicle_type_id":"4","last_reported":1746655816,"current_range_meters":22800,"station_id":"ce4bhbp2rcd13ifvqerg","pricing_plan_id":"cebpf4jnsgd1na2vs0mg"},{"bike_id":"8e39ba1e-b4e2-493b-ad88-95cef55ba594","system_id":"levelo_inurba_marseille","lat":43.248028,"lon":5.374523,"is_reserved":false,"is_disabled":false,"rental_uris":{"android":"levelo://app?vid=8e39ba1e-b4e2-493b-ad88-95cef55ba594","ios":"levelo://app?vid=8e39ba1e-b4e2-493b-ad88-95cef55ba594"},"vehicle_type_id":"4","last_reported":1746655816,"current_range_meters":22800,"station_id":"ce4bhgh2rcd13ifvqfb0","pricing_plan_id":"cebpf4jnsgd1na2vs0mg"},{"bike_id":"a270eeb3-ac4c-4af0-98ca-06d8944e27c9","system_id":"levelo_inurba_marseille","lat":43.27953,"lon":5.41043,"is_reserved":false,"is_disabled":false,"rental_uris":{"android":"levelo://app?vid=a270eeb3-ac4c-4af0-98ca-06d8944e27c9","ios":"levelo://app?vid=a270eeb3-ac4c-4af0-98ca-06d8944e27c9"},"vehicle_type_id":"4","last_reported":1746655816,"current_range_meters":22800,"station_id":"ce4bhnp2rcd13ifvqh0g","pricing_plan_id":"cebpf4jnsgd1na2vs0mg"},{"bike_id":"3585657e-9b26-48ff-bc73-7b6e775f578e","system_id":"levelo_inurba_marseille","lat":43.27953,"lon":5.41065,"is_reserved":false,"is_disabled":false,"rental_uris":{"android":"levelo://app?vid=3585657e-9b26-48ff-bc73-7b6e775f578e","ios":"levelo://app?vid=3585657e-9b26-48ff-bc73-7b6e775f578e"},"vehicle_type_id":"4","last_reported":1746655816,"current_range_meters":22800,"station_id":"ce4bhnp2rcd13ifvqh0g","pricing_plan_id":"cebpf4jnsgd1na2vs0mg"},{"bike_id":"ed3997a9-f42b-4f90-9e12-6614d4a0cbc5","system_id":"levelo_inurba_marseille","lat":43.330226,"lon":5.390354,"is_reserved":false,"is_disabled":false,"rental_uris":{"android":"levelo://app?vid=ed3997a9-f42b-4f90-9e12-6614d4a0cbc5","ios":"levelo://app?vid=ed3997a9-f42b-4f90-9e12-6614d4a0cbc5"},"vehicle_type_id":"4","last_reported":1746655816,"current_range_meters":22800,"station_id":"ce4bhr92rcd13ifvqhrg","pricing_plan_id":"cebpf4jnsgd1na2vs0mg"},{"bike_id":"da3aa9b6-280e-441a-9902-7b55cb9fe3a3","system_id":"levelo_inurba_marseille","lat":43.32343,"lon":5.36728,"is_reserved":false,"is_disabled":false,"rental_uris":{"android":"levelo://app?vid=da3aa9b6-280e-441a-9902-7b55cb9fe3a3","ios":"levelo://app?vid=da3aa9b6-280e-441a-9902-7b55cb9fe3a3"},"vehicle_type_id":"4","last_reported":1746655816,"current_range_meters":22800,"station_id":"ce4bhsh2rcd13ifvqi2g","pricing_plan_id":"cebpf4jnsgd1na2vs0mg"},{"bike_id":"03dd2f02-5982-4369-ae58-8d4d0d4757ae","system_id":"levelo_inurba_marseille","lat":43.32065,"lon":5.41544,"is_reserved":false,"is_disabled":false,"rental_uris":{"android":"levelo://app?vid=03dd2f02-5982-4369-ae58-8d4d0d4757ae","ios":"levelo://app?vid=03dd2f02-5982-4369-ae58-8d4d0d4757ae"},"vehicle_type_id":"4","last_reported":1746655816,"current_range_meters":23200,"station_id":"ce4bhq92rcd13ifvqhkg","pricing_plan_id":"cebpf4jnsgd1na2vs0mg"},{"bike_id":"5a66b016-8425-4ea9-ad57-b6177cc96802","system_id":"levelo_inurba_marseille","lat":43.31586,"lon":5.38889,"is_reserved":false,"is_disabled":false,"rental_uris":{"android":"levelo://app?vid=5a66b016-8425-4ea9-ad57-b6177cc96802","ios":"levelo://app?vid=5a66b016-8425-4ea9-ad57-b6177cc96802"},"vehicle_type_id":"4","last_reported":1746655816,"current_range_meters":24000,"station_id":"","pricing_plan_id":"cebpf4jnsgd1na2vs0mg"},{"bike_id":"7f44ecec-fdf5-4a1f-8e40-747c135922e9","system_id":"levelo_inurba_marseille","lat":43.30549,"lon":5.36675,"is_reserved":false,"is_disabled":false,"rental_uris":{"android":"levelo://app?vid=7f44ecec-fdf5-4a1f-8e40-747c135922e9","ios":"levelo://app?vid=7f44ecec-fdf5-4a1f-8e40-747c135922e9"},"vehicle_type_id":"4","last_reported":1746655816,"current_range_meters":24000,"station_id":"","pricing_plan_id":"cebpf4jnsgd1na2vs0mg"},{"bike_id":"4df8a4e8-dd99-4f01-b100-172a397a7187","system_id":"levelo_inurba_marseille","lat":43.29251,"lon":5.40907,"is_reserved":false,"is_disabled":false,"rental_uris":{"android":"levelo://app?vid=4df8a4e8-dd99-4f01-b100-172a397a7187","ios":"levelo://app?vid=4df8a4e8-dd99-4f01-b100-172a397a7187"},"vehicle_type_id":"4","last_reported":1746655816,"current_range_meters":24000,"station_id":"ce4bh192rcd13ifvqdc0","pricing_plan_id":"cebpf4jnsgd1na2vs0mg"},{"bike_id":"6405ff0b-ba58-4a55-9b02-a87a7275238e","system_id":"levelo_inurba_marseille","lat":43.27369,"lon":5.36249,"is_reserved":false,"is_disabled":false,"rental_uris":{"android":"levelo://app?vid=6405ff0b-ba58-4a55-9b02-a87a7275238e","ios":"levelo://app?vid=6405ff0b-ba58-4a55-9b02-a87a7275238e"},"vehicle_type_id":"4","last_reported":1746655816,"current_range_meters":24000,"station_id":"ce4bhbh2rcd13ifvqeo0","pricing_plan_id":"cebpf4jnsgd1na2vs0mg"},{"bike_id":"37f2c22e-dc87-4650-ae08-b53837cd376a","system_id":"levelo_inurba_marseille","lat":43.23965,"lon":5.3663,"is_reserved":false,"is_disabled":false,"rental_uris":{"android":"levelo://app?vid=37f2c22e-dc87-4650-ae08-b53837cd376a","ios":"levelo://app?vid=37f2c22e-dc87-4650-ae08-b53837cd376a"},"vehicle_type_id":"4","last_reported":1746655816,"current_range_meters":24000,"station_id":"ce4bhi12rcd13ifvqfp0","pricing_plan_id":"cebpf4jnsgd1na2vs0mg"},{"bike_id":"621ba6cb-cd40-43e2-a745-95e784eff179","system_id":"levelo_inurba_marseille","lat":43.28076,"lon":5.39664,"is_reserved":false,"is_disabled":false,"rental_uris":{"android":"levelo://app?vid=621ba6cb-cd40-43e2-a745-95e784eff179","ios":"levelo://app?vid=621ba6cb-cd40-43e2-a745-95e784eff179"},"vehicle_type_id":"4","last_reported":1746655816,"current_range_meters":24000,"station_id":"ce4bho12rcd13ifvqh2g","pricing_plan_id":"cebpf4jnsgd1na2vs0mg"},{"bike_id":"c1041c9f-2085-470a-b13c-f88fd8323115","system_id":"levelo_inurba_marseille","lat":43.27767,"lon":5.38667,"is_reserved":false,"is_disabled":false,"rental_uris":{"android":"levelo://app?vid=c1041c9f-2085-470a-b13c-f88fd8323115","ios":"levelo://app?vid=c1041c9f-2085-470a-b13c-f88fd8323115"},"vehicle_type_id":"4","last_reported":1746655816,"current_range_meters":24400,"station_id":"","pricing_plan_id":"cebpf4jnsgd1na2vs0mg"},{"bike_id":"eba55006-f8ab-4680-856c-131b998599ae","system_id":"levelo_inurba_marseille","lat":43.31469,"lon":5.36879,"is_reserved":false,"is_disabled":false,"rental_uris":{"android":"levelo://app?vid=eba55006-f8ab-4680-856c-131b998599ae","ios":"levelo://app?vid=eba55006-f8ab-4680-856c-131b998599ae"},"vehicle_type_id":"4","last_reported":1746655816,"current_range_meters":24400,"station_id":"","pricing_plan_id":"cebpf4jnsgd1na2vs0mg"},{"bike_id":"d555e0d6-19ba-408b-ad9f-2e129d0a634e","system_id":"levelo_inurba_marseille","lat":43.31014,"lon":5.37562,"is_reserved":false,"is_disabled":false,"rental_uris":{"android":"levelo://app?vid=d555e0d6-19ba-408b-ad9f-2e129d0a634e","ios":"levelo://app?vid=d555e0d6-19ba-408b-ad9f-2e129d0a634e"},