{"last_updated":1714172873,"ttl":30,"version":"2.2","data":{"bikes":[{"bike_id":"8d51dcba-643f-4975-bc2a-c8dd6a8c933c","system_id":"levelo_inurba_marseille","lat":43.31341,"lon":5.367098,"is_reserved":false,"is_disabled":false,"rental_uris":{"android":"levelo://app?vid=8d51dcba-643f-4975-bc2a-c8dd6a8c933c","ios":"levelo://app?vid=8d51dcba-643f-4975-bc2a-c8dd6a8c933c"},"vehicle_type_id":"4","last_reported":1714172873,"current_range_meters":17200,"station_id":"ce4bgr92rcd13ifvqc6g","pricing_plan_id":"cebpf4jnsgd1na2vs0mg"},{"bike_id":"f0d94795-64ad-45fb-99b2-1e58477b39d1","system_id":"levelo_inurba_marseille","lat":43.313391,"lon":5.36706,"is_reserved":false,"is_disabled":false,"rental_uris":{"android":"levelo://app?vid=f0d94795-64ad-45fb-99b2-1e58477b39d1","ios":"levelo://app?vid=f0d94795-64ad-45fb-99b2-1e58477b39d1"},"vehicle_type_id":"4","last_reported":1714172873,"current_range_meters":31600,"station_id":"ce4bgr92rcd13ifvqc6g","pricing_plan_id":"cebpf4jnsgd1na2vs0mg"},{"bike_id":"9af60707-3d95-42c1-a5c5-84ddd2d488fa","system_id":"levelo_inurba_marseille","lat":43.313391,"lon":5.36706,"is_reserved":false,"is_disabled":false,"rental_uris":{"android":"levelo://app?vid=9af60707-3d95-42c1-a5c5-84ddd2d488fa","ios":"levelo://app?vid=9af60707-3d95-42c1-a5c5-84ddd2d488fa"},"vehicle_type_id":"4","last_reported":1714172873,"current_range_meters":24800,"station_id":"ce4bgr92rcd13ifvqc6g","pricing_plan_id":"cebpf4jnsgd1na2vs0mg"},{"bike_id":"a0e86743-1bcc-4da8-a447-12e1f5c83479","system_id":"levelo_inurba_marseille","lat":43.313391,"lon":5.36706,"is_reserved":false,"is_disabled":false,"rental_uris":{"android":"levelo://app?vid=a0e86743-1bcc-4da8-a447-12e1f5c83479","ios":"levelo://app?vid=a0e86743-1bcc-4da8-a447-12e1f5c83479"},"vehicle_type_id":"4","last_reported":1714172873,"current_range_meters":16400,"station_id":"ce4bgr92rcd13ifvqc6g","pricing_plan_id":"cebpf4jnsgd1na2vs0mg"},{"bike_id":"caaa521a-8478-41e6-ac0a-efc9d1656832","system_id":"levelo_inurba_marseille","lat":43.313391,"lon":5.36706,"is_reserved":false,"is_disabled":false,"rental_uris":{"android":"levelo://app?vid=caaa521a-8478-41e6-ac0a-efc9d1656832","ios":"levelo://app?vid=caaa521a-8478-41e6-ac0a-efc9d1656832"},"vehicle_type_id":"4","last_reported":1714172873,"current_range_meters":24000,"station_id":"ce4bgr92rcd13ifvqc6g","pricing_plan_id":"cebpf4jnsgd1na2vs0mg"},{"bike_id":"b8638146-0a79-4a54-a622-41a1c32cb1fc","system_id":"levelo_inurba_marseille","lat":43.313391,"lon":5.36706,"is_reserved":false,"is_disabled":false,"rental_uris":{"android":"levelo://app?vid=b8638146-0a79-4a54-a622-41a1c32cb1fc","ios":"levelo://app?vid=b8638146-0a79-4a54-a622-41a1c32cb1fc"},"vehicle_type_id":"4","last_reported":1714172873,"current_range_meters":22000,"station_id":"ce4bgr92rcd13ifvqc6g","pricing_plan_id":"cebpf4jnsgd1na2vs0mg"},{"bike_id":"e9473dbf-fc83-457f-ad71-9391f7d88b60","system_id":"levelo_inurba_marseille","lat":43.313391,"lon":5.36706,"is_reserved":false,"is_disabled":false,"rental_uris":{"android":"levelo://app?vid=e9473dbf-fc83-457f-ad71-9391f7d88b60","ios":"levelo://app?vid=e9473dbf-fc83-457f-ad71-9391f7d88b60"},"vehicle_type_id":"4","last_reported":1714172873,"current_range_meters":31600,"station_id":"ce4bgr92rcd13ifvqc6g","pricing_plan_id":"cebpf4jnsgd1na2vs0mg"},{"bike_id":"0087109c-9fcd-429b-a84c-6b3d23a7eb90","system_id":"levelo_inurba_marseille","lat":43.313391,"lon":5.36706,"is_reserved":false,"is_disabled":false,"rental_uris":{"android":"levelo://app?vid=0087109c-9fcd-429b-a84c-6b3d23a7eb90","ios":"levelo://app?vid=0087109c-9fcd-429b-a84c-6b3d23a7eb90"},"vehicle_type_id":"4","last_reported":1714172873,"current_range_meters":13600,"station_id":"ce4bgr92rcd13ifvqc6g","pricing_plan_id":"cebpf4jnsgd1na2vs0mg"},{"bike_id":"eed3708a-1b61-4cd1-8205-892d98e6f3bb","system_id":"levelo_inurba_marseille","lat":43.31341,"lon":5.367098,"is_reserved":false,"is_disabled":false,"rental_uris":{"android":"levelo://app?vid=eed3708a-1b61-4cd1-8205-892d98e6f3bb","ios":"levelo://app?vid=eed3708a-1b61-4cd1-8205-892d98e6f3bb"},"vehicle_type_id":"4","last_reported":1714172873,"current_range_meters":28000,"station_id":"ce4bgr92rcd13ifvqc6g","pricing_plan_id":"cebpf4jnsgd1na2vs0mg"},{"bike_id":"4411fe97-5db1-4a91-9093-c264608d6efe","system_id":"levelo_inurba_marseille","lat":43.313391,"lon":5.36706,"is_reserved":false,"is_disabled":false,"rental_uris":{"android":"levelo://app?vid=4411fe97-5db1-4a91-9093-c264608d6efe","ios":"levelo://app?vid=4411fe97-5db1-4a91-9093-c264608d6efe"},"vehicle_type_id":"4","last_reported":1714172873,"current_range_meters":30000,"station_id":"ce4bgr92rcd13ifvqc6g","pricing_plan_id":"cebpf4jnsgd1na2vs0mg"},{"bike_id":"dee027e9-1d06-44bd-8fd3-4f55eabd0b1a","system_id":"levelo_inurba_marseille","lat":43.313391,"lon":5.36706,"is_reserved":false,"is_disabled":false,"rental_uris":{"android":"levelo://app?vid=dee027e9-1d06-44bd-8fd3-4f55eabd0b1a","ios":"levelo://app?vid=dee027e9-1d06-44bd-8fd3-4f55eabd0b1a"},"vehicle_type_id":"4","last_reported":1714172873,"current_range_meters":30400,"station_id":"ce4bgr92rcd13ifvqc6g","pricing_plan_id":"cebpf4jnsgd1na2vs0mg"},{"bike_id":"da0e90ec-b3eb-48ce-a3fe-ce9120fbd7b4","system_id":"levelo_inurba_marseille","lat":43.312239,"lon":5.368562,"is_reserved":false,"is_disabled":false,"rental_uris":{"android":"levelo://app?vid=da0e90ec-b3eb-48ce-a3fe-ce9120fbd7b4","ios":"levelo://app?vid=da0e90ec-b3eb-48ce-a3fe-ce9120fbd7b4"},"vehicle_type_id":"4","last_reported":1714172873,"current_range_meters":26000,"station_id":"ce4bgl92rcd13ifvqbq0","pricing_plan_id":"cebpf4jnsgd1na2vs0mg"},{"bike_id":"333f2c51-3552-4cc1-b019-d158d39430b4","system_id":"levelo_inurba_marseille","lat":43.312239,"lon":5.368562,"is_reserved":false,"is_disabled":false,"rental_uris":{"android":"levelo://app?vid=333f2c51-3552-4cc1-b019-d158d39430b4","ios":"levelo://app?vid=333f2c51-3552-4cc1-b019-d158d39430b4"},"vehicle_type_id":"4","last_reported":1714172873,"current_range_meters":24800,"station_id":"ce4bgl92rcd13ifvqbq0","pricing_plan_id":"cebpf4jnsgd1na2vs0mg"},{"bike_id":"3e28d8ab-8f5d-4177-8f74-ba658e2baf68","system_id":"levelo_inurba_marseille","lat":43.312239,"lon":5.368562,"is_reserved":false,"is_disabled":false,"rental_uris":{"android":"levelo://app?vid=3e28d8ab-8f5d-4177-8f74-ba658e2baf68","ios":"levelo://app?vid=3e28d8ab-8f5d-4177-8f74-ba658e2baf68"},"vehicle_type_id":"4","last_reported":1714172873,"current_range_meters":8400,"station_id":"ce4bgl92rcd13ifvqbq0","pricing_plan_id":"cebpf4jnsgd1na2vs0mg"},{"bike_id":"9ecbb729-fa0b-42ee-853e-147ab51e3f7d","system_id":"levelo_inurba_marseille","lat":43.312239,"lon":5.368562,"is_reserved":false,"is_disabled":false,"rental_uris":{"android":"levelo://app?vid=9ecbb729-fa0b-42ee-853e-147ab51e3f7d","ios":"levelo://app?vid=9ecbb729-fa0b-42ee-853e-147ab51e3f7d"},"vehicle_type_id":"4","last_reported":1714172873,"current_range_meters":29200,"station_id":"ce4bgl92rcd13ifvqbq0","pricing_plan_id":"cebpf4jnsgd1na2vs0mg"},{"bike_id":"4a26ea00-e540-442c-b5bc-f45a6e00148f","system_id":"levelo_inurba_marseille","lat":43.312239,"lon":5.368562,"is_reserved":false,"is_disabled":false,"rental_uris":{"android":"levelo://app?vid=4a26ea00-e540-442c-b5bc-f45a6e00148f","ios":"levelo://app?vid=4a26ea00-e540-442c-b5bc-f45a6e00148f"},"vehicle_type_id":"4","last_reported":1714172873,"current_range_meters":24400,"station_id":"ce4bgl92rcd13ifvqbq0","pricing_plan_id":"cebpf4jnsgd1na2vs0mg"},{"bike_id":"c1a28a78-8cb7-422c-adde-cdaa149ce5c1","system_id":"levelo_inurba_marseille","lat":43.312239,"lon":5.368562,"is_reserved":false,"is_disabled":false,"rental_uris":{"android":"levelo://app?vid=c1a28a78-8cb7-422c-adde-cdaa149ce5c1","ios":"levelo://app?vid=c1a28a78-8cb7-422c-adde-cdaa149ce5c1"},"vehicle_type_id":"4","last_reported":1714172873,"current_range_meters":9600,"station_id":"ce4bgl92rcd13ifvqbq0","pricing_plan_id":"cebpf4jnsgd1na2vs0mg"},{"bike_id":"aa6ebb2c-bdad-4a03-8809-9eb73820dafc","system_id":"levelo_inurba_marseille","lat":43.312239,"lon":5.368562,"is_reserved":false,"is_disabled":false,"rental_uris":{"android":"levelo://app?vid=aa6ebb2c-bdad-4a03-8809-9eb73820dafc","ios":"levelo://app?vid=aa6ebb2c-bdad-4a03-8809-9eb73820dafc"},"vehicle_type_id":"4","last_reported":1714172873,"current_range_meters":30000,"station_id":"ce4bgl92rcd13ifvqbq0","pricing_plan_id":"cebpf4jnsgd1na2vs0mg"},{"bike_id":"0998e431-379c-4345-afa8-f13f92306bc2","system_id":"levelo_inurba_marseille","lat":43.312239,"lon":5.368562,"is_reserved":false,"is_disabled":false,"rental_uris":{"android":"levelo://app?vid=0998e431-379c-4345-afa8-f13f92306bc2","ios":"levelo://app?vid=0998e431-379c-4345-afa8-f13f92306bc2"},"vehicle_type_id":"4","last_reported":1714172873,"current_range_meters":10000,"station_id":"ce4bgl92rcd13ifvqbq0","pricing_plan_id":"cebpf4jnsgd1na2vs0mg"},{"bike_id":"ee55185e-4f89-4fa2-9886-73dcc1f1e9b9","system_id":"levelo_inurba_marseille","lat":43.312239,"lon":5.368562,"is_reserved":false,"is_disabled":false,"rental_uris":{"android":"levelo://app?vid=ee55185e-4f89-4fa2-9886-73dcc1f1e9b9","ios":"levelo://app?vid=ee55185e-4f89-4fa2-9886-73dcc1f1e9b9"},"vehicle_type_id":"4","last_reported":1714172873,"current_range_meters":25200,"station_id":"ce4bgl92rcd13ifvqbq0","pricing_plan_id":"cebpf4jnsgd1na2vs0mg"},{"bike_id":"a78c430f-2fec-43ee-b92c-294a297a68e4","system_id":"levelo_inurba_marseille","lat":43.312239,"lon":5.368562,"is_reserved":false,"is_disabled":false,"rental_uris":{"android":"levelo://app?vid=a78c430f-2fec-43ee-b92c-294a297a68e4","ios":"levelo://app?vid=a78c430f-2fec-43ee-b92c-294a297a68e4"},"vehicle_type_id":"4","last_reported":1714172873,"current_range_meters":24400,"station_id":"ce4bgl92rcd13ifvqbq0","pricing_plan_id":"cebpf4jnsgd1na2vs0mg"},{"bike_id":"77fa6cba-ca24-4c4b-ad60-11a832a6f0cf","system_id":"levelo_inurba_marseille","lat":43.312239,"lon":5.368562,"is_reserved":false,"is_disabled":false,"rental_uris":{"android":"levelo://app?vid=77fa6cba-ca24-4c4b-ad60-11a832a6f0cf","ios":"levelo://app?vid=77fa6cba-ca24-4c4b-ad60-11a832a6f0cf"},"vehicle_type_id":"4","last_reported":1714172873,"current_range_meters":22400,"station_id":"ce4bgl92rcd13ifvqbq0","pricing_plan_id":"cebpf4jnsgd1na2vs0mg"},{"bike_id":"ee80c99f-fb50-4292-96de-ba95b1805f80","system_id":"levelo_inurba_marseille","lat":43.312239,"lon":5.368562,"is_reserved":false,"is_disabled":false,"rental_uris":{"android":"levelo://app?vid=ee80c99f-fb50-4292-96de-ba95b1805f80","ios":"levelo://app?vid=ee80c99f-fb50-4292-96de-ba95b1805f80"},"vehicle_type_id":"4","last_reported":1714172873,"current_range_meters":30800,"station_id":"ce4bgl92rcd13ifvqbq0","pricing_plan_id":"cebpf4jnsgd1na2vs0mg"},{"bike_id":"d0b16873-1fa4-4d75-a569-629e38b22ff2","system_id":"levelo_inurba_marseille","lat":43.31216,"lon":5.36869,"is_reserved":false,"is_disabled":false,"rental_uris":{"android":"levelo://app?vid=d0b16873-1fa4-4d75-a569-629e38b22ff2","ios":"levelo://app?vid=d0b16873-1fa4-4d75-a569-629e38b22ff2"},"vehicle_type_id":"4","last_reported":1714172873,"current_range_meters":30000,"station_id":"","pricing_plan_id":"cebpf4jnsgd1na2vs0mg"},{"bike_id":"493d3174-c330-4437-9329-20d566a8d49e","system_id":"levelo_inurba_marseille","lat":43.30917,"lon":5.36842,"is_reserved":false,"is_disabled":false,"rental_uris":{"android":"levelo://app?vid=493d3174-c330-4437-9329-20d566a8d49e","ios":"levelo://app?vid=493d3174-c330-4437-9329-20d566a8d49e"},"vehicle_type_id":"4","last_reported":1714172873,"current_range_meters":4400,"station_id":"ce4bgn92rcd13ifvqbvg","pricing_plan_id":"cebpf4jnsgd1na2vs0mg"},{"bike_id":"1afa4bf7-1b38-456d-9845-d9f2427e2657","system_id":"levelo_inurba_marseille","lat":43.26681,"lon":5.382694,"is_reserved":false,"is_disabled":false,"rental_uris":{"android":"levelo://app?vid=1afa4bf7-1b38-456d-9845-d9f2427e2657","ios":"levelo://app?vid=1afa4bf7-1b38-456d-9845-d9f2427e2657"},"vehicle_type_id":"4","last_reported":1714172873,"current_range_meters":22000,"station_id":"ce4bhg92rcd13ifvqf90","pricing_plan_id":"cebpf4jnsgd1na2vs0mg"},{"bike_id":"2ce40431-548e-4da4-b642-360aab0ef6e1","system_id":"levelo_inurba_marseille","lat":43.30917,"lon":5.3685,"is_reserved":false,"is_disabled":false,"rental_uris":{"android":"levelo://app?vid=2ce40431-548e-4da4-b642-360aab0ef6e1","ios":"levelo://app?vid=2ce40431-548e-4da4-b642-360aab0ef6e1"},"vehicle_type_id":"4","last_reported":1714172873,"current_range_meters":0,"station_id":"","pricing_plan_id":"cebpf4jnsgd1na2vs0mg"},{"bike_id":"2625de0f-42ec-4b38-8882-1ba508151080","system_id":"levelo_inurba_marseille","lat":43.30915,"lon":5.36846,"is_reserved":false,"is_disabled":false,"rental_uris":{"android":"levelo://app?vid=2625de0f-42ec-4b38-8882-1ba508151080","ios":"levelo://app?vid=2625de0f-42ec-4b38-8882-1ba508151080"},"vehicle_type_id":"4","last_reported":1714172873,"current_range_meters":28400,"station_id":"ce4bgn92rcd13ifvqbvg","pricing_plan_id":"cebpf4jnsgd1na2vs0mg"},{"bike_id":"201085ef-a5b7-43c5-8ca8-2d8b5e208080","system_id":"levelo_inurba_marseille","lat":43.30914,"lon":5.36842,"is_reserved":false,"is_disabled":false,"rental_uris":{"android":"levelo://app?vid=201085ef-a5b7-43c5-8ca8-2d8b5e208080","ios":"levelo://app?vid=201085ef-a5b7-43c5-8ca8-2d8b5e208080"},"vehicle_type_id":"4","last_reported":1714172873,"current_range_meters":13600,"station_id":"ce4bgn92rcd13ifvqbvg","pricing_plan_id":"cebpf4jnsgd1na2vs0mg"},{"bike_id":"512d5e25-0fc8-4f39-8515-70bfcf0af106","system_id":"levelo_inurba_marseille","lat":43.314811,"lon":5.373103,"is_reserved":false,"is_disabled":false,"rental_uris":{"android":"levelo://app?vid=512d5e25-0fc8-4f39-8515-70bfcf0af106","ios":"levelo://app?vid=512d5e25-0fc8-4f39-8515-70bfcf0af106"},"vehicle_type_id":"4","last_reported":1714172873,"current_range_meters":21600,"station_id":"ce4bgt12rcd13ifvqcd0","pricing_plan_id":"cebpf4jnsgd1na2vs0mg"},{"bike_id":"37ed2dd9-2e89-4ec2-a66b-c158af4a781b","system_id":"levelo_inurba_marseille","lat":43.314811,"lon":5.373103,"is_reserved":false,"is_disabled":false,"rental_uris":{"android":"levelo://app?vid=37ed2dd9-2e89-4ec2-a66b-c158af4a781b","ios":"levelo://app?vid=37ed2dd9-2e89-4ec2-a66b-c158af4a781b"},"vehicle_type_id":"4","last_reported":1714172873,"current_range_meters":0,"station_id":"ce4bgt12rcd13ifvqcd0","pricing_plan_id":"cebpf4jnsgd1na2vs0mg"},{"bike_id":"0ee2f58c-879d-4ad2-a332-a2448c5283dc","system_id":"levelo_inurba_marseille","lat":43.314811,"lon":5.373103,"is_reserved":false,"is_disabled":false,"rental_uris":{"android":"levelo://app?vid=0ee2f58c-879d-4ad2-a332-a2448c5283dc","ios":"levelo://app?vid=0ee2f58c-879d-4ad2-a332-a2448c5283dc"},"vehicle_type_id":"4","last_reported":1714172873,"current_range_meters":18400,"station_id":"ce4bgt12rcd13ifvqcd0","pricing_plan_id":"cebpf4jnsgd1na2vs0mg"},{"bike_id":"ff8d3c39-1d7e-4e64-ac5b-00a688a71f44","system_id":"levelo_inurba_marseille","lat":43.314811,"lon":5.373103,"is_reserved":false,"is_disabled":false,"rental_uris":{"android":"levelo://app?vid=ff8d3c39-1d7e-4e64-ac5b-00a688a71f44","ios":"levelo://app?vid=ff8d3c39-1d7e-4e64-ac5b-00a688a71f44"},"vehicle_type_id":"4","last_reported":1714172873,"current_range_meters":30800,"station_id":"ce4bgt12rcd13ifvqcd0","pricing_plan_id":"cebpf4jnsgd1na2vs0mg"},{"bike_id":"ee3a39ac-0cb6-4f6a-a124-3b59b6873be4","system_id":"levelo_inurba_marseille","lat":43.314811,"lon":5.373103,"is_reserved":false,"is_disabled":false,"rental_uris":{"android":"levelo://app?vid=ee3a39ac-0cb6-4f6a-a124-3b59b6873be4","ios":"levelo://app?vid=ee3a39ac-0cb6-4f6a-a124-3b59b6873be4"},"vehicle_type_id":"4","last_reported":1714172873,"current_range_meters":28800,"station_id":"ce4bgt12rcd13ifvqcd0","pricing_plan_id":"cebpf4jnsgd1na2vs0mg"},{"bike_id":"2e7aa186-5a07-49e9-9eb0-a78c33225298","system_id":"levelo_inurba_marseille","lat":43.314811,"lon":5.373103,"is_reserved":false,"is_disabled":false,"rental_uris":{"android":"levelo://app?vid=2e7aa186-5a07-49e9-9eb0-a78c33225298","ios":"levelo://app?vid=2e7aa186-5a07-49e9-9eb0-a78c33225298"},"vehicle_type_id":"4","last_reported":1714172873,"current_range_meters":27200,"station_id":"ce4bgt12rcd13ifvqcd0","pricing_plan_id":"cebpf4jnsgd1na2vs0mg"},{"bike_id":"384fd3ba-f7e3-43d4-a175-8eef6d004efd","system_id":"levelo_inurba_marseille","lat":43.301939,"lon":5.366286,"is_reserved":false,"is_disabled":false,"rental_uris":{"android":"levelo://app?vid=384fd3ba-f7e3-43d4-a175-8eef6d004efd","ios":"levelo://app?vid=384fd3ba-f7e3-43d4-a175-8eef6d004efd"},"vehicle_type_id":"4","last_reported":1714172873,"current_range_meters":18800,"station_id":"ce4bgrh2rcd13ifvqc8g","pricing_plan_id":"cebpf4jnsgd1na2vs0mg"},{"bike_id":"5796fb5f-c44f-47b6-a521-5e47b8ba7d11","system_id":"levelo_inurba_marseille","lat":43.297946,"lon":5.404063,"is_reserved":false,"is_disabled":false,"rental_uris":{"android":"levelo://app?vid=5796fb5f-c44f-47b6-a521-5e47b8ba7d11","ios":"levelo://app?vid=5796fb5f-c44f-47b6-a521-5e47b8ba7d11"},"vehicle_type_id":"4","last_reported":1714172873,"current_range_meters":6800,"station_id":"ce4bh112rcd13ifvqd90","pricing_plan_id":"cebpf4jnsgd1na2vs0mg"},{"bike_id":"502de52c-aaf3-4cf7-a9b3-7364d4325263","system_id":"levelo_inurba_marseille","lat":43.314811,"lon":5.373103,"is_reserved":false,"is_disabled":false,"rental_uris":{"android":"levelo://app?vid=502de52c-aaf3-4cf7-a9b3-7364d4325263","ios":"levelo://app?vid=502de52c-aaf3-4cf7-a9b3-7364d4325263"},"vehicle_type_id":"4","last_reported":1714172873,"current_range_meters":2000,"station_id":"ce4bgt12rcd13ifvqcd0","pricing_plan_id":"cebpf4jnsgd1na2vs0mg"},{"bike_id":"ccefb92d-7309-403f-9a69-868ff32b64a1","system_id":"levelo_inurba_marseille","lat":43.319935,"lon":5.381699,"is_reserved":false,"is_disabled":false,"rental_uris":{"android":"levelo://app?vid=ccefb92d-7309-403f-9a69-868ff32b64a1","ios":"levelo://app?vid=ccefb92d-7309-403f-9a69-868ff32b64a1"},"vehicle_type_id":"4","last_reported":1714172873,"current_range_meters":20800,"station_id":"ce4bhr12rcd13ifvqhpg","pricing_plan_id":"cebpf4jnsgd1na2vs0mg"},{"bike_id":"97db2436-d1a5-4943-b9c2-faa7058af19f","system_id":"levelo_inurba_marseille","lat":43.31498,"lon":5.37311,"is_reserved":false,"is_disabled":false,"rental_uris":{"android":"levelo://app?vid=97db2436-d1a5-4943-b9c2-faa7058af19f","ios":"levelo://app?vid=97db2436-d1a5-4943-b9c2-faa7058af19f"},"vehicle_type_id":"4","last_reported":1714172873,"current_range_meters":12000,"station_id":"ce4bgt12rcd13ifvqcd0","pricing_plan_id":"cebpf4jnsgd1na2vs0mg"},{"bike_id":"58417d09-452e-46a0-b91e-9c1499d78cf1","system_id":"levelo_inurba_marseille","lat":43.31502,"lon":5.3731,"is_reserved":false,"is_disabled":false,"rental_uris":{"android":"levelo://app?vid=58417d09-452e-46a0-b91e-9c1499d78cf1","ios":"levelo://app?vid=58417d09-452e-46a0-b91e-9c1499d78cf1"},"vehicle_type_id":"4","last_reported":1714172873,"current_range_meters":4800,"station_id":"ce4bgt12rcd13ifvqcd0","pricing_plan_id":"cebpf4jnsgd1na2vs0mg"},{"bike_id":"92c29940-ded1-494f-8ff7-a250c9bddb29","system_id":"levelo_inurba_marseille","lat":43.309039,"lon":5.371797,"is_reserved":false,"is_disabled":false,"rental_uris":{"android":"levelo://app?vid=92c29940-ded1-494f-8ff7-a250c9bddb29","ios":"levelo://app?vid=92c29940-ded1-494f-8ff7-a250c9bddb29"},"vehicle_type_id":"4","last_reported":1714172873,"current_range_meters":3600,"station_id":"ce4bguh2rcd13ifvqckg","pricing_plan_id":"cebpf4jnsgd1na2vs0mg"},{"bike_id":"50506f99-67b9-4a9a-9b59-afcae251b324","system_id":"levelo_inurba_marseille","lat":43.309034,"lon":5.371783,"is_reserved":false,"is_disabled":false,"rental_uris":{"android":"levelo://app?vid=50506f99-67b9-4a9a-9b59-afcae251b324","ios":"levelo://app?vid=50506f99-67b9-4a9a-9b59-afcae251b324"},"vehicle_type_id":"4","last_reported":1714172873,"current_range_meters":31600,"station_id":"ce4bguh2rcd13ifvqckg","pricing_plan_id":"cebpf4jnsgd1na2vs0mg"},{"bike_id":"3b99dbaf-add7-4205-bc67-4b771753c8b0","system_id":"levelo_inurba_marseille","lat":43.309039,"lon":5.371797,"is_reserved":false,"is_disabled":false,"rental_uris":{"android":"levelo://app?vid=3b99dbaf-add7-4205-bc67-4b771753c8b0","ios":"levelo://app?vid=3b99dbaf-add7-4205-bc67-4b771753c8b0"},"vehicle_type_id":"4","last_reported":1714172873,"current_range_meters":22800,"station_id":"ce4bguh2rcd13ifvqckg","pricing_plan_id":"cebpf4jnsgd1na2vs0mg"},{"bike_id":"b3e67f29-0310-462f-bfbb-73e3f93c40c7","system_id":"levelo_inurba_marseille","lat":43.309034,"lon":5.371783,"is_reserved":false,"is_disabled":false,"rental_uris":{"android":"levelo://app?vid=b3e67f29-0310-462f-bfbb-73e3f93c40c7","ios":"levelo://app?vid=b3e67f29-0310-462f-bfbb-73e3f93c40c7"},"vehicle_type_id":"4","last_reported":1714172873,"current_range_meters":26800,"station_id":"ce4bguh2rcd13ifvqckg","pricing_plan_id":"cebpf4jnsgd1na2vs0mg"},{"bike_id":"6db824f1-dc3c-4558-ae13-67a6239e075d","system_id":"levelo_inurba_marseille","lat":43.305989,"lon":5.37225,"is_reserved":false,"is_disabled":false,"rental_uris":{"android":"levelo://app?vid=6db824f1-dc3c-4558-ae13-67a6239e075d","ios":"levelo://app?vid=6db824f1-dc3c-4558-ae13-67a6239e075d"},"vehicle_type_id":"4","last_reported":1714172873,"current_range_meters":11600,"station_id":"ce4bgqh2rcd13ifvqc4g","pricing_plan_id":"cebpf4jnsgd1na2vs0mg"},{"bike_id":"e77b93d7-d91c-4de5-bc17-ac8bbcc52058","system_id":"levelo_inurba_marseille","lat":43.305989,"lon":5.37225,"is_reserved":false,"is_disabled":false,"rental_uris":{"android":"levelo://app?vid=e77b93d7-d91c-4de5-bc17-ac8bbcc52058","ios":"levelo://app?vid=e77b93d7-d91c-4de5-bc17-ac8bbcc52058"},"vehicle_type_id":"4","last_reported":1714172873,"current_range_meters":31200,"station_id":"ce4bgqh2rcd13ifvqc4g","pricing_plan_id":"cebpf4jnsgd1na2vs0mg"},{"bike_id":"9db6b914-0499-41e0-8452-531d76e0707c","system_id":"levelo_inurba_marseille","lat":43.305989,"lon":5.37225,"is_reserved":false,"is_disabled":false,"rental_uris":{"android":"levelo://app?vid=9db6b914-0499-41e0-8452-531d76e0707c","ios":"levelo://app?vid=9db6b914-0499-41e0-8452-531d76e0707c"},"vehicle_type_id":"4","last_reported":1714172873,"current_range_meters":14800,"station_id":"ce4bgqh2rcd13ifvqc4g","pricing_plan_id":"cebpf4jnsgd1na2vs0mg"},{"bike_id":"205c8c04-7332-4a26-a4be-5452614e9d08","system_id":"levelo_inurba_marseille","lat":43.305989,"lon":5.37225,"is_reserved":false,"is_disabled":false,"rental_uris":{"android":"levelo://app?vid=205c8c04-7332-4a26-a4be-5452614e9d08","ios":"levelo://app?vid=205c8c04-7332-4a26-a4be-5452614e9d08"},"vehicle_type_id":"4","last_reported":1714172873,"current_range_meters":26400,"station_id":"ce4bgqh2rcd13ifvqc4g","pricing_plan_id":"cebpf4jnsgd1na2vs0mg"},{"bike_id":"d44a3ef6-9c37-4d41-8ee0-d18a339b20bd","system_id":"levelo_inurba_marseille","lat":43.305989,"lon":5.37225,"is_reserved":false,"is_disabled":false,"rental_uris":{"android":"levelo://app?vid=d44a3ef6-9c37-4d41-8ee0-d18a339b20bd","ios":"levelo://app?vid=d44a3ef6-9c37-4d41-8ee0-d18a339b20bd"},"vehicle_type_id":"4","last_reported":1714172873,"current_range_meters":27600,"station_id":"ce4bgqh2rcd13ifvqc4g","pricing_plan_id":"cebpf4jnsgd1na2vs0mg"},{"bike_id":"b560db3e-b265-46c5-8812-32fde6e57d9d","system_id":"levelo_inurba_marseille","lat":43.305989,"lon":5.37225,"is_reserved":false,"is_disabled":false,"rental_uris":{"android":"levelo://app?vid=b560db3e-b265-46c5-8812-32fde6e57d9d","ios":"levelo://app?vid=b560db3e-b265-46c5-8812-32fde6e57d9d"},"vehicle_type_id":"4","last_reported":1714172873,"current_range_meters":28800,"station_id":"ce4bgqh2rcd13ifvqc4g","pricing_plan_id":"cebpf4jnsgd1na2vs0mg"},{"bike_id":"88670e4e-9c1c-41b5-9478-96b8a263511c","system_id":"levelo_inurba_marseille","lat":43.305989,"lon":5.37225,"is_reserved":false,"is_disabled":false,"rental_uris":{"android":"levelo://app?vid=88670e4e-9c1c-41b5-9478-96b8a263511c","ios":"levelo://app?vid=88670e4e-9c1c-41b5-9478-96b8a263511c"},"vehicle_type_id":"4","last_reported":1714172873,"current_range_meters":2000,"station_id":"ce4bgqh2rcd13ifvqc4g","pricing_plan_id":"cebpf4jnsgd1na2vs0mg"},{"bike_id":"cf5e66a4-a54c-4c5f-bba9-18f0287f4461","system_id":"levelo_inurba_marseille","lat":43.305989,"lon":5.37225,"is_reserved":false,"is_disabled":false,"rental_uris":{"android":"levelo://app?vid=cf5e66a4-a54c-4c5f-bba9-18f0287f4461","ios":"levelo://app?vid=cf5e66a4-a54c-4c5f-bba9-18f0287f4461"},"vehicle_type_id":"4","last_reported":1714172873,"current_range_meters":19600,"station_id":"ce4bgqh2rcd13ifvqc4g","pricing_plan_id":"cebpf4jnsgd1na2vs0mg"},{"bike_id":"add82b0c-f3ce-40b3-8346-8e93ba4f28ce","system_id":"levelo_inurba_marseille","lat":43.311131,"lon":5.377651,"is_reserved":false,"is_disabled":false,"rental_uris":{"android":"levelo://app?vid=add82b0c-f3ce-40b3-8346-8e93ba4f28ce","ios":"levelo://app?vid=add82b0c-f3ce-40b3-8346-8e93ba4f28ce"},"vehicle_type_id":"4","last_reported":1714172873,"current_range_meters":8800,"station_id":"ce4bgt92rcd13ifvqcg0","pricing_plan_id":"cebpf4jnsgd1na2vs0mg"},{"bike_id":"2a28b6cd-1ccc-4cf7-945c-f1dab8c5c055","system_id":"levelo_inurba_marseille","lat":43.311131,"lon":5.377651,"is_reserved":false,"is_disabled":false,"rental_uris":{"android":"levelo://app?vid=2a28b6cd-1ccc-4cf7-945c-f1dab8c5c055","ios":"levelo://app?vid=2a28b6cd-1ccc-4cf7-945c-f1dab8c5c055"},"vehicle_type_id":"4","last_reported":1714172873,"current_range_meters":27600,"station_id":"ce4bgt92rcd13ifvqcg0","pricing_plan_id":"cebpf4jnsgd1na2vs0mg"},{"bike_id":"01362ea1-eeb9-42a7-9289-ffbeddb46ec9","system_id":"levelo_inurba_marseille","lat":43.305989,"lon":5.37225,"is_reserved":false,"is_disabled":false,"rental_uris":{"android":"levelo://app?vid=01362ea1-eeb9-42a7-9289-ffbeddb46ec9","ios":"levelo://app?vid=01362ea1-eeb9-42a7-9289-ffbeddb46ec9"},"vehicle_type_id":"4","last_reported":1714172873,"current_range_meters":7600,"station_id":"ce4bgqh2rcd13ifvqc4g","pricing_plan_id":"cebpf4jnsgd1na2vs0mg"},{"bike_id":"681b5b55-60d4-4eba-aec5-ec0593609c5a","system_id":"levelo_inurba_marseille","lat":43.3112,"lon":5.37755,"is_reserved":false,"is_disabled":false,"rental_uris":{"android":"levelo://app?vid=681b5b55-60d4-4eba-aec5-ec0593609c5a","ios":"levelo://app?vid=681b5b55-60d4-4eba-aec5-ec0593609c5a"},"vehicle_type_id":"4","last_reported":1714172873,"current_range_meters":31600,"station_id":"ce4bgt92rcd13ifvqcg0","pricing_plan_id":"cebpf4jnsgd1na2vs0mg"},{"bike_id":"1fc1014c-403e-4b22-90fe-6971eb4ea348","system_id":"levelo_inurba_marseille","lat":43.311131,"lon":5.377651,"is_reserved":false,"is_disabled":false,"rental_uris":{"android":"levelo://app?vid=1fc1014c-403e-4b22-90fe-6971eb4ea348","ios":"levelo://app?vid=1fc1014c-403e-4b22-90fe-6971eb4ea348"},"vehicle_type_id":"4","last_reported":1714172873,"current_range_meters":16400,"station_id":"ce4bgt92rcd13ifvqcg0","pricing_plan_id":"cebpf4jnsgd1na2vs0mg"},{"bike_id":"97a1d125-c7f3-4d50-9b08-ede1463840e5","system_id":"levelo_inurba_marseille","lat":43.311131,"lon":5.377651,"is_reserved":false,"is_disabled":false,"rental_uris":{"android":"levelo://app?vid=97a1d125-c7f3-4d50-9b08-ede1463840e5","ios":"levelo://app?vid=97a1d125-c7f3-4d50-9b08-ede1463840e5"},"vehicle_type_id":"4","last_reported":1714172873,"current_range_meters":15200,"station_id":"ce4bgt92rcd13ifvqcg0","pricing_plan_id":"cebpf4jnsgd1na2vs0mg"},{"bike_id":"6d57a4bb-fa7b-44ff-b508-4ce725f5cc40","system_id":"levelo_inurba_marseille","lat":43.311131,"lon":5.377651,"is_reserved":false,"is_disabled":false,"rental_uris":{"android":"levelo://app?vid=6d57a4bb-fa7b-44ff-b508-4ce725f5cc40","ios":"levelo://app?vid=6d57a4bb-fa7b-44ff-b508-4ce725f5cc40"},"vehicle_type_id":"4","last_reported":1714172873,"current_range_meters":18800,"station_id":"ce4bgt92rcd13ifvqcg0","pricing_plan_id":"cebpf4jnsgd1na2vs0mg"},{"bike_id":"7ff38924-30cc-4b6c-80b1-604bad2ae9dc","system_id":"levelo_inurba_marseille","lat":43.311131,"lon":5.377651,"is_reserved":false,"is_disabled":false,"rental_uris":{"android":"levelo://app?vid=7ff38924-30cc-4b6c-80b1-604bad2ae9dc","ios":"levelo://app?vid=7ff38924-30cc-4b6c-80b1-604bad2ae9dc"},"vehicle_type_id":"4","last_reported":1714172873,"current_range_meters":27200,"station_id":"ce4bgt92rcd13ifvqcg0","pricing_plan_id":"cebpf4jnsgd1na2vs0mg"},{"bike_id":"9c0252fb-9596-492f-8f1b-0d6a595e9229","system_id":"levelo_inurba_marseille","lat":43.311222,"lon":5.377637,"is_reserved":false,"is_disabled":false,"rental_uris":{"android":"levelo://app?vid=9c0252fb-9596-492f-8f1b-0d6a595e9229","ios":"levelo://app?vid=9c0252fb-9596-492f-8f1b-0d6a595e9229"},"vehicle_type_id":"4","last_reported":1714172873,"current_range_meters":27600,"station_id":"ce4bgt92rcd13ifvqcg0","pricing_plan_id":"cebpf4jnsgd1na2vs0mg"},{"bike_id":"195b3904-1e63-4952-a8b9-408c7ae2f870","system_id":"levelo_inurba_marseille","lat":43.311131,"lon":5.377651,"is_reserved":false,"is_disabled":false,"rental_uris":{"android":"levelo://app?vid=195b3904-1e63-4952-a8b9-408c7ae2f870","ios":"levelo://app?vid=195b3904-1e63-4952-a8b9-408c7ae2f870"},"vehicle_type_id":"4","last_reported":1714172873,"current_range_meters":10400,"station_id":"ce4bgt92rcd13ifvqcg0","pricing_plan_id":"cebpf4jnsgd1na2vs0mg"},{"bike_id":"524fd9f7-4a05-4a78-9b20-5b6156d12623","system_id":"levelo_inurba_marseille","lat":43.311347,"lon":5.37769,"is_reserved":false,"is_disabled":false,"rental_uris":{"android":"levelo://app?vid=524fd9f7-4a05-4a78-9b20-5b6156d12623","ios":"levelo://app?vid=524fd9f7-4a05-4a78-9b20-5b6156d12623"},"vehicle_type_id":"4","last_reported":1714172873,"current_range_meters":23600,"station_id":"ce4bgt92rcd13ifvqcg0","pricing_plan_id":"cebpf4jnsgd1na2vs0mg"},{"bike_id":"ba8f5e9f-f8c9-4d02-b2a9-d0efeedf0dc2","system_id":"levelo_inurba_marseille","lat":43.311222,"lon":5.377714,"is_reserved":false,"is_disabled":false,"rental_uris":{"android":"levelo://app?vid=ba8f5e9f-f8c9-4d02-b2a9-d0efeedf0dc2","ios":"levelo://app?vid=ba8f5e9f-f8c9-4d02-b2a9-d0efeedf0dc2"},"vehicle_type_id":"4","last_reported":1714172873,"current_range_meters":21200,"station_id":"ce4bgt92rcd13ifvqcg0","pricing_plan_id":"cebpf4jnsgd1na2vs0mg"},{"bike_id":"760d9a8e-af5c-4b9d-a253-f9254e4902b2","system_id":"levelo_inurba_marseille","lat":43.31122,"lon":5.37773,"is_reserved":false,"is_disabled":false,"rental_uris":{"android":"levelo://app?vid=760d9a8e-af5c-4b9d-a253-f9254e4902b2","ios":"levelo://app?vid=760d9a8e-af5c-4b9d-a253-f9254e4902b2"},"vehicle_type_id":"4","last_reported":1714172873,"current_range_meters":28000,"station_id":"ce4bgt92rcd13ifvqcg0","pricing_plan_id":"cebpf4jnsgd1na2vs0mg"},{"bike_id":"b1419dc5-00fd-46e5-9134-782d4862ef14","system_id":"levelo_inurba_marseille","lat":43.31115,"lon":5.37802,"is_reserved":false,"is_disabled":false,"rental_uris":{"android":"levelo://app?vid=b1419dc5-00fd-46e5-9134-782d4862ef14","ios":"levelo://app?vid=b1419dc5-00fd-46e5-9134-782d4862ef14"},"vehicle_type_id":"4","last_reported":1714172873,"current_range_meters":11600,"station_id":"ce4bgt92rcd13ifvqcg0","pricing_plan_id":"cebpf4jnsgd1na2vs0mg"},{"bike_id":"c372e7cc-3843-4441-91c0-f382cbe53456","system_id":"levelo_inurba_marseille","lat":43.30524,"lon":5.37213,"is_reserved":false,"is_disabled":false,"rental_uris":{"android":"levelo://app?vid=c372e7cc-3843-4441-91c0-f382cbe53456","ios":"levelo://app?vid=c372e7cc-3843-4441-91c0-f382cbe53456"},"vehicle_type_id":"4","last_reported":1714172873,"current_range_meters":18000,"station_id":"","pricing_plan_id":"cebpf4jnsgd1na2vs0mg"},{"bike_id":"942c960e-d98e-42a6-9c5e-b5df03310e48","system_id":"levelo_inurba_marseille","lat":43.30793,"lon":5.37641,"is_reserved":false,"is_disabled":false,"rental_uris":{"android":"levelo://app?vid=942c960e-d98e-42a6-9c5e-b5df03310e48","ios":"levelo://app?vid=942c960e-d98e-42a6-9c5e-b5df03310e48"},"vehicle_type_id":"4","last_reported":1714172873,"current_range_meters":8000,"station_id":"ce4bgv92rcd13ifvqcq0","pricing_plan_id":"cebpf4jnsgd1na2vs0mg"},{"bike_id":"55da5593-99b9-4bef-847e-89de6ae901ea","system_id":"levelo_inurba_marseille","lat":43.30783,"lon":5.376426,"is_reserved":false,"is_disabled":false,"rental_uris":{"android":"levelo://app?vid=55da5593-99b9-4bef-847e-89de6ae901ea","ios":"levelo://app?vid=55da5593-99b9-4bef-847e-89de6ae901ea"},"vehicle_type_id":"4","last_reported":1714172873,"current_range_meters":16000,"station_id":"ce4bgv92rcd13ifvqcq0","pricing_plan_id":"cebpf4jnsgd1na2vs0mg"},{"bike_id":"4c27a49d-a546-4061-a7a9-17fe3011937e","system_id":"levelo_inurba_marseille","lat":43.3079,"lon":5.37651,"is_reserved":false,"is_disabled":false,"rental_uris":{"android":"levelo://app?vid=4c27a49d-a546-4061-a7a9-17fe3011937e","ios":"levelo://app?vid=4c27a49d-a546-4061-a7a9-17fe3011937e"},"vehicle_type_id":"4","last_reported":1714172873,"current_range_meters":24400,"station_id":"ce4bgv92rcd13ifvqcq0","pricing_plan_id":"cebpf4jnsgd1na2vs0mg"},{"bike_id":"314b6252-5987-4107-b1cf-169b1ba6aed1","system_id":"levelo_inurba_marseille","lat":43.307945,"lon":5.376487,"is_reserved":false,"is_disabled":false,"rental_uris":{"android":"levelo://app?vid=314b6252-5987-4107-b1cf-169b1ba6aed1","ios":"levelo://app?vid=314b6252-5987-4107-b1cf-169b1ba6aed1"},"vehicle_type_id":"4","last_reported":1714172873,"current_range_meters":28000,"station_id":"ce4bgv92rcd13ifvqcq0","pricing_plan_id":"cebpf4jnsgd1na2vs0mg"},{"bike_id":"b97000c5-35fb-4314-bb5d-661241cdfc15","system_id":"levelo_inurba_marseille","lat":43.30783,"lon":5.3765,"is_reserved":false,"is_disabled":false,"rental_uris":{"android":"levelo://app?vid=b97000c5-35fb-4314-bb5d-661241cdfc15","ios":"levelo://app?vid=b97000c5-35fb-4314-bb5d-661241cdfc15"},"vehicle_type_id":"4","last_reported":1714172873,"current_range_meters":31200,"station_id":"ce4bgv92rcd13ifvqcq0","pricing_plan_id":"cebpf4jnsgd1na2vs0mg"},{"bike_id":"214d3aa6-7b93-48da-a9c9-497661ec6c3c","system_id":"levelo_inurba_marseille","lat":43.30784,"lon":5.37651,"is_reserved":false,"is_disabled":false,"rental_uris":{"android":"levelo://app?vid=214d3aa6-7b93-48da-a9c9-497661ec6c3c","ios":"levelo://app?vid=214d3aa6-7b93-48da-a9c9-497661ec6c3c"},"vehicle_type_id":"4","last_reported":1714172873,"current_range_meters":24400,"station_id":"ce4bgv92rcd13ifvqcq0","pricing_plan_id":"cebpf4jnsgd1na2vs0mg"},{"bike_id":"6558effb-586b-4c42-8c84-b118311890bd","system_id":"levelo_inurba_marseille","lat":43.307887,"lon":5.376567,"is_reserved":false,"is_disabled":false,"rental_uris":{"android":"levelo://app?vid=6558effb-586b-4c42-8c84-b118311890bd","ios":"levelo://app?vid=6558effb-586b-4c42-8c84-b118311890bd"},"vehicle_type_id":"4","last_reported":1714172873,"current_range_meters":29600,"station_id":"ce4bgv92rcd13ifvqcq0","pricing_plan_id":"cebpf4jnsgd1na2vs0mg"},{"bike_id":"1d79047a-e290-47ea-b1d1-a6159a08bc52","system_id":"levelo_inurba_marseille","lat":43.307945,"lon":5.376487,"is_reserved":false,"is_disabled":false,"rental_uris":{"android":"levelo://app?vid=1d79047a-e290-47ea-b1d1-a6159a08bc52","ios":"levelo://app?vid=1d79047a-e290-47ea-b1d1-a6159a08bc52"},"vehicle_type_id":"4","last_reported":1714172873,"current_range_meters":14000,"station_id":"ce4bgv92rcd13ifvqcq0","pricing_plan_id":"cebpf4jnsgd1na2vs0mg"},{"bike_id":"757e2851-eb45-4b1f-b313-71780f5dabfe","system_id":"levelo_inurba_marseille","lat":43.307809,"lon":5.376543,"is_reserved":false,"is_disabled":false,"rental_uris":{"android":"levelo://app?vid=757e2851-eb45-4b1f-b313-71780f5dabfe","ios":"levelo://app?vid=757e2851-eb45-4b1f-b313-71780f5dabfe"},"vehicle_type_id":"4","last_reported":1714172873,"current_range_meters":24000,"station_id":"ce4bgv92rcd13ifvqcq0","pricing_plan_id":"cebpf4jnsgd1na2vs0mg"},{"bike_id":"f96e4165-ad1c-407c-bca8-646b85805e03","system_id":"levelo_inurba_marseille","lat":43.307945,"lon":5.376487,"is_reserved":false,"is_disabled":false,"rental_uris":{"android":"levelo://app?vid=f96e4165-ad1c-407c-bca8-646b85805e03","ios":"levelo://app?vid=f96e4165-ad1c-407c-bca8-646b85805e03"},"vehicle_type_id":"4","last_reported":1714172873,"current_range_meters":31600,"station_id":"ce4bgv92rcd13ifvqcq0","pricing_plan_id":"cebpf4jnsgd1na2vs0mg"},{"bike_id":"64cc7e21-7c73-42ce-b840-438b03cb52a0","system_id":"levelo_inurba_marseille","lat":43.307945,"lon":5.376487,"is_reserved":false,"is_disabled":false,"rental_uris":{"android":"levelo://app?vid=64cc7e21-7c73-42ce-b840-438b03cb52a0","ios":"levelo://app?vid=64cc7e21-7c73-42ce-b840-438b03cb52a0"},"vehicle_type_id":"4","last_reported":1714172873,"current_range_meters":18000,"station_id":"ce4bgv92rcd13ifvqcq0","pricing_plan_id":"cebpf4jnsgd1na2vs0mg"},{"bike_id":"36fab969-2405-47e4-9ec7-7ee25ac3ccd5","system_id":"levelo_inurba_marseille","lat":43.30768,"lon":5.37659,"is_reserved":false,"is_disabled":false,"rental_uris":{"android":"levelo://app?vid=36fab969-2405-47e4-9ec7-7ee25ac3ccd5","ios":"levelo://app?vid=36fab969-2405-47e4-9ec7-7ee25ac3ccd5"},"vehicle_type_id":"4","last_reported":1714172873,"current_range_meters":19600,"station_id":"ce4bgv92rcd13ifvqcq0","pricing_plan_id":"cebpf4jnsgd1na2vs0mg"},{"bike_id":"f707af59-1891-486f-9517-fd9aaf716c2f","system_id":"levelo_inurba_marseille","lat":43.317075,"lon":5.377367,"is_reserved":false,"is_disabled":false,"rental_uris":{"android":"levelo://app?vid=f707af59-1891-486f-9517-fd9aaf716c2f","ios":"levelo://app?vid=f707af59-1891-486f-9517-fd9aaf716c2f"},"vehicle_type_id":"4","last_reported":1714172873,"current_range_meters":12800,"station_id":"ce4bgth2rcd13ifvqch0","pricing_plan_id":"cebpf4jnsgd1na2vs0mg"},{"bike_id":"47fa3928-a251-4b1e-bead-82909a6a609e","system_id":"levelo_inurba_marseille","lat":43.317075,"lon":5.377367,"is_reserved":false,"is_disabled":false,"rental_uris":{"android":"levelo://app?vid=47fa3928-a251-4b1e-bead-82909a6a609e","ios":"levelo://app?vid=47fa3928-a251-4b1e-bead-82909a6a609e"},"vehicle_type_id":"4","last_reported":1714172873,"current_range_meters":4400,"station_id":"ce4bgth2rcd13ifvqch0","pricing_plan_id":"cebpf4jnsgd1na2vs0mg"},{"bike_id":"1146ffe4-489b-497e-a143-0d9a10421213","system_id":"levelo_inurba_marseille","lat":43.317075,"lon":5.377367,"is_reserved":false,"is_disabled":false,"rental_uris":{"android":"levelo://app?vid=1146ffe4-489b-497e-a143-0d9a10421213","ios":"levelo://app?vid=1146ffe4-489b-497e-a143-0d9a10421213"},"vehicle_type_id":"4","last_reported":1714172873,"current_range_meters":31600,"station_id":"ce4bgth2rcd13ifvqch0","pricing_plan_id":"cebpf4jnsgd1na2vs0mg"},{"bike_id":"127e47c3-d7d3-4139-8a37-a62f5ec29c36","system_id":"levelo_inurba_marseille","lat":43.317075,"lon":5.377367,"is_reserved":false,"is_disabled":false,"rental_uris":{"android":"levelo://app?vid=127e47c3-d7d3-4139-8a37-a62f5ec29c36","ios":"levelo://app?vid=127e47c3-d7d3-4139-8a37-a62f5ec29c36"},"vehicle_type_id":"4","last_reported":1714172873,"current_range_meters":20800,"station_id":"ce4bgth2rcd13ifvqch0","pricing_plan_id":"cebpf4jnsgd1na2vs0mg"},{"bike_id":"2de8b090-dd6c-4202-8be4-f37ca83c5542","system_id":"levelo_inurba_marseille","lat":43.317075,"lon":5.377367,"is_reserved":false,"is_disabled":false,"rental_uris":{"android":"levelo://app?vid=2de8b090-dd6c-4202-8be4-f37ca83c5542","ios":"levelo://app?vid=2de8b090-dd6c-4202-8be4-f37ca83c5542"},"vehicle_type_id":"4","last_reported":1714172873,"current_range_meters":29200,"station_id":"ce4bgth2rcd13ifvqch0","pricing_plan_id":"cebpf4jnsgd1na2vs0mg"},{"bike_id":"1de4a290-620d-4597-8bf3-bd926862f47f","system_id":"levelo_inurba_marseille","lat":43.317075,"lon":5.377367,"is_reserved":false,"is_disabled":false,"rental_uris":{"android":"levelo://app?vid=1de4a290-620d-4597-8bf3-bd926862f47f","ios":"levelo://app?vid=1de4a290-620d-4597-8bf3-bd926862f47f"},"vehicle_type_id":"4","last_reported":1714172873,"current_range_meters":30400,"station_id":"ce4bgth2rcd13ifvqch0","pricing_plan_id":"cebpf4jnsgd1na2vs0mg"},{"bike_id":"235a21fa-861e-4319-984f-e6faad49181b","system_id":"levelo_inurba_marseille","lat":43.315289,"lon":5.380349,"is_reserved":false,"is_disabled":false,"rental_uris":{"android":"levelo://app?vid=235a21fa-861e-4319-984f-e6faad49181b","ios":"levelo://app?vid=235a21fa-861e-4319-984f-e6faad49181b"},"vehicle_type_id":"4","last_reported":1714172873,"current_range_meters":8000,"station_id":"ce4bhsp2rcd13ifvqi50","pricing_plan_id":"cebpf4jnsgd1na2vs0mg"},{"bike_id":"f58b6b0d-9715-4826-88cd-880e0de16dc7","system_id":"levelo_inurba_marseille","lat":43.303046,"lon":5.368981,"is_reserved":false,"is_disabled":false,"rental_uris":{"android":"levelo://app?vid=f58b6b0d-9715-4826-88cd-880e0de16dc7","ios":"levelo://app?vid=f58b6b0d-9715-4826-88cd-880e0de16dc7"},"vehicle_type_id":"4","last_reported":1714172873,"current_range_meters":28400,"station_id":"ce4bgqh2rcd13ifvqc5g","pricing_plan_id":"cebpf4jnsgd1na2vs0mg"},{"bike_id":"c7eac12d-72f2-40d1-809a-9fb48ac90291","system_id":"levelo_inurba_marseille","lat":43.315289,"lon":5.380349,"is_reserved":false,"is_disabled":false,"rental_uris":{"android":"levelo://app?vid=c7eac12d-72f2-40d1-809a-9fb48ac90291","ios":"levelo://app?vid=c7eac12d-72f2-40d1-809a-9fb48ac90291"},"vehicle_type_id":"4","last_reported":1714172873,"current_range_meters":29200,"station_id":"ce4bhsp2rcd13ifvqi50","pricing_plan_id":"cebpf4jnsgd1na2vs0mg"},{"bike_id":"7b9ef1f6-cd2c-49ec-85f2-8f43d0d64738","system_id":"levelo_inurba_marseille","lat":43.30191,"lon":5.36608,"is_reserved":false,"is_disabled":false,"rental_uris":{"android":"levelo://app?vid=7b9ef1f6-cd2c-49ec-85f2-8f43d0d64738","ios":"levelo://app?vid=7b9ef1f6-cd2c-49ec-85f2-8f43d0d64738"},"vehicle_type_id":"4","last_reported":1714172873,"current_range_meters":12000,"station_id":"ce4bgrh2rcd13ifvqc8g","pricing_plan_id":"cebpf4jnsgd1na2vs0mg"},{"bike_id":"46ef2e03-3744-4613-b697-7ba9ed2f5440","system_id":"levelo_inurba_marseille","lat":43.301903,"lon":5.36608,"is_reserved":false,"is_disabled":false,"rental_uris":{"android":"levelo://app?vid=46ef2e03-3744-4613-b697-7ba9ed2f5440","ios":"levelo://app?vid=46ef2e03-3744-4613-b697-7ba9ed2f5440"},"vehicle_type_id":"4","last_reported":1714172873,"current_range_meters":19200,"station_id":"ce4bgrh2rcd13ifvqc8g","pricing_plan_id":"cebpf4jnsgd1na2vs0mg"},{"bike_id":"ad3f7fe5-d8a1-4978-b3f3-e89a4cb34827","system_id":"levelo_inurba_marseille","lat":43.301939,"lon":5.366286,"is_reserved":false,"is_disabled":false,"rental_uris":{"android":"levelo://app?vid=ad3f7fe5-d8a1-4978-b3f3-e89a4cb34827","ios":"levelo://app?vid=ad3f7fe5-d8a1-4978-b3f3-e89a4cb34827"},"vehicle_type_id":"4","last_reported":1714172873,"current_range_meters":2000,"station_id":"ce4bgrh2rcd13ifvqc8g","pricing_plan_id":"cebpf4jnsgd1na2vs0mg"},{"bike_id":"c2b731f9-780f-4a64-a065-982262ff75ca","system_id":"levelo_inurba_marseille","lat":43.301939,"lon":5.366286,"is_reserved":false,"is_disabled":false,"rental_uris":{"android":"levelo://app?vid=c2b731f9-780f-4a64-a065-982262ff75ca","ios":"levelo://app?vid=c2b731f9-780f-4a64-a065-982262ff75ca"},"vehicle_type_id":"4","last_reported":1714172873,"current_range_meters":28000,"station_id":"ce4bgrh2rcd13ifvqc8g","pricing_plan_id":"cebpf4jnsgd1na2vs0mg"},{"bike_id":"04b42d87-a4a7-459a-88a3-4d5ae6b2bc3b","system_id":"levelo_inurba_marseille","lat":43.313571,"lon":5.384829,"is_reserved":false,"is_disabled":false,"rental_uris":{"android":"levelo://app?vid=04b42d87-a4a7-459a-88a3-4d5ae6b2bc3b","ios":"levelo://app?vid=04b42d87-a4a7-459a-88a3-4d5ae6b2bc3b"},"vehicle_type_id":"4","last_reported":1714172873,"current_range_meters":13200,"station_id":"ce4bgt92rcd13ifvqcf0","pricing_plan_id":"cebpf4jnsgd1na2vs0mg"},{"bike_id":"da0df3e6-d2e8-44e8-8b52-2b0020375563","system_id":"levelo_inurba_marseille","lat":43.308012,"lon":5.381511,"is_reserved":false,"is_disabled":false,"rental_uris":{"android":"levelo://app?vid=da0df3e6-d2e8-44e8-8b52-2b0020375563","ios":"levelo://app?vid=da0df3e6-d2e8-44e8-8b52-2b0020375563"},"vehicle_type_id":"4","last_reported":1714172873,"current_range_meters":18000,"station_id":"ce4bgt12rcd13ifvqce0","pricing_plan_id":"cebpf4jnsgd1na2vs0mg"},{"bike_id":"c3405293-52bb-4b11-acbf-9efedadc6a10","system_id":"levelo_inurba_marseille","lat":43.308012,"lon":5.381511,"is_reserved":false,"is_disabled":false,"rental_uris":{"android":"levelo://app?vid=c3405293-52bb-4b11-acbf-9efedadc6a10","ios":"levelo://app?vid=c3405293-52bb-4b11-acbf-9efedadc6a10"},"vehicle_type_id":"4","last_reported":1714172873,"current_range_meters":19600,"station_id":"ce4bgt12rcd13ifvqce0","pricing_plan_id":"cebpf4jnsgd1na2vs0mg"},{"bike_id":"d327acd4-93d4-48c5-aa8e-81d7babaebc2","system_id":"levelo_inurba_marseille","lat":43.308012,"lon":5.381511,"is_reserved":false,"is_disabled":false,"rental_uris":{"android":"levelo://app?vid=d327acd4-93d4-48c5-aa8e-81d7babaebc2","ios":"levelo://app?vid=d327acd4-93d4-48c5-aa8e-81d7babaebc2"},"vehicle_type_id":"4","last_reported":1714172873,"current_range_meters":18000,"station_id":"ce4bgt12rcd13ifvqce0","pricing_plan_id":"cebpf4jnsgd1na2vs0mg"},{"bike_id":"891280eb-d0da-4507-85ed-63a93c2f4584","system_id":"levelo_inurba_marseille","lat":43.308012,"lon":5.381511,"is_reserved":false,"is_disabled":false,"rental_uris":{"android":"levelo://app?vid=891280eb-d0da-4507-85ed-63a93c2f4584","ios":"levelo://app?vid=891280eb-d0da-4507-85ed-63a93c2f4584"},"vehicle_type_id":"4","last_reported":1714172873,"current_range_meters":30800,"station_id":"ce4bgt12rcd13ifvqce0","pricing_plan_id":"cebpf4jnsgd1na2vs0mg"},{"bike_id":"2fa52d26-f579-4d32-a120-0264313b9085","system_id":"levelo_inurba_marseille","lat":43.308012,"lon":5.381511,"is_reserved":false,"is_disabled":false,"rental_uris":{"android":"levelo://app?vid=2fa52d26-f579-4d32-a120-0264313b9085","ios":"levelo://app?vid=2fa52d26-f579-4d32-a120-0264313b9085"},"vehicle_type_id":"4","last_reported":1714172873,"current_range_meters":14800,"station_id":"ce4bgt12rcd13ifvqce0","pricing_plan_id":"cebpf4jnsgd1na2vs0mg"},{"bike_id":"0747c8b9-64c1-4cfd-8eb5-d79be8db624b","system_id":"levelo_inurba_marseille","lat":43.308012,"lon":5.381511,"is_reserved":false,"is_disabled":false,"rental_uris":{"android":"levelo://app?vid=0747c8b9-64c1-4cfd-8eb5-d79be8db624b","ios":"levelo://app?vid=0747c8b9-64c1-4cfd-8eb5-d79be8db624b"},"vehicle_type_id":"4","last_reported":1714172873,"current_range_meters":18000,"station_id":"ce4bgt12rcd13ifvqce0","pricing_plan_id":"cebpf4jnsgd1na2vs0mg"},{"bike_id":"19721d76-ef75-4045-8c01-1768e252a152","system_id":"levelo_inurba_marseille","lat":43.308012,"lon":5.381511,"is_reserved":false,"is_disabled":false,"rental_uris":{"android":"levelo://app?vid=19721d76-ef75-4045-8c01-1768e252a152","ios":"levelo://app?vid=19721d76-ef75-4045-8c01-1768e252a152"},"vehicle_type_id":"4","last_reported":1714172873,"current_range_meters":19200,"station_id":"ce4bgt12rcd13ifvqce0","pricing_plan_id":"cebpf4jnsgd1na2vs0mg"},{"bike_id":"7cab340b-9dfc-424e-93bc-ea661f42e436","system_id":"levelo_inurba_marseille","lat":43.308012,"lon":5.381511,"is_reserved":false,"is_disabled":false,"rental_uris":{"android":"levelo://app?vid=7cab340b-9dfc-424e-93bc-ea661f42e436","ios":"levelo://app?vid=7cab340b-9dfc-424e-93bc-ea661f42e436"},"vehicle_type_id":"4","last_reported":1714172873,"current_range_meters":22000,"station_id":"ce4bgt12rcd13ifvqce0","pricing_plan_id":"cebpf4jnsgd1na2vs0mg"},{"bike_id":"78740e83-14ab-471e-a55c-3e2811889321","system_id":"levelo_inurba_marseille","lat":43.308012,"lon":5.381511,"is_reserved":false,"is_disabled":false,"rental_uris":{"android":"levelo://app?vid=78740e83-14ab-471e-a55c-3e2811889321","ios":"levelo://app?vid=78740e83-14ab-471e-a55c-3e2811889321"},"vehicle_type_id":"4","last_reported":1714172873,"current_range_meters":26400,"station_id":"ce4bgt12rcd13ifvqce0","pricing_plan_id":"cebpf4jnsgd1na2vs0mg"},{"bike_id":"4e36a9ce-b274-4c02-a3c7-f6873b4e8768","system_id":"levelo_inurba_marseille","lat":43.308012,"lon":5.381511,"is_reserved":false,"is_disabled":false,"rental_uris":{"android":"levelo://app?vid=4e36a9ce-b274-4c02-a3c7-f6873b4e8768","ios":"levelo://app?vid=4e36a9ce-b274-4c02-a3c7-f6873b4e8768"},"vehicle_type_id":"4","last_reported":1714172873,"current_range_meters":25200,"station_id":"ce4bgt12rcd13ifvqce0","pricing_plan_id":"cebpf4jnsgd1na2vs0mg"},{"bike_id":"55564b03-305f-4a03-8806-45d25ef87153","system_id":"levelo_inurba_marseille","lat":43.304606,"lon":5.379026,"is_reserved":false,"is_disabled":false,"rental_uris":{"android":"levelo://app?vid=55564b03-305f-4a03-8806-45d25ef87153","ios":"levelo://app?vid=55564b03-305f-4a03-8806-45d25ef87153"},"vehicle_type_id":"4","last_reported":1714172873,"current_range_meters":24800,"station_id":"ce4bgup2rcd13ifvqcn0","pricing_plan_id":"cebpf4jnsgd1na2vs0mg"},{"bike_id":"0bc53f06-1fac-4dea-8998-c2943d268dcf","system_id":"levelo_inurba_marseille","lat":43.30462,"lon":5.379,"is_reserved":false,"is_disabled":false,"rental_uris":{"android":"levelo://app?vid=0bc53f06-1fac-4dea-8998-c2943d268dcf","ios":"levelo://app?vid=0bc53f06-1fac-4dea-8998-c2943d268dcf"},"vehicle_type_id":"4","last_reported":1714172873,"current_range_meters":12800,"station_id":"ce4bgup2rcd13ifvqcn0","pricing_plan_id":"cebpf4jnsgd1na2vs0mg"},{"bike_id":"0a50131b-b4a8-4c84-8dc1-909527462507","system_id":"levelo_inurba_marseille","lat":43.28573,"lon":5.394992,"is_reserved":false,"is_disabled":false,"rental_uris":{"android":"levelo://app?vid=0a50131b-b4a8-4c84-8dc1-909527462507","ios":"levelo://app?vid=0a50131b-b4a8-4c84-8dc1-909527462507"},"vehicle_type_id":"4","last_reported":1714172873,"current_range_meters":24400,"station_id":"ce4bh292rcd13ifvqdg0","pricing_plan_id":"cebpf4jnsgd1na2vs0mg"},{"bike_id":"1b4acdb9-b533-4fbe-be14-3d235a47355f","system_id":"levelo_inurba_marseille","lat":43.324771,"lon":5.36557,"is_reserved":false,"is_disabled":false,"rental_uris":{"android":"levelo://app?vid=1b4acdb9-b533-4fbe-be14-3d235a47355f","ios":"levelo://app?vid=1b4acdb9-b533-4fbe-be14-3d235a47355f"},"vehicle_type_id":"4","last_reported":1714172873,"current_range_meters":16000,"station_id":"ce4bhs12rcd13ifvqhvg","pricing_plan_id":"cebpf4jnsgd1na2vs0mg"},{"bike_id":"ca8797d0-f2d9-44c4-af00-807579e79305","system_id":"levelo_inurba_marseille","lat":43.304606,"lon":5.379026,"is_reserved":false,"is_disabled":false,"rental_uris":{"android":"levelo://app?vid=ca8797d0-f2d9-44c4-af00-807579e79305","ios":"levelo://app?vid=ca8797d0-f2d9-44c4-af00-807579e79305"},"vehicle_type_id":"4","last_reported":1714172873,"current_range_meters":26000,"station_id":"ce4bgup2rcd13ifvqcn0","pricing_plan_id":"cebpf4jnsgd1na2vs0mg"},{"bike_id":"f81cc073-b64f-458e-b8f8-f4f4c0ea8705","system_id":"levelo_inurba_marseille","lat":43.324771,"lon":5.36557,"is_reserved":false,"is_disabled":false,"rental_uris":{"android":"levelo://app?vid=f81cc073-b64f-458e-b8f8-f4f4c0ea8705","ios":"levelo://app?vid=f81cc073-b64f-458e-b8f8-f4f4c0ea8705"},"vehicle_type_id":"4","last_reported":1714172873,"current_range_meters":8000,"station_id":"ce4bhs12rcd13ifvqhvg","pricing_plan_id":"cebpf4jnsgd1na2vs0mg"},{"bike_id":"375b50fc-ac68-40dd-ad99-add96c82b6e9","system_id":"levelo_inurba_marseille","lat":43.324825,"lon":5.365565,"is_reserved":false,"is_disabled":false,"rental_uris":{"android":"levelo://app?vid=375b50fc-ac68-40dd-ad99-add96c82b6e9","ios":"levelo://app?vid=375b50fc-ac68-40dd-ad99-add96c82b6e9"},"vehicle_type_id":"4","last_reported":1714172873,"current_range_meters":800,"station_id":"ce4bhs12rcd13ifvqhvg","pricing_plan_id":"cebpf4jnsgd1na2vs0mg"},{"bike_id":"7d2182b4-dbc2-4a24-a45c-47ca0cb96df7","system_id":"levelo_inurba_marseille","lat":43.324771,"lon":5.36557,"is_reserved":false,"is_disabled":false,"rental_uris":{"android":"levelo://app?vid=7d2182b4-dbc2-4a24-a45c-47ca0cb96df7","ios":"levelo://app?vid=7d2182b4-dbc2-4a24-a45c-47ca0cb96df7"},"vehicle_type_id":"4","last_reported":1714172873,"current_range_meters":21600,"station_id":"ce4bhs12rcd13ifvqhvg","pricing_plan_id":"cebpf4jnsgd1na2vs0mg"},{"bike_id":"0c158e1b-4722-4f12-8396-1c9d9f4a29d5","system_id":"levelo_inurba_marseille","lat":43.324771,"lon":5.36557,"is_reserved":false,"is_disabled":false,"rental_uris":{"android":"levelo://app?vid=0c158e1b-4722-4f12-8396-1c9d9f4a29d5","ios":"levelo://app?vid=0c158e1b-4722-4f12-8396-1c9d9f4a29d5"},"vehicle_type_id":"4","last_reported":1714172873,"current_range_meters":26400,"station_id":"ce4bhs12rcd13ifvqhvg","pricing_plan_id":"cebpf4jnsgd1na2vs0mg"},{"bike_id":"ca4ca187-799d-46f4-a1d1-32619e2f58ca","system_id":"levelo_inurba_marseille","lat":43.305714,"lon":5.365633,"is_reserved":false,"is_disabled":false,"rental_uris":{"android":"levelo://app?vid=ca4ca187-799d-46f4-a1d1-32619e2f58ca","ios":"levelo://app?vid=ca4ca187-799d-46f4-a1d1-32619e2f58ca"},"vehicle_type_id":"4","last_reported":1714172873,"current_range_meters":10000,"station_id":"ce4bgs12rcd13ifvqcag","pricing_plan_id":"cebpf4jnsgd1na2vs0mg"},{"bike_id":"2bd54964-39ec-4baf-8d62-ee67fc4efecf","system_id":"levelo_inurba_marseille","lat":43.324771,"lon":5.36557,"is_reserved":false,"is_disabled":false,"rental_uris":{"android":"levelo://app?vid=2bd54964-39ec-4baf-8d62-ee67fc4efecf","ios":"levelo://app?vid=2bd54964-39ec-4baf-8d62-ee67fc4efecf"},"vehicle_type_id":"4","last_reported":1714172873,"current_range_meters":14400,"station_id":"ce4bhs12rcd13ifvqhvg","pricing_plan_id":"cebpf4jnsgd1na2vs0mg"},{"bike_id":"43b64350-638b-4fde-955e-6a2365e245df","system_id":"levelo_inurba_marseille","lat":43.324839,"lon":5.365648,"is_reserved":false,"is_disabled":false,"rental_uris":{"android":"levelo://app?vid=43b64350-638b-4fde-955e-6a2365e245df","ios":"levelo://app?vid=43b64350-638b-4fde-955e-6a2365e245df"},"vehicle_type_id":"4","last_reported":1714172873,"current_range_meters":4800,"station_id":"ce4bhs12rcd13ifvqhvg","pricing_plan_id":"cebpf4jnsgd1na2vs0mg"},{"bike_id":"a7b9408a-43b3-4bb1-9979-1b4ee8ff18b0","system_id":"levelo_inurba_marseille","lat":43.32485,"lon":5.36573,"is_reserved":false,"is_disabled":false,"rental_uris":{"android":"levelo://app?vid=a7b9408a-43b3-4bb1-9979-1b4ee8ff18b0","ios":"levelo://app?vid=a7b9408a-43b3-4bb1-9979-1b4ee8ff18b0"},"vehicle_type_id":"4","last_reported":1714172873,"current_range_meters":7200,"station_id":"ce4bhs12rcd13ifvqhvg","pricing_plan_id":"cebpf4jnsgd1na2vs0mg"},{"bike_id":"ea9f8f61-be81-43ec-8055-fdf55dd5c39f","system_id":"levelo_inurba_marseille","lat":43.32486,"lon":5.36566,"is_reserved":false,"is_disabled":false,"rental_uris":{"android":"levelo://app?vid=ea9f8f61-be81-43ec-8055-fdf55dd5c39f","ios":"levelo://app?vid=ea9f8f61-be81-43ec-8055-fdf55dd5c39f"},"vehicle_type_id":"4","last_reported":1714172873,"current_range_meters":9200,"station_id":"ce4bhs12rcd13ifvqhvg","pricing_plan_id":"cebpf4jnsgd1na2vs0mg"},{"bike_id":"1a9552a3-b3f4-4bad-841f-e59976da677c","system_id":"levelo_inurba_marseille","lat":43.324771,"lon":5.36557,"is_reserved":false,"is_disabled":false,"rental_uris":{"android":"levelo://app?vid=1a9552a3-b3f4-4bad-841f-e59976da677c","ios":"levelo://app?vid=1a9552a3-b3f4-4bad-841f-e59976da677c"},"vehicle_type_id":"4","last_reported":1714172873,"current_range_meters":7200,"station_id":"ce4bhs12rcd13ifvqhvg","pricing_plan_id":"cebpf4jnsgd1na2vs0mg"},{"bike_id":"5698368c-42fd-4bf9-b0b4-80ec9779e153","system_id":"levelo_inurba_marseille","lat":43.31074,"lon":5.38346,"is_reserved":false,"is_disabled":false,"rental_uris":{"android":"levelo://app?vid=5698368c-42fd-4bf9-b0b4-80ec9779e153","ios":"levelo://app?vid=5698368c-42fd-4bf9-b0b4-80ec9779e153"},"vehicle_type_id":"4","last_reported":1714172873,"current_range_meters":13600,"station_id":"ce4bgv92rcd13ifvqcr0","pricing_plan_id":"cebpf4jnsgd1na2vs0mg"},{"bike_id":"9a9ded84-a7c2-42de-87ff-5efa3598b87a","system_id":"levelo_inurba_marseille","lat":43.310586,"lon":5.383437,"is_reserved":false,"is_disabled":false,"rental_uris":{"android":"levelo://app?vid=9a9ded84-a7c2-42de-87ff-5efa3598b87a","ios":"levelo://app?vid=9a9ded84-a7c2-42de-87ff-5efa3598b87a"},"vehicle_type_id":"4","last_reported":1714172873,"current_range_meters":27600,"station_id":"ce4bgv92rcd13ifvqcr0","pricing_plan_id":"cebpf4jnsgd1na2vs0mg"},{"bike_id":"e50591bf-79ab-4782-9f5f-8f8f926d6dda","system_id":"levelo_inurba_marseille","lat":43.310802,"lon":5.383568,"is_reserved":false,"is_disabled":false,"rental_uris":{"android":"levelo://app?vid=e50591bf-79ab-4782-9f5f-8f8f926d6dda","ios":"levelo://app?vid=e50591bf-79ab-4782-9f5f-8f8f926d6dda"},"vehicle_type_id":"4","last_reported":1714172873,"current_range_meters":12000,"station_id":"ce4bgv92rcd13ifvqcr0","pricing_plan_id":"cebpf4jnsgd1na2vs0mg"},{"bike_id":"2a2bc884-17b4-4cca-8255-484107a40432","system_id":"levelo_inurba_marseille","lat":43.310804,"lon":5.38359,"is_reserved":false,"is_disabled":false,"rental_uris":{"android":"levelo://app?vid=2a2bc884-17b4-4cca-8255-484107a40432","ios":"levelo://app?vid=2a2bc884-17b4-4cca-8255-484107a40432"},"vehicle_type_id":"4","last_reported":1714172873,"current_range_meters":24400,"station_id":"ce4bgv92rcd13ifvqcr0","pricing_plan_id":"cebpf4jnsgd1na2vs0mg"},{"bike_id":"5949ef4b-c0ac-4d1f-868f-3bea621fa630","system_id":"levelo_inurba_marseille","lat":43.310804,"lon":5.38359,"is_reserved":false,"is_disabled":false,"rental_uris":{"android":"levelo://app?vid=5949ef4b-c0ac-4d1f-868f-3bea621fa630","ios":"levelo://app?vid=5949ef4b-c0ac-4d1f-868f-3bea621fa630"},"vehicle_type_id":"4","last_reported":1714172873,"current_range_meters":4000,"station_id":"ce4bgv92rcd13ifvqcr0","pricing_plan_id":"cebpf4jnsgd1na2vs0mg"},{"bike_id":"94234f25-de1e-47d2-badc-2abe2f0f97b3","system_id":"levelo_inurba_marseille","lat":43.310804,"lon":5.38359,"is_reserved":false,"is_disabled":false,"rental_uris":{"android":"levelo://app?vid=94234f25-de1e-47d2-badc-2abe2f0f97b3","ios":"levelo://app?vid=94234f25-de1e-47d2-badc-2abe2f0f97b3"},"vehicle_type_id":"4","last_reported":1714172873,"current_range_meters":25600,"station_id":"ce4bgv92rcd13ifvqcr0","pricing_plan_id":"cebpf4jnsgd1na2vs0mg"},{"bike_id":"2985fde3-a325-49e0-a7f3-e39244e9cbbf","system_id":"levelo_inurba_marseille","lat":43.310804,"lon":5.38359,"is_reserved":false,"is_disabled":false,"rental_uris":{"android":"levelo://app?vid=2985fde3-a325-49e0-a7f3-e39244e9cbbf","ios":"levelo://app?vid=2985fde3-a325-49e0-a7f3-e39244e9cbbf"},"vehicle_type_id":"4","last_reported":1714172873,"current_range_meters":800,"station_id":"ce4bgv92rcd13ifvqcr0","pricing_plan_id":"cebpf4jnsgd1na2vs0mg"},{"bike_id":"ce4d155b-d270-43d9-869b-df44d7f291c1","system_id":"levelo_inurba_marseille","lat":43.302784,"lon":5.377158,"is_reserved":false,"is_disabled":false,"rental_uris":{"android":"levelo://app?vid=ce4d155b-d270-43d9-869b-df44d7f291c1","ios":"levelo://app?vid=ce4d155b-d270-43d9-869b-df44d7f291c1"},"vehicle_type_id":"4","last_reported":1714172873,"current_range_meters":17600,"station_id":"ce4bguh2rcd13ifvqcj0","pricing_plan_id":"cebpf4jnsgd1na2vs0mg"},{"bike_id":"2a6ee690-6681-4c76-b48e-d8d6bd8a6005","system_id":"levelo_inurba_marseille","lat":43.302784,"lon":5.377158,"is_reserved":false,"is_disabled":false,"rental_uris":{"android":"levelo://app?vid=2a6ee690-6681-4c76-b48e-d8d6bd8a6005","ios":"levelo://app?vid=2a6ee690-6681-4c76-b48e-d8d6bd8a6005"},"vehicle_type_id":"4","last_reported":1714172873,"current_range_meters":28000,"station_id":"ce4bguh2rcd13ifvqcj0","pricing_plan_id":"cebpf4jnsgd1na2vs0mg"},{"bike_id":"094d35a1-b4b6-4f59-ba70-c2ebec9c0a1c","system_id":"levelo_inurba_marseille","lat":43.302784,"lon":5.377158,"is_reserved":false,"is_disabled":false,"rental_uris":{"android":"levelo://app?vid=094d35a1-b4b6-4f59-ba70-c2ebec9c0a1c","ios":"levelo://app?vid=094d35a1-b4b6-4f59-ba70-c2ebec9c0a1c"},"vehicle_type_id":"4","last_reported":1714172873,"current_range_meters":28000,"station_id":"ce4bguh2rcd13ifvqcj0","pricing_plan_id":"cebpf4jnsgd1na2vs0mg"},{"bike_id":"df7cd3ef-9c4a-499f-a70d-b7f5c28d63ab","system_id":"levelo_inurba_marseille","lat":43.30143,"lon":5.37413,"is_reserved":false,"is_disabled":false,"rental_uris":{"android":"levelo://app?vid=df7cd3ef-9c4a-499f-a70d-b7f5c28d63ab","ios":"levelo://app?vid=df7cd3ef-9c4a-499f-a70d-b7f5c28d63ab"},"vehicle_type_id":"4","last_reported":1714172873,"current_range_meters":30000,"station_id":"ce4bgs92rcd13ifvqcc0","pricing_plan_id":"cebpf4jnsgd1na2vs0mg"},{"bike_id":"9bfa62bf-44ac-48ab-af04-10cda508d47e","system_id":"levelo_inurba_marseille","lat":43.30143,"lon":5.37413,"is_reserved":false,"is_disabled":false,"rental_uris":{"android":"levelo://app?vid=9bfa62bf-44ac-48ab-af04-10cda508d47e","ios":"levelo://app?vid=9bfa62bf-44ac-48ab-af04-10cda508d47e"},"vehicle_type_id":"4","last_reported":1714172873,"current_range_meters":11200,"station_id":"ce4bgs92rcd13ifvqcc0","pricing_plan_id":"cebpf4jnsgd1na2vs0mg"},{"bike_id":"9c8eea3b-26fb-4957-957f-0a1d5e27f4d7","system_id":"levelo_inurba_marseille","lat":43.30143,"lon":5.37413,"is_reserved":false,"is_disabled":false,"rental_uris":{"android":"levelo://app?vid=9c8eea3b-26fb-4957-957f-0a1d5e27f4d7","ios":"levelo://app?vid=9c8eea3b-26fb-4957-957f-0a1d5e27f4d7"},"vehicle_type_id":"4","last_reported":1714172873,"current_range_meters":20400,"station_id":"ce4bgs92rcd13ifvqcc0","pricing_plan_id":"cebpf4jnsgd1na2vs0mg"},{"bike_id":"6465cbe8-1299-4f3b-aa36-598c85f8face","system_id":"levelo_inurba_marseille","lat":43.30143,"lon":5.37413,"is_reserved":false,"is_disabled":false,"rental_uris":{"android":"levelo://app?vid=6465cbe8-1299-4f3b-aa36-598c85f8face","ios":"levelo://app?vid=6465cbe8-1299-4f3b-aa36-598c85f8face"},"vehicle_type_id":"4","last_reported":1714172873,"current_range_meters":5200,"station_id":"ce4bgs92rcd13ifvqcc0","pricing_plan_id":"cebpf4jnsgd1na2vs0mg"},{"bike_id":"9fc18346-c2ee-44e4-86c3-0a92d0bdc296","system_id":"levelo_inurba_marseille","lat":43.301429,"lon":5.37413,"is_reserved":false,"is_disabled":false,"rental_uris":{"android":"levelo://app?vid=9fc18346-c2ee-44e4-86c3-0a92d0bdc296","ios":"levelo://app?vid=9fc18346-c2ee-44e4-86c3-0a92d0bdc296"},"vehicle_type_id":"4","last_reported":1714172873,"current_range_meters":16800,"station_id":"ce4bgs92rcd13ifvqcc0","pricing_plan_id":"cebpf4jnsgd1na2vs0mg"},{"bike_id":"ca099123-cf1c-4285-bad7-b18ef8845cc1","system_id":"levelo_inurba_marseille","lat":43.302784,"lon":5.377158,"is_reserved":false,"is_disabled":false,"rental_uris":{"android":"levelo://app?vid=ca099123-cf1c-4285-bad7-b18ef8845cc1","ios":"levelo://app?vid=ca099123-cf1c-4285-bad7-b18ef8845cc1"},"vehicle_type_id":"4","last_reported":1714172873,"current_range_meters":22400,"station_id":"ce4bguh2rcd13ifvqcj0","pricing_plan_id":"cebpf4jnsgd1na2vs0mg"},{"bike_id":"235c8c1d-f21b-4f39-86f9-c6fd375d8345","system_id":"levelo_inurba_marseille","lat":43.301429,"lon":5.37413,"is_reserved":false,"is_disabled":false,"rental_uris":{"android":"levelo://app?vid=235c8c1d-f21b-4f39-86f9-c6fd375d8345","ios":"levelo://app?vid=235c8c1d-f21b-4f39-86f9-c6fd375d8345"},"vehicle_type_id":"4","last_reported":1714172873,"current_range_meters":26400,"station_id":"ce4bgs92rcd13ifvqcc0","pricing_plan_id":"cebpf4jnsgd1na2vs0mg"},{"bike_id":"3a1d9eda-cacf-428c-bed5-5866adfd7f82","system_id":"levelo_inurba_marseille","lat":43.301429,"lon":5.37413,"is_reserved":false,"is_disabled":false,"rental_uris":{"android":"levelo://app?vid=3a1d9eda-cacf-428c-bed5-5866adfd7f82","ios":"levelo://app?vid=3a1d9eda-cacf-428c-bed5-5866adfd7f82"},"vehicle_type_id":"4","last_reported":1714172873,"current_range_meters":30400,"station_id":"ce4bgs92rcd13ifvqcc0","pricing_plan_id":"cebpf4jnsgd1na2vs0mg"},{"bike_id":"03698ad1-8cd4-4d0d-bbf9-01af8f03c8d4","system_id":"levelo_inurba_marseille","lat":43.30143,"lon":5.37413,"is_reserved":false,"is_disabled":false,"rental_uris":{"android":"levelo://app?vid=03698ad1-8cd4-4d0d-bbf9-01af8f03c8d4","ios":"levelo://app?vid=03698ad1-8cd4-4d0d-bbf9-01af8f03c8d4"},"vehicle_type_id":"4","last_reported":1714172873,"current_range_meters":23200,"station_id":"ce4bgs92rcd13ifvqcc0","pricing_plan_id":"cebpf4jnsgd1na2vs0mg"},{"bike_id":"2f3d3a30-8570-4ba5-8a2c-3b3fc34fee88","system_id":"levelo_inurba_marseille","lat":43.319935,"lon":5.381699,"is_reserved":false,"is_disabled":false,"rental_uris":{"android":"levelo://app?vid=2f3d3a30-8570-4ba5-8a2c-3b3fc34fee88","ios":"levelo://app?vid=2f3d3a30-8570-4ba5-8a2c-3b3fc34fee88"},"vehicle_type_id":"4","last_reported":1714172873,"current_range_meters":400,"station_id":"ce4bhr12rcd13ifvqhpg","pricing_plan_id":"cebpf4jnsgd1na2vs0mg"},{"bike_id":"f052b32c-cf73-4ae8-8c5e-67c8817313ef","system_id":"levelo_inurba_marseille","lat":43.319935,"lon":5.381699,"is_reserved":false,"is_disabled":false,"rental_uris":{"android":"levelo://app?vid=f052b32c-cf73-4ae8-8c5e-67c8817313ef","ios":"levelo://app?vid=f052b32c-cf73-4ae8-8c5e-67c8817313ef"},"vehicle_type_id":"4","last_reported":1714172873,"current_range_meters":28400,"station_id":"ce4bhr12rcd13ifvqhpg","pricing_plan_id":"cebpf4jnsgd1na2vs0mg"},{"bike_id":"4711de5f-eb77-4dc2-9a13-c65041e80678","system_id":"levelo_inurba_marseille","lat":43.319935,"lon":5.381699,"is_reserved":false,"is_disabled":false,"rental_uris":{"android":"levelo://app?vid=4711de5f-eb77-4dc2-9a13-c65041e80678","ios":"levelo://app?vid=4711de5f-eb77-4dc2-9a13-c65041e80678"},"vehicle_type_id":"4","last_reported":1714172873,"current_range_meters":10000,"station_id":"ce4bhr12rcd13ifvqhpg","pricing_plan_id":"cebpf4jnsgd1na2vs0mg"},{"bike_id":"7f14b815-14ed-4338-bdda-2d24756e1faa","system_id":"levelo_inurba_marseille","lat":43.319935,"lon":5.381699,"is_reserved":false,"is_disabled":false,"rental_uris":{"android":"levelo://app?vid=7f14b815-14ed-4338-bdda-2d24756e1faa","ios":"levelo://app?vid=7f14b815-14ed-4338-bdda-2d24756e1faa"},"vehicle_type_id":"4","last_reported":1714172873,"current_range_meters":2400,"station_id":"ce4bhr12rcd13ifvqhpg","pricing_plan_id":"cebpf4jnsgd1na2vs0mg"},{"bike_id":"af009f0b-228e-4835-9f2d-04fdeeff7d3e","system_id":"levelo_inurba_marseille","lat":43.319935,"lon":5.381699,"is_reserved":false,"is_disabled":false,"rental_uris":{"android":"levelo://app?vid=af009f0b-228e-4835-9f2d-04fdeeff7d3e","ios":"levelo://app?vid=af009f0b-228e-4835-9f2d-04fdeeff7d3e"},"vehicle_type_id":"4","last_reported":1714172873,"current_range_meters":19200,"station_id":"ce4bhr12rcd13ifvqhpg","pricing_plan_id":"cebpf4jnsgd1na2vs0mg"},{"bike_id":"0171b7f0-8ae7-4607-8508-d93be971cdb9","system_id":"levelo_inurba_marseille","lat":43.313571,"lon":5.384829,"is_reserved":false,"is_disabled":false,"rental_uris":{"android":"levelo://app?vid=0171b7f0-8ae7-4607-8508-d93be971cdb9","ios":"levelo://app?vid=0171b7f0-8ae7-4607-8508-d93be971cdb9"},"vehicle_type_id":"4","last_reported":1714172873,"current_range_meters":21600,"station_id":"ce4bgt92rcd13ifvqcf0","pricing_plan_id":"cebpf4jnsgd1na2vs0mg"},{"bike_id":"3095d3eb-774a-496d-983b-2b9876f24518","system_id":"levelo_inurba_marseille","lat":43.313571,"lon":5.384829,"is_reserved":false,"is_disabled":false,"rental_uris":{"android":"levelo://app?vid=3095d3eb-774a-496d-983b-2b9876f24518","ios":"levelo://app?vid=3095d3eb-774a-496d-983b-2b9876f24518"},"vehicle_type_id":"4","last_reported":1714172873,"current_range_meters":21600,"station_id":"ce4bgt92rcd13ifvqcf0","pricing_plan_id":"cebpf4jnsgd1na2vs0mg"},{"bike_id":"0fd2ab35-8422-4adc-8d1f-2641adb52d89","system_id":"levelo_inurba_marseille","lat":43.313571,"lon":5.384829,"is_reserved":false,"is_disabled":false,"rental_uris":{"android":"levelo://app?vid=0fd2ab35-8422-4adc-8d1f-2641adb52d89","ios":"levelo://app?vid=0fd2ab35-8422-4adc-8d1f-2641adb52d89"},"vehicle_type_id":"4","last_reported":1714172873,"current_range_meters":15200,"station_id":"ce4bgt92rcd13ifvqcf0","pricing_plan_id":"cebpf4jnsgd1na2vs0mg"},{"bike_id":"5ccb6ea6-9a1b-4c56-bb0f-ca56b7e0af52","system_id":"levelo_inurba_marseille","lat":43.313571,"lon":5.384829,"is_reserved":false,"is_disabled":false,"rental_uris":{"android":"levelo://app?vid=5ccb6ea6-9a1b-4c56-bb0f-ca56b7e0af52","ios":"levelo://app?vid=5ccb6ea6-9a1b-4c56-bb0f-ca56b7e0af52"},"vehicle_type_id":"4","last_reported":1714172873,"current_range_meters":18400,"station_id":"ce4bgt92rcd13ifvqcf0","pricing_plan_id":"cebpf4jnsgd1na2vs0mg"},{"bike_id":"4f496af7-234a-4111-8108-ab75afd4305a","system_id":"levelo_inurba_marseille","lat":43.313571,"lon":5.384829,"is_reserved":false,"is_disabled":false,"rental_uris":{"android":"levelo://app?vid=4f496af7-234a-4111-8108-ab75afd4305a","ios":"levelo://app?vid=4f496af7-234a-4111-8108-ab75afd4305a"},"vehicle_type_id":"4","last_reported":1714172873,"current_range_meters":30800,"station_id":"ce4bgt92rcd13ifvqcf0","pricing_plan_id":"cebpf4jnsgd1na2vs0mg"},{"bike_id":"5ec507dc-1aab-4a7b-98a9-b6eb75260993","system_id":"levelo_inurba_marseille","lat":43.313571,"lon":5.384829,"is_reserved":false,"is_disabled":false,"rental_uris":{"android":"levelo://app?vid=5ec507dc-1aab-4a7b-98a9-b6eb75260993","ios":"levelo://app?vid=5ec507dc-1aab-4a7b-98a9-b6eb75260993"},"vehicle_type_id":"4","last_reported":1714172873,"current_range_meters":0,"station_id":"ce4bgt92rcd13ifvqcf0","pricing_plan_id":"cebpf4jnsgd1na2vs0mg"},{"bike_id":"5c02f712-3cf0-4b4b-8d69-537eccefd8df","system_id":"levelo_inurba_marseille","lat":43.31368,"lon":5.38487,"is_reserved":false,"is_disabled":false,"rental_uris":{"android":"levelo://app?vid=5c02f712-3cf0-4b4b-8d69-537eccefd8df","ios":"levelo://app?vid=5c02f712-3cf0-4b4b-8d69-537eccefd8df"},"vehicle_type_id":"4","last_reported":1714172873,"current_range_meters":14000,"station_id":"ce4bgt92rcd13ifvqcf0","pricing_plan_id":"cebpf4jnsgd1na2vs0mg"},{"bike_id":"724f2455-f8ca-415e-8003-da826a893920","system_id":"levelo_inurba_marseille","lat":43.313571,"lon":5.384829,"is_reserved":false,"is_disabled":false,"rental_uris":{"android":"levelo://app?vid=724f2455-f8ca-415e-8003-da826a893920","ios":"levelo://app?vid=724f2455-f8ca-415e-8003-da826a893920"},"vehicle_type_id":"4","last_reported":1714172873,"current_range_meters":5200,"station_id":"ce4bgt92rcd13ifvqcf0","pricing_plan_id":"cebpf4jnsgd1na2vs0mg"},{"bike_id":"e235debc-44af-44b8-bef0-56019a843f56","system_id":"levelo_inurba_marseille","lat":43.313571,"lon":5.384829,"is_reserved":false,"is_disabled":false,"rental_uris":{"android":"levelo://app?vid=e235debc-44af-44b8-bef0-56019a843f56","ios":"levelo://app?vid=e235debc-44af-44b8-bef0-56019a843f56"},"vehicle_type_id":"4","last_reported":1714172873,"current_range_meters":15600,"station_id":"ce4bgt92rcd13ifvqcf0","pricing_plan_id":"cebpf4jnsgd1na2vs0mg"},{"bike_id":"985af8f6-6632-4b92-90a8-abc0817df9b9","system_id":"levelo_inurba_marseille","lat":43.313571,"lon":5.384829,"is_reserved":false,"is_disabled":false,"rental_uris":{"android":"levelo://app?vid=985af8f6-6632-4b92-90a8-abc0817df9b9","ios":"levelo://app?vid=985af8f6-6632-4b92-90a8-abc0817df9b9"},"vehicle_type_id":"4","last_reported":1714172873,"current_range_meters":0,"station_id":"ce4bgt92rcd13ifvqcf0","pricing_plan_id":"cebpf4jnsgd1na2vs0mg"},{"bike_id":"6844d34b-3545-4678-b5c8-6338036d9468","system_id":"levelo_inurba_marseille","lat":43.313571,"lon":5.384829,"is_reserved":false,"is_disabled":false,"rental_uris":{"android":"levelo://app?vid=6844d34b-3545-4678-b5c8-6338036d9468","ios":"levelo://app?vid=6844d34b-3545-4678-b5c8-6338036d9468"},"vehicle_type_id":"4","last_reported":1714172873,"current_range_meters":10400,"station_id":"ce4bgt92rcd13ifvqcf0","pricing_plan_id":"cebpf4jnsgd1na2vs0mg"},{"bike_id":"1075d6ad-0155-4ee8-bc62-8dec3a1fcb48","system_id":"levelo_inurba_marseille","lat":43.313571,"lon":5.384829,"is_reserved":false,"is_disabled":false,"rental_uris":{"android":"levelo://app?vid=1075d6ad-0155-4ee8-bc62-8dec3a1fcb48","ios":"levelo://app?vid=1075d6ad-0155-4ee8-bc62-8dec3a1fcb48"},"vehicle_type_id":"4","last_reported":1714172873,"current_range_meters":0,"station_id":"ce4bgt92rcd13ifvqcf0","pricing_plan_id":"cebpf4jnsgd1na2vs0mg"},{"bike_id":"9911bfe8-b5f9-457a-9afd-3d1adc22be31","system_id":"levelo_inurba_marseille","lat":43.3137,"lon":5.3849,"is_reserved":false,"is_disabled":false,"rental_uris":{"android":"levelo://app?vid=9911bfe8-b5f9-457a-9afd-3d1adc22be31","ios":"levelo://app?vid=9911bfe8-b5f9-457a-9afd-3d1adc22be31"},"vehicle_type_id":"4","last_reported":1714172873,"current_range_meters":2000,"station_id":"ce4bgt92rcd13ifvqcf0","pricing_plan_id":"cebpf4jnsgd1na2vs0mg"},{"bike_id":"fa87b064-b137-4c96-8d36-3c0652a4697e","system_id":"levelo_inurba_marseille","lat":43.313571,"lon":5.384829,"is_reserved":false,"is_disabled":false,"rental_uris":{"android":"levelo://app?vid=fa87b064-b137-4c96-8d36-3c0652a4697e","ios":"levelo://app?vid=fa87b064-b137-4c96-8d36-3c0652a4697e"},"vehicle_type_id":"4","last_reported":1714172873,"current_range_meters":11200,"station_id":"ce4bgt92rcd13ifvqcf0","pricing_plan_id":"cebpf4jnsgd1na2vs0mg"},{"bike_id":"d97d16b8-561b-46f4-968b-54c90d043b85","system_id":"levelo_inurba_marseille","lat":43.313571,"lon":5.384829,"is_reserved":false,"is_disabled":false,"rental_uris":{"android":"levelo://app?vid=d97d16b8-561b-46f4-968b-54c90d043b85","ios":"levelo://app?vid=d97d16b8-561b-46f4-968b-54c90d043b85"},"vehicle_type_id":"4","last_reported":1714172873,"current_range_meters":20800,"station_id":"ce4bgt92rcd13ifvqcf0","pricing_plan_id":"cebpf4jnsgd1na2vs0mg"},{"bike_id":"790b9c75-11cf-42d2-9532-d877537883cb","system_id":"levelo_inurba_marseille","lat":43.31367,"lon":5.38491,"is_reserved":false,"is_disabled":false,"rental_uris":{"android":"levelo://app?vid=790b9c75-11cf-42d2-9532-d877537883cb","ios":"levelo://app?vid=790b9c75-11cf-42d2-9532-d877537883cb"},"vehicle_type_id":"4","last_reported":1714172873,"current_range_meters":14400,"station_id":"ce4bgt92rcd13ifvqcf0","pricing_plan_id":"cebpf4jnsgd1na2vs0mg"},{"bike_id":"23104518-46a0-47c2-bf4e-82be3bb9b513","system_id":"levelo_inurba_marseille","lat":43.313571,"lon":5.384829,"is_reserved":false,"is_disabled":false,"rental_uris":{"android":"levelo://app?vid=23104518-46a0-47c2-bf4e-82be3bb9b513","ios":"levelo://app?vid=23104518-46a0-47c2-bf4e-82be3bb9b513"},"vehicle_type_id":"4","last_reported":1714172873,"current_range_meters":19600,"station_id":"ce4bgt92rcd13ifvqcf0","pricing_plan_id":"cebpf4jnsgd1na2vs0mg"},{"bike_id":"c115d94f-7100-4a40-9a06-268bae914628","system_id":"levelo_inurba_marseille","lat":43.313571,"lon":5.384829,"is_reserved":false,"is_disabled":false,"rental_uris":{"android":"levelo://app?vid=c115d94f-7100-4a40-9a06-268bae914628","ios":"levelo://app?vid=c115d94f-7100-4a40-9a06-268bae914628"},"vehicle_type_id":"4","last_reported":1714172873,"current_range_meters":6800,"station_id":"ce4bgt92rcd13ifvqcf0","pricing_plan_id":"cebpf4jnsgd1na2vs0mg"},{"bike_id":"3601ad3e-3534-435c-84fc-9a512ed46fc6","system_id":"levelo_inurba_marseille","lat":43.313571,"lon":5.384829,"is_reserved":false,"is_disabled":false,"rental_uris":{"android":"levelo://app?vid=3601ad3e-3534-435c-84fc-9a512ed46fc6","ios":"levelo://app?vid=3601ad3e-3534-435c-84fc-9a512ed46fc6"},"vehicle_type_id":"4","last_reported":1714172873,"current_range_meters":14000,"station_id":"ce4bgt92rcd13ifvqcf0","pricing_plan_id":"cebpf4jnsgd1na2vs0mg"},{"bike_id":"6354c10f-499f-494e-a648-2bcb299ca4bc","system_id":"levelo_inurba_marseille","lat":43.313571,"lon":5.384829,"is_reserved":false,"is_disabled":false,"rental_uris":{"android":"levelo://app?vid=6354c10f-499f-494e-a648-2bcb299ca4bc","ios":"levelo://app?vid=6354c10f-499f-494e-a648-2bcb299ca4bc"},"vehicle_type_id":"4","last_reported":1714172873,"current_range_meters":29200,"station_id":"ce4bgt92rcd13ifvqcf0","pricing_plan_id":"cebpf4jnsgd1na2vs0mg"},{"bike_id":"44655feb-b7ba-47eb-b80e-4e8a540ac2d8","system_id":"levelo_inurba_marseille","lat":43.31375,"lon":5.38493,"is_reserved":false,"is_disabled":false,"rental_uris":{"android":"levelo://app?vid=44655feb-b7ba-47eb-b80e-4e8a540ac2d8","ios":"levelo://app?vid=44655feb-b7ba-47eb-b80e-4e8a540ac2d8"},"vehicle_type_id":"4","last_reported":1714172873,"current_range_meters":16400,"station_id":"ce4bgt92rcd13ifvqcf0","pricing_plan_id":"cebpf4jnsgd1na2vs0mg"},{"bike_id":"d5078be7-8874-41ed-a58d-22f529aacaf3","system_id":"levelo_inurba_marseille","lat":43.313571,"lon":5.384829,"is_reserved":false,"is_disabled":false,"rental_uris":{"android":"levelo://app?vid=d5078be7-8874-41ed-a58d-22f529aacaf3","ios":"levelo://app?vid=d5078be7-8874-41ed-a58d-22f529aacaf3"},"vehicle_type_id":"4","last_reported":1714172873,"current_range_meters":27200,"station_id":"ce4bgt92rcd13ifvqcf0","pricing_plan_id":"cebpf4jnsgd1na2vs0mg"},{"bike_id":"c8db871d-0869-4d14-865c-ae866bca3ebd","system_id":"levelo_inurba_marseille","lat":43.313571,"lon":5.384829,"is_reserved":false,"is_disabled":false,"rental_uris":{"android":"levelo://app?vid=c8db871d-0869-4d14-865c-ae866bca3ebd","ios":"levelo://app?vid=c8db871d-0869-4d14-865c-ae866bca3ebd"},"vehicle_type_id":"4","last_reported":1714172873,"current_range_meters":29600,"station_id":"ce4bgt92rcd13ifvqcf0","pricing_plan_id":"cebpf4jnsgd1na2vs0mg"},{"bike_id":"bf110b60-5c80-4e05-8186-d0f415c759dd","system_id":"levelo_inurba_marseille","lat":43.29602,"lon":5.381084,"is_reserved":false,"is_disabled":false,"rental_uris":{"android":"levelo://app?vid=bf110b60-5c80-4e05-8186-d0f415c759dd","ios":"levelo://app?vid=bf110b60-5c80-4e05-8186-d0f415c759dd"},"vehicle_type_id":"4","last_reported":1714172873,"current_range_meters":19200,"station_id":"ce4bgl12rcd13ifvqbo0","pricing_plan_id":"cebpf4jnsgd1na2vs0mg"},{"bike_id":"d95533cc-b60b-4b58-9815-c3d603df9c14","system_id":"levelo_inurba_marseille","lat":43.313571,"lon":5.384829,"is_reserved":false,"is_disabled":false,"rental_uris":{"android":"levelo://app?vid=d95533cc-b60b-4b58-9815-c3d603df9c14","ios":"levelo://app?vid=d95533cc-b60b-4b58-9815-c3d603df9c14"},"vehicle_type_id":"4","last_reported":1714172873,"current_range_meters":5200,"station_id":"ce4bgt92rcd13ifvqcf0","pricing_plan_id":"cebpf4jnsgd1na2vs0mg"},{"bike_id":"eceab68f-5b6b-4b48-9d83-2ca0ac1f4338","system_id":"levelo_inurba_marseille","lat":43.31365,"lon":5.38496,"is_reserved":false,"is_disabled":false,"rental_uris":{"android":"levelo://app?vid=eceab68f-5b6b-4b48-9d83-2ca0ac1f4338","ios":"levelo://app?vid=eceab68f-5b6b-4b48-9d83-2ca0ac1f4338"},"vehicle_type_id":"4","last_reported":1714172873,"current_range_meters":11200,"station_id":"ce4bgt92rcd13ifvqcf0","pricing_plan_id":"cebpf4jnsgd1na2vs0mg"},{"bike_id":"238f6841-965d-4507-b5b5-3d15a203cbc4","system_id":"levelo_inurba_marseille","lat":43.313571,"lon":5.384829,"is_reserved":false,"is_disabled":false,"rental_uris":{"android":"levelo://app?vid=238f6841-965d-4507-b5b5-3d15a203cbc4","ios":"levelo://app?vid=238f6841-965d-4507-b5b5-3d15a203cbc4"},"vehicle_type_id":"4","last_reported":1714172873,"current_range_meters":5200,"station_id":"ce4bgt92rcd13ifvqcf0","pricing_plan_id":"cebpf4jnsgd1na2vs0mg"},{"bike_id":"c63eb126-c7e6-4b25-bec6-575056bb622d","system_id":"levelo_inurba_marseille","lat":43.313571,"lon":5.384829,"is_reserved":false,"is_disabled":false,"rental_uris":{"android":"levelo://app?vid=c63eb126-c7e6-4b25-bec6-575056bb622d","ios":"levelo://app?vid=c63eb126-c7e6-4b25-bec6-575056bb622d"},"vehicle_type_id":"4","last_reported":1714172873,"current_range_meters":18800,"station_id":"ce4bgt92rcd13ifvqcf0","pricing_plan_id":"cebpf4jnsgd1na2vs0mg"},{"bike_id":"e14548e6-06c9-40df-895a-daca41f535c4","system_id":"levelo_inurba_marseille","lat":43.313571,"lon":5.384829,"is_reserved":false,"is_disabled":false,"rental_uris":{"android":"levelo://app?vid=e14548e6-06c9-40df-895a-daca41f535c4","ios":"levelo://app?vid=e14548e6-06c9-40df-895a-daca41f535c4"},"vehicle_type_id":"4","last_reported":1714172873,"current_range_meters":15600,"station_id":"ce4bgt92rcd13ifvqcf0","pricing_plan_id":"cebpf4jnsgd1na2vs0mg"},{"bike_id":"311b3217-f2b6-4b0b-804f-5de598a9e378","system_id":"levelo_inurba_marseille","lat":43.313571,"lon":5.384829,"is_reserved":false,"is_disabled":false,"rental_uris":{"android":"levelo://app?vid=311b3217-f2b6-4b0b-804f-5de598a9e378","ios":"levelo://app?vid=311b3217-f2b6-4b0b-804f-5de598a9e378"},"vehicle_type_id":"4","last_reported":1714172873,"current_range_meters":9600,"station_id":"ce4bgt92rcd13ifvqcf0","pricing_plan_id":"cebpf4jnsgd1na2vs0mg"},{"bike_id":"02310f0b-e72c-4926-90a7-3c22dafd56fe","system_id":"levelo_inurba_marseille","lat":43.313571,"lon":5.384829,"is_reserved":false,"is_disabled":false,"rental_uris":{"android":"levelo://app?vid=02310f0b-e72c-4926-90a7-3c22dafd56fe","ios":"levelo://app?vid=02310f0b-e72c-4926-90a7-3c22dafd56fe"},"vehicle_type_id":"4","last_reported":1714172873,"current_range_meters":4400,"station_id":"ce4bgt92rcd13ifvqcf0","pricing_plan_id":"cebpf4jnsgd1na2vs0mg"},{"bike_id":"d68c1055-eaf7-4a3d-bb48-d67a6d6730f4","system_id":"levelo_inurba_marseille","lat":43.299222,"lon":5.365554,"is_reserved":false,"is_disabled":false,"rental_uris":{"android":"levelo://app?vid=d68c1055-eaf7-4a3d-bb48-d67a6d6730f4","ios":"levelo://app?vid=d68c1055-eaf7-4a3d-bb48-d67a6d6730f4"},"vehicle_type_id":"4","last_reported":1714172873,"current_range_meters":22400,"station_id":"ce4bgm92rcd13ifvqbr0","pricing_plan_id":"cebpf4jnsgd1na2vs0mg"},{"bike_id":"b329cfe0-105e-40e5-a9c5-868203ab6946","system_id":"levelo_inurba_marseille","lat":43.299222,"lon":5.365554,"is_reserved":false,"is_disabled":false,"rental_uris":{"android":"levelo://app?vid=b329cfe0-105e-40e5-a9c5-868203ab6946","ios":"levelo://app?vid=b329cfe0-105e-40e5-a9c5-868203ab6946"},"vehicle_type_id":"4","last_reported":1714172873,"current_range_meters":6000,"station_id":"ce4bgm92rcd13ifvqbr0","pricing_plan_id":"cebpf4jnsgd1na2vs0mg"},{"bike_id":"236e4008-b3fc-4f88-bb99-cbdd0dde9d81","system_id":"levelo_inurba_marseille","lat":43.299222,"lon":5.365554,"is_reserved":false,"is_disabled":false,"rental_uris":{"android":"levelo://app?vid=236e4008-b3fc-4f88-bb99-cbdd0dde9d81","ios":"levelo://app?vid=236e4008-b3fc-4f88-bb99-cbdd0dde9d81"},"vehicle_type_id":"4","last_reported":1714172873,"current_range_meters":18400,"station_id":"ce4bgm92rcd13ifvqbr0","pricing_plan_id":"cebpf4jnsgd1na2vs0mg"},{"bike_id":"14c86577-b087-4f00-ab48-a5210e3f7ca2","system_id":"levelo_inurba_marseille","lat":43.299222,"lon":5.365554,"is_reserved":false,"is_disabled":false,"rental_uris":{"android":"levelo://app?vid=14c86577-b087-4f00-ab48-a5210e3f7ca2","ios":"levelo://app?vid=14c86577-b087-4f00-ab48-a5210e3f7ca2"},"vehicle_type_id":"4","last_reported":1714172873,"current_range_meters":3200,"station_id":"ce4bgm92rcd13ifvqbr0","pricing_plan_id":"cebpf4jnsgd1na2vs0mg"},{"bike_id":"74769864-3de5-4ce4-96d6-ec764fb68673","system_id":"levelo_inurba_marseille","lat":43.311722,"lon":5.387247,"is_reserved":false,"is_disabled":false,"rental_uris":{"android":"levelo://app?vid=74769864-3de5-4ce4-96d6-ec764fb68673","ios":"levelo://app?vid=74769864-3de5-4ce4-96d6-ec764fb68673"},"vehicle_type_id":"4","last_reported":1714172873,"current_range_meters":8400,"station_id":"ce4bgv12rcd13ifvqcp0","pricing_plan_id":"cebpf4jnsgd1na2vs0mg"},{"bike_id":"11f93fbe-2841-47e6-a60f-c3d68e76aae5","system_id":"levelo_inurba_marseille","lat":43.305364,"lon":5.384119,"is_reserved":false,"is_disabled":false,"rental_uris":{"android":"levelo://app?vid=11f93fbe-2841-47e6-a60f-c3d68e76aae5","ios":"levelo://app?vid=11f93fbe-2841-47e6-a60f-c3d68e76aae5"},"vehicle_type_id":"4","last_reported":1714172873,"current_range_meters":14000,"station_id":"ce4bgg92rcd13ifvqb30","pricing_plan_id":"cebpf4jnsgd1na2vs0mg"},{"bike_id":"47d120b8-24c4-48c9-899f-b9092ca47efa","system_id":"levelo_inurba_marseille","lat":43.305364,"lon":5.384119,"is_reserved":false,"is_disabled":false,"rental_uris":{"android":"levelo://app?vid=47d120b8-24c4-48c9-899f-b9092ca47efa","ios":"levelo://app?vid=47d120b8-24c4-48c9-899f-b9092ca47efa"},"vehicle_type_id":"4","last_reported":1714172873,"current_range_meters":31600,"station_id":"ce4bgg92rcd13ifvqb30","pricing_plan_id":"cebpf4jnsgd1na2vs0mg"},{"bike_id":"99f07266-921c-42f7-a73a-686388569986","system_id":"levelo_inurba_marseille","lat":43.305364,"lon":5.384119,"is_reserved":false,"is_disabled":false,"rental_uris":{"android":"levelo://app?vid=99f07266-921c-42f7-a73a-686388569986","ios":"levelo://app?vid=99f07266-921c-42f7-a73a-686388569986"},"vehicle_type_id":"4","last_reported":1714172873,"current_range_meters":15600,"station_id":"ce4bgg92rcd13ifvqb30","pricing_plan_id":"cebpf4jnsgd1na2vs0mg"},{"bike_id":"2406df74-46d4-46cb-ab95-9088aa0bd81e","system_id":"levelo_inurba_marseille","lat":43.305364,"lon":5.384119,"is_reserved":false,"is_disabled":false,"rental_uris":{"android":"levelo://app?vid=2406df74-46d4-46cb-ab95-9088aa0bd81e","ios":"levelo://app?vid=2406df74-46d4-46cb-ab95-9088aa0bd81e"},"vehicle_type_id":"4","last_reported":1714172873,"current_range_meters":14000,"station_id":"ce4bgg92rcd13ifvqb30","pricing_plan_id":"cebpf4jnsgd1na2vs0mg"},{"bike_id":"1311da13-4281-4857-ac57-7723423fc134","system_id":"levelo_inurba_marseille","lat":43.305364,"lon":5.384119,"is_reserved":false,"is_disabled":false,"rental_uris":{"android":"levelo://app?vid=1311da13-4281-4857-ac57-7723423fc134","ios":"levelo://app?vid=1311da13-4281-4857-ac57-7723423fc134"},"vehicle_type_id":"4","last_reported":1714172873,"current_range_meters":25600,"station_id":"ce4bgg92rcd13ifvqb30","pricing_plan_id":"cebpf4jnsgd1na2vs0mg"},{"bike_id":"5341a5f9-797c-4a27-ae44-d5c4ec9e4e99","system_id":"levelo_inurba_marseille","lat":43.29842,"lon":5.36266,"is_reserved":false,"is_disabled":false,"rental_uris":{"android":"levelo://app?vid=5341a5f9-797c-4a27-ae44-d5c4ec9e4e99","ios":"levelo://app?vid=5341a5f9-797c-4a27-ae44-d5c4ec9e4e99"},"vehicle_type_id":"4","last_reported":1714172873,"current_range_meters":18800,"station_id":"ce4bgpp2rcd13ifvqc3g","pricing_plan_id":"cebpf4jnsgd1na2vs0mg"},{"bike_id":"3ea344a1-3d3e-49ae-a257-8455c4bff003","system_id":"levelo_inurba_marseille","lat":43.311722,"lon":5.387247,"is_reserved":false,"is_disabled":false,"rental_uris":{"android":"levelo://app?vid=3ea344a1-3d3e-49ae-a257-8455c4bff003","ios":"levelo://app?vid=3ea344a1-3d3e-49ae-a257-8455c4bff003"},"vehicle_type_id":"4","last_reported":1714172873,"current_range_meters":19200,"station_id":"ce4bgv12rcd13ifvqcp0","pricing_plan_id":"cebpf4jnsgd1na2vs0mg"},{"bike_id":"463694d2-33fa-4068-afeb-7e54e9bd3982","system_id":"levelo_inurba_marseille","lat":43.311722,"lon":5.387247,"is_reserved":false,"is_disabled":false,"rental_uris":{"android":"levelo://app?vid=463694d2-33fa-4068-afeb-7e54e9bd3982","ios":"levelo://app?vid=463694d2-33fa-4068-afeb-7e54e9bd3982"},"vehicle_type_id":"4","last_reported":1714172873,"current_range_meters":25600,"station_id":"ce4bgv12rcd13ifvqcp0","pricing_plan_id":"cebpf4jnsgd1na2vs0mg"},{"bike_id":"3ab9cf0a-b206-4646-a92f-cc20a7c3cb7a","system_id":"levelo_inurba_marseille","lat":43.311722,"lon":5.387247,"is_reserved":false,"is_disabled":false,"rental_uris":{"android":"levelo://app?vid=3ab9cf0a-b206-4646-a92f-cc20a7c3cb7a","ios":"levelo://app?vid=3ab9cf0a-b206-4646-a92f-cc20a7c3cb7a"},"vehicle_type_id":"4","last_reported":1714172873,"current_range_meters":31200,"station_id":"ce4bgv12rcd13ifvqcp0","pricing_plan_id":"cebpf4jnsgd1na2vs0mg"},{"bike_id":"9edfc696-c98e-4e42-9fb3-d50eb51e6f3a","system_id":"levelo_inurba_marseille","lat":43.311722,"lon":5.387247,"is_reserved":false,"is_disabled":false,"rental_uris":{"android":"levelo://app?vid=9edfc696-c98e-4e42-9fb3-d50eb51e6f3a","ios":"levelo://app?vid=9edfc696-c98e-4e42-9fb3-d50eb51e6f3a"},"vehicle_type_id":"4","last_reported":1714172873,"current_range_meters":0,"station_id":"ce4bgv12rcd13ifvqcp0","pricing_plan_id":"cebpf4jnsgd1na2vs0mg"},{"bike_id":"e1e0bd17-8e71-497d-b9b8-7ae46d54b017","system_id":"levelo_inurba_marseille","lat":43.311722,"lon":5.387247,"is_reserved":false,"is_disabled":false,"rental_uris":{"android":"levelo://app?vid=e1e0bd17-8e71-497d-b9b8-7ae46d54b017","ios":"levelo://app?vid=e1e0bd17-8e71-497d-b9b8-7ae46d54b017"},"vehicle_type_id":"4","last_reported":1714172873,"current_range_meters":11200,"station_id":"ce4bgv12rcd13ifvqcp0","pricing_plan_id":"cebpf4jnsgd1na2vs0mg"},{"bike_id":"ccb93d92-cd4f-4864-9d26-d6292635ff4d","system_id":"levelo_inurba_marseille","lat":43.311722,"lon":5.387247,"is_reserved":false,"is_disabled":false,"rental_uris":{"android":"levelo://app?vid=ccb93d92-cd4f-4864-9d26-d6292635ff4d","ios":"levelo://app?vid=ccb93d92-cd4f-4864-9d26-d6292635ff4d"},"vehicle_type_id":"4","last_reported":1714172873,"current_range_meters":6000,"station_id":"ce4bgv12rcd13ifvqcp0","pricing_plan_id":"cebpf4jnsgd1na2vs0mg"},{"bike_id":"d139402d-2a9a-4df3-b3d3-2aa0ffdaee5c","system_id":"levelo_inurba_marseille","lat":43.311722,"lon":5.387247,"is_reserved":false,"is_disabled":false,"rental_uris":{"android":"levelo://app?vid=d139402d-2a9a-4df3-b3d3-2aa0ffdaee5c","ios":"levelo://app?vid=d139402d-2a9a-4df3-b3d3-2aa0ffdaee5c"},"vehicle_type_id":"4","last_reported":1714172873,"current_range_meters":2400,"station_id":"ce4bgv12rcd13ifvqcp0","pricing_plan_id":"cebpf4jnsgd1na2vs0mg"},{"bike_id":"ddc4a4c6-bd2e-48c0-8c5f-5142928d95d7","system_id":"levelo_inurba_marseille","lat":43.297774,"lon":5.370875,"is_reserved":false,"is_disabled":false,"rental_uris":{"android":"levelo://app?vid=ddc4a4c6-bd2e-48c0-8c5f-5142928d95d7","ios":"levelo://app?vid=ddc4a4c6-bd2e-48c0-8c5f-5142928d95d7"},"vehicle_type_id":"4","last_reported":1714172873,"current_range_meters":27600,"station_id":"ce4bgop2rcd13ifvqc1g","pricing_plan_id":"cebpf4jnsgd1na2vs0mg"},{"bike_id":"e962a3a2-18b2-4cd6-be36-a2fdd3989921","system_id":"levelo_inurba_marseille","lat":43.322872,"lon":5.382756,"is_reserved":false,"is_disabled":false,"rental_uris":{"android":"levelo://app?vid=e962a3a2-18b2-4cd6-be36-a2fdd3989921","ios":"levelo://app?vid=e962a3a2-18b2-4cd6-be36-a2fdd3989921"},"vehicle_type_id":"4","last_reported":1714172873,"current_range_meters":30400,"station_id":"ce4bhr12rcd13ifvqhqg","pricing_plan_id":"cebpf4jnsgd1na2vs0mg"},{"bike_id":"cb024293-4346-4cea-b76f-6471a1086791","system_id":"levelo_inurba_marseille","lat":43.322872,"lon":5.382756,"is_reserved":false,"is_disabled":false,"rental_uris":{"android":"levelo://app?vid=cb024293-4346-4cea-b76f-6471a1086791","ios":"levelo://app?vid=cb024293-4346-4cea-b76f-6471a1086791"},"vehicle_type_id":"4","last_reported":1714172873,"current_range_meters":17200,"station_id":"ce4bhr12rcd13ifvqhqg","pricing_plan_id":"cebpf4jnsgd1na2vs0mg"},{"bike_id":"268f76e2-a0fa-4c45-ab6a-09d7a02e4805","system_id":"levelo_inurba_marseille","lat":43.322872,"lon":5.382756,"is_reserved":false,"is_disabled":false,"rental_uris":{"android":"levelo://app?vid=268f76e2-a0fa-4c45-ab6a-09d7a02e4805","ios":"levelo://app?vid=268f76e2-a0fa-4c45-ab6a-09d7a02e4805"},"vehicle_type_id":"4","last_reported":1714172873,"current_range_meters":28800,"station_id":"ce4bhr12rcd13ifvqhqg","pricing_plan_id":"cebpf4jnsgd1na2vs0mg"},{"bike_id":"cbdd179d-c048-480a-a69b-3cce78fdc882","system_id":"levelo_inurba_marseille","lat":43.322872,"lon":5.382756,"is_reserved":false,"is_disabled":false,"rental_uris":{"android":"levelo://app?vid=cbdd179d-c048-480a-a69b-3cce78fdc882","ios":"levelo://app?vid=cbdd179d-c048-480a-a69b-3cce78fdc882"},"vehicle_type_id":"4","last_reported":1714172873,"current_range_meters":13200,"station_id":"ce4bhr12rcd13ifvqhqg","pricing_plan_id":"cebpf4jnsgd1na2vs0mg"},{"bike_id":"6f4089e7-41eb-4b93-bda2-46902ba3bb4a","system_id":"levelo_inurba_marseille","lat":43.297163,"lon":5.365866,"is_reserved":false,"is_disabled":false,"rental_uris":{"android":"levelo://app?vid=6f4089e7-41eb-4b93-bda2-46902ba3bb4a","ios":"levelo://app?vid=6f4089e7-41eb-4b93-bda2-46902ba3bb4a"},"vehicle_type_id":"4","last_reported":1714172873,"current_range_meters":18800,"station_id":"ce4bgn12rcd13ifvqbt0","pricing_plan_id":"cebpf4jnsgd1na2vs0mg"},{"bike_id":"37c16df2-0840-4b39-a7c5-4deb547fe876","system_id":"levelo_inurba_marseille","lat":43.283494,"lon":5.380945,"is_reserved":false,"is_disabled":false,"rental_uris":{"android":"levelo://app?vid=37c16df2-0840-4b39-a7c5-4deb547fe876","ios":"levelo://app?vid=37c16df2-0840-4b39-a7c5-4deb547fe876"},"vehicle_type_id":"4","last_reported":1714172873,"current_range_meters":21600,"station_id":"ce4bh412rcd13ifvqdr0","pricing_plan_id":"cebpf4jnsgd1na2vs0mg"},{"bike_id":"3bb2edac-6b22-44e3-a0c3-f12493d5ee47","system_id":"levelo_inurba_marseille","lat":43.296131,"lon":5.370791,"is_reserved":false,"is_disabled":false,"rental_uris":{"android":"levelo://app?vid=3bb2edac-6b22-44e3-a0c3-f12493d5ee47","ios":"levelo://app?vid=3bb2edac-6b22-44e3-a0c3-f12493d5ee47"},"vehicle_type_id":"4","last_reported":1714172873,"current_range_meters":22800,"station_id":"ce4bgnh2rcd13ifvqc0g","pricing_plan_id":"cebpf4jnsgd1na2vs0mg"},{"bike_id":"d9ecc11f-7bd6-48eb-8a10-08faeeaf570a","system_id":"levelo_inurba_marseille","lat":43.296131,"lon":5.370791,"is_reserved":false,"is_disabled":false,"rental_uris":{"android":"levelo://app?vid=d9ecc11f-7bd6-48eb-8a10-08faeeaf570a","ios":"levelo://app?vid=d9ecc11f-7bd6-48eb-8a10-08faeeaf570a"},"vehicle_type_id":"4","last_reported":1714172873,"current_range_meters":8800,"station_id":"ce4bgnh2rcd13ifvqc0g","pricing_plan_id":"cebpf4jnsgd1na2vs0mg"},{"bike_id":"de592bce-8565-4572-865d-d45182cafc92","system_id":"levelo_inurba_marseille","lat":43.296131,"lon":5.370791,"is_reserved":false,"is_disabled":false,"rental_uris":{"android":"levelo://app?vid=de592bce-8565-4572-865d-d45182cafc92","ios":"levelo://app?vid=de592bce-8565-4572-865d-d45182cafc92"},"vehicle_type_id":"4","last_reported":1714172873,"current_range_meters":13600,"station_id":"ce4bgnh2rcd13ifvqc0g","pricing_plan_id":"cebpf4jnsgd1na2vs0mg"},{"bike_id":"abcb6a1d-66f5-459b-a195-f1e03725d681","system_id":"levelo_inurba_marseille","lat":43.299028,"lon":5.381509,"is_reserved":false,"is_disabled":false,"rental_uris":{"android":"levelo://app?vid=abcb6a1d-66f5-459b-a195-f1e03725d681","ios":"levelo://app?vid=abcb6a1d-66f5-459b-a195-f1e03725d681"},"vehicle_type_id":"4","last_reported":1714172873,"current_range_meters":22000,"station_id":"ce4bgj12rcd13ifvqbc0","pricing_plan_id":"cebpf4jnsgd1na2vs0mg"},{"bike_id":"0da9bc3c-1a2f-457f-bf70-92660f7be613","system_id":"levelo_inurba_marseille","lat":43.29905,"lon":5.381379,"is_reserved":false,"is_disabled":false,"rental_uris":{"android":"levelo://app?vid=0da9bc3c-1a2f-457f-bf70-92660f7be613","ios":"levelo://app?vid=0da9bc3c-1a2f-457f-bf70-92660f7be613"},"vehicle_type_id":"4","last_reported":1714172873,"current_range_meters":31600,"station_id":"ce4bgj12rcd13ifvqbc0","pricing_plan_id":"cebpf4jnsgd1na2vs0mg"},{"bike_id":"0639bc15-535a-4cc2-981d-bb548f6f643a","system_id":"levelo_inurba_marseille","lat":43.309589,"lon":5.390258,"is_reserved":false,"is_disabled":false,"rental_uris":{"android":"levelo://app?vid=0639bc15-535a-4cc2-981d-bb548f6f643a","ios":"levelo://app?vid=0639bc15-535a-4cc2-981d-bb548f6f643a"},"vehicle_type_id":"4","last_reported":1714172873,"current_range_meters":10000,"station_id":"ce4bgup2rcd13ifvqco0","pricing_plan_id":"cebpf4jnsgd1na2vs0mg"},{"bike_id":"ad2ef69c-a6eb-466d-805a-d7e2de1a2742","system_id":"levelo_inurba_marseille","lat":43.309589,"lon":5.390258,"is_reserved":false,"is_disabled":false,"rental_uris":{"android":"levelo://app?vid=ad2ef69c-a6eb-466d-805a-d7e2de1a2742","ios":"levelo://app?vid=ad2ef69c-a6eb-466d-805a-d7e2de1a2742"},"vehicle_type_id":"4","last_reported":1714172873,"current_range_meters":0,"station_id":"ce4bgup2rcd13ifvqco0","pricing_plan_id":"cebpf4jnsgd1na2vs0mg"},{"bike_id":"8631f405-c800-4f72-9437-c5b57a0a0d17","system_id":"levelo_inurba_marseille","lat":43.298988,"lon":5.381319,"is_reserved":false,"is_disabled":false,"rental_uris":{"android":"levelo://app?vid=8631f405-c800-4f72-9437-c5b57a0a0d17","ios":"levelo://app?vid=8631f405-c800-4f72-9437-c5b57a0a0d17"},"vehicle_type_id":"4","last_reported":1714172873,"current_range_meters":16400,"station_id":"ce4bgj12rcd13ifvqbc0","pricing_plan_id":"cebpf4jnsgd1na2vs0mg"},{"bike_id":"97c18ef4-74d7-4bf3-aad7-97e6cf9e5aad","system_id":"levelo_inurba_marseille","lat":43.309589,"lon":5.390258,"is_reserved":false,"is_disabled":false,"rental_uris":{"android":"levelo://app?vid=97c18ef4-74d7-4bf3-aad7-97e6cf9e5aad","ios":"levelo://app?vid=97c18ef4-74d7-4bf3-aad7-97e6cf9e5aad"},"vehicle_type_id":"4","last_reported":1714172873,"current_range_meters":4000,"station_id":"ce4bgup2rcd13ifvqco0","pricing_plan_id":"cebpf4jnsgd1na2vs0mg"},{"bike_id":"db5b44a5-3565-4743-9087-3e670cb979c9","system_id":"levelo_inurba_marseille","lat":43.309589,"lon":5.390258,"is_reserved":false,"is_disabled":false,"rental_uris":{"android":"levelo://app?vid=db5b44a5-3565-4743-9087-3e670cb979c9","ios":"levelo://app?vid=db5b44a5-3565-4743-9087-3e670cb979c9"},"vehicle_type_id":"4","last_reported":1714172873,"current_range_meters":25200,"station_id":"ce4bgup2rcd13ifvqco0","pricing_plan_id":"cebpf4jnsgd1na2vs0mg"},{"bike_id":"a4806e76-12b9-4a48-8c4b-37d116d16176","system_id":"levelo_inurba_marseille","lat":43.309589,"lon":5.390258,"is_reserved":false,"is_disabled":false,"rental_uris":{"android":"levelo://app?vid=a4806e76-12b9-4a48-8c4b-37d116d16176","ios":"levelo://app?vid=a4806e76-12b9-4a48-8c4b-37d116d16176"},"vehicle_type_id":"4","last_reported":1714172873,"current_range_meters":17200,"station_id":"ce4bgup2rcd13ifvqco0","pricing_plan_id":"cebpf4jnsgd1na2vs0mg"},{"bike_id":"e612aa43-6edb-471a-98e5-1612270766e0","system_id":"levelo_inurba_marseille","lat":43.299028,"lon":5.381509,"is_reserved":false,"is_disabled":false,"rental_uris":{"android":"levelo://app?vid=e612aa43-6edb-471a-98e5-1612270766e0","ios":"levelo://app?vid=e612aa43-6edb-471a-98e5-1612270766e0"},"vehicle_type_id":"4","last_reported":1714172873,"current_range_meters":27600,"station_id":"ce4bgj12rcd13ifvqbc0","pricing_plan_id":"cebpf4jnsgd1na2vs0mg"},{"bike_id":"70f041a6-8ace-4e15-99ce-f4f54048f59d","system_id":"levelo_inurba_marseille","lat":43.298957,"lon":5.381331,"is_reserved":false,"is_disabled":false,"rental_uris":{"android":"levelo://app?vid=70f041a6-8ace-4e15-99ce-f4f54048f59d","ios":"levelo://app?vid=70f041a6-8ace-4e15-99ce-f4f54048f59d"},"vehicle_type_id":"4","last_reported":1714172873,"current_range_meters":14400,"station_id":"ce4bgj12rcd13ifvqbc0","pricing_plan_id":"cebpf4jnsgd1na2vs0mg"},{"bike_id":"5deb64ad-641a-41ea-b099-c47944714995","system_id":"levelo_inurba_marseille","lat":43.309589,"lon":5.390258,"is_reserved":false,"is_disabled":false,"rental_uris":{"android":"levelo://app?vid=5deb64ad-641a-41ea-b099-c47944714995","ios":"levelo://app?vid=5deb64ad-641a-41ea-b099-c47944714995"},"vehicle_type_id":"4","last_reported":1714172873,"current_range_meters":22800,"station_id":"ce4bgup2rcd13ifvqco0","pricing_plan_id":"cebpf4jnsgd1na2vs0mg"},{"bike_id":"80604aa2-e541-42da-8428-7e02b7ec159e","system_id":"levelo_inurba_marseille","lat":43.309589,"lon":5.390258,"is_reserved":false,"is_disabled":false,"rental_uris":{"android":"levelo://app?vid=80604aa2-e541-42da-8428-7e02b7ec159e","ios":"levelo://app?vid=80604aa2-e541-42da-8428-7e02b7ec159e"},"vehicle_type_id":"4","last_reported":1714172873,"current_range_meters":17600,"station_id":"ce4bgup2rcd13ifvqco0","pricing_plan_id":"cebpf4jnsgd1na2vs0mg"},{"bike_id":"6c8736a1-71aa-4612-94c8-c67d74686f6c","system_id":"levelo_inurba_marseille","lat":43.309589,"lon":5.390258,"is_reserved":false,"is_disabled":false,"rental_uris":{"android":"levelo://app?vid=6c8736a1-71aa-4612-94c8-c67d74686f6c","ios":"levelo://app?vid=6c8736a1-71aa-4612-94c8-c67d74686f6c"},"vehicle_type_id":"4","last_reported":1714172873,"current_range_meters":18800,"station_id":"ce4bgup2rcd13ifvqco0","pricing_plan_id":"cebpf4jnsgd1na2vs0mg"},{"bike_id":"fac73556-52e8-4c13-bfaf-5b4812c74fe9","system_id":"levelo_inurba_marseille","lat":43.309589,"lon":5.390258,"is_reserved":false,"is_disabled":false,"rental_uris":{"android":"levelo://app?vid=fac73556-52e8-4c13-bfaf-5b4812c74fe9","ios":"levelo://app?vid=fac73556-52e8-4c13-bfaf-5b4812c74fe9"},"vehicle_type_id":"4","last_reported":1714172873,"current_range_meters":16800,"station_id":"ce4bgup2rcd13ifvqco0","pricing_plan_id":"cebpf4jnsgd1na2vs0mg"},{"bike_id":"a480cb8c-d681-4e5b-9f60-32a343366b60","system_id":"levelo_inurba_marseille","lat":43.309589,"lon":5.390258,"is_reserved":false,"is_disabled":false,"rental_uris":{"android":"levelo://app?vid=a480cb8c-d681-4e5b-9f60-32a343366b60","ios":"levelo://app?vid=a480cb8c-d681-4e5b-9f60-32a343366b60"},"vehicle_type_id":"4","last_reported":1714172873,"current_range_meters":30000,"station_id":"ce4bgup2rcd13ifvqco0","pricing_plan_id":"cebpf4jnsgd1na2vs0mg"},{"bike_id":"fb679e51-1110-479e-9e56-83ea4566a34e","system_id":"levelo_inurba_marseille","lat":43.309589,"lon":5.390258,"is_reserved":false,"is_disabled":false,"rental_uris":{"android":"levelo://app?vid=fb679e51-1110-479e-9e56-83ea4566a34e","ios":"levelo://app?vid=fb679e51-1110-479e-9e56-83ea4566a34e"},"vehicle_type_id":"4","last_reported":1714172873,"current_range_meters":8000,"station_id":"ce4bgup2rcd13ifvqco0","pricing_plan_id":"cebpf4jnsgd1na2vs0mg"},