{"last_updated":1726344632,"ttl":30,"version":"2.2","data":{"bikes":[{"bike_id":"da74842e-8b51-42a6-8c35-5d7d26dd14c1","system_id":"levelo_inurba_marseille","lat":43.31069,"lon":5.38361,"is_reserved":false,"is_disabled":false,"rental_uris":{"android":"levelo://app?vid=da74842e-8b51-42a6-8c35-5d7d26dd14c1","ios":"levelo://app?vid=da74842e-8b51-42a6-8c35-5d7d26dd14c1"},"vehicle_type_id":"4","last_reported":1726344632,"current_range_meters":38800,"station_id":"ce4bgv92rcd13ifvqcr0","pricing_plan_id":"cebpf4jnsgd1na2vs0mg"},{"bike_id":"6f07e33c-9340-4c52-9888-5ab2fe87c960","system_id":"levelo_inurba_marseille","lat":43.28358,"lon":5.38103,"is_reserved":false,"is_disabled":false,"rental_uris":{"android":"levelo://app?vid=6f07e33c-9340-4c52-9888-5ab2fe87c960","ios":"levelo://app?vid=6f07e33c-9340-4c52-9888-5ab2fe87c960"},"vehicle_type_id":"4","last_reported":1726344632,"current_range_meters":38800,"station_id":"ce4bh412rcd13ifvqdr0","pricing_plan_id":"cebpf4jnsgd1na2vs0mg"},{"bike_id":"cf218508-2eb5-4647-865a-14c64208161f","system_id":"levelo_inurba_marseille","lat":43.30871,"lon":5.37181,"is_reserved":false,"is_disabled":false,"rental_uris":{"android":"levelo://app?vid=cf218508-2eb5-4647-865a-14c64208161f","ios":"levelo://app?vid=cf218508-2eb5-4647-865a-14c64208161f"},"vehicle_type_id":"4","last_reported":1726344632,"current_range_meters":36800,"station_id":"ce4bguh2rcd13ifvqckg","pricing_plan_id":"cebpf4jnsgd1na2vs0mg"},{"bike_id":"083984dd-1abd-4a7d-84c6-e8ceb7b63abe","system_id":"levelo_inurba_marseille","lat":43.31294,"lon":5.37812,"is_reserved":false,"is_disabled":false,"rental_uris":{"android":"levelo://app?vid=083984dd-1abd-4a7d-84c6-e8ceb7b63abe","ios":"levelo://app?vid=083984dd-1abd-4a7d-84c6-e8ceb7b63abe"},"vehicle_type_id":"4","last_reported":1726344632,"current_range_meters":36800,"station_id":"","pricing_plan_id":"cebpf4jnsgd1na2vs0mg"},{"bike_id":"5ead8fdb-3118-4fd9-ba33-5ac9d171d28e","system_id":"levelo_inurba_marseille","lat":43.32548,"lon":5.36479,"is_reserved":false,"is_disabled":false,"rental_uris":{"android":"levelo://app?vid=5ead8fdb-3118-4fd9-ba33-5ac9d171d28e","ios":"levelo://app?vid=5ead8fdb-3118-4fd9-ba33-5ac9d171d28e"},"vehicle_type_id":"4","last_reported":1726344632,"current_range_meters":8800,"station_id":"","pricing_plan_id":"cebpf4jnsgd1na2vs0mg"},{"bike_id":"8e9d232a-8925-493e-8ac5-b7a5d490e445","system_id":"levelo_inurba_marseille","lat":43.28846,"lon":5.39323,"is_reserved":false,"is_disabled":false,"rental_uris":{"android":"levelo://app?vid=8e9d232a-8925-493e-8ac5-b7a5d490e445","ios":"levelo://app?vid=8e9d232a-8925-493e-8ac5-b7a5d490e445"},"vehicle_type_id":"4","last_reported":1726344632,"current_range_meters":38800,"station_id":"ce4bhh12rcd13ifvqfg0","pricing_plan_id":"cebpf4jnsgd1na2vs0mg"},{"bike_id":"e5a86d04-682e-4088-8241-629b72746ac6","system_id":"levelo_inurba_marseille","lat":43.29419,"lon":5.38632,"is_reserved":false,"is_disabled":false,"rental_uris":{"android":"levelo://app?vid=e5a86d04-682e-4088-8241-629b72746ac6","ios":"levelo://app?vid=e5a86d04-682e-4088-8241-629b72746ac6"},"vehicle_type_id":"4","last_reported":1726344632,"current_range_meters":9600,"station_id":"ce4bh2h2rcd13ifvqdh0","pricing_plan_id":"cebpf4jnsgd1na2vs0mg"},{"bike_id":"c0ecea88-8780-4339-9504-d09a32da35d1","system_id":"levelo_inurba_marseille","lat":43.29026,"lon":5.38635,"is_reserved":false,"is_disabled":false,"rental_uris":{"android":"levelo://app?vid=c0ecea88-8780-4339-9504-d09a32da35d1","ios":"levelo://app?vid=c0ecea88-8780-4339-9504-d09a32da35d1"},"vehicle_type_id":"4","last_reported":1726344632,"current_range_meters":38800,"station_id":"ce4bh4p2rcd13ifvqe0g","pricing_plan_id":"cebpf4jnsgd1na2vs0mg"},{"bike_id":"61d5d784-0532-4e51-bcd1-8db386464ea9","system_id":"levelo_inurba_marseille","lat":43.30954,"lon":5.39046,"is_reserved":false,"is_disabled":false,"rental_uris":{"android":"levelo://app?vid=61d5d784-0532-4e51-bcd1-8db386464ea9","ios":"levelo://app?vid=61d5d784-0532-4e51-bcd1-8db386464ea9"},"vehicle_type_id":"4","last_reported":1726344632,"current_range_meters":10000,"station_id":"ce4bgup2rcd13ifvqco0","pricing_plan_id":"cebpf4jnsgd1na2vs0mg"},{"bike_id":"13c4bde3-79a1-495d-a0c0-1dbceff892e5","system_id":"levelo_inurba_marseille","lat":43.25932,"lon":5.40911,"is_reserved":false,"is_disabled":false,"rental_uris":{"android":"levelo://app?vid=13c4bde3-79a1-495d-a0c0-1dbceff892e5","ios":"levelo://app?vid=13c4bde3-79a1-495d-a0c0-1dbceff892e5"},"vehicle_type_id":"4","last_reported":1726344632,"current_range_meters":6800,"station_id":"ce4bhm92rcd13ifvqglg","pricing_plan_id":"cebpf4jnsgd1na2vs0mg"},{"bike_id":"13ec4916-f0ea-4897-8afc-596425b42c42","system_id":"levelo_inurba_marseille","lat":43.23188,"lon":5.35549,"is_reserved":false,"is_disabled":false,"rental_uris":{"android":"levelo://app?vid=13ec4916-f0ea-4897-8afc-596425b42c42","ios":"levelo://app?vid=13ec4916-f0ea-4897-8afc-596425b42c42"},"vehicle_type_id":"4","last_reported":1726344632,"current_range_meters":26000,"station_id":"ce4bhu92rcd13ifvqi70","pricing_plan_id":"cebpf4jnsgd1na2vs0mg"},{"bike_id":"3482e927-1835-4203-981e-ce9c76f284ae","system_id":"levelo_inurba_marseille","lat":43.2512,"lon":5.40323,"is_reserved":false,"is_disabled":false,"rental_uris":{"android":"levelo://app?vid=3482e927-1835-4203-981e-ce9c76f284ae","ios":"levelo://app?vid=3482e927-1835-4203-981e-ce9c76f284ae"},"vehicle_type_id":"4","last_reported":1726344632,"current_range_meters":3200,"station_id":"ce4bhlh2rcd13ifvqgig","pricing_plan_id":"cebpf4jnsgd1na2vs0mg"},{"bike_id":"55bc50a0-bff1-4069-a730-21497c0a58ef","system_id":"levelo_inurba_marseille","lat":43.29198,"lon":5.39333,"is_reserved":false,"is_disabled":false,"rental_uris":{"android":"levelo://app?vid=55bc50a0-bff1-4069-a730-21497c0a58ef","ios":"levelo://app?vid=55bc50a0-bff1-4069-a730-21497c0a58ef"},"vehicle_type_id":"4","last_reported":1726344632,"current_range_meters":20000,"station_id":"ce4bh192rcd13ifvqdd0","pricing_plan_id":"cebpf4jnsgd1na2vs0mg"},{"bike_id":"147a3728-a648-4ff4-add2-7e1483cf33ca","system_id":"levelo_inurba_marseille","lat":43.3171,"lon":5.43711,"is_reserved":false,"is_disabled":false,"rental_uris":{"android":"levelo://app?vid=147a3728-a648-4ff4-add2-7e1483cf33ca","ios":"levelo://app?vid=147a3728-a648-4ff4-add2-7e1483cf33ca"},"vehicle_type_id":"4","last_reported":1726344632,"current_range_meters":6000,"station_id":"ce4bhp92rcd13ifvqhcg","pricing_plan_id":"cebpf4jnsgd1na2vs0mg"},{"bike_id":"ff32aca5-3a34-4f66-8a33-2df25c151b90","system_id":"levelo_inurba_marseille","lat":43.28672,"lon":5.3867,"is_reserved":false,"is_disabled":false,"rental_uris":{"android":"levelo://app?vid=ff32aca5-3a34-4f66-8a33-2df25c151b90","ios":"levelo://app?vid=ff32aca5-3a34-4f66-8a33-2df25c151b90"},"vehicle_type_id":"4","last_reported":1726344632,"current_range_meters":22000,"station_id":"ce4bh492rcd13ifvqdug","pricing_plan_id":"cebpf4jnsgd1na2vs0mg"},{"bike_id":"1b69e28d-b657-4802-b5dd-aa17fb5a768b","system_id":"levelo_inurba_marseille","lat":43.27131,"lon":5.42788,"is_reserved":false,"is_disabled":false,"rental_uris":{"android":"levelo://app?vid=1b69e28d-b657-4802-b5dd-aa17fb5a768b","ios":"levelo://app?vid=1b69e28d-b657-4802-b5dd-aa17fb5a768b"},"vehicle_type_id":"4","last_reported":1726344632,"current_range_meters":24800,"station_id":"","pricing_plan_id":"cebpf4jnsgd1na2vs0mg"},{"bike_id":"1f4a87d8-adf5-485f-a6c6-f88783176e48","system_id":"levelo_inurba_marseille","lat":43.2798,"lon":5.38738,"is_reserved":false,"is_disabled":false,"rental_uris":{"android":"levelo://app?vid=1f4a87d8-adf5-485f-a6c6-f88783176e48","ios":"levelo://app?vid=1f4a87d8-adf5-485f-a6c6-f88783176e48"},"vehicle_type_id":"4","last_reported":1726344632,"current_range_meters":34000,"station_id":"ce4bhg12rcd13ifvqf80","pricing_plan_id":"cebpf4jnsgd1na2vs0mg"},{"bike_id":"f0e5fabe-e692-4e5b-8a06-c7c4fe295016","system_id":"levelo_inurba_marseille","lat":43.29037,"lon":5.38648,"is_reserved":false,"is_disabled":false,"rental_uris":{"android":"levelo://app?vid=f0e5fabe-e692-4e5b-8a06-c7c4fe295016","ios":"levelo://app?vid=f0e5fabe-e692-4e5b-8a06-c7c4fe295016"},"vehicle_type_id":"4","last_reported":1726344632,"current_range_meters":32000,"station_id":"ce4bh4p2rcd13ifvqe0g","pricing_plan_id":"cebpf4jnsgd1na2vs0mg"},{"bike_id":"995d3a7e-289e-4ebd-b785-9d2da426ad57","system_id":"levelo_inurba_marseille","lat":43.23191,"lon":5.35552,"is_reserved":false,"is_disabled":false,"rental_uris":{"android":"levelo://app?vid=995d3a7e-289e-4ebd-b785-9d2da426ad57","ios":"levelo://app?vid=995d3a7e-289e-4ebd-b785-9d2da426ad57"},"vehicle_type_id":"4","last_reported":1726344632,"current_range_meters":18000,"station_id":"ce4bhu92rcd13ifvqi70","pricing_plan_id":"cebpf4jnsgd1na2vs0mg"},{"bike_id":"74c67d55-8a5f-40c9-8066-d68354718f8c","system_id":"levelo_inurba_marseille","lat":43.2319,"lon":5.35557,"is_reserved":false,"is_disabled":false,"rental_uris":{"android":"levelo://app?vid=74c67d55-8a5f-40c9-8066-d68354718f8c","ios":"levelo://app?vid=74c67d55-8a5f-40c9-8066-d68354718f8c"},"vehicle_type_id":"4","last_reported":1726344632,"current_range_meters":24000,"station_id":"ce4bhu92rcd13ifvqi70","pricing_plan_id":"cebpf4jnsgd1na2vs0mg"},{"bike_id":"2348432a-2e1b-4480-8221-dc0ae33b40e8","system_id":"levelo_inurba_marseille","lat":43.24391,"lon":5.37062,"is_reserved":false,"is_disabled":false,"rental_uris":{"android":"levelo://app?vid=2348432a-2e1b-4480-8221-dc0ae33b40e8","ios":"levelo://app?vid=2348432a-2e1b-4480-8221-dc0ae33b40e8"},"vehicle_type_id":"4","last_reported":1726344632,"current_range_meters":20000,"station_id":"ce4bhhh2rcd13ifvqfk0","pricing_plan_id":"cebpf4jnsgd1na2vs0mg"},{"bike_id":"01665608-67f5-49e4-803e-974fca0ddcc9","system_id":"levelo_inurba_marseille","lat":43.32364,"lon":5.38889,"is_reserved":false,"is_disabled":false,"rental_uris":{"android":"levelo://app?vid=01665608-67f5-49e4-803e-974fca0ddcc9","ios":"levelo://app?vid=01665608-67f5-49e4-803e-974fca0ddcc9"},"vehicle_type_id":"4","last_reported":1726344632,"current_range_meters":10000,"station_id":"ce4bhqp2rcd13ifvqhog","pricing_plan_id":"cebpf4jnsgd1na2vs0mg"},{"bike_id":"633e818d-e70a-4e1a-b0f4-27a077017d26","system_id":"levelo_inurba_marseille","lat":43.29612,"lon":5.37156,"is_reserved":false,"is_disabled":false,"rental_uris":{"android":"levelo://app?vid=633e818d-e70a-4e1a-b0f4-27a077017d26","ios":"levelo://app?vid=633e818d-e70a-4e1a-b0f4-27a077017d26"},"vehicle_type_id":"4","last_reported":1726344632,"current_range_meters":39200,"station_id":"ce4bgnh2rcd13ifvqc0g","pricing_plan_id":"cebpf4jnsgd1na2vs0mg"},{"bike_id":"bf163d4f-8221-4fc1-aa83-ebe7d7a41dd8","system_id":"levelo_inurba_marseille","lat":43.26023,"lon":5.37549,"is_reserved":false,"is_disabled":false,"rental_uris":{"android":"levelo://app?vid=bf163d4f-8221-4fc1-aa83-ebe7d7a41dd8","ios":"levelo://app?vid=bf163d4f-8221-4fc1-aa83-ebe7d7a41dd8"},"vehicle_type_id":"4","last_reported":1726344632,"current_range_meters":36800,"station_id":"ce4bhgh2rcd13ifvqfa0","pricing_plan_id":"cebpf4jnsgd1na2vs0mg"},{"bike_id":"dfb89513-f211-47bc-95b2-ffac780f14a8","system_id":"levelo_inurba_marseille","lat":43.23193,"lon":5.35556,"is_reserved":false,"is_disabled":false,"rental_uris":{"android":"levelo://app?vid=dfb89513-f211-47bc-95b2-ffac780f14a8","ios":"levelo://app?vid=dfb89513-f211-47bc-95b2-ffac780f14a8"},"vehicle_type_id":"4","last_reported":1726344632,"current_range_meters":11600,"station_id":"ce4bhu92rcd13ifvqi70","pricing_plan_id":"cebpf4jnsgd1na2vs0mg"},{"bike_id":"54bfa228-d52a-4ee9-9b4c-3214afa7fe0c","system_id":"levelo_inurba_marseille","lat":43.291656,"lon":5.371608,"is_reserved":false,"is_disabled":false,"rental_uris":{"android":"levelo://app?vid=54bfa228-d52a-4ee9-9b4c-3214afa7fe0c","ios":"levelo://app?vid=54bfa228-d52a-4ee9-9b4c-3214afa7fe0c"},"vehicle_type_id":"4","last_reported":1726344632,"current_range_meters":17600,"station_id":"ce4bha92rcd13ifvqeh0","pricing_plan_id":"cebpf4jnsgd1na2vs0mg"},{"bike_id":"5695be2b-9a5b-4c85-9c3e-237c284c36d2","system_id":"levelo_inurba_marseille","lat":43.32289,"lon":5.38259,"is_reserved":false,"is_disabled":false,"rental_uris":{"android":"levelo://app?vid=5695be2b-9a5b-4c85-9c3e-237c284c36d2","ios":"levelo://app?vid=5695be2b-9a5b-4c85-9c3e-237c284c36d2"},"vehicle_type_id":"4","last_reported":1726344632,"current_range_meters":39200,"station_id":"ce4bhr12rcd13ifvqhqg","pricing_plan_id":"cebpf4jnsgd1na2vs0mg"},{"bike_id":"282df74a-fc48-4048-98c0-c7e7da0b0e4a","system_id":"levelo_inurba_marseille","lat":43.2845,"lon":5.3919,"is_reserved":false,"is_disabled":false,"rental_uris":{"android":"levelo://app?vid=282df74a-fc48-4048-98c0-c7e7da0b0e4a","ios":"levelo://app?vid=282df74a-fc48-4048-98c0-c7e7da0b0e4a"},"vehicle_type_id":"4","last_reported":1726344632,"current_range_meters":19200,"station_id":"ce4bhoh2rcd13ifvqh5g","pricing_plan_id":"cebpf4jnsgd1na2vs0mg"},{"bike_id":"91612ab2-afdb-416f-8d67-71b4492dad78","system_id":"levelo_inurba_marseille","lat":43.2699,"lon":5.39246,"is_reserved":false,"is_disabled":false,"rental_uris":{"android":"levelo://app?vid=91612ab2-afdb-416f-8d67-71b4492dad78","ios":"levelo://app?vid=91612ab2-afdb-416f-8d67-71b4492dad78"},"vehicle_type_id":"4","last_reported":1726344632,"current_range_meters":36800,"station_id":"","pricing_plan_id":"cebpf4jnsgd1na2vs0mg"},{"bike_id":"aac07f6f-d068-41e5-80ed-ad695afca2fa","system_id":"levelo_inurba_marseille","lat":43.25719,"lon":5.41114,"is_reserved":false,"is_disabled":false,"rental_uris":{"android":"levelo://app?vid=aac07f6f-d068-41e5-80ed-ad695afca2fa","ios":"levelo://app?vid=aac07f6f-d068-41e5-80ed-ad695afca2fa"},"vehicle_type_id":"4","last_reported":1726344632,"current_range_meters":36000,"station_id":"ce4bhkp2rcd13ifvqgd0","pricing_plan_id":"cebpf4jnsgd1na2vs0mg"},{"bike_id":"8f7d2222-b8b1-4df4-8f4e-3209ab742980","system_id":"levelo_inurba_marseille","lat":43.30888,"lon":5.39635,"is_reserved":false,"is_disabled":false,"rental_uris":{"android":"levelo://app?vid=8f7d2222-b8b1-4df4-8f4e-3209ab742980","ios":"levelo://app?vid=8f7d2222-b8b1-4df4-8f4e-3209ab742980"},"vehicle_type_id":"4","last_reported":1726344632,"current_range_meters":27600,"station_id":"ce4bh012rcd13ifvqcv0","pricing_plan_id":"cebpf4jnsgd1na2vs0mg"},{"bike_id":"de7ae97c-1ed8-432c-8b78-49df8a673c6e","system_id":"levelo_inurba_marseille","lat":43.29189,"lon":5.39321,"is_reserved":false,"is_disabled":false,"rental_uris":{"android":"levelo://app?vid=de7ae97c-1ed8-432c-8b78-49df8a673c6e","ios":"levelo://app?vid=de7ae97c-1ed8-432c-8b78-49df8a673c6e"},"vehicle_type_id":"4","last_reported":1726344632,"current_range_meters":13600,"station_id":"ce4bh192rcd13ifvqdd0","pricing_plan_id":"cebpf4jnsgd1na2vs0mg"},{"bike_id":"1ff366e9-e1c8-45b3-b253-c4180e65f400","system_id":"levelo_inurba_marseille","lat":43.29871,"lon":5.3891,"is_reserved":false,"is_disabled":false,"rental_uris":{"android":"levelo://app?vid=1ff366e9-e1c8-45b3-b253-c4180e65f400","ios":"levelo://app?vid=1ff366e9-e1c8-45b3-b253-c4180e65f400"},"vehicle_type_id":"4","last_reported":1726344632,"current_range_meters":24800,"station_id":"ce4bh392rcd13ifvqdl0","pricing_plan_id":"cebpf4jnsgd1na2vs0mg"},{"bike_id":"30fc1f51-20b6-4e13-8f56-75175e166910","system_id":"levelo_inurba_marseille","lat":43.2306,"lon":5.35492,"is_reserved":false,"is_disabled":false,"rental_uris":{"android":"levelo://app?vid=30fc1f51-20b6-4e13-8f56-75175e166910","ios":"levelo://app?vid=30fc1f51-20b6-4e13-8f56-75175e166910"},"vehicle_type_id":"4","last_reported":1726344632,"current_range_meters":38400,"station_id":"cpo3342slgdg3j2ifvpg","pricing_plan_id":"cebpf4jnsgd1na2vs0mg"},{"bike_id":"0d4088dc-ef05-4dbe-bcf8-ad5b4457209a","system_id":"levelo_inurba_marseille","lat":43.30133,"lon":5.3987,"is_reserved":false,"is_disabled":false,"rental_uris":{"android":"levelo://app?vid=0d4088dc-ef05-4dbe-bcf8-ad5b4457209a","ios":"levelo://app?vid=0d4088dc-ef05-4dbe-bcf8-ad5b4457209a"},"vehicle_type_id":"4","last_reported":1726344632,"current_range_meters":10000,"station_id":"ce4bh0h2rcd13ifvqd40","pricing_plan_id":"cebpf4jnsgd1na2vs0mg"},{"bike_id":"0bba7cc8-449f-4082-ae64-43460c75ad4f","system_id":"levelo_inurba_marseille","lat":43.30553,"lon":5.3671,"is_reserved":false,"is_disabled":false,"rental_uris":{"android":"levelo://app?vid=0bba7cc8-449f-4082-ae64-43460c75ad4f","ios":"levelo://app?vid=0bba7cc8-449f-4082-ae64-43460c75ad4f"},"vehicle_type_id":"4","last_reported":1726344632,"current_range_meters":36800,"station_id":"ce4bgrp2rcd13ifvqc9g","pricing_plan_id":"cebpf4jnsgd1na2vs0mg"},{"bike_id":"978a26f8-5216-4e1c-b270-c07a24848af2","system_id":"levelo_inurba_marseille","lat":43.24166,"lon":5.36397,"is_reserved":false,"is_disabled":false,"rental_uris":{"android":"levelo://app?vid=978a26f8-5216-4e1c-b270-c07a24848af2","ios":"levelo://app?vid=978a26f8-5216-4e1c-b270-c07a24848af2"},"vehicle_type_id":"4","last_reported":1726344632,"current_range_meters":32000,"station_id":"cpo36qri1sfpv3e86is0","pricing_plan_id":"cebpf4jnsgd1na2vs0mg"},{"bike_id":"c86b0092-7fc7-4b72-93c6-667605627665","system_id":"levelo_inurba_marseille","lat":43.30753,"lon":5.38302,"is_reserved":false,"is_disabled":false,"rental_uris":{"android":"levelo://app?vid=c86b0092-7fc7-4b72-93c6-667605627665","ios":"levelo://app?vid=c86b0092-7fc7-4b72-93c6-667605627665"},"vehicle_type_id":"4","last_reported":1726344632,"current_range_meters":7200,"station_id":"","pricing_plan_id":"cebpf4jnsgd1na2vs0mg"},{"bike_id":"f89ebaff-608b-48c6-99bf-a4efd018954e","system_id":"levelo_inurba_marseille","lat":43.25721,"lon":5.41117,"is_reserved":false,"is_disabled":false,"rental_uris":{"android":"levelo://app?vid=f89ebaff-608b-48c6-99bf-a4efd018954e","ios":"levelo://app?vid=f89ebaff-608b-48c6-99bf-a4efd018954e"},"vehicle_type_id":"4","last_reported":1726344632,"current_range_meters":20000,"station_id":"ce4bhkp2rcd13ifvqgd0","pricing_plan_id":"cebpf4jnsgd1na2vs0mg"},{"bike_id":"cc1ed7f8-4fa8-40e1-b964-30bb80a3cc87","system_id":"levelo_inurba_marseille","lat":43.24809,"lon":5.3746,"is_reserved":false,"is_disabled":false,"rental_uris":{"android":"levelo://app?vid=cc1ed7f8-4fa8-40e1-b964-30bb80a3cc87","ios":"levelo://app?vid=cc1ed7f8-4fa8-40e1-b964-30bb80a3cc87"},"vehicle_type_id":"4","last_reported":1726344632,"current_range_meters":30400,"station_id":"ce4bhgh2rcd13ifvqfb0","pricing_plan_id":"cebpf4jnsgd1na2vs0mg"},{"bike_id":"624f636d-c514-4a45-a340-8545694ea420","system_id":"levelo_inurba_marseille","lat":43.2941,"lon":5.38628,"is_reserved":false,"is_disabled":false,"rental_uris":{"android":"levelo://app?vid=624f636d-c514-4a45-a340-8545694ea420","ios":"levelo://app?vid=624f636d-c514-4a45-a340-8545694ea420"},"vehicle_type_id":"4","last_reported":1726344632,"current_range_meters":30400,"station_id":"ce4bh2h2rcd13ifvqdh0","pricing_plan_id":"cebpf4jnsgd1na2vs0mg"},{"bike_id":"fc8b27c4-f2ac-4aa3-a72e-f0799ca48e22","system_id":"levelo_inurba_marseille","lat":43.23147,"lon":5.43709,"is_reserved":false,"is_disabled":false,"rental_uris":{"android":"levelo://app?vid=fc8b27c4-f2ac-4aa3-a72e-f0799ca48e22","ios":"levelo://app?vid=fc8b27c4-f2ac-4aa3-a72e-f0799ca48e22"},"vehicle_type_id":"4","last_reported":1726344632,"current_range_meters":14400,"station_id":"ce4bhmp2rcd13ifvqgog","pricing_plan_id":"cebpf4jnsgd1na2vs0mg"},{"bike_id":"b163cf08-6ce3-4d2f-a3d2-6a4eb4ce7991","system_id":"levelo_inurba_marseille","lat":43.28153,"lon":5.42648,"is_reserved":false,"is_disabled":false,"rental_uris":{"android":"levelo://app?vid=b163cf08-6ce3-4d2f-a3d2-6a4eb4ce7991","ios":"levelo://app?vid=b163cf08-6ce3-4d2f-a3d2-6a4eb4ce7991"},"vehicle_type_id":"4","last_reported":1726344632,"current_range_meters":11600,"station_id":"ce4bhnh2rcd13ifvqgug","pricing_plan_id":"cebpf4jnsgd1na2vs0mg"},{"bike_id":"2690214e-f814-462a-adbe-7512c993181c","system_id":"levelo_inurba_marseille","lat":43.29263,"lon":5.38444,"is_reserved":false,"is_disabled":false,"rental_uris":{"android":"levelo://app?vid=2690214e-f814-462a-adbe-7512c993181c","ios":"levelo://app?vid=2690214e-f814-462a-adbe-7512c993181c"},"vehicle_type_id":"4","last_reported":1726344632,"current_range_meters":38800,"station_id":"ce4bh692rcd13ifvqea0","pricing_plan_id":"cebpf4jnsgd1na2vs0mg"},{"bike_id":"049b027b-b576-4c06-be84-bbcb2127d507","system_id":"levelo_inurba_marseille","lat":43.28151,"lon":5.42644,"is_reserved":false,"is_disabled":false,"rental_uris":{"android":"levelo://app?vid=049b027b-b576-4c06-be84-bbcb2127d507","ios":"levelo://app?vid=049b027b-b576-4c06-be84-bbcb2127d507"},"vehicle_type_id":"4","last_reported":1726344632,"current_range_meters":2800,"station_id":"ce4bhnh2rcd13ifvqgug","pricing_plan_id":"cebpf4jnsgd1na2vs0mg"},{"bike_id":"b7e619f4-b0b5-4932-a376-b0f7919290eb","system_id":"levelo_inurba_marseille","lat":43.28944,"lon":5.36408,"is_reserved":false,"is_disabled":false,"rental_uris":{"android":"levelo://app?vid=b7e619f4-b0b5-4932-a376-b0f7919290eb","ios":"levelo://app?vid=b7e619f4-b0b5-4932-a376-b0f7919290eb"},"vehicle_type_id":"4","last_reported":1726344632,"current_range_meters":38800,"station_id":"ce4bhc92rcd13ifvqetg","pricing_plan_id":"cebpf4jnsgd1na2vs0mg"},{"bike_id":"f79ff168-7c1f-43a6-9a48-819ae1e3b151","system_id":"levelo_inurba_marseille","lat":43.24076,"lon":5.37762,"is_reserved":false,"is_disabled":false,"rental_uris":{"android":"levelo://app?vid=f79ff168-7c1f-43a6-9a48-819ae1e3b151","ios":"levelo://app?vid=f79ff168-7c1f-43a6-9a48-819ae1e3b151"},"vehicle_type_id":"4","last_reported":1726344632,"current_range_meters":20400,"station_id":"ce4bhnp2rcd13ifvqgvg","pricing_plan_id":"cebpf4jnsgd1na2vs0mg"},{"bike_id":"c7181480-3bc0-429d-b46f-0775b52425ac","system_id":"levelo_inurba_marseille","lat":43.29049,"lon":5.39943,"is_reserved":false,"is_disabled":false,"rental_uris":{"android":"levelo://app?vid=c7181480-3bc0-429d-b46f-0775b52425ac","ios":"levelo://app?vid=c7181480-3bc0-429d-b46f-0775b52425ac"},"vehicle_type_id":"4","last_reported":1726344632,"current_range_meters":3600,"station_id":"ce4bh392rcd13ifvqdm0","pricing_plan_id":"cebpf4jnsgd1na2vs0mg"},{"bike_id":"db598570-6e0a-46e4-9d53-c0d3586a1208","system_id":"levelo_inurba_marseille","lat":43.2942,"lon":5.38632,"is_reserved":false,"is_disabled":false,"rental_uris":{"android":"levelo://app?vid=db598570-6e0a-46e4-9d53-c0d3586a1208","ios":"levelo://app?vid=db598570-6e0a-46e4-9d53-c0d3586a1208"},"vehicle_type_id":"4","last_reported":1726344632,"current_range_meters":38800,"station_id":"ce4bh2h2rcd13ifvqdh0","pricing_plan_id":"cebpf4jnsgd1na2vs0mg"},{"bike_id":"90521811-f8fd-48e1-ade7-4d07ddb065bb","system_id":"levelo_inurba_marseille","lat":43.23197,"lon":5.35555,"is_reserved":false,"is_disabled":false,"rental_uris":{"android":"levelo://app?vid=90521811-f8fd-48e1-ade7-4d07ddb065bb","ios":"levelo://app?vid=90521811-f8fd-48e1-ade7-4d07ddb065bb"},"vehicle_type_id":"4","last_reported":1726344632,"current_range_meters":16800,"station_id":"ce4bhu92rcd13ifvqi70","pricing_plan_id":"cebpf4jnsgd1na2vs0mg"},{"bike_id":"80929e07-48af-4599-8292-4265dda28cd5","system_id":"levelo_inurba_marseille","lat":43.31117,"lon":5.37781,"is_reserved":false,"is_disabled":false,"rental_uris":{"android":"levelo://app?vid=80929e07-48af-4599-8292-4265dda28cd5","ios":"levelo://app?vid=80929e07-48af-4599-8292-4265dda28cd5"},"vehicle_type_id":"4","last_reported":1726344632,"current_range_meters":38000,"station_id":"ce4bgt92rcd13ifvqcg0","pricing_plan_id":"cebpf4jnsgd1na2vs0mg"},{"bike_id":"dafcc4cd-b2f7-4125-9846-74323a3593b1","system_id":"levelo_inurba_marseille","lat":43.23182,"lon":5.39987,"is_reserved":false,"is_disabled":false,"rental_uris":{"android":"levelo://app?vid=dafcc4cd-b2f7-4125-9846-74323a3593b1","ios":"levelo://app?vid=dafcc4cd-b2f7-4125-9846-74323a3593b1"},"vehicle_type_id":"4","last_reported":1726344632,"current_range_meters":9600,"station_id":"ce4bhn12rcd13ifvqgqg","pricing_plan_id":"cebpf4jnsgd1na2vs0mg"},{"bike_id":"f524e6ce-bd11-4cfb-bffa-8bd27d264bc1","system_id":"levelo_inurba_marseille","lat":43.2511,"lon":5.40323,"is_reserved":false,"is_disabled":false,"rental_uris":{"android":"levelo://app?vid=f524e6ce-bd11-4cfb-bffa-8bd27d264bc1","ios":"levelo://app?vid=f524e6ce-bd11-4cfb-bffa-8bd27d264bc1"},"vehicle_type_id":"4","last_reported":1726344632,"current_range_meters":39200,"station_id":"ce4bhlh2rcd13ifvqgig","pricing_plan_id":"cebpf4jnsgd1na2vs0mg"},{"bike_id":"33de87be-d693-4ae0-97a1-e8c883c2b6e7","system_id":"levelo_inurba_marseille","lat":43.27816,"lon":5.39221,"is_reserved":false,"is_disabled":false,"rental_uris":{"android":"levelo://app?vid=33de87be-d693-4ae0-97a1-e8c883c2b6e7","ios":"levelo://app?vid=33de87be-d693-4ae0-97a1-e8c883c2b6e7"},"vehicle_type_id":"4","last_reported":1726344632,"current_range_meters":6800,"station_id":"ce4bhjp2rcd13ifvqga0","pricing_plan_id":"cebpf4jnsgd1na2vs0mg"},{"bike_id":"5ad3492d-3df3-4fe5-a8a3-a55c24773366","system_id":"levelo_inurba_marseille","lat":43.29093,"lon":5.38142,"is_reserved":false,"is_disabled":false,"rental_uris":{"android":"levelo://app?vid=5ad3492d-3df3-4fe5-a8a3-a55c24773366","ios":"levelo://app?vid=5ad3492d-3df3-4fe5-a8a3-a55c24773366"},"vehicle_type_id":"4","last_reported":1726344632,"current_range_meters":34000,"station_id":"ce4bh512rcd13ifvqe2g","pricing_plan_id":"cebpf4jnsgd1na2vs0mg"},{"bike_id":"fe7d7640-31b4-4680-bbc0-971c61390d2e","system_id":"levelo_inurba_marseille","lat":43.250885,"lon":5.395217,"is_reserved":false,"is_disabled":false,"rental_uris":{"android":"levelo://app?vid=fe7d7640-31b4-4680-bbc0-971c61390d2e","ios":"levelo://app?vid=fe7d7640-31b4-4680-bbc0-971c61390d2e"},"vehicle_type_id":"4","last_reported":1726344632,"current_range_meters":38400,"station_id":"ce4bhm12rcd13ifvqgkg","pricing_plan_id":"cebpf4jnsgd1na2vs0mg"},{"bike_id":"26db0265-0a91-4c66-8aa8-67a94f7eef0d","system_id":"levelo_inurba_marseille","lat":43.26937,"lon":5.40059,"is_reserved":false,"is_disabled":false,"rental_uris":{"android":"levelo://app?vid=26db0265-0a91-4c66-8aa8-67a94f7eef0d","ios":"levelo://app?vid=26db0265-0a91-4c66-8aa8-67a94f7eef0d"},"vehicle_type_id":"4","last_reported":1726344632,"current_range_meters":16000,"station_id":"","pricing_plan_id":"cebpf4jnsgd1na2vs0mg"},{"bike_id":"9b49fc06-69dc-4375-9bc8-2ab31283d424","system_id":"levelo_inurba_marseille","lat":43.29903,"lon":5.43662,"is_reserved":false,"is_disabled":false,"rental_uris":{"android":"levelo://app?vid=9b49fc06-69dc-4375-9bc8-2ab31283d424","ios":"levelo://app?vid=9b49fc06-69dc-4375-9bc8-2ab31283d424"},"vehicle_type_id":"4","last_reported":1726344632,"current_range_meters":30800,"station_id":"ce4bhpp2rcd13ifvqhfg","pricing_plan_id":"cebpf4jnsgd1na2vs0mg"},{"bike_id":"9f809328-4ade-4bb9-a461-6ab3976513f5","system_id":"levelo_inurba_marseille","lat":43.29415,"lon":5.38626,"is_reserved":false,"is_disabled":false,"rental_uris":{"android":"levelo://app?vid=9f809328-4ade-4bb9-a461-6ab3976513f5","ios":"levelo://app?vid=9f809328-4ade-4bb9-a461-6ab3976513f5"},"vehicle_type_id":"4","last_reported":1726344632,"current_range_meters":38800,"station_id":"ce4bh2h2rcd13ifvqdh0","pricing_plan_id":"cebpf4jnsgd1na2vs0mg"},{"bike_id":"50848448-0c1b-4db2-b02b-7f54d96f2c9c","system_id":"levelo_inurba_marseille","lat":43.29422,"lon":5.38621,"is_reserved":false,"is_disabled":false,"rental_uris":{"android":"levelo://app?vid=50848448-0c1b-4db2-b02b-7f54d96f2c9c","ios":"levelo://app?vid=50848448-0c1b-4db2-b02b-7f54d96f2c9c"},"vehicle_type_id":"4","last_reported":1726344632,"current_range_meters":39200,"station_id":"ce4bh2h2rcd13ifvqdh0","pricing_plan_id":"cebpf4jnsgd1na2vs0mg"},{"bike_id":"14c7c49e-ac4e-4dba-94e4-3e14fb40b26f","system_id":"levelo_inurba_marseille","lat":43.30802,"lon":5.38141,"is_reserved":false,"is_disabled":false,"rental_uris":{"android":"levelo://app?vid=14c7c49e-ac4e-4dba-94e4-3e14fb40b26f","ios":"levelo://app?vid=14c7c49e-ac4e-4dba-94e4-3e14fb40b26f"},"vehicle_type_id":"4","last_reported":1726344632,"current_range_meters":28400,"station_id":"ce4bgt12rcd13ifvqce0","pricing_plan_id":"cebpf4jnsgd1na2vs0mg"},{"bike_id":"da0686e2-645b-46a2-ab34-9da4ae4d5943","system_id":"levelo_inurba_marseille","lat":43.29967,"lon":5.38497,"is_reserved":false,"is_disabled":false,"rental_uris":{"android":"levelo://app?vid=da0686e2-645b-46a2-ab34-9da4ae4d5943","ios":"levelo://app?vid=da0686e2-645b-46a2-ab34-9da4ae4d5943"},"vehicle_type_id":"4","last_reported":1726344632,"current_range_meters":6400,"station_id":"ce4bgj92rcd13ifvqbd0","pricing_plan_id":"cebpf4jnsgd1na2vs0mg"},{"bike_id":"ab7ec70c-dc16-4a85-9e03-3cddf38d6712","system_id":"levelo_inurba_marseille","lat":43.30461,"lon":5.37902,"is_reserved":false,"is_disabled":false,"rental_uris":{"android":"levelo://app?vid=ab7ec70c-dc16-4a85-9e03-3cddf38d6712","ios":"levelo://app?vid=ab7ec70c-dc16-4a85-9e03-3cddf38d6712"},"vehicle_type_id":"4","last_reported":1726344632,"current_range_meters":6000,"station_id":"ce4bgup2rcd13ifvqcn0","pricing_plan_id":"cebpf4jnsgd1na2vs0mg"},{"bike_id":"76bffc56-4c80-4f6f-bdfb-f93288287a43","system_id":"levelo_inurba_marseille","lat":43.30588,"lon":5.39361,"is_reserved":false,"is_disabled":false,"rental_uris":{"android":"levelo://app?vid=76bffc56-4c80-4f6f-bdfb-f93288287a43","ios":"levelo://app?vid=76bffc56-4c80-4f6f-bdfb-f93288287a43"},"vehicle_type_id":"4","last_reported":1726344632,"current_range_meters":38800,"station_id":"ce4bh0p2rcd13ifvqd80","pricing_plan_id":"cebpf4jnsgd1na2vs0mg"},{"bike_id":"e00d038a-00c7-4258-ab4b-259bdb081cfd","system_id":"levelo_inurba_marseille","lat":43.23196,"lon":5.35549,"is_reserved":false,"is_disabled":false,"rental_uris":{"android":"levelo://app?vid=e00d038a-00c7-4258-ab4b-259bdb081cfd","ios":"levelo://app?vid=e00d038a-00c7-4258-ab4b-259bdb081cfd"},"vehicle_type_id":"4","last_reported":1726344632,"current_range_meters":33200,"station_id":"ce4bhu92rcd13ifvqi70","pricing_plan_id":"cebpf4jnsgd1na2vs0mg"},{"bike_id":"4f847161-8733-40c0-9d1a-924c211b3057","system_id":"levelo_inurba_marseille","lat":43.2319,"lon":5.35543,"is_reserved":false,"is_disabled":false,"rental_uris":{"android":"levelo://app?vid=4f847161-8733-40c0-9d1a-924c211b3057","ios":"levelo://app?vid=4f847161-8733-40c0-9d1a-924c211b3057"},"vehicle_type_id":"4","last_reported":1726344632,"current_range_meters":36400,"station_id":"ce4bhu92rcd13ifvqi70","pricing_plan_id":"cebpf4jnsgd1na2vs0mg"},{"bike_id":"aced5ab7-b508-4250-8809-353d2c8a330a","system_id":"levelo_inurba_marseille","lat":43.255829,"lon":5.38236,"is_reserved":false,"is_disabled":false,"rental_uris":{"android":"levelo://app?vid=aced5ab7-b508-4250-8809-353d2c8a330a","ios":"levelo://app?vid=aced5ab7-b508-4250-8809-353d2c8a330a"},"vehicle_type_id":"4","last_reported":1726344632,"current_range_meters":17600,"station_id":"ce4bhih2rcd13ifvqfs0","pricing_plan_id":"cebpf4jnsgd1na2vs0mg"},{"bike_id":"d51969b3-5bfa-4793-980f-d27084f0befb","system_id":"levelo_inurba_marseille","lat":43.29514,"lon":5.39046,"is_reserved":false,"is_disabled":false,"rental_uris":{"android":"levelo://app?vid=d51969b3-5bfa-4793-980f-d27084f0befb","ios":"levelo://app?vid=d51969b3-5bfa-4793-980f-d27084f0befb"},"vehicle_type_id":"4","last_reported":1726344632,"current_range_meters":39200,"station_id":"ce4bh3p2rcd13ifvqdp0","pricing_plan_id":"cebpf4jnsgd1na2vs0mg"},{"bike_id":"bab2e34c-d170-4d15-8d4e-b42ba415ec62","system_id":"levelo_inurba_marseille","lat":43.25502,"lon":5.37651,"is_reserved":false,"is_disabled":false,"rental_uris":{"android":"levelo://app?vid=bab2e34c-d170-4d15-8d4e-b42ba415ec62","ios":"levelo://app?vid=bab2e34c-d170-4d15-8d4e-b42ba415ec62"},"vehicle_type_id":"4","last_reported":1726344632,"current_range_meters":8800,"station_id":"ce4bhh12rcd13ifvqff0","pricing_plan_id":"cebpf4jnsgd1na2vs0mg"},{"bike_id":"e320ba92-f31e-40d5-b18c-e12df29ac48f","system_id":"levelo_inurba_marseille","lat":43.29792,"lon":5.38097,"is_reserved":false,"is_disabled":false,"rental_uris":{"android":"levelo://app?vid=e320ba92-f31e-40d5-b18c-e12df29ac48f","ios":"levelo://app?vid=e320ba92-f31e-40d5-b18c-e12df29ac48f"},"vehicle_type_id":"4","last_reported":1726344632,"current_range_meters":38800,"station_id":"ce4bgip2rcd13ifvqbb0","pricing_plan_id":"cebpf4jnsgd1na2vs0mg"},{"bike_id":"cf4306ab-ec49-44e9-a678-fc57450de71b","system_id":"levelo_inurba_marseille","lat":43.31532,"lon":5.3801,"is_reserved":false,"is_disabled":false,"rental_uris":{"android":"levelo://app?vid=cf4306ab-ec49-44e9-a678-fc57450de71b","ios":"levelo://app?vid=cf4306ab-ec49-44e9-a678-fc57450de71b"},"vehicle_type_id":"4","last_reported":1726344632,"current_range_meters":38800,"station_id":"ce4bhsp2rcd13ifvqi50","pricing_plan_id":"cebpf4jnsgd1na2vs0mg"},{"bike_id":"71210084-c263-4c77-9876-82513872411c","system_id":"levelo_inurba_marseille","lat":43.24543,"lon":5.39527,"is_reserved":false,"is_disabled":false,"rental_uris":{"android":"levelo://app?vid=71210084-c263-4c77-9876-82513872411c","ios":"levelo://app?vid=71210084-c263-4c77-9876-82513872411c"},"vehicle_type_id":"4","last_reported":1726344632,"current_range_meters":17600,"station_id":"ce4bhlp2rcd13ifvqgjg","pricing_plan_id":"cebpf4jnsgd1na2vs0mg"},{"bike_id":"7ec6bc60-e018-4092-b39f-664e99b172a2","system_id":"levelo_inurba_marseille","lat":43.31356,"lon":5.36706,"is_reserved":false,"is_disabled":false,"rental_uris":{"android":"levelo://app?vid=7ec6bc60-e018-4092-b39f-664e99b172a2","ios":"levelo://app?vid=7ec6bc60-e018-4092-b39f-664e99b172a2"},"vehicle_type_id":"4","last_reported":1726344632,"current_range_meters":35600,"station_id":"ce4bgr92rcd13ifvqc6g","pricing_plan_id":"cebpf4jnsgd1na2vs0mg"},{"bike_id":"f755c03b-59f8-4f0b-bdcf-df859e9a82e3","system_id":"levelo_inurba_marseille","lat":43.30797,"lon":5.38158,"is_reserved":false,"is_disabled":false,"rental_uris":{"android":"levelo://app?vid=f755c03b-59f8-4f0b-bdcf-df859e9a82e3","ios":"levelo://app?vid=f755c03b-59f8-4f0b-bdcf-df859e9a82e3"},"vehicle_type_id":"4","last_reported":1726344632,"current_range_meters":34000,"station_id":"ce4bgt12rcd13ifvqce0","pricing_plan_id":"cebpf4jnsgd1na2vs0mg"},{"bike_id":"47ab4668-191b-4b19-90cf-3fab29722f66","system_id":"levelo_inurba_marseille","lat":43.28105,"lon":5.37835,"is_reserved":false,"is_disabled":false,"rental_uris":{"android":"levelo://app?vid=47ab4668-191b-4b19-90cf-3fab29722f66","ios":"levelo://app?vid=47ab4668-191b-4b19-90cf-3fab29722f66"},"vehicle_type_id":"4","last_reported":1726344632,"current_range_meters":9600,"station_id":"ce4bha12rcd13ifvqee0","pricing_plan_id":"cebpf4jnsgd1na2vs0mg"},{"bike_id":"aa1bdbb4-335e-4a73-b33a-12e63e53f8a3","system_id":"levelo_inurba_marseille","lat":43.2978,"lon":5.39341,"is_reserved":false,"is_disabled":false,"rental_uris":{"android":"levelo://app?vid=aa1bdbb4-335e-4a73-b33a-12e63e53f8a3","ios":"levelo://app?vid=aa1bdbb4-335e-4a73-b33a-12e63e53f8a3"},"vehicle_type_id":"4","last_reported":1726344632,"current_range_meters":8400,"station_id":"chh1huq6cuj3fo74tm60","pricing_plan_id":"cebpf4jnsgd1na2vs0mg"},{"bike_id":"e75e9b2f-7f1c-4d3a-af22-f7650524b030","system_id":"levelo_inurba_marseille","lat":43.24666,"lon":5.38164,"is_reserved":false,"is_disabled":false,"rental_uris":{"android":"levelo://app?vid=e75e9b2f-7f1c-4d3a-af22-f7650524b030","ios":"levelo://app?vid=e75e9b2f-7f1c-4d3a-af22-f7650524b030"},"vehicle_type_id":"4","last_reported":1726344632,"current_range_meters":3200,"station_id":"ce4bhih2rcd13ifvqfr0","pricing_plan_id":"cebpf4jnsgd1na2vs0mg"},{"bike_id":"a0ed5178-484f-47cc-bd63-846aeaa97be3","system_id":"levelo_inurba_marseille","lat":43.30772,"lon":5.37658,"is_reserved":false,"is_disabled":false,"rental_uris":{"android":"levelo://app?vid=a0ed5178-484f-47cc-bd63-846aeaa97be3","ios":"levelo://app?vid=a0ed5178-484f-47cc-bd63-846aeaa97be3"},"vehicle_type_id":"4","last_reported":1726344632,"current_range_meters":38400,"station_id":"ce4bgv92rcd13ifvqcq0","pricing_plan_id":"cebpf4jnsgd1na2vs0mg"},{"bike_id":"73c77e01-6db6-41eb-a78b-0df1e73561b5","system_id":"levelo_inurba_marseille","lat":43.29518,"lon":5.39412,"is_reserved":false,"is_disabled":false,"rental_uris":{"android":"levelo://app?vid=73c77e01-6db6-41eb-a78b-0df1e73561b5","ios":"levelo://app?vid=73c77e01-6db6-41eb-a78b-0df1e73561b5"},"vehicle_type_id":"4","last_reported":1726344632,"current_range_meters":1600,"station_id":"ce4bh292rcd13ifvqdf0","pricing_plan_id":"cebpf4jnsgd1na2vs0mg"},{"bike_id":"b1db6496-7d7b-4acc-a88c-e5406d38e100","system_id":"levelo_inurba_marseille","lat":43.23199,"lon":5.35546,"is_reserved":false,"is_disabled":false,"rental_uris":{"android":"levelo://app?vid=b1db6496-7d7b-4acc-a88c-e5406d38e100","ios":"levelo://app?vid=b1db6496-7d7b-4acc-a88c-e5406d38e100"},"vehicle_type_id":"4","last_reported":1726344632,"current_range_meters":38800,"station_id":"ce4bhu92rcd13ifvqi70","pricing_plan_id":"cebpf4jnsgd1na2vs0mg"},{"bike_id":"ee721f16-71d0-49c8-9da4-858f78b55bcb","system_id":"levelo_inurba_marseille","lat":43.25937,"lon":5.40904,"is_reserved":false,"is_disabled":false,"rental_uris":{"android":"levelo://app?vid=ee721f16-71d0-49c8-9da4-858f78b55bcb","ios":"levelo://app?vid=ee721f16-71d0-49c8-9da4-858f78b55bcb"},"vehicle_type_id":"4","last_reported":1726344632,"current_range_meters":28400,"station_id":"ce4bhm92rcd13ifvqglg","pricing_plan_id":"cebpf4jnsgd1na2vs0mg"},{"bike_id":"4af6fd3a-aef1-43db-816e-c64d386db18f","system_id":"levelo_inurba_marseille","lat":43.30877,"lon":5.37198,"is_reserved":false,"is_disabled":false,"rental_uris":{"android":"levelo://app?vid=4af6fd3a-aef1-43db-816e-c64d386db18f","ios":"levelo://app?vid=4af6fd3a-aef1-43db-816e-c64d386db18f"},"vehicle_type_id":"4","last_reported":1726344632,"current_range_meters":10800,"station_id":"ce4bguh2rcd13ifvqckg","pricing_plan_id":"cebpf4jnsgd1na2vs0mg"},{"bike_id":"cd8b4253-f0c1-424f-af78-a9db93e80a7e","system_id":"levelo_inurba_marseille","lat":43.28665,"lon":5.38669,"is_reserved":false,"is_disabled":false,"rental_uris":{"android":"levelo://app?vid=cd8b4253-f0c1-424f-af78-a9db93e80a7e","ios":"levelo://app?vid=cd8b4253-f0c1-424f-af78-a9db93e80a7e"},"vehicle_type_id":"4","last_reported":1726344632,"current_range_meters":16000,"station_id":"ce4bh492rcd13ifvqdug","pricing_plan_id":"cebpf4jnsgd1na2vs0mg"},{"bike_id":"c3d0a36b-0e58-4abc-9a30-c2bd1e25351a","system_id":"levelo_inurba_marseille","lat":43.25866,"lon":5.39904,"is_reserved":false,"is_disabled":false,"rental_uris":{"android":"levelo://app?vid=c3d0a36b-0e58-4abc-9a30-c2bd1e25351a","ios":"levelo://app?vid=c3d0a36b-0e58-4abc-9a30-c2bd1e25351a"},"vehicle_type_id":"4","last_reported":1726344632,"current_range_meters":39200,"station_id":"ce4bhl92rcd13ifvqghg","pricing_plan_id":"cebpf4jnsgd1na2vs0mg"},{"bike_id":"5d57090e-631a-43c2-bed6-50c5bdc6029c","system_id":"levelo_inurba_marseille","lat":43.31224,"lon":5.36869,"is_reserved":false,"is_disabled":false,"rental_uris":{"android":"levelo://app?vid=5d57090e-631a-43c2-bed6-50c5bdc6029c","ios":"levelo://app?vid=5d57090e-631a-43c2-bed6-50c5bdc6029c"},"vehicle_type_id":"4","last_reported":1726344632,"current_range_meters":28400,"station_id":"ce4bgl92rcd13ifvqbq0","pricing_plan_id":"cebpf4jnsgd1na2vs0mg"},{"bike_id":"7f938198-b3f2-442e-8683-d6820098532f","system_id":"levelo_inurba_marseille","lat":43.28156,"lon":5.42642,"is_reserved":false,"is_disabled":false,"rental_uris":{"android":"levelo://app?vid=7f938198-b3f2-442e-8683-d6820098532f","ios":"levelo://app?vid=7f938198-b3f2-442e-8683-d6820098532f"},"vehicle_type_id":"4","last_reported":1726344632,"current_range_meters":23200,"station_id":"ce4bhnh2rcd13ifvqgug","pricing_plan_id":"cebpf4jnsgd1na2vs0mg"},{"bike_id":"dfc7e944-178a-43bd-85e8-0abf1cafc416","system_id":"levelo_inurba_marseille","lat":43.22922,"lon":5.35379,"is_reserved":false,"is_disabled":false,"rental_uris":{"android":"levelo://app?vid=dfc7e944-178a-43bd-85e8-0abf1cafc416","ios":"levelo://app?vid=dfc7e944-178a-43bd-85e8-0abf1cafc416"},"vehicle_type_id":"4","last_reported":1726344632,"current_range_meters":24800,"station_id":"cpo3532slgdg3j2ikp40","pricing_plan_id":"cebpf4jnsgd1na2vs0mg"},{"bike_id":"0af86d62-007c-4586-a086-4602be9f41f2","system_id":"levelo_inurba_marseille","lat":43.28607,"lon":5.37067,"is_reserved":false,"is_disabled":false,"rental_uris":{"android":"levelo://app?vid=0af86d62-007c-4586-a086-4602be9f41f2","ios":"levelo://app?vid=0af86d62-007c-4586-a086-4602be9f41f2"},"vehicle_type_id":"4","last_reported":1726344632,"current_range_meters":3200,"station_id":"ce4bht12rcd13ifvqi60","pricing_plan_id":"cebpf4jnsgd1na2vs0mg"},{"bike_id":"6dddbab5-c16e-4541-846f-31261364d687","system_id":"levelo_inurba_marseille","lat":43.31336,"lon":5.397,"is_reserved":false,"is_disabled":false,"rental_uris":{"android":"levelo://app?vid=6dddbab5-c16e-4541-846f-31261364d687","ios":"levelo://app?vid=6dddbab5-c16e-4541-846f-31261364d687"},"vehicle_type_id":"4","last_reported":1726344632,"current_range_meters":16400,"station_id":"ce4bgvp2rcd13ifvqcu0","pricing_plan_id":"cebpf4jnsgd1na2vs0mg"},{"bike_id":"71393e18-ba85-43da-a8ec-ae29de2cd99e","system_id":"levelo_inurba_marseille","lat":43.33027,"lon":5.39039,"is_reserved":false,"is_disabled":false,"rental_uris":{"android":"levelo://app?vid=71393e18-ba85-43da-a8ec-ae29de2cd99e","ios":"levelo://app?vid=71393e18-ba85-43da-a8ec-ae29de2cd99e"},"vehicle_type_id":"4","last_reported":1726344632,"current_range_meters":32400,"station_id":"ce4bhr92rcd13ifvqhrg","pricing_plan_id":"cebpf4jnsgd1na2vs0mg"},{"bike_id":"c735329f-6e96-469b-818d-b27f7bd55987","system_id":"levelo_inurba_marseille","lat":43.25083,"lon":5.39527,"is_reserved":false,"is_disabled":false,"rental_uris":{"android":"levelo://app?vid=c735329f-6e96-469b-818d-b27f7bd55987","ios":"levelo://app?vid=c735329f-6e96-469b-818d-b27f7bd55987"},"vehicle_type_id":"4","last_reported":1726344632,"current_range_meters":24400,"station_id":"ce4bhm12rcd13ifvqgkg","pricing_plan_id":"cebpf4jnsgd1na2vs0mg"},{"bike_id":"4233f55f-2616-4d68-966d-f7f4605d39e5","system_id":"levelo_inurba_marseille","lat":43.2467,"lon":5.38164,"is_reserved":false,"is_disabled":false,"rental_uris":{"android":"levelo://app?vid=4233f55f-2616-4d68-966d-f7f4605d39e5","ios":"levelo://app?vid=4233f55f-2616-4d68-966d-f7f4605d39e5"},"vehicle_type_id":"4","last_reported":1726344632,"current_range_meters":5600,"station_id":"ce4bhih2rcd13ifvqfr0","pricing_plan_id":"cebpf4jnsgd1na2vs0mg"},{"bike_id":"b645ac77-0d58-4fa9-8ad3-947af8bdb1d9","system_id":"levelo_inurba_marseille","lat":43.29897,"lon":5.43674,"is_reserved":false,"is_disabled":false,"rental_uris":{"android":"levelo://app?vid=b645ac77-0d58-4fa9-8ad3-947af8bdb1d9","ios":"levelo://app?vid=b645ac77-0d58-4fa9-8ad3-947af8bdb1d9"},"vehicle_type_id":"4","last_reported":1726344632,"current_range_meters":36800,"station_id":"ce4bhpp2rcd13ifvqhfg","pricing_plan_id":"cebpf4jnsgd1na2vs0mg"},{"bike_id":"a5678295-0458-4f6d-9ccb-6897bde67101","system_id":"levelo_inurba_marseille","lat":43.24155,"lon":5.36407,"is_reserved":false,"is_disabled":false,"rental_uris":{"android":"levelo://app?vid=a5678295-0458-4f6d-9ccb-6897bde67101","ios":"levelo://app?vid=a5678295-0458-4f6d-9ccb-6897bde67101"},"vehicle_type_id":"4","last_reported":1726344632,"current_range_meters":38000,"station_id":"cpo36qri1sfpv3e86is0","pricing_plan_id":"cebpf4jnsgd1na2vs0mg"},{"bike_id":"91d155a1-0e95-42f4-9cf2-24e586735a13","system_id":"levelo_inurba_marseille","lat":43.33727,"lon":5.39185,"is_reserved":false,"is_disabled":false,"rental_uris":{"android":"levelo://app?vid=91d155a1-0e95-42f4-9cf2-24e586735a13","ios":"levelo://app?vid=91d155a1-0e95-42f4-9cf2-24e586735a13"},"vehicle_type_id":"4","last_reported":1726344632,"current_range_meters":39200,"station_id":"ce4bhr92rcd13ifvqhsg","pricing_plan_id":"cebpf4jnsgd1na2vs0mg"},{"bike_id":"5cbfba17-7966-47bc-bd57-385605875a81","system_id":"levelo_inurba_marseille","lat":43.24809,"lon":5.37463,"is_reserved":false,"is_disabled":false,"rental_uris":{"android":"levelo://app?vid=5cbfba17-7966-47bc-bd57-385605875a81","ios":"levelo://app?vid=5cbfba17-7966-47bc-bd57-385605875a81"},"vehicle_type_id":"4","last_reported":1726344632,"current_range_meters":38800,"station_id":"ce4bhgh2rcd13ifvqfb0","pricing_plan_id":"cebpf4jnsgd1na2vs0mg"},{"bike_id":"c11f97d6-87cf-4460-8a76-9af979a978f6","system_id":"levelo_inurba_marseille","lat":43.30908,"lon":5.36855,"is_reserved":false,"is_disabled":false,"rental_uris":{"android":"levelo://app?vid=c11f97d6-87cf-4460-8a76-9af979a978f6","ios":"levelo://app?vid=c11f97d6-87cf-4460-8a76-9af979a978f6"},"vehicle_type_id":"4","last_reported":1726344632,"current_range_meters":12400,"station_id":"ce4bgn92rcd13ifvqbvg","pricing_plan_id":"cebpf4jnsgd1na2vs0mg"},{"bike_id":"4123515d-635a-4a62-9f56-c2589ef20496","system_id":"levelo_inurba_marseille","lat":43.29894,"lon":5.43669,"is_reserved":false,"is_disabled":false,"rental_uris":{"android":"levelo://app?vid=4123515d-635a-4a62-9f56-c2589ef20496","ios":"levelo://app?vid=4123515d-635a-4a62-9f56-c2589ef20496"},"vehicle_type_id":"4","last_reported":1726344632,"current_range_meters":39200,"station_id":"ce4bhpp2rcd13ifvqhfg","pricing_plan_id":"cebpf4jnsgd1na2vs0mg"},{"bike_id":"680b296f-8a9e-4ce9-90dd-5edf4faa61c1","system_id":"levelo_inurba_marseille","lat":43.31761,"lon":5.39025,"is_reserved":false,"is_disabled":false,"rental_uris":{"android":"levelo://app?vid=680b296f-8a9e-4ce9-90dd-5edf4faa61c1","ios":"levelo://app?vid=680b296f-8a9e-4ce9-90dd-5edf4faa61c1"},"vehicle_type_id":"4","last_reported":1726344632,"current_range_meters":38800,"station_id":"ce4bhqp2rcd13ifvqhng","pricing_plan_id":"cebpf4jnsgd1na2vs0mg"},{"bike_id":"bbd2450a-84a7-42e1-bc94-af6bf7be8eb5","system_id":"levelo_inurba_marseille","lat":43.33023,"lon":5.3906,"is_reserved":false,"is_disabled":false,"rental_uris":{"android":"levelo://app?vid=bbd2450a-84a7-42e1-bc94-af6bf7be8eb5","ios":"levelo://app?vid=bbd2450a-84a7-42e1-bc94-af6bf7be8eb5"},"vehicle_type_id":"4","last_reported":1726344632,"current_range_meters":36800,"station_id":"ce4bhr92rcd13ifvqhrg","pricing_plan_id":"cebpf4jnsgd1na2vs0mg"},{"bike_id":"e8a9a88f-e3dd-4130-8491-dcbfd4fb4893","system_id":"levelo_inurba_marseille","lat":43.33724,"lon":5.39185,"is_reserved":false,"is_disabled":false,"rental_uris":{"android":"levelo://app?vid=e8a9a88f-e3dd-4130-8491-dcbfd4fb4893","ios":"levelo://app?vid=e8a9a88f-e3dd-4130-8491-dcbfd4fb4893"},"vehicle_type_id":"4","last_reported":1726344632,"current_range_meters":38800,"station_id":"ce4bhr92rcd13ifvqhsg","pricing_plan_id":"cebpf4jnsgd1na2vs0mg"},{"bike_id":"46fa0628-63da-403c-a9e3-76cf9989cf96","system_id":"levelo_inurba_marseille","lat":43.31328,"lon":5.3969,"is_reserved":false,"is_disabled":false,"rental_uris":{"android":"levelo://app?vid=46fa0628-63da-403c-a9e3-76cf9989cf96","ios":"levelo://app?vid=46fa0628-63da-403c-a9e3-76cf9989cf96"},"vehicle_type_id":"4","last_reported":1726344632,"current_range_meters":35600,"station_id":"ce4bgvp2rcd13ifvqcu0","pricing_plan_id":"cebpf4jnsgd1na2vs0mg"},{"bike_id":"f75baf92-fbf3-4af7-9093-746d70401ea6","system_id":"levelo_inurba_marseille","lat":43.24548,"lon":5.39524,"is_reserved":false,"is_disabled":false,"rental_uris":{"android":"levelo://app?vid=f75baf92-fbf3-4af7-9093-746d70401ea6","ios":"levelo://app?vid=f75baf92-fbf3-4af7-9093-746d70401ea6"},"vehicle_type_id":"4","last_reported":1726344632,"current_range_meters":28400,"station_id":"ce4bhlp2rcd13ifvqgjg","pricing_plan_id":"cebpf4jnsgd1na2vs0mg"},{"bike_id":"ac2f8b18-c4e8-4836-947b-b533a20a9549","system_id":"levelo_inurba_marseille","lat":43.2903,"lon":5.3591,"is_reserved":false,"is_disabled":false,"rental_uris":{"android":"levelo://app?vid=ac2f8b18-c4e8-4836-947b-b533a20a9549","ios":"levelo://app?vid=ac2f8b18-c4e8-4836-947b-b533a20a9549"},"vehicle_type_id":"4","last_reported":1726344632,"current_range_meters":16400,"station_id":"ce4bha92rcd13ifvqeg0","pricing_plan_id":"cebpf4jnsgd1na2vs0mg"},{"bike_id":"552ccea4-a0ab-4fa2-9015-1ea8da64cd61","system_id":"levelo_inurba_marseille","lat":43.2557,"lon":5.38231,"is_reserved":false,"is_disabled":false,"rental_uris":{"android":"levelo://app?vid=552ccea4-a0ab-4fa2-9015-1ea8da64cd61","ios":"levelo://app?vid=552ccea4-a0ab-4fa2-9015-1ea8da64cd61"},"vehicle_type_id":"4","last_reported":1726344632,"current_range_meters":5600,"station_id":"ce4bhih2rcd13ifvqfs0","pricing_plan_id":"cebpf4jnsgd1na2vs0mg"},{"bike_id":"462d8d65-aff8-460b-a7c0-155fba5b151d","system_id":"levelo_inurba_marseille","lat":43.29506,"lon":5.39411,"is_reserved":false,"is_disabled":false,"rental_uris":{"android":"levelo://app?vid=462d8d65-aff8-460b-a7c0-155fba5b151d","ios":"levelo://app?vid=462d8d65-aff8-460b-a7c0-155fba5b151d"},"vehicle_type_id":"4","last_reported":1726344632,"current_range_meters":25200,"station_id":"ce4bh292rcd13ifvqdf0","pricing_plan_id":"cebpf4jnsgd1na2vs0mg"},{"bike_id":"fcafe588-e066-4363-a334-b72ceae44603","system_id":"levelo_inurba_marseille","lat":43.31709,"lon":5.43704,"is_reserved":false,"is_disabled":false,"rental_uris":{"android":"levelo://app?vid=fcafe588-e066-4363-a334-b72ceae44603","ios":"levelo://app?vid=fcafe588-e066-4363-a334-b72ceae44603"},"vehicle_type_id":"4","last_reported":1726344632,"current_range_meters":38800,"station_id":"ce4bhp92rcd13ifvqhcg","pricing_plan_id":"cebpf4jnsgd1na2vs0mg"},{"bike_id":"84a8a0a5-ea13-47c5-bd4d-0bb60cf75cb5","system_id":"levelo_inurba_marseille","lat":43.24667,"lon":5.38166,"is_reserved":false,"is_disabled":false,"rental_uris":{"android":"levelo://app?vid=84a8a0a5-ea13-47c5-bd4d-0bb60cf75cb5","ios":"levelo://app?vid=84a8a0a5-ea13-47c5-bd4d-0bb60cf75cb5"},"vehicle_type_id":"4","last_reported":1726344632,"current_range_meters":38800,"station_id":"ce4bhih2rcd13ifvqfr0","pricing_plan_id":"cebpf4jnsgd1na2vs0mg"},{"bike_id":"b766668a-80ea-425a-b855-cf43fb38183f","system_id":"levelo_inurba_marseille","lat":43.26484,"lon":5.39581,"is_reserved":false,"is_disabled":false,"rental_uris":{"android":"levelo://app?vid=b766668a-80ea-425a-b855-cf43fb38183f","ios":"levelo://app?vid=b766668a-80ea-425a-b855-cf43fb38183f"},"vehicle_type_id":"4","last_reported":1726344632,"current_range_meters":38800,"station_id":"ce4bhi12rcd13ifvqfq0","pricing_plan_id":"cebpf4jnsgd1na2vs0mg"},{"bike_id":"7251d55d-befd-400d-90d9-ab0b68ba8caa","system_id":"levelo_inurba_marseille","lat":43.24811,"lon":5.37455,"is_reserved":false,"is_disabled":false,"rental_uris":{"android":"levelo://app?vid=7251d55d-befd-400d-90d9-ab0b68ba8caa","ios":"levelo://app?vid=7251d55d-befd-400d-90d9-ab0b68ba8caa"},"vehicle_type_id":"4","last_reported":1726344632,"current_range_meters":36800,"station_id":"ce4bhgh2rcd13ifvqfb0","pricing_plan_id":"cebpf4jnsgd1na2vs0mg"},{"bike_id":"53a2d874-293d-47cc-bdbd-a03b3468623b","system_id":"levelo_inurba_marseille","lat":43.29898,"lon":5.43689,"is_reserved":false,"is_disabled":false,"rental_uris":{"android":"levelo://app?vid=53a2d874-293d-47cc-bdbd-a03b3468623b","ios":"levelo://app?vid=53a2d874-293d-47cc-bdbd-a03b3468623b"},"vehicle_type_id":"4","last_reported":1726344632,"current_range_meters":8400,"station_id":"ce4bhpp2rcd13ifvqhfg","pricing_plan_id":"cebpf4jnsgd1na2vs0mg"},{"bike_id":"667f841a-38bd-416e-aa2b-3d465ae68086","system_id":"levelo_inurba_marseille","lat":43.31354,"lon":5.36707,"is_reserved":false,"is_disabled":false,"rental_uris":{"android":"levelo://app?vid=667f841a-38bd-416e-aa2b-3d465ae68086","ios":"levelo://app?vid=667f841a-38bd-416e-aa2b-3d465ae68086"},"vehicle_type_id":"4","last_reported":1726344632,"current_range_meters":10000,"station_id":"ce4bgr92rcd13ifvqc6g","pricing_plan_id":"cebpf4jnsgd1na2vs0mg"},{"bike_id":"6e81f36c-4947-4ae8-9d23-b54ff4136aad","system_id":"levelo_inurba_marseille","lat":43.28258,"lon":5.35072,"is_reserved":false,"is_disabled":false,"rental_uris":{"android":"levelo://app?vid=6e81f36c-4947-4ae8-9d23-b54ff4136aad","ios":"levelo://app?vid=6e81f36c-4947-4ae8-9d23-b54ff4136aad"},"vehicle_type_id":"4","last_reported":1726344632,"current_range_meters":17600,"station_id":"ce4bhbp2rcd13ifvqerg","pricing_plan_id":"cebpf4jnsgd1na2vs0mg"},{"bike_id":"bb7acf50-b6bc-4b2d-adf4-833abc23b24c","system_id":"levelo_inurba_marseille","lat":43.23195,"lon":5.35546,"is_reserved":false,"is_disabled":false,"rental_uris":{"android":"levelo://app?vid=bb7acf50-b6bc-4b2d-adf4-833abc23b24c","ios":"levelo://app?vid=bb7acf50-b6bc-4b2d-adf4-833abc23b24c"},"vehicle_type_id":"4","last_reported":1726344632,"current_range_meters":39200,"station_id":"ce4bhu92rcd13ifvqi70","pricing_plan_id":"cebpf4jnsgd1na2vs0mg"},{"bike_id":"19628bd1-9172-46c3-bfa1-37d603408e00","system_id":"levelo_inurba_marseille","lat":43.31347,"lon":5.3972,"is_reserved":false,"is_disabled":false,"rental_uris":{"android":"levelo://app?vid=19628bd1-9172-46c3-bfa1-37d603408e00","ios":"levelo://app?vid=19628bd1-9172-46c3-bfa1-37d603408e00"},"vehicle_type_id":"4","last_reported":1726344632,"current_range_meters":37600,"station_id":"ce4bgvp2rcd13ifvqcu0","pricing_plan_id":"cebpf4jnsgd1na2vs0mg"},{"bike_id":"f6de5503-3f64-4c45-a987-7e74ca5c7044","system_id":"levelo_inurba_marseille","lat":43.24169,"lon":5.36399,"is_reserved":false,"is_disabled":false,"rental_uris":{"android":"levelo://app?vid=f6de5503-3f64-4c45-a987-7e74ca5c7044","ios":"levelo://app?vid=f6de5503-3f64-4c45-a987-7e74ca5c7044"},"vehicle_type_id":"4","last_reported":1726344632,"current_range_meters":28800,"station_id":"cpo36qri1sfpv3e86is0","pricing_plan_id":"cebpf4jnsgd1na2vs0mg"},{"bike_id":"1f02a4f4-9d46-4bb6-84c4-08fc51ec0cfb","system_id":"levelo_inurba_marseille","lat":43.27374,"lon":5.41942,"is_reserved":false,"is_disabled":false,"rental_uris":{"android":"levelo://app?vid=1f02a4f4-9d46-4bb6-84c4-08fc51ec0cfb","ios":"levelo://app?vid=1f02a4f4-9d46-4bb6-84c4-08fc51ec0cfb"},"vehicle_type_id":"4","last_reported":1726344632,"current_range_meters":29600,"station_id":"","pricing_plan_id":"cebpf4jnsgd1na2vs0mg"},{"bike_id":"f00b091b-b012-4e3f-a8bc-07d146078a6f","system_id":"levelo_inurba_marseille","lat":43.295298,"lon":5.385436,"is_reserved":false,"is_disabled":false,"rental_uris":{"android":"levelo://app?vid=f00b091b-b012-4e3f-a8bc-07d146078a6f","ios":"levelo://app?vid=f00b091b-b012-4e3f-a8bc-07d146078a6f"},"vehicle_type_id":"4","last_reported":1726344632,"current_range_meters":7200,"station_id":"ce4bgih2rcd13ifvqba0","pricing_plan_id":"cebpf4jnsgd1na2vs0mg"},{"bike_id":"b6adc99e-9f1e-4bfa-b193-a3d5fb333c49","system_id":"levelo_inurba_marseille","lat":43.300599,"lon":5.386612,"is_reserved":false,"is_disabled":false,"rental_uris":{"android":"levelo://app?vid=b6adc99e-9f1e-4bfa-b193-a3d5fb333c49","ios":"levelo://app?vid=b6adc99e-9f1e-4bfa-b193-a3d5fb333c49"},"vehicle_type_id":"4","last_reported":1726344632,"current_range_meters":24000,"station_id":"","pricing_plan_id":"cebpf4jnsgd1na2vs0mg"},{"bike_id":"3127f0ce-dfd6-4af4-ae6a-b52ad0f138e5","system_id":"levelo_inurba_marseille","lat":43.32479,"lon":5.36581,"is_reserved":false,"is_disabled":false,"rental_uris":{"android":"levelo://app?vid=3127f0ce-dfd6-4af4-ae6a-b52ad0f138e5","ios":"levelo://app?vid=3127f0ce-dfd6-4af4-ae6a-b52ad0f138e5"},"vehicle_type_id":"4","last_reported":1726344632,"current_range_meters":8000,"station_id":"ce4bhs12rcd13ifvqhvg","pricing_plan_id":"cebpf4jnsgd1na2vs0mg"},{"bike_id":"f7c9731b-1b41-4fa8-83aa-686419453b3a","system_id":"levelo_inurba_marseille","lat":43.31716,"lon":5.42401,"is_reserved":false,"is_disabled":false,"rental_uris":{"android":"levelo://app?vid=f7c9731b-1b41-4fa8-83aa-686419453b3a","ios":"levelo://app?vid=f7c9731b-1b41-4fa8-83aa-686419453b3a"},"vehicle_type_id":"4","last_reported":1726344632,"current_range_meters":20400,"station_id":"ce4bhp92rcd13ifvqhbg","pricing_plan_id":"cebpf4jnsgd1na2vs0mg"},{"bike_id":"a123cff2-5943-4b60-947d-1875baf68db5","system_id":"levelo_inurba_marseille","lat":43.30788,"lon":5.37655,"is_reserved":false,"is_disabled":false,"rental_uris":{"android":"levelo://app?vid=a123cff2-5943-4b60-947d-1875baf68db5","ios":"levelo://app?vid=a123cff2-5943-4b60-947d-1875baf68db5"},"vehicle_type_id":"4","last_reported":1726344632,"current_range_meters":26000,"station_id":"ce4bgv92rcd13ifvqcq0","pricing_plan_id":"cebpf4jnsgd1na2vs0mg"},{"bike_id":"d530c2df-3a9f-4acb-8845-daeae55a79f5","system_id":"levelo_inurba_marseille","lat":43.31218,"lon":5.36858,"is_reserved":false,"is_disabled":false,"rental_uris":{"android":"levelo://app?vid=d530c2df-3a9f-4acb-8845-daeae55a79f5","ios":"levelo://app?vid=d530c2df-3a9f-4acb-8845-daeae55a79f5"},"vehicle_type_id":"4","last_reported":1726344632,"current_range_meters":38000,"station_id":"ce4bgjh2rcd13ifvqbg0","pricing_plan_id":"cebpf4jnsgd1na2vs0mg"},{"bike_id":"4543e729-9a10-484c-8191-f2d4ae841165","system_id":"levelo_inurba_marseille","lat":43.31061,"lon":5.3836,"is_reserved":false,"is_disabled":false,"rental_uris":{"android":"levelo://app?vid=4543e729-9a10-484c-8191-f2d4ae841165","ios":"levelo://app?vid=4543e729-9a10-484c-8191-f2d4ae841165"},"vehicle_type_id":"4","last_reported":1726344632,"current_range_meters":38800,"station_id":"ce4bgv92rcd13ifvqcr0","pricing_plan_id":"cebpf4jnsgd1na2vs0mg"},{"bike_id":"bb046787-1b6f-4a52-9f6c-67f38be48f9e","system_id":"levelo_inurba_marseille","lat":43.24539,"lon":5.39532,"is_reserved":false,"is_disabled":false,"rental_uris":{"android":"levelo://app?vid=bb046787-1b6f-4a52-9f6c-67f38be48f9e","ios":"levelo://app?vid=bb046787-1b6f-4a52-9f6c-67f38be48f9e"},"vehicle_type_id":"4","last_reported":1726344632,"current_range_meters":35200,"station_id":"ce4bhlp2rcd13ifvqgjg","pricing_plan_id":"cebpf4jnsgd1na2vs0mg"},{"bike_id":"bddce168-0288-4f10-aecd-92bf894b9093","system_id":"levelo_inurba_marseille","lat":43.29536,"lon":5.37497,"is_reserved":false,"is_disabled":false,"rental_uris":{"android":"levelo://app?vid=bddce168-0288-4f10-aecd-92bf894b9093","ios":"levelo://app?vid=bddce168-0288-4f10-aecd-92bf894b9093"},"vehicle_type_id":"4","last_reported":1726344632,"current_range_meters":38800,"station_id":"ce4bgkp2rcd13ifvqbmg","pricing_plan_id":"cebpf4jnsgd1na2vs0mg"},{"bike_id":"6f968549-270e-49ad-b513-dd06f23ca30e","system_id":"levelo_inurba_marseille","lat":43.30127,"lon":5.398668,"is_reserved":false,"is_disabled":false,"rental_uris":{"android":"levelo://app?vid=6f968549-270e-49ad-b513-dd06f23ca30e","ios":"levelo://app?vid=6f968549-270e-49ad-b513-dd06f23ca30e"},"vehicle_type_id":"4","last_reported":1726344632,"current_range_meters":34000,"station_id":"ce4bgv12rcd13ifvqcp0","pricing_plan_id":"cebpf4jnsgd1na2vs0mg"},{"bike_id":"039ce410-42f1-4738-9d5d-dac6ac995dec","system_id":"levelo_inurba_marseille","lat":43.25885,"lon":5.398806,"is_reserved":false,"is_disabled":false,"rental_uris":{"android":"levelo://app?vid=039ce410-42f1-4738-9d5d-dac6ac995dec","ios":"levelo://app?vid=039ce410-42f1-4738-9d5d-dac6ac995dec"},"vehicle_type_id":"4","last_reported":1726344632,"current_range_meters":19200,"station_id":"","pricing_plan_id":"cebpf4jnsgd1na2vs0mg"},{"bike_id":"8dd06a73-5f0d-4933-9b73-bf594c5872ac","system_id":"levelo_inurba_marseille","lat":43.29363,"lon":5.37855,"is_reserved":false,"is_disabled":false,"rental_uris":{"android":"levelo://app?vid=8dd06a73-5f0d-4933-9b73-bf594c5872ac","ios":"levelo://app?vid=8dd06a73-5f0d-4933-9b73-bf594c5872ac"},"vehicle_type_id":"4","last_reported":1726344632,"current_range_meters":7200,"station_id":"ce4bgjh2rcd13ifvqbf0","pricing_plan_id":"cebpf4jnsgd1na2vs0mg"},{"bike_id":"b0e922a4-0c0c-4916-8d83-f96b9eb184a9","system_id":"levelo_inurba_marseille","lat":43.2942,"lon":5.38636,"is_reserved":false,"is_disabled":false,"rental_uris":{"android":"levelo://app?vid=b0e922a4-0c0c-4916-8d83-f96b9eb184a9","ios":"levelo://app?vid=b0e922a4-0c0c-4916-8d83-f96b9eb184a9"},"vehicle_type_id":"4","last_reported":1726344632,"current_range_meters":19600,"station_id":"ce4bh2h2rcd13ifvqdh0","pricing_plan_id":"cebpf4jnsgd1na2vs0mg"},{"bike_id":"5e0b25a4-5458-460c-960f-e5c84d2977b7","system_id":"levelo_inurba_marseille","lat":43.29514,"lon":5.39408,"is_reserved":false,"is_disabled":false,"rental_uris":{"android":"levelo://app?vid=5e0b25a4-5458-460c-960f-e5c84d2977b7","ios":"levelo://app?vid=5e0b25a4-5458-460c-960f-e5c84d2977b7"},"vehicle_type_id":"4","last_reported":1726344632,"current_range_meters":400,"station_id":"ce4bh292rcd13ifvqdf0","pricing_plan_id":"cebpf4jnsgd1na2vs0mg"},{"bike_id":"d8346437-a8a5-4c60-bf2d-f16983de1f17","system_id":"levelo_inurba_marseille","lat":43.2803,"lon":5.36935,"is_reserved":false,"is_disabled":false,"rental_uris":{"android":"levelo://app?vid=d8346437-a8a5-4c60-bf2d-f16983de1f17","ios":"levelo://app?vid=d8346437-a8a5-4c60-bf2d-f16983de1f17"},"vehicle_type_id":"4","last_reported":1726344632,"current_range_meters":36400,"station_id":"ce4bha12rcd13ifvqef0","pricing_plan_id":"cebpf4jnsgd1na2vs0mg"},{"bike_id":"026a8105-a313-4bd8-96fb-a8d6d1b140a9","system_id":"levelo_inurba_marseille","lat":43.23196,"lon":5.35552,"is_reserved":false,"is_disabled":false,"rental_uris":{"android":"levelo://app?vid=026a8105-a313-4bd8-96fb-a8d6d1b140a9","ios":"levelo://app?vid=026a8105-a313-4bd8-96fb-a8d6d1b140a9"},"vehicle_type_id":"4","last_reported":1726344632,"current_range_meters":36800,"station_id":"ce4bhu92rcd13ifvqi70","pricing_plan_id":"cebpf4jnsgd1na2vs0mg"},{"bike_id":"97407784-fe59-416c-8ff8-cd8c1604b0fa","system_id":"levelo_inurba_marseille","lat":43.24675,"lon":5.3817,"is_reserved":false,"is_disabled":false,"rental_uris":{"android":"levelo://app?vid=97407784-fe59-416c-8ff8-cd8c1604b0fa","ios":"levelo://app?vid=97407784-fe59-416c-8ff8-cd8c1604b0fa"},"vehicle_type_id":"4","last_reported":1726344632,"current_range_meters":11200,"station_id":"ce4bhih2rcd13ifvqfr0","pricing_plan_id":"cebpf4jnsgd1na2vs0mg"},{"bike_id":"832b8ff1-0765-4b4e-96d6-665b916f6416","system_id":"levelo_inurba_marseille","lat":43.28411,"lon":5.37522,"is_reserved":false,"is_disabled":false,"rental_uris":{"android":"levelo://app?vid=832b8ff1-0765-4b4e-96d6-665b916f6416","ios":"levelo://app?vid=832b8ff1-0765-4b4e-96d6-665b916f6416"},"vehicle_type_id":"4","last_reported":1726344632,"current_range_meters":35200,"station_id":"ce4bh412rcd13ifvqds0","pricing_plan_id":"cebpf4jnsgd1na2vs0mg"},{"bike_id":"3358c17c-0f17-43e9-9200-7c5a4daf67aa","system_id":"levelo_inurba_marseille","lat":43.308938,"lon":5.396617,"is_reserved":false,"is_disabled":false,"rental_uris":{"android":"levelo://app?vid=3358c17c-0f17-43e9-9200-7c5a4daf67aa","ios":"levelo://app?vid=3358c17c-0f17-43e9-9200-7c5a4daf67aa"},"vehicle_type_id":"4","last_reported":1726344632,"current_range_meters":16400,"station_id":"ce4bh012rcd13ifvqcv0","pricing_plan_id":"cebpf4jnsgd1na2vs0mg"},{"bike_id":"ccc81115-c769-40cb-a420-a414e3f0cc3b","system_id":"levelo_inurba_marseille","lat":43.24394,"lon":5.37066,"is_reserved":false,"is_disabled":false,"rental_uris":{"android":"levelo://app?vid=ccc81115-c769-40cb-a420-a414e3f0cc3b","ios":"levelo://app?vid=ccc81115-c769-40cb-a420-a414e3f0cc3b"},"vehicle_type_id":"4","last_reported":1726344632,"current_range_meters":38800,"station_id":"ce4bhhh2rcd13ifvqfk0","pricing_plan_id":"cebpf4jnsgd1na2vs0mg"},{"bike_id":"f70b5c68-909b-4b3d-a2b3-5256dc464c2e","system_id":"levelo_inurba_marseille","lat":43.2842,"lon":5.37525,"is_reserved":false,"is_disabled":false,"rental_uris":{"android":"levelo://app?vid=f70b5c68-909b-4b3d-a2b3-5256dc464c2e","ios":"levelo://app?vid=f70b5c68-909b-4b3d-a2b3-5256dc464c2e"},"vehicle_type_id":"4","last_reported":1726344632,"current_range_meters":7200,"station_id":"ce4bh412rcd13ifvqds0","pricing_plan_id":"cebpf4jnsgd1na2vs0mg"},{"bike_id":"8aaf6279-8544-4322-9c3c-8686576b4965","system_id":"levelo_inurba_marseille","lat":43.282928,"lon":5.385263,"is_reserved":false,"is_disabled":false,"rental_uris":{"android":"levelo://app?vid=8aaf6279-8544-4322-9c3c-8686576b4965","ios":"levelo://app?vid=8aaf6279-8544-4322-9c3c-8686576b4965"},"vehicle_type_id":"4","last_reported":1726344632,"current_range_meters":10000,"station_id":"","pricing_plan_id":"cebpf4jnsgd1na2vs0mg"},{"bike_id":"a3ebd2f8-e29a-486b-ab08-023d7d294869","system_id":"levelo_inurba_marseille","lat":43.291199,"lon":5.369379,"is_reserved":false,"is_disabled":false,"rental_uris":{"android":"levelo://app?vid=a3ebd2f8-e29a-486b-ab08-023d7d294869","ios":"levelo://app?vid=a3ebd2f8-e29a-486b-ab08-023d7d294869"},"vehicle_type_id":"4","last_reported":1726344632,"current_range_meters":18000,"station_id":"ce4bha12rcd13ifvqef0","pricing_plan_id":"cebpf4jnsgd1na2vs0mg"},{"bike_id":"be63ca06-e556-41d9-aaca-5c677a39360e","system_id":"levelo_inurba_marseille","lat":43.29531,"lon":5.38548,"is_reserved":false,"is_disabled":false,"rental_uris":{"android":"levelo://app?vid=be63ca06-e556-41d9-aaca-5c677a39360e","ios":"levelo://app?vid=be63ca06-e556-41d9-aaca-5c677a39360e"},"vehicle_type_id":"4","last_reported":1726344632,"current_range_meters":39200,"station_id":"ce4bgih2rcd13ifvqba0","pricing_plan_id":"cebpf4jnsgd1na2vs0mg"},{"bike_id":"d64ff330-9d4c-4f23-b4ee-184a7750b243","system_id":"levelo_inurba_marseille","lat":43.25498,"lon":5.37654,"is_reserved":false,"is_disabled":false,"rental_uris":{"android":"levelo://app?vid=d64ff330-9d4c-4f23-b4ee-184a7750b243","ios":"levelo://app?vid=d64ff330-9d4c-4f23-b4ee-184a7750b243"},"vehicle_type_id":"4","last_reported":1726344632,"current_range_meters":34000,"station_id":"ce4bhh12rcd13ifvqff0","pricing_plan_id":"cebpf4jnsgd1na2vs0mg"},{"bike_id":"d725d647-419f-4111-85f3-247c95251475","system_id":"levelo_inurba_marseille","lat":43.25722,"lon":5.41115,"is_reserved":false,"is_disabled":false,"rental_uris":{"android":"levelo://app?vid=d725d647-419f-4111-85f3-247c95251475","ios":"levelo://app?vid=d725d647-419f-4111-85f3-247c95251475"},"vehicle_type_id":"4","last_reported":1726344632,"current_range_meters":28000,"station_id":"ce4bhkp2rcd13ifvqgd0","pricing_plan_id":"cebpf4jnsgd1na2vs0mg"},{"bike_id":"6d2f1fdf-ef85-4dbc-b421-2602e9d32ca8","system_id":"levelo_inurba_marseille","lat":43.25931,"lon":5.40911,"is_reserved":false,"is_disabled":false,"rental_uris":{"android":"levelo://app?vid=6d2f1fdf-ef85-4dbc-b421-2602e9d32ca8","ios":"levelo://app?vid=6d2f1fdf-ef85-4dbc-b421-2602e9d32ca8"},"vehicle_type_id":"4","last_reported":1726344632,"current_range_meters":24400,"station_id":"ce4bhm92rcd13ifvqglg","pricing_plan_id":"cebpf4jnsgd1na2vs0mg"},{"bike_id":"d09aedb3-0212-456b-a0d7-0a019f75665d","system_id":"levelo_inurba_marseille","lat":43.23153,"lon":5.43707,"is_reserved":false,"is_disabled":false,"rental_uris":{"android":"levelo://app?vid=d09aedb3-0212-456b-a0d7-0a019f75665d","ios":"levelo://app?vid=d09aedb3-0212-456b-a0d7-0a019f75665d"},"vehicle_type_id":"4","last_reported":1726344632,"current_range_meters":38800,"station_id":"ce4bhmp2rcd13ifvqgog","pricing_plan_id":"cebpf4jnsgd1na2vs0mg"},{"bike_id":"8662e6bb-6591-4938-9c50-d6429d1752d5","system_id":"levelo_inurba_marseille","lat":43.25578,"lon":5.38228,"is_reserved":false,"is_disabled":false,"rental_uris":{"android":"levelo://app?vid=8662e6bb-6591-4938-9c50-d6429d1752d5","ios":"levelo://app?vid=8662e6bb-6591-4938-9c50-d6429d1752d5"},"vehicle_type_id":"4","last_reported":1726344632,"current_range_meters":38800,"station_id":"ce4bhih2rcd13ifvqfs0","pricing_plan_id":"cebpf4jnsgd1na2vs0mg"},{"bike_id":"1f72af41-6b31-488d-b16b-aa9b5b8a842e","system_id":"levelo_inurba_marseille","lat":43.27378,"lon":5.36253,"is_reserved":false,"is_disabled":false,"rental_uris":{"android":"levelo://app?vid=1f72af41-6b31-488d-b16b-aa9b5b8a842e","ios":"levelo://app?vid=1f72af41-6b31-488d-b16b-aa9b5b8a842e"},"vehicle_type_id":"4","last_reported":1726344632,"current_range_meters":21600,"station_id":"ce4bhbh2rcd13ifvqeo0","pricing_plan_id":"cebpf4jnsgd1na2vs0mg"},{"bike_id":"efef0581-7862-46d9-83f9-8f888bf1fcff","system_id":"levelo_inurba_marseille","lat":43.23178,"lon":5.39998,"is_reserved":false,"is_disabled":false,"rental_uris":{"android":"levelo://app?vid=efef0581-7862-46d9-83f9-8f888bf1fcff","ios":"levelo://app?vid=efef0581-7862-46d9-83f9-8f888bf1fcff"},"vehicle_type_id":"4","last_reported":1726344632,"current_range_meters":38800,"station_id":"ce4bhn12rcd13ifvqgqg","pricing_plan_id":"cebpf4jnsgd1na2vs0mg"},{"bike_id":"43412657-8f93-44d7-90fb-da7639962547","system_id":"levelo_inurba_marseille","lat":43.33724,"lon":5.39182,"is_reserved":false,"is_disabled":false,"rental_uris":{"android":"levelo://app?vid=43412657-8f93-44d7-90fb-da7639962547","ios":"levelo://app?vid=43412657-8f93-44d7-90fb-da7639962547"},"vehicle_type_id":"4","last_reported":1726344632,"current_range_meters":24800,"station_id":"ce4bhr92rcd13ifvqhsg","pricing_plan_id":"cebpf4jnsgd1na2vs0mg"},{"bike_id":"2ae59d3f-0d57-4f23-8fbe-6be43ec96b80","system_id":"levelo_inurba_marseille","lat":43.28151,"lon":5.42644,"is_reserved":false,"is_disabled":false,"rental_uris":{"android":"levelo://app?vid=2ae59d3f-0d57-4f23-8fbe-6be43ec96b80","ios":"levelo://app?vid=2ae59d3f-0d57-4f23-8fbe-6be43ec96b80"},"vehicle_type_id":"4","last_reported":1726344632,"current_range_meters":17600,"station_id":"ce4bhnh2rcd13ifvqgug","pricing_plan_id":"cebpf4jnsgd1na2vs0mg"},{"bike_id":"006e14de-c317-44fa-93cf-75cfeb2dad14","system_id":"levelo_inurba_marseille","lat":43.25491,"lon":5.37648,"is_reserved":false,"is_disabled":false,"rental_uris":{"android":"levelo://app?vid=006e14de-c317-44fa-93cf-75cfeb2dad14","ios":"levelo://app?vid=006e14de-c317-44fa-93cf-75cfeb2dad14"},"vehicle_type_id":"4","last_reported":1726344632,"current_range_meters":24400,"station_id":"ce4bhh12rcd13ifvqff0","pricing_plan_id":"cebpf4jnsgd1na2vs0mg"},{"bike_id":"3f32b786-3ad7-44bb-a7cd-61c8396564db","system_id":"levelo_inurba_marseille","lat":43.24546,"lon":5.39527,"is_reserved":false,"is_disabled":false,"rental_uris":{"android":"levelo://app?vid=3f32b786-3ad7-44bb-a7cd-61c8396564db","ios":"levelo://app?vid=3f32b786-3ad7-44bb-a7cd-61c8396564db"},"vehicle_type_id":"4","last_reported":1726344632,"current_range_meters":23200,"station_id":"ce4bhlp2rcd13ifvqgjg","pricing_plan_id":"cebpf4jnsgd1na2vs0mg"},{"bike_id":"35e46e1e-3cad-4d90-bc94-c0cc6e26a963","system_id":"levelo_inurba_marseille","lat":43.31364,"lon":5.36705,"is_reserved":false,"is_disabled":false,"rental_uris":{"android":"levelo://app?vid=35e46e1e-3cad-4d90-bc94-c0cc6e26a963","ios":"levelo://app?vid=35e46e1e-3cad-4d90-bc94-c0cc6e26a963"},"vehicle_type_id":"4","last_reported":1726344632,"current_range_meters":14000,"station_id":"ce4bgr92rcd13ifvqc6g","pricing_plan_id":"cebpf4jnsgd1na2vs0mg"},{"bike_id":"61e00977-be43-400f-99ea-3c33330f7657","system_id":"levelo_inurba_marseille","lat":43.25008,"lon":5.38915,"is_reserved":false,"is_disabled":false,"rental_uris":{"android":"levelo://app?vid=61e00977-be43-400f-99ea-3c33330f7657","ios":"levelo://app?vid=61e00977-be43-400f-99ea-3c33330f7657"},"vehicle_type_id":"4","last_reported":1726344632,"current_range_meters":17600,"station_id":"ce4bhgp2rcd13ifvqfd0","pricing_plan_id":"cebpf4jnsgd1na2vs0mg"},{"bike_id":"546c5079-8504-40b0-b1a7-08585e30f1ce","system_id":"levelo_inurba_marseille","lat":43.28663,"lon":5.36363,"is_reserved":false,"is_disabled":false,"rental_uris":{"android":"levelo://app?vid=546c5079-8504-40b0-b1a7-08585e30f1ce","ios":"levelo://app?vid=546c5079-8504-40b0-b1a7-08585e30f1ce"},"vehicle_type_id":"4","last_reported":1726344632,"current_range_meters":2800,"station_id":"ce4bhah2rcd13ifvqej0","pricing_plan_id":"cebpf4jnsgd1na2vs0mg"},{"bike_id":"d1f38fcd-be46-4877-a9ac-34b365272c30","system_id":"levelo_inurba_marseille","lat":43.27096,"lon":5.43321,"is_reserved":false,"is_disabled":false,"rental_uris":{"android":"levelo://app?vid=d1f38fcd-be46-4877-a9ac-34b365272c30","ios":"levelo://app?vid=d1f38fcd-be46-4877-a9ac-34b365272c30"},"vehicle_type_id":"4","last_reported":1726344632,"current_range_meters":30800,"station_id":"","pricing_plan_id":"cebpf4jnsgd1na2vs0mg"},{"bike_id":"7ad70407-1feb-4e48-a00e-e72ddfe39a81","system_id":"levelo_inurba_marseille","lat":43.25873,"lon":5.39916,"is_reserved":false,"is_disabled":false,"rental_uris":{"android":"levelo://app?vid=7ad70407-1feb-4e48-a00e-e72ddfe39a81","ios":"levelo://app?vid=7ad70407-1feb-4e48-a00e-e72ddfe39a81"},"vehicle_type_id":"4","last_reported":1726344632,"current_range_meters":38800,"station_id":"ce4bhl92rcd13ifvqghg","pricing_plan_id":"cebpf4jnsgd1na2vs0mg"},{"bike_id":"2c36f173-7fe7-45a3-b0b4-69fddd6ecd2c","system_id":"levelo_inurba_marseille","lat":43.276093,"lon":5.361195,"is_reserved":false,"is_disabled":false,"rental_uris":{"android":"levelo://app?vid=2c36f173-7fe7-45a3-b0b4-69fddd6ecd2c","ios":"levelo://app?vid=2c36f173-7fe7-45a3-b0b4-69fddd6ecd2c"},"vehicle_type_id":"4","last_reported":1726344632,"current_range_meters":25200,"station_id":"","pricing_plan_id":"cebpf4jnsgd1na2vs0mg"},{"bike_id":"d85c45c3-ecaf-433d-9abc-19ae0ad86d99","system_id":"levelo_inurba_marseille","lat":43.288483,"lon":5.393233,"is_reserved":false,"is_disabled":false,"rental_uris":{"android":"levelo://app?vid=d85c45c3-ecaf-433d-9abc-19ae0ad86d99","ios":"levelo://app?vid=d85c45c3-ecaf-433d-9abc-19ae0ad86d99"},"vehicle_type_id":"4","last_reported":1726344632,"current_range_meters":35200,"station_id":"ce4bh4p2rcd13ifvqe0g","pricing_plan_id":"cebpf4jnsgd1na2vs0mg"},{"bike_id":"f9076aec-56e7-4b2e-a7b1-575337aca9d5","system_id":"levelo_inurba_marseille","lat":43.2417,"lon":5.36406,"is_reserved":false,"is_disabled":false,"rental_uris":{"android":"levelo://app?vid=f9076aec-56e7-4b2e-a7b1-575337aca9d5","ios":"levelo://app?vid=f9076aec-56e7-4b2e-a7b1-575337aca9d5"},"vehicle_type_id":"4","last_reported":1726344632,"current_range_meters":32000,"station_id":"cpo36qri1sfpv3e86is0","pricing_plan_id":"cebpf4jnsgd1na2vs0mg"},{"bike_id":"a4f18687-e126-425b-b639-a942cceab9e8","system_id":"levelo_inurba_marseille","lat":43.24655,"lon":5.38892,"is_reserved":false,"is_disabled":false,"rental_uris":{"android":"levelo://app?vid=a4f18687-e126-425b-b639-a942cceab9e8","ios":"levelo://app?vid=a4f18687-e126-425b-b639-a942cceab9e8"},"vehicle_type_id":"4","last_reported":1726344632,"current_range_meters":28800,"station_id":"ce4bhg12rcd13ifvqf60","pricing_plan_id":"cebpf4jnsgd1na2vs0mg"},{"bike_id":"09a2266b-9d5f-4b81-9270-f2c09c7cc0c6","system_id":"levelo_inurba_marseille","lat":43.25489,"lon":5.37649,"is_reserved":false,"is_disabled":false,"rental_uris":{"android":"levelo://app?vid=09a2266b-9d5f-4b81-9270-f2c09c7cc0c6","ios":"levelo://app?vid=09a2266b-9d5f-4b81-9270-f2c09c7cc0c6"},"vehicle_type_id":"4","last_reported":1726344632,"current_range_meters":10000,"station_id":"ce4bhh12rcd13ifvqff0","pricing_plan_id":"cebpf4jnsgd1na2vs0mg"},{"bike_id":"d4dcec5a-b0b6-4319-8584-aaf3103d153c","system_id":"levelo_inurba_marseille","lat":43.29562,"lon":5.42276,"is_reserved":false,"is_disabled":false,"rental_uris":{"android":"levelo://app?vid=d4dcec5a-b0b6-4319-8584-aaf3103d153c","ios":"levelo://app?vid=d4dcec5a-b0b6-4319-8584-aaf3103d153c"},"vehicle_type_id":"4","last_reported":1726344632,"current_range_meters":38800,"station_id":"ce4bhph2rcd13ifvqhdg","pricing_plan_id":"cebpf4jnsgd1na2vs0mg"},{"bike_id":"d59c1c41-4a60-4771-8a42-23bc8e42b7e8","system_id":"levelo_inurba_marseille","lat":43.29252,"lon":5.38451,"is_reserved":false,"is_disabled":false,"rental_uris":{"android":"levelo://app?vid=d59c1c41-4a60-4771-8a42-23bc8e42b7e8","ios":"levelo://app?vid=d59c1c41-4a60-4771-8a42-23bc8e42b7e8"},"vehicle_type_id":"4","last_reported":1726344632,"current_range_meters":40000,"station_id":"ce4bh692rcd13ifvqea0","pricing_plan_id":"cebpf4jnsgd1na2vs0mg"},{"bike_id":"7560168d-c555-4b8e-a518-1c66771c1c72","system_id":"levelo_inurba_marseille","lat":43.24195,"lon":5.39726,"is_reserved":false,"is_disabled":false,"rental_uris":{"android":"levelo://app?vid=7560168d-c555-4b8e-a518-1c66771c1c72","ios":"levelo://app?vid=7560168d-c555-4b8e-a518-1c66771c1c72"},"vehicle_type_id":"4","last_reported":1726344632,"current_range_meters":12800,"station_id":"ce4bhn12rcd13ifvqgpg","pricing_plan_id":"cebpf4jnsgd1na2vs0mg"},{"bike_id":"56772d79-f3b5-446f-9d40-b26ae635d8ee","system_id":"levelo_inurba_marseille","lat":43.27616,"lon":5.36117,"is_reserved":false,"is_disabled":false,"rental_uris":{"android":"levelo://app?vid=56772d79-f3b5-446f-9d40-b26ae635d8ee","ios":"levelo://app?vid=56772d79-f3b5-446f-9d40-b26ae635d8ee"},"vehicle_type_id":"4","last_reported":1726344632,"current_range_meters":38800,"station_id":"ce4bgj92rcd13ifvqbe0","pricing_plan_id":"cebpf4jnsgd1na2vs0mg"},{"bike_id":"fcc1810a-9ff2-41c7-b13e-016a47a053a8","system_id":"levelo_inurba_marseille","lat":43.32338,"lon":5.40627,"is_reserved":false,"is_disabled":false,"rental_uris":{"android":"levelo://app?vid=fcc1810a-9ff2-41c7-b13e-016a47a053a8","ios":"levelo://app?vid=fcc1810a-9ff2-41c7-b13e-016a47a053a8"},"vehicle_type_id":"4","last_reported":1726344632,"current_range_meters":36400,"station_id":"ce4bhq92rcd13ifvqhjg","pricing_plan_id":"cebpf4jnsgd1na2vs0mg"},{"bike_id":"8d4d0d82-34d7-41c8-a2a8-de7ef3b46e81","system_id":"levelo_inurba_marseille","lat":43.29422,"lon":5.38631,"is_reserved":false,"is_disabled":false,"rental_uris":{"android":"levelo://app?vid=8d4d0d82-34d7-41c8-a2a8-de7ef3b46e81","ios":"levelo://app?vid=8d4d0d82-34d7-41c8-a2a8-de7ef3b46e81"},"vehicle_type_id":"4","last_reported":1726344632,"current_range_meters":19200,"station_id":"ce4bh2h2rcd13ifvqdh0","pricing_plan_id":"cebpf4jnsgd1na2vs0mg"},{"bike_id":"4e26d67f-3260-467d-88af-075a11ad36b7","system_id":"levelo_inurba_marseille","lat":43.29963,"lon":5.38482,"is_reserved":false,"is_disabled":false,"rental_uris":{"android":"levelo://app?vid=4e26d67f-3260-467d-88af-075a11ad36b7","ios":"levelo://app?vid=4e26d67f-3260-467d-88af-075a11ad36b7"},"vehicle_type_id":"4","last_reported":1726344632,"current_range_meters":10800,"station_id":"ce4bgj92rcd13ifvqbd0","pricing_plan_id":"cebpf4jnsgd1na2vs0mg"},{"bike_id":"da9832ef-6b03-43af-ab6e-1d373e92a838","system_id":"levelo_inurba_marseille","lat":43.26495,"lon":5.39542,"is_reserved":false,"is_disabled":false,"rental_uris":{"android":"levelo://app?vid=da9832ef-6b03-43af-ab6e-1d373e92a838","ios":"levelo://app?vid=da9832ef-6b03-43af-ab6e-1d373e92a838"},"vehicle_type_id":"4","last_reported":1726344632,"current_range_meters":38800,"station_id":"ce4bhi12rcd13ifvqfq0","pricing_plan_id":"cebpf4jnsgd1na2vs0mg"},{"bike_id":"23c615c9-3f66-43ff-8477-604eb7547257","system_id":"levelo_inurba_marseille","lat":43.30957,"lon":5.39026,"is_reserved":false,"is_disabled":false,"rental_uris":{"android":"levelo://app?vid=23c615c9-3f66-43ff-8477-604eb7547257","ios":"levelo://app?vid=23c615c9-3f66-43ff-8477-604eb7547257"},"vehicle_type_id":"4","last_reported":1726344632,"current_range_meters":28000,"station_id":"ce4bgup2rcd13ifvqco0","pricing_plan_id":"cebpf4jnsgd1na2vs0mg"},{"bike_id":"6cf32697-9302-421d-8ff8-e475fbdc4fa9","system_id":"levelo_inurba_marseille","lat":43.29168,"lon":5.37152,"is_reserved":false,"is_disabled":false,"rental_uris":{"android":"levelo://app?vid=6cf32697-9302-421d-8ff8-e475fbdc4fa9","ios":"levelo://app?vid=6cf32697-9302-421d-8ff8-e475fbdc4fa9"},"vehicle_type_id":"4","last_reported":1726344632,"current_range_meters":11600,"station_id":"ce4bha92rcd13ifvqeh0","pricing_plan_id":"cebpf4jnsgd1na2vs0mg"},{"bike_id":"1be99b67-08df-4de4-a730-a0380878f58c","system_id":"levelo_inurba_marseille","lat":43.32364,"lon":5.38889,"is_reserved":false,"is_disabled":false,"rental_uris":{"android":"levelo://app?vid=1be99b67-08df-4de4-a730-a0380878f58c","ios":"levelo://app?vid=1be99b67-08df-4de4-a730-a0380878f58c"},"vehicle_type_id":"4","last_reported":1726344632,"current_range_meters":38800,"station_id":"ce4bhqp2rcd13ifvqhog","pricing_plan_id":"cebpf4jnsgd1na2vs0mg"},{"bike_id":"e6792098-2095-48c2-9857-5a54526eb842","system_id":"levelo_inurba_marseille","lat":43.30285,"lon":5.37698,"is_reserved":false,"is_disabled":false,"rental_uris":{"android":"levelo://app?vid=e6792098-2095-48c2-9857-5a54526eb842","ios":"levelo://app?vid=e6792098-2095-48c2-9857-5a54526eb842"},"vehicle_type_id":"4","last_reported":1726344632,"current_range_meters":17200,"station_id":"ce4bguh2rcd13ifvqcj0","pricing_plan_id":"cebpf4jnsgd1na2vs0mg"},{"bike_id":"12fd4c1a-19f2-435f-8e8d-aa3391762fe9","system_id":"levelo_inurba_marseille","lat":43.27666,"lon":5.38883,"is_reserved":false,"is_disabled":false,"rental_uris":{"android":"levelo://app?vid=12fd4c1a-19f2-435f-8e8d-aa3391762fe9","ios":"levelo://app?vid=12fd4c1a-19f2-435f-8e8d-aa3391762fe9"},"vehicle_type_id":"4","last_reported":1726344632,"current_range_meters":39200,"station_id":"ce4bhi12rcd13ifvqfo0","pricing_plan_id":"cebpf4jnsgd1na2vs0mg"},{"bike_id":"c7a8369d-2891-4645-9ec9-6e4b9510a9d2","system_id":"levelo_inurba_marseille","lat":43.29306,"lon":5.37452,"is_reserved":false,"is_disabled":false,"rental_uris":{"android":"levelo://app?vid=c7a8369d-2891-4645-9ec9-6e4b9510a9d2","ios":"levelo://app?vid=c7a8369d-2891-4645-9ec9-6e4b9510a9d2"},"vehicle_type_id":"4","last_reported":1726344632,"current_range_meters":8000,"station_id":"ce4bgi12rcd13ifvqb70","pricing_plan_id":"cebpf4jnsgd1na2vs0mg"},{"bike_id":"60997c0d-21af-4a97-9be6-d3d01dff78f1","system_id":"levelo_inurba_marseille","lat":43.25822,"lon":5.39431,"is_reserved":false,"is_disabled":false,"rental_uris":{"android":"levelo://app?vid=60997c0d-21af-4a97-9be6-d3d01dff78f1","ios":"levelo://app?vid=60997c0d-21af-4a97-9be6-d3d01dff78f1"},"vehicle_type_id":"4","last_reported":1726344632,"current_range_meters":19600,"station_id":"ce4bhip2rcd13ifvqft0","pricing_plan_id":"cebpf4jnsgd1na2vs0mg"},{"bike_id":"abbc6a4d-e8de-4798-b51b-bf26b4f4d5c4","system_id":"levelo_inurba_marseille","lat":43.295226,"lon":5.390377,"is_reserved":false,"is_disabled":false,"rental_uris":{"android":"levelo://app?vid=abbc6a4d-e8de-4798-b51b-bf26b4f4d5c4","ios":"levelo://app?vid=abbc6a4d-e8de-4798-b51b-bf26b4f4d5c4"},"vehicle_type_id":"4","last_reported":1726344632,"current_range_meters":37600,"station_id":"ce4bh3p2rcd13ifvqdp0","pricing_plan_id":"cebpf4jnsgd1na2vs0mg"},{"bike_id":"cab079e4-685c-4140-8f54-a27ed41fc8a0","system_id":"levelo_inurba_marseille","lat":43.30596,"lon":5.39359,"is_reserved":false,"is_disabled":false,"rental_uris":{"android":"levelo://app?vid=cab079e4-685c-4140-8f54-a27ed41fc8a0","ios":"levelo://app?vid=cab079e4-685c-4140-8f54-a27ed41fc8a0"},"vehicle_type_id":"4","last_reported":1726344632,"current_range_meters":38800,"station_id":"ce4bh0p2rcd13ifvqd80","pricing_plan_id":"cebpf4jnsgd1na2vs0mg"},{"bike_id":"65cb79cf-94ff-445a-aa26-3c2ea1f1996c","system_id":"levelo_inurba_marseille","lat":43.29259,"lon":5.3844,"is_reserved":false,"is_disabled":false,"rental_uris":{"android":"levelo://app?vid=65cb79cf-94ff-445a-aa26-3c2ea1f1996c","ios":"levelo://app?vid=65cb79cf-94ff-445a-aa26-3c2ea1f1996c"},"vehicle_type_id":"4","last_reported":1726344632,"current_range_meters":37600,"station_id":"ce4bh692rcd13ifvqea0","pricing_plan_id":"cebpf4jnsgd1na2vs0mg"},{"bike_id":"ca3fdf42-0b89-408a-afbf-c05e39226cd6","system_id":"levelo_inurba_marseille","lat":43.28664,"lon":5.36366,"is_reserved":false,"is_disabled":false,"rental_uris":{"android":"levelo://app?vid=ca3fdf42-0b89-408a-afbf-c05e39226cd6","ios":"levelo://app?vid=ca3fdf42-0b89-408a-afbf-c05e39226cd6"},"vehicle_type_id":"4","last_reported":1726344632,"current_range_meters":13600,"station_id":"ce4bhah2rcd13ifvqej0","pricing_plan_id":"cebpf4jnsgd1na2vs0mg"},{"bike_id":"1be4bcad-bdf2-46c2-8c7e-d9c3888fe276","system_id":"levelo_inurba_marseille","lat":43.32339,"lon":5.40626,"is_reserved":false,"is_disabled":false,"rental_uris":{"android":"levelo://app?vid=1be4bcad-bdf2-46c2-8c7e-d9c3888fe276","ios":"levelo://app?vid=1be4bcad-bdf2-46c2-8c7e-d9c3888fe276"},"vehicle_type_id":"4","last_reported":1726344632,"current_range_meters":33600,"station_id":"ce4bhq92rcd13ifvqhjg","pricing_plan_id":"cebpf4jnsgd1na2vs0mg"},{"bike_id":"b09b1f32-db08-4a0c-ba23-a0fcc3d6808e","system_id":"levelo_inurba_marseille","lat":43.29512,"lon":5.39051,"is_reserved":false,"is_disabled":false,"rental_uris":{"android":"levelo://app?vid=b09b1f32-db08-4a0c-ba23-a0fcc3d6808e","ios":"levelo://app?vid=b09b1f32-db08-4a0c-ba23-a0fcc3d6808e"},"vehicle_type_id":"4","last_reported":1726344632,"current_range_meters":22000,"station_id":"ce4bh3p2rcd13ifvqdp0","pricing_plan_id":"cebpf4jnsgd1na2vs0mg"},{"bike_id":"3ef0e547-6cfc-47c8-983b-362a426f5642","system_id":"levelo_inurba_marseille","lat":43.29418,"lon":5.38627,"is_reserved":false,"is_disabled":false,"rental_uris":{"android":"levelo://app?vid=3ef0e547-6cfc-47c8-983b-362a426f5642","ios":"levelo://app?vid=3ef0e547-6cfc-47c8-983b-362a426f5642"},"vehicle_type_id":"4","last_reported":1726344632,"current_range_meters":30800,"station_id":"ce4bh2h2rcd13ifvqdh0","pricing_plan_id":"cebpf4jnsgd1na2vs0mg"},{"bike_id":"5853f56c-4943-4826-b8a5-f2a3d46e7000","system_id":"levelo_inurba_marseille","lat":43.31723,"lon":5.42405,"is_reserved":false,"is_disabled":false,"rental_uris":{"android":"levelo://app?vid=5853f56c-4943-4826-b8a5-f2a3d46e7000","ios":"levelo://app?vid=5853f56c-4943-4826-b8a5-f2a3d46e7000"},"vehicle_type_id":"4","last_reported":1726344632,"current_range_meters":27600,"station_id":"ce4bhp92rcd13ifvqhbg","pricing_plan_id":"cebpf4jnsgd1na2vs0mg"},{"bike_id":"eced4e5d-3976-48df-9338-f5470cba236f","system_id":"levelo_inurba_marseille","lat":43.31935,"lon":5.37433,"is_reserved":false,"is_disabled":false,"rental_uris":{"android":"levelo://app?vid=eced4e5d-3976-48df-9338-f5470cba236f","ios":"levelo://app?vid=eced4e5d-3976-48df-9338-f5470cba236f"},"vehicle_type_id":"4","last_reported":1726344632,"current_range_meters":8000,"station_id":"","pricing_plan_id":"cebpf4jnsgd1na2vs0mg"},{"bike_id":"1c831b92-d35c-4c62-8e32-9afc7c27b5df","system_id":"levelo_inurba_marseille","lat":43.2737,"lon":5.36266,"is_reserved":false,"is_disabled":false,"rental_uris":{"android":"levelo://app?vid=1c831b92-d35c-4c62-8e32-9afc7c27b5df","ios":"levelo://app?vid=1c831b92-d35c-4c62-8e32-9afc7c27b5df"},"vehicle_type_id":"4","last_reported":1726344632,"current_range_meters":6000,"station_id":"ce4bhbh2rcd13ifvqeo0","pricing_plan_id":"cebpf4jnsgd1na2vs0mg"},{"bike_id":"43e2ee09-4e9e-400e-b8ed-a6a31be1097e","system_id":"levelo_inurba_marseille","lat":43.29419,"lon":5.38627,"is_reserved":false,"is_disabled":false,"rental_uris":{"android":"levelo://app?vid=43e2ee09-4e9e-400e-b8ed-a6a31be1097e","ios":"levelo://app?vid=43e2ee09-4e9e-400e-b8ed-a6a31be1097e"},"vehicle_type_id":"4","last_reported":1726344632,"current_range_meters":28800,"station_id":"ce4bh2h2rcd13ifvqdh0","pricing_plan_id":"cebpf4jnsgd1na2vs0mg"},{"bike_id":"5bb9eeb2-9d6e-478b-9598-395ae66c9e19","system_id":"levelo_inurba_marseille","lat":43.25729,"lon":5.41112,"is_reserved":false,"is_disabled":false,"rental_uris":{"android":"levelo://app?vid=5bb9eeb2-9d6e-478b-9598-395ae66c9e19","ios":"levelo://app?vid=5bb9eeb2-9d6e-478b-9598-395ae66c9e19"},"vehicle_type_id":"4","last_reported":1726344632,"current_range_meters":4000,"station_id":"ce4bhkp2rcd13ifvqgd0","pricing_plan_id":"cebpf4jnsgd1na2vs0mg"},{"bike_id":"0cc2ae81-10b9-4350-851a-981e0c705484","system_id":"levelo_inurba_marseille","lat":43.2925,"lon":5.38446,"is_reserved":false,"is_disabled":false,"rental_uris":{"android":"levelo://app?vid=0cc2ae81-10b9-4350-851a-981e0c705484","ios":"levelo://app?vid=0cc2ae81-10b9-4350-851a-981e0c705484"},"vehicle_type_id":"4","last_reported":1726344632,"current_range_meters":36000,"station_id":"ce4bh692rcd13ifvqea0","pricing_plan_id":"cebpf4jnsgd1na2vs0mg"},{"bike_id":"4252997a-048e-467d-b47c-5290f1fef794","system_id":"levelo_inurba_marseille","lat":43.245904,"lon":5.394723,"is_reserved":false,"is_disabled":false,"rental_uris":{"android":"levelo://app?vid=4252997a-048e-467d-b47c-5290f1fef794","ios":"levelo://app?vid=4252997a-048e-467d-b47c-5290f1fef794"},"vehicle_type_id":"4","last_reported":1726344632,"current_range_meters":16000,"station_id":"ce4bhlp2rcd13ifvqgjg","pricing_plan_id":"cebpf4jnsgd1na2vs0mg"},{"bike_id":"328d45f9-980e-4811-97c0-47d761861509","system_id":"levelo_inurba_marseille","lat":43.29847,"lon":5.37836,"is_reserved":false,"is_disabled":false,"rental_uris":{"android":"levelo://app?vid=328d45f9-980e-4811-97c0-47d761861509","ios":"levelo://app?vid=328d45f9-980e-4811-97c0-47d761861509"},"vehicle_type_id":"4","last_reported":1726344632,"current_range_meters":31200,"station_id":"ce4bgkh2rcd13ifvqbl0","pricing_plan_id":"cebpf4jnsgd1na2vs0mg"},{"bike_id":"4d613953-cfab-4705-92a1-562b15f01e15","system_id":"levelo_inurba_marseille","lat":43.2951,"lon":5.39402,"is_reserved":false,"is_disabled":false,"rental_uris":{"android":"levelo://app?vid=4d613953-cfab-4705-92a1-562b15f01e15","ios":"levelo://app?vid=4d613953-cfab-4705-92a1-562b15f01e15"},"vehicle_type_id":"4","last_reported":1726344632,"current_range_meters":5600,"station_id":"ce4bh292rcd13ifvqdf0","pricing_plan_id":"cebpf4jnsgd1na2vs0mg"},{"bike_id":"9405243c-bc1f-4e5e-9f1e-bad2e0156371","system_id":"levelo_inurba_marseille","lat":43.28948,"lon":5.36644,"is_reserved":false,"is_disabled":false,"rental_uris":{"android":"levelo://app?vid=9405243c-bc1f-4e5e-9f1e-bad2e0156371","ios":"levelo://app?vid=9405243c-bc1f-4e5e-9f1e-bad2e0156371"},"vehicle_type_id":"4","last_reported":1726344632,"current_range_meters":28800,"station_id":"ce4bhap2rcd13ifvqek0","pricing_plan_id":"cebpf4jnsgd1na2vs0mg"},{"bike_id":"05d492ee-ddb9-45b3-9f30-b1f3d03d26db","system_id":"levelo_inurba_marseille","lat":43.29422,"lon":5.38617,"is_reserved":false,"is_disabled":false,"rental_uris":{"android":"levelo://app?vid=05d492ee-ddb9-45b3-9f30-b1f3d03d26db","ios":"levelo://app?vid=05d492ee-ddb9-45b3-9f30-b1f3d03d26db"},"vehicle_type_id":"4","last_reported":1726344632,"current_range_meters":38800,"station_id":"ce4bh2h2rcd13ifvqdh0","pricing_plan_id":"cebpf4jnsgd1na2vs0mg"},{"bike_id":"b0f3f0c3-4eba-4fc1-a3ac-ff7ee784e36a","system_id":"levelo_inurba_marseille","lat":43.29551,"lon":5.42291,"is_reserved":false,"is_disabled":false,"rental_uris":{"android":"levelo://app?vid=b0f3f0c3-4eba-4fc1-a3ac-ff7ee784e36a","ios":"levelo://app?vid=b0f3f0c3-4eba-4fc1-a3ac-ff7ee784e36a"},"vehicle_type_id":"4","last_reported":1726344632,"current_range_meters":38800,"station_id":"ce4bhph2rcd13ifvqhdg","pricing_plan_id":"cebpf4jnsgd1na2vs0mg"},{"bike_id":"4c7e9215-707e-4f02-a77b-25dadb66deba","system_id":"levelo_inurba_marseille","lat":43.30936,"lon":5.40145,"is_reserved":false,"is_disabled":false,"rental_uris":{"android":"levelo://app?vid=4c7e9215-707e-4f02-a77b-25dadb66deba","ios":"levelo://app?vid=4c7e9215-707e-4f02-a77b-25dadb66deba"},"vehicle_type_id":"4","last_reported":1726344632,"current_range_meters":28400,"station_id":"ce4bgvp2rcd13ifvqct0","pricing_plan_id":"cebpf4jnsgd1na2vs0mg"},{"bike_id":"fc76a35a-a564-4eb5-8688-a9c3d5237512","system_id":"levelo_inurba_marseille","lat":43.31755,"lon":5.39024,"is_reserved":false,"is_disabled":false,"rental_uris":{"android":"levelo://app?vid=fc76a35a-a564-4eb5-8688-a9c3d5237512","ios":"levelo://app?vid=fc76a35a-a564-4eb5-8688-a9c3d5237512"},"vehicle_type_id":"4","last_reported":1726344632,"current_range_meters":38800,"station_id":"ce4bhqp2rcd13ifvqhng","pricing_plan_id":"cebpf4jnsgd1na2vs0mg"},{"bike_id":"b3aabc3a-b8cb-4666-9bec-4da309264e1d","system_id":"levelo_inurba_marseille","lat":43.26555,"lon":5.37287,"is_reserved":false,"is_disabled":false,"rental_uris":{"android":"levelo://app?vid=b3aabc3a-b8cb-4666-9bec-4da309264e1d","ios":"levelo://app?vid=b3aabc3a-b8cb-4666-9bec-4da309264e1d"},"vehicle_type_id":"4","last_reported":1726344632,"current_range_meters":4000,"station_id":"ce4bhg12rcd13ifvqf70","pricing_plan_id":"cebpf4jnsgd1na2vs0mg"},{"bike_id":"8b608b96-fedf-4511-8d4b-09bad2606e1a","system_id":"levelo_inurba_marseille","lat":43.27715,"lon":5.41139,"is_reserved":false,"is_disabled":false,"rental_uris":{"android":"levelo://app?vid=8b608b96-fedf-4511-8d4b-09bad2606e1a","ios":"levelo://app?vid=8b608b96-fedf-4511-8d4b-09bad2606e1a"},"vehicle_type_id":"4","last_reported":1726344632,"current_range_meters":25200,"station_id":"","pricing_plan_id":"cebpf4jnsgd1na2vs0mg"},{"bike_id":"7f2f489f-9c10-46b1-b3ae-17bab896e02a","system_id":"levelo_inurba_marseille","lat":43.303101,"lon":5.437949,"is_reserved":false,"is_disabled":false,"rental_uris":{"android":"levelo://app?vid=7f2f489f-9c10-46b1-b3ae-17bab896e02a","ios":"levelo://app?vid=7f2f489f-9c10-46b1-b3ae-17bab896e02a"},"vehicle_type_id":"4","last_reported":1726344632,"current_range_meters":34800,"station_id":"","pricing_plan_id":"cebpf4jnsgd1na2vs0mg"},{"bike_id":"01857907-3ef4-4f45-a2a1-ef444168e0cd","system_id":"levelo_inurba_marseille","lat":43.28476,"lon":5.38413,"is_reserved":false,"is_disabled":false,"rental_uris":{"android":"levelo://app?vid=01857907-3ef4-4f45-a2a1-ef444168e0cd","ios":"levelo://app?vid=01857907-3ef4-4f45-a2a1-ef444168e0cd"},"vehicle_type_id":"4","last_reported":1726344632,"current_range_meters":38800,"station_id":"ce4bh512rcd13ifvqe3g","pricing_plan_id":"cebpf4jnsgd1na2vs0mg"},{"bike_id":"b9c005a4-6c5c-4cad-b9fd-98f1befb3df6","system_id":"levelo_inurba_marseille","lat":43.30834,"lon":5.38161,"is_reserved":false,"is_disabled":false,"rental_uris":{"android":"levelo://app?vid=b9c005a4-6c5c-4cad-b9fd-98f1befb3df6","ios":"levelo://app?vid=b9c005a4-6c5c-4cad-b9fd-98f1befb3df6"},"vehicle_type_id":"4","last_reported":1726344632,"current_range_meters":33200,"station_id":"ce4bgt12rcd13ifvqce0","pricing_plan_id":"cebpf4jnsgd1na2vs0mg"},{"bike_id":"f595eb44-3a35-4dd3-83ea-3797400d6f08","system_id":"levelo_inurba_marseille","lat":43.29261,"lon":5.38445,"is_reserved":false,"is_disabled":false,"rental_uris":{"android":"levelo://app?vid=f595eb44-3a35-4dd3-83ea-3797400d6f08","ios":"levelo://app?vid=f595eb44-3a35-4dd3-83ea-3797400d6f08"},"vehicle_type_id":"4","last_reported":1726344632,"current_range_meters":12800,"station_id":"ce4bh692rcd13ifvqea0","pricing_plan_id":"cebpf4jnsgd1na2vs0mg"},{"bike_id":"ab167bf4-64dc-47a2-b395-04a9b1602953","system_id":"levelo_inurba_marseille","lat":43.25502,"lon":5.37651,"is_reserved":false,"is_disabled":false,"rental_uris":{"android":"levelo://app?vid=ab167bf4-64dc-47a2-b395-04a9b1602953","ios":"levelo://app?vid=ab167bf4-64dc-47a2-b395-04a9b1602953"},"vehicle_type_id":"4","last_reported":1726344632,"current_range_meters":36000,"station_id":"ce4bhh12rcd13ifvqff0","pricing_plan_id":"cebpf4jnsgd1na2vs0mg"},{"bike_id":"fa2b0a9f-66ad-4cd1-b7bb-93b9cffdc904","system_id":"levelo_inurba_marseille","lat":43.2593,"lon":5.40911,"is_reserved":false,"is_disabled":false,"rental_uris":{"android":"levelo://app?vid=fa2b0a9f-66ad-4cd1-b7bb-93b9cffdc904","ios":"levelo://app?vid=fa2b0a9f-66ad-4cd1-b7bb-93b9cffdc904"},"vehicle_type_id":"4","last_reported":1726344632,"current_range_meters":36000,"station_id":"ce4bhm92rcd13ifvqglg","pricing_plan_id":"cebpf4jnsgd1na2vs0mg"},{"bike_id":"be3580cc-5597-48ff-bbfe-6a25fd4800e2","system_id":"levelo_inurba_marseille","lat":43.31728,"lon":5.42397,"is_reserved":false,"is_disabled":false,"rental_uris":{"android":"levelo://app?vid=be3580cc-5597-48ff-bbfe-6a25fd4800e2","ios":"levelo://app?vid=be3580cc-5597-48ff-bbfe-6a25fd4800e2"},"vehicle_type_id":"4","last_reported":1726344632,"current_range_meters":22400,"station_id":"ce4bhp92rcd13ifvqhbg","pricing_plan_id":"cebpf4jnsgd1na2vs0mg"},{"bike_id":"1a48afa5-7f7d-49e1-a681-5a50e8a492b8","system_id":"levelo_inurba_marseille","lat":43.28559,"lon":5.39498,"is_reserved":false,"is_disabled":false,"rental_uris":{"android":"levelo://app?vid=1a48afa5-7f7d-49e1-a681-5a50e8a492b8","ios":"levelo://app?vid=1a48afa5-7f7d-49e1-a681-5a50e8a492b8"},"vehicle_type_id":"4","last_reported":1726344632,"current_range_meters":25200,"station_id":"ce4bh292rcd13ifvqdg0","pricing_plan_id":"cebpf4jnsgd1na2vs0mg"},{"bike_id":"dc382978-022a-48dc-8284-dd345a1790df","system_id":"levelo_inurba_marseille","lat":43.29676,"lon":5.37289,"is_reserved":false,"is_disabled":false,"rental_uris":{"android":"levelo://app?vid=dc382978-022a-48dc-8284-dd345a1790df","ios":"levelo://app?vid=dc382978-022a-48dc-8284-dd345a1790df"},"vehicle_type_id":"4","last_reported":1726344632,"current_range_meters":28000,"station_id":"ce4bgk12rcd13ifvqbj0","pricing_plan_id":"cebpf4jnsgd1na2vs0mg"},{"bike_id":"4a227b36-a7fa-472a-962c-07d5ccdc4b05","system_id":"levelo_inurba_marseille","lat":43.31886,"lon":5.40744,"is_reserved":false,"is_disabled":false,"rental_uris":{"android":"levelo://app?vid=4a227b36-a7fa-472a-962c-07d5ccdc4b05","ios":"levelo://app?vid=4a227b36-a7fa-472a-962c-07d5ccdc4b05"},"vehicle_type_id":"4","last_reported":1726344632,"current_range_meters":36000,"station_id":"ce4bhq12rcd13ifvqhig","pricing_plan_id":"cebpf4jnsgd1na2vs0mg"},{"bike_id":"2381235f-a784-4172-bde7-5f70d554b1a0","system_id":"levelo_inurba_marseille","lat":43.2942,"lon":5.38633,"is_reserved":false,"is_disabled":false,"rental_uris":{"android":"levelo://app?vid=2381235f-a784-4172-bde7-5f70d554b1a0","ios":"levelo://app?vid=2381235f-a784-4172-bde7-5f70d554b1a0"},"vehicle_type_id":"4","last_reported":1726344632,"current_range_meters":38800,"station_id":"ce4bh2h2rcd13ifvqdh0","pricing_plan_id":"cebpf4jnsgd1na2vs0mg"},{"bike_id":"20f0eb8e-19df-4e8d-b766-27f132df235c","system_id":"levelo_inurba_marseille","lat":43.291789,"lon":5.393159,"is_reserved":false,"is_disabled":false,"rental_uris":{"android":"levelo://app?vid=20f0eb8e-19df-4e8d-b766-27f132df235c","ios":"levelo://app?vid=20f0eb8e-19df-4e8d-b766-27f132df235c"},"vehicle_type_id":"4","last_reported":1726344632,"current_range_meters":37600,"station_id":"ce4bh192rcd13ifvqdd0","pricing_plan_id":"cebpf4jnsgd1na2vs0mg"},{"bike_id":"0c8f8dc2-c523-42b6-b777-fb075cd1bc00","system_id":"levelo_inurba_marseille","lat":43.29421,"lon":5.3863,"is_reserved":false,"is_disabled":false,"rental_uris":{"android":"levelo://app?vid=0c8f8dc2-c523-42b6-b777-fb075cd1bc00","ios":"levelo://app?vid=0c8f8dc2-c523-42b6-b777-fb075cd1bc00"},"vehicle_type_id":"4","last_reported":1726344632,"current_range_meters":34000,"station_id":"ce4bh2h2rcd13ifvqdh0","pricing_plan_id":"cebpf4jnsgd1na2vs0mg"},{"bike_id":"f1e8ceee-9573-4b77-ab79-482d0d3b70cc","system_id":"levelo_inurba_marseille","lat":43.24168,"lon":5.36404,"is_reserved":false,"is_disabled":false,"rental_uris":{"android":"levelo://app?vid=f1e8ceee-9573-4b77-ab79-482d0d3b70cc","ios":"levelo://app?vid=f1e8ceee-9573-4b77-ab79-482d0d3b70cc"},"vehicle_type_id":"4","last_reported":1726344632,"current_range_meters":38000,"station_id":"cpo36qri1sfpv3e86is0","pricing_plan_id":"cebpf4jnsgd1na2vs0mg"},{"bike_id":"2f38de22-bf38-4c67-93be-579dbae84aee","system_id":"levelo_inurba_marseille","lat":43.28618,"lon":5.35104,"is_reserved":false,"is_disabled":false,"rental_uris":{"android":"levelo://app?vid=2f38de22-bf38-4c67-93be-579dbae84aee","ios":"levelo://app?vid=2f38de22-bf38-4c67-93be-579dbae84aee"},"vehicle_type_id":"4","last_reported":1726344632,"current_range_meters":7200,"station_id":"ce4bhch2rcd13ifvqeug","pricing_plan_id":"cebpf4jnsgd1na2vs0mg"},{"bike_id":"ee76f9ee-bfd9-4123-8d61-c89e8f57b7b9","system_id":"levelo_inurba_marseille","lat":43.30873,"lon":5.39648,"is_reserved":false,"is_disabled":false,"rental_uris":{"android":"levelo://app?vid=ee76f9ee-bfd9-4123-8d61-c89e8f57b7b9","ios":"levelo://app?vid=ee76f9ee-bfd9-4123-8d61-c89e8f57b7b9"},"vehicle_type_id":"4","last_reported":1726344632,"current_range_meters":8800,"station_id":"ce4bh012rcd13ifvqcv0","pricing_plan_id":"cebpf4jnsgd1na2vs0mg"},{"bike_id":"cc63f00e-9e45-485b-b831-5496d27d8947","system_id":"levelo_inurba_marseille","lat":43.25816,"lon":5.39441,"is_reserved":false,"is_disabled":false,"rental_uris":{"android":"levelo://app?vid=cc63f00e-9e45-485b-b831-5496d27d8947","ios":"levelo://app?vid=cc63f00e-9e45-485b-b831-5496d27d8947"},"vehicle_type_id":"4","last_reported":1726344632,"current_range_meters":16800,"station_id":"ce4bhip2rcd13ifvqft0","pricing_plan_id":"cebpf4jnsgd1na2vs0mg"},{"bike_id":"56dedc16-78b2-4324-9a58-783824ca303a","system_id":"levelo_inurba_marseille","lat":43.31514,"lon":5.37303,"is_reserved":false,"is_disabled":false,"rental_uris":{"android":"levelo://app?vid=56dedc16-78b2-4324-9a58-783824ca303a","ios":"levelo://app?vid=56dedc16-78b2-4324-9a58-783824ca303a"},"vehicle_type_id":"4","last_reported":1726344632,"current_range_meters":26800,"station_id":"ce4bgt12rcd13ifvqcd0","pricing_plan_id":"cebpf4jnsgd1na2vs0mg"},{"bike_id":"908965bd-e061-4c54-ba02-146b12d29e1d","system_id":"levelo_inurba_marseille","lat":43.30782,"lon":5.3766,"is_reserved":false,"is_disabled":false,"rental_uris":{"android":"levelo://app?vid=908965bd-e061-4c54-ba02-146b12d29e1d","ios":"levelo://app?vid=908965bd-e061-4c54-ba02-146b12d29e1d"},"vehicle_type_id":"4","last_reported":1726344632,"current_range_meters":37600,"station_id":"ce4bgv92rcd13ifvqcq0","pricing_plan_id":"cebpf4jnsgd1na2vs0mg"},