{"last_updated":1741255850,"ttl":60,"version":"2.2","data":{"bikes":[{"bike_id":"e9d2248a-9294-44a5-9761-2952545c6b39","system_id":"levelo_inurba_marseille","lat":43.25717,"lon":5.41114,"is_reserved":false,"is_disabled":true,"rental_uris":{"android":"levelo://app?vid=e9d2248a-9294-44a5-9761-2952545c6b39","ios":"levelo://app?vid=e9d2248a-9294-44a5-9761-2952545c6b39"},"vehicle_type_id":"4","last_reported":1741255850,"current_range_meters":0,"station_id":"","pricing_plan_id":"cebpf4jnsgd1na2vs0mg"},{"bike_id":"23a74ba7-944b-47c5-899c-c5932fd50b50","system_id":"levelo_inurba_marseille","lat":43.292999,"lon":5.369114,"is_reserved":false,"is_disabled":true,"rental_uris":{"android":"levelo://app?vid=23a74ba7-944b-47c5-899c-c5932fd50b50","ios":"levelo://app?vid=23a74ba7-944b-47c5-899c-c5932fd50b50"},"vehicle_type_id":"4","last_reported":1741255850,"current_range_meters":0,"station_id":"","pricing_plan_id":"cebpf4jnsgd1na2vs0mg"},{"bike_id":"824749fb-c7cc-49ac-9e95-1f214964bc22","system_id":"levelo_inurba_marseille","lat":43.2745,"lon":5.36105,"is_reserved":false,"is_disabled":true,"rental_uris":{"android":"levelo://app?vid=824749fb-c7cc-49ac-9e95-1f214964bc22","ios":"levelo://app?vid=824749fb-c7cc-49ac-9e95-1f214964bc22"},"vehicle_type_id":"4","last_reported":1741255850,"current_range_meters":0,"station_id":"","pricing_plan_id":"cebpf4jnsgd1na2vs0mg"},{"bike_id":"e7ec1ac1-2323-47bd-a2b5-7cd3afb282cf","system_id":"levelo_inurba_marseille","lat":43.269194,"lon":5.366679,"is_reserved":false,"is_disabled":true,"rental_uris":{"android":"levelo://app?vid=e7ec1ac1-2323-47bd-a2b5-7cd3afb282cf","ios":"levelo://app?vid=e7ec1ac1-2323-47bd-a2b5-7cd3afb282cf"},"vehicle_type_id":"4","last_reported":1741255850,"current_range_meters":0,"station_id":"","pricing_plan_id":"cebpf4jnsgd1na2vs0mg"},{"bike_id":"fb0a8e7f-f009-4462-9849-290a1ab2a901","system_id":"levelo_inurba_marseille","lat":43.31332,"lon":5.386,"is_reserved":false,"is_disabled":true,"rental_uris":{"android":"levelo://app?vid=fb0a8e7f-f009-4462-9849-290a1ab2a901","ios":"levelo://app?vid=fb0a8e7f-f009-4462-9849-290a1ab2a901"},"vehicle_type_id":"4","last_reported":1741255850,"current_range_meters":0,"station_id":"","pricing_plan_id":"cebpf4jnsgd1na2vs0mg"},{"bike_id":"9e745653-b35a-4570-a30a-bc0d932742ad","system_id":"levelo_inurba_marseille","lat":43.29802,"lon":5.38107,"is_reserved":false,"is_disabled":true,"rental_uris":{"android":"levelo://app?vid=9e745653-b35a-4570-a30a-bc0d932742ad","ios":"levelo://app?vid=9e745653-b35a-4570-a30a-bc0d932742ad"},"vehicle_type_id":"4","last_reported":1741255850,"current_range_meters":0,"station_id":"ce4bgip2rcd13ifvqbb0","pricing_plan_id":"cebpf4jnsgd1na2vs0mg"},{"bike_id":"5704e366-5abb-42fc-86da-c43ab43a4299","system_id":"levelo_inurba_marseille","lat":43.30141,"lon":5.38093,"is_reserved":false,"is_disabled":true,"rental_uris":{"android":"levelo://app?vid=5704e366-5abb-42fc-86da-c43ab43a4299","ios":"levelo://app?vid=5704e366-5abb-42fc-86da-c43ab43a4299"},"vehicle_type_id":"4","last_reported":1741255850,"current_range_meters":0,"station_id":"ce4bgjp2rcd13ifvqbh0","pricing_plan_id":"cebpf4jnsgd1na2vs0mg"},{"bike_id":"f1bb5496-f69c-4065-af4c-850c226f14c4","system_id":"levelo_inurba_marseille","lat":43.30465,"lon":5.37909,"is_reserved":false,"is_disabled":true,"rental_uris":{"android":"levelo://app?vid=f1bb5496-f69c-4065-af4c-850c226f14c4","ios":"levelo://app?vid=f1bb5496-f69c-4065-af4c-850c226f14c4"},"vehicle_type_id":"4","last_reported":1741255850,"current_range_meters":0,"station_id":"ce4bgup2rcd13ifvqcn0","pricing_plan_id":"cebpf4jnsgd1na2vs0mg"},{"bike_id":"c39e12a3-18ed-4997-92bc-211dc2721ced","system_id":"levelo_inurba_marseille","lat":43.243907,"lon":5.37059,"is_reserved":false,"is_disabled":true,"rental_uris":{"android":"levelo://app?vid=c39e12a3-18ed-4997-92bc-211dc2721ced","ios":"levelo://app?vid=c39e12a3-18ed-4997-92bc-211dc2721ced"},"vehicle_type_id":"4","last_reported":1741255850,"current_range_meters":0,"station_id":"ce4bhhh2rcd13ifvqfk0","pricing_plan_id":"cebpf4jnsgd1na2vs0mg"},{"bike_id":"68b1dc30-83bc-4d17-9bfe-16512ea7162b","system_id":"levelo_inurba_marseille","lat":43.25721,"lon":5.41116,"is_reserved":false,"is_disabled":true,"rental_uris":{"android":"levelo://app?vid=68b1dc30-83bc-4d17-9bfe-16512ea7162b","ios":"levelo://app?vid=68b1dc30-83bc-4d17-9bfe-16512ea7162b"},"vehicle_type_id":"4","last_reported":1741255850,"current_range_meters":0,"station_id":"ce4bhkp2rcd13ifvqgd0","pricing_plan_id":"cebpf4jnsgd1na2vs0mg"},{"bike_id":"711df2b1-4933-40b0-9315-ea8e30d0a94c","system_id":"levelo_inurba_marseille","lat":43.27178,"lon":5.41002,"is_reserved":false,"is_disabled":true,"rental_uris":{"android":"levelo://app?vid=711df2b1-4933-40b0-9315-ea8e30d0a94c","ios":"levelo://app?vid=711df2b1-4933-40b0-9315-ea8e30d0a94c"},"vehicle_type_id":"4","last_reported":1741255850,"current_range_meters":0,"station_id":"ce4bhl12rcd13ifvqgf0","pricing_plan_id":"cebpf4jnsgd1na2vs0mg"},{"bike_id":"029fbd2e-5732-4fcb-a20c-88dfe147eae6","system_id":"levelo_inurba_marseille","lat":43.26244,"lon":5.40436,"is_reserved":false,"is_disabled":true,"rental_uris":{"android":"levelo://app?vid=029fbd2e-5732-4fcb-a20c-88dfe147eae6","ios":"levelo://app?vid=029fbd2e-5732-4fcb-a20c-88dfe147eae6"},"vehicle_type_id":"4","last_reported":1741255850,"current_range_meters":0,"station_id":"ce4bhmh2rcd13ifvqgmg","pricing_plan_id":"cebpf4jnsgd1na2vs0mg"},{"bike_id":"d6d8f51b-704c-4843-a576-ec8a7c6ac82c","system_id":"levelo_inurba_marseille","lat":43.2315,"lon":5.43713,"is_reserved":false,"is_disabled":true,"rental_uris":{"android":"levelo://app?vid=d6d8f51b-704c-4843-a576-ec8a7c6ac82c","ios":"levelo://app?vid=d6d8f51b-704c-4843-a576-ec8a7c6ac82c"},"vehicle_type_id":"4","last_reported":1741255850,"current_range_meters":0,"station_id":"ce4bhmp2rcd13ifvqgog","pricing_plan_id":"cebpf4jnsgd1na2vs0mg"},{"bike_id":"91d93427-cb1b-4160-a296-ae259d811366","system_id":"levelo_inurba_marseille","lat":43.23132,"lon":5.43715,"is_reserved":false,"is_disabled":true,"rental_uris":{"android":"levelo://app?vid=91d93427-cb1b-4160-a296-ae259d811366","ios":"levelo://app?vid=91d93427-cb1b-4160-a296-ae259d811366"},"vehicle_type_id":"4","last_reported":1741255850,"current_range_meters":0,"station_id":"ce4bhmp2rcd13ifvqgog","pricing_plan_id":"cebpf4jnsgd1na2vs0mg"},{"bike_id":"36a66239-a625-4ec5-bc60-7cdeb7bc63fa","system_id":"levelo_inurba_marseille","lat":43.33608,"lon":5.41027,"is_reserved":false,"is_disabled":true,"rental_uris":{"android":"levelo://app?vid=36a66239-a625-4ec5-bc60-7cdeb7bc63fa","ios":"levelo://app?vid=36a66239-a625-4ec5-bc60-7cdeb7bc63fa"},"vehicle_type_id":"4","last_reported":1741255850,"current_range_meters":0,"station_id":"ce4bhqh2rcd13ifvqhmg","pricing_plan_id":"cebpf4jnsgd1na2vs0mg"},{"bike_id":"270304f5-9c62-44e6-9315-daa0550582c6","system_id":"levelo_inurba_marseille","lat":43.30301,"lon":5.36884,"is_reserved":false,"is_disabled":true,"rental_uris":{"android":"levelo://app?vid=270304f5-9c62-44e6-9315-daa0550582c6","ios":"levelo://app?vid=270304f5-9c62-44e6-9315-daa0550582c6"},"vehicle_type_id":"4","last_reported":1741255850,"current_range_meters":400,"station_id":"ce4bgqh2rcd13ifvqc5g","pricing_plan_id":"cebpf4jnsgd1na2vs0mg"},{"bike_id":"71da9125-aff2-41c2-8941-e89821491d0d","system_id":"levelo_inurba_marseille","lat":43.29538,"lon":5.39031,"is_reserved":false,"is_disabled":true,"rental_uris":{"android":"levelo://app?vid=71da9125-aff2-41c2-8941-e89821491d0d","ios":"levelo://app?vid=71da9125-aff2-41c2-8941-e89821491d0d"},"vehicle_type_id":"4","last_reported":1741255850,"current_range_meters":800,"station_id":"ce4bh3p2rcd13ifvqdp0","pricing_plan_id":"cebpf4jnsgd1na2vs0mg"},{"bike_id":"bd6e7921-771f-4530-9785-c5890cf479d5","system_id":"levelo_inurba_marseille","lat":43.3093,"lon":5.40159,"is_reserved":false,"is_disabled":true,"rental_uris":{"android":"levelo://app?vid=bd6e7921-771f-4530-9785-c5890cf479d5","ios":"levelo://app?vid=bd6e7921-771f-4530-9785-c5890cf479d5"},"vehicle_type_id":"4","last_reported":1741255850,"current_range_meters":1200,"station_id":"ce4bgvp2rcd13ifvqct0","pricing_plan_id":"cebpf4jnsgd1na2vs0mg"},{"bike_id":"dd321bc4-8440-47e6-8fbe-00b7e1a81900","system_id":"levelo_inurba_marseille","lat":43.25084,"lon":5.39515,"is_reserved":false,"is_disabled":true,"rental_uris":{"android":"levelo://app?vid=dd321bc4-8440-47e6-8fbe-00b7e1a81900","ios":"levelo://app?vid=dd321bc4-8440-47e6-8fbe-00b7e1a81900"},"vehicle_type_id":"4","last_reported":1741255850,"current_range_meters":1200,"station_id":"ce4bhm12rcd13ifvqgkg","pricing_plan_id":"cebpf4jnsgd1na2vs0mg"},{"bike_id":"712224bb-7e64-486b-b142-cdd7d8511400","system_id":"levelo_inurba_marseille","lat":43.33605,"lon":5.41037,"is_reserved":false,"is_disabled":true,"rental_uris":{"android":"levelo://app?vid=712224bb-7e64-486b-b142-cdd7d8511400","ios":"levelo://app?vid=712224bb-7e64-486b-b142-cdd7d8511400"},"vehicle_type_id":"4","last_reported":1741255850,"current_range_meters":1600,"station_id":"ce4bhqh2rcd13ifvqhmg","pricing_plan_id":"cebpf4jnsgd1na2vs0mg"},{"bike_id":"8fe93df6-2fe6-41ee-aeb3-48d22ff05290","system_id":"levelo_inurba_marseille","lat":43.29174,"lon":5.38598,"is_reserved":false,"is_disabled":true,"rental_uris":{"android":"levelo://app?vid=8fe93df6-2fe6-41ee-aeb3-48d22ff05290","ios":"levelo://app?vid=8fe93df6-2fe6-41ee-aeb3-48d22ff05290"},"vehicle_type_id":"4","last_reported":1741255850,"current_range_meters":2000,"station_id":"","pricing_plan_id":"cebpf4jnsgd1na2vs0mg"},{"bike_id":"cce0318a-6d0e-4d52-af2b-2e264c1324c8","system_id":"levelo_inurba_marseille","lat":43.29159,"lon":5.37162,"is_reserved":false,"is_disabled":true,"rental_uris":{"android":"levelo://app?vid=cce0318a-6d0e-4d52-af2b-2e264c1324c8","ios":"levelo://app?vid=cce0318a-6d0e-4d52-af2b-2e264c1324c8"},"vehicle_type_id":"4","last_reported":1741255850,"current_range_meters":2000,"station_id":"ce4bha92rcd13ifvqeh0","pricing_plan_id":"cebpf4jnsgd1na2vs0mg"},{"bike_id":"ee1d2ad1-36ca-49dd-a328-f2a9a9994ecb","system_id":"levelo_inurba_marseille","lat":43.31088,"lon":5.38146,"is_reserved":false,"is_disabled":false,"rental_uris":{"android":"levelo://app?vid=ee1d2ad1-36ca-49dd-a328-f2a9a9994ecb","ios":"levelo://app?vid=ee1d2ad1-36ca-49dd-a328-f2a9a9994ecb"},"vehicle_type_id":"4","last_reported":1741255850,"current_range_meters":2800,"station_id":"","pricing_plan_id":"cebpf4jnsgd1na2vs0mg"},{"bike_id":"f2896ecd-b24b-46c4-8d75-7e3bebc05adf","system_id":"levelo_inurba_marseille","lat":43.295323,"lon":5.385413,"is_reserved":false,"is_disabled":false,"rental_uris":{"android":"levelo://app?vid=f2896ecd-b24b-46c4-8d75-7e3bebc05adf","ios":"levelo://app?vid=f2896ecd-b24b-46c4-8d75-7e3bebc05adf"},"vehicle_type_id":"4","last_reported":1741255850,"current_range_meters":2800,"station_id":"ce4bgih2rcd13ifvqba0","pricing_plan_id":"cebpf4jnsgd1na2vs0mg"},{"bike_id":"cb379330-9ecf-41f8-afbd-727337f4b1df","system_id":"levelo_inurba_marseille","lat":43.31352,"lon":5.36718,"is_reserved":false,"is_disabled":false,"rental_uris":{"android":"levelo://app?vid=cb379330-9ecf-41f8-afbd-727337f4b1df","ios":"levelo://app?vid=cb379330-9ecf-41f8-afbd-727337f4b1df"},"vehicle_type_id":"4","last_reported":1741255850,"current_range_meters":2800,"station_id":"ce4bgr92rcd13ifvqc6g","pricing_plan_id":"cebpf4jnsgd1na2vs0mg"},{"bike_id":"6ceae51e-810d-4b62-a4a8-d814a02ccb06","system_id":"levelo_inurba_marseille","lat":43.3096,"lon":5.39039,"is_reserved":false,"is_disabled":false,"rental_uris":{"android":"levelo://app?vid=6ceae51e-810d-4b62-a4a8-d814a02ccb06","ios":"levelo://app?vid=6ceae51e-810d-4b62-a4a8-d814a02ccb06"},"vehicle_type_id":"4","last_reported":1741255850,"current_range_meters":2800,"station_id":"ce4bgup2rcd13ifvqco0","pricing_plan_id":"cebpf4jnsgd1na2vs0mg"},{"bike_id":"c0b87da3-53dc-49e0-8ac0-241b36c7a10b","system_id":"levelo_inurba_marseille","lat":43.290365,"lon":5.37557,"is_reserved":false,"is_disabled":false,"rental_uris":{"android":"levelo://app?vid=c0b87da3-53dc-49e0-8ac0-241b36c7a10b","ios":"levelo://app?vid=c0b87da3-53dc-49e0-8ac0-241b36c7a10b"},"vehicle_type_id":"4","last_reported":1741255850,"current_range_meters":2800,"station_id":"ce4bh692rcd13ifvqe90","pricing_plan_id":"cebpf4jnsgd1na2vs0mg"},{"bike_id":"a7b120fb-2f95-463f-b826-d8ae99d114f6","system_id":"levelo_inurba_marseille","lat":43.3031,"lon":5.36884,"is_reserved":false,"is_disabled":false,"rental_uris":{"android":"levelo://app?vid=a7b120fb-2f95-463f-b826-d8ae99d114f6","ios":"levelo://app?vid=a7b120fb-2f95-463f-b826-d8ae99d114f6"},"vehicle_type_id":"4","last_reported":1741255850,"current_range_meters":3600,"station_id":"ce4bgqh2rcd13ifvqc5g","pricing_plan_id":"cebpf4jnsgd1na2vs0mg"},{"bike_id":"bc28d2af-5623-42ae-bdef-43ec4e1bde8c","system_id":"levelo_inurba_marseille","lat":43.30519,"lon":5.36522,"is_reserved":false,"is_disabled":false,"rental_uris":{"android":"levelo://app?vid=bc28d2af-5623-42ae-bdef-43ec4e1bde8c","ios":"levelo://app?vid=bc28d2af-5623-42ae-bdef-43ec4e1bde8c"},"vehicle_type_id":"4","last_reported":1741255850,"current_range_meters":3600,"station_id":"ce4bgs12rcd13ifvqcag","pricing_plan_id":"cebpf4jnsgd1na2vs0mg"},{"bike_id":"b03761fe-a561-468d-9774-97951c251997","system_id":"levelo_inurba_marseille","lat":43.28941,"lon":5.36628,"is_reserved":false,"is_disabled":false,"rental_uris":{"android":"levelo://app?vid=b03761fe-a561-468d-9774-97951c251997","ios":"levelo://app?vid=b03761fe-a561-468d-9774-97951c251997"},"vehicle_type_id":"4","last_reported":1741255850,"current_range_meters":3600,"station_id":"ce4bhap2rcd13ifvqek0","pricing_plan_id":"cebpf4jnsgd1na2vs0mg"},{"bike_id":"9afb8190-a967-434e-b355-d389977ce62d","system_id":"levelo_inurba_marseille","lat":43.2481,"lon":5.37456,"is_reserved":false,"is_disabled":false,"rental_uris":{"android":"levelo://app?vid=9afb8190-a967-434e-b355-d389977ce62d","ios":"levelo://app?vid=9afb8190-a967-434e-b355-d389977ce62d"},"vehicle_type_id":"4","last_reported":1741255850,"current_range_meters":3600,"station_id":"ce4bhgh2rcd13ifvqfb0","pricing_plan_id":"cebpf4jnsgd1na2vs0mg"},{"bike_id":"09586ae6-733d-4cb6-9f48-f6a3ebe4e905","system_id":"levelo_inurba_marseille","lat":43.27498,"lon":5.42455,"is_reserved":false,"is_disabled":false,"rental_uris":{"android":"levelo://app?vid=09586ae6-733d-4cb6-9f48-f6a3ebe4e905","ios":"levelo://app?vid=09586ae6-733d-4cb6-9f48-f6a3ebe4e905"},"vehicle_type_id":"4","last_reported":1741255850,"current_range_meters":3600,"station_id":"ce4bhn92rcd13ifvqgrg","pricing_plan_id":"cebpf4jnsgd1na2vs0mg"},{"bike_id":"f6662bde-1632-4b0f-a966-f86b33b7c3b9","system_id":"levelo_inurba_marseille","lat":43.33774,"lon":5.37489,"is_reserved":false,"is_disabled":false,"rental_uris":{"android":"levelo://app?vid=f6662bde-1632-4b0f-a966-f86b33b7c3b9","ios":"levelo://app?vid=f6662bde-1632-4b0f-a966-f86b33b7c3b9"},"vehicle_type_id":"4","last_reported":1741255850,"current_range_meters":4000,"station_id":"","pricing_plan_id":"cebpf4jnsgd1na2vs0mg"},{"bike_id":"1a46a330-1e7a-4d22-8b76-01111d841da5","system_id":"levelo_inurba_marseille","lat":43.2958,"lon":5.36745,"is_reserved":false,"is_disabled":false,"rental_uris":{"android":"levelo://app?vid=1a46a330-1e7a-4d22-8b76-01111d841da5","ios":"levelo://app?vid=1a46a330-1e7a-4d22-8b76-01111d841da5"},"vehicle_type_id":"4","last_reported":1741255850,"current_range_meters":4000,"station_id":"ce4bgph2rcd13ifvqc2g","pricing_plan_id":"cebpf4jnsgd1na2vs0mg"},{"bike_id":"937f764d-f017-4757-8c7a-58087cf34952","system_id":"levelo_inurba_marseille","lat":43.29855,"lon":5.39743,"is_reserved":false,"is_disabled":false,"rental_uris":{"android":"levelo://app?vid=937f764d-f017-4757-8c7a-58087cf34952","ios":"levelo://app?vid=937f764d-f017-4757-8c7a-58087cf34952"},"vehicle_type_id":"4","last_reported":1741255850,"current_range_meters":4000,"station_id":"ce4bh0h2rcd13ifvqd50","pricing_plan_id":"cebpf4jnsgd1na2vs0mg"},{"bike_id":"f93b328a-acec-46fa-ab2a-9e9bfb596ef7","system_id":"levelo_inurba_marseille","lat":43.29787,"lon":5.38112,"is_reserved":false,"is_disabled":false,"rental_uris":{"android":"levelo://app?vid=f93b328a-acec-46fa-ab2a-9e9bfb596ef7","ios":"levelo://app?vid=f93b328a-acec-46fa-ab2a-9e9bfb596ef7"},"vehicle_type_id":"4","last_reported":1741255850,"current_range_meters":4400,"station_id":"ce4bgip2rcd13ifvqbb0","pricing_plan_id":"cebpf4jnsgd1na2vs0mg"},{"bike_id":"3063672c-c72f-4b32-97ec-bd70efc91353","system_id":"levelo_inurba_marseille","lat":43.29029,"lon":5.37566,"is_reserved":false,"is_disabled":false,"rental_uris":{"android":"levelo://app?vid=3063672c-c72f-4b32-97ec-bd70efc91353","ios":"levelo://app?vid=3063672c-c72f-4b32-97ec-bd70efc91353"},"vehicle_type_id":"4","last_reported":1741255850,"current_range_meters":4400,"station_id":"ce4bh692rcd13ifvqe90","pricing_plan_id":"cebpf4jnsgd1na2vs0mg"},{"bike_id":"d87e4191-7d96-4616-b38a-50622b1e8fa6","system_id":"levelo_inurba_marseille","lat":43.2318,"lon":5.39993,"is_reserved":false,"is_disabled":false,"rental_uris":{"android":"levelo://app?vid=d87e4191-7d96-4616-b38a-50622b1e8fa6","ios":"levelo://app?vid=d87e4191-7d96-4616-b38a-50622b1e8fa6"},"vehicle_type_id":"4","last_reported":1741255850,"current_range_meters":5600,"station_id":"ce4bgnh2rcd13ifvqc0g","pricing_plan_id":"cebpf4jnsgd1na2vs0mg"},{"bike_id":"d5083df6-980d-4044-b8d5-3d96f31409ea","system_id":"levelo_inurba_marseille","lat":43.26934,"lon":5.38638,"is_reserved":false,"is_disabled":false,"rental_uris":{"android":"levelo://app?vid=d5083df6-980d-4044-b8d5-3d96f31409ea","ios":"levelo://app?vid=d5083df6-980d-4044-b8d5-3d96f31409ea"},"vehicle_type_id":"4","last_reported":1741255850,"current_range_meters":5600,"station_id":"ce4bhh92rcd13ifvqfh0","pricing_plan_id":"cebpf4jnsgd1na2vs0mg"},{"bike_id":"818ebfb9-2613-43a7-b856-530ff05a8208","system_id":"levelo_inurba_marseille","lat":43.24077,"lon":5.37745,"is_reserved":false,"is_disabled":false,"rental_uris":{"android":"levelo://app?vid=818ebfb9-2613-43a7-b856-530ff05a8208","ios":"levelo://app?vid=818ebfb9-2613-43a7-b856-530ff05a8208"},"vehicle_type_id":"4","last_reported":1741255850,"current_range_meters":6000,"station_id":"ce4bhnp2rcd13ifvqgvg","pricing_plan_id":"cebpf4jnsgd1na2vs0mg"},{"bike_id":"f0f4eb97-2b33-47ca-a088-86baacee3eb0","system_id":"levelo_inurba_marseille","lat":43.28847,"lon":5.35854,"is_reserved":false,"is_disabled":false,"rental_uris":{"android":"levelo://app?vid=f0f4eb97-2b33-47ca-a088-86baacee3eb0","ios":"levelo://app?vid=f0f4eb97-2b33-47ca-a088-86baacee3eb0"},"vehicle_type_id":"4","last_reported":1741255850,"current_range_meters":6400,"station_id":"ce4bhb12rcd13ifvqem0","pricing_plan_id":"cebpf4jnsgd1na2vs0mg"},{"bike_id":"9993451f-799b-406b-a3da-253f53ed57ce","system_id":"levelo_inurba_marseille","lat":43.2465,"lon":5.38901,"is_reserved":false,"is_disabled":false,"rental_uris":{"android":"levelo://app?vid=9993451f-799b-406b-a3da-253f53ed57ce","ios":"levelo://app?vid=9993451f-799b-406b-a3da-253f53ed57ce"},"vehicle_type_id":"4","last_reported":1741255850,"current_range_meters":6400,"station_id":"ce4bhg12rcd13ifvqf60","pricing_plan_id":"cebpf4jnsgd1na2vs0mg"},{"bike_id":"52e5b3fd-1203-4c88-88f5-b8bf5c22f0ec","system_id":"levelo_inurba_marseille","lat":43.26689,"lon":5.38264,"is_reserved":false,"is_disabled":false,"rental_uris":{"android":"levelo://app?vid=52e5b3fd-1203-4c88-88f5-b8bf5c22f0ec","ios":"levelo://app?vid=52e5b3fd-1203-4c88-88f5-b8bf5c22f0ec"},"vehicle_type_id":"4","last_reported":1741255850,"current_range_meters":6400,"station_id":"ce4bhg92rcd13ifvqf90","pricing_plan_id":"cebpf4jnsgd1na2vs0mg"},{"bike_id":"9b961e80-4b52-4281-8069-573178879577","system_id":"levelo_inurba_marseille","lat":43.2407,"lon":5.37753,"is_reserved":false,"is_disabled":false,"rental_uris":{"android":"levelo://app?vid=9b961e80-4b52-4281-8069-573178879577","ios":"levelo://app?vid=9b961e80-4b52-4281-8069-573178879577"},"vehicle_type_id":"4","last_reported":1741255850,"current_range_meters":6400,"station_id":"ce4bhnp2rcd13ifvqgvg","pricing_plan_id":"cebpf4jnsgd1na2vs0mg"},{"bike_id":"3439a580-4b13-4596-bc3a-9d40342307f1","system_id":"levelo_inurba_marseille","lat":43.32112,"lon":5.36771,"is_reserved":false,"is_disabled":false,"rental_uris":{"android":"levelo://app?vid=3439a580-4b13-4596-bc3a-9d40342307f1","ios":"levelo://app?vid=3439a580-4b13-4596-bc3a-9d40342307f1"},"vehicle_type_id":"4","last_reported":1741255850,"current_range_meters":6400,"station_id":"ce4bhrh2rcd13ifvqhug","pricing_plan_id":"cebpf4jnsgd1na2vs0mg"},{"bike_id":"2f20afa8-c778-4563-982f-2f8bc94920c9","system_id":"levelo_inurba_marseille","lat":43.298413,"lon":5.362767,"is_reserved":false,"is_disabled":false,"rental_uris":{"android":"levelo://app?vid=2f20afa8-c778-4563-982f-2f8bc94920c9","ios":"levelo://app?vid=2f20afa8-c778-4563-982f-2f8bc94920c9"},"vehicle_type_id":"4","last_reported":1741255850,"current_range_meters":6800,"station_id":"ce4bgpp2rcd13ifvqc3g","pricing_plan_id":"cebpf4jnsgd1na2vs0mg"},{"bike_id":"e9993293-cb22-4b58-9104-8ef93003d618","system_id":"levelo_inurba_marseille","lat":43.26714,"lon":5.38257,"is_reserved":false,"is_disabled":false,"rental_uris":{"android":"levelo://app?vid=e9993293-cb22-4b58-9104-8ef93003d618","ios":"levelo://app?vid=e9993293-cb22-4b58-9104-8ef93003d618"},"vehicle_type_id":"4","last_reported":1741255850,"current_range_meters":6800,"station_id":"ce4bhg92rcd13ifvqf90","pricing_plan_id":"cebpf4jnsgd1na2vs0mg"},{"bike_id":"e59fccdd-f60b-4fcf-8101-4a747bffb1c1","system_id":"levelo_inurba_marseille","lat":43.24386,"lon":5.37057,"is_reserved":false,"is_disabled":false,"rental_uris":{"android":"levelo://app?vid=e59fccdd-f60b-4fcf-8101-4a747bffb1c1","ios":"levelo://app?vid=e59fccdd-f60b-4fcf-8101-4a747bffb1c1"},"vehicle_type_id":"4","last_reported":1741255850,"current_range_meters":6800,"station_id":"ce4bhhh2rcd13ifvqfk0","pricing_plan_id":"cebpf4jnsgd1na2vs0mg"},{"bike_id":"1c0978b7-e0b0-4c04-8863-236630968acd","system_id":"levelo_inurba_marseille","lat":43.25933,"lon":5.40909,"is_reserved":false,"is_disabled":false,"rental_uris":{"android":"levelo://app?vid=1c0978b7-e0b0-4c04-8863-236630968acd","ios":"levelo://app?vid=1c0978b7-e0b0-4c04-8863-236630968acd"},"vehicle_type_id":"4","last_reported":1741255850,"current_range_meters":6800,"station_id":"ce4bhm92rcd13ifvqglg","pricing_plan_id":"cebpf4jnsgd1na2vs0mg"},{"bike_id":"ff018375-a2a6-43a0-8b69-9ec01bac048c","system_id":"levelo_inurba_marseille","lat":43.26219,"lon":5.40459,"is_reserved":false,"is_disabled":false,"rental_uris":{"android":"levelo://app?vid=ff018375-a2a6-43a0-8b69-9ec01bac048c","ios":"levelo://app?vid=ff018375-a2a6-43a0-8b69-9ec01bac048c"},"vehicle_type_id":"4","last_reported":1741255850,"current_range_meters":6800,"station_id":"ce4bhmh2rcd13ifvqgmg","pricing_plan_id":"cebpf4jnsgd1na2vs0mg"},{"bike_id":"9494d460-8c40-438d-b53b-886daddc01a4","system_id":"levelo_inurba_marseille","lat":43.23141,"lon":5.4372,"is_reserved":false,"is_disabled":false,"rental_uris":{"android":"levelo://app?vid=9494d460-8c40-438d-b53b-886daddc01a4","ios":"levelo://app?vid=9494d460-8c40-438d-b53b-886daddc01a4"},"vehicle_type_id":"4","last_reported":1741255850,"current_range_meters":6800,"station_id":"ce4bhmp2rcd13ifvqgog","pricing_plan_id":"cebpf4jnsgd1na2vs0mg"},{"bike_id":"cdfbd217-a6f7-49fd-94b3-19969f91f64b","system_id":"levelo_inurba_marseille","lat":43.27485,"lon":5.42486,"is_reserved":false,"is_disabled":false,"rental_uris":{"android":"levelo://app?vid=cdfbd217-a6f7-49fd-94b3-19969f91f64b","ios":"levelo://app?vid=cdfbd217-a6f7-49fd-94b3-19969f91f64b"},"vehicle_type_id":"4","last_reported":1741255850,"current_range_meters":6800,"station_id":"ce4bhn92rcd13ifvqgrg","pricing_plan_id":"cebpf4jnsgd1na2vs0mg"},{"bike_id":"18393f06-00f5-40e4-aee4-a1f23e8a5d99","system_id":"levelo_inurba_marseille","lat":43.33598,"lon":5.41025,"is_reserved":false,"is_disabled":false,"rental_uris":{"android":"levelo://app?vid=18393f06-00f5-40e4-aee4-a1f23e8a5d99","ios":"levelo://app?vid=18393f06-00f5-40e4-aee4-a1f23e8a5d99"},"vehicle_type_id":"4","last_reported":1741255850,"current_range_meters":6800,"station_id":"ce4bhqh2rcd13ifvqhmg","pricing_plan_id":"cebpf4jnsgd1na2vs0mg"},{"bike_id":"23846524-cc4e-49fa-adf9-5d1ec42be611","system_id":"levelo_inurba_marseille","lat":43.28476,"lon":5.38414,"is_reserved":false,"is_disabled":false,"rental_uris":{"android":"levelo://app?vid=23846524-cc4e-49fa-adf9-5d1ec42be611","ios":"levelo://app?vid=23846524-cc4e-49fa-adf9-5d1ec42be611"},"vehicle_type_id":"4","last_reported":1741255850,"current_range_meters":7200,"station_id":"ce4bh512rcd13ifvqe3g","pricing_plan_id":"cebpf4jnsgd1na2vs0mg"},{"bike_id":"1ae679cc-613d-44de-9c49-10aa5cef907c","system_id":"levelo_inurba_marseille","lat":43.27509,"lon":5.42475,"is_reserved":false,"is_disabled":false,"rental_uris":{"android":"levelo://app?vid=1ae679cc-613d-44de-9c49-10aa5cef907c","ios":"levelo://app?vid=1ae679cc-613d-44de-9c49-10aa5cef907c"},"vehicle_type_id":"4","last_reported":1741255850,"current_range_meters":7200,"station_id":"ce4bhn92rcd13ifvqgrg","pricing_plan_id":"cebpf4jnsgd1na2vs0mg"},{"bike_id":"a4f9c0a7-37a3-4724-bf69-0d1843c8440e","system_id":"levelo_inurba_marseille","lat":43.24067,"lon":5.37777,"is_reserved":false,"is_disabled":false,"rental_uris":{"android":"levelo://app?vid=a4f9c0a7-37a3-4724-bf69-0d1843c8440e","ios":"levelo://app?vid=a4f9c0a7-37a3-4724-bf69-0d1843c8440e"},"vehicle_type_id":"4","last_reported":1741255850,"current_range_meters":7200,"station_id":"ce4bhnp2rcd13ifvqgvg","pricing_plan_id":"cebpf4jnsgd1na2vs0mg"},{"bike_id":"c55557ad-1ed5-4997-aee7-ac92107f14b6","system_id":"levelo_inurba_marseille","lat":43.2643,"lon":5.37501,"is_reserved":false,"is_disabled":false,"rental_uris":{"android":"levelo://app?vid=c55557ad-1ed5-4997-aee7-ac92107f14b6","ios":"levelo://app?vid=c55557ad-1ed5-4997-aee7-ac92107f14b6"},"vehicle_type_id":"4","last_reported":1741255850,"current_range_meters":8000,"station_id":"","pricing_plan_id":"cebpf4jnsgd1na2vs0mg"},{"bike_id":"b8290470-c10e-4ab5-a0c9-5da10862607f","system_id":"levelo_inurba_marseille","lat":43.29265,"lon":5.3762,"is_reserved":false,"is_disabled":false,"rental_uris":{"android":"levelo://app?vid=b8290470-c10e-4ab5-a0c9-5da10862607f","ios":"levelo://app?vid=b8290470-c10e-4ab5-a0c9-5da10862607f"},"vehicle_type_id":"4","last_reported":1741255850,"current_range_meters":8000,"station_id":"ce4bgi12rcd13ifvqb80","pricing_plan_id":"cebpf4jnsgd1na2vs0mg"},{"bike_id":"3d9eb982-08c4-48fd-8a22-290511608493","system_id":"levelo_inurba_marseille","lat":43.30446,"lon":5.37913,"is_reserved":false,"is_disabled":false,"rental_uris":{"android":"levelo://app?vid=3d9eb982-08c4-48fd-8a22-290511608493","ios":"levelo://app?vid=3d9eb982-08c4-48fd-8a22-290511608493"},"vehicle_type_id":"4","last_reported":1741255850,"current_range_meters":8000,"station_id":"ce4bgup2rcd13ifvqcn0","pricing_plan_id":"cebpf4jnsgd1na2vs0mg"},{"bike_id":"1c6b8c53-8538-4f72-9aea-5b2f0f394df4","system_id":"levelo_inurba_marseille","lat":43.30948,"lon":5.3903,"is_reserved":false,"is_disabled":false,"rental_uris":{"android":"levelo://app?vid=1c6b8c53-8538-4f72-9aea-5b2f0f394df4","ios":"levelo://app?vid=1c6b8c53-8538-4f72-9aea-5b2f0f394df4"},"vehicle_type_id":"4","last_reported":1741255850,"current_range_meters":8000,"station_id":"ce4bgup2rcd13ifvqco0","pricing_plan_id":"cebpf4jnsgd1na2vs0mg"},{"bike_id":"c50a98ff-98c7-4f0d-a925-dc9e8424f2a2","system_id":"levelo_inurba_marseille","lat":43.298715,"lon":5.39735,"is_reserved":false,"is_disabled":false,"rental_uris":{"android":"levelo://app?vid=c50a98ff-98c7-4f0d-a925-dc9e8424f2a2","ios":"levelo://app?vid=c50a98ff-98c7-4f0d-a925-dc9e8424f2a2"},"vehicle_type_id":"4","last_reported":1741255850,"current_range_meters":8000,"station_id":"ce4bh0h2rcd13ifvqd50","pricing_plan_id":"cebpf4jnsgd1na2vs0mg"},{"bike_id":"018fcf65-d40c-4d34-8076-41d6510e91bd","system_id":"levelo_inurba_marseille","lat":43.28156,"lon":5.42645,"is_reserved":false,"is_disabled":false,"rental_uris":{"android":"levelo://app?vid=018fcf65-d40c-4d34-8076-41d6510e91bd","ios":"levelo://app?vid=018fcf65-d40c-4d34-8076-41d6510e91bd"},"vehicle_type_id":"4","last_reported":1741255850,"current_range_meters":8000,"station_id":"ce4bhnh2rcd13ifvqgug","pricing_plan_id":"cebpf4jnsgd1na2vs0mg"},{"bike_id":"2e4a7bad-f325-40a8-bbf2-f5ce9ab01d68","system_id":"levelo_inurba_marseille","lat":43.24076,"lon":5.37751,"is_reserved":false,"is_disabled":false,"rental_uris":{"android":"levelo://app?vid=2e4a7bad-f325-40a8-bbf2-f5ce9ab01d68","ios":"levelo://app?vid=2e4a7bad-f325-40a8-bbf2-f5ce9ab01d68"},"vehicle_type_id":"4","last_reported":1741255850,"current_range_meters":8000,"station_id":"ce4bhnp2rcd13ifvqgvg","pricing_plan_id":"cebpf4jnsgd1na2vs0mg"},{"bike_id":"5730f579-c70c-4bce-bf8b-280c8dba4906","system_id":"levelo_inurba_marseille","lat":43.29524,"lon":5.38548,"is_reserved":false,"is_disabled":false,"rental_uris":{"android":"levelo://app?vid=5730f579-c70c-4bce-bf8b-280c8dba4906","ios":"levelo://app?vid=5730f579-c70c-4bce-bf8b-280c8dba4906"},"vehicle_type_id":"4","last_reported":1741255850,"current_range_meters":8400,"station_id":"ce4bgih2rcd13ifvqba0","pricing_plan_id":"cebpf4jnsgd1na2vs0mg"},{"bike_id":"ba284b4d-52cb-4655-9310-1536f6825bd5","system_id":"levelo_inurba_marseille","lat":43.30911,"lon":5.36842,"is_reserved":false,"is_disabled":false,"rental_uris":{"android":"levelo://app?vid=ba284b4d-52cb-4655-9310-1536f6825bd5","ios":"levelo://app?vid=ba284b4d-52cb-4655-9310-1536f6825bd5"},"vehicle_type_id":"4","last_reported":1741255850,"current_range_meters":8400,"station_id":"ce4bgn92rcd13ifvqbvg","pricing_plan_id":"cebpf4jnsgd1na2vs0mg"},{"bike_id":"26d4b932-429a-4b24-b3c4-081e0977dd5f","system_id":"levelo_inurba_marseille","lat":43.3014,"lon":5.37427,"is_reserved":false,"is_disabled":false,"rental_uris":{"android":"levelo://app?vid=26d4b932-429a-4b24-b3c4-081e0977dd5f","ios":"levelo://app?vid=26d4b932-429a-4b24-b3c4-081e0977dd5f"},"vehicle_type_id":"4","last_reported":1741255850,"current_range_meters":8400,"station_id":"ce4bgs92rcd13ifvqcc0","pricing_plan_id":"cebpf4jnsgd1na2vs0mg"},{"bike_id":"583d87bf-605a-49f5-891b-5c07c47b3d26","system_id":"levelo_inurba_marseille","lat":43.28856,"lon":5.3584,"is_reserved":false,"is_disabled":false,"rental_uris":{"android":"levelo://app?vid=583d87bf-605a-49f5-891b-5c07c47b3d26","ios":"levelo://app?vid=583d87bf-605a-49f5-891b-5c07c47b3d26"},"vehicle_type_id":"4","last_reported":1741255850,"current_range_meters":8400,"station_id":"ce4bhb12rcd13ifvqem0","pricing_plan_id":"cebpf4jnsgd1na2vs0mg"},{"bike_id":"ecb30204-856e-4551-b122-313eabd56e36","system_id":"levelo_inurba_marseille","lat":43.26939,"lon":5.38646,"is_reserved":false,"is_disabled":false,"rental_uris":{"android":"levelo://app?vid=ecb30204-856e-4551-b122-313eabd56e36","ios":"levelo://app?vid=ecb30204-856e-4551-b122-313eabd56e36"},"vehicle_type_id":"4","last_reported":1741255850,"current_range_meters":8400,"station_id":"ce4bhh92rcd13ifvqfh0","pricing_plan_id":"cebpf4jnsgd1na2vs0mg"},{"bike_id":"6051a79d-6e0b-4017-89d3-5f46c47b52a9","system_id":"levelo_inurba_marseille","lat":43.27999,"lon":5.4001,"is_reserved":false,"is_disabled":false,"rental_uris":{"android":"levelo://app?vid=6051a79d-6e0b-4017-89d3-5f46c47b52a9","ios":"levelo://app?vid=6051a79d-6e0b-4017-89d3-5f46c47b52a9"},"vehicle_type_id":"4","last_reported":1741255850,"current_range_meters":8400,"station_id":"ce4bho92rcd13ifvqh4g","pricing_plan_id":"cebpf4jnsgd1na2vs0mg"},{"bike_id":"87cc2b62-b442-4215-a043-611256d11643","system_id":"levelo_inurba_marseille","lat":43.31092,"lon":5.42429,"is_reserved":false,"is_disabled":false,"rental_uris":{"android":"levelo://app?vid=87cc2b62-b442-4215-a043-611256d11643","ios":"levelo://app?vid=87cc2b62-b442-4215-a043-611256d11643"},"vehicle_type_id":"4","last_reported":1741255850,"current_range_meters":8400,"station_id":"ce4bhp92rcd13ifvqhag","pricing_plan_id":"cebpf4jnsgd1na2vs0mg"},{"bike_id":"dcfce61a-aeb2-4e27-bfee-7d62e9660ef4","system_id":"levelo_inurba_marseille","lat":43.30272,"lon":5.37704,"is_reserved":false,"is_disabled":false,"rental_uris":{"android":"levelo://app?vid=dcfce61a-aeb2-4e27-bfee-7d62e9660ef4","ios":"levelo://app?vid=dcfce61a-aeb2-4e27-bfee-7d62e9660ef4"},"vehicle_type_id":"4","last_reported":1741255850,"current_range_meters":8800,"station_id":"ce4bguh2rcd13ifvqcj0","pricing_plan_id":"cebpf4jnsgd1na2vs0mg"},{"bike_id":"1175e10a-2697-4c7f-9f2f-d9be9b7e84bb","system_id":"levelo_inurba_marseille","lat":43.29276,"lon":5.40122,"is_reserved":false,"is_disabled":false,"rental_uris":{"android":"levelo://app?vid=1175e10a-2697-4c7f-9f2f-d9be9b7e84bb","ios":"levelo://app?vid=1175e10a-2697-4c7f-9f2f-d9be9b7e84bb"},"vehicle_type_id":"4","last_reported":1741255850,"current_range_meters":8800,"station_id":"ce4bh312rcd13ifvqdk0","pricing_plan_id":"cebpf4jnsgd1na2vs0mg"},{"bike_id":"fb9aec21-75b3-405a-8a9a-a58d4578e070","system_id":"levelo_inurba_marseille","lat":43.2849,"lon":5.38564,"is_reserved":false,"is_disabled":false,"rental_uris":{"android":"levelo://app?vid=fb9aec21-75b3-405a-8a9a-a58d4578e070","ios":"levelo://app?vid=fb9aec21-75b3-405a-8a9a-a58d4578e070"},"vehicle_type_id":"4","last_reported":1741255850,"current_range_meters":8800,"station_id":"ce4bh8p2rcd13ifvqeb0","pricing_plan_id":"cebpf4jnsgd1na2vs0mg"},{"bike_id":"85b21051-ddc6-4038-a7c1-a9f92926149a","system_id":"levelo_inurba_marseille","lat":43.27492,"lon":5.42457,"is_reserved":false,"is_disabled":false,"rental_uris":{"android":"levelo://app?vid=85b21051-ddc6-4038-a7c1-a9f92926149a","ios":"levelo://app?vid=85b21051-ddc6-4038-a7c1-a9f92926149a"},"vehicle_type_id":"4","last_reported":1741255850,"current_range_meters":8800,"station_id":"ce4bhn92rcd13ifvqgrg","pricing_plan_id":"cebpf4jnsgd1na2vs0mg"},{"bike_id":"afcdcaad-f65e-4223-b1e4-fddd0b138574","system_id":"levelo_inurba_marseille","lat":43.24078,"lon":5.37744,"is_reserved":false,"is_disabled":false,"rental_uris":{"android":"levelo://app?vid=afcdcaad-f65e-4223-b1e4-fddd0b138574","ios":"levelo://app?vid=afcdcaad-f65e-4223-b1e4-fddd0b138574"},"vehicle_type_id":"4","last_reported":1741255850,"current_range_meters":8800,"station_id":"ce4bhnp2rcd13ifvqgvg","pricing_plan_id":"cebpf4jnsgd1na2vs0mg"},{"bike_id":"86723d49-325c-4da0-97b3-2b48647b3a72","system_id":"levelo_inurba_marseille","lat":43.29956,"lon":5.4133,"is_reserved":false,"is_disabled":false,"rental_uris":{"android":"levelo://app?vid=86723d49-325c-4da0-97b3-2b48647b3a72","ios":"levelo://app?vid=86723d49-325c-4da0-97b3-2b48647b3a72"},"vehicle_type_id":"4","last_reported":1741255850,"current_range_meters":8800,"station_id":"ce4bhp12rcd13ifvqh9g","pricing_plan_id":"cebpf4jnsgd1na2vs0mg"},{"bike_id":"db4daa8a-ea17-4c05-a84d-96a44f56004a","system_id":"levelo_inurba_marseille","lat":43.33604,"lon":5.41014,"is_reserved":false,"is_disabled":false,"rental_uris":{"android":"levelo://app?vid=db4daa8a-ea17-4c05-a84d-96a44f56004a","ios":"levelo://app?vid=db4daa8a-ea17-4c05-a84d-96a44f56004a"},"vehicle_type_id":"4","last_reported":1741255850,"current_range_meters":8800,"station_id":"ce4bhqh2rcd13ifvqhmg","pricing_plan_id":"cebpf4jnsgd1na2vs0mg"},{"bike_id":"8e67c6c2-1f86-420e-855b-676e159ed831","system_id":"levelo_inurba_marseille","lat":43.23071,"lon":5.35502,"is_reserved":false,"is_disabled":false,"rental_uris":{"android":"levelo://app?vid=8e67c6c2-1f86-420e-855b-676e159ed831","ios":"levelo://app?vid=8e67c6c2-1f86-420e-855b-676e159ed831"},"vehicle_type_id":"4","last_reported":1741255850,"current_range_meters":8800,"station_id":"cpo3342slgdg3j2ifvpg","pricing_plan_id":"cebpf4jnsgd1na2vs0mg"},{"bike_id":"927f2df3-7e5f-4ba9-b6c0-d8097ecda74a","system_id":"levelo_inurba_marseille","lat":43.29525,"lon":5.38536,"is_reserved":false,"is_disabled":false,"rental_uris":{"android":"levelo://app?vid=927f2df3-7e5f-4ba9-b6c0-d8097ecda74a","ios":"levelo://app?vid=927f2df3-7e5f-4ba9-b6c0-d8097ecda74a"},"vehicle_type_id":"4","last_reported":1741255850,"current_range_meters":9200,"station_id":"ce4bgih2rcd13ifvqba0","pricing_plan_id":"cebpf4jnsgd1na2vs0mg"},{"bike_id":"9fc9ecf0-ae9f-4a14-a3f8-71d09644aa9c","system_id":"levelo_inurba_marseille","lat":43.31368,"lon":5.36709,"is_reserved":false,"is_disabled":false,"rental_uris":{"android":"levelo://app?vid=9fc9ecf0-ae9f-4a14-a3f8-71d09644aa9c","ios":"levelo://app?vid=9fc9ecf0-ae9f-4a14-a3f8-71d09644aa9c"},"vehicle_type_id":"4","last_reported":1741255850,"current_range_meters":9200,"station_id":"ce4bgr92rcd13ifvqc6g","pricing_plan_id":"cebpf4jnsgd1na2vs0mg"},{"bike_id":"dc12090d-3e06-49f9-b179-7b5aa1aa1b66","system_id":"levelo_inurba_marseille","lat":43.30955,"lon":5.39043,"is_reserved":false,"is_disabled":false,"rental_uris":{"android":"levelo://app?vid=dc12090d-3e06-49f9-b179-7b5aa1aa1b66","ios":"levelo://app?vid=dc12090d-3e06-49f9-b179-7b5aa1aa1b66"},"vehicle_type_id":"4","last_reported":1741255850,"current_range_meters":9200,"station_id":"ce4bgup2rcd13ifvqco0","pricing_plan_id":"cebpf4jnsgd1na2vs0mg"},{"bike_id":"f9dd1e77-a24f-43b0-97a8-fd0ef3b23cb2","system_id":"levelo_inurba_marseille","lat":43.2848,"lon":5.38553,"is_reserved":false,"is_disabled":false,"rental_uris":{"android":"levelo://app?vid=f9dd1e77-a24f-43b0-97a8-fd0ef3b23cb2","ios":"levelo://app?vid=f9dd1e77-a24f-43b0-97a8-fd0ef3b23cb2"},"vehicle_type_id":"4","last_reported":1741255850,"current_range_meters":9200,"station_id":"ce4bh8p2rcd13ifvqeb0","pricing_plan_id":"cebpf4jnsgd1na2vs0mg"},{"bike_id":"0e329987-b7e9-4c9e-b643-21376295aaed","system_id":"levelo_inurba_marseille","lat":43.28625,"lon":5.3511,"is_reserved":false,"is_disabled":false,"rental_uris":{"android":"levelo://app?vid=0e329987-b7e9-4c9e-b643-21376295aaed","ios":"levelo://app?vid=0e329987-b7e9-4c9e-b643-21376295aaed"},"vehicle_type_id":"4","last_reported":1741255850,"current_range_meters":9200,"station_id":"ce4bhch2rcd13ifvqeug","pricing_plan_id":"cebpf4jnsgd1na2vs0mg"},{"bike_id":"7be10eac-e616-4904-8cdc-c543b04d589f","system_id":"levelo_inurba_marseille","lat":43.24173,"lon":5.36423,"is_reserved":false,"is_disabled":false,"rental_uris":{"android":"levelo://app?vid=7be10eac-e616-4904-8cdc-c543b04d589f","ios":"levelo://app?vid=7be10eac-e616-4904-8cdc-c543b04d589f"},"vehicle_type_id":"4","last_reported":1741255850,"current_range_meters":9200,"station_id":"cpo36qri1sfpv3e86is0","pricing_plan_id":"cebpf4jnsgd1na2vs0mg"},{"bike_id":"1a745b30-9e09-468a-ac27-64787cfb2ab8","system_id":"levelo_inurba_marseille","lat":43.29566,"lon":5.37503,"is_reserved":false,"is_disabled":false,"rental_uris":{"android":"levelo://app?vid=1a745b30-9e09-468a-ac27-64787cfb2ab8","ios":"levelo://app?vid=1a745b30-9e09-468a-ac27-64787cfb2ab8"},"vehicle_type_id":"4","last_reported":1741255850,"current_range_meters":9600,"station_id":"ce4bgh92rcd13ifvqb50","pricing_plan_id":"cebpf4jnsgd1na2vs0mg"},{"bike_id":"50d0768d-1a71-4e25-aee1-73e9ed90940f","system_id":"levelo_inurba_marseille","lat":43.30533,"lon":5.36709,"is_reserved":false,"is_disabled":false,"rental_uris":{"android":"levelo://app?vid=50d0768d-1a71-4e25-aee1-73e9ed90940f","ios":"levelo://app?vid=50d0768d-1a71-4e25-aee1-73e9ed90940f"},"vehicle_type_id":"4","last_reported":1741255850,"current_range_meters":9600,"station_id":"ce4bgrp2rcd13ifvqc9g","pricing_plan_id":"cebpf4jnsgd1na2vs0mg"},{"bike_id":"3892e36d-885c-486f-aeed-bc631db157b0","system_id":"levelo_inurba_marseille","lat":43.30468,"lon":5.37905,"is_reserved":false,"is_disabled":false,"rental_uris":{"android":"levelo://app?vid=3892e36d-885c-486f-aeed-bc631db157b0","ios":"levelo://app?vid=3892e36d-885c-486f-aeed-bc631db157b0"},"vehicle_type_id":"4","last_reported":1741255850,"current_range_meters":9600,"station_id":"ce4bgup2rcd13ifvqcn0","pricing_plan_id":"cebpf4jnsgd1na2vs0mg"},{"bike_id":"c4ffd4d5-c13c-41ad-8c9d-cf7549808f5e","system_id":"levelo_inurba_marseille","lat":43.28459,"lon":5.35899,"is_reserved":false,"is_disabled":false,"rental_uris":{"android":"levelo://app?vid=c4ffd4d5-c13c-41ad-8c9d-cf7549808f5e","ios":"levelo://app?vid=c4ffd4d5-c13c-41ad-8c9d-cf7549808f5e"},"vehicle_type_id":"4","last_reported":1741255850,"current_range_meters":9600,"station_id":"ce4bhah2rcd13ifvqei0","pricing_plan_id":"cebpf4jnsgd1na2vs0mg"},{"bike_id":"fdde8103-1f2a-4455-bcfa-e1d74ecb0194","system_id":"levelo_inurba_marseille","lat":43.2781,"lon":5.40712,"is_reserved":false,"is_disabled":false,"rental_uris":{"android":"levelo://app?vid=fdde8103-1f2a-4455-bcfa-e1d74ecb0194","ios":"levelo://app?vid=fdde8103-1f2a-4455-bcfa-e1d74ecb0194"},"vehicle_type_id":"4","last_reported":1741255850,"current_range_meters":9600,"station_id":"ce4bhnh2rcd13ifvqgtg","pricing_plan_id":"cebpf4jnsgd1na2vs0mg"},{"bike_id":"0f0c01f1-8344-478d-bd63-41fbc91ad188","system_id":"levelo_inurba_marseille","lat":43.24063,"lon":5.37764,"is_reserved":false,"is_disabled":false,"rental_uris":{"android":"levelo://app?vid=0f0c01f1-8344-478d-bd63-41fbc91ad188","ios":"levelo://app?vid=0f0c01f1-8344-478d-bd63-41fbc91ad188"},"vehicle_type_id":"4","last_reported":1741255850,"current_range_meters":9600,"station_id":"ce4bhnp2rcd13ifvqgvg","pricing_plan_id":"cebpf4jnsgd1na2vs0mg"},{"bike_id":"0ec63000-c3e6-4ebf-aa56-a6b75770e1d6","system_id":"levelo_inurba_marseille","lat":43.29267,"lon":5.37615,"is_reserved":false,"is_disabled":false,"rental_uris":{"android":"levelo://app?vid=0ec63000-c3e6-4ebf-aa56-a6b75770e1d6","ios":"levelo://app?vid=0ec63000-c3e6-4ebf-aa56-a6b75770e1d6"},"vehicle_type_id":"4","last_reported":1741255850,"current_range_meters":10000,"station_id":"ce4bgi12rcd13ifvqb80","pricing_plan_id":"cebpf4jnsgd1na2vs0mg"},{"bike_id":"c73740cd-c6d7-4fd4-9ef4-71dcda844117","system_id":"levelo_inurba_marseille","lat":43.31245,"lon":5.36848,"is_reserved":false,"is_disabled":false,"rental_uris":{"android":"levelo://app?vid=c73740cd-c6d7-4fd4-9ef4-71dcda844117","ios":"levelo://app?vid=c73740cd-c6d7-4fd4-9ef4-71dcda844117"},"vehicle_type_id":"4","last_reported":1741255850,"current_range_meters":10000,"station_id":"ce4bgl92rcd13ifvqbq0","pricing_plan_id":"cebpf4jnsgd1na2vs0mg"},{"bike_id":"d042490b-89be-4965-8498-025836790f65","system_id":"levelo_inurba_marseille","lat":43.2594,"lon":5.40903,"is_reserved":false,"is_disabled":false,"rental_uris":{"android":"levelo://app?vid=d042490b-89be-4965-8498-025836790f65","ios":"levelo://app?vid=d042490b-89be-4965-8498-025836790f65"},"vehicle_type_id":"4","last_reported":1741255850,"current_range_meters":10000,"station_id":"ce4bhm92rcd13ifvqglg","pricing_plan_id":"cebpf4jnsgd1na2vs0mg"},{"bike_id":"9208d63c-369f-4c4e-a7fc-9ad972621275","system_id":"levelo_inurba_marseille","lat":43.25924,"lon":5.40906,"is_reserved":false,"is_disabled":false,"rental_uris":{"android":"levelo://app?vid=9208d63c-369f-4c4e-a7fc-9ad972621275","ios":"levelo://app?vid=9208d63c-369f-4c4e-a7fc-9ad972621275"},"vehicle_type_id":"4","last_reported":1741255850,"current_range_meters":10000,"station_id":"ce4bhm92rcd13ifvqglg","pricing_plan_id":"cebpf4jnsgd1na2vs0mg"},{"bike_id":"3f012b55-43c2-4f72-af68-bad9b36f123a","system_id":"levelo_inurba_marseille","lat":43.262218,"lon":5.404496,"is_reserved":false,"is_disabled":false,"rental_uris":{"android":"levelo://app?vid=3f012b55-43c2-4f72-af68-bad9b36f123a","ios":"levelo://app?vid=3f012b55-43c2-4f72-af68-bad9b36f123a"},"vehicle_type_id":"4","last_reported":1741255850,"current_range_meters":10000,"station_id":"ce4bhmh2rcd13ifvqgmg","pricing_plan_id":"cebpf4jnsgd1na2vs0mg"},{"bike_id":"bfec0831-cf8f-40a3-b576-b0a769dfdbbb","system_id":"levelo_inurba_marseille","lat":43.29967,"lon":5.41324,"is_reserved":false,"is_disabled":false,"rental_uris":{"android":"levelo://app?vid=bfec0831-cf8f-40a3-b576-b0a769dfdbbb","ios":"levelo://app?vid=bfec0831-cf8f-40a3-b576-b0a769dfdbbb"},"vehicle_type_id":"4","last_reported":1741255850,"current_range_meters":10000,"station_id":"ce4bhp12rcd13ifvqh9g","pricing_plan_id":"cebpf4jnsgd1na2vs0mg"},{"bike_id":"e0c0bec3-454a-410d-a60f-3aed516ec149","system_id":"levelo_inurba_marseille","lat":43.23212,"lon":5.35557,"is_reserved":false,"is_disabled":false,"rental_uris":{"android":"levelo://app?vid=e0c0bec3-454a-410d-a60f-3aed516ec149","ios":"levelo://app?vid=e0c0bec3-454a-410d-a60f-3aed516ec149"},"vehicle_type_id":"4","last_reported":1741255850,"current_range_meters":10000,"station_id":"ce4bhu92rcd13ifvqi70","pricing_plan_id":"cebpf4jnsgd1na2vs0mg"},{"bike_id":"deccb326-0579-4f88-8ded-8a796f163b88","system_id":"levelo_inurba_marseille","lat":43.31437,"lon":5.37625,"is_reserved":false,"is_disabled":false,"rental_uris":{"android":"levelo://app?vid=deccb326-0579-4f88-8ded-8a796f163b88","ios":"levelo://app?vid=deccb326-0579-4f88-8ded-8a796f163b88"},"vehicle_type_id":"4","last_reported":1741255850,"current_range_meters":10800,"station_id":"","pricing_plan_id":"cebpf4jnsgd1na2vs0mg"},{"bike_id":"c738f12d-e3a3-49a2-90a6-56758e105a91","system_id":"levelo_inurba_marseille","lat":43.29885,"lon":5.39683,"is_reserved":false,"is_disabled":false,"rental_uris":{"android":"levelo://app?vid=c738f12d-e3a3-49a2-90a6-56758e105a91","ios":"levelo://app?vid=c738f12d-e3a3-49a2-90a6-56758e105a91"},"vehicle_type_id":"4","last_reported":1741255850,"current_range_meters":10800,"station_id":"ce4bh0h2rcd13ifvqd50","pricing_plan_id":"cebpf4jnsgd1na2vs0mg"},{"bike_id":"bfe2863b-ce82-401c-9059-3c9df85d1b2e","system_id":"levelo_inurba_marseille","lat":43.30214,"lon":5.39464,"is_reserved":false,"is_disabled":false,"rental_uris":{"android":"levelo://app?vid=bfe2863b-ce82-401c-9059-3c9df85d1b2e","ios":"levelo://app?vid=bfe2863b-ce82-401c-9059-3c9df85d1b2e"},"vehicle_type_id":"4","last_reported":1741255850,"current_range_meters":10800,"station_id":"ce4bh0p2rcd13ifvqd70","pricing_plan_id":"cebpf4jnsgd1na2vs0mg"},{"bike_id":"12dc18f6-3070-4c2f-97de-94cc94625f11","system_id":"levelo_inurba_marseille","lat":43.26693,"lon":5.38274,"is_reserved":false,"is_disabled":false,"rental_uris":{"android":"levelo://app?vid=12dc18f6-3070-4c2f-97de-94cc94625f11","ios":"levelo://app?vid=12dc18f6-3070-4c2f-97de-94cc94625f11"},"vehicle_type_id":"4","last_reported":1741255850,"current_range_meters":10800,"station_id":"ce4bhg92rcd13ifvqf90","pricing_plan_id":"cebpf4jnsgd1na2vs0mg"},{"bike_id":"7adfba6e-40f6-457a-aa9b-e019e32290c1","system_id":"levelo_inurba_marseille","lat":43.26682,"lon":5.38269,"is_reserved":false,"is_disabled":false,"rental_uris":{"android":"levelo://app?vid=7adfba6e-40f6-457a-aa9b-e019e32290c1","ios":"levelo://app?vid=7adfba6e-40f6-457a-aa9b-e019e32290c1"},"vehicle_type_id":"4","last_reported":1741255850,"current_range_meters":10800,"station_id":"ce4bhg92rcd13ifvqf90","pricing_plan_id":"cebpf4jnsgd1na2vs0mg"},{"bike_id":"c8607335-a310-4673-9399-5c2e04ac750a","system_id":"levelo_inurba_marseille","lat":43.23153,"lon":5.43718,"is_reserved":false,"is_disabled":false,"rental_uris":{"android":"levelo://app?vid=c8607335-a310-4673-9399-5c2e04ac750a","ios":"levelo://app?vid=c8607335-a310-4673-9399-5c2e04ac750a"},"vehicle_type_id":"4","last_reported":1741255850,"current_range_meters":10800,"station_id":"ce4bhmp2rcd13ifvqgog","pricing_plan_id":"cebpf4jnsgd1na2vs0mg"},{"bike_id":"2f13ac6e-5ae7-4fa4-ada4-d67c6ba6ff87","system_id":"levelo_inurba_marseille","lat":43.2407,"lon":5.37763,"is_reserved":false,"is_disabled":false,"rental_uris":{"android":"levelo://app?vid=2f13ac6e-5ae7-4fa4-ada4-d67c6ba6ff87","ios":"levelo://app?vid=2f13ac6e-5ae7-4fa4-ada4-d67c6ba6ff87"},"vehicle_type_id":"4","last_reported":1741255850,"current_range_meters":10800,"station_id":"ce4bhnp2rcd13ifvqgvg","pricing_plan_id":"cebpf4jnsgd1na2vs0mg"},{"bike_id":"9109bf38-4e22-4f79-95b6-2d4197ce8722","system_id":"levelo_inurba_marseille","lat":43.2407,"lon":5.37759,"is_reserved":false,"is_disabled":false,"rental_uris":{"android":"levelo://app?vid=9109bf38-4e22-4f79-95b6-2d4197ce8722","ios":"levelo://app?vid=9109bf38-4e22-4f79-95b6-2d4197ce8722"},"vehicle_type_id":"4","last_reported":1741255850,"current_range_meters":10800,"station_id":"ce4bhnp2rcd13ifvqgvg","pricing_plan_id":"cebpf4jnsgd1na2vs0mg"},{"bike_id":"7f1905bf-da4d-4f13-af14-c5d46804e585","system_id":"levelo_inurba_marseille","lat":43.23186,"lon":5.35576,"is_reserved":false,"is_disabled":false,"rental_uris":{"android":"levelo://app?vid=7f1905bf-da4d-4f13-af14-c5d46804e585","ios":"levelo://app?vid=7f1905bf-da4d-4f13-af14-c5d46804e585"},"vehicle_type_id":"4","last_reported":1741255850,"current_range_meters":10800,"station_id":"ce4bhu92rcd13ifvqi70","pricing_plan_id":"cebpf4jnsgd1na2vs0mg"},{"bike_id":"63815b6e-f9bf-4ae0-9cc4-53a2a981b401","system_id":"levelo_inurba_marseille","lat":43.26802,"lon":5.40268,"is_reserved":false,"is_disabled":false,"rental_uris":{"android":"levelo://app?vid=63815b6e-f9bf-4ae0-9cc4-53a2a981b401","ios":"levelo://app?vid=63815b6e-f9bf-4ae0-9cc4-53a2a981b401"},"vehicle_type_id":"4","last_reported":1741255850,"current_range_meters":10800,"station_id":"ce501612rcd8frsf0b60","pricing_plan_id":"cebpf4jnsgd1na2vs0mg"},{"bike_id":"5e1e23fa-c9a1-4e0c-be84-bf81860921f1","system_id":"levelo_inurba_marseille","lat":43.29575,"lon":5.375111,"is_reserved":false,"is_disabled":false,"rental_uris":{"android":"levelo://app?vid=5e1e23fa-c9a1-4e0c-be84-bf81860921f1","ios":"levelo://app?vid=5e1e23fa-c9a1-4e0c-be84-bf81860921f1"},"vehicle_type_id":"4","last_reported":1741255850,"current_range_meters":11200,"station_id":"ce4bgh92rcd13ifvqb50","pricing_plan_id":"cebpf4jnsgd1na2vs0mg"},{"bike_id":"beb2a1e6-6c51-4fae-9960-e338ac3eafa4","system_id":"levelo_inurba_marseille","lat":43.29295,"lon":5.37424,"is_reserved":false,"is_disabled":false,"rental_uris":{"android":"levelo://app?vid=beb2a1e6-6c51-4fae-9960-e338ac3eafa4","ios":"levelo://app?vid=beb2a1e6-6c51-4fae-9960-e338ac3eafa4"},"vehicle_type_id":"4","last_reported":1741255850,"current_range_meters":11200,"station_id":"ce4bgi12rcd13ifvqb70","pricing_plan_id":"cebpf4jnsgd1na2vs0mg"},{"bike_id":"20553fcf-34c9-4df9-9c9d-05a4b88d4d5f","system_id":"levelo_inurba_marseille","lat":43.29585,"lon":5.367428,"is_reserved":false,"is_disabled":false,"rental_uris":{"android":"levelo://app?vid=20553fcf-34c9-4df9-9c9d-05a4b88d4d5f","ios":"levelo://app?vid=20553fcf-34c9-4df9-9c9d-05a4b88d4d5f"},"vehicle_type_id":"4","last_reported":1741255850,"current_range_meters":11200,"station_id":"ce4bgph2rcd13ifvqc2g","pricing_plan_id":"cebpf4jnsgd1na2vs0mg"},{"bike_id":"d92840e4-0d01-49f9-98d1-8cf92997218e","system_id":"levelo_inurba_marseille","lat":43.30467,"lon":5.37902,"is_reserved":false,"is_disabled":false,"rental_uris":{"android":"levelo://app?vid=d92840e4-0d01-49f9-98d1-8cf92997218e","ios":"levelo://app?vid=d92840e4-0d01-49f9-98d1-8cf92997218e"},"vehicle_type_id":"4","last_reported":1741255850,"current_range_meters":11200,"station_id":"ce4bgup2rcd13ifvqcn0","pricing_plan_id":"cebpf4jnsgd1na2vs0mg"},{"bike_id":"614f7100-d84c-445e-9173-96d0105f8002","system_id":"levelo_inurba_marseille","lat":43.30281,"lon":5.39662,"is_reserved":false,"is_disabled":false,"rental_uris":{"android":"levelo://app?vid=614f7100-d84c-445e-9173-96d0105f8002","ios":"levelo://app?vid=614f7100-d84c-445e-9173-96d0105f8002"},"vehicle_type_id":"4","last_reported":1741255850,"current_range_meters":11200,"station_id":"ce4bh012rcd13ifvqd10","pricing_plan_id":"cebpf4jnsgd1na2vs0mg"},{"bike_id":"9d4179d8-6839-44d6-8852-d057204bd7bc","system_id":"levelo_inurba_marseille","lat":43.29103,"lon":5.38134,"is_reserved":false,"is_disabled":false,"rental_uris":{"android":"levelo://app?vid=9d4179d8-6839-44d6-8852-d057204bd7bc","ios":"levelo://app?vid=9d4179d8-6839-44d6-8852-d057204bd7bc"},"vehicle_type_id":"4","last_reported":1741255850,"current_range_meters":11200,"station_id":"ce4bh512rcd13ifvqe2g","pricing_plan_id":"cebpf4jnsgd1na2vs0mg"},{"bike_id":"3098e5cb-72fe-4a1f-894f-573d0bbdbe45","system_id":"levelo_inurba_marseille","lat":43.27425,"lon":5.3942,"is_reserved":false,"is_disabled":false,"rental_uris":{"android":"levelo://app?vid=3098e5cb-72fe-4a1f-894f-573d0bbdbe45","ios":"levelo://app?vid=3098e5cb-72fe-4a1f-894f-573d0bbdbe45"},"vehicle_type_id":"4","last_reported":1741255850,"current_range_meters":11200,"station_id":"ce4bhdp2rcd13ifvqf20","pricing_plan_id":"cebpf4jnsgd1na2vs0mg"},{"bike_id":"0b3cb245-c1ab-4265-9e03-36f6b9bfa685","system_id":"levelo_inurba_marseille","lat":43.23073,"lon":5.35495,"is_reserved":false,"is_disabled":false,"rental_uris":{"android":"levelo://app?vid=0b3cb245-c1ab-4265-9e03-36f6b9bfa685","ios":"levelo://app?vid=0b3cb245-c1ab-4265-9e03-36f6b9bfa685"},"vehicle_type_id":"4","last_reported":1741255850,"current_range_meters":11200,"station_id":"cpo3342slgdg3j2ifvpg","pricing_plan_id":"cebpf4jnsgd1na2vs0mg"},{"bike_id":"0d6e93d9-402d-4aae-a3b4-bd42601620d3","system_id":"levelo_inurba_marseille","lat":43.29535,"lon":5.38552,"is_reserved":false,"is_disabled":false,"rental_uris":{"android":"levelo://app?vid=0d6e93d9-402d-4aae-a3b4-bd42601620d3","ios":"levelo://app?vid=0d6e93d9-402d-4aae-a3b4-bd42601620d3"},"vehicle_type_id":"4","last_reported":1741255850,"current_range_meters":11600,"station_id":"ce4bgih2rcd13ifvqba0","pricing_plan_id":"cebpf4jnsgd1na2vs0mg"},{"bike_id":"edabf8d1-c932-4987-9e4e-3d8dc67b5135","system_id":"levelo_inurba_marseille","lat":43.27967,"lon":5.3875,"is_reserved":false,"is_disabled":false,"rental_uris":{"android":"levelo://app?vid=edabf8d1-c932-4987-9e4e-3d8dc67b5135","ios":"levelo://app?vid=edabf8d1-c932-4987-9e4e-3d8dc67b5135"},"vehicle_type_id":"4","last_reported":1741255850,"current_range_meters":12000,"station_id":"ce4bhg12rcd13ifvqf80","pricing_plan_id":"cebpf4jnsgd1na2vs0mg"},{"bike_id":"1e527ec4-d967-4f01-ae80-60decf20dda9","system_id":"levelo_inurba_marseille","lat":43.26683,"lon":5.38271,"is_reserved":false,"is_disabled":false,"rental_uris":{"android":"levelo://app?vid=1e527ec4-d967-4f01-ae80-60decf20dda9","ios":"levelo://app?vid=1e527ec4-d967-4f01-ae80-60decf20dda9"},"vehicle_type_id":"4","last_reported":1741255850,"current_range_meters":12000,"station_id":"ce4bhg92rcd13ifvqf90","pricing_plan_id":"cebpf4jnsgd1na2vs0mg"},{"bike_id":"74ef305b-8c9c-452f-bc4a-15f57e847ae0","system_id":"levelo_inurba_marseille","lat":43.25716,"lon":5.41109,"is_reserved":false,"is_disabled":false,"rental_uris":{"android":"levelo://app?vid=74ef305b-8c9c-452f-bc4a-15f57e847ae0","ios":"levelo://app?vid=74ef305b-8c9c-452f-bc4a-15f57e847ae0"},"vehicle_type_id":"4","last_reported":1741255850,"current_range_meters":12000,"station_id":"ce4bhkp2rcd13ifvqgd0","pricing_plan_id":"cebpf4jnsgd1na2vs0mg"},{"bike_id":"fb17b47e-3c41-4002-8ae3-c72bd0a49aa8","system_id":"levelo_inurba_marseille","lat":43.30472,"lon":5.37906,"is_reserved":false,"is_disabled":false,"rental_uris":{"android":"levelo://app?vid=fb17b47e-3c41-4002-8ae3-c72bd0a49aa8","ios":"levelo://app?vid=fb17b47e-3c41-4002-8ae3-c72bd0a49aa8"},"vehicle_type_id":"4","last_reported":1741255850,"current_range_meters":12400,"station_id":"ce4bgup2rcd13ifvqcn0","pricing_plan_id":"cebpf4jnsgd1na2vs0mg"},{"bike_id":"26c08652-4f6a-4369-8a96-05a68e6bf263","system_id":"levelo_inurba_marseille","lat":43.29102,"lon":5.38131,"is_reserved":false,"is_disabled":false,"rental_uris":{"android":"levelo://app?vid=26c08652-4f6a-4369-8a96-05a68e6bf263","ios":"levelo://app?vid=26c08652-4f6a-4369-8a96-05a68e6bf263"},"vehicle_type_id":"4","last_reported":1741255850,"current_range_meters":12400,"station_id":"ce4bh512rcd13ifvqe2g","pricing_plan_id":"cebpf4jnsgd1na2vs0mg"},{"bike_id":"76ccea9c-0963-4678-bd6c-2ee15628fca7","system_id":"levelo_inurba_marseille","lat":43.30613,"lon":5.36716,"is_reserved":false,"is_disabled":false,"rental_uris":{"android":"levelo://app?vid=76ccea9c-0963-4678-bd6c-2ee15628fca7","ios":"levelo://app?vid=76ccea9c-0963-4678-bd6c-2ee15628fca7"},"vehicle_type_id":"4","last_reported":1741255850,"current_range_meters":12800,"station_id":"ce4bgrp2rcd13ifvqc9g","pricing_plan_id":"cebpf4jnsgd1na2vs0mg"},{"bike_id":"e9ea0b14-f81c-40e0-9aad-18b138d7f8c8","system_id":"levelo_inurba_marseille","lat":43.30122,"lon":5.37426,"is_reserved":false,"is_disabled":false,"rental_uris":{"android":"levelo://app?vid=e9ea0b14-f81c-40e0-9aad-18b138d7f8c8","ios":"levelo://app?vid=e9ea0b14-f81c-40e0-9aad-18b138d7f8c8"},"vehicle_type_id":"4","last_reported":1741255850,"current_range_meters":12800,"station_id":"ce4bgs92rcd13ifvqcc0","pricing_plan_id":"cebpf4jnsgd1na2vs0mg"},{"bike_id":"6fdd68a1-ddb0-4f6d-8799-d42742646d95","system_id":"levelo_inurba_marseille","lat":43.29411,"lon":5.3863,"is_reserved":false,"is_disabled":false,"rental_uris":{"android":"levelo://app?vid=6fdd68a1-ddb0-4f6d-8799-d42742646d95","ios":"levelo://app?vid=6fdd68a1-ddb0-4f6d-8799-d42742646d95"},"vehicle_type_id":"4","last_reported":1741255850,"current_range_meters":12800,"station_id":"ce4bh2h2rcd13ifvqdh0","pricing_plan_id":"cebpf4jnsgd1na2vs0mg"},{"bike_id":"e0fb2c78-eac2-4ca1-8d1c-5606bae9b50b","system_id":"levelo_inurba_marseille","lat":43.265694,"lon":5.39035,"is_reserved":false,"is_disabled":false,"rental_uris":{"android":"levelo://app?vid=e0fb2c78-eac2-4ca1-8d1c-5606bae9b50b","ios":"levelo://app?vid=e0fb2c78-eac2-4ca1-8d1c-5606bae9b50b"},"vehicle_type_id":"4","last_reported":1741255850,"current_range_meters":12800,"station_id":"ce4bhe12rcd13ifvqf30","pricing_plan_id":"cebpf4jnsgd1na2vs0mg"},{"bike_id":"caea0c3c-f1ba-4dcc-9066-7af9fbeab807","system_id":"levelo_inurba_marseille","lat":43.26924,"lon":5.38934,"is_reserved":false,"is_disabled":false,"rental_uris":{"android":"levelo://app?vid=caea0c3c-f1ba-4dcc-9066-7af9fbeab807","ios":"levelo://app?vid=caea0c3c-f1ba-4dcc-9066-7af9fbeab807"},"vehicle_type_id":"4","last_reported":1741255850,"current_range_meters":12800,"station_id":"ce4bhhh2rcd13ifvqfl0","pricing_plan_id":"cebpf4jnsgd1na2vs0mg"},{"bike_id":"f927a9c8-5d84-472f-b8fd-88f2fc3bc3e6","system_id":"levelo_inurba_marseille","lat":43.29892,"lon":5.43661,"is_reserved":false,"is_disabled":false,"rental_uris":{"android":"levelo://app?vid=f927a9c8-5d84-472f-b8fd-88f2fc3bc3e6","ios":"levelo://app?vid=f927a9c8-5d84-472f-b8fd-88f2fc3bc3e6"},"vehicle_type_id":"4","last_reported":1741255850,"current_range_meters":12800,"station_id":"ce4bhpp2rcd13ifvqhfg","pricing_plan_id":"cebpf4jnsgd1na2vs0mg"},{"bike_id":"874c23c8-e11f-44da-acf3-2a35d786f614","system_id":"levelo_inurba_marseille","lat":43.32055,"lon":5.41562,"is_reserved":false,"is_disabled":false,"rental_uris":{"android":"levelo://app?vid=874c23c8-e11f-44da-acf3-2a35d786f614","ios":"levelo://app?vid=874c23c8-e11f-44da-acf3-2a35d786f614"},"vehicle_type_id":"4","last_reported":1741255850,"current_range_meters":12800,"station_id":"ce4bhq92rcd13ifvqhkg","pricing_plan_id":"cebpf4jnsgd1na2vs0mg"},{"bike_id":"104311c2-af82-4e6b-9e5f-ecc4efcb66d3","system_id":"levelo_inurba_marseille","lat":43.33621,"lon":5.40967,"is_reserved":false,"is_disabled":false,"rental_uris":{"android":"levelo://app?vid=104311c2-af82-4e6b-9e5f-ecc4efcb66d3","ios":"levelo://app?vid=104311c2-af82-4e6b-9e5f-ecc4efcb66d3"},"vehicle_type_id":"4","last_reported":1741255850,"current_range_meters":12800,"station_id":"ce4bhqh2rcd13ifvqhmg","pricing_plan_id":"cebpf4jnsgd1na2vs0mg"},{"bike_id":"9ec83695-2c29-406b-930c-97d35d980aad","system_id":"levelo_inurba_marseille","lat":43.31373,"lon":5.36687,"is_reserved":false,"is_disabled":false,"rental_uris":{"android":"levelo://app?vid=9ec83695-2c29-406b-930c-97d35d980aad","ios":"levelo://app?vid=9ec83695-2c29-406b-930c-97d35d980aad"},"vehicle_type_id":"4","last_reported":1741255850,"current_range_meters":13600,"station_id":"ce4bgr92rcd13ifvqc6g","pricing_plan_id":"cebpf4jnsgd1na2vs0mg"},{"bike_id":"5c7f1c8e-ba6b-4437-a358-e43332a864df","system_id":"levelo_inurba_marseille","lat":43.30207,"lon":5.39468,"is_reserved":false,"is_disabled":false,"rental_uris":{"android":"levelo://app?vid=5c7f1c8e-ba6b-4437-a358-e43332a864df","ios":"levelo://app?vid=5c7f1c8e-ba6b-4437-a358-e43332a864df"},"vehicle_type_id":"4","last_reported":1741255850,"current_range_meters":13600,"station_id":"ce4bh0p2rcd13ifvqd70","pricing_plan_id":"cebpf4jnsgd1na2vs0mg"},{"bike_id":"349240b9-e04d-4917-8aee-41a90c91a814","system_id":"levelo_inurba_marseille","lat":43.23963,"lon":5.36632,"is_reserved":false,"is_disabled":false,"rental_uris":{"android":"levelo://app?vid=349240b9-e04d-4917-8aee-41a90c91a814","ios":"levelo://app?vid=349240b9-e04d-4917-8aee-41a90c91a814"},"vehicle_type_id":"4","last_reported":1741255850,"current_range_meters":13600,"station_id":"ce4bhi12rcd13ifvqfp0","pricing_plan_id":"cebpf4jnsgd1na2vs0mg"},{"bike_id":"fb62a541-339d-43c0-b2ca-8f32b6c0dfd9","system_id":"levelo_inurba_marseille","lat":43.23145,"lon":5.43717,"is_reserved":false,"is_disabled":false,"rental_uris":{"android":"levelo://app?vid=fb62a541-339d-43c0-b2ca-8f32b6c0dfd9","ios":"levelo://app?vid=fb62a541-339d-43c0-b2ca-8f32b6c0dfd9"},"vehicle_type_id":"4","last_reported":1741255850,"current_range_meters":13600,"station_id":"ce4bhmp2rcd13ifvqgog","pricing_plan_id":"cebpf4jnsgd1na2vs0mg"},{"bike_id":"c9fa1586-9fc6-4223-9f65-debf1e97cd32","system_id":"levelo_inurba_marseille","lat":43.30469,"lon":5.37911,"is_reserved":false,"is_disabled":false,"rental_uris":{"android":"levelo://app?vid=c9fa1586-9fc6-4223-9f65-debf1e97cd32","ios":"levelo://app?vid=c9fa1586-9fc6-4223-9f65-debf1e97cd32"},"vehicle_type_id":"4","last_reported":1741255850,"current_range_meters":14000,"station_id":"ce4bgup2rcd13ifvqcn0","pricing_plan_id":"cebpf4jnsgd1na2vs0mg"},{"bike_id":"bf58d102-5f79-4fe1-a6b1-3d04079d1032","system_id":"levelo_inurba_marseille","lat":43.24668,"lon":5.38162,"is_reserved":false,"is_disabled":false,"rental_uris":{"android":"levelo://app?vid=bf58d102-5f79-4fe1-a6b1-3d04079d1032","ios":"levelo://app?vid=bf58d102-5f79-4fe1-a6b1-3d04079d1032"},"vehicle_type_id":"4","last_reported":1741255850,"current_range_meters":14000,"station_id":"ce4bhih2rcd13ifvqfr0","pricing_plan_id":"cebpf4jnsgd1na2vs0mg"},{"bike_id":"08a60df7-0d44-48ca-9c9c-78f628f8b90a","system_id":"levelo_inurba_marseille","lat":43.27942,"lon":5.41046,"is_reserved":false,"is_disabled":false,"rental_uris":{"android":"levelo://app?vid=08a60df7-0d44-48ca-9c9c-78f628f8b90a","ios":"levelo://app?vid=08a60df7-0d44-48ca-9c9c-78f628f8b90a"},"vehicle_type_id":"4","last_reported":1741255850,"current_range_meters":14000,"station_id":"ce4bhnp2rcd13ifvqh0g","pricing_plan_id":"cebpf4jnsgd1na2vs0mg"},{"bike_id":"b81487e6-4e94-4796-b0f1-26f672c3916d","system_id":"levelo_inurba_marseille","lat":43.30899,"lon":5.36871,"is_reserved":false,"is_disabled":false,"rental_uris":{"android":"levelo://app?vid=b81487e6-4e94-4796-b0f1-26f672c3916d","ios":"levelo://app?vid=b81487e6-4e94-4796-b0f1-26f672c3916d"},"vehicle_type_id":"4","last_reported":1741255850,"current_range_meters":14400,"station_id":"ce4bgn92rcd13ifvqbvg","pricing_plan_id":"cebpf4jnsgd1na2vs0mg"},{"bike_id":"0142fdd4-ccbe-4cc3-9494-c91856bcc834","system_id":"levelo_inurba_marseille","lat":43.29529,"lon":5.38545,"is_reserved":false,"is_disabled":false,"rental_uris":{"android":"levelo://app?vid=0142fdd4-ccbe-4cc3-9494-c91856bcc834","ios":"levelo://app?vid=0142fdd4-ccbe-4cc3-9494-c91856bcc834"},"vehicle_type_id":"4","last_reported":1741255850,"current_range_meters":14800,"station_id":"ce4bgih2rcd13ifvqba0","pricing_plan_id":"cebpf4jnsgd1na2vs0mg"},{"bike_id":"eaf3ebe5-8aaa-4ee1-9b97-323ffe2f0861","system_id":"levelo_inurba_marseille","lat":43.27493,"lon":5.42452,"is_reserved":false,"is_disabled":false,"rental_uris":{"android":"levelo://app?vid=eaf3ebe5-8aaa-4ee1-9b97-323ffe2f0861","ios":"levelo://app?vid=eaf3ebe5-8aaa-4ee1-9b97-323ffe2f0861"},"vehicle_type_id":"4","last_reported":1741255850,"current_range_meters":14800,"station_id":"ce4bhn92rcd13ifvqgrg","pricing_plan_id":"cebpf4jnsgd1na2vs0mg"},{"bike_id":"0a00a46c-dfef-4ff4-8235-d712933741f9","system_id":"levelo_inurba_marseille","lat":43.24082,"lon":5.37753,"is_reserved":false,"is_disabled":false,"rental_uris":{"android":"levelo://app?vid=0a00a46c-dfef-4ff4-8235-d712933741f9","ios":"levelo://app?vid=0a00a46c-dfef-4ff4-8235-d712933741f9"},"vehicle_type_id":"4","last_reported":1741255850,"current_range_meters":14800,"station_id":"ce4bhnp2rcd13ifvqgvg","pricing_plan_id":"cebpf4jnsgd1na2vs0mg"},{"bike_id":"0fd15513-1c3e-443d-8fc1-867495994c6c","system_id":"levelo_inurba_marseille","lat":43.29962,"lon":5.41333,"is_reserved":false,"is_disabled":false,"rental_uris":{"android":"levelo://app?vid=0fd15513-1c3e-443d-8fc1-867495994c6c","ios":"levelo://app?vid=0fd15513-1c3e-443d-8fc1-867495994c6c"},"vehicle_type_id":"4","last_reported":1741255850,"current_range_meters":14800,"station_id":"ce4bhp12rcd13ifvqh9g","pricing_plan_id":"cebpf4jnsgd1na2vs0mg"},{"bike_id":"9f0f0224-b72b-4ee3-a38d-b5ba80204629","system_id":"levelo_inurba_marseille","lat":43.23192,"lon":5.35552,"is_reserved":false,"is_disabled":false,"rental_uris":{"android":"levelo://app?vid=9f0f0224-b72b-4ee3-a38d-b5ba80204629","ios":"levelo://app?vid=9f0f0224-b72b-4ee3-a38d-b5ba80204629"},"vehicle_type_id":"4","last_reported":1741255850,"current_range_meters":14800,"station_id":"ce4bhu92rcd13ifvqi70","pricing_plan_id":"cebpf4jnsgd1na2vs0mg"},{"bike_id":"bfcdc48f-c535-48ca-a68a-01b8cda1e507","system_id":"levelo_inurba_marseille","lat":43.28441,"lon":5.35895,"is_reserved":false,"is_disabled":false,"rental_uris":{"android":"levelo://app?vid=bfcdc48f-c535-48ca-a68a-01b8cda1e507","ios":"levelo://app?vid=bfcdc48f-c535-48ca-a68a-01b8cda1e507"},"vehicle_type_id":"4","last_reported":1741255850,"current_range_meters":15200,"station_id":"ce4bhah2rcd13ifvqei0","pricing_plan_id":"cebpf4jnsgd1na2vs0mg"},{"bike_id":"0d94e7b2-84c7-46d0-85b8-bbbd08a2167f","system_id":"levelo_inurba_marseille","lat":43.23144,"lon":5.43719,"is_reserved":false,"is_disabled":false,"rental_uris":{"android":"levelo://app?vid=0d94e7b2-84c7-46d0-85b8-bbbd08a2167f","ios":"levelo://app?vid=0d94e7b2-84c7-46d0-85b8-bbbd08a2167f"},"vehicle_type_id":"4","last_reported":1741255850,"current_range_meters":15200,"station_id":"ce4bhmp2rcd13ifvqgog","pricing_plan_id":"cebpf4jnsgd1na2vs0mg"},{"bike_id":"1beb12c1-e629-4277-b647-869437ab09f2","system_id":"levelo_inurba_marseille","lat":43.24176,"lon":5.39745,"is_reserved":false,"is_disabled":false,"rental_uris":{"android":"levelo://app?vid=1beb12c1-e629-4277-b647-869437ab09f2","ios":"levelo://app?vid=1beb12c1-e629-4277-b647-869437ab09f2"},"vehicle_type_id":"4","last_reported":1741255850,"current_range_meters":15200,"station_id":"ce4bhn12rcd13ifvqgpg","pricing_plan_id":"cebpf4jnsgd1na2vs0mg"},{"bike_id":"d0975067-6820-4c9b-8967-2dcd7378fd4f","system_id":"levelo_inurba_marseille","lat":43.3047,"lon":5.37903,"is_reserved":false,"is_disabled":false,"rental_uris":{"android":"levelo://app?vid=d0975067-6820-4c9b-8967-2dcd7378fd4f","ios":"levelo://app?vid=d0975067-6820-4c9b-8967-2dcd7378fd4f"},"vehicle_type_id":"4","last_reported":1741255850,"current_range_meters":16000,"station_id":"ce4bgup2rcd13ifvqcn0","pricing_plan_id":"cebpf4jnsgd1na2vs0mg"},{"bike_id":"32dcfbed-b6f9-4581-9549-af3cc77b985b","system_id":"levelo_inurba_marseille","lat":43.2926,"lon":5.40911,"is_reserved":false,"is_disabled":false,"rental_uris":{"android":"levelo://app?vid=32dcfbed-b6f9-4581-9549-af3cc77b985b","ios":"levelo://app?vid=32dcfbed-b6f9-4581-9549-af3cc77b985b"},"vehicle_type_id":"4","last_reported":1741255850,"current_range_meters":16000,"station_id":"ce4bh192rcd13ifvqdc0","pricing_plan_id":"cebpf4jnsgd1na2vs0mg"},{"bike_id":"40194dfe-2f33-47d3-b9d8-dcc6842c434a","system_id":"levelo_inurba_marseille","lat":43.29048,"lon":5.39983,"is_reserved":false,"is_disabled":false,"rental_uris":{"android":"levelo://app?vid=40194dfe-2f33-47d3-b9d8-dcc6842c434a","ios":"levelo://app?vid=40194dfe-2f33-47d3-b9d8-dcc6842c434a"},"vehicle_type_id":"4","last_reported":1741255850,"current_range_meters":16000,"station_id":"ce4bh392rcd13ifvqdm0","pricing_plan_id":"cebpf4jnsgd1na2vs0mg"},{"bike_id":"9caa51cb-80a3-4e57-8a89-858e81055360","system_id":"levelo_inurba_marseille","lat":43.28694,"lon":5.37391,"is_reserved":false,"is_disabled":false,"rental_uris":{"android":"levelo://app?vid=9caa51cb-80a3-4e57-8a89-858e81055360","ios":"levelo://app?vid=9caa51cb-80a3-4e57-8a89-858e81055360"},"vehicle_type_id":"4","last_reported":1741255850,"current_range_meters":16000,"station_id":"ce4bh3p2rcd13ifvqdq0","pricing_plan_id":"cebpf4jnsgd1na2vs0mg"},{"bike_id":"08d12e2d-3e18-4e33-b47c-37e789d2d2a0","system_id":"levelo_inurba_marseille","lat":43.23185,"lon":5.39989,"is_reserved":false,"is_disabled":false,"rental_uris":{"android":"levelo://app?vid=08d12e2d-3e18-4e33-b47c-37e789d2d2a0","ios":"levelo://app?vid=08d12e2d-3e18-4e33-b47c-37e789d2d2a0"},"vehicle_type_id":"4","last_reported":1741255850,"current_range_meters":16000,"station_id":"ce4bhn12rcd13ifvqgqg","pricing_plan_id":"cebpf4jnsgd1na2vs0mg"},{"bike_id":"9b3e5916-05df-44c0-9447-093165adf9a6","system_id":"levelo_inurba_marseille","lat":43.24073,"lon":5.37752,"is_reserved":false,"is_disabled":false,"rental_uris":{"android":"levelo://app?vid=9b3e5916-05df-44c0-9447-093165adf9a6","ios":"levelo://app?vid=9b3e5916-05df-44c0-9447-093165adf9a6"},"vehicle_type_id":"4","last_reported":1741255850,"current_range_meters":16000,"station_id":"ce4bhnp2rcd13ifvqgvg","pricing_plan_id":"cebpf4jnsgd1na2vs0mg"},{"bike_id":"3e8c034e-a7d7-4c46-8e31-3a0c6fbfb5cc","system_id":"levelo_inurba_marseille","lat":43.33609,"lon":5.41014,"is_reserved":false,"is_disabled":false,"rental_uris":{"android":"levelo://app?vid=3e8c034e-a7d7-4c46-8e31-3a0c6fbfb5cc","ios":"levelo://app?vid=3e8c034e-a7d7-4c46-8e31-3a0c6fbfb5cc"},"vehicle_type_id":"4","last_reported":1741255850,"current_range_meters":16000,"station_id":"ce4bhqh2rcd13ifvqhmg","pricing_plan_id":"cebpf4jnsgd1na2vs0mg"},{"bike_id":"ce51e43d-08e5-4352-a6bd-d7aa7e8463bf","system_id":"levelo_inurba_marseille","lat":43.32498,"lon":5.36564,"is_reserved":false,"is_disabled":false,"rental_uris":{"android":"levelo://app?vid=ce51e43d-08e5-4352-a6bd-d7aa7e8463bf","ios":"levelo://app?vid=ce51e43d-08e5-4352-a6bd-d7aa7e8463bf"},"vehicle_type_id":"4","last_reported":1741255850,"current_range_meters":16000,"station_id":"ce4bhs12rcd13ifvqhvg","pricing_plan_id":"cebpf4jnsgd1na2vs0mg"},{"bike_id":"b085439e-cb6b-496a-a8f4-7c0b0e3f5ec0","system_id":"levelo_inurba_marseille","lat":43.33728,"lon":5.35596,"is_reserved":false,"is_disabled":false,"rental_uris":{"android":"levelo://app?vid=b085439e-cb6b-496a-a8f4-7c0b0e3f5ec0","ios":"levelo://app?vid=b085439e-cb6b-496a-a8f4-7c0b0e3f5ec0"},"vehicle_type_id":"4","last_reported":1741255850,"current_range_meters":16400,"station_id":"","pricing_plan_id":"cebpf4jnsgd1na2vs0mg"},{"bike_id":"562ae610-af49-43e0-8790-e78255c89622","system_id":"levelo_inurba_marseille","lat":43.30544,"lon":5.38425,"is_reserved":false,"is_disabled":false,"rental_uris":{"android":"levelo://app?vid=562ae610-af49-43e0-8790-e78255c89622","ios":"levelo://app?vid=562ae610-af49-43e0-8790-e78255c89622"},"vehicle_type_id":"4","last_reported":1741255850,"current_range_meters":16400,"station_id":"ce4bgg92rcd13ifvqb30","pricing_plan_id":"cebpf4jnsgd1na2vs0mg"},{"bike_id":"561ec795-d87e-47dd-b877-6bcc9c07a5af","system_id":"levelo_inurba_marseille","lat":43.29264,"lon":5.37627,"is_reserved":false,"is_disabled":false,"rental_uris":{"android":"levelo://app?vid=561ec795-d87e-47dd-b877-6bcc9c07a5af","ios":"levelo://app?vid=561ec795-d87e-47dd-b877-6bcc9c07a5af"},"vehicle_type_id":"4","last_reported":1741255850,"current_range_meters":16400,"station_id":"ce4bgi12rcd13ifvqb80","pricing_plan_id":"cebpf4jnsgd1na2vs0mg"},{"bike_id":"cc750935-d2b0-4af9-a0f1-a39ea23985c5","system_id":"levelo_inurba_marseille","lat":43.30143,"lon":5.3808,"is_reserved":false,"is_disabled":false,"rental_uris":{"android":"levelo://app?vid=cc750935-d2b0-4af9-a0f1-a39ea23985c5","ios":"levelo://app?vid=cc750935-d2b0-4af9-a0f1-a39ea23985c5"},"vehicle_type_id":"4","last_reported":1741255850,"current_range_meters":16400,"station_id":"ce4bgjp2rcd13ifvqbh0","pricing_plan_id":"cebpf4jnsgd1na2vs0mg"},{"bike_id":"3a2e2bfd-d9dc-4127-a3c0-b0fcfc28ac74","system_id":"levelo_inurba_marseille","lat":43.28971,"lon":5.37839,"is_reserved":false,"is_disabled":false,"rental_uris":{"android":"levelo://app?vid=3a2e2bfd-d9dc-4127-a3c0-b0fcfc28ac74","ios":"levelo://app?vid=3a2e2bfd-d9dc-4127-a3c0-b0fcfc28ac74"},"vehicle_type_id":"4","last_reported":1741255850,"current_range_meters":16400,"station_id":"ce4bh9p2rcd13ifvqed0","pricing_plan_id":"cebpf4jnsgd1na2vs0mg"},{"bike_id":"5ec6c0ad-1530-4f81-813f-189637cdd41a","system_id":"levelo_inurba_marseille","lat":43.26954,"lon":5.38643,"is_reserved":false,"is_disabled":false,"rental_uris":{"android":"levelo://app?vid=5ec6c0ad-1530-4f81-813f-189637cdd41a","ios":"levelo://app?vid=5ec6c0ad-1530-4f81-813f-189637cdd41a"},"vehicle_type_id":"4","last_reported":1741255850,"current_range_meters":16400,"station_id":"ce4bhh92rcd13ifvqfh0","pricing_plan_id":"cebpf4jnsgd1na2vs0mg"},{"bike_id":"c92bfcd4-eec3-4a93-89eb-9760b76a2e31","system_id":"levelo_inurba_marseille","lat":43.25883,"lon":5.40935,"is_reserved":false,"is_disabled":false,"rental_uris":{"android":"levelo://app?vid=c92bfcd4-eec3-4a93-89eb-9760b76a2e31","ios":"levelo://app?vid=c92bfcd4-eec3-4a93-89eb-9760b76a2e31"},"vehicle_type_id":"4","last_reported":1741255850,"current_range_meters":16400,"station_id":"ce4bhm92rcd13ifvqglg","pricing_plan_id":"cebpf4jnsgd1na2vs0mg"},{"bike_id":"2f7f5d6f-ba2a-4126-af71-dfeac7995dcd","system_id":"levelo_inurba_marseille","lat":43.231542,"lon":5.437228,"is_reserved":false,"is_disabled":false,"rental_uris":{"android":"levelo://app?vid=2f7f5d6f-ba2a-4126-af71-dfeac7995dcd","ios":"levelo://app?vid=2f7f5d6f-ba2a-4126-af71-dfeac7995dcd"},"vehicle_type_id":"4","last_reported":1741255850,"current_range_meters":16400,"station_id":"ce4bhmp2rcd13ifvqgog","pricing_plan_id":"cebpf4jnsgd1na2vs0mg"},{"bike_id":"9d48d9fa-a15e-4d33-9598-696d2dab2014","system_id":"levelo_inurba_marseille","lat":43.24071,"lon":5.37781,"is_reserved":false,"is_disabled":false,"rental_uris":{"android":"levelo://app?vid=9d48d9fa-a15e-4d33-9598-696d2dab2014","ios":"levelo://app?vid=9d48d9fa-a15e-4d33-9598-696d2dab2014"},"vehicle_type_id":"4","last_reported":1741255850,"current_range_meters":16400,"station_id":"ce4bhnp2rcd13ifvqgvg","pricing_plan_id":"cebpf4jnsgd1na2vs0mg"},{"bike_id":"218732f9-7aab-45b6-927d-b736f1586618","system_id":"levelo_inurba_marseille","lat":43.31854,"lon":5.38774,"is_reserved":false,"is_disabled":false,"rental_uris":{"android":"levelo://app?vid=218732f9-7aab-45b6-927d-b736f1586618","ios":"levelo://app?vid=218732f9-7aab-45b6-927d-b736f1586618"},"vehicle_type_id":"4","last_reported":1741255850,"current_range_meters":16800,"station_id":"","pricing_plan_id":"cebpf4jnsgd1na2vs0mg"},{"bike_id":"7d73e3df-94a0-42a0-b286-119cf13e4f75","system_id":"levelo_inurba_marseille","lat":43.29845,"lon":5.36278,"is_reserved":false,"is_disabled":false,"rental_uris":{"android":"levelo://app?vid=7d73e3df-94a0-42a0-b286-119cf13e4f75","ios":"levelo://app?vid=7d73e3df-94a0-42a0-b286-119cf13e4f75"},"vehicle_type_id":"4","last_reported":1741255850,"current_range_meters":16800,"station_id":"ce4bgpp2rcd13ifvqc3g","pricing_plan_id":"cebpf4jnsgd1na2vs0mg"},{"bike_id":"89a239ee-7c47-4377-a55d-c10cfde61abd","system_id":"levelo_inurba_marseille","lat":43.30534,"lon":5.36721,"is_reserved":false,"is_disabled":false,"rental_uris":{"android":"levelo://app?vid=89a239ee-7c47-4377-a55d-c10cfde61abd","ios":"levelo://app?vid=89a239ee-7c47-4377-a55d-c10cfde61abd"},"vehicle_type_id":"4","last_reported":1741255850,"current_range_meters":16800,"station_id":"ce4bgrp2rcd13ifvqc9g","pricing_plan_id":"cebpf4jnsgd1na2vs0mg"},{"bike_id":"c7ef046a-986a-4d81-8646-02c2dacbe962","system_id":"levelo_inurba_marseille","lat":43.30211,"lon":5.39464,"is_reserved":false,"is_disabled":false,"rental_uris":{"android":"levelo://app?vid=c7ef046a-986a-4d81-8646-02c2dacbe962","ios":"levelo://app?vid=c7ef046a-986a-4d81-8646-02c2dacbe962"},"vehicle_type_id":"4","last_reported":1741255850,"current_range_meters":16800,"station_id":"ce4bh0p2rcd13ifvqd70","pricing_plan_id":"cebpf4jnsgd1na2vs0mg"},{"bike_id":"102d8b71-b688-4189-b738-f4e9e5b8c77d","system_id":"levelo_inurba_marseille","lat":43.29957,"lon":5.41323,"is_reserved":false,"is_disabled":false,"rental_uris":{"android":"levelo://app?vid=102d8b71-b688-4189-b738-f4e9e5b8c77d","ios":"levelo://app?vid=102d8b71-b688-4189-b738-f4e9e5b8c77d"},"vehicle_type_id":"4","last_reported":1741255850,"current_range_meters":16800,"station_id":"ce4bhp12rcd13ifvqh9g","pricing_plan_id":"cebpf4jnsgd1na2vs0mg"},{"bike_id":"0061a3d5-2afe-4e14-b8e5-2ba2c4807de7","system_id":"levelo_inurba_marseille","lat":43.32529,"lon":5.41437,"is_reserved":false,"is_disabled":false,"rental_uris":{"android":"levelo://app?vid=0061a3d5-2afe-4e14-b8e5-2ba2c4807de7","ios":"levelo://app?vid=0061a3d5-2afe-4e14-b8e5-2ba2c4807de7"},"vehicle_type_id":"4","last_reported":1741255850,"current_range_meters":16800,"station_id":"ce4bhq12rcd13ifvqhhg","pricing_plan_id":"cebpf4jnsgd1na2vs0mg"},{"bike_id":"459ed71f-fb70-4100-aa95-83a472c1824f","system_id":"levelo_inurba_marseille","lat":43.301437,"lon":5.37411,"is_reserved":false,"is_disabled":false,"rental_uris":{"android":"levelo://app?vid=459ed71f-fb70-4100-aa95-83a472c1824f","ios":"levelo://app?vid=459ed71f-fb70-4100-aa95-83a472c1824f"},"vehicle_type_id":"4","last_reported":1741255850,"current_range_meters":17200,"station_id":"ce4bgs92rcd13ifvqcc0","pricing_plan_id":"cebpf4jnsgd1na2vs0mg"},{"bike_id":"1cd69c1e-f2a2-4a5c-bf79-adc85fbf8cc4","system_id":"levelo_inurba_marseille","lat":43.31173,"lon":5.38706,"is_reserved":false,"is_disabled":false,"rental_uris":{"android":"levelo://app?vid=1cd69c1e-f2a2-4a5c-bf79-adc85fbf8cc4","ios":"levelo://app?vid=1cd69c1e-f2a2-4a5c-bf79-adc85fbf8cc4"},"vehicle_type_id":"4","last_reported":1741255850,"current_range_meters":17200,"station_id":"ce4bgv12rcd13ifvqcp0","pricing_plan_id":"cebpf4jnsgd1na2vs0mg"},{"bike_id":"cebb6504-396c-41fc-9943-57e158751507","system_id":"levelo_inurba_marseille","lat":43.2906,"lon":5.39979,"is_reserved":false,"is_disabled":false,"rental_uris":{"android":"levelo://app?vid=cebb6504-396c-41fc-9943-57e158751507","ios":"levelo://app?vid=cebb6504-396c-41fc-9943-57e158751507"},"vehicle_type_id":"4","last_reported":1741255850,"current_range_meters":17200,"station_id":"ce4bh392rcd13ifvqdm0","pricing_plan_id":"cebpf4jnsgd1na2vs0mg"},{"bike_id":"8e253005-1e67-480d-9b43-caaa2b70656b","system_id":"levelo_inurba_marseille","lat":43.27492,"lon":5.42456,"is_reserved":false,"is_disabled":false,"rental_uris":{"android":"levelo://app?vid=8e253005-1e67-480d-9b43-caaa2b70656b","ios":"levelo://app?vid=8e253005-1e67-480d-9b43-caaa2b70656b"},"vehicle_type_id":"4","last_reported":1741255850,"current_range_meters":17200,"station_id":"ce4bhn92rcd13ifvqgrg","pricing_plan_id":"cebpf4jnsgd1na2vs0mg"},{"bike_id":"d0a9e0b6-7460-48af-b167-fa241d6b44c3","system_id":"levelo_inurba_marseille","lat":43.321023,"lon":5.367829,"is_reserved":false,"is_disabled":false,"rental_uris":{"android":"levelo://app?vid=d0a9e0b6-7460-48af-b167-fa241d6b44c3","ios":"levelo://app?vid=d0a9e0b6-7460-48af-b167-fa241d6b44c3"},"vehicle_type_id":"4","last_reported":1741255850,"current_range_meters":17200,"station_id":"ce4bhrh2rcd13ifvqhug","pricing_plan_id":"cebpf4jnsgd1na2vs0mg"},{"bike_id":"54833c0a-a9a7-4c42-873b-474bce89055b","system_id":"levelo_inurba_marseille","lat":43.23052,"lon":5.35499,"is_reserved":false,"is_disabled":false,"rental_uris":{"android":"levelo://app?vid=54833c0a-a9a7-4c42-873b-474bce89055b","ios":"levelo://app?vid=54833c0a-a9a7-4c42-873b-474bce89055b"},"vehicle_type_id":"4","last_reported":1741255850,"current_range_meters":17200,"station_id":"cpo3342slgdg3j2ifvpg","pricing_plan_id":"cebpf4jnsgd1na2vs0mg"},{"bike_id":"39a99261-8ad8-4fdd-8cf2-52cac0dffcfb","system_id":"levelo_inurba_marseille","lat":43.29358,"lon":5.37862,"is_reserved":false,"is_disabled":false,"rental_uris":{"android":"levelo://app?vid=39a99261-8ad8-4fdd-8cf2-52cac0dffcfb","ios":"levelo://app?vid=39a99261-8ad8-4fdd-8cf2-52cac0dffcfb"},"vehicle_type_id":"4","last_reported":1741255850,"current_range_meters":17600,"station_id":"ce4bgjh2rcd13ifvqbf0","pricing_plan_id":"cebpf4jnsgd1na2vs0mg"},{"bike_id":"14c75ee1-8fa9-405a-ae33-5c4f783af916","system_id":"levelo_inurba_marseille","lat":43.30153,"lon":5.38078,"is_reserved":false,"is_disabled":false,"rental_uris":{"android":"levelo://app?vid=14c75ee1-8fa9-405a-ae33-5c4f783af916","ios":"levelo://app?vid=14c75ee1-8fa9-405a-ae33-5c4f783af916"},"vehicle_type_id":"4","last_reported":1741255850,"current_range_meters":17600,"station_id":"ce4bgjp2rcd13ifvqbh0","pricing_plan_id":"cebpf4jnsgd1na2vs0mg"},{"bike_id":"d1a8a141-0cd5-4e90-9dd3-10c7e664a910","system_id":"levelo_inurba_marseille","lat":43.29603,"lon":5.38106,"is_reserved":false,"is_disabled":false,"rental_uris":{"android":"levelo://app?vid=d1a8a141-0cd5-4e90-9dd3-10c7e664a910","ios":"levelo://app?vid=d1a8a141-0cd5-4e90-9dd3-10c7e664a910"},"vehicle_type_id":"4","last_reported":1741255850,"current_range_meters":17600,"station_id":"ce4bgl12rcd13ifvqbo0","pricing_plan_id":"cebpf4jnsgd1na2vs0mg"},{"bike_id":"fb210a9b-e156-4e1e-bd90-3a2bd9868821","system_id":"levelo_inurba_marseille","lat":43.31218,"lon":5.36859,"is_reserved":false,"is_disabled":false,"rental_uris":{"android":"levelo://app?vid=fb210a9b-e156-4e1e-bd90-3a2bd9868821","ios":"levelo://app?vid=fb210a9b-e156-4e1e-bd90-3a2bd9868821"},"vehicle_type_id":"4","last_reported":1741255850,"current_range_meters":17600,"station_id":"ce4bgl92rcd13ifvqbq0","pricing_plan_id":"cebpf4jnsgd1na2vs0mg"},{"bike_id":"b2d7984b-f695-4724-b688-65efa1ea68ce","system_id":"levelo_inurba_marseille","lat":43.30914,"lon":5.36852,"is_reserved":false,"is_disabled":false,"rental_uris":{"android":"levelo://app?vid=b2d7984b-f695-4724-b688-65efa1ea68ce","ios":"levelo://app?vid=b2d7984b-f695-4724-b688-65efa1ea68ce"},"vehicle_type_id":"4","last_reported":1741255850,"current_range_meters":17600,"station_id":"ce4bgn92rcd13ifvqbvg","pricing_plan_id":"cebpf4jnsgd1na2vs0mg"},{"bike_id":"97ee82e2-cf15-4a31-b5f8-a5b527fa6d26","system_id":"levelo_inurba_marseille","lat":43.29015,"lon":5.37557,"is_reserved":false,"is_disabled":false,"rental_uris":{"android":"levelo://app?vid=97ee82e2-cf15-4a31-b5f8-a5b527fa6d26","ios":"levelo://app?vid=97ee82e2-cf15-4a31-b5f8-a5b527fa6d26"},"vehicle_type_id":"4","last_reported":1741255850,"current_range_meters":17600,"station_id":"ce4bh692rcd13ifvqe90","pricing_plan_id":"cebpf4jnsgd1na2vs0mg"},{"bike_id":"e0c8e248-c34f-4d98-8acc-9b35025c7bbc","system_id":"levelo_inurba_marseille","lat":43.2898,"lon":5.37836,"is_reserved":false,"is_disabled":false,"rental_uris":{"android":"levelo://app?vid=e0c8e248-c34f-4d98-8acc-9b35025c7bbc","ios":"levelo://app?vid=e0c8e248-c34f-4d98-8acc-9b35025c7bbc"},"vehicle_type_id":"4","last_reported":1741255850,"current_range_meters":17600,"station_id":"ce4bh9p2rcd13ifvqed0","pricing_plan_id":"cebpf4jnsgd1na2vs0mg"},{"bike_id":"9b9d9974-5a54-42bc-9756-5def0b0a2eb4","system_id":"levelo_inurba_marseille","lat":43.26685,"lon":5.38264,"is_reserved":false,"is_disabled":false,"rental_uris":{"android":"levelo://app?vid=9b9d9974-5a54-42bc-9756-5def0b0a2eb4","ios":"levelo://app?vid=9b9d9974-5a54-42bc-9756-5def0b0a2eb4"},"vehicle_type_id":"4","last_reported":1741255850,"current_range_meters":17600,"station_id":"ce4bhg92rcd13ifvqf90","pricing_plan_id":"cebpf4jnsgd1na2vs0mg"},{"bike_id":"2a21160e-8ad2-4cb5-842d-2664a4add324","system_id":"levelo_inurba_marseille","lat":43.24385,"lon":5.37064,"is_reserved":false,"is_disabled":false,"rental_uris":{"android":"levelo://app?vid=2a21160e-8ad2-4cb5-842d-2664a4add324","ios":"levelo://app?vid=2a21160e-8ad2-4cb5-842d-2664a4add324"},"vehicle_type_id":"4","last_reported":1741255850,"current_range_meters":17600,"station_id":"ce4bhhh2rcd13ifvqfk0","pricing_plan_id":"cebpf4jnsgd1na2vs0mg"},{"bike_id":"5d3a69d5-2d25-4752-9b03-4d3e7cfff1ce","system_id":"levelo_inurba_marseille","lat":43.27672,"lon":5.38916,"is_reserved":false,"is_disabled":false,"rental_uris":{"android":"levelo://app?vid=5d3a69d5-2d25-4752-9b03-4d3e7cfff1ce","ios":"levelo://app?vid=5d3a69d5-2d25-4752-9b03-4d3e7cfff1ce"},"vehicle_type_id":"4","last_reported":1741255850,"current_range_meters":17600,"station_id":"ce4bhi12rcd13ifvqfo0","pricing_plan_id":"cebpf4jnsgd1na2vs0mg"},{"bike_id":"818efea0-538c-4265-af77-c476b3021bd1","system_id":"levelo_inurba_marseille","lat":43.25921,"lon":5.40897,"is_reserved":false,"is_disabled":false,"rental_uris":{"android":"levelo://app?vid=818efea0-538c-4265-af77-c476b3021bd1","ios":"levelo://app?vid=818efea0-538c-4265-af77-c476b3021bd1"},"vehicle_type_id":"4","last_reported":1741255850,"current_range_meters":17600,"station_id":"ce4bhm92rcd13ifvqglg","pricing_plan_id":"cebpf4jnsgd1na2vs0mg"},{"bike_id":"2d3bd672-59ac-4dac-9de9-2ca67269e174","system_id":"levelo_inurba_marseille","lat":43.24079,"lon":5.37747,"is_reserved":false,"is_disabled":false,"rental_uris":{"android":"levelo://app?vid=2d3bd672-59ac-4dac-9de9-2ca67269e174","ios":"levelo://app?vid=2d3bd672-59ac-4dac-9de9-2ca67269e174"},"vehicle_type_id":"4","last_reported":1741255850,"current_range_meters":17600,"station_id":"ce4bhnp2rcd13ifvqgvg","pricing_plan_id":"cebpf4jnsgd1na2vs0mg"},{"bike_id":"f69363a2-cb46-4232-bb54-2bae4a14b5cc","system_id":"levelo_inurba_marseille","lat":43.240754,"lon":5.377664,"is_reserved":false,"is_disabled":false,"rental_uris":{"android":"levelo://app?vid=f69363a2-cb46-4232-bb54-2bae4a14b5cc","ios":"levelo://app?vid=f69363a2-cb46-4232-bb54-2bae4a14b5cc"},"vehicle_type_id":"4","last_reported":1741255850,"current_range_meters":17600,"station_id":"ce4bhnp2rcd13ifvqgvg","pricing_plan_id":"cebpf4jnsgd1na2vs0mg"},{"bike_id":"10b74c6d-04bc-43c8-b892-4a1d3e03c2bd","system_id":"levelo_inurba_marseille","lat":43.23063,"lon":5.35495,"is_reserved":false,"is_disabled":false,"rental_uris":{"android":"levelo://app?vid=10b74c6d-04bc-43c8-b892-4a1d3e03c2bd","ios":"levelo://app?vid=10b74c6d-04bc-43c8-b892-4a1d3e03c2bd"},"vehicle_type_id":"4","last_reported":1741255850,"current_range_meters":17600,"station_id":"cpo3342slgdg3j2ifvpg","pricing_plan_id":"cebpf4jnsgd1na2vs0mg"},{"bike_id":"76e71c93-c899-418e-93b2-7066fd811baa","system_id":"levelo_inurba_marseille","lat":43.30544,"lon":5.36555,"is_reserved":false,"is_disabled":false,"rental_uris":{"android":"levelo://app?vid=76e71c93-c899-418e-93b2-7066fd811baa","ios":"levelo://app?vid=76e71c93-c899-418e-93b2-7066fd811baa"},"vehicle_type_id":"4","last_reported":1741255850,"current_range_meters":18000,"station_id":"ce4bgs12rcd13ifvqcag","pricing_plan_id":"cebpf4jnsgd1na2vs0mg"},{"bike_id":"b86577c6-11b6-4155-a792-5148b1c421e6","system_id":"levelo_inurba_marseille","lat":43.29043,"lon":5.39954,"is_reserved":false,"is_disabled":false,"rental_uris":{"android":"levelo://app?vid=b86577c6-11b6-4155-a792-5148b1c421e6","ios":"levelo://app?vid=b86577c6-11b6-4155-a792-5148b1c421e6"},"vehicle_type_id":"4","last_reported":1741255850,"current_range_meters":18000,"station_id":"ce4bh392rcd13ifvqdm0","pricing_plan_id":"cebpf4jnsgd1na2vs0mg"},{"bike_id":"5e955a1b-9ad2-42bd-af01-ced8b3f1ca39","system_id":"levelo_inurba_marseille","lat":43.29025,"lon":5.38147,"is_reserved":false,"is_disabled":false,"rental_uris":{"android":"levelo://app?vid=5e955a1b-9ad2-42bd-af01-ced8b3f1ca39","ios":"levelo://app?vid=5e955a1b-9ad2-42bd-af01-ced8b3f1ca39"},"vehicle_type_id":"4","last_reported":1741255850,"current_range_meters":18000,"station_id":"ce4bh4p2rcd13ifvqe1g","pricing_plan_id":"cebpf4jnsgd1na2vs0mg"},{"bike_id":"0fe237f4-849b-4326-b28d-b9d094f29dbe","system_id":"levelo_inurba_marseille","lat":43.26562,"lon":5.39017,"is_reserved":false,"is_disabled":false,"rental_uris":{"android":"levelo://app?vid=0fe237f4-849b-4326-b28d-b9d094f29dbe","ios":"levelo://app?vid=0fe237f4-849b-4326-b28d-b9d094f29dbe"},"vehicle_type_id":"4","last_reported":1741255850,"current_range_meters":18000,"station_id":"ce4bhe12rcd13ifvqf30","pricing_plan_id":"cebpf4jnsgd1na2vs0mg"},{"bike_id":"a7d60ff4-ba7b-4efe-9574-00e14f926911","system_id":"levelo_inurba_marseille","lat":43.3091,"lon":5.36847,"is_reserved":false,"is_disabled":false,"rental_uris":{"android":"levelo://app?vid=a7d60ff4-ba7b-4efe-9574-00e14f926911","ios":"levelo://app?vid=a7d60ff4-ba7b-4efe-9574-00e14f926911"},"vehicle_type_id":"4","last_reported":1741255850,"current_range_meters":18800,"station_id":"ce4bgn92rcd13ifvqbvg","pricing_plan_id":"cebpf4jnsgd1na2vs0mg"},{"bike_id":"02875645-32a8-459d-b584-7e0e4dade10b","system_id":"levelo_inurba_marseille","lat":43.303411,"lon":5.368439,"is_reserved":false,"is_disabled":false,"rental_uris":{"android":"levelo://app?vid=02875645-32a8-459d-b584-7e0e4dade10b","ios":"levelo://app?vid=02875645-32a8-459d-b584-7e0e4dade10b"},"vehicle_type_id":"4","last_reported":1741255850,"current_range_meters":18800,"station_id":"ce4bgop2rcd13ifvqc1g","pricing_plan_id":"cebpf4jnsgd1na2vs0mg"},{"bike_id":"379774d6-8db6-4cd9-8278-06aa19756a74","system_id":"levelo_inurba_marseille","lat":43.307909,"lon":5.37641,"is_reserved":false,"is_disabled":false,"rental_uris":{"android":"levelo://app?vid=379774d6-8db6-4cd9-8278-06aa19756a74","ios":"levelo://app?vid=379774d6-8db6-4cd9-8278-06aa19756a74"},"vehicle_type_id":"4","last_reported":1741255850,"current_range_meters":18800,"station_id":"ce4bgv92rcd13ifvqcq0","pricing_plan_id":"cebpf4jnsgd1na2vs0mg"},{"bike_id":"8b40f716-b9eb-4ec8-ba08-80e1c2a3c063","system_id":"levelo_inurba_marseille","lat":43.28466,"lon":5.3588,"is_reserved":false,"is_disabled":false,"rental_uris":{"android":"levelo://app?vid=8b40f716-b9eb-4ec8-ba08-80e1c2a3c063","ios":"levelo://app?vid=8b40f716-b9eb-4ec8-ba08-80e1c2a3c063"},"vehicle_type_id":"4","last_reported":1741255850,"current_range_meters":18800,"station_id":"ce4bhah2rcd13ifvqei0","pricing_plan_id":"cebpf4jnsgd1na2vs0mg"},{"bike_id":"334c71a6-75ce-4f76-b882-3e18dc4ad12f","system_id":"levelo_inurba_marseille","lat":43.25576,"lon":5.38227,"is_reserved":false,"is_disabled":false,"rental_uris":{"android":"levelo://app?vid=334c71a6-75ce-4f76-b882-3e18dc4ad12f","ios":"levelo://app?vid=334c71a6-75ce-4f76-b882-3e18dc4ad12f"},"vehicle_type_id":"4","last_reported":1741255850,"current_range_meters":18800,"station_id":"ce4bhih2rcd13ifvqfs0","pricing_plan_id":"cebpf4jnsgd1na2vs0mg"},{"bike_id":"359eeabe-4281-4cff-b6d7-34dcaccfb2f9","system_id":"levelo_inurba_marseille","lat":43.27494,"lon":5.42461,"is_reserved":false,"is_disabled":false,"rental_uris":{"android":"levelo://app?vid=359eeabe-4281-4cff-b6d7-34dcaccfb2f9","ios":"levelo://app?vid=359eeabe-4281-4cff-b6d7-34dcaccfb2f9"},"vehicle_type_id":"4","last_reported":1741255850,"current_range_meters":18800,"station_id":"ce4bhn92rcd13ifvqgrg","pricing_plan_id":"cebpf4jnsgd1na2vs0mg"},{"bike_id":"8d203f57-3343-4bc0-8a9c-79d1c1be1625","system_id":"levelo_inurba_marseille","lat":43.26804,"lon":5.40256,"is_reserved":false,"is_disabled":false,"rental_uris":{"android":"levelo://app?vid=8d203f57-3343-4bc0-8a9c-79d1c1be1625","ios":"levelo://app?vid=8d203f57-3343-4bc0-8a9c-79d1c1be1625"},"vehicle_type_id":"4","last_reported":1741255850,"current_range_meters":18800,"station_id":"ce501612rcd8frsf0b60","pricing_plan_id":"cebpf4jnsgd1na2vs0mg"},{"bike_id":"ba00267c-d4bc-4bc8-8795-8674929d9820","system_id":"levelo_inurba_marseille","lat":43.31424,"lon":5.36668,"is_reserved":false,"is_disabled":false,"rental_uris":{"android":"levelo://app?vid=ba00267c-d4bc-4bc8-8795-8674929d9820","ios":"levelo://app?vid=ba00267c-d4bc-4bc8-8795-8674929d9820"},"vehicle_type_id":"4","last_reported":1741255850,"current_range_meters":19200,"station_id":"","pricing_plan_id":"cebpf4jnsgd1na2vs0mg"},{"bike_id":"554a57ba-490a-4d04-b60e-2874964dddb0","system_id":"levelo_inurba_marseille","lat":43.29316,"lon":5.37164,"is_reserved":false,"is_disabled":false,"rental_uris":{"android":"levelo://app?vid=554a57ba-490a-4d04-b60e-2874964dddb0","ios":"levelo://app?vid=554a57ba-490a-4d04-b60e-2874964dddb0"},"vehicle_type_id":"4","last_reported":1741255850,"current_range_meters":19200,"station_id":"ce4bgh92rcd13ifvqb40","pricing_plan_id":"cebpf4jnsgd1na2vs0mg"},{"bike_id":"17687e6a-2922-4df9-ad42-b5c55e668032","system_id":"levelo_inurba_marseille","lat":43.296833,"lon":5.378938,"is_reserved":false,"is_disabled":false,"rental_uris":{"android":"levelo://app?vid=17687e6a-2922-4df9-ad42-b5c55e668032","ios":"levelo://app?vid=17687e6a-2922-4df9-ad42-b5c55e668032"},"vehicle_type_id":"4","last_reported":1741255850,"current_range_meters":19200,"station_id":"ce4bgip2rcd13ifvqbb0","pricing_plan_id":"cebpf4jnsgd1na2vs0mg"},{"bike_id":"7a41b180-4725-4802-aaba-9a8f63b434c7","system_id":"levelo_inurba_marseille","lat":43.29597,"lon":5.3809,"is_reserved":false,"is_disabled":false,"rental_uris":{"android":"levelo://app?vid=7a41b180-4725-4802-aaba-9a8f63b434c7","ios":"levelo://app?vid=7a41b180-4725-4802-aaba-9a8f63b434c7"},"vehicle_type_id":"4","last_reported":1741255850,"current_range_meters":19200,"station_id":"ce4bgl12rcd13ifvqbo0","pricing_plan_id":"cebpf4jnsgd1na2vs0mg"},{"bike_id":"d05bbe1f-1f41-4ea3-bacf-ce471b09537c","system_id":"levelo_inurba_marseille","lat":43.30143,"lon":5.37438,"is_reserved":false,"is_disabled":false,"rental_uris":{"android":"levelo://app?vid=d05bbe1f-1f41-4ea3-bacf-ce471b09537c","ios":"levelo://app?vid=d05bbe1f-1f41-4ea3-bacf-ce471b09537c"},"vehicle_type_id":"4","last_reported":1741255850,"current_range_meters":19200,"station_id":"ce4bgs92rcd13ifvqcc0","pricing_plan_id":"cebpf4jnsgd1na2vs0mg"},{"bike_id":"4041fa43-52a0-473f-94ed-0963d682d586","system_id":"levelo_inurba_marseille","lat":43.30474,"lon":5.37904,"is_reserved":false,"is_disabled":false,"rental_uris":{"android":"levelo://app?vid=4041fa43-52a0-473f-94ed-0963d682d586","ios":"levelo://app?vid=4041fa43-52a0-473f-94ed-0963d682d586"},"vehicle_type_id":"4","last_reported":1741255850,"current_range_meters":19200,"station_id":"ce4bgup2rcd13ifvqcn0","pricing_plan_id":"cebpf4jnsgd1na2vs0mg"},{"bike_id":"90a27eb0-12bd-4952-b10f-eb7281cac83e","system_id":"levelo_inurba_marseille","lat":43.29082,"lon":5.38147,"is_reserved":false,"is_disabled":false,"rental_uris":{"android":"levelo://app?vid=90a27eb0-12bd-4952-b10f-eb7281cac83e","ios":"levelo://app?vid=90a27eb0-12bd-4952-b10f-eb7281cac83e"},"vehicle_type_id":"4","last_reported":1741255850,"current_range_meters":19200,"station_id":"ce4bh512rcd13ifvqe2g","pricing_plan_id":"cebpf4jnsgd1na2vs0mg"},{"bike_id":"3a8de657-33cc-4c30-a379-789772d0f8cb","system_id":"levelo_inurba_marseille","lat":43.32089,"lon":5.36793,"is_reserved":false,"is_disabled":false,"rental_uris":{"android":"levelo://app?vid=3a8de657-33cc-4c30-a379-789772d0f8cb","ios":"levelo://app?vid=3a8de657-33cc-4c30-a379-789772d0f8cb"},"vehicle_type_id":"4","last_reported":1741255850,"current_range_meters":19200,"station_id":"ce4bhrh2rcd13ifvqhug","pricing_plan_id":"cebpf4jnsgd1na2vs0mg"},{"bike_id":"cc8caa2f-2a75-4aa0-9014-72615b7bb652","system_id":"levelo_inurba_marseille","lat":43.31451,"lon":5.38568,"is_reserved":false,"is_disabled":false,"rental_uris":{"android":"levelo://app?vid=cc8caa2f-2a75-4aa0-9014-72615b7bb652","ios":"levelo://app?vid=cc8caa2f-2a75-4aa0-9014-72615b7bb652"},"vehicle_type_id":"4","last_reported":1741255850,"current_range_meters":19600,"station_id":"","pricing_plan_id":"cebpf4jnsgd1na2vs0mg"},{"bike_id":"69f75942-43e5-458c-a432-af5cbf58237e","system_id":"levelo_inurba_marseille","lat":43.30918,"lon":5.3686,"is_reserved":false,"is_disabled":false,"rental_uris":{"android":"levelo://app?vid=69f75942-43e5-458c-a432-af5cbf58237e","ios":"levelo://app?vid=69f75942-43e5-458c-a432-af5cbf58237e"},"vehicle_type_id":"4","last_reported":1741255850,"current_range_meters":19600,"station_id":"ce4bgn92rcd13ifvqbvg","pricing_plan_id":"cebpf4jnsgd1na2vs0mg"},{"bike_id":"ffae9978-e77a-4775-881c-16edc2a8000b","system_id":"levelo_inurba_marseille","lat":43.3118,"lon":5.38712,"is_reserved":false,"is_disabled":false,"rental_uris":{"android":"levelo://app?vid=ffae9978-e77a-4775-881c-16edc2a8000b","ios":"levelo://app?vid=ffae9978-e77a-4775-881c-16edc2a8000b"},"vehicle_type_id":"4","last_reported":1741255850,"current_range_meters":19600,"station_id":"ce4bgv12rcd13ifvqcp0","pricing_plan_id":"cebpf4jnsgd1na2vs0mg"},{"bike_id":"36892414-7253-41db-82a9-f7666b440061","system_id":"levelo_inurba_marseille","lat":43.26572,"lon":5.38998,"is_reserved":false,"is_disabled":false,"rental_uris":{"android":"levelo://app?vid=36892414-7253-41db-82a9-f7666b440061","ios":"levelo://app?vid=36892414-7253-41db-82a9-f7666b440061"},"vehicle_type_id":"4","last_reported":1741255850,"current_range_meters":19600,"station_id":"ce4bhe12rcd13ifvqf30","pricing_plan_id":"cebpf4jnsgd1na2vs0mg"},{"bike_id":"9587d161-57f9-4907-bb95-16d14ffdb35c","system_id":"levelo_inurba_marseille","lat":43.27053,"lon":5.40261,"is_reserved":false,"is_disabled":false,"rental_uris":{"android":"levelo://app?vid=9587d161-57f9-4907-bb95-16d14ffdb35c","ios":"levelo://app?vid=9587d161-57f9-4907-bb95-16d14ffdb35c"},"vehicle_type_id":"4","last_reported":1741255850,"current_range_meters":19600,"station_id":"ce4bhk92rcd13ifvqgc0","pricing_plan_id":"cebpf4jnsgd1na2vs0mg"},{"bike_id":"4b7964f7-0e0b-49b5-956e-434702d9d89b","system_id":"levelo_inurba_marseille","lat":43.23154,"lon":5.4374,"is_reserved":false,"is_disabled":false,"rental_uris":{"android":"levelo://app?vid=4b7964f7-0e0b-49b5-956e-434702d9d89b","ios":"levelo://app?vid=4b7964f7-0e0b-49b5-956e-434702d9d89b"},"vehicle_type_id":"4","last_reported":1741255850,"current_range_meters":19600,"station_id":"ce4bhmp2rcd13ifvqgog","pricing_plan_id":"cebpf4jnsgd1na2vs0mg"},{"bike_id":"4b6c0f8d-5b52-4a74-ac05-9bf63ac5d49c","system_id":"levelo_inurba_marseille","lat":43.31873,"lon":5.40734,"is_reserved":false,"is_disabled":false,"rental_uris":{"android":"levelo://app?vid=4b6c0f8d-5b52-4a74-ac05-9bf63ac5d49c","ios":"levelo://app?vid=4b6c0f8d-5b52-4a74-ac05-9bf63ac5d49c"},"vehicle_type_id":"4","last_reported":1741255850,"current_range_meters":19600,"station_id":"ce4bhq12rcd13ifvqhig","pricing_plan_id":"cebpf4jnsgd1na2vs0mg"},{"bike_id":"6e294a38-6d5c-43e6-8d60-c4dab17eef24","system_id":"levelo_inurba_marseille","lat":43.33602,"lon":5.41026,"is_reserved":false,"is_disabled":false,"rental_uris":{"android":"levelo://app?vid=6e294a38-6d5c-43e6-8d60-c4dab17eef24","ios":"levelo://app?vid=6e294a38-6d5c-43e6-8d60-c4dab17eef24"},"vehicle_type_id":"4","last_reported":1741255850,"current_range_meters":19600,"station_id":"ce4bhqh2rcd13ifvqhmg","pricing_plan_id":"cebpf4jnsgd1na2vs0mg"},{"bike_id":"862690ab-cdcd-4a69-8128-fb447878dca9","system_id":"levelo_inurba_marseille","lat":43.2884,"lon":5.39326,"is_reserved":false,"is_disabled":false,"rental_uris":{"android":"levelo://app?vid=862690ab-cdcd-4a69-8128-fb447878dca9","ios":"levelo://app?vid=862690ab-cdcd-4a69-8128-fb447878dca9"},"vehicle_type_id":"4","last_reported":1741255850,"current_range_meters":20000,"station_id":"","pricing_plan_id":"cebpf4jnsgd1na2vs0mg"},{"bike_id":"bc42e0f0-17b2-41d2-a52c-c1a07c61d5a3","system_id":"levelo_inurba_marseille","lat":43.30144,"lon":5.37414,"is_reserved":false,"is_disabled":false,"rental_uris":{"android":"levelo://app?vid=bc42e0f0-17b2-41d2-a52c-c1a07c61d5a3","ios":"levelo://app?vid=bc42e0f0-17b2-41d2-a52c-c1a07c61d5a3"},"vehicle_type_id":"4","last_reported":1741255850,"current_range_meters":20000,"station_id":"ce4bgs92rcd13ifvqcc0","pricing_plan_id":"cebpf4jnsgd1na2vs0mg"},{"bike_id":"6677cd50-1a42-4a45-a2b5-dd81b6c142f3","system_id":"levelo_inurba_marseille","lat":43.30249,"lon":5.3776,"is_reserved":false,"is_disabled":false,"rental_uris":{"android":"levelo://app?vid=6677cd50-1a42-4a45-a2b5-dd81b6c142f3","ios":"levelo://app?vid=6677cd50-1a42-4a45-a2b5-dd81b6c142f3"},"vehicle_type_id":"4","last_reported":1741255850,"current_range_meters":20000,"station_id":"ce4bguh2rcd13ifvqcj0","pricing_plan_id":"cebpf4jnsgd1na2vs0mg"},{"bike_id":"9806457d-4f4b-480b-82f9-5f8a7b8c485c","system_id":"levelo_inurba_marseille","lat":43.3029,"lon":5.37717,"is_reserved":false,"is_disabled":false,"rental_uris":{"android":"levelo://app?vid=9806457d-4f4b-480b-82f9-5f8a7b8c485c","ios":"levelo://app?vid=9806457d-4f4b-480b-82f9-5f8a7b8c485c"},"vehicle_type_id":"4","last_reported":1741255850,"current_range_meters":20000,"station_id":"ce4bguh2rcd13ifvqcj0","pricing_plan_id":"cebpf4jnsgd1na2vs0mg"},{"bike_id":"45fa88e7-a104-428a-9a3a-65d1514e73be","system_id":"levelo_inurba_marseille","lat":43.26688,"lon":5.38263,"is_reserved":false,"is_disabled":false,"rental_uris":{"android":"levelo://app?vid=45fa88e7-a104-428a-9a3a-65d1514e73be","ios":"levelo://app?vid=45fa88e7-a104-428a-9a3a-65d1514e73be"},