{"last_updated":1734455346,"ttl":60,"version":"2.2","data":{"bikes":[{"bike_id":"1e730733-ba90-4d56-958f-1ee89601793a","system_id":"levelo_inurba_marseille","lat":43.30436,"lon":5.38892,"is_reserved":false,"is_disabled":false,"rental_uris":{"android":"levelo://app?vid=1e730733-ba90-4d56-958f-1ee89601793a","ios":"levelo://app?vid=1e730733-ba90-4d56-958f-1ee89601793a"},"vehicle_type_id":"4","last_reported":1734455347,"current_range_meters":31200,"station_id":"ce4bgk12rcd13ifvqbi0","pricing_plan_id":"cebpf4jnsgd1na2vs0mg"},{"bike_id":"5fc87cae-ea48-4383-9137-fd686b988f93","system_id":"levelo_inurba_marseille","lat":43.292659,"lon":5.408904,"is_reserved":false,"is_disabled":false,"rental_uris":{"android":"levelo://app?vid=5fc87cae-ea48-4383-9137-fd686b988f93","ios":"levelo://app?vid=5fc87cae-ea48-4383-9137-fd686b988f93"},"vehicle_type_id":"4","last_reported":1734455347,"current_range_meters":30800,"station_id":"ce4bh192rcd13ifvqdc0","pricing_plan_id":"cebpf4jnsgd1na2vs0mg"},{"bike_id":"24eb5ff9-13a1-4876-ac96-a6c94e1d17c9","system_id":"levelo_inurba_marseille","lat":43.31329,"lon":5.39691,"is_reserved":false,"is_disabled":false,"rental_uris":{"android":"levelo://app?vid=24eb5ff9-13a1-4876-ac96-a6c94e1d17c9","ios":"levelo://app?vid=24eb5ff9-13a1-4876-ac96-a6c94e1d17c9"},"vehicle_type_id":"4","last_reported":1734455347,"current_range_meters":24400,"station_id":"ce4bgvp2rcd13ifvqcu0","pricing_plan_id":"cebpf4jnsgd1na2vs0mg"},{"bike_id":"d1ef06f7-3f63-4b3c-8cd0-08ad0a0c797f","system_id":"levelo_inurba_marseille","lat":43.31117,"lon":5.37749,"is_reserved":false,"is_disabled":false,"rental_uris":{"android":"levelo://app?vid=d1ef06f7-3f63-4b3c-8cd0-08ad0a0c797f","ios":"levelo://app?vid=d1ef06f7-3f63-4b3c-8cd0-08ad0a0c797f"},"vehicle_type_id":"4","last_reported":1734455347,"current_range_meters":24800,"station_id":"ce4bgt92rcd13ifvqcg0","pricing_plan_id":"cebpf4jnsgd1na2vs0mg"},{"bike_id":"fc2fa04a-e722-4371-8749-69685a4b0890","system_id":"levelo_inurba_marseille","lat":43.25576,"lon":5.38225,"is_reserved":false,"is_disabled":false,"rental_uris":{"android":"levelo://app?vid=fc2fa04a-e722-4371-8749-69685a4b0890","ios":"levelo://app?vid=fc2fa04a-e722-4371-8749-69685a4b0890"},"vehicle_type_id":"4","last_reported":1734455347,"current_range_meters":8000,"station_id":"ce4bhih2rcd13ifvqfs0","pricing_plan_id":"cebpf4jnsgd1na2vs0mg"},{"bike_id":"b2fae302-f5eb-4bc2-b462-662e3f43cfa7","system_id":"levelo_inurba_marseille","lat":43.26937,"lon":5.40249,"is_reserved":false,"is_disabled":false,"rental_uris":{"android":"levelo://app?vid=b2fae302-f5eb-4bc2-b462-662e3f43cfa7","ios":"levelo://app?vid=b2fae302-f5eb-4bc2-b462-662e3f43cfa7"},"vehicle_type_id":"4","last_reported":1734455347,"current_range_meters":39200,"station_id":"cjm6bp8fraef2m0cb0m0","pricing_plan_id":"cebpf4jnsgd1na2vs0mg"},{"bike_id":"c739e16d-4e42-42a3-a2a1-b098bdc4986d","system_id":"levelo_inurba_marseille","lat":43.30138,"lon":5.38771,"is_reserved":false,"is_disabled":false,"rental_uris":{"android":"levelo://app?vid=c739e16d-4e42-42a3-a2a1-b098bdc4986d","ios":"levelo://app?vid=c739e16d-4e42-42a3-a2a1-b098bdc4986d"},"vehicle_type_id":"4","last_reported":1734455347,"current_range_meters":24000,"station_id":"ce4bghh2rcd13ifvqb60","pricing_plan_id":"cebpf4jnsgd1na2vs0mg"},{"bike_id":"08187f2b-ac93-4369-a23a-e9af5d562c96","system_id":"levelo_inurba_marseille","lat":43.29617,"lon":5.37713,"is_reserved":false,"is_disabled":false,"rental_uris":{"android":"levelo://app?vid=08187f2b-ac93-4369-a23a-e9af5d562c96","ios":"levelo://app?vid=08187f2b-ac93-4369-a23a-e9af5d562c96"},"vehicle_type_id":"4","last_reported":1734455347,"current_range_meters":22800,"station_id":"ce4bgi92rcd13ifvqb90","pricing_plan_id":"cebpf4jnsgd1na2vs0mg"},{"bike_id":"5c9d787a-ed08-4f6d-aae6-50e448cf550d","system_id":"levelo_inurba_marseille","lat":43.2602,"lon":5.37553,"is_reserved":false,"is_disabled":false,"rental_uris":{"android":"levelo://app?vid=5c9d787a-ed08-4f6d-aae6-50e448cf550d","ios":"levelo://app?vid=5c9d787a-ed08-4f6d-aae6-50e448cf550d"},"vehicle_type_id":"4","last_reported":1734455347,"current_range_meters":36000,"station_id":"ce4bhgh2rcd13ifvqfa0","pricing_plan_id":"cebpf4jnsgd1na2vs0mg"},{"bike_id":"20358b83-225d-4ff6-8386-f5d7e4ace024","system_id":"levelo_inurba_marseille","lat":43.300176,"lon":5.377323,"is_reserved":false,"is_disabled":true,"rental_uris":{"android":"levelo://app?vid=20358b83-225d-4ff6-8386-f5d7e4ace024","ios":"levelo://app?vid=20358b83-225d-4ff6-8386-f5d7e4ace024"},"vehicle_type_id":"4","last_reported":1734455347,"current_range_meters":6800,"station_id":"","pricing_plan_id":"cebpf4jnsgd1na2vs0mg"},{"bike_id":"b151c87e-1c3a-47a5-992f-a710ebcbfb6a","system_id":"levelo_inurba_marseille","lat":43.28482,"lon":5.38568,"is_reserved":false,"is_disabled":false,"rental_uris":{"android":"levelo://app?vid=b151c87e-1c3a-47a5-992f-a710ebcbfb6a","ios":"levelo://app?vid=b151c87e-1c3a-47a5-992f-a710ebcbfb6a"},"vehicle_type_id":"4","last_reported":1734455347,"current_range_meters":27600,"station_id":"ce4bh8p2rcd13ifvqeb0","pricing_plan_id":"cebpf4jnsgd1na2vs0mg"},{"bike_id":"4ba97f28-c244-4ca3-99cb-451b534d6dd8","system_id":"levelo_inurba_marseille","lat":43.29269,"lon":5.36849,"is_reserved":false,"is_disabled":false,"rental_uris":{"android":"levelo://app?vid=4ba97f28-c244-4ca3-99cb-451b534d6dd8","ios":"levelo://app?vid=4ba97f28-c244-4ca3-99cb-451b534d6dd8"},"vehicle_type_id":"4","last_reported":1734455347,"current_range_meters":19200,"station_id":"ce4bhbp2rcd13ifvqesg","pricing_plan_id":"cebpf4jnsgd1na2vs0mg"},{"bike_id":"2799e23c-43c1-44c2-9e90-09faddc877d8","system_id":"levelo_inurba_marseille","lat":43.32337,"lon":5.40623,"is_reserved":false,"is_disabled":false,"rental_uris":{"android":"levelo://app?vid=2799e23c-43c1-44c2-9e90-09faddc877d8","ios":"levelo://app?vid=2799e23c-43c1-44c2-9e90-09faddc877d8"},"vehicle_type_id":"4","last_reported":1734455347,"current_range_meters":17600,"station_id":"ce4bhq92rcd13ifvqhjg","pricing_plan_id":"cebpf4jnsgd1na2vs0mg"},{"bike_id":"7c17a688-c168-4bda-91dd-47d1d8ac1db1","system_id":"levelo_inurba_marseille","lat":43.29969,"lon":5.38484,"is_reserved":false,"is_disabled":false,"rental_uris":{"android":"levelo://app?vid=7c17a688-c168-4bda-91dd-47d1d8ac1db1","ios":"levelo://app?vid=7c17a688-c168-4bda-91dd-47d1d8ac1db1"},"vehicle_type_id":"4","last_reported":1734455347,"current_range_meters":20000,"station_id":"ce4bgj92rcd13ifvqbd0","pricing_plan_id":"cebpf4jnsgd1na2vs0mg"},{"bike_id":"4ef58d0d-8e30-4280-aa40-6d3ae5111f3b","system_id":"levelo_inurba_marseille","lat":43.30557,"lon":5.36899,"is_reserved":false,"is_disabled":false,"rental_uris":{"android":"levelo://app?vid=4ef58d0d-8e30-4280-aa40-6d3ae5111f3b","ios":"levelo://app?vid=4ef58d0d-8e30-4280-aa40-6d3ae5111f3b"},"vehicle_type_id":"4","last_reported":1734455347,"current_range_meters":36400,"station_id":"","pricing_plan_id":"cebpf4jnsgd1na2vs0mg"},{"bike_id":"d0279e34-46a7-41b3-9acb-a1fedb74ee76","system_id":"levelo_inurba_marseille","lat":43.30134,"lon":5.38771,"is_reserved":false,"is_disabled":false,"rental_uris":{"android":"levelo://app?vid=d0279e34-46a7-41b3-9acb-a1fedb74ee76","ios":"levelo://app?vid=d0279e34-46a7-41b3-9acb-a1fedb74ee76"},"vehicle_type_id":"4","last_reported":1734455347,"current_range_meters":11600,"station_id":"ce4bghh2rcd13ifvqb60","pricing_plan_id":"cebpf4jnsgd1na2vs0mg"},{"bike_id":"d9f860d6-7071-4819-814c-cc33d37b53eb","system_id":"levelo_inurba_marseille","lat":43.30852,"lon":5.38174,"is_reserved":false,"is_disabled":false,"rental_uris":{"android":"levelo://app?vid=d9f860d6-7071-4819-814c-cc33d37b53eb","ios":"levelo://app?vid=d9f860d6-7071-4819-814c-cc33d37b53eb"},"vehicle_type_id":"4","last_reported":1734455347,"current_range_meters":30000,"station_id":"","pricing_plan_id":"cebpf4jnsgd1na2vs0mg"},{"bike_id":"db584d88-d92b-4f3c-8228-211d5c1bf164","system_id":"levelo_inurba_marseille","lat":43.30127,"lon":5.37429,"is_reserved":false,"is_disabled":false,"rental_uris":{"android":"levelo://app?vid=db584d88-d92b-4f3c-8228-211d5c1bf164","ios":"levelo://app?vid=db584d88-d92b-4f3c-8228-211d5c1bf164"},"vehicle_type_id":"4","last_reported":1734455347,"current_range_meters":38800,"station_id":"ce4bgs92rcd13ifvqcc0","pricing_plan_id":"cebpf4jnsgd1na2vs0mg"},{"bike_id":"c2a3b356-64c8-48b4-843f-1aa5efc7119d","system_id":"levelo_inurba_marseille","lat":43.29708,"lon":5.37702,"is_reserved":false,"is_disabled":false,"rental_uris":{"android":"levelo://app?vid=c2a3b356-64c8-48b4-843f-1aa5efc7119d","ios":"levelo://app?vid=c2a3b356-64c8-48b4-843f-1aa5efc7119d"},"vehicle_type_id":"4","last_reported":1734455347,"current_range_meters":24800,"station_id":"ce4bgkh2rcd13ifvqbl0","pricing_plan_id":"cebpf4jnsgd1na2vs0mg"},{"bike_id":"33a6cab6-9865-4172-8f1d-a5789e8467c5","system_id":"levelo_inurba_marseille","lat":43.33017,"lon":5.39048,"is_reserved":false,"is_disabled":false,"rental_uris":{"android":"levelo://app?vid=33a6cab6-9865-4172-8f1d-a5789e8467c5","ios":"levelo://app?vid=33a6cab6-9865-4172-8f1d-a5789e8467c5"},"vehicle_type_id":"4","last_reported":1734455347,"current_range_meters":14800,"station_id":"ce4bhr92rcd13ifvqhrg","pricing_plan_id":"cebpf4jnsgd1na2vs0mg"},{"bike_id":"3581cbf2-1bdf-434e-90fb-5ae87912cf6b","system_id":"levelo_inurba_marseille","lat":43.25004,"lon":5.38939,"is_reserved":false,"is_disabled":false,"rental_uris":{"android":"levelo://app?vid=3581cbf2-1bdf-434e-90fb-5ae87912cf6b","ios":"levelo://app?vid=3581cbf2-1bdf-434e-90fb-5ae87912cf6b"},"vehicle_type_id":"4","last_reported":1734455347,"current_range_meters":16000,"station_id":"ce4bhgp2rcd13ifvqfd0","pricing_plan_id":"cebpf4jnsgd1na2vs0mg"},{"bike_id":"aacc7da2-1446-4d2a-aa32-e804470fc32d","system_id":"levelo_inurba_marseille","lat":43.29504,"lon":5.38683,"is_reserved":false,"is_disabled":true,"rental_uris":{"android":"levelo://app?vid=aacc7da2-1446-4d2a-aa32-e804470fc32d","ios":"levelo://app?vid=aacc7da2-1446-4d2a-aa32-e804470fc32d"},"vehicle_type_id":"4","last_reported":1734455347,"current_range_meters":28000,"station_id":"","pricing_plan_id":"cebpf4jnsgd1na2vs0mg"},{"bike_id":"937c90ec-cf04-465b-97b2-ee54435829e8","system_id":"levelo_inurba_marseille","lat":43.301974,"lon":5.366212,"is_reserved":false,"is_disabled":true,"rental_uris":{"android":"levelo://app?vid=937c90ec-cf04-465b-97b2-ee54435829e8","ios":"levelo://app?vid=937c90ec-cf04-465b-97b2-ee54435829e8"},"vehicle_type_id":"4","last_reported":1734455347,"current_range_meters":30800,"station_id":"","pricing_plan_id":"cebpf4jnsgd1na2vs0mg"},{"bike_id":"ec04383f-cf55-4729-89d1-9faffb2abf30","system_id":"levelo_inurba_marseille","lat":43.29873,"lon":5.38904,"is_reserved":false,"is_disabled":false,"rental_uris":{"android":"levelo://app?vid=ec04383f-cf55-4729-89d1-9faffb2abf30","ios":"levelo://app?vid=ec04383f-cf55-4729-89d1-9faffb2abf30"},"vehicle_type_id":"4","last_reported":1734455347,"current_range_meters":34000,"station_id":"ce4bh392rcd13ifvqdl0","pricing_plan_id":"cebpf4jnsgd1na2vs0mg"},{"bike_id":"124e6c05-4926-4207-84f5-da69a7334d60","system_id":"levelo_inurba_marseille","lat":43.29018,"lon":5.38141,"is_reserved":false,"is_disabled":true,"rental_uris":{"android":"levelo://app?vid=124e6c05-4926-4207-84f5-da69a7334d60","ios":"levelo://app?vid=124e6c05-4926-4207-84f5-da69a7334d60"},"vehicle_type_id":"4","last_reported":1734455347,"current_range_meters":38000,"station_id":"ce4bh4p2rcd13ifvqe1g","pricing_plan_id":"cebpf4jnsgd1na2vs0mg"},{"bike_id":"b56c4a15-79b4-43a7-be93-f93d9975d6ed","system_id":"levelo_inurba_marseille","lat":43.26941,"lon":5.40248,"is_reserved":false,"is_disabled":false,"rental_uris":{"android":"levelo://app?vid=b56c4a15-79b4-43a7-be93-f93d9975d6ed","ios":"levelo://app?vid=b56c4a15-79b4-43a7-be93-f93d9975d6ed"},"vehicle_type_id":"4","last_reported":1734455347,"current_range_meters":15200,"station_id":"cjm6bp8fraef2m0cb0m0","pricing_plan_id":"cebpf4jnsgd1na2vs0mg"},{"bike_id":"6f168e46-9648-41fc-b6a8-e041ecc91ce6","system_id":"levelo_inurba_marseille","lat":43.26994,"lon":5.39952,"is_reserved":false,"is_disabled":false,"rental_uris":{"android":"levelo://app?vid=6f168e46-9648-41fc-b6a8-e041ecc91ce6","ios":"levelo://app?vid=6f168e46-9648-41fc-b6a8-e041ecc91ce6"},"vehicle_type_id":"4","last_reported":1734455347,"current_range_meters":6800,"station_id":"","pricing_plan_id":"cebpf4jnsgd1na2vs0mg"},{"bike_id":"dc0e6df7-295d-4e62-8939-9c7a9d49b036","system_id":"levelo_inurba_marseille","lat":43.29951,"lon":5.41346,"is_reserved":false,"is_disabled":true,"rental_uris":{"android":"levelo://app?vid=dc0e6df7-295d-4e62-8939-9c7a9d49b036","ios":"levelo://app?vid=dc0e6df7-295d-4e62-8939-9c7a9d49b036"},"vehicle_type_id":"4","last_reported":1734455347,"current_range_meters":29600,"station_id":"ce4bhp12rcd13ifvqh9g","pricing_plan_id":"cebpf4jnsgd1na2vs0mg"},{"bike_id":"dbaf1603-5eda-493e-8d89-0580018167c2","system_id":"levelo_inurba_marseille","lat":43.2991,"lon":5.38162,"is_reserved":false,"is_disabled":false,"rental_uris":{"android":"levelo://app?vid=dbaf1603-5eda-493e-8d89-0580018167c2","ios":"levelo://app?vid=dbaf1603-5eda-493e-8d89-0580018167c2"},"vehicle_type_id":"4","last_reported":1734455347,"current_range_meters":11200,"station_id":"ce4bgj12rcd13ifvqbc0","pricing_plan_id":"cebpf4jnsgd1na2vs0mg"},{"bike_id":"0a63bca6-39a0-42cf-bc8f-cd65c34f24df","system_id":"levelo_inurba_marseille","lat":43.24647,"lon":5.38887,"is_reserved":false,"is_disabled":false,"rental_uris":{"android":"levelo://app?vid=0a63bca6-39a0-42cf-bc8f-cd65c34f24df","ios":"levelo://app?vid=0a63bca6-39a0-42cf-bc8f-cd65c34f24df"},"vehicle_type_id":"4","last_reported":1734455347,"current_range_meters":38800,"station_id":"ce4bhg12rcd13ifvqf60","pricing_plan_id":"cebpf4jnsgd1na2vs0mg"},{"bike_id":"9a8e68f0-d65b-4e88-a56d-56a828ded14b","system_id":"levelo_inurba_marseille","lat":43.33016,"lon":5.39032,"is_reserved":false,"is_disabled":false,"rental_uris":{"android":"levelo://app?vid=9a8e68f0-d65b-4e88-a56d-56a828ded14b","ios":"levelo://app?vid=9a8e68f0-d65b-4e88-a56d-56a828ded14b"},"vehicle_type_id":"4","last_reported":1734455347,"current_range_meters":25200,"station_id":"ce4bhr92rcd13ifvqhrg","pricing_plan_id":"cebpf4jnsgd1na2vs0mg"},{"bike_id":"760a535a-bafd-4d58-a35e-d4a31ad45e95","system_id":"levelo_inurba_marseille","lat":43.2971,"lon":5.36615,"is_reserved":false,"is_disabled":false,"rental_uris":{"android":"levelo://app?vid=760a535a-bafd-4d58-a35e-d4a31ad45e95","ios":"levelo://app?vid=760a535a-bafd-4d58-a35e-d4a31ad45e95"},"vehicle_type_id":"4","last_reported":1734455347,"current_range_meters":34800,"station_id":"ce4bgn12rcd13ifvqbt0","pricing_plan_id":"cebpf4jnsgd1na2vs0mg"},{"bike_id":"ea1ee0a0-f240-4d25-84d9-e6fb6fc7a18c","system_id":"levelo_inurba_marseille","lat":43.33775,"lon":5.42094,"is_reserved":false,"is_disabled":true,"rental_uris":{"android":"levelo://app?vid=ea1ee0a0-f240-4d25-84d9-e6fb6fc7a18c","ios":"levelo://app?vid=ea1ee0a0-f240-4d25-84d9-e6fb6fc7a18c"},"vehicle_type_id":"4","last_reported":1734455347,"current_range_meters":0,"station_id":"","pricing_plan_id":"cebpf4jnsgd1na2vs0mg"},{"bike_id":"06c6e1cd-66a9-44f1-a613-032c381bdb70","system_id":"levelo_inurba_marseille","lat":43.28468,"lon":5.35884,"is_reserved":false,"is_disabled":false,"rental_uris":{"android":"levelo://app?vid=06c6e1cd-66a9-44f1-a613-032c381bdb70","ios":"levelo://app?vid=06c6e1cd-66a9-44f1-a613-032c381bdb70"},"vehicle_type_id":"4","last_reported":1734455347,"current_range_meters":24400,"station_id":"ce4bhah2rcd13ifvqei0","pricing_plan_id":"cebpf4jnsgd1na2vs0mg"},{"bike_id":"a2f60cbb-aa02-4530-92a3-7597251e95e4","system_id":"levelo_inurba_marseille","lat":43.26685,"lon":5.38271,"is_reserved":false,"is_disabled":true,"rental_uris":{"android":"levelo://app?vid=a2f60cbb-aa02-4530-92a3-7597251e95e4","ios":"levelo://app?vid=a2f60cbb-aa02-4530-92a3-7597251e95e4"},"vehicle_type_id":"4","last_reported":1734455347,"current_range_meters":34000,"station_id":"ce4bhg92rcd13ifvqf90","pricing_plan_id":"cebpf4jnsgd1na2vs0mg"},{"bike_id":"00f694cf-3a25-43bc-a129-dfeee772a105","system_id":"levelo_inurba_marseille","lat":43.27061,"lon":5.40259,"is_reserved":false,"is_disabled":false,"rental_uris":{"android":"levelo://app?vid=00f694cf-3a25-43bc-a129-dfeee772a105","ios":"levelo://app?vid=00f694cf-3a25-43bc-a129-dfeee772a105"},"vehicle_type_id":"4","last_reported":1734455347,"current_range_meters":24800,"station_id":"ce4bhk92rcd13ifvqgc0","pricing_plan_id":"cebpf4jnsgd1na2vs0mg"},{"bike_id":"2b9e5232-81d0-497c-a52e-1e7fea60b29a","system_id":"levelo_inurba_marseille","lat":43.32356,"lon":5.38881,"is_reserved":false,"is_disabled":false,"rental_uris":{"android":"levelo://app?vid=2b9e5232-81d0-497c-a52e-1e7fea60b29a","ios":"levelo://app?vid=2b9e5232-81d0-497c-a52e-1e7fea60b29a"},"vehicle_type_id":"4","last_reported":1734455347,"current_range_meters":27600,"station_id":"ce4bhqp2rcd13ifvqhog","pricing_plan_id":"cebpf4jnsgd1na2vs0mg"},{"bike_id":"7563b6ef-9320-4ba8-a4f4-f34873d22ab9","system_id":"levelo_inurba_marseille","lat":43.30169,"lon":5.3743,"is_reserved":false,"is_disabled":false,"rental_uris":{"android":"levelo://app?vid=7563b6ef-9320-4ba8-a4f4-f34873d22ab9","ios":"levelo://app?vid=7563b6ef-9320-4ba8-a4f4-f34873d22ab9"},"vehicle_type_id":"4","last_reported":1734455347,"current_range_meters":38400,"station_id":"ce4bgs92rcd13ifvqcc0","pricing_plan_id":"cebpf4jnsgd1na2vs0mg"},{"bike_id":"7d6ada81-fb94-4a18-91f8-d67d9c990c45","system_id":"levelo_inurba_marseille","lat":43.26494,"lon":5.39541,"is_reserved":false,"is_disabled":false,"rental_uris":{"android":"levelo://app?vid=7d6ada81-fb94-4a18-91f8-d67d9c990c45","ios":"levelo://app?vid=7d6ada81-fb94-4a18-91f8-d67d9c990c45"},"vehicle_type_id":"4","last_reported":1734455347,"current_range_meters":35600,"station_id":"ce4bhi12rcd13ifvqfq0","pricing_plan_id":"cebpf4jnsgd1na2vs0mg"},{"bike_id":"fdae6994-2b52-4fd0-8d8f-e92f1ee91c77","system_id":"levelo_inurba_marseille","lat":43.28456,"lon":5.35888,"is_reserved":false,"is_disabled":false,"rental_uris":{"android":"levelo://app?vid=fdae6994-2b52-4fd0-8d8f-e92f1ee91c77","ios":"levelo://app?vid=fdae6994-2b52-4fd0-8d8f-e92f1ee91c77"},"vehicle_type_id":"4","last_reported":1734455347,"current_range_meters":32400,"station_id":"ce4bhah2rcd13ifvqei0","pricing_plan_id":"cebpf4jnsgd1na2vs0mg"},{"bike_id":"38f20744-af43-4445-b9c5-a52798357518","system_id":"levelo_inurba_marseille","lat":43.25494,"lon":5.37648,"is_reserved":false,"is_disabled":false,"rental_uris":{"android":"levelo://app?vid=38f20744-af43-4445-b9c5-a52798357518","ios":"levelo://app?vid=38f20744-af43-4445-b9c5-a52798357518"},"vehicle_type_id":"4","last_reported":1734455347,"current_range_meters":38400,"station_id":"ce4bhh12rcd13ifvqff0","pricing_plan_id":"cebpf4jnsgd1na2vs0mg"},{"bike_id":"c8a047d4-0def-4100-b1c3-7b626e85698c","system_id":"levelo_inurba_marseille","lat":43.30439,"lon":5.38894,"is_reserved":false,"is_disabled":false,"rental_uris":{"android":"levelo://app?vid=c8a047d4-0def-4100-b1c3-7b626e85698c","ios":"levelo://app?vid=c8a047d4-0def-4100-b1c3-7b626e85698c"},"vehicle_type_id":"4","last_reported":1734455347,"current_range_meters":34800,"station_id":"ce4bgk12rcd13ifvqbi0","pricing_plan_id":"cebpf4jnsgd1na2vs0mg"},{"bike_id":"2b109fc5-2ad5-44d6-994f-55e37d7d8b89","system_id":"levelo_inurba_marseille","lat":43.32121,"lon":5.3678,"is_reserved":false,"is_disabled":false,"rental_uris":{"android":"levelo://app?vid=2b109fc5-2ad5-44d6-994f-55e37d7d8b89","ios":"levelo://app?vid=2b109fc5-2ad5-44d6-994f-55e37d7d8b89"},"vehicle_type_id":"4","last_reported":1734455347,"current_range_meters":33200,"station_id":"ce4bhrh2rcd13ifvqhug","pricing_plan_id":"cebpf4jnsgd1na2vs0mg"},{"bike_id":"6c0d56ff-6097-4dff-a3ad-663ee7fcbb54","system_id":"levelo_inurba_marseille","lat":43.28155,"lon":5.42644,"is_reserved":false,"is_disabled":false,"rental_uris":{"android":"levelo://app?vid=6c0d56ff-6097-4dff-a3ad-663ee7fcbb54","ios":"levelo://app?vid=6c0d56ff-6097-4dff-a3ad-663ee7fcbb54"},"vehicle_type_id":"4","last_reported":1734455347,"current_range_meters":17600,"station_id":"ce4bhnh2rcd13ifvqgug","pricing_plan_id":"cebpf4jnsgd1na2vs0mg"},{"bike_id":"8b47f77d-68a3-465b-8076-fb0302e8abf4","system_id":"levelo_inurba_marseille","lat":43.31169,"lon":5.38719,"is_reserved":false,"is_disabled":false,"rental_uris":{"android":"levelo://app?vid=8b47f77d-68a3-465b-8076-fb0302e8abf4","ios":"levelo://app?vid=8b47f77d-68a3-465b-8076-fb0302e8abf4"},"vehicle_type_id":"4","last_reported":1734455347,"current_range_meters":20000,"station_id":"ce4bgv12rcd13ifvqcp0","pricing_plan_id":"cebpf4jnsgd1na2vs0mg"},{"bike_id":"7b99b9e0-22f7-471f-89c6-bd1477871d42","system_id":"levelo_inurba_marseille","lat":43.26944,"lon":5.40247,"is_reserved":false,"is_disabled":false,"rental_uris":{"android":"levelo://app?vid=7b99b9e0-22f7-471f-89c6-bd1477871d42","ios":"levelo://app?vid=7b99b9e0-22f7-471f-89c6-bd1477871d42"},"vehicle_type_id":"4","last_reported":1734455347,"current_range_meters":38000,"station_id":"cjm6bp8fraef2m0cb0m0","pricing_plan_id":"cebpf4jnsgd1na2vs0mg"},{"bike_id":"45b39e50-137b-40ed-8099-af5b128ed6d9","system_id":"levelo_inurba_marseille","lat":43.29554,"lon":5.42292,"is_reserved":false,"is_disabled":false,"rental_uris":{"android":"levelo://app?vid=45b39e50-137b-40ed-8099-af5b128ed6d9","ios":"levelo://app?vid=45b39e50-137b-40ed-8099-af5b128ed6d9"},"vehicle_type_id":"4","last_reported":1734455347,"current_range_meters":22000,"station_id":"ce4bhph2rcd13ifvqhdg","pricing_plan_id":"cebpf4jnsgd1na2vs0mg"},{"bike_id":"8dfc3880-e2e5-4018-ad23-0265187f3328","system_id":"levelo_inurba_marseille","lat":43.29624,"lon":5.37723,"is_reserved":false,"is_disabled":false,"rental_uris":{"android":"levelo://app?vid=8dfc3880-e2e5-4018-ad23-0265187f3328","ios":"levelo://app?vid=8dfc3880-e2e5-4018-ad23-0265187f3328"},"vehicle_type_id":"4","last_reported":1734455347,"current_range_meters":30000,"station_id":"ce4bgi92rcd13ifvqb90","pricing_plan_id":"cebpf4jnsgd1na2vs0mg"},{"bike_id":"77b045ec-31af-4db4-b5a1-524f94c3c261","system_id":"levelo_inurba_marseille","lat":43.29296,"lon":5.3744,"is_reserved":false,"is_disabled":true,"rental_uris":{"android":"levelo://app?vid=77b045ec-31af-4db4-b5a1-524f94c3c261","ios":"levelo://app?vid=77b045ec-31af-4db4-b5a1-524f94c3c261"},"vehicle_type_id":"4","last_reported":1734455347,"current_range_meters":36000,"station_id":"ce4bgi12rcd13ifvqb70","pricing_plan_id":"cebpf4jnsgd1na2vs0mg"},{"bike_id":"4f720f2b-c111-4327-aa85-323f2f97bdbe","system_id":"levelo_inurba_marseille","lat":43.27813,"lon":5.40709,"is_reserved":false,"is_disabled":false,"rental_uris":{"android":"levelo://app?vid=4f720f2b-c111-4327-aa85-323f2f97bdbe","ios":"levelo://app?vid=4f720f2b-c111-4327-aa85-323f2f97bdbe"},"vehicle_type_id":"4","last_reported":1734455347,"current_range_meters":36800,"station_id":"ce4bhnh2rcd13ifvqgtg","pricing_plan_id":"cebpf4jnsgd1na2vs0mg"},{"bike_id":"f9b97aa3-1e9d-4f04-b7e2-b14aa89bea8d","system_id":"levelo_inurba_marseille","lat":43.31078,"lon":5.42447,"is_reserved":false,"is_disabled":false,"rental_uris":{"android":"levelo://app?vid=f9b97aa3-1e9d-4f04-b7e2-b14aa89bea8d","ios":"levelo://app?vid=f9b97aa3-1e9d-4f04-b7e2-b14aa89bea8d"},"vehicle_type_id":"4","last_reported":1734455347,"current_range_meters":19600,"station_id":"ce4bhp92rcd13ifvqhag","pricing_plan_id":"cebpf4jnsgd1na2vs0mg"},{"bike_id":"40b87c45-7a27-47f6-9b54-3fe9e3b20b0a","system_id":"levelo_inurba_marseille","lat":43.26025,"lon":5.37563,"is_reserved":false,"is_disabled":true,"rental_uris":{"android":"levelo://app?vid=40b87c45-7a27-47f6-9b54-3fe9e3b20b0a","ios":"levelo://app?vid=40b87c45-7a27-47f6-9b54-3fe9e3b20b0a"},"vehicle_type_id":"4","last_reported":1734455347,"current_range_meters":0,"station_id":"ce4bhgh2rcd13ifvqfa0","pricing_plan_id":"cebpf4jnsgd1na2vs0mg"},{"bike_id":"4aa80255-4c8a-4d02-8e1d-54fac6cada79","system_id":"levelo_inurba_marseille","lat":43.25086,"lon":5.39521,"is_reserved":false,"is_disabled":true,"rental_uris":{"android":"levelo://app?vid=4aa80255-4c8a-4d02-8e1d-54fac6cada79","ios":"levelo://app?vid=4aa80255-4c8a-4d02-8e1d-54fac6cada79"},"vehicle_type_id":"4","last_reported":1734455347,"current_range_meters":800,"station_id":"ce4bhm12rcd13ifvqgkg","pricing_plan_id":"cebpf4jnsgd1na2vs0mg"},{"bike_id":"98fbd3a1-f95e-4fc1-9fb1-4b8ebe53a252","system_id":"levelo_inurba_marseille","lat":43.27839,"lon":5.3921,"is_reserved":false,"is_disabled":false,"rental_uris":{"android":"levelo://app?vid=98fbd3a1-f95e-4fc1-9fb1-4b8ebe53a252","ios":"levelo://app?vid=98fbd3a1-f95e-4fc1-9fb1-4b8ebe53a252"},"vehicle_type_id":"4","last_reported":1734455347,"current_range_meters":37600,"station_id":"ce4bhjp2rcd13ifvqga0","pricing_plan_id":"cebpf4jnsgd1na2vs0mg"},{"bike_id":"a74e2f2e-5305-46cf-a4a9-9eb5976ad548","system_id":"levelo_inurba_marseille","lat":43.27911,"lon":5.39572,"is_reserved":false,"is_disabled":false,"rental_uris":{"android":"levelo://app?vid=a74e2f2e-5305-46cf-a4a9-9eb5976ad548","ios":"levelo://app?vid=a74e2f2e-5305-46cf-a4a9-9eb5976ad548"},"vehicle_type_id":"4","last_reported":1734455347,"current_range_meters":38800,"station_id":"ce4bhf92rcd13ifvqf40","pricing_plan_id":"cebpf4jnsgd1na2vs0mg"},{"bike_id":"7ac5424e-a731-49fe-826a-ac5d1fb7499c","system_id":"levelo_inurba_marseille","lat":43.29399,"lon":5.38575,"is_reserved":false,"is_disabled":true,"rental_uris":{"android":"levelo://app?vid=7ac5424e-a731-49fe-826a-ac5d1fb7499c","ios":"levelo://app?vid=7ac5424e-a731-49fe-826a-ac5d1fb7499c"},"vehicle_type_id":"4","last_reported":1734455347,"current_range_meters":1200,"station_id":"ce4bh2h2rcd13ifvqdh0","pricing_plan_id":"cebpf4jnsgd1na2vs0mg"},{"bike_id":"30c45d52-522c-4449-b612-98093ee606b2","system_id":"levelo_inurba_marseille","lat":43.33604,"lon":5.41032,"is_reserved":false,"is_disabled":false,"rental_uris":{"android":"levelo://app?vid=30c45d52-522c-4449-b612-98093ee606b2","ios":"levelo://app?vid=30c45d52-522c-4449-b612-98093ee606b2"},"vehicle_type_id":"4","last_reported":1734455347,"current_range_meters":14800,"station_id":"ce4bhqh2rcd13ifvqhmg","pricing_plan_id":"cebpf4jnsgd1na2vs0mg"},{"bike_id":"4d50a44b-efa8-49b2-afb2-831ec303dfd7","system_id":"levelo_inurba_marseille","lat":43.29084,"lon":5.37175,"is_reserved":false,"is_disabled":false,"rental_uris":{"android":"levelo://app?vid=4d50a44b-efa8-49b2-afb2-831ec303dfd7","ios":"levelo://app?vid=4d50a44b-efa8-49b2-afb2-831ec303dfd7"},"vehicle_type_id":"4","last_reported":1734455347,"current_range_meters":22400,"station_id":"ce4bh5p2rcd13ifvqe4g","pricing_plan_id":"cebpf4jnsgd1na2vs0mg"},{"bike_id":"b7a341b1-facf-48ab-a779-26b8eb9a0a47","system_id":"levelo_inurba_marseille","lat":43.29561,"lon":5.39976,"is_reserved":false,"is_disabled":true,"rental_uris":{"android":"levelo://app?vid=b7a341b1-facf-48ab-a779-26b8eb9a0a47","ios":"levelo://app?vid=b7a341b1-facf-48ab-a779-26b8eb9a0a47"},"vehicle_type_id":"4","last_reported":1734455347,"current_range_meters":2000,"station_id":"ce4bh312rcd13ifvqdj0","pricing_plan_id":"cebpf4jnsgd1na2vs0mg"},{"bike_id":"939ef11f-362b-4ed3-aded-ebb978be04f1","system_id":"levelo_inurba_marseille","lat":43.2794,"lon":5.41043,"is_reserved":false,"is_disabled":false,"rental_uris":{"android":"levelo://app?vid=939ef11f-362b-4ed3-aded-ebb978be04f1","ios":"levelo://app?vid=939ef11f-362b-4ed3-aded-ebb978be04f1"},"vehicle_type_id":"4","last_reported":1734455347,"current_range_meters":32800,"station_id":"ce4bhnp2rcd13ifvqh0g","pricing_plan_id":"cebpf4jnsgd1na2vs0mg"},{"bike_id":"3661c8b2-61c2-4b97-b6a4-53dd244f7682","system_id":"levelo_inurba_marseille","lat":43.27909,"lon":5.39577,"is_reserved":false,"is_disabled":false,"rental_uris":{"android":"levelo://app?vid=3661c8b2-61c2-4b97-b6a4-53dd244f7682","ios":"levelo://app?vid=3661c8b2-61c2-4b97-b6a4-53dd244f7682"},"vehicle_type_id":"4","last_reported":1734455347,"current_range_meters":11200,"station_id":"ce4bhf92rcd13ifvqf40","pricing_plan_id":"cebpf4jnsgd1na2vs0mg"},{"bike_id":"399886e1-1fd8-45ef-b9a3-f32444b7db24","system_id":"levelo_inurba_marseille","lat":43.27322,"lon":5.39075,"is_reserved":false,"is_disabled":true,"rental_uris":{"android":"levelo://app?vid=399886e1-1fd8-45ef-b9a3-f32444b7db24","ios":"levelo://app?vid=399886e1-1fd8-45ef-b9a3-f32444b7db24"},"vehicle_type_id":"4","last_reported":1734455347,"current_range_meters":35600,"station_id":"ce4bhgp2rcd13ifvqfe0","pricing_plan_id":"cebpf4jnsgd1na2vs0mg"},{"bike_id":"84878fc9-e8fa-4187-ad67-d4167cc57046","system_id":"levelo_inurba_marseille","lat":43.27832,"lon":5.39201,"is_reserved":false,"is_disabled":false,"rental_uris":{"android":"levelo://app?vid=84878fc9-e8fa-4187-ad67-d4167cc57046","ios":"levelo://app?vid=84878fc9-e8fa-4187-ad67-d4167cc57046"},"vehicle_type_id":"4","last_reported":1734455347,"current_range_meters":26000,"station_id":"ce4bhjp2rcd13ifvqga0","pricing_plan_id":"cebpf4jnsgd1na2vs0mg"},{"bike_id":"a45e0582-9f5c-4782-9ac0-c8d5d718b491","system_id":"levelo_inurba_marseille","lat":43.26783,"lon":5.39413,"is_reserved":false,"is_disabled":false,"rental_uris":{"android":"levelo://app?vid=a45e0582-9f5c-4782-9ac0-c8d5d718b491","ios":"levelo://app?vid=a45e0582-9f5c-4782-9ac0-c8d5d718b491"},"vehicle_type_id":"4","last_reported":1734455347,"current_range_meters":3600,"station_id":"ce4bhh12rcd13ifvqfg0","pricing_plan_id":"cebpf4jnsgd1na2vs0mg"},{"bike_id":"6907de36-d690-4a5d-be69-bc9b8c1c88a3","system_id":"levelo_inurba_marseille","lat":43.29685,"lon":5.37285,"is_reserved":false,"is_disabled":false,"rental_uris":{"android":"levelo://app?vid=6907de36-d690-4a5d-be69-bc9b8c1c88a3","ios":"levelo://app?vid=6907de36-d690-4a5d-be69-bc9b8c1c88a3"},"vehicle_type_id":"4","last_reported":1734455347,"current_range_meters":36800,"station_id":"ce4bgk12rcd13ifvqbj0","pricing_plan_id":"cebpf4jnsgd1na2vs0mg"},{"bike_id":"cebb2fe6-dd82-4aa3-a8d5-f3291341a320","system_id":"levelo_inurba_marseille","lat":43.24659,"lon":5.38162,"is_reserved":false,"is_disabled":false,"rental_uris":{"android":"levelo://app?vid=cebb2fe6-dd82-4aa3-a8d5-f3291341a320","ios":"levelo://app?vid=cebb2fe6-dd82-4aa3-a8d5-f3291341a320"},"vehicle_type_id":"4","last_reported":1734455347,"current_range_meters":22000,"station_id":"ce4bhih2rcd13ifvqfr0","pricing_plan_id":"cebpf4jnsgd1na2vs0mg"},{"bike_id":"782bcbf2-b7de-4b04-bebc-aaa0329dd90c","system_id":"levelo_inurba_marseille","lat":43.23187,"lon":5.35547,"is_reserved":false,"is_disabled":false,"rental_uris":{"android":"levelo://app?vid=782bcbf2-b7de-4b04-bebc-aaa0329dd90c","ios":"levelo://app?vid=782bcbf2-b7de-4b04-bebc-aaa0329dd90c"},"vehicle_type_id":"4","last_reported":1734455347,"current_range_meters":38800,"station_id":"ce4bhu92rcd13ifvqi70","pricing_plan_id":"cebpf4jnsgd1na2vs0mg"},{"bike_id":"a925316d-9d31-43b0-a430-5cb1bef87372","system_id":"levelo_inurba_marseille","lat":43.2718,"lon":5.40992,"is_reserved":false,"is_disabled":false,"rental_uris":{"android":"levelo://app?vid=a925316d-9d31-43b0-a430-5cb1bef87372","ios":"levelo://app?vid=a925316d-9d31-43b0-a430-5cb1bef87372"},"vehicle_type_id":"4","last_reported":1734455347,"current_range_meters":24800,"station_id":"ce4bhl12rcd13ifvqgf0","pricing_plan_id":"cebpf4jnsgd1na2vs0mg"},{"bike_id":"540c19ab-e8ac-4092-909b-c3e5069b6978","system_id":"levelo_inurba_marseille","lat":43.337444,"lon":5.374475,"is_reserved":false,"is_disabled":true,"rental_uris":{"android":"levelo://app?vid=540c19ab-e8ac-4092-909b-c3e5069b6978","ios":"levelo://app?vid=540c19ab-e8ac-4092-909b-c3e5069b6978"},"vehicle_type_id":"4","last_reported":1734455347,"current_range_meters":0,"station_id":"","pricing_plan_id":"cebpf4jnsgd1na2vs0mg"},{"bike_id":"a83f1763-10d1-4759-91e9-755d5c1ed28d","system_id":"levelo_inurba_marseille","lat":43.29582,"lon":5.36737,"is_reserved":false,"is_disabled":false,"rental_uris":{"android":"levelo://app?vid=a83f1763-10d1-4759-91e9-755d5c1ed28d","ios":"levelo://app?vid=a83f1763-10d1-4759-91e9-755d5c1ed28d"},"vehicle_type_id":"4","last_reported":1734455347,"current_range_meters":38400,"station_id":"ce4bgph2rcd13ifvqc2g","pricing_plan_id":"cebpf4jnsgd1na2vs0mg"},{"bike_id":"a4b843c1-dec2-4081-bd74-296af41dcf67","system_id":"levelo_inurba_marseille","lat":43.29618,"lon":5.37153,"is_reserved":false,"is_disabled":false,"rental_uris":{"android":"levelo://app?vid=a4b843c1-dec2-4081-bd74-296af41dcf67","ios":"levelo://app?vid=a4b843c1-dec2-4081-bd74-296af41dcf67"},"vehicle_type_id":"4","last_reported":1734455347,"current_range_meters":36800,"station_id":"ce4bgnh2rcd13ifvqc0g","pricing_plan_id":"cebpf4jnsgd1na2vs0mg"},{"bike_id":"0e853b40-5ab0-423f-9897-613da707d815","system_id":"levelo_inurba_marseille","lat":43.27811,"lon":5.40723,"is_reserved":false,"is_disabled":false,"rental_uris":{"android":"levelo://app?vid=0e853b40-5ab0-423f-9897-613da707d815","ios":"levelo://app?vid=0e853b40-5ab0-423f-9897-613da707d815"},"vehicle_type_id":"4","last_reported":1734455347,"current_range_meters":22800,"station_id":"ce4bhnh2rcd13ifvqgtg","pricing_plan_id":"cebpf4jnsgd1na2vs0mg"},{"bike_id":"99b91171-fdca-426c-9c5c-0f1db2efdad6","system_id":"levelo_inurba_marseille","lat":43.27809,"lon":5.40704,"is_reserved":false,"is_disabled":false,"rental_uris":{"android":"levelo://app?vid=99b91171-fdca-426c-9c5c-0f1db2efdad6","ios":"levelo://app?vid=99b91171-fdca-426c-9c5c-0f1db2efdad6"},"vehicle_type_id":"4","last_reported":1734455347,"current_range_meters":35600,"station_id":"ce4bhnh2rcd13ifvqgtg","pricing_plan_id":"cebpf4jnsgd1na2vs0mg"},{"bike_id":"5b9dadf4-f3ef-496a-933f-556a1442196c","system_id":"levelo_inurba_marseille","lat":43.27949,"lon":5.4104,"is_reserved":false,"is_disabled":false,"rental_uris":{"android":"levelo://app?vid=5b9dadf4-f3ef-496a-933f-556a1442196c","ios":"levelo://app?vid=5b9dadf4-f3ef-496a-933f-556a1442196c"},"vehicle_type_id":"4","last_reported":1734455347,"current_range_meters":38800,"station_id":"ce4bhnp2rcd13ifvqh0g","pricing_plan_id":"cebpf4jnsgd1na2vs0mg"},{"bike_id":"8adeed2f-135b-4f23-a52b-1a86f28ba8bd","system_id":"levelo_inurba_marseille","lat":43.29592,"lon":5.38106,"is_reserved":false,"is_disabled":false,"rental_uris":{"android":"levelo://app?vid=8adeed2f-135b-4f23-a52b-1a86f28ba8bd","ios":"levelo://app?vid=8adeed2f-135b-4f23-a52b-1a86f28ba8bd"},"vehicle_type_id":"4","last_reported":1734455347,"current_range_meters":38800,"station_id":"ce4bgl12rcd13ifvqbo0","pricing_plan_id":"cebpf4jnsgd1na2vs0mg"},{"bike_id":"777ef46c-6547-4410-93ec-789cc0b6ae49","system_id":"levelo_inurba_marseille","lat":43.268116,"lon":5.393526,"is_reserved":false,"is_disabled":false,"rental_uris":{"android":"levelo://app?vid=777ef46c-6547-4410-93ec-789cc0b6ae49","ios":"levelo://app?vid=777ef46c-6547-4410-93ec-789cc0b6ae49"},"vehicle_type_id":"4","last_reported":1734455347,"current_range_meters":19600,"station_id":"ce4bhh12rcd13ifvqfg0","pricing_plan_id":"cebpf4jnsgd1na2vs0mg"},{"bike_id":"721dd5e8-e7e1-4b07-b504-7db14fd48cea","system_id":"levelo_inurba_marseille","lat":43.25575,"lon":5.38251,"is_reserved":false,"is_disabled":false,"rental_uris":{"android":"levelo://app?vid=721dd5e8-e7e1-4b07-b504-7db14fd48cea","ios":"levelo://app?vid=721dd5e8-e7e1-4b07-b504-7db14fd48cea"},"vehicle_type_id":"4","last_reported":1734455347,"current_range_meters":19200,"station_id":"ce4bhih2rcd13ifvqfs0","pricing_plan_id":"cebpf4jnsgd1na2vs0mg"},{"bike_id":"89ea63b1-9101-4c1a-9a5f-5cd18c37926d","system_id":"levelo_inurba_marseille","lat":43.2995,"lon":5.36541,"is_reserved":false,"is_disabled":false,"rental_uris":{"android":"levelo://app?vid=89ea63b1-9101-4c1a-9a5f-5cd18c37926d","ios":"levelo://app?vid=89ea63b1-9101-4c1a-9a5f-5cd18c37926d"},"vehicle_type_id":"4","last_reported":1734455347,"current_range_meters":6400,"station_id":"ce4bgm92rcd13ifvqbr0","pricing_plan_id":"cebpf4jnsgd1na2vs0mg"},{"bike_id":"1adaea00-ed72-49a8-91bf-6c20e9f42f29","system_id":"levelo_inurba_marseille","lat":43.23184,"lon":5.3998,"is_reserved":false,"is_disabled":false,"rental_uris":{"android":"levelo://app?vid=1adaea00-ed72-49a8-91bf-6c20e9f42f29","ios":"levelo://app?vid=1adaea00-ed72-49a8-91bf-6c20e9f42f29"},"vehicle_type_id":"4","last_reported":1734455347,"current_range_meters":27600,"station_id":"ce4bhn12rcd13ifvqgqg","pricing_plan_id":"cebpf4jnsgd1na2vs0mg"},{"bike_id":"272c380d-0e96-4217-82cd-b4ae34bffa4a","system_id":"levelo_inurba_marseille","lat":43.26936,"lon":5.38929,"is_reserved":false,"is_disabled":true,"rental_uris":{"android":"levelo://app?vid=272c380d-0e96-4217-82cd-b4ae34bffa4a","ios":"levelo://app?vid=272c380d-0e96-4217-82cd-b4ae34bffa4a"},"vehicle_type_id":"4","last_reported":1734455347,"current_range_meters":28000,"station_id":"ce4bhhh2rcd13ifvqfl0","pricing_plan_id":"cebpf4jnsgd1na2vs0mg"},{"bike_id":"a1b995ae-f28e-4934-9e45-f901f70579de","system_id":"levelo_inurba_marseille","lat":43.28109,"lon":5.37845,"is_reserved":false,"is_disabled":false,"rental_uris":{"android":"levelo://app?vid=a1b995ae-f28e-4934-9e45-f901f70579de","ios":"levelo://app?vid=a1b995ae-f28e-4934-9e45-f901f70579de"},"vehicle_type_id":"4","last_reported":1734455347,"current_range_meters":38400,"station_id":"ce4bha12rcd13ifvqee0","pricing_plan_id":"cebpf4jnsgd1na2vs0mg"},{"bike_id":"710c8371-a5bf-43ef-b36d-d9df2d5acb68","system_id":"levelo_inurba_marseille","lat":43.26213,"lon":5.37444,"is_reserved":false,"is_disabled":false,"rental_uris":{"android":"levelo://app?vid=710c8371-a5bf-43ef-b36d-d9df2d5acb68","ios":"levelo://app?vid=710c8371-a5bf-43ef-b36d-d9df2d5acb68"},"vehicle_type_id":"4","last_reported":1734455347,"current_range_meters":25200,"station_id":"ce4bhgp2rcd13ifvqfc0","pricing_plan_id":"cebpf4jnsgd1na2vs0mg"},{"bike_id":"4e61d9a1-ea06-4b46-8816-b58fded388ad","system_id":"levelo_inurba_marseille","lat":43.31167,"lon":5.38725,"is_reserved":false,"is_disabled":false,"rental_uris":{"android":"levelo://app?vid=4e61d9a1-ea06-4b46-8816-b58fded388ad","ios":"levelo://app?vid=4e61d9a1-ea06-4b46-8816-b58fded388ad"},"vehicle_type_id":"4","last_reported":1734455347,"current_range_meters":16400,"station_id":"ce4bgv12rcd13ifvqcp0","pricing_plan_id":"cebpf4jnsgd1na2vs0mg"},{"bike_id":"911c59d0-a8cb-4f31-9b32-02fad6dc6aeb","system_id":"levelo_inurba_marseille","lat":43.29183,"lon":5.35777,"is_reserved":false,"is_disabled":false,"rental_uris":{"android":"levelo://app?vid=911c59d0-a8cb-4f31-9b32-02fad6dc6aeb","ios":"levelo://app?vid=911c59d0-a8cb-4f31-9b32-02fad6dc6aeb"},"vehicle_type_id":"4","last_reported":1734455347,"current_range_meters":19600,"station_id":"ce4bhb12rcd13ifvqel0","pricing_plan_id":"cebpf4jnsgd1na2vs0mg"},{"bike_id":"32e66b5c-30f7-4722-93a4-5db8a958146e","system_id":"levelo_inurba_marseille","lat":43.30546,"lon":5.36551,"is_reserved":false,"is_disabled":false,"rental_uris":{"android":"levelo://app?vid=32e66b5c-30f7-4722-93a4-5db8a958146e","ios":"levelo://app?vid=32e66b5c-30f7-4722-93a4-5db8a958146e"},"vehicle_type_id":"4","last_reported":1734455347,"current_range_meters":10000,"station_id":"ce4bgs12rcd13ifvqcag","pricing_plan_id":"cebpf4jnsgd1na2vs0mg"},{"bike_id":"fbda7b10-078d-4c58-b700-d8ffd9b7aad2","system_id":"levelo_inurba_marseille","lat":43.29779,"lon":5.3811,"is_reserved":false,"is_disabled":true,"rental_uris":{"android":"levelo://app?vid=fbda7b10-078d-4c58-b700-d8ffd9b7aad2","ios":"levelo://app?vid=fbda7b10-078d-4c58-b700-d8ffd9b7aad2"},"vehicle_type_id":"4","last_reported":1734455347,"current_range_meters":28000,"station_id":"ce4bgip2rcd13ifvqbb0","pricing_plan_id":"cebpf4jnsgd1na2vs0mg"},{"bike_id":"7b767a23-32ec-4485-9cca-76cc3147b1d9","system_id":"levelo_inurba_marseille","lat":43.27908,"lon":5.39592,"is_reserved":false,"is_disabled":false,"rental_uris":{"android":"levelo://app?vid=7b767a23-32ec-4485-9cca-76cc3147b1d9","ios":"levelo://app?vid=7b767a23-32ec-4485-9cca-76cc3147b1d9"},"vehicle_type_id":"4","last_reported":1734455347,"current_range_meters":8400,"station_id":"ce4bhf92rcd13ifvqf40","pricing_plan_id":"cebpf4jnsgd1na2vs0mg"},{"bike_id":"11ef7558-dc32-4fe7-a4c8-352d61844c9f","system_id":"levelo_inurba_marseille","lat":43.29426,"lon":5.39728,"is_reserved":false,"is_disabled":false,"rental_uris":{"android":"levelo://app?vid=11ef7558-dc32-4fe7-a4c8-352d61844c9f","ios":"levelo://app?vid=11ef7558-dc32-4fe7-a4c8-352d61844c9f"},"vehicle_type_id":"4","last_reported":1734455347,"current_range_meters":39200,"station_id":"ce4bh3h2rcd13ifvqdo0","pricing_plan_id":"cebpf4jnsgd1na2vs0mg"},{"bike_id":"140b7c77-450d-4ce4-8982-6cc405fe0924","system_id":"levelo_inurba_marseille","lat":43.27981,"lon":5.41648,"is_reserved":false,"is_disabled":false,"rental_uris":{"android":"levelo://app?vid=140b7c77-450d-4ce4-8982-6cc405fe0924","ios":"levelo://app?vid=140b7c77-450d-4ce4-8982-6cc405fe0924"},"vehicle_type_id":"4","last_reported":1734455347,"current_range_meters":25200,"station_id":"ce4bho12rcd13ifvqh1g","pricing_plan_id":"cebpf4jnsgd1na2vs0mg"},{"bike_id":"0427bfa4-7c9f-485e-9901-c36b0591c06e","system_id":"levelo_inurba_marseille","lat":43.262122,"lon":5.374472,"is_reserved":false,"is_disabled":false,"rental_uris":{"android":"levelo://app?vid=0427bfa4-7c9f-485e-9901-c36b0591c06e","ios":"levelo://app?vid=0427bfa4-7c9f-485e-9901-c36b0591c06e"},"vehicle_type_id":"4","last_reported":1734455347,"current_range_meters":24800,"station_id":"ce4bhgp2rcd13ifvqfc0","pricing_plan_id":"cebpf4jnsgd1na2vs0mg"},{"bike_id":"15074bb6-0e58-48bd-a278-205970dcf73e","system_id":"levelo_inurba_marseille","lat":43.26784,"lon":5.39413,"is_reserved":false,"is_disabled":false,"rental_uris":{"android":"levelo://app?vid=15074bb6-0e58-48bd-a278-205970dcf73e","ios":"levelo://app?vid=15074bb6-0e58-48bd-a278-205970dcf73e"},"vehicle_type_id":"4","last_reported":1734455347,"current_range_meters":36400,"station_id":"ce4bhh12rcd13ifvqfg0","pricing_plan_id":"cebpf4jnsgd1na2vs0mg"},{"bike_id":"5c4528bd-7768-4ff2-83ac-ab678033d1dd","system_id":"levelo_inurba_marseille","lat":43.29936,"lon":5.36561,"is_reserved":false,"is_disabled":false,"rental_uris":{"android":"levelo://app?vid=5c4528bd-7768-4ff2-83ac-ab678033d1dd","ios":"levelo://app?vid=5c4528bd-7768-4ff2-83ac-ab678033d1dd"},"vehicle_type_id":"4","last_reported":1734455347,"current_range_meters":27600,"station_id":"ce4bgm92rcd13ifvqbr0","pricing_plan_id":"cebpf4jnsgd1na2vs0mg"},{"bike_id":"901a851f-0052-4ecb-b660-1698a0036d19","system_id":"levelo_inurba_marseille","lat":43.31333,"lon":5.39694,"is_reserved":false,"is_disabled":false,"rental_uris":{"android":"levelo://app?vid=901a851f-0052-4ecb-b660-1698a0036d19","ios":"levelo://app?vid=901a851f-0052-4ecb-b660-1698a0036d19"},"vehicle_type_id":"4","last_reported":1734455347,"current_range_meters":38800,"station_id":"ce4bgvp2rcd13ifvqcu0","pricing_plan_id":"cebpf4jnsgd1na2vs0mg"},{"bike_id":"5dcfd6a7-a222-4221-8ebc-544eb34e0e37","system_id":"levelo_inurba_marseille","lat":43.28933,"lon":5.38393,"is_reserved":false,"is_disabled":false,"rental_uris":{"android":"levelo://app?vid=5dcfd6a7-a222-4221-8ebc-544eb34e0e37","ios":"levelo://app?vid=5dcfd6a7-a222-4221-8ebc-544eb34e0e37"},"vehicle_type_id":"4","last_reported":1734455347,"current_range_meters":38800,"station_id":"ce4bh612rcd13ifvqe6g","pricing_plan_id":"cebpf4jnsgd1na2vs0mg"},{"bike_id":"d63a69c3-9ce5-401d-b4c1-89e478be1de5","system_id":"levelo_inurba_marseille","lat":43.30659,"lon":5.40084,"is_reserved":false,"is_disabled":false,"rental_uris":{"android":"levelo://app?vid=d63a69c3-9ce5-401d-b4c1-89e478be1de5","ios":"levelo://app?vid=d63a69c3-9ce5-401d-b4c1-89e478be1de5"},"vehicle_type_id":"4","last_reported":1734455347,"current_range_meters":20000,"station_id":"ce4bh112rcd13ifvqda0","pricing_plan_id":"cebpf4jnsgd1na2vs0mg"},{"bike_id":"4b6e1560-ae0a-4c4e-adbf-8263ae29060d","system_id":"levelo_inurba_marseille","lat":43.27049,"lon":5.4024,"is_reserved":false,"is_disabled":false,"rental_uris":{"android":"levelo://app?vid=4b6e1560-ae0a-4c4e-adbf-8263ae29060d","ios":"levelo://app?vid=4b6e1560-ae0a-4c4e-adbf-8263ae29060d"},"vehicle_type_id":"4","last_reported":1734455347,"current_range_meters":11200,"station_id":"ce4bhk92rcd13ifvqgc0","pricing_plan_id":"cebpf4jnsgd1na2vs0mg"},{"bike_id":"68907ca0-038a-4705-886b-af6c122ac485","system_id":"levelo_inurba_marseille","lat":43.23182,"lon":5.39982,"is_reserved":false,"is_disabled":false,"rental_uris":{"android":"levelo://app?vid=68907ca0-038a-4705-886b-af6c122ac485","ios":"levelo://app?vid=68907ca0-038a-4705-886b-af6c122ac485"},"vehicle_type_id":"4","last_reported":1734455347,"current_range_meters":38800,"station_id":"ce4bhn12rcd13ifvqgqg","pricing_plan_id":"cebpf4jnsgd1na2vs0mg"},{"bike_id":"2b6dac45-6adc-425c-afd1-66bcf1403bf1","system_id":"levelo_inurba_marseille","lat":43.31494,"lon":5.3731,"is_reserved":false,"is_disabled":false,"rental_uris":{"android":"levelo://app?vid=2b6dac45-6adc-425c-afd1-66bcf1403bf1","ios":"levelo://app?vid=2b6dac45-6adc-425c-afd1-66bcf1403bf1"},"vehicle_type_id":"4","last_reported":1734455347,"current_range_meters":23200,"station_id":"ce4bgt12rcd13ifvqcd0","pricing_plan_id":"cebpf4jnsgd1na2vs0mg"},{"bike_id":"a852f14c-1573-40fe-bdb0-30bcf5f773fb","system_id":"levelo_inurba_marseille","lat":43.28621,"lon":5.35095,"is_reserved":false,"is_disabled":true,"rental_uris":{"android":"levelo://app?vid=a852f14c-1573-40fe-bdb0-30bcf5f773fb","ios":"levelo://app?vid=a852f14c-1573-40fe-bdb0-30bcf5f773fb"},"vehicle_type_id":"4","last_reported":1734455347,"current_range_meters":20000,"station_id":"ce4bhch2rcd13ifvqeug","pricing_plan_id":"cebpf4jnsgd1na2vs0mg"},{"bike_id":"15337677-9ae1-4159-afdc-4f163bc8327f","system_id":"levelo_inurba_marseille","lat":43.31326,"lon":5.39693,"is_reserved":false,"is_disabled":false,"rental_uris":{"android":"levelo://app?vid=15337677-9ae1-4159-afdc-4f163bc8327f","ios":"levelo://app?vid=15337677-9ae1-4159-afdc-4f163bc8327f"},"vehicle_type_id":"4","last_reported":1734455347,"current_range_meters":34000,"station_id":"ce4bgvp2rcd13ifvqcu0","pricing_plan_id":"cebpf4jnsgd1na2vs0mg"},{"bike_id":"bb337245-7c41-4671-900b-a4d92ae562c6","system_id":"levelo_inurba_marseille","lat":43.29527,"lon":5.3903,"is_reserved":false,"is_disabled":true,"rental_uris":{"android":"levelo://app?vid=bb337245-7c41-4671-900b-a4d92ae562c6","ios":"levelo://app?vid=bb337245-7c41-4671-900b-a4d92ae562c6"},"vehicle_type_id":"4","last_reported":1734455347,"current_range_meters":5600,"station_id":"ce4bh3p2rcd13ifvqdp0","pricing_plan_id":"cebpf4jnsgd1na2vs0mg"},{"bike_id":"03f2433f-a4ed-40f2-961d-b5adc5c08276","system_id":"levelo_inurba_marseille","lat":43.31119,"lon":5.37762,"is_reserved":false,"is_disabled":false,"rental_uris":{"android":"levelo://app?vid=03f2433f-a4ed-40f2-961d-b5adc5c08276","ios":"levelo://app?vid=03f2433f-a4ed-40f2-961d-b5adc5c08276"},"vehicle_type_id":"4","last_reported":1734455347,"current_range_meters":38800,"station_id":"ce4bgt92rcd13ifvqcg0","pricing_plan_id":"cebpf4jnsgd1na2vs0mg"},{"bike_id":"1a9a69b3-54f3-4731-85df-01fc114ad84d","system_id":"levelo_inurba_marseille","lat":43.25584,"lon":5.3823,"is_reserved":false,"is_disabled":false,"rental_uris":{"android":"levelo://app?vid=1a9a69b3-54f3-4731-85df-01fc114ad84d","ios":"levelo://app?vid=1a9a69b3-54f3-4731-85df-01fc114ad84d"},"vehicle_type_id":"4","last_reported":1734455347,"current_range_meters":8400,"station_id":"ce4bhih2rcd13ifvqfs0","pricing_plan_id":"cebpf4jnsgd1na2vs0mg"},{"bike_id":"7399fd58-5dfd-44fa-92b1-0692ace70e73","system_id":"levelo_inurba_marseille","lat":43.30095,"lon":5.37138,"is_reserved":false,"is_disabled":false,"rental_uris":{"android":"levelo://app?vid=7399fd58-5dfd-44fa-92b1-0692ace70e73","ios":"levelo://app?vid=7399fd58-5dfd-44fa-92b1-0692ace70e73"},"vehicle_type_id":"4","last_reported":1734455347,"current_range_meters":24800,"station_id":"","pricing_plan_id":"cebpf4jnsgd1na2vs0mg"},{"bike_id":"26b9d900-430b-4776-a2bc-2a043b64247f","system_id":"levelo_inurba_marseille","lat":43.29875,"lon":5.389,"is_reserved":false,"is_disabled":false,"rental_uris":{"android":"levelo://app?vid=26b9d900-430b-4776-a2bc-2a043b64247f","ios":"levelo://app?vid=26b9d900-430b-4776-a2bc-2a043b64247f"},"vehicle_type_id":"4","last_reported":1734455347,"current_range_meters":23200,"station_id":"ce4bh392rcd13ifvqdl0","pricing_plan_id":"cebpf4jnsgd1na2vs0mg"},{"bike_id":"44ff8e7d-1339-43c2-b508-1f594ee49259","system_id":"levelo_inurba_marseille","lat":43.27914,"lon":5.39563,"is_reserved":false,"is_disabled":false,"rental_uris":{"android":"levelo://app?vid=44ff8e7d-1339-43c2-b508-1f594ee49259","ios":"levelo://app?vid=44ff8e7d-1339-43c2-b508-1f594ee49259"},"vehicle_type_id":"4","last_reported":1734455347,"current_range_meters":38000,"station_id":"ce4bhf92rcd13ifvqf40","pricing_plan_id":"cebpf4jnsgd1na2vs0mg"},{"bike_id":"8ce2fd00-18f3-46c5-b0aa-83e1a8058128","system_id":"levelo_inurba_marseille","lat":43.29975,"lon":5.38486,"is_reserved":false,"is_disabled":true,"rental_uris":{"android":"levelo://app?vid=8ce2fd00-18f3-46c5-b0aa-83e1a8058128","ios":"levelo://app?vid=8ce2fd00-18f3-46c5-b0aa-83e1a8058128"},"vehicle_type_id":"4","last_reported":1734455347,"current_range_meters":32000,"station_id":"ce4bgj92rcd13ifvqbd0","pricing_plan_id":"cebpf4jnsgd1na2vs0mg"},{"bike_id":"ff52c0f9-5bc3-4147-97cc-1c9a6030d599","system_id":"levelo_inurba_marseille","lat":43.27064,"lon":5.40274,"is_reserved":false,"is_disabled":false,"rental_uris":{"android":"levelo://app?vid=ff52c0f9-5bc3-4147-97cc-1c9a6030d599","ios":"levelo://app?vid=ff52c0f9-5bc3-4147-97cc-1c9a6030d599"},"vehicle_type_id":"4","last_reported":1734455347,"current_range_meters":36800,"station_id":"ce4bhk92rcd13ifvqgc0","pricing_plan_id":"cebpf4jnsgd1na2vs0mg"},{"bike_id":"6a443f08-61ef-4b2c-bab2-dd73bd115305","system_id":"levelo_inurba_marseille","lat":43.28273,"lon":5.35076,"is_reserved":false,"is_disabled":false,"rental_uris":{"android":"levelo://app?vid=6a443f08-61ef-4b2c-bab2-dd73bd115305","ios":"levelo://app?vid=6a443f08-61ef-4b2c-bab2-dd73bd115305"},"vehicle_type_id":"4","last_reported":1734455347,"current_range_meters":37600,"station_id":"ce4bhbp2rcd13ifvqerg","pricing_plan_id":"cebpf4jnsgd1na2vs0mg"},{"bike_id":"8d245058-8950-42aa-9f99-cd8c442a6413","system_id":"levelo_inurba_marseille","lat":43.29302,"lon":5.40195,"is_reserved":false,"is_disabled":true,"rental_uris":{"android":"levelo://app?vid=8d245058-8950-42aa-9f99-cd8c442a6413","ios":"levelo://app?vid=8d245058-8950-42aa-9f99-cd8c442a6413"},"vehicle_type_id":"4","last_reported":1734455347,"current_range_meters":33600,"station_id":"ce4bh312rcd13ifvqdk0","pricing_plan_id":"cebpf4jnsgd1na2vs0mg"},{"bike_id":"eba901e5-0847-4fc0-b2b6-9eb1834c3e7a","system_id":"levelo_inurba_marseille","lat":43.29509,"lon":5.42336,"is_reserved":false,"is_disabled":true,"rental_uris":{"android":"levelo://app?vid=eba901e5-0847-4fc0-b2b6-9eb1834c3e7a","ios":"levelo://app?vid=eba901e5-0847-4fc0-b2b6-9eb1834c3e7a"},"vehicle_type_id":"4","last_reported":1734455347,"current_range_meters":0,"station_id":"","pricing_plan_id":"cebpf4jnsgd1na2vs0mg"},{"bike_id":"14bf51fc-7d1e-447e-be3d-a1fa6c8ce1c6","system_id":"levelo_inurba_marseille","lat":43.29892,"lon":5.38897,"is_reserved":false,"is_disabled":false,"rental_uris":{"android":"levelo://app?vid=14bf51fc-7d1e-447e-be3d-a1fa6c8ce1c6","ios":"levelo://app?vid=14bf51fc-7d1e-447e-be3d-a1fa6c8ce1c6"},"vehicle_type_id":"4","last_reported":1734455347,"current_range_meters":28400,"station_id":"ce4bh392rcd13ifvqdl0","pricing_plan_id":"cebpf4jnsgd1na2vs0mg"},{"bike_id":"5c954f9f-7ca8-4e7b-b773-772b81726a65","system_id":"levelo_inurba_marseille","lat":43.29902,"lon":5.38157,"is_reserved":false,"is_disabled":false,"rental_uris":{"android":"levelo://app?vid=5c954f9f-7ca8-4e7b-b773-772b81726a65","ios":"levelo://app?vid=5c954f9f-7ca8-4e7b-b773-772b81726a65"},"vehicle_type_id":"4","last_reported":1734455347,"current_range_meters":38800,"station_id":"ce4bgj12rcd13ifvqbc0","pricing_plan_id":"cebpf4jnsgd1na2vs0mg"},{"bike_id":"5602b998-8538-45ef-9b3e-c46248c5e330","system_id":"levelo_inurba_marseille","lat":43.24664,"lon":5.38167,"is_reserved":false,"is_disabled":false,"rental_uris":{"android":"levelo://app?vid=5602b998-8538-45ef-9b3e-c46248c5e330","ios":"levelo://app?vid=5602b998-8538-45ef-9b3e-c46248c5e330"},"vehicle_type_id":"4","last_reported":1734455347,"current_range_meters":11600,"station_id":"ce4bhih2rcd13ifvqfr0","pricing_plan_id":"cebpf4jnsgd1na2vs0mg"},{"bike_id":"27d9e2c3-f922-4658-a131-5f6394c8c252","system_id":"levelo_inurba_marseille","lat":43.29044,"lon":5.359,"is_reserved":false,"is_disabled":false,"rental_uris":{"android":"levelo://app?vid=27d9e2c3-f922-4658-a131-5f6394c8c252","ios":"levelo://app?vid=27d9e2c3-f922-4658-a131-5f6394c8c252"},"vehicle_type_id":"4","last_reported":1734455347,"current_range_meters":39200,"station_id":"ce4bha92rcd13ifvqeg0","pricing_plan_id":"cebpf4jnsgd1na2vs0mg"},{"bike_id":"ed3a8591-316e-49ab-a80e-c8c5d9c39c56","system_id":"levelo_inurba_marseille","lat":43.30094,"lon":5.39087,"is_reserved":false,"is_disabled":true,"rental_uris":{"android":"levelo://app?vid=ed3a8591-316e-49ab-a80e-c8c5d9c39c56","ios":"levelo://app?vid=ed3a8591-316e-49ab-a80e-c8c5d9c39c56"},"vehicle_type_id":"4","last_reported":1734455347,"current_range_meters":32400,"station_id":"ce4bh192rcd13ifvqdb0","pricing_plan_id":"cebpf4jnsgd1na2vs0mg"},{"bike_id":"5a37a828-cff2-4e6d-a76c-d01bbc621389","system_id":"levelo_inurba_marseille","lat":43.23197,"lon":5.35554,"is_reserved":false,"is_disabled":false,"rental_uris":{"android":"levelo://app?vid=5a37a828-cff2-4e6d-a76c-d01bbc621389","ios":"levelo://app?vid=5a37a828-cff2-4e6d-a76c-d01bbc621389"},"vehicle_type_id":"4","last_reported":1734455347,"current_range_meters":26000,"station_id":"ce4bhu92rcd13ifvqi70","pricing_plan_id":"cebpf4jnsgd1na2vs0mg"},{"bike_id":"a1c1fbba-9f8b-4e55-a7e6-e3031108193b","system_id":"levelo_inurba_marseille","lat":43.29842,"lon":5.36273,"is_reserved":false,"is_disabled":false,"rental_uris":{"android":"levelo://app?vid=a1c1fbba-9f8b-4e55-a7e6-e3031108193b","ios":"levelo://app?vid=a1c1fbba-9f8b-4e55-a7e6-e3031108193b"},"vehicle_type_id":"4","last_reported":1734455347,"current_range_meters":38800,"station_id":"ce4bgpp2rcd13ifvqc3g","pricing_plan_id":"cebpf4jnsgd1na2vs0mg"},{"bike_id":"f8d610c4-f0ee-48bf-a2bf-ae32b10e6186","system_id":"levelo_inurba_marseille","lat":43.29794,"lon":5.40398,"is_reserved":false,"is_disabled":false,"rental_uris":{"android":"levelo://app?vid=f8d610c4-f0ee-48bf-a2bf-ae32b10e6186","ios":"levelo://app?vid=f8d610c4-f0ee-48bf-a2bf-ae32b10e6186"},"vehicle_type_id":"4","last_reported":1734455347,"current_range_meters":8000,"station_id":"ce4bh112rcd13ifvqd90","pricing_plan_id":"cebpf4jnsgd1na2vs0mg"},{"bike_id":"abc987f9-4da4-4a4f-bcce-27ab5a90a27f","system_id":"levelo_inurba_marseille","lat":43.29452,"lon":5.39753,"is_reserved":false,"is_disabled":false,"rental_uris":{"android":"levelo://app?vid=abc987f9-4da4-4a4f-bcce-27ab5a90a27f","ios":"levelo://app?vid=abc987f9-4da4-4a4f-bcce-27ab5a90a27f"},"vehicle_type_id":"4","last_reported":1734455347,"current_range_meters":31200,"station_id":"ce4bh3h2rcd13ifvqdo0","pricing_plan_id":"cebpf4jnsgd1na2vs0mg"},{"bike_id":"53210b12-81dd-41d2-9536-83b96b38afa4","system_id":"levelo_inurba_marseille","lat":43.26556,"lon":5.37282,"is_reserved":false,"is_disabled":false,"rental_uris":{"android":"levelo://app?vid=53210b12-81dd-41d2-9536-83b96b38afa4","ios":"levelo://app?vid=53210b12-81dd-41d2-9536-83b96b38afa4"},"vehicle_type_id":"4","last_reported":1734455347,"current_range_meters":30400,"station_id":"ce4bhg12rcd13ifvqf70","pricing_plan_id":"cebpf4jnsgd1na2vs0mg"},{"bike_id":"f3fc0663-6f94-47bd-8c35-b04cca188243","system_id":"levelo_inurba_marseille","lat":43.2742,"lon":5.39415,"is_reserved":false,"is_disabled":false,"rental_uris":{"android":"levelo://app?vid=f3fc0663-6f94-47bd-8c35-b04cca188243","ios":"levelo://app?vid=f3fc0663-6f94-47bd-8c35-b04cca188243"},"vehicle_type_id":"4","last_reported":1734455347,"current_range_meters":22000,"station_id":"ce4bhdp2rcd13ifvqf20","pricing_plan_id":"cebpf4jnsgd1na2vs0mg"},{"bike_id":"1de05ea6-7ffc-4755-9d5c-2404e5a173c7","system_id":"levelo_inurba_marseille","lat":43.23066,"lon":5.35493,"is_reserved":false,"is_disabled":false,"rental_uris":{"android":"levelo://app?vid=1de05ea6-7ffc-4755-9d5c-2404e5a173c7","ios":"levelo://app?vid=1de05ea6-7ffc-4755-9d5c-2404e5a173c7"},"vehicle_type_id":"4","last_reported":1734455347,"current_range_meters":12800,"station_id":"cpo3342slgdg3j2ifvpg","pricing_plan_id":"cebpf4jnsgd1na2vs0mg"},{"bike_id":"9e01f32c-425c-4ec9-ae36-2ebbfbd05340","system_id":"levelo_inurba_marseille","lat":43.272,"lon":5.39182,"is_reserved":false,"is_disabled":false,"rental_uris":{"android":"levelo://app?vid=9e01f32c-425c-4ec9-ae36-2ebbfbd05340","ios":"levelo://app?vid=9e01f32c-425c-4ec9-ae36-2ebbfbd05340"},"vehicle_type_id":"4","last_reported":1734455347,"current_range_meters":38800,"station_id":"ce4bh2p2rcd13ifvqdi0","pricing_plan_id":"cebpf4jnsgd1na2vs0mg"},{"bike_id":"0ff6fea5-f882-490d-b1fc-2cba3c649602","system_id":"levelo_inurba_marseille","lat":43.287246,"lon":5.360847,"is_reserved":false,"is_disabled":false,"rental_uris":{"android":"levelo://app?vid=0ff6fea5-f882-490d-b1fc-2cba3c649602","ios":"levelo://app?vid=0ff6fea5-f882-490d-b1fc-2cba3c649602"},"vehicle_type_id":"4","last_reported":1734455347,"current_range_meters":29600,"station_id":"cki0cbj6b192h4jlfktg","pricing_plan_id":"cebpf4jnsgd1na2vs0mg"},{"bike_id":"d283b9e9-469d-4791-9530-ca9134c5a01e","system_id":"levelo_inurba_marseille","lat":43.27064,"lon":5.4024,"is_reserved":false,"is_disabled":false,"rental_uris":{"android":"levelo://app?vid=d283b9e9-469d-4791-9530-ca9134c5a01e","ios":"levelo://app?vid=d283b9e9-469d-4791-9530-ca9134c5a01e"},"vehicle_type_id":"4","last_reported":1734455347,"current_range_meters":26800,"station_id":"ce4bhk92rcd13ifvqgc0","pricing_plan_id":"cebpf4jnsgd1na2vs0mg"},{"bike_id":"c533d53b-bc04-489a-83fc-3db1be247936","system_id":"levelo_inurba_marseille","lat":43.28669,"lon":5.38678,"is_reserved":false,"is_disabled":false,"rental_uris":{"android":"levelo://app?vid=c533d53b-bc04-489a-83fc-3db1be247936","ios":"levelo://app?vid=c533d53b-bc04-489a-83fc-3db1be247936"},"vehicle_type_id":"4","last_reported":1734455347,"current_range_meters":4400,"station_id":"ce4bh492rcd13ifvqdug","pricing_plan_id":"cebpf4jnsgd1na2vs0mg"},{"bike_id":"24216fde-815f-466d-ae48-7f1bdc5c763a","system_id":"levelo_inurba_marseille","lat":43.27557,"lon":5.38418,"is_reserved":false,"is_disabled":false,"rental_uris":{"android":"levelo://app?vid=24216fde-815f-466d-ae48-7f1bdc5c763a","ios":"levelo://app?vid=24216fde-815f-466d-ae48-7f1bdc5c763a"},"vehicle_type_id":"4","last_reported":1734455347,"current_range_meters":19600,"station_id":"ce4bhh92rcd13ifvqfi0","pricing_plan_id":"cebpf4jnsgd1na2vs0mg"},{"bike_id":"230bab4f-5de4-4c6a-a0ce-fdf98a5a3033","system_id":"levelo_inurba_marseille","lat":43.23204,"lon":5.39969,"is_reserved":false,"is_disabled":false,"rental_uris":{"android":"levelo://app?vid=230bab4f-5de4-4c6a-a0ce-fdf98a5a3033","ios":"levelo://app?vid=230bab4f-5de4-4c6a-a0ce-fdf98a5a3033"},"vehicle_type_id":"4","last_reported":1734455347,"current_range_meters":38800,"station_id":"ce4bhn12rcd13ifvqgqg","pricing_plan_id":"cebpf4jnsgd1na2vs0mg"},{"bike_id":"6525cba2-d408-4956-ac46-7dcc545bec3c","system_id":"levelo_inurba_marseille","lat":43.25585,"lon":5.38232,"is_reserved":false,"is_disabled":false,"rental_uris":{"android":"levelo://app?vid=6525cba2-d408-4956-ac46-7dcc545bec3c","ios":"levelo://app?vid=6525cba2-d408-4956-ac46-7dcc545bec3c"},"vehicle_type_id":"4","last_reported":1734455347,"current_range_meters":38400,"station_id":"ce4bhih2rcd13ifvqfs0","pricing_plan_id":"cebpf4jnsgd1na2vs0mg"},{"bike_id":"080a108f-1d79-470f-af40-6598ea3c6cec","system_id":"levelo_inurba_marseille","lat":43.29157,"lon":5.38596,"is_reserved":false,"is_disabled":false,"rental_uris":{"android":"levelo://app?vid=080a108f-1d79-470f-af40-6598ea3c6cec","ios":"levelo://app?vid=080a108f-1d79-470f-af40-6598ea3c6cec"},"vehicle_type_id":"4","last_reported":1734455347,"current_range_meters":2800,"station_id":"","pricing_plan_id":"cebpf4jnsgd1na2vs0mg"},{"bike_id":"289f0ac2-169c-4996-93c9-9c13fd50ee4f","system_id":"levelo_inurba_marseille","lat":43.29845,"lon":5.36286,"is_reserved":false,"is_disabled":false,"rental_uris":{"android":"levelo://app?vid=289f0ac2-169c-4996-93c9-9c13fd50ee4f","ios":"levelo://app?vid=289f0ac2-169c-4996-93c9-9c13fd50ee4f"},"vehicle_type_id":"4","last_reported":1734455347,"current_range_meters":36800,"station_id":"ce4bgpp2rcd13ifvqc3g","pricing_plan_id":"cebpf4jnsgd1na2vs0mg"},{"bike_id":"ac947996-ef73-4cc2-8a27-a0b80ead3410","system_id":"levelo_inurba_marseille","lat":43.29784,"lon":5.381,"is_reserved":false,"is_disabled":false,"rental_uris":{"android":"levelo://app?vid=ac947996-ef73-4cc2-8a27-a0b80ead3410","ios":"levelo://app?vid=ac947996-ef73-4cc2-8a27-a0b80ead3410"},"vehicle_type_id":"4","last_reported":1734455347,"current_range_meters":38800,"station_id":"ce4bgip2rcd13ifvqbb0","pricing_plan_id":"cebpf4jnsgd1na2vs0mg"},{"bike_id":"79270ba4-542d-4a2c-a76e-fa65d6ce21f3","system_id":"levelo_inurba_marseille","lat":43.30536,"lon":5.36489,"is_reserved":false,"is_disabled":false,"rental_uris":{"android":"levelo://app?vid=79270ba4-542d-4a2c-a76e-fa65d6ce21f3","ios":"levelo://app?vid=79270ba4-542d-4a2c-a76e-fa65d6ce21f3"},"vehicle_type_id":"4","last_reported":1734455347,"current_range_meters":38400,"station_id":"ce4bgs12rcd13ifvqcag","pricing_plan_id":"cebpf4jnsgd1na2vs0mg"},{"bike_id":"07537fee-a5d8-4007-a411-ab04e94cf8d0","system_id":"levelo_inurba_marseille","lat":43.28828,"lon":5.39303,"is_reserved":false,"is_disabled":false,"rental_uris":{"android":"levelo://app?vid=07537fee-a5d8-4007-a411-ab04e94cf8d0","ios":"levelo://app?vid=07537fee-a5d8-4007-a411-ab04e94cf8d0"},"vehicle_type_id":"4","last_reported":1734455347,"current_range_meters":8800,"station_id":"ce4bh2p2rcd13ifvqdi0","pricing_plan_id":"cebpf4jnsgd1na2vs0mg"},{"bike_id":"43af8728-f813-42f8-aaa4-6f394aaada95","system_id":"levelo_inurba_marseille","lat":43.3117,"lon":5.3872,"is_reserved":false,"is_disabled":false,"rental_uris":{"android":"levelo://app?vid=43af8728-f813-42f8-aaa4-6f394aaada95","ios":"levelo://app?vid=43af8728-f813-42f8-aaa4-6f394aaada95"},"vehicle_type_id":"4","last_reported":1734455347,"current_range_meters":22800,"station_id":"ce4bgv12rcd13ifvqcp0","pricing_plan_id":"cebpf4jnsgd1na2vs0mg"},{"bike_id":"cab5cb01-b33a-421c-bfaf-c7630f90de8b","system_id":"levelo_inurba_marseille","lat":43.29044,"lon":5.3995,"is_reserved":false,"is_disabled":true,"rental_uris":{"android":"levelo://app?vid=cab5cb01-b33a-421c-bfaf-c7630f90de8b","ios":"levelo://app?vid=cab5cb01-b33a-421c-bfaf-c7630f90de8b"},"vehicle_type_id":"4","last_reported":1734455347,"current_range_meters":2800,"station_id":"ce4bh392rcd13ifvqdm0","pricing_plan_id":"cebpf4jnsgd1na2vs0mg"},{"bike_id":"78f5dcee-b6ca-4cfa-ae6f-ebcf64be1236","system_id":"levelo_inurba_marseille","lat":43.32358,"lon":5.40633,"is_reserved":false,"is_disabled":true,"rental_uris":{"android":"levelo://app?vid=78f5dcee-b6ca-4cfa-ae6f-ebcf64be1236","ios":"levelo://app?vid=78f5dcee-b6ca-4cfa-ae6f-ebcf64be1236"},"vehicle_type_id":"4","last_reported":1734455347,"current_range_meters":0,"station_id":"ce4bhq92rcd13ifvqhjg","pricing_plan_id":"cebpf4jnsgd1na2vs0mg"},{"bike_id":"654db124-9b18-460a-9c9c-e1f457c5e0d4","system_id":"levelo_inurba_marseille","lat":43.3043,"lon":5.3888,"is_reserved":false,"is_disabled":false,"rental_uris":{"android":"levelo://app?vid=654db124-9b18-460a-9c9c-e1f457c5e0d4","ios":"levelo://app?vid=654db124-9b18-460a-9c9c-e1f457c5e0d4"},"vehicle_type_id":"4","last_reported":1734455347,"current_range_meters":9600,"station_id":"ce4bgk12rcd13ifvqbi0","pricing_plan_id":"cebpf4jnsgd1na2vs0mg"},{"bike_id":"d1adb045-11f4-4330-9d2b-f77d89c262d4","system_id":"levelo_inurba_marseille","lat":43.29309,"lon":5.37188,"is_reserved":false,"is_disabled":true,"rental_uris":{"android":"levelo://app?vid=d1adb045-11f4-4330-9d2b-f77d89c262d4","ios":"levelo://app?vid=d1adb045-11f4-4330-9d2b-f77d89c262d4"},"vehicle_type_id":"4","last_reported":1734455347,"current_range_meters":36400,"station_id":"ce4bgh92rcd13ifvqb40","pricing_plan_id":"cebpf4jnsgd1na2vs0mg"},{"bike_id":"fb5ac6cd-6d94-4004-9473-07d3146ccb2b","system_id":"levelo_inurba_marseille","lat":43.28848,"lon":5.35866,"is_reserved":false,"is_disabled":false,"rental_uris":{"android":"levelo://app?vid=fb5ac6cd-6d94-4004-9473-07d3146ccb2b","ios":"levelo://app?vid=fb5ac6cd-6d94-4004-9473-07d3146ccb2b"},"vehicle_type_id":"4","last_reported":1734455347,"current_range_meters":31200,"station_id":"ce4bhb12rcd13ifvqem0","pricing_plan_id":"cebpf4jnsgd1na2vs0mg"},{"bike_id":"88178f8a-42d2-4fca-b111-ae79c7ae0bec","system_id":"levelo_inurba_marseille","lat":43.29027,"lon":5.38638,"is_reserved":false,"is_disabled":false,"rental_uris":{"android":"levelo://app?vid=88178f8a-42d2-4fca-b111-ae79c7ae0bec","ios":"levelo://app?vid=88178f8a-42d2-4fca-b111-ae79c7ae0bec"},"vehicle_type_id":"4","last_reported":1734455347,"current_range_meters":8400,"station_id":"ce4bh4p2rcd13ifvqe0g","pricing_plan_id":"cebpf4jnsgd1na2vs0mg"},{"bike_id":"6abcda96-d777-46bc-889a-889954729442","system_id":"levelo_inurba_marseille","lat":43.27422,"lon":5.39414,"is_reserved":false,"is_disabled":false,"rental_uris":{"android":"levelo://app?vid=6abcda96-d777-46bc-889a-889954729442","ios":"levelo://app?vid=6abcda96-d777-46bc-889a-889954729442"},"vehicle_type_id":"4","last_reported":1734455347,"current_range_meters":36800,"station_id":"ce4bhdp2rcd13ifvqf20","pricing_plan_id":"cebpf4jnsgd1na2vs0mg"},{"bike_id":"aaa07cc8-5ee3-41c0-8ff9-2695d3296028","system_id":"levelo_inurba_marseille","lat":43.24388,"lon":5.37056,"is_reserved":false,"is_disabled":false,"rental_uris":{"android":"levelo://app?vid=aaa07cc8-5ee3-41c0-8ff9-2695d3296028","ios":"levelo://app?vid=aaa07cc8-5ee3-41c0-8ff9-2695d3296028"},"vehicle_type_id":"4","last_reported":1734455347,"current_range_meters":28000,"station_id":"ce4bhhh2rcd13ifvqfk0","pricing_plan_id":"cebpf4jnsgd1na2vs0mg"},{"bike_id":"0bd5d813-d89e-42f3-8ce9-c06fb9ffedaa","system_id":"levelo_inurba_marseille","lat":43.28945,"lon":5.39642,"is_reserved":false,"is_disabled":true,"rental_uris":{"android":"levelo://app?vid=0bd5d813-d89e-42f3-8ce9-c06fb9ffedaa","ios":"levelo://app?vid=0bd5d813-d89e-42f3-8ce9-c06fb9ffedaa"},"vehicle_type_id":"4","last_reported":1734455347,"current_range_meters":37600,"station_id":"ce4bh3h2rcd13ifvqdn0","pricing_plan_id":"cebpf4jnsgd1na2vs0mg"},{"bike_id":"7aa542d4-3e7f-4828-8b5c-a583b65f78a6","system_id":"levelo_inurba_marseille","lat":43.29286,"lon":5.4012,"is_reserved":false,"is_disabled":false,"rental_uris":{"android":"levelo://app?vid=7aa542d4-3e7f-4828-8b5c-a583b65f78a6","ios":"levelo://app?vid=7aa542d4-3e7f-4828-8b5c-a583b65f78a6"},"vehicle_type_id":"4","last_reported":1734455347,"current_range_meters":38000,"station_id":"ce4bh312rcd13ifvqdk0","pricing_plan_id":"cebpf4jnsgd1na2vs0mg"},{"bike_id":"7ca2a155-c968-4210-adf3-b966ae70f4c2","system_id":"levelo_inurba_marseille","lat":43.33021,"lon":5.39038,"is_reserved":false,"is_disabled":false,"rental_uris":{"android":"levelo://app?vid=7ca2a155-c968-4210-adf3-b966ae70f4c2","ios":"levelo://app?vid=7ca2a155-c968-4210-adf3-b966ae70f4c2"},"vehicle_type_id":"4","last_reported":1734455347,"current_range_meters":20800,"station_id":"ce4bhr92rcd13ifvqhrg","pricing_plan_id":"cebpf4jnsgd1na2vs0mg"},{"bike_id":"a2df7d87-51ca-433e-ad68-1e23a0ea5897","system_id":"levelo_inurba_marseille","lat":43.28006,"lon":5.40014,"is_reserved":false,"is_disabled":false,"rental_uris":{"android":"levelo://app?vid=a2df7d87-51ca-433e-ad68-1e23a0ea5897","ios":"levelo://app?vid=a2df7d87-51ca-433e-ad68-1e23a0ea5897"},"vehicle_type_id":"4","last_reported":1734455347,"current_range_meters":30000,"station_id":"ce4bho92rcd13ifvqh4g","pricing_plan_id":"cebpf4jnsgd1na2vs0mg"},{"bike_id":"9a9ca54f-8f83-4db0-b780-a7eb0fa7f88d","system_id":"levelo_inurba_marseille","lat":43.26026,"lon":5.37556,"is_reserved":false,"is_disabled":false,"rental_uris":{"android":"levelo://app?vid=9a9ca54f-8f83-4db0-b780-a7eb0fa7f88d","ios":"levelo://app?vid=9a9ca54f-8f83-4db0-b780-a7eb0fa7f88d"},"vehicle_type_id":"4","last_reported":1734455347,"current_range_meters":36800,"station_id":"ce4bhgh2rcd13ifvqfa0","pricing_plan_id":"cebpf4jnsgd1na2vs0mg"},{"bike_id":"e72fa642-30df-464a-831c-61ff9cf06808","system_id":"levelo_inurba_marseille","lat":43.23055,"lon":5.35494,"is_reserved":false,"is_disabled":false,"rental_uris":{"android":"levelo://app?vid=e72fa642-30df-464a-831c-61ff9cf06808","ios":"levelo://app?vid=e72fa642-30df-464a-831c-61ff9cf06808"},"vehicle_type_id":"4","last_reported":1734455347,"current_range_meters":38800,"station_id":"cpo3342slgdg3j2ifvpg","pricing_plan_id":"cebpf4jnsgd1na2vs0mg"},{"bike_id":"4ad89db2-d7ae-4790-9e48-447a4f27414c","system_id":"levelo_inurba_marseille","lat":43.26938,"lon":5.40241,"is_reserved":false,"is_disabled":false,"rental_uris":{"android":"levelo://app?vid=4ad89db2-d7ae-4790-9e48-447a4f27414c","ios":"levelo://app?vid=4ad89db2-d7ae-4790-9e48-447a4f27414c"},"vehicle_type_id":"4","last_reported":1734455347,"current_range_meters":38400,"station_id":"cjm6bp8fraef2m0cb0m0","pricing_plan_id":"cebpf4jnsgd1na2vs0mg"},{"bike_id":"95c69429-156c-453e-b2c0-5f65d6fe9b40","system_id":"levelo_inurba_marseille","lat":43.23182,"lon":5.39966,"is_reserved":false,"is_disabled":false,"rental_uris":{"android":"levelo://app?vid=95c69429-156c-453e-b2c0-5f65d6fe9b40","ios":"levelo://app?vid=95c69429-156c-453e-b2c0-5f65d6fe9b40"},"vehicle_type_id":"4","last_reported":1734455347,"current_range_meters":24000,"station_id":"ce4bhn12rcd13ifvqgqg","pricing_plan_id":"cebpf4jnsgd1na2vs0mg"},{"bike_id":"2b5f7a03-bf5e-45ec-a42d-0a6322563f99","system_id":"levelo_inurba_marseille","lat":43.29445,"lon":5.39752,"is_reserved":false,"is_disabled":false,"rental_uris":{"android":"levelo://app?vid=2b5f7a03-bf5e-45ec-a42d-0a6322563f99","ios":"levelo://app?vid=2b5f7a03-bf5e-45ec-a42d-0a6322563f99"},"vehicle_type_id":"4","last_reported":1734455347,"current_range_meters":19200,"station_id":"ce4bh3h2rcd13ifvqdo0","pricing_plan_id":"cebpf4jnsgd1na2vs0mg"},{"bike_id":"48c9a02c-eead-4a2c-942e-4963288aa5c4","system_id":"levelo_inurba_marseille","lat":43.29426,"lon":5.39745,"is_reserved":false,"is_disabled":false,"rental_uris":{"android":"levelo://app?vid=48c9a02c-eead-4a2c-942e-4963288aa5c4","ios":"levelo://app?vid=48c9a02c-eead-4a2c-942e-4963288aa5c4"},"vehicle_type_id":"4","last_reported":1734455347,"current_range_meters":18000,"station_id":"ce4bh3h2rcd13ifvqdo0","pricing_plan_id":"cebpf4jnsgd1na2vs0mg"},{"bike_id":"db372558-ee07-4d5f-9d2b-3c64bd3f1065","system_id":"levelo_inurba_marseille","lat":43.29795,"lon":5.40403,"is_reserved":false,"is_disabled":false,"rental_uris":{"android":"levelo://app?vid=db372558-ee07-4d5f-9d2b-3c64bd3f1065","ios":"levelo://app?vid=db372558-ee07-4d5f-9d2b-3c64bd3f1065"},"vehicle_type_id":"4","last_reported":1734455347,"current_range_meters":22000,"station_id":"ce4bh112rcd13ifvqd90","pricing_plan_id":"cebpf4jnsgd1na2vs0mg"},{"bike_id":"cea2af64-7b0e-47f4-b3dd-6692616b15d4","system_id":"levelo_inurba_marseille","lat":43.30799,"lon":5.38146,"is_reserved":false,"is_disabled":false,"rental_uris":{"android":"levelo://app?vid=cea2af64-7b0e-47f4-b3dd-6692616b15d4","ios":"levelo://app?vid=cea2af64-7b0e-47f4-b3dd-6692616b15d4"},"vehicle_type_id":"4","last_reported":1734455347,"current_range_meters":17200,"station_id":"ce4bgt12rcd13ifvqce0","pricing_plan_id":"cebpf4jnsgd1na2vs0mg"},{"bike_id":"6e48c2e9-9079-4a57-b4e3-65f3a72e2cf0","system_id":"levelo_inurba_marseille","lat":43.32308,"lon":5.38281,"is_reserved":false,"is_disabled":false,"rental_uris":{"android":"levelo://app?vid=6e48c2e9-9079-4a57-b4e3-65f3a72e2cf0","ios":"levelo://app?vid=6e48c2e9-9079-4a57-b4e3-65f3a72e2cf0"},"vehicle_type_id":"4","last_reported":1734455347,"current_range_meters":20000,"station_id":"ce4bhr12rcd13ifvqhqg","pricing_plan_id":"cebpf4jnsgd1na2vs0mg"},{"bike_id":"9b3b15b8-0e59-4d35-bc41-e6a64a1479d7","system_id":"levelo_inurba_marseille","lat":43.28037,"lon":5.36956,"is_reserved":false,"is_disabled":false,"rental_uris":{"android":"levelo://app?vid=9b3b15b8-0e59-4d35-bc41-e6a64a1479d7","ios":"levelo://app?vid=9b3b15b8-0e59-4d35-bc41-e6a64a1479d7"},"vehicle_type_id":"4","last_reported":1734455347,"current_range_meters":28400,"station_id":"ce4bha12rcd13ifvqef0","pricing_plan_id":"cebpf4jnsgd1na2vs0mg"},{"bike_id":"7c10fc2e-b460-4ae3-b8db-5220f2e10399","system_id":"levelo_inurba_marseille","lat":43.31117,"lon":5.37767,"is_reserved":false,"is_disabled":false,"rental_uris":{"android":"levelo://app?vid=7c10fc2e-b460-4ae3-b8db-5220f2e10399","ios":"levelo://app?vid=7c10fc2e-b460-4ae3-b8db-5220f2e10399"},"vehicle_type_id":"4","last_reported":1734455347,"current_range_meters":38000,"station_id":"ce4bgt92rcd13ifvqcg0","pricing_plan_id":"cebpf4jnsgd1na2vs0mg"},{"bike_id":"5716e911-1ddd-4195-aaba-8eb075050428","system_id":"levelo_inurba_marseille","lat":43.28464,"lon":5.35891,"is_reserved":false,"is_disabled":false,"rental_uris":{"android":"levelo://app?vid=5716e911-1ddd-4195-aaba-8eb075050428","ios":"levelo://app?vid=5716e911-1ddd-4195-aaba-8eb075050428"},"vehicle_type_id":"4","last_reported":1734455347,"current_range_meters":16000,"station_id":"ce4bhah2rcd13ifvqei0","pricing_plan_id":"cebpf4jnsgd1na2vs0mg"},{"bike_id":"c8399855-72d4-4f25-aa5a-52a18924a7b8","system_id":"levelo_inurba_marseille","lat":43.2417,"lon":5.36389,"is_reserved":false,"is_disabled":false,"rental_uris":{"android":"levelo://app?vid=c8399855-72d4-4f25-aa5a-52a18924a7b8","ios":"levelo://app?vid=c8399855-72d4-4f25-aa5a-52a18924a7b8"},"vehicle_type_id":"4","last_reported":1734455347,"current_range_meters":10000,"station_id":"cpo36qri1sfpv3e86is0","pricing_plan_id":"cebpf4jnsgd1na2vs0mg"},{"bike_id":"27361fb6-fa95-4996-99ed-1770f4e5aa04","system_id":"levelo_inurba_marseille","lat":43.31277,"lon":5.40172,"is_reserved":false,"is_disabled":true,"rental_uris":{"android":"levelo://app?vid=27361fb6-fa95-4996-99ed-1770f4e5aa04","ios":"levelo://app?vid=27361fb6-fa95-4996-99ed-1770f4e5aa04"},"vehicle_type_id":"4","last_reported":1734455347,"current_range_meters":800,"station_id":"ce4bh092rcd13ifvqd30","pricing_plan_id":"cebpf4jnsgd1na2vs0mg"},{"bike_id":"caccf3df-025c-4334-8486-611a28578717","system_id":"levelo_inurba_marseille","lat":43.24656,"lon":5.38157,"is_reserved":false,"is_disabled":true,"rental_uris":{"android":"levelo://app?vid=caccf3df-025c-4334-8486-611a28578717","ios":"levelo://app?vid=caccf3df-025c-4334-8486-611a28578717"},"vehicle_type_id":"4","last_reported":1734455347,"current_range_meters":0,"station_id":"ce4bhih2rcd13ifvqfr0","pricing_plan_id":"cebpf4jnsgd1na2vs0mg"},{"bike_id":"a94decb7-1897-4f02-8924-716e59cdf55c","system_id":"levelo_inurba_marseille","lat":43.29549,"lon":5.42288,"is_reserved":false,"is_disabled":false,"rental_uris":{"android":"levelo://app?vid=a94decb7-1897-4f02-8924-716e59cdf55c","ios":"levelo://app?vid=a94decb7-1897-4f02-8924-716e59cdf55c"},"vehicle_type_id":"4","last_reported":1734455347,"current_range_meters":39200,"station_id":"ce4bhph2rcd13ifvqhdg","pricing_plan_id":"cebpf4jnsgd1na2vs0mg"},{"bike_id":"ad67b4d2-6702-4d57-a089-64b84204e7df","system_id":"levelo_inurba_marseille","lat":43.29165,"lon":5.37159,"is_reserved":false,"is_disabled":false,"rental_uris":{"android":"levelo://app?vid=ad67b4d2-6702-4d57-a089-64b84204e7df","ios":"levelo://app?vid=ad67b4d2-6702-4d57-a089-64b84204e7df"},"vehicle_type_id":"4","last_reported":1734455347,"current_range_meters":16000,"station_id":"ce4bha92rcd13ifvqeh0","pricing_plan_id":"cebpf4jnsgd1na2vs0mg"},{"bike_id":"f0875293-fd54-45a6-9bc1-72e7d5e63948","system_id":"levelo_inurba_marseille","lat":43.29588,"lon":5.36752,"is_reserved":false,"is_disabled":false,"rental_uris":{"android":"levelo://app?vid=f0875293-fd54-45a6-9bc1-72e7d5e63948","ios":"levelo://app?vid=f0875293-fd54-45a6-9bc1-72e7d5e63948"},"vehicle_type_id":"4","last_reported":1734455347,"current_range_meters":38000,"station_id":"ce4bgph2rcd13ifvqc2g","pricing_plan_id":"cebpf4jnsgd1na2vs0mg"},{"bike_id":"d11b51c1-d5af-4ee1-a83a-d1a97dc41df3","system_id":"levelo_inurba_marseille","lat":43.29891,"lon":5.38143,"is_reserved":false,"is_disabled":false,"rental_uris":{"android":"levelo://app?vid=d11b51c1-d5af-4ee1-a83a-d1a97dc41df3","ios":"levelo://app?vid=d11b51c1-d5af-4ee1-a83a-d1a97dc41df3"},"vehicle_type_id":"4","last_reported":1734455347,"current_range_meters":18000,"station_id":"ce4bgj12rcd13ifvqbc0","pricing_plan_id":"cebpf4jnsgd1na2vs0mg"},{"bike_id":"17ffd64c-e130-4d12-88a8-19106c986955","system_id":"levelo_inurba_marseille","lat":43.31329,"lon":5.39692,"is_reserved":false,"is_disabled":false,"rental_uris":{"android":"levelo://app?vid=17ffd64c-e130-4d12-88a8-19106c986955","ios":"levelo://app?vid=17ffd64c-e130-4d12-88a8-19106c986955"},"vehicle_type_id":"4","last_reported":1734455347,"current_range_meters":27600,"station_id":"ce4bgvp2rcd13ifvqcu0","pricing_plan_id":"cebpf4jnsgd1na2vs0mg"},{"bike_id":"11befecd-2d9b-4b06-b34f-fb0e1a12389c","system_id":"levelo_inurba_marseille","lat":43.30313,"lon":5.36905,"is_reserved":false,"is_disabled":true,"rental_uris":{"android":"levelo://app?vid=11befecd-2d9b-4b06-b34f-fb0e1a12389c","ios":"levelo://app?vid=11befecd-2d9b-4b06-b34f-fb0e1a12389c"},"vehicle_type_id":"4","last_reported":1734455347,"current_range_meters":1600,"station_id":"ce4bgqh2rcd13ifvqc5g","pricing_plan_id":"cebpf4jnsgd1na2vs0mg"},{"bike_id":"6c0f373f-9257-48c4-8b36-d836bfa9d6a8","system_id":"levelo_inurba_marseille","lat":43.29679,"lon":5.37278,"is_reserved":false,"is_disabled":false,"rental_uris":{"android":"levelo://app?vid=6c0f373f-9257-48c4-8b36-d836bfa9d6a8","ios":"levelo://app?vid=6c0f373f-9257-48c4-8b36-d836bfa9d6a8"},"vehicle_type_id":"4","last_reported":1734455347,"current_range_meters":33600,"station_id":"ce4bgk12rcd13ifvqbj0","pricing_plan_id":"cebpf4jnsgd1na2vs0mg"},{"bike_id":"dac211e7-f278-4f35-910f-62503c1e8281","system_id":"levelo_inurba_marseille","lat":43.3137,"lon":5.38492,"is_reserved":false,"is_disabled":false,"rental_uris":{"android":"levelo://app?vid=dac211e7-f278-4f35-910f-62503c1e8281","ios":"levelo://app?vid=dac211e7-f278-4f35-910f-62503c1e8281"},"vehicle_type_id":"4","last_reported":1734455347,"current_range_meters":5600,"station_id":"ce4bgt92rcd13ifvqcf0","pricing_plan_id":"cebpf4jnsgd1na2vs0mg"},{"bike_id":"563b4e1d-2e56-47c0-afec-7afc5fbabbcb","system_id":"levelo_inurba_marseille","lat":43.30543,"lon":5.36525,"is_reserved":false,"is_disabled":false,"rental_uris":{"android":"levelo://app?vid=563b4e1d-2e56-47c0-afec-7afc5fbabbcb","ios":"levelo://app?vid=563b4e1d-2e56-47c0-afec-7afc5fbabbcb"},"vehicle_type_id":"4","last_reported":1734455347,"current_range_meters":38000,"station_id":"ce4bgs12rcd13ifvqcag","pricing_plan_id":"cebpf4jnsgd1na2vs0mg"},{"bike_id":"bdf518c3-8e1c-4e3a-bfa1-e7e3d9079018","system_id":"levelo_inurba_marseille","lat":43.33015,"lon":5.3906,"is_reserved":false,"is_disabled":false,"rental_uris":{"android":"levelo://app?vid=bdf518c3-8e1c-4e3a-bfa1-e7e3d9079018","ios":"levelo://app?vid=bdf518c3-8e1c-4e3a-bfa1-e7e3d9079018"},"vehicle_type_id":"4","last_reported":1734455347,"current_range_meters":38800,"station_id":"ce4bhr92rcd13ifvqhrg","pricing_plan_id":"cebpf4jnsgd1na2vs0mg"},{"bike_id":"b2d380e8-08ed-495f-a052-5d7dfa068f5b","system_id":"levelo_inurba_marseille","lat":43.26949,"lon":5.3863,"is_reserved":false,"is_disabled":true,"rental_uris":{"android":"levelo://app?vid=b2d380e8-08ed-495f-a052-5d7dfa068f5b","ios":"levelo://app?vid=b2d380e8-08ed-495f-a052-5d7dfa068f5b"},"vehicle_type_id":"4","last_reported":1734455347,"current_range_meters":0,"station_id":"ce4bhh92rcd13ifvqfh0","pricing_plan_id":"cebpf4jnsgd1na2vs0mg"},{"bike_id":"262db747-5df7-439b-b4e7-c313a4a57308","system_id":"levelo_inurba_marseille","lat":43.27818,"lon":5.40712,"is_reserved":false,"is_disabled":false,"rental_uris":{"android":"levelo://app?vid=262db747-5df7-439b-b4e7-c313a4a57308","ios":"levelo://app?vid=262db747-5df7-439b-b4e7-c313a4a57308"},"vehicle_type_id":"4","last_reported":1734455347,"current_range_meters":18800,"station_id":"ce4bhnh2rcd13ifvqgtg","pricing_plan_id":"cebpf4jnsgd1na2vs0mg"},{"bike_id":"462c73e9-6c33-4bda-bd51-9603bfd0e665","system_id":"levelo_inurba_marseille","lat":43.24646,"lon":5.38887,"is_reserved":false,"is_disabled":false,"rental_uris":{"android":"levelo://app?vid=462c73e9-6c33-4bda-bd51-9603bfd0e665","ios":"levelo://app?vid=462c73e9-6c33-4bda-bd51-9603bfd0e665"},"vehicle_type_id":"4","last_reported":1734455347,"current_range_meters":25200,"station_id":"ce4bhg12rcd13ifvqf60","pricing_plan_id":"cebpf4jnsgd1na2vs0mg"},{"bike_id":"03092903-5d82-4626-b3ea-a0e759509511","system_id":"levelo_inurba_marseille","lat":43.29424,"lon":5.39745,"is_reserved":false,"is_disabled":true,"rental_uris":{"android":"levelo://app?vid=03092903-5d82-4626-b3ea-a0e759509511","ios":"levelo://app?vid=03092903-5d82-4626-b3ea-a0e759509511"},"vehicle_type_id":"4","last_reported":1734455347,"current_range_meters":0,"station_id":"ce4bh3h2rcd13ifvqdo0","pricing_plan_id":"cebpf4jnsgd1na2vs0mg"},{"bike_id":"82f7f145-591c-4ce0-8f76-660882a2845e","system_id":"levelo_inurba_marseille","lat":43.33612,"lon":5.40993,"is_reserved":false,"is_disabled":true,"rental_uris":{"android":"levelo://app?vid=82f7f145-591c-4ce0-8f76-660882a2845e","ios":"levelo://app?vid=82f7f145-591c-4ce0-8f76-660882a2845e"},"vehicle_type_id":"4","last_reported":1734455347,"current_range_meters":34000,"station_id":"ce4bhqh2rcd13ifvqhmg","pricing_plan_id":"cebpf4jnsgd1na2vs0mg"},{"bike_id":"840ed963-9f8e-4d70-a8a0-f39a4af27f7a","system_id":"levelo_inurba_marseille","lat":43.27803,"lon":5.40697,"is_reserved":false,"is_disabled":false,"rental_uris":{"android":"levelo://app?vid=840ed963-9f8e-4d70-a8a0-f39a4af27f7a","ios":"levelo://app?vid=840ed963-9f8e-4d70-a8a0-f39a4af27f7a"},"vehicle_type_id":"4","last_reported":1734455347,"current_range_meters":28400,"station_id":"ce4bhnh2rcd13ifvqgtg","pricing_plan_id":"cebpf4jnsgd1na2vs0mg"},{"bike_id":"9f3310a5-db73-44ea-a899-a11422678543","system_id":"levelo_inurba_marseille","lat":43.30772,"lon":5.37645,"is_reserved":false,"is_disabled":false,"rental_uris":{"android":"levelo://app?vid=9f3310a5-db73-44ea-a899-a11422678543","ios":"levelo://app?vid=9f3310a5-db73-44ea-a899-a11422678543"},"vehicle_type_id":"4","last_reported":1734455347,"current_range_meters":17600,"station_id":"ce4bgv92rcd13ifvqcq0","pricing_plan_id":"cebpf4jnsgd1na2vs0mg"},{"bike_id":"5becaf22-688b-4b8b-8a6e-cd541ea54b63","system_id":"levelo_inurba_marseille","lat":43.317528,"lon":5.377681,"is_reserved":false,"is_disabled":false,"rental_uris":{"android":"levelo://app?vid=5becaf22-688b-4b8b-8a6e-cd541ea54b63","ios":"levelo://app?vid=5becaf22-688b-4b8b-8a6e-cd541ea54b63"},"vehicle_type_id":"4","last_reported":1734455347,"current_range_meters":33200,"station_id":"ce4bgth2rcd13ifvqch0","pricing_plan_id":"cebpf4jnsgd1na2vs0mg"},{"bike_id":"ac7c5f56-daad-496c-965f-9103737000e8","system_id":"levelo_inurba_marseille","lat":43.23965,"lon":5.36631,"is_reserved":false,"is_disabled":false,"rental_uris":{"android":"levelo://app?vid=ac7c5f56-daad-496c-965f-9103737000e8","ios":"levelo://app?vid=ac7c5f56-daad-496c-965f-9103737000e8"},"vehicle_type_id":"4","last_reported":1734455347,"current_range_meters":38800,"station_id":"ce4bhi12rcd13ifvqfp0","pricing_plan_id":"cebpf4jnsgd1na2vs0mg"},{"bike_id":"677f2f20-67b1-43ae-ab0d-c86c94aad358","system_id":"levelo_inurba_marseille","lat":43.33025,"lon":5.39045,"is_reserved":false,"is_disabled":false,"rental_uris":{"android":"levelo://app?vid=677f2f20-67b1-43ae-ab0d-c86c94aad358","ios":"levelo://app?vid=677f2f20-67b1-43ae-ab0d-c86c94aad358"},"vehicle_type_id":"4","last_reported":1734455347,"current_range_meters":23200,"station_id":"ce4bhr92rcd13ifvqhrg","pricing_plan_id":"cebpf4jnsgd1na2vs0mg"},{"bike_id":"f5d6a80f-4cdc-43d9-a251-ed5436737e28","system_id":"levelo_inurba_marseille","lat":43.31526,"lon":5.38038,"is_reserved":false,"is_disabled":false,"rental_uris":{"android":"levelo://app?vid=f5d6a80f-4cdc-43d9-a251-ed5436737e28","ios":"levelo://app?vid=f5d6a80f-4cdc-43d9-a251-ed5436737e28"},"vehicle_type_id":"4","last_reported":1734455347,"current_range_meters":30000,"station_id":"ce4bhsp2rcd13ifvqi50","pricing_plan_id":"cebpf4jnsgd1na2vs0mg"},{"bike_id":"c36bdd7d-50b7-411d-93ce-da825cc15c4e","system_id":"levelo_inurba_marseille","lat":43.27916,"lon":5.39581,"is_reserved":false,"is_disabled":false,"rental_uris":{"android":"levelo://app?vid=c36bdd7d-50b7-411d-93ce-da825cc15c4e","ios":"levelo://app?vid=c36bdd7d-50b7-411d-93ce-da825cc15c4e"},"vehicle_type_id":"4","last_reported":1734455347,"current_range_meters":13600,"station_id":"ce4bhf92rcd13ifvqf40","pricing_plan_id":"cebpf4jnsgd1na2vs0mg"},{"bike_id":"bf02fbaa-68b0-46bc-a709-eef8ddceaf69","system_id":"levelo_inurba_marseille","lat":43.25859,"lon":5.39903,"is_reserved":false,"is_disabled":false,"rental_uris":{"android":"levelo://app?vid=bf02fbaa-68b0-46bc-a709-eef8ddceaf69","ios":"levelo://app?vid=bf02fbaa-68b0-46bc-a709-eef8ddceaf69"},"vehicle_type_id":"4","last_reported":1734455347,"current_range_meters":9200,"station_id":"ce4bhl92rcd13ifvqghg","pricing_plan_id":"cebpf4jnsgd1na2vs0mg"},{"bike_id":"883b3f1b-01c4-47c7-9978-e5f0ddf771b8","system_id":"levelo_inurba_marseille","lat":43.33035,"lon":5.39047,"is_reserved":false,"is_disabled":false,"rental_uris":{"android":"levelo://app?vid=883b3f1b-01c4-47c7-9978-e5f0ddf771b8","ios":"levelo://app?vid=883b3f1b-01c4-47c7-9978-e5f0ddf771b8"},"vehicle_type_id":"4","last_reported":1734455347,"current_range_meters":20000,"station_id":"ce4bhr92rcd13ifvqhrg","pricing_plan_id":"cebpf4jnsgd1na2vs0mg"},{"bike_id":"d2e077a2-c7c5-4010-b82c-02bbab503458","system_id":"levelo_inurba_marseille","lat":43.32363,"lon":5.38884,"is_reserved":false,"is_disabled":false,"rental_uris":{"android":"levelo://app?vid=d2e077a2-c7c5-4010-b82c-02bbab503458","ios":"levelo://app?vid=d2e077a2-c7c5-4010-b82c-02bbab503458"},"vehicle_type_id":"4","last_reported":1734455347,"current_range_meters":29600,"station_id":"ce4bhqp2rcd13ifvqhog","pricing_plan_id":"cebpf4jnsgd1na2vs0mg"},{"bike_id":"a9400ed1-3a24-4ecc-82f2-c241a2db1602","system_id":"levelo_inurba_marseille","lat":43.28409,"lon":5.37542,"is_reserved":false,"is_disabled":false,"rental_uris":{"android":"levelo://app?vid=a9400ed1-3a24-4ecc-82f2-c241a2db1602","ios":"levelo://app?vid=a9400ed1-3a24-4ecc-82f2-c241a2db1602"},"vehicle_type_id":"4","last_reported":1734455347,"current_range_meters":28400,"station_id":"ce4bh412rcd13ifvqds0","pricing_plan_id":"cebpf4jnsgd1na2vs0mg"},{"bike_id":"7cecba64-46de-4d06-b2fc-c324dc796bcb","system_id":"levelo_inurba_marseille","lat":43.30534,"lon":5.38087,"is_reserved":false,"is_disabled":false,"rental_uris":{"android":"levelo://app?vid=7cecba64-46de-4d06-b2fc-c324dc796bcb","ios":"levelo://app?vid=7cecba64-46de-4d06-b2fc-c324dc796bcb"},"vehicle_type_id":"4","last_reported":1734455347,"current_range_meters":22000,"station_id":"","pricing_plan_id":"cebpf4jnsgd1na2vs0mg"},{"bike_id":"d9eba193-eaec-42ca-91c8-88067a533c0c","system_id":"levelo_inurba_marseille","lat":43.26941,"lon":5.40249,"is_reserved":false,"is_disabled":false,"rental_uris":{"android":"levelo://app?vid=d9eba193-eaec-42ca-91c8-88067a533c0c","ios":"levelo://app?vid=d9eba193-eaec-42ca-91c8-88067a533c0c"},"vehicle_type_id":"4","last_reported":1734455347,"current_range_meters":30400,"station_id":"cjm6bp8fraef2m0cb0m0","pricing_plan_id":"cebpf4jnsgd1na2vs0mg"},{"bike_id":"9baba8e5-182e-46b6-a710-73ee9b0f3024","system_id":"levelo_inurba_marseille","lat":43.25012,"lon":5.38942,"is_reserved":false,"is_disabled":false,"rental_uris":{"android":"levelo://app?vid=9baba8e5-182e-46b6-a710-73ee9b0f3024","ios":"levelo://app?vid=9baba8e5-182e-46b6-a710-73ee9b0f3024"},"vehicle_type_id":"4","last_reported":1734455347,"current_range_meters":38800,"station_id":"ce4bhgp2rcd13ifvqfd0","pricing_plan_id":"cebpf4jnsgd1na2vs0mg"},{"bike_id":"b59c647e-051a-4eb5-a082-deb3a3d33fa7","system_id":"levelo_inurba_marseille","lat":43.29284,"lon":5.40163,"is_reserved":false,"is_disabled":true,"rental_uris":{"android":"levelo://app?vid=b59c647e-051a-4eb5-a082-deb3a3d33fa7","ios":"levelo://app?vid=b59c647e-051a-4eb5-a082-deb3a3d33fa7"},"vehicle_type_id":"4","last_reported":1734455347,"current_range_meters":18800,"station_id":"ce4bh312rcd13ifvqdk0","pricing_plan_id":"cebpf4jnsgd1na2vs0mg"},{"bike_id":"95c8896a-914b-45a9-85b4-9ef29d7aaa40","system_id":"levelo_inurba_marseille","lat":43.29711,"lon":5.37698,"is_reserved":false,"is_disabled":false,"rental_uris":{"android":"levelo://app?vid=95c8896a-914b-45a9-85b4-9ef29d7aaa40","ios":"levelo://app?vid=95c8896a-914b-45a9-85b4-9ef29d7aaa40"},"vehicle_type_id":"4","last_reported":1734455347,"current_range_meters":31200,"station_id":"ce4bgkh2rcd13ifvqbl0","pricing_plan_id":"cebpf4jnsgd1na2vs0mg"},{"bike_id":"b3a108c8-12f3-49d8-a89a-f5dfcdedbb6e","system_id":"levelo_inurba_marseille","lat":43.2706,"lon":5.40294,"is_reserved":false,"is_disabled":false,"rental_uris":{"android":"levelo://app?vid=b3a108c8-12f3-49d8-a89a-f5dfcdedbb6e","ios":"levelo://app?vid=b3a108c8-12f3-49d8-a89a-f5dfcdedbb6e"},"vehicle_type_id":"4","last_reported":1734455347,"current_range_meters":33600,"station_id":"ce4bhk92rcd13ifvqgc0","pricing_plan_id":"cebpf4jnsgd1na2vs0mg"},{"bike_id":"00cb001e-0fdd-455a-89c4-d844549e7283","system_id":"levelo_inurba_marseille","lat":43.30095,"lon":5.39087,"is_reserved":false,"is_disabled":false,"rental_uris":{"android":"levelo://app?vid=00cb001e-0fdd-455a-89c4-d844549e7283","ios":"levelo://app?vid=00cb001e-0fdd-455a-89c4-d844549e7283"},"vehicle_type_id":"4","last_reported":1734455347,"current_range_meters":10800,"station_id":"ce4bh192rcd13ifvqdb0","pricing_plan_id":"cebpf4jnsgd1na2vs0mg"},{"bike_id":"d2be9f28-1d71-421f-8a07-6a84931c8b82","system_id":"levelo_inurba_marseille","lat":43.30419,"lon":5.41288,"is_reserved":false,"is_disabled":false,"rental_uris":{"android":"levelo://app?vid=d2be9f28-1d71-421f-8a07-6a84931c8b82","ios":"levelo://app?vid=d2be9f28-1d71-421f-8a07-6a84931c8b82"},"vehicle_type_id":"4","last_reported":1734455347,"current_range_meters":38800,"station_id":"ce4bhop2rcd13ifvqh8g","pricing_plan_id":"cebpf4jnsgd1na2vs0mg"},{"bike_id":"2bad013d-ad3c-4efa-a5b5-be06f005f4e1","system_id":"levelo_inurba_marseille","lat":43.2438,"lon":5.37061,"is_reserved":false,"is_disabled":false,"rental_uris":{"android":"levelo://app?vid=2bad013d-ad3c-4efa-a5b5-be06f005f4e1","ios":"levelo://app?vid=2bad013d-ad3c-4efa-a5b5-be06f005f4e1"},"vehicle_type_id":"4","last_reported":1734455347,"current_range_meters":22000,"station_id":"ce4bhhh2rcd13ifvqfk0","pricing_plan_id":"cebpf4jnsgd1na2vs0mg"},{"bike_id":"b2317ee3-5803-4af9-b9b3-4aa01cd8f4ee","system_id":"levelo_inurba_marseille","lat":43.301367,"lon":5.374173,"is_reserved":false,"is_disabled":false,"rental_uris":{"android":"levelo://app?vid=b2317ee3-5803-4af9-b9b3-4aa01cd8f4ee","ios":"levelo://app?vid=b2317ee3-5803-4af9-b9b3-4aa01cd8f4ee"},"vehicle_type_id":"4","last_reported":1734455347,"current_range_meters":10000,"station_id":"ce4bgs92rcd13ifvqcc0","pricing_plan_id":"cebpf4jnsgd1na2vs0mg"},{"bike_id":"8be087d3-9d6f-4250-a998-20bf5d178678","system_id":"levelo_inurba_marseille","lat":43.29297,"lon":5.37444,"is_reserved":false,"is_disabled":true,"rental_uris":{"android":"levelo://app?vid=8be087d3-9d6f-4250-a998-20bf5d178678","ios":"levelo://app?vid=8be087d3-9d6f-4250-a998-20bf5d178678"},"vehicle_type_id":"4","last_reported":1734455347,"current_range_meters":0,"station_id":"ce4bgi12rcd13ifvqb70","pricing_plan_id":"cebpf4jnsgd1na2vs0mg"},{"bike_id":"5be8d836-0bfc-449e-8a3e-90f14f10b828","system_id":"levelo_inurba_marseille","lat":43.30263,"lon":5.40082,"is_reserved":false,"is_disabled":false,"rental_uris":{"android":"levelo://app?vid=5be8d836-0bfc-449e-8a3e-90f14f10b828","ios":"levelo://app?vid=5be8d836-0bfc-449e-8a3e-90f14f10b828"},"vehicle_type_id":"4","last_reported":1734455347,"current_range_meters":33600,"station_id":"ce4bgvh2rcd13ifvqcs0","pricing_plan_id":"cebpf4jnsgd1na2vs0mg"},{"bike_id":"073bc151-9c32-4cb5-954b-ef9de402e173","system_id":"levelo_inurba_marseille","lat":43.31212,"lon":5.36853,"is_reserved":false,"is_disabled":true,"rental_uris":{"android":"levelo://app?vid=073bc151-9c32-4cb5-954b-ef9de402e173","ios":"levelo://app?vid=073bc151-9c32-4cb5-954b-ef9de402e173"},"vehicle_type_id":"4","last_reported":1734455347,"current_range_meters":800,"station_id":"ce4bgl92rcd13ifvqbq0","pricing_plan_id":"cebpf4jnsgd1na2vs0mg"},{"bike_id":"62fa7f89-6de2-4bc8-8eb6-09e44ff16e37","system_id":"levelo_inurba_marseille","lat":43.231903,"lon":5.355497,"is_reserved":false,"is_disabled":false,"rental_uris":{"android":"levelo://app?vid=62fa7f89-6de2-4bc8-8eb6-09e44ff16e37","ios":"levelo://app?vid=62fa7f89-6de2-4bc8-8eb6-09e44ff16e37"},"vehicle_type_id":"4","last_reported":1734455347,"current_range_meters":38800,"station_id":"ce4bhu92rcd13ifvqi70","pricing_plan_id":"cebpf4jnsgd1na2vs0mg"},{"bike_id":"3fa0628c-be6e-40c6-afb1-5b162f3de55a","system_id":"levelo_inurba_marseille","lat":43.27429,"lon":5.39426,"is_reserved":false,"is_disabled":false,"rental_uris":{"android":"levelo://app?vid=3fa0628c-be6e-40c6-afb1-5b162f3de55a","ios":"levelo://app?vid=3fa0628c-be6e-40c6-afb1-5b162f3de55a"},"vehicle_type_id":"4","last_reported":1734455347,"current_range_meters":22800,"station_id":"ce4bhdp2rcd13ifvqf20","pricing_plan_id":"cebpf4jnsgd1na2vs0mg"},{"bike_id":"bbff90de-c6b2-473c-bf0a-c94a3566bfaa","system_id":"levelo_inurba_marseille","lat":43.28605,"lon":5.37069,"is_reserved":false,"is_disabled":false,"rental_uris":{"android":"levelo://app?vid=bbff90de-c6b2-473c-bf0a-c94a3566bfaa","ios":"levelo://app?vid=bbff90de-c6b2-473c-bf0a-c94a3566bfaa"},"vehicle_type_id":"4","last_reported":1734455347,"current_range_meters":24400,"station_id":"ce4bht12rcd13ifvqi60","pricing_plan_id":"cebpf4jnsgd1na2vs0mg"},{"bike_id":"1543f4bb-ffd5-451d-837b-75cce4148c96","system_id":"levelo_inurba_marseille","lat":43.337444,"lon":5.374475,"is_reserved":false,"is_disabled":true,"rental_uris":{"android":"levelo://app?vid=1543f4bb-ffd5-451d-837b-75cce4148c96","ios":"levelo://app?vid=1543f4bb-ffd5-451d-837b-75cce4148c96"},"vehicle_type_id":"4","last_reported":1734455347,"current_range_meters":0,"station_id":"","pricing_plan_id":"cebpf4jnsgd1na2vs0mg"},{"bike_id":"065a728c-515f-4ccc-9f38-21feeda29cb6","system_id":"levelo_inurba_marseille","lat":43.2935,"lon":5.38631,"is_reserved":false,"is_disabled":false,"rental_uris":{"android":"levelo://app?vid=065a728c-515f-4ccc-9f38-21feeda29cb6","ios":"levelo://app?vid=065a728c-515f-4ccc-9f38-21feeda29cb6"},"vehicle_type_id":"4","last_reported":1734455347,"current_range_meters":32400,"station_id":"","pricing_plan_id":"cebpf4jnsgd1na2vs0mg"},{"bike_id":"7aa901c2-1a75-4e3b-81a6-12b77b1d4970","system_id":"levelo_inurba_marseille","lat":43.29705,"lon":5.37697,"is_reserved":false,"is_disabled":false,"rental_uris":{"android":"levelo://app?vid=7aa901c2-1a75-4e3b-81a6-12b77b1d4970","ios":"levelo://app?vid=7aa901c2-1a75-4e3b-81a6-12b77b1d4970"},"vehicle_type_id":"4","last_reported":1734455347,"current_range_meters":16000,"station_id":"ce4bgkh2rcd13ifvqbl0","pricing_plan_id":"cebpf4jnsgd1na2vs0mg"},{"bike_id":"15b06ab3-5941-43b5-a9a5-ceb90aabbb54","system_id":"levelo_inurba_marseille","lat":43.22942,"lon":5.3538,"is_reserved":false,"is_disabled":false,"rental_uris":{"android":"levelo://app?vid=15b06ab3-5941-43b5-a9a5-ceb90aabbb54","ios":"levelo://app?vid=15b06ab3-5941-43b5-a9a5-ceb90aabbb54"},"vehicle_type_id":"4","last_reported":1734455347,"current_range_meters":38400,"station_id":"cpo3532slgdg3j2ikp40","pricing_plan_id":"cebpf4jnsgd1na2vs0mg"},{"bike_id":"10e41bb7-9a61-4753-bcbd-6280b08c0d4a","system_id":"levelo_inurba_marseille","lat":43.232,"lon":5.3557,"is_reserved":false,"is_disabled":false,"rental_uris":{"android":"levelo://app?vid=10e41bb7-9a61-4753-bcbd-6280b08c0d4a","ios":"levelo://app?vid=10e41bb7-9a61-4753-bcbd-6280b08c0d4a"},"vehicle_type_id":"4","last_reported":1734455347,"current_range_meters":36800,"station_id":"ce4bhu92rcd13ifvqi70","pricing_plan_id":"cebpf4jnsgd1na2vs0mg"},{"bike_id":"43955c6e-2371-4783-ae5b-2d4467416d48","system_id":"levelo_inurba_marseille","lat":43.29532,"lon":5.38546,"is_reserved":false,"is_disabled":false,"rental_uris":{"android":"levelo://app?vid=43955c6e-2371-4783-ae5b-2d4467416d48","ios":"levelo://app?vid=43955c6e-2371-4783-ae5b-2d4467416d48"},"vehicle_type_id":"4","last_reported":1734455347,"current_range_meters":25200,"station_id":"ce4bgih2rcd13ifvqba0","pricing_plan_id":"cebpf4jnsgd1na2vs0mg"},{"bike_id":"adf6ee74-4d99-4506-b47a-5d079fbb284c","system_id":"levelo_inurba_marseille","lat":43.29711,"lon":5.36615,"is_reserved":false,"is_disabled":false,"rental_uris":{"android":"levelo://app?vid=adf6ee74-4d99-4506-b47a-5d079fbb284c","ios":"levelo://app?vid=adf6ee74-4d99-4506-b47a-5d079fbb284c"},"vehicle_type_id":"4","last_reported":1734455347,"current_range_meters":39200,"station_id":"ce4bgn12rcd13ifvqbt0","pricing_plan_id":"cebpf4jnsgd1na2vs0mg"},{"bike_id":"cb98c74d-01de-4a61-819e-6b78e29e75bf","system_id":"levelo_inurba_marseille","lat":43.2895,"lon":5.3663,"is_reserved":false,"is_disabled":false,"rental_uris":{"android":"levelo://app?vid=cb98c74d-01de-4a61-819e-6b78e29e75bf","ios":"levelo://app?vid=cb98c74d-01de-4a61-819e-6b78e29e75bf"},"vehicle_type_id":"4","last_reported":1734455347,"current_range_meters":38800,"station_id":"ce4bhap2rcd13ifvqek0","pricing_plan_id":"cebpf4jnsgd1na2vs0mg"},{"bike_id":"3028d671-f7f4-4727-a303-93bb21b2b475","system_id":"levelo_inurba_marseille","lat":43.250004,"lon":5.389369,"is_reserved":false,"is_disabled":false,"rental_uris":{"android":"levelo://app?vid=3028d671-f7f4-4727-a303-93bb21b2b475","ios":"levelo://app?vid=3028d671-f7f4-4727-a303-93bb21b2b475"},"vehicle_type_id":"4","last_reported":1734455347,"current_range_meters":20000,"station_id":"ce4bhgp2rcd13ifvqfd0","pricing_plan_id":"cebpf4jnsgd1na2vs0mg"},{"bike_id":"3cb65bca-565e-470f-91a4-22bb663dbe2c","system_id":"levelo_inurba_marseille","lat":43.28419,"lon":5.34972,"is_reserved":false,"is_disabled":true,"rental_uris":{"android":"levelo://app?vid=3cb65bca-565e-470f-91a4-22bb663dbe2c","ios":"levelo://app?vid=3cb65bca-565e-470f-91a4-22bb663dbe2c"},"vehicle_type_id":"4","last_reported":1734455347,"current_range_meters":0,"station_id":"ce4bhbh2rcd13ifvqepg","pricing_plan_id":"cebpf4jnsgd1na2vs0mg"},{"bike_id":"1f01fb59-f2b8-4c6a-81cc-f9b97b0e05a3","system_id":"levelo_inurba_marseille","lat":43.28929,"lon":5.36633,"is_reserved":false,"is_disabled":false,"rental_uris":{"android":"levelo://app?vid=1f01fb59-f2b8-4c6a-81cc-f9b97b0e05a3","ios":"levelo://app?vid=1f01fb59-f2b8-4c6a-81cc-f9b97b0e05a3"},"vehicle_type_id":"4","last_reported":1734455347,"current_range_meters":33600,"station_id":"ce4bhap2rcd13ifvqek0","pricing_plan_id":"cebpf4jnsgd1na2vs0mg"},{"bike_id":"53565056-99a9-4984-8e7a-e244e92ad6e9","system_id":"levelo_inurba_marseille","lat":43.24676,"lon":5.38192,"is_reserved":false,"is_disabled":false,"rental_uris":{"android":"levelo://app?vid=53565056-99a9-4984-8e7a-e244e92ad6e9","ios":"levelo://app?vid=53565056-99a9-4984-8e7a-e244e92ad6e9"},"vehicle_type_id":"4","last_reported":1734455347,"current_range_meters":38000,"station_id":"ce4bhih2rcd13ifvqfr0","pricing_plan_id":"cebpf4jnsgd1na2vs0mg"},{"bike_id":"8cf3e624-d0d2-4717-804f-738fc9083f55","system_id":"levelo_inurba_marseille","lat":43.29061,"lon":5.35913,"is_reserved":false,"is_disabled":false,"rental_uris":{"android":"levelo://app?vid=8cf3e624-d0d2-4717-804f-738fc9083f55","ios":"levelo://app?vid=8cf3e624-d0d2-4717-804f-738fc9083f55"},"vehicle_type_id":"4","last_reported":1734455347,"current_range_meters":36800,"station_id":"ce4bha92rcd13ifvqeg0","pricing_plan_id":"cebpf4jnsgd1na2vs0mg"},{"bike_id":"2e9b294e-fbf1-4160-8a13-63c1fb269976","system_id":"levelo_inurba_marseille","lat":43.28074,"lon":5.39658,"is_reserved":false,"is_disabled":false,"rental_uris":{"android":"levelo://app?vid=2e9b294e-fbf1-4160-8a13-63c1fb269976","ios":"levelo://app?vid=2e9b294e-fbf1-4160-8a13-63c1fb269976"},"vehicle_type_id":"4","last_reported":1734455347,"current_range_meters":32000,"station_id":"ce4bho12rcd13ifvqh2g","pricing_plan_id":"cebpf4jnsgd1na2vs0mg"},