{"last_updated":1752437490,"ttl":60,"version":"2.2","data":{"bikes":[{"bike_id":"2f2c6183-a876-4a6d-b5cc-61675a8859ed","system_id":"levelo_inurba_marseille","lat":43.25493,"lon":5.37637,"is_reserved":false,"is_disabled":true,"rental_uris":{"android":"levelo://app?vid=2f2c6183-a876-4a6d-b5cc-61675a8859ed","ios":"levelo://app?vid=2f2c6183-a876-4a6d-b5cc-61675a8859ed"},"vehicle_type_id":"4","last_reported":1752437491,"current_range_meters":2800,"station_id":"ce4bhh12rcd13ifvqff0","pricing_plan_id":"cebpf4jnsgd1na2vs0mg"},{"bike_id":"63c8412e-cc00-4fe0-9822-5805011bbaea","system_id":"levelo_inurba_marseille","lat":43.28358,"lon":5.38685,"is_reserved":false,"is_disabled":false,"rental_uris":{"android":"levelo://app?vid=63c8412e-cc00-4fe0-9822-5805011bbaea","ios":"levelo://app?vid=63c8412e-cc00-4fe0-9822-5805011bbaea"},"vehicle_type_id":"4","last_reported":1752437491,"current_range_meters":2800,"station_id":"ce4bh492rcd13ifvqdvg","pricing_plan_id":"cebpf4jnsgd1na2vs0mg"},{"bike_id":"bcf7d82c-3ae6-4674-a003-2a18beb7df72","system_id":"levelo_inurba_marseille","lat":43.27977,"lon":5.38748,"is_reserved":false,"is_disabled":false,"rental_uris":{"android":"levelo://app?vid=bcf7d82c-3ae6-4674-a003-2a18beb7df72","ios":"levelo://app?vid=bcf7d82c-3ae6-4674-a003-2a18beb7df72"},"vehicle_type_id":"4","last_reported":1752437491,"current_range_meters":3200,"station_id":"ce4bhg12rcd13ifvqf80","pricing_plan_id":"cebpf4jnsgd1na2vs0mg"},{"bike_id":"2f0ba75c-aff3-43f4-857b-fc7c66f4e426","system_id":"levelo_inurba_marseille","lat":43.30966,"lon":5.39061,"is_reserved":false,"is_disabled":true,"rental_uris":{"android":"levelo://app?vid=2f0ba75c-aff3-43f4-857b-fc7c66f4e426","ios":"levelo://app?vid=2f0ba75c-aff3-43f4-857b-fc7c66f4e426"},"vehicle_type_id":"4","last_reported":1752437491,"current_range_meters":3600,"station_id":"ce4bgup2rcd13ifvqco0","pricing_plan_id":"cebpf4jnsgd1na2vs0mg"},{"bike_id":"38314d92-7dfe-4e7a-bc03-f556528f1b4d","system_id":"levelo_inurba_marseille","lat":43.28903,"lon":5.38417,"is_reserved":false,"is_disabled":false,"rental_uris":{"android":"levelo://app?vid=38314d92-7dfe-4e7a-bc03-f556528f1b4d","ios":"levelo://app?vid=38314d92-7dfe-4e7a-bc03-f556528f1b4d"},"vehicle_type_id":"4","last_reported":1752437491,"current_range_meters":3600,"station_id":"ce4bh612rcd13ifvqe6g","pricing_plan_id":"cebpf4jnsgd1na2vs0mg"},{"bike_id":"226b1773-a0b1-4a47-8eb6-2e3bbbd89251","system_id":"levelo_inurba_marseille","lat":43.29265,"lon":5.3844,"is_reserved":false,"is_disabled":false,"rental_uris":{"android":"levelo://app?vid=226b1773-a0b1-4a47-8eb6-2e3bbbd89251","ios":"levelo://app?vid=226b1773-a0b1-4a47-8eb6-2e3bbbd89251"},"vehicle_type_id":"4","last_reported":1752437491,"current_range_meters":3600,"station_id":"ce4bh692rcd13ifvqea0","pricing_plan_id":"cebpf4jnsgd1na2vs0mg"},{"bike_id":"4f25b010-bb0b-4e2d-aff7-d4f5558e0651","system_id":"levelo_inurba_marseille","lat":43.26202,"lon":5.37456,"is_reserved":false,"is_disabled":true,"rental_uris":{"android":"levelo://app?vid=4f25b010-bb0b-4e2d-aff7-d4f5558e0651","ios":"levelo://app?vid=4f25b010-bb0b-4e2d-aff7-d4f5558e0651"},"vehicle_type_id":"4","last_reported":1752437491,"current_range_meters":3600,"station_id":"ce4bhgp2rcd13ifvqfc0","pricing_plan_id":"cebpf4jnsgd1na2vs0mg"},{"bike_id":"067cbedf-6032-4e1a-8d05-d853ec3e981d","system_id":"levelo_inurba_marseille","lat":43.30416,"lon":5.41282,"is_reserved":false,"is_disabled":false,"rental_uris":{"android":"levelo://app?vid=067cbedf-6032-4e1a-8d05-d853ec3e981d","ios":"levelo://app?vid=067cbedf-6032-4e1a-8d05-d853ec3e981d"},"vehicle_type_id":"4","last_reported":1752437491,"current_range_meters":3600,"station_id":"ce4bhop2rcd13ifvqh8g","pricing_plan_id":"cebpf4jnsgd1na2vs0mg"},{"bike_id":"69a98ef8-9b4f-490a-b1e7-11ae49fc387b","system_id":"levelo_inurba_marseille","lat":43.21173,"lon":5.35074,"is_reserved":false,"is_disabled":false,"rental_uris":{"android":"levelo://app?vid=69a98ef8-9b4f-490a-b1e7-11ae49fc387b","ios":"levelo://app?vid=69a98ef8-9b4f-490a-b1e7-11ae49fc387b"},"vehicle_type_id":"4","last_reported":1752437491,"current_range_meters":4000,"station_id":"st_cvj6sg6p6f1abm77japg","pricing_plan_id":"cebpf4jnsgd1na2vs0mg"},{"bike_id":"e3a75ee9-c614-467b-8cc2-f813bcef2ab1","system_id":"levelo_inurba_marseille","lat":43.33743,"lon":5.3919,"is_reserved":false,"is_disabled":true,"rental_uris":{"android":"levelo://app?vid=e3a75ee9-c614-467b-8cc2-f813bcef2ab1","ios":"levelo://app?vid=e3a75ee9-c614-467b-8cc2-f813bcef2ab1"},"vehicle_type_id":"4","last_reported":1752437491,"current_range_meters":4000,"station_id":"ce4bhr92rcd13ifvqhsg","pricing_plan_id":"cebpf4jnsgd1na2vs0mg"},{"bike_id":"3cf4da33-8504-4d3c-84d9-914307cf79d1","system_id":"levelo_inurba_marseille","lat":43.29315,"lon":5.37165,"is_reserved":false,"is_disabled":false,"rental_uris":{"android":"levelo://app?vid=3cf4da33-8504-4d3c-84d9-914307cf79d1","ios":"levelo://app?vid=3cf4da33-8504-4d3c-84d9-914307cf79d1"},"vehicle_type_id":"4","last_reported":1752437491,"current_range_meters":4400,"station_id":"ce4bgh92rcd13ifvqb40","pricing_plan_id":"cebpf4jnsgd1na2vs0mg"},{"bike_id":"36fb1df1-91db-411d-a9d2-e416abc243af","system_id":"levelo_inurba_marseille","lat":43.29172,"lon":5.38439,"is_reserved":false,"is_disabled":false,"rental_uris":{"android":"levelo://app?vid=36fb1df1-91db-411d-a9d2-e416abc243af","ios":"levelo://app?vid=36fb1df1-91db-411d-a9d2-e416abc243af"},"vehicle_type_id":"4","last_reported":1752437491,"current_range_meters":4400,"station_id":"","pricing_plan_id":"cebpf4jnsgd1na2vs0mg"},{"bike_id":"df61839a-7a72-4634-9960-e8ea0d9a8d35","system_id":"levelo_inurba_marseille","lat":43.239474,"lon":5.366089,"is_reserved":false,"is_disabled":true,"rental_uris":{"android":"levelo://app?vid=df61839a-7a72-4634-9960-e8ea0d9a8d35","ios":"levelo://app?vid=df61839a-7a72-4634-9960-e8ea0d9a8d35"},"vehicle_type_id":"4","last_reported":1752437491,"current_range_meters":4800,"station_id":"","pricing_plan_id":"cebpf4jnsgd1na2vs0mg"},{"bike_id":"cb9282c9-0a04-426f-af4a-9dc494a82650","system_id":"levelo_inurba_marseille","lat":43.22494,"lon":5.34768,"is_reserved":false,"is_disabled":false,"rental_uris":{"android":"levelo://app?vid=cb9282c9-0a04-426f-af4a-9dc494a82650","ios":"levelo://app?vid=cb9282c9-0a04-426f-af4a-9dc494a82650"},"vehicle_type_id":"4","last_reported":1752437491,"current_range_meters":4800,"station_id":"","pricing_plan_id":"cebpf4jnsgd1na2vs0mg"},{"bike_id":"a6425143-6366-4518-a890-3881cc933ee5","system_id":"levelo_inurba_marseille","lat":43.304379,"lon":5.401168,"is_reserved":false,"is_disabled":false,"rental_uris":{"android":"levelo://app?vid=a6425143-6366-4518-a890-3881cc933ee5","ios":"levelo://app?vid=a6425143-6366-4518-a890-3881cc933ee5"},"vehicle_type_id":"4","last_reported":1752437491,"current_range_meters":5600,"station_id":"","pricing_plan_id":"cebpf4jnsgd1na2vs0mg"},{"bike_id":"e1d2552a-f52b-4ef4-9b4f-d5fb08e23736","system_id":"levelo_inurba_marseille","lat":43.294217,"lon":5.386127,"is_reserved":false,"is_disabled":false,"rental_uris":{"android":"levelo://app?vid=e1d2552a-f52b-4ef4-9b4f-d5fb08e23736","ios":"levelo://app?vid=e1d2552a-f52b-4ef4-9b4f-d5fb08e23736"},"vehicle_type_id":"4","last_reported":1752437491,"current_range_meters":5600,"station_id":"","pricing_plan_id":"cebpf4jnsgd1na2vs0mg"},{"bike_id":"bffcb9b8-f0d2-4bce-947a-729d619957a5","system_id":"levelo_inurba_marseille","lat":43.23397,"lon":5.4123,"is_reserved":false,"is_disabled":false,"rental_uris":{"android":"levelo://app?vid=bffcb9b8-f0d2-4bce-947a-729d619957a5","ios":"levelo://app?vid=bffcb9b8-f0d2-4bce-947a-729d619957a5"},"vehicle_type_id":"4","last_reported":1752437491,"current_range_meters":5600,"station_id":"","pricing_plan_id":"cebpf4jnsgd1na2vs0mg"},{"bike_id":"87991947-21b8-4b64-b6d4-5bae920498b7","system_id":"levelo_inurba_marseille","lat":43.30967,"lon":5.39013,"is_reserved":false,"is_disabled":true,"rental_uris":{"android":"levelo://app?vid=87991947-21b8-4b64-b6d4-5bae920498b7","ios":"levelo://app?vid=87991947-21b8-4b64-b6d4-5bae920498b7"},"vehicle_type_id":"4","last_reported":1752437491,"current_range_meters":5600,"station_id":"ce4bgup2rcd13ifvqco0","pricing_plan_id":"cebpf4jnsgd1na2vs0mg"},{"bike_id":"8929c1bf-fd4d-44e4-aa66-b3eb6538c998","system_id":"levelo_inurba_marseille","lat":43.28563,"lon":5.42948,"is_reserved":false,"is_disabled":false,"rental_uris":{"android":"levelo://app?vid=8929c1bf-fd4d-44e4-aa66-b3eb6538c998","ios":"levelo://app?vid=8929c1bf-fd4d-44e4-aa66-b3eb6538c998"},"vehicle_type_id":"4","last_reported":1752437491,"current_range_meters":6000,"station_id":"","pricing_plan_id":"cebpf4jnsgd1na2vs0mg"},{"bike_id":"3440e539-2a25-45a6-91a1-9c3e29b7b1e2","system_id":"levelo_inurba_marseille","lat":43.31377,"lon":5.38508,"is_reserved":false,"is_disabled":true,"rental_uris":{"android":"levelo://app?vid=3440e539-2a25-45a6-91a1-9c3e29b7b1e2","ios":"levelo://app?vid=3440e539-2a25-45a6-91a1-9c3e29b7b1e2"},"vehicle_type_id":"4","last_reported":1752437491,"current_range_meters":6000,"station_id":"ce4bgt92rcd13ifvqcf0","pricing_plan_id":"cebpf4jnsgd1na2vs0mg"},{"bike_id":"610ef4d7-6bf1-4c35-a559-35e675afae03","system_id":"levelo_inurba_marseille","lat":43.299622,"lon":5.384926,"is_reserved":false,"is_disabled":false,"rental_uris":{"android":"levelo://app?vid=610ef4d7-6bf1-4c35-a559-35e675afae03","ios":"levelo://app?vid=610ef4d7-6bf1-4c35-a559-35e675afae03"},"vehicle_type_id":"4","last_reported":1752437491,"current_range_meters":6400,"station_id":"ce4bgup2rcd13ifvqco0","pricing_plan_id":"cebpf4jnsgd1na2vs0mg"},{"bike_id":"422ac485-bc7b-4361-b00c-af28364f94e4","system_id":"levelo_inurba_marseille","lat":43.22803,"lon":5.34992,"is_reserved":false,"is_disabled":false,"rental_uris":{"android":"levelo://app?vid=422ac485-bc7b-4361-b00c-af28364f94e4","ios":"levelo://app?vid=422ac485-bc7b-4361-b00c-af28364f94e4"},"vehicle_type_id":"4","last_reported":1752437491,"current_range_meters":6400,"station_id":"","pricing_plan_id":"cebpf4jnsgd1na2vs0mg"},{"bike_id":"f285dac2-3dba-405a-b878-50d36f984fdb","system_id":"levelo_inurba_marseille","lat":43.281542,"lon":5.426434,"is_reserved":false,"is_disabled":false,"rental_uris":{"android":"levelo://app?vid=f285dac2-3dba-405a-b878-50d36f984fdb","ios":"levelo://app?vid=f285dac2-3dba-405a-b878-50d36f984fdb"},"vehicle_type_id":"4","last_reported":1752437491,"current_range_meters":6400,"station_id":"ce4bhnh2rcd13ifvqgug","pricing_plan_id":"cebpf4jnsgd1na2vs0mg"},{"bike_id":"7d979f4d-837d-4923-bea4-9309987ed4f7","system_id":"levelo_inurba_marseille","lat":43.27918,"lon":5.39578,"is_reserved":false,"is_disabled":true,"rental_uris":{"android":"levelo://app?vid=7d979f4d-837d-4923-bea4-9309987ed4f7","ios":"levelo://app?vid=7d979f4d-837d-4923-bea4-9309987ed4f7"},"vehicle_type_id":"4","last_reported":1752437491,"current_range_meters":6400,"station_id":"ce4bhf92rcd13ifvqf40","pricing_plan_id":"cebpf4jnsgd1na2vs0mg"},{"bike_id":"50da49e5-20e4-4619-9d7a-f0b2ff779a86","system_id":"levelo_inurba_marseille","lat":43.28696,"lon":5.39984,"is_reserved":false,"is_disabled":false,"rental_uris":{"android":"levelo://app?vid=50da49e5-20e4-4619-9d7a-f0b2ff779a86","ios":"levelo://app?vid=50da49e5-20e4-4619-9d7a-f0b2ff779a86"},"vehicle_type_id":"4","last_reported":1752437491,"current_range_meters":6400,"station_id":"ce4bho92rcd13ifvqh3g","pricing_plan_id":"cebpf4jnsgd1na2vs0mg"},{"bike_id":"8c307602-2c5d-48f5-98a5-f8beeae6ea3f","system_id":"levelo_inurba_marseille","lat":43.28005,"lon":5.40007,"is_reserved":false,"is_disabled":false,"rental_uris":{"android":"levelo://app?vid=8c307602-2c5d-48f5-98a5-f8beeae6ea3f","ios":"levelo://app?vid=8c307602-2c5d-48f5-98a5-f8beeae6ea3f"},"vehicle_type_id":"4","last_reported":1752437491,"current_range_meters":6400,"station_id":"ce4bho92rcd13ifvqh4g","pricing_plan_id":"cebpf4jnsgd1na2vs0mg"},{"bike_id":"dbba3321-20c7-4989-a7b5-ea9ab2c4b3e8","system_id":"levelo_inurba_marseille","lat":43.261935,"lon":5.374477,"is_reserved":false,"is_disabled":true,"rental_uris":{"android":"levelo://app?vid=dbba3321-20c7-4989-a7b5-ea9ab2c4b3e8","ios":"levelo://app?vid=dbba3321-20c7-4989-a7b5-ea9ab2c4b3e8"},"vehicle_type_id":"4","last_reported":1752437491,"current_range_meters":6400,"station_id":"ce4bhgp2rcd13ifvqfc0","pricing_plan_id":"cebpf4jnsgd1na2vs0mg"},{"bike_id":"f57474cf-865c-43f1-880d-77ec5117c51a","system_id":"levelo_inurba_marseille","lat":43.25113,"lon":5.40345,"is_reserved":false,"is_disabled":false,"rental_uris":{"android":"levelo://app?vid=f57474cf-865c-43f1-880d-77ec5117c51a","ios":"levelo://app?vid=f57474cf-865c-43f1-880d-77ec5117c51a"},"vehicle_type_id":"4","last_reported":1752437491,"current_range_meters":6800,"station_id":"ce4bhlh2rcd13ifvqgig","pricing_plan_id":"cebpf4jnsgd1na2vs0mg"},{"bike_id":"ae6b9bb3-31c8-4302-91c6-0e6b059eb0f3","system_id":"levelo_inurba_marseille","lat":43.33807,"lon":5.37399,"is_reserved":false,"is_disabled":true,"rental_uris":{"android":"levelo://app?vid=ae6b9bb3-31c8-4302-91c6-0e6b059eb0f3","ios":"levelo://app?vid=ae6b9bb3-31c8-4302-91c6-0e6b059eb0f3"},"vehicle_type_id":"4","last_reported":1752437491,"current_range_meters":6800,"station_id":"","pricing_plan_id":"cebpf4jnsgd1na2vs0mg"},{"bike_id":"4220ee9f-d148-4c7b-9377-c53596f4df77","system_id":"levelo_inurba_marseille","lat":43.29566,"lon":5.3997,"is_reserved":false,"is_disabled":false,"rental_uris":{"android":"levelo://app?vid=4220ee9f-d148-4c7b-9377-c53596f4df77","ios":"levelo://app?vid=4220ee9f-d148-4c7b-9377-c53596f4df77"},"vehicle_type_id":"4","last_reported":1752437491,"current_range_meters":6800,"station_id":"ce4bh312rcd13ifvqdj0","pricing_plan_id":"cebpf4jnsgd1na2vs0mg"},{"bike_id":"13e76998-2121-46ec-8213-29e91cf624e4","system_id":"levelo_inurba_marseille","lat":43.29625,"lon":5.36191,"is_reserved":false,"is_disabled":false,"rental_uris":{"android":"levelo://app?vid=13e76998-2121-46ec-8213-29e91cf624e4","ios":"levelo://app?vid=13e76998-2121-46ec-8213-29e91cf624e4"},"vehicle_type_id":"4","last_reported":1752437491,"current_range_meters":6800,"station_id":"","pricing_plan_id":"cebpf4jnsgd1na2vs0mg"},{"bike_id":"5a71ab42-51f6-4d74-8942-e5c8339f2255","system_id":"levelo_inurba_marseille","lat":43.31766,"lon":5.39011,"is_reserved":false,"is_disabled":true,"rental_uris":{"android":"levelo://app?vid=5a71ab42-51f6-4d74-8942-e5c8339f2255","ios":"levelo://app?vid=5a71ab42-51f6-4d74-8942-e5c8339f2255"},"vehicle_type_id":"4","last_reported":1752437491,"current_range_meters":6800,"station_id":"ce4bhqp2rcd13ifvqhng","pricing_plan_id":"cebpf4jnsgd1na2vs0mg"},{"bike_id":"52933dd1-64d4-4be2-ab7c-c3425cca9887","system_id":"levelo_inurba_marseille","lat":43.29016,"lon":5.38141,"is_reserved":false,"is_disabled":false,"rental_uris":{"android":"levelo://app?vid=52933dd1-64d4-4be2-ab7c-c3425cca9887","ios":"levelo://app?vid=52933dd1-64d4-4be2-ab7c-c3425cca9887"},"vehicle_type_id":"4","last_reported":1752437491,"current_range_meters":6800,"station_id":"ce4bh4p2rcd13ifvqe1g","pricing_plan_id":"cebpf4jnsgd1na2vs0mg"},{"bike_id":"5d49d68c-6e44-46ab-9231-7d746025e7d7","system_id":"levelo_inurba_marseille","lat":43.28408,"lon":5.3752,"is_reserved":false,"is_disabled":false,"rental_uris":{"android":"levelo://app?vid=5d49d68c-6e44-46ab-9231-7d746025e7d7","ios":"levelo://app?vid=5d49d68c-6e44-46ab-9231-7d746025e7d7"},"vehicle_type_id":"4","last_reported":1752437491,"current_range_meters":6800,"station_id":"ce4bh412rcd13ifvqds0","pricing_plan_id":"cebpf4jnsgd1na2vs0mg"},{"bike_id":"cfa0ea0b-ae61-472f-befb-a6f9d42d3f10","system_id":"levelo_inurba_marseille","lat":43.30222,"lon":5.39006,"is_reserved":false,"is_disabled":false,"rental_uris":{"android":"levelo://app?vid=cfa0ea0b-ae61-472f-befb-a6f9d42d3f10","ios":"levelo://app?vid=cfa0ea0b-ae61-472f-befb-a6f9d42d3f10"},"vehicle_type_id":"4","last_reported":1752437491,"current_range_meters":7200,"station_id":"","pricing_plan_id":"cebpf4jnsgd1na2vs0mg"},{"bike_id":"7b624790-b21b-46d1-a9ca-774e836eea2b","system_id":"levelo_inurba_marseille","lat":43.29663,"lon":5.36613,"is_reserved":false,"is_disabled":true,"rental_uris":{"android":"levelo://app?vid=7b624790-b21b-46d1-a9ca-774e836eea2b","ios":"levelo://app?vid=7b624790-b21b-46d1-a9ca-774e836eea2b"},"vehicle_type_id":"4","last_reported":1752437491,"current_range_meters":7200,"station_id":"ce4bgn12rcd13ifvqbt0","pricing_plan_id":"cebpf4jnsgd1na2vs0mg"},{"bike_id":"4e18f6a0-cf0a-4e54-823e-14d073e25d70","system_id":"levelo_inurba_marseille","lat":43.2804,"lon":5.36946,"is_reserved":false,"is_disabled":true,"rental_uris":{"android":"levelo://app?vid=4e18f6a0-cf0a-4e54-823e-14d073e25d70","ios":"levelo://app?vid=4e18f6a0-cf0a-4e54-823e-14d073e25d70"},"vehicle_type_id":"4","last_reported":1752437491,"current_range_meters":7200,"station_id":"ce4bha12rcd13ifvqef0","pricing_plan_id":"cebpf4jnsgd1na2vs0mg"},{"bike_id":"02883b92-225f-428d-a8a6-4844ec1f2d26","system_id":"levelo_inurba_marseille","lat":43.30615,"lon":5.37209,"is_reserved":false,"is_disabled":true,"rental_uris":{"android":"levelo://app?vid=02883b92-225f-428d-a8a6-4844ec1f2d26","ios":"levelo://app?vid=02883b92-225f-428d-a8a6-4844ec1f2d26"},"vehicle_type_id":"4","last_reported":1752437491,"current_range_meters":7200,"station_id":"ce4bgqh2rcd13ifvqc4g","pricing_plan_id":"cebpf4jnsgd1na2vs0mg"},{"bike_id":"b9d37cab-6e10-4d08-9cd3-c71d7b340ac0","system_id":"levelo_inurba_marseille","lat":43.27996,"lon":5.40006,"is_reserved":false,"is_disabled":false,"rental_uris":{"android":"levelo://app?vid=b9d37cab-6e10-4d08-9cd3-c71d7b340ac0","ios":"levelo://app?vid=b9d37cab-6e10-4d08-9cd3-c71d7b340ac0"},"vehicle_type_id":"4","last_reported":1752437491,"current_range_meters":8000,"station_id":"ce4bho92rcd13ifvqh4g","pricing_plan_id":"cebpf4jnsgd1na2vs0mg"},{"bike_id":"5e3e8677-c77e-49d9-8417-11deb7fc4290","system_id":"levelo_inurba_marseille","lat":43.29026,"lon":5.38633,"is_reserved":false,"is_disabled":false,"rental_uris":{"android":"levelo://app?vid=5e3e8677-c77e-49d9-8417-11deb7fc4290","ios":"levelo://app?vid=5e3e8677-c77e-49d9-8417-11deb7fc4290"},"vehicle_type_id":"4","last_reported":1752437491,"current_range_meters":8000,"station_id":"ce4bh4p2rcd13ifvqe0g","pricing_plan_id":"cebpf4jnsgd1na2vs0mg"},{"bike_id":"696aca5a-f985-42f2-b5f7-74ca3a442dcb","system_id":"levelo_inurba_marseille","lat":43.30923,"lon":5.37176,"is_reserved":false,"is_disabled":false,"rental_uris":{"android":"levelo://app?vid=696aca5a-f985-42f2-b5f7-74ca3a442dcb","ios":"levelo://app?vid=696aca5a-f985-42f2-b5f7-74ca3a442dcb"},"vehicle_type_id":"4","last_reported":1752437491,"current_range_meters":8000,"station_id":"ce4bguh2rcd13ifvqckg","pricing_plan_id":"cebpf4jnsgd1na2vs0mg"},{"bike_id":"adb2cb3e-3c2e-4fff-8c92-935c4ff57ffd","system_id":"levelo_inurba_marseille","lat":43.29443,"lon":5.39744,"is_reserved":false,"is_disabled":false,"rental_uris":{"android":"levelo://app?vid=adb2cb3e-3c2e-4fff-8c92-935c4ff57ffd","ios":"levelo://app?vid=adb2cb3e-3c2e-4fff-8c92-935c4ff57ffd"},"vehicle_type_id":"4","last_reported":1752437491,"current_range_meters":8400,"station_id":"ce4bh3h2rcd13ifvqdo0","pricing_plan_id":"cebpf4jnsgd1na2vs0mg"},{"bike_id":"96d54fdb-5835-4cd8-9827-093c0b08e4ca","system_id":"levelo_inurba_marseille","lat":43.2119,"lon":5.35062,"is_reserved":false,"is_disabled":false,"rental_uris":{"android":"levelo://app?vid=96d54fdb-5835-4cd8-9827-093c0b08e4ca","ios":"levelo://app?vid=96d54fdb-5835-4cd8-9827-093c0b08e4ca"},"vehicle_type_id":"4","last_reported":1752437491,"current_range_meters":8400,"station_id":"st_cvj6sg6p6f1abm77japg","pricing_plan_id":"cebpf4jnsgd1na2vs0mg"},{"bike_id":"309cd5de-a7be-47f3-b463-3953e7433f57","system_id":"levelo_inurba_marseille","lat":43.29308,"lon":5.37177,"is_reserved":false,"is_disabled":false,"rental_uris":{"android":"levelo://app?vid=309cd5de-a7be-47f3-b463-3953e7433f57","ios":"levelo://app?vid=309cd5de-a7be-47f3-b463-3953e7433f57"},"vehicle_type_id":"4","last_reported":1752437491,"current_range_meters":8400,"station_id":"ce4bgh92rcd13ifvqb40","pricing_plan_id":"cebpf4jnsgd1na2vs0mg"},{"bike_id":"44dd919c-32df-4fe9-8b1c-c9988fb68d5b","system_id":"levelo_inurba_marseille","lat":43.26935,"lon":5.40285,"is_reserved":false,"is_disabled":true,"rental_uris":{"android":"levelo://app?vid=44dd919c-32df-4fe9-8b1c-c9988fb68d5b","ios":"levelo://app?vid=44dd919c-32df-4fe9-8b1c-c9988fb68d5b"},"vehicle_type_id":"4","last_reported":1752437491,"current_range_meters":8800,"station_id":"cjm6bp8fraef2m0cb0m0","pricing_plan_id":"cebpf4jnsgd1na2vs0mg"},{"bike_id":"d9ffd1cb-14a8-4d41-93ab-64f2e085796d","system_id":"levelo_inurba_marseille","lat":43.29782,"lon":5.37098,"is_reserved":false,"is_disabled":false,"rental_uris":{"android":"levelo://app?vid=d9ffd1cb-14a8-4d41-93ab-64f2e085796d","ios":"levelo://app?vid=d9ffd1cb-14a8-4d41-93ab-64f2e085796d"},"vehicle_type_id":"4","last_reported":1752437491,"current_range_meters":8800,"station_id":"ce4bgop2rcd13ifvqc1g","pricing_plan_id":"cebpf4jnsgd1na2vs0mg"},{"bike_id":"9e319669-3257-4383-b028-bd16fb01978e","system_id":"levelo_inurba_marseille","lat":43.29534,"lon":5.38533,"is_reserved":false,"is_disabled":false,"rental_uris":{"android":"levelo://app?vid=9e319669-3257-4383-b028-bd16fb01978e","ios":"levelo://app?vid=9e319669-3257-4383-b028-bd16fb01978e"},"vehicle_type_id":"4","last_reported":1752437491,"current_range_meters":8800,"station_id":"ce4bgih2rcd13ifvqba0","pricing_plan_id":"cebpf4jnsgd1na2vs0mg"},{"bike_id":"8002a022-2915-4098-aed2-69ddb4eb6bf1","system_id":"levelo_inurba_marseille","lat":43.2998,"lon":5.37187,"is_reserved":false,"is_disabled":false,"rental_uris":{"android":"levelo://app?vid=8002a022-2915-4098-aed2-69ddb4eb6bf1","ios":"levelo://app?vid=8002a022-2915-4098-aed2-69ddb4eb6bf1"},"vehicle_type_id":"4","last_reported":1752437491,"current_range_meters":8800,"station_id":"ce4bgr92rcd13ifvqc7g","pricing_plan_id":"cebpf4jnsgd1na2vs0mg"},{"bike_id":"f8a0e622-1c33-43b5-bed5-e71e56ecb26b","system_id":"levelo_inurba_marseille","lat":43.30426,"lon":5.39744,"is_reserved":false,"is_disabled":false,"rental_uris":{"android":"levelo://app?vid=f8a0e622-1c33-43b5-bed5-e71e56ecb26b","ios":"levelo://app?vid=f8a0e622-1c33-43b5-bed5-e71e56ecb26b"},"vehicle_type_id":"4","last_reported":1752437491,"current_range_meters":8800,"station_id":"ce4bh092rcd13ifvqd20","pricing_plan_id":"cebpf4jnsgd1na2vs0mg"},{"bike_id":"470d1e9d-8c05-40b8-a6b2-039f183b9f6a","system_id":"levelo_inurba_marseille","lat":43.23191,"lon":5.35538,"is_reserved":false,"is_disabled":true,"rental_uris":{"android":"levelo://app?vid=470d1e9d-8c05-40b8-a6b2-039f183b9f6a","ios":"levelo://app?vid=470d1e9d-8c05-40b8-a6b2-039f183b9f6a"},"vehicle_type_id":"4","last_reported":1752437491,"current_range_meters":8800,"station_id":"ce4bhu92rcd13ifvqi70","pricing_plan_id":"cebpf4jnsgd1na2vs0mg"},{"bike_id":"1a807fbf-2537-414c-b4af-f48c3c8f903e","system_id":"levelo_inurba_marseille","lat":43.27117,"lon":5.40946,"is_reserved":false,"is_disabled":false,"rental_uris":{"android":"levelo://app?vid=1a807fbf-2537-414c-b4af-f48c3c8f903e","ios":"levelo://app?vid=1a807fbf-2537-414c-b4af-f48c3c8f903e"},"vehicle_type_id":"4","last_reported":1752437491,"current_range_meters":8800,"station_id":"","pricing_plan_id":"cebpf4jnsgd1na2vs0mg"},{"bike_id":"d018f43d-81b9-49b9-8b54-82ef3841e80b","system_id":"levelo_inurba_marseille","lat":43.29267,"lon":5.38447,"is_reserved":false,"is_disabled":false,"rental_uris":{"android":"levelo://app?vid=d018f43d-81b9-49b9-8b54-82ef3841e80b","ios":"levelo://app?vid=d018f43d-81b9-49b9-8b54-82ef3841e80b"},"vehicle_type_id":"4","last_reported":1752437491,"current_range_meters":9200,"station_id":"ce4bh692rcd13ifvqea0","pricing_plan_id":"cebpf4jnsgd1na2vs0mg"},{"bike_id":"383a2485-518e-4235-b1cd-0ebf65ba74a5","system_id":"levelo_inurba_marseille","lat":43.295288,"lon":5.38544,"is_reserved":false,"is_disabled":true,"rental_uris":{"android":"levelo://app?vid=383a2485-518e-4235-b1cd-0ebf65ba74a5","ios":"levelo://app?vid=383a2485-518e-4235-b1cd-0ebf65ba74a5"},"vehicle_type_id":"4","last_reported":1752437491,"current_range_meters":9200,"station_id":"ce4bgih2rcd13ifvqba0","pricing_plan_id":"cebpf4jnsgd1na2vs0mg"},{"bike_id":"0b0f1962-1ccb-4bc3-895b-70f8484b3602","system_id":"levelo_inurba_marseille","lat":43.287329,"lon":5.36094,"is_reserved":false,"is_disabled":true,"rental_uris":{"android":"levelo://app?vid=0b0f1962-1ccb-4bc3-895b-70f8484b3602","ios":"levelo://app?vid=0b0f1962-1ccb-4bc3-895b-70f8484b3602"},"vehicle_type_id":"4","last_reported":1752437491,"current_range_meters":9200,"station_id":"cki0cbj6b192h4jlfktg","pricing_plan_id":"cebpf4jnsgd1na2vs0mg"},{"bike_id":"6070c3be-7535-4c90-8ef1-277f2efabd61","system_id":"levelo_inurba_marseille","lat":43.292508,"lon":5.400865,"is_reserved":false,"is_disabled":false,"rental_uris":{"android":"levelo://app?vid=6070c3be-7535-4c90-8ef1-277f2efabd61","ios":"levelo://app?vid=6070c3be-7535-4c90-8ef1-277f2efabd61"},"vehicle_type_id":"4","last_reported":1752437491,"current_range_meters":9200,"station_id":"ce4bh312rcd13ifvqdk0","pricing_plan_id":"cebpf4jnsgd1na2vs0mg"},{"bike_id":"5d522e77-ec27-4fd6-a510-ea7d6f16223a","system_id":"levelo_inurba_marseille","lat":43.27592,"lon":5.37088,"is_reserved":false,"is_disabled":false,"rental_uris":{"android":"levelo://app?vid=5d522e77-ec27-4fd6-a510-ea7d6f16223a","ios":"levelo://app?vid=5d522e77-ec27-4fd6-a510-ea7d6f16223a"},"vehicle_type_id":"4","last_reported":1752437491,"current_range_meters":9600,"station_id":"","pricing_plan_id":"cebpf4jnsgd1na2vs0mg"},{"bike_id":"a39a04b3-9a8c-41fc-8f78-fdb2c54785a8","system_id":"levelo_inurba_marseille","lat":43.29717,"lon":5.36612,"is_reserved":false,"is_disabled":false,"rental_uris":{"android":"levelo://app?vid=a39a04b3-9a8c-41fc-8f78-fdb2c54785a8","ios":"levelo://app?vid=a39a04b3-9a8c-41fc-8f78-fdb2c54785a8"},"vehicle_type_id":"4","last_reported":1752437491,"current_range_meters":9600,"station_id":"ce4bgn12rcd13ifvqbt0","pricing_plan_id":"cebpf4jnsgd1na2vs0mg"},{"bike_id":"afb3e3b0-3b35-40a1-a3d9-2a416ca6d8c0","system_id":"levelo_inurba_marseille","lat":43.27374,"lon":5.36259,"is_reserved":false,"is_disabled":true,"rental_uris":{"android":"levelo://app?vid=afb3e3b0-3b35-40a1-a3d9-2a416ca6d8c0","ios":"levelo://app?vid=afb3e3b0-3b35-40a1-a3d9-2a416ca6d8c0"},"vehicle_type_id":"4","last_reported":1752437491,"current_range_meters":9600,"station_id":"ce4bhbh2rcd13ifvqeo0","pricing_plan_id":"cebpf4jnsgd1na2vs0mg"},{"bike_id":"fa3eb8ae-6a0d-4ca6-95b2-3930af3f3a47","system_id":"levelo_inurba_marseille","lat":43.2828,"lon":5.35059,"is_reserved":false,"is_disabled":true,"rental_uris":{"android":"levelo://app?vid=fa3eb8ae-6a0d-4ca6-95b2-3930af3f3a47","ios":"levelo://app?vid=fa3eb8ae-6a0d-4ca6-95b2-3930af3f3a47"},"vehicle_type_id":"4","last_reported":1752437491,"current_range_meters":9600,"station_id":"ce4bhbp2rcd13ifvqerg","pricing_plan_id":"cebpf4jnsgd1na2vs0mg"},{"bike_id":"1bfa1b76-fa6d-4cdd-aff5-612b86c512c4","system_id":"levelo_inurba_marseille","lat":43.26553,"lon":5.39013,"is_reserved":false,"is_disabled":true,"rental_uris":{"android":"levelo://app?vid=1bfa1b76-fa6d-4cdd-aff5-612b86c512c4","ios":"levelo://app?vid=1bfa1b76-fa6d-4cdd-aff5-612b86c512c4"},"vehicle_type_id":"4","last_reported":1752437491,"current_range_meters":9600,"station_id":"ce4bhe12rcd13ifvqf30","pricing_plan_id":"cebpf4jnsgd1na2vs0mg"},{"bike_id":"2889ee55-bf38-4cd1-b8fa-31d4af3cc154","system_id":"levelo_inurba_marseille","lat":43.29399,"lon":5.38587,"is_reserved":false,"is_disabled":false,"rental_uris":{"android":"levelo://app?vid=2889ee55-bf38-4cd1-b8fa-31d4af3cc154","ios":"levelo://app?vid=2889ee55-bf38-4cd1-b8fa-31d4af3cc154"},"vehicle_type_id":"4","last_reported":1752437491,"current_range_meters":9600,"station_id":"ce4bh2h2rcd13ifvqdh0","pricing_plan_id":"cebpf4jnsgd1na2vs0mg"},{"bike_id":"4a363f4c-7fdb-40d4-a5e1-7ce76340cec0","system_id":"levelo_inurba_marseille","lat":43.29246,"lon":5.40899,"is_reserved":false,"is_disabled":false,"rental_uris":{"android":"levelo://app?vid=4a363f4c-7fdb-40d4-a5e1-7ce76340cec0","ios":"levelo://app?vid=4a363f4c-7fdb-40d4-a5e1-7ce76340cec0"},"vehicle_type_id":"4","last_reported":1752437491,"current_range_meters":9200,"station_id":"ce4bh192rcd13ifvqdc0","pricing_plan_id":"cebpf4jnsgd1na2vs0mg"},{"bike_id":"c1116d1b-9be2-48f1-9c1a-7ff0c89d313f","system_id":"levelo_inurba_marseille","lat":43.29031,"lon":5.38149,"is_reserved":false,"is_disabled":false,"rental_uris":{"android":"levelo://app?vid=c1116d1b-9be2-48f1-9c1a-7ff0c89d313f","ios":"levelo://app?vid=c1116d1b-9be2-48f1-9c1a-7ff0c89d313f"},"vehicle_type_id":"4","last_reported":1752437491,"current_range_meters":9600,"station_id":"ce4bh4p2rcd13ifvqe1g","pricing_plan_id":"cebpf4jnsgd1na2vs0mg"},{"bike_id":"8eb180c9-4146-427e-95cd-b7a4903f03c7","system_id":"levelo_inurba_marseille","lat":43.2781,"lon":5.4071,"is_reserved":false,"is_disabled":false,"rental_uris":{"android":"levelo://app?vid=8eb180c9-4146-427e-95cd-b7a4903f03c7","ios":"levelo://app?vid=8eb180c9-4146-427e-95cd-b7a4903f03c7"},"vehicle_type_id":"4","last_reported":1752437491,"current_range_meters":9600,"station_id":"ce4bhnh2rcd13ifvqgtg","pricing_plan_id":"cebpf4jnsgd1na2vs0mg"},{"bike_id":"49801dc2-618a-44b8-84ae-416cd87fdbe9","system_id":"levelo_inurba_marseille","lat":43.33768,"lon":5.37457,"is_reserved":false,"is_disabled":false,"rental_uris":{"android":"levelo://app?vid=49801dc2-618a-44b8-84ae-416cd87fdbe9","ios":"levelo://app?vid=49801dc2-618a-44b8-84ae-416cd87fdbe9"},"vehicle_type_id":"4","last_reported":1752437491,"current_range_meters":9600,"station_id":"","pricing_plan_id":"cebpf4jnsgd1na2vs0mg"},{"bike_id":"85746b25-9607-4040-a24f-615457740aee","system_id":"levelo_inurba_marseille","lat":43.29446,"lon":5.39749,"is_reserved":false,"is_disabled":false,"rental_uris":{"android":"levelo://app?vid=85746b25-9607-4040-a24f-615457740aee","ios":"levelo://app?vid=85746b25-9607-4040-a24f-615457740aee"},"vehicle_type_id":"4","last_reported":1752437491,"current_range_meters":9600,"station_id":"ce4bh3h2rcd13ifvqdo0","pricing_plan_id":"cebpf4jnsgd1na2vs0mg"},{"bike_id":"31f76825-7b9f-439a-a66c-521eb63e58c1","system_id":"levelo_inurba_marseille","lat":43.29458,"lon":5.43846,"is_reserved":false,"is_disabled":false,"rental_uris":{"android":"levelo://app?vid=31f76825-7b9f-439a-a66c-521eb63e58c1","ios":"levelo://app?vid=31f76825-7b9f-439a-a66c-521eb63e58c1"},"vehicle_type_id":"4","last_reported":1752437491,"current_range_meters":9600,"station_id":"","pricing_plan_id":"cebpf4jnsgd1na2vs0mg"},{"bike_id":"7a888645-4b0c-4379-98d8-380a5347b74c","system_id":"levelo_inurba_marseille","lat":43.27366,"lon":5.36224,"is_reserved":false,"is_disabled":true,"rental_uris":{"android":"levelo://app?vid=7a888645-4b0c-4379-98d8-380a5347b74c","ios":"levelo://app?vid=7a888645-4b0c-4379-98d8-380a5347b74c"},"vehicle_type_id":"4","last_reported":1752437491,"current_range_meters":10000,"station_id":"ce4bhbh2rcd13ifvqeo0","pricing_plan_id":"cebpf4jnsgd1na2vs0mg"},{"bike_id":"f70d4eb7-0483-4b22-b4af-6857c0805839","system_id":"levelo_inurba_marseille","lat":43.29889,"lon":5.38105,"is_reserved":false,"is_disabled":true,"rental_uris":{"android":"levelo://app?vid=f70d4eb7-0483-4b22-b4af-6857c0805839","ios":"levelo://app?vid=f70d4eb7-0483-4b22-b4af-6857c0805839"},"vehicle_type_id":"4","last_reported":1752437491,"current_range_meters":10000,"station_id":"ce4bgj12rcd13ifvqbc0","pricing_plan_id":"cebpf4jnsgd1na2vs0mg"},{"bike_id":"e3f13819-6aad-4bcd-9d17-262f60fd8225","system_id":"levelo_inurba_marseille","lat":43.29973,"lon":5.38487,"is_reserved":false,"is_disabled":false,"rental_uris":{"android":"levelo://app?vid=e3f13819-6aad-4bcd-9d17-262f60fd8225","ios":"levelo://app?vid=e3f13819-6aad-4bcd-9d17-262f60fd8225"},"vehicle_type_id":"4","last_reported":1752437491,"current_range_meters":10000,"station_id":"ce4bgj92rcd13ifvqbd0","pricing_plan_id":"cebpf4jnsgd1na2vs0mg"},{"bike_id":"061408af-072c-45f1-ae7e-6fa1af4891f8","system_id":"levelo_inurba_marseille","lat":43.292682,"lon":5.384423,"is_reserved":false,"is_disabled":false,"rental_uris":{"android":"levelo://app?vid=061408af-072c-45f1-ae7e-6fa1af4891f8","ios":"levelo://app?vid=061408af-072c-45f1-ae7e-6fa1af4891f8"},"vehicle_type_id":"4","last_reported":1752437491,"current_range_meters":10000,"station_id":"ce4bh692rcd13ifvqea0","pricing_plan_id":"cebpf4jnsgd1na2vs0mg"},{"bike_id":"fcbbba91-bd44-4efe-8600-f0c7449b7405","system_id":"levelo_inurba_marseille","lat":43.29712,"lon":5.36603,"is_reserved":false,"is_disabled":false,"rental_uris":{"android":"levelo://app?vid=fcbbba91-bd44-4efe-8600-f0c7449b7405","ios":"levelo://app?vid=fcbbba91-bd44-4efe-8600-f0c7449b7405"},"vehicle_type_id":"4","last_reported":1752437491,"current_range_meters":10000,"station_id":"ce4bgn12rcd13ifvqbt0","pricing_plan_id":"cebpf4jnsgd1na2vs0mg"},{"bike_id":"3b86b124-5029-4cdf-8641-77ec18bb5c2c","system_id":"levelo_inurba_marseille","lat":43.27942,"lon":5.4104,"is_reserved":false,"is_disabled":false,"rental_uris":{"android":"levelo://app?vid=3b86b124-5029-4cdf-8641-77ec18bb5c2c","ios":"levelo://app?vid=3b86b124-5029-4cdf-8641-77ec18bb5c2c"},"vehicle_type_id":"4","last_reported":1752437491,"current_range_meters":10800,"station_id":"ce4bhnp2rcd13ifvqh0g","pricing_plan_id":"cebpf4jnsgd1na2vs0mg"},{"bike_id":"d6b79ba0-36ba-4bcf-910b-519f8dcb9078","system_id":"levelo_inurba_marseille","lat":43.29975,"lon":5.38484,"is_reserved":false,"is_disabled":false,"rental_uris":{"android":"levelo://app?vid=d6b79ba0-36ba-4bcf-910b-519f8dcb9078","ios":"levelo://app?vid=d6b79ba0-36ba-4bcf-910b-519f8dcb9078"},"vehicle_type_id":"4","last_reported":1752437491,"current_range_meters":10800,"station_id":"ce4bgj92rcd13ifvqbd0","pricing_plan_id":"cebpf4jnsgd1na2vs0mg"},{"bike_id":"0d41d492-d882-49db-8dc5-6ec69ee9a6eb","system_id":"levelo_inurba_marseille","lat":43.29967,"lon":5.38492,"is_reserved":false,"is_disabled":false,"rental_uris":{"android":"levelo://app?vid=0d41d492-d882-49db-8dc5-6ec69ee9a6eb","ios":"levelo://app?vid=0d41d492-d882-49db-8dc5-6ec69ee9a6eb"},"vehicle_type_id":"4","last_reported":1752437491,"current_range_meters":10800,"station_id":"ce4bgj92rcd13ifvqbd0","pricing_plan_id":"cebpf4jnsgd1na2vs0mg"},{"bike_id":"b05aa32e-7099-49f9-ac6e-e5ce1f60d62e","system_id":"levelo_inurba_marseille","lat":43.29529,"lon":5.38541,"is_reserved":false,"is_disabled":false,"rental_uris":{"android":"levelo://app?vid=b05aa32e-7099-49f9-ac6e-e5ce1f60d62e","ios":"levelo://app?vid=b05aa32e-7099-49f9-ac6e-e5ce1f60d62e"},"vehicle_type_id":"4","last_reported":1752437491,"current_range_meters":11200,"station_id":"ce4bgih2rcd13ifvqba0","pricing_plan_id":"cebpf4jnsgd1na2vs0mg"},{"bike_id":"8bb6d1bf-447c-42f6-a932-d2a81d830d17","system_id":"levelo_inurba_marseille","lat":43.29886,"lon":5.38899,"is_reserved":false,"is_disabled":false,"rental_uris":{"android":"levelo://app?vid=8bb6d1bf-447c-42f6-a932-d2a81d830d17","ios":"levelo://app?vid=8bb6d1bf-447c-42f6-a932-d2a81d830d17"},"vehicle_type_id":"4","last_reported":1752437491,"current_range_meters":10800,"station_id":"ce4bh392rcd13ifvqdl0","pricing_plan_id":"cebpf4jnsgd1na2vs0mg"},{"bike_id":"3e48392f-fca1-402c-8684-ab6d3c3b998d","system_id":"levelo_inurba_marseille","lat":43.29262,"lon":5.38441,"is_reserved":false,"is_disabled":false,"rental_uris":{"android":"levelo://app?vid=3e48392f-fca1-402c-8684-ab6d3c3b998d","ios":"levelo://app?vid=3e48392f-fca1-402c-8684-ab6d3c3b998d"},"vehicle_type_id":"4","last_reported":1752437491,"current_range_meters":11200,"station_id":"ce4bh692rcd13ifvqea0","pricing_plan_id":"cebpf4jnsgd1na2vs0mg"},{"bike_id":"8b37f03f-f226-4bbc-8648-b109da7ba145","system_id":"levelo_inurba_marseille","lat":43.30536,"lon":5.366999,"is_reserved":false,"is_disabled":false,"rental_uris":{"android":"levelo://app?vid=8b37f03f-f226-4bbc-8648-b109da7ba145","ios":"levelo://app?vid=8b37f03f-f226-4bbc-8648-b109da7ba145"},"vehicle_type_id":"4","last_reported":1752437491,"current_range_meters":11200,"station_id":"","pricing_plan_id":"cebpf4jnsgd1na2vs0mg"},{"bike_id":"e81484e1-4295-4544-b69e-31226f30b72e","system_id":"levelo_inurba_marseille","lat":43.271733,"lon":5.409985,"is_reserved":false,"is_disabled":false,"rental_uris":{"android":"levelo://app?vid=e81484e1-4295-4544-b69e-31226f30b72e","ios":"levelo://app?vid=e81484e1-4295-4544-b69e-31226f30b72e"},"vehicle_type_id":"4","last_reported":1752437491,"current_range_meters":11200,"station_id":"ce4bhl12rcd13ifvqgf0","pricing_plan_id":"cebpf4jnsgd1na2vs0mg"},{"bike_id":"c700f998-7cbc-457a-a56a-699ac5e6fc9a","system_id":"levelo_inurba_marseille","lat":43.25114,"lon":5.40312,"is_reserved":false,"is_disabled":false,"rental_uris":{"android":"levelo://app?vid=c700f998-7cbc-457a-a56a-699ac5e6fc9a","ios":"levelo://app?vid=c700f998-7cbc-457a-a56a-699ac5e6fc9a"},"vehicle_type_id":"4","last_reported":1752437491,"current_range_meters":11600,"station_id":"ce4bhlh2rcd13ifvqgig","pricing_plan_id":"cebpf4jnsgd1na2vs0mg"},{"bike_id":"1d57a7ce-2623-442c-9150-58ba2fbc2993","system_id":"levelo_inurba_marseille","lat":43.28533,"lon":5.38395,"is_reserved":false,"is_disabled":false,"rental_uris":{"android":"levelo://app?vid=1d57a7ce-2623-442c-9150-58ba2fbc2993","ios":"levelo://app?vid=1d57a7ce-2623-442c-9150-58ba2fbc2993"},"vehicle_type_id":"4","last_reported":1752437491,"current_range_meters":11200,"station_id":"ce4bh512rcd13ifvqe3g","pricing_plan_id":"cebpf4jnsgd1na2vs0mg"},{"bike_id":"f23760ff-ab61-4853-aa67-28aac93822c1","system_id":"levelo_inurba_marseille","lat":43.337444,"lon":5.374475,"is_reserved":false,"is_disabled":false,"rental_uris":{"android":"levelo://app?vid=f23760ff-ab61-4853-aa67-28aac93822c1","ios":"levelo://app?vid=f23760ff-ab61-4853-aa67-28aac93822c1"},"vehicle_type_id":"4","last_reported":1752437491,"current_range_meters":11600,"station_id":"","pricing_plan_id":"cebpf4jnsgd1na2vs0mg"},{"bike_id":"61811baa-0c13-4579-93ba-68a707f63f93","system_id":"levelo_inurba_marseille","lat":43.29729,"lon":5.37706,"is_reserved":false,"is_disabled":false,"rental_uris":{"android":"levelo://app?vid=61811baa-0c13-4579-93ba-68a707f63f93","ios":"levelo://app?vid=61811baa-0c13-4579-93ba-68a707f63f93"},"vehicle_type_id":"4","last_reported":1752437491,"current_range_meters":12000,"station_id":"ce4bgkh2rcd13ifvqbl0","pricing_plan_id":"cebpf4jnsgd1na2vs0mg"},{"bike_id":"2d5e79a8-178b-4a78-b44c-43e78cd7d351","system_id":"levelo_inurba_marseille","lat":43.30799,"lon":5.37638,"is_reserved":false,"is_disabled":false,"rental_uris":{"android":"levelo://app?vid=2d5e79a8-178b-4a78-b44c-43e78cd7d351","ios":"levelo://app?vid=2d5e79a8-178b-4a78-b44c-43e78cd7d351"},"vehicle_type_id":"4","last_reported":1752437491,"current_range_meters":12000,"station_id":"ce4bgv92rcd13ifvqcq0","pricing_plan_id":"cebpf4jnsgd1na2vs0mg"},{"bike_id":"81fa0ae2-ed54-4170-ad7c-fe87b7a7ad54","system_id":"levelo_inurba_marseille","lat":43.30961,"lon":5.39032,"is_reserved":false,"is_disabled":false,"rental_uris":{"android":"levelo://app?vid=81fa0ae2-ed54-4170-ad7c-fe87b7a7ad54","ios":"levelo://app?vid=81fa0ae2-ed54-4170-ad7c-fe87b7a7ad54"},"vehicle_type_id":"4","last_reported":1752437491,"current_range_meters":12000,"station_id":"ce4bgup2rcd13ifvqco0","pricing_plan_id":"cebpf4jnsgd1na2vs0mg"},{"bike_id":"1dc71bf0-efd9-486b-b44c-d28598467042","system_id":"levelo_inurba_marseille","lat":43.30607,"lon":5.39347,"is_reserved":false,"is_disabled":false,"rental_uris":{"android":"levelo://app?vid=1dc71bf0-efd9-486b-b44c-d28598467042","ios":"levelo://app?vid=1dc71bf0-efd9-486b-b44c-d28598467042"},"vehicle_type_id":"4","last_reported":1752437491,"current_range_meters":12000,"station_id":"ce4bh0p2rcd13ifvqd80","pricing_plan_id":"cebpf4jnsgd1na2vs0mg"},{"bike_id":"0a0e804e-bcd7-4fe1-824f-427067c2ca13","system_id":"levelo_inurba_marseille","lat":43.28708,"lon":5.39995,"is_reserved":false,"is_disabled":false,"rental_uris":{"android":"levelo://app?vid=0a0e804e-bcd7-4fe1-824f-427067c2ca13","ios":"levelo://app?vid=0a0e804e-bcd7-4fe1-824f-427067c2ca13"},"vehicle_type_id":"4","last_reported":1752437491,"current_range_meters":12000,"station_id":"ce4bho92rcd13ifvqh3g","pricing_plan_id":"cebpf4jnsgd1na2vs0mg"},{"bike_id":"02a9a8c1-907b-451f-9de7-8c9a98206419","system_id":"levelo_inurba_marseille","lat":43.29612,"lon":5.37009,"is_reserved":false,"is_disabled":false,"rental_uris":{"android":"levelo://app?vid=02a9a8c1-907b-451f-9de7-8c9a98206419","ios":"levelo://app?vid=02a9a8c1-907b-451f-9de7-8c9a98206419"},"vehicle_type_id":"4","last_reported":1752437491,"current_range_meters":12000,"station_id":"","pricing_plan_id":"cebpf4jnsgd1na2vs0mg"},{"bike_id":"90aa84a6-0427-4abb-8b3c-6c42a992ad92","system_id":"levelo_inurba_marseille","lat":43.264156,"lon":5.392292,"is_reserved":false,"is_disabled":false,"rental_uris":{"android":"levelo://app?vid=90aa84a6-0427-4abb-8b3c-6c42a992ad92","ios":"levelo://app?vid=90aa84a6-0427-4abb-8b3c-6c42a992ad92"},"vehicle_type_id":"4","last_reported":1752437491,"current_range_meters":12400,"station_id":"","pricing_plan_id":"cebpf4jnsgd1na2vs0mg"},{"bike_id":"b5e9fc03-1315-4529-be5c-8064a0eec6ec","system_id":"levelo_inurba_marseille","lat":43.27996,"lon":5.40015,"is_reserved":false,"is_disabled":false,"rental_uris":{"android":"levelo://app?vid=b5e9fc03-1315-4529-be5c-8064a0eec6ec","ios":"levelo://app?vid=b5e9fc03-1315-4529-be5c-8064a0eec6ec"},"vehicle_type_id":"4","last_reported":1752437491,"current_range_meters":12400,"station_id":"ce4bho92rcd13ifvqh4g","pricing_plan_id":"cebpf4jnsgd1na2vs0mg"},{"bike_id":"e2ce6e8a-ef9f-4211-8776-042780e4931d","system_id":"levelo_inurba_marseille","lat":43.28429,"lon":5.34994,"is_reserved":false,"is_disabled":true,"rental_uris":{"android":"levelo://app?vid=e2ce6e8a-ef9f-4211-8776-042780e4931d","ios":"levelo://app?vid=e2ce6e8a-ef9f-4211-8776-042780e4931d"},"vehicle_type_id":"4","last_reported":1752437491,"current_range_meters":12400,"station_id":"ce4bhbh2rcd13ifvqepg","pricing_plan_id":"cebpf4jnsgd1na2vs0mg"},{"bike_id":"6ca98222-3f48-4f16-b46f-ae86da04d340","system_id":"levelo_inurba_marseille","lat":43.29268,"lon":5.38423,"is_reserved":false,"is_disabled":false,"rental_uris":{"android":"levelo://app?vid=6ca98222-3f48-4f16-b46f-ae86da04d340","ios":"levelo://app?vid=6ca98222-3f48-4f16-b46f-ae86da04d340"},"vehicle_type_id":"4","last_reported":1752437491,"current_range_meters":12400,"station_id":"ce4bh692rcd13ifvqea0","pricing_plan_id":"cebpf4jnsgd1na2vs0mg"},{"bike_id":"59bd944e-8158-4d03-98d6-e97af0707782","system_id":"levelo_inurba_marseille","lat":43.21184,"lon":5.35067,"is_reserved":false,"is_disabled":false,"rental_uris":{"android":"levelo://app?vid=59bd944e-8158-4d03-98d6-e97af0707782","ios":"levelo://app?vid=59bd944e-8158-4d03-98d6-e97af0707782"},"vehicle_type_id":"4","last_reported":1752437491,"current_range_meters":12400,"station_id":"st_cvj6sg6p6f1abm77japg","pricing_plan_id":"cebpf4jnsgd1na2vs0mg"},{"bike_id":"6180c5ca-b38e-4c48-8755-0bf5ff7fe3a6","system_id":"levelo_inurba_marseille","lat":43.32006,"lon":5.38158,"is_reserved":false,"is_disabled":false,"rental_uris":{"android":"levelo://app?vid=6180c5ca-b38e-4c48-8755-0bf5ff7fe3a6","ios":"levelo://app?vid=6180c5ca-b38e-4c48-8755-0bf5ff7fe3a6"},"vehicle_type_id":"4","last_reported":1752437491,"current_range_meters":12400,"station_id":"ce4bhr12rcd13ifvqhpg","pricing_plan_id":"cebpf4jnsgd1na2vs0mg"},{"bike_id":"601412b0-6528-47af-965e-1711a93589ae","system_id":"levelo_inurba_marseille","lat":43.29555,"lon":5.42287,"is_reserved":false,"is_disabled":false,"rental_uris":{"android":"levelo://app?vid=601412b0-6528-47af-965e-1711a93589ae","ios":"levelo://app?vid=601412b0-6528-47af-965e-1711a93589ae"},"vehicle_type_id":"4","last_reported":1752437491,"current_range_meters":12800,"station_id":"ce4bhph2rcd13ifvqhdg","pricing_plan_id":"cebpf4jnsgd1na2vs0mg"},{"bike_id":"9d5901d7-5ecb-4774-8bb1-51293bedc65c","system_id":"levelo_inurba_marseille","lat":43.2971,"lon":5.36623,"is_reserved":false,"is_disabled":false,"rental_uris":{"android":"levelo://app?vid=9d5901d7-5ecb-4774-8bb1-51293bedc65c","ios":"levelo://app?vid=9d5901d7-5ecb-4774-8bb1-51293bedc65c"},"vehicle_type_id":"4","last_reported":1752437491,"current_range_meters":12800,"station_id":"ce4bgn12rcd13ifvqbt0","pricing_plan_id":"cebpf4jnsgd1na2vs0mg"},{"bike_id":"755f5a2b-ffe3-41e3-b53b-f76d7bf8470a","system_id":"levelo_inurba_marseille","lat":43.27934,"lon":5.41043,"is_reserved":false,"is_disabled":false,"rental_uris":{"android":"levelo://app?vid=755f5a2b-ffe3-41e3-b53b-f76d7bf8470a","ios":"levelo://app?vid=755f5a2b-ffe3-41e3-b53b-f76d7bf8470a"},"vehicle_type_id":"4","last_reported":1752437491,"current_range_meters":12800,"station_id":"ce4bhnp2rcd13ifvqh0g","pricing_plan_id":"cebpf4jnsgd1na2vs0mg"},{"bike_id":"986afcbb-ade7-4e12-b353-beab1ebb75db","system_id":"levelo_inurba_marseille","lat":43.29272,"lon":5.38448,"is_reserved":false,"is_disabled":false,"rental_uris":{"android":"levelo://app?vid=986afcbb-ade7-4e12-b353-beab1ebb75db","ios":"levelo://app?vid=986afcbb-ade7-4e12-b353-beab1ebb75db"},"vehicle_type_id":"4","last_reported":1752437491,"current_range_meters":12800,"station_id":"ce4bh692rcd13ifvqea0","pricing_plan_id":"cebpf4jnsgd1na2vs0mg"},{"bike_id":"1366d683-1ebd-44a1-9e66-5d68d4b85ee8","system_id":"levelo_inurba_marseille","lat":43.25722,"lon":5.41111,"is_reserved":false,"is_disabled":false,"rental_uris":{"android":"levelo://app?vid=1366d683-1ebd-44a1-9e66-5d68d4b85ee8","ios":"levelo://app?vid=1366d683-1ebd-44a1-9e66-5d68d4b85ee8"},"vehicle_type_id":"4","last_reported":1752437491,"current_range_meters":12800,"station_id":"ce4bhkp2rcd13ifvqgd0","pricing_plan_id":"cebpf4jnsgd1na2vs0mg"},{"bike_id":"935d3ef2-992f-4630-8574-1d91502b98ea","system_id":"levelo_inurba_marseille","lat":43.296794,"lon":5.372888,"is_reserved":false,"is_disabled":false,"rental_uris":{"android":"levelo://app?vid=935d3ef2-992f-4630-8574-1d91502b98ea","ios":"levelo://app?vid=935d3ef2-992f-4630-8574-1d91502b98ea"},"vehicle_type_id":"4","last_reported":1752437491,"current_range_meters":12800,"station_id":"ce4bgk12rcd13ifvqbj0","pricing_plan_id":"cebpf4jnsgd1na2vs0mg"},{"bike_id":"a44f68aa-b920-4eb6-845e-df1183944a6b","system_id":"levelo_inurba_marseille","lat":43.28631,"lon":5.35049,"is_reserved":false,"is_disabled":true,"rental_uris":{"android":"levelo://app?vid=a44f68aa-b920-4eb6-845e-df1183944a6b","ios":"levelo://app?vid=a44f68aa-b920-4eb6-845e-df1183944a6b"},"vehicle_type_id":"4","last_reported":1752437491,"current_range_meters":12800,"station_id":"ce4bhch2rcd13ifvqeug","pricing_plan_id":"cebpf4jnsgd1na2vs0mg"},{"bike_id":"537e7b22-ee92-45e0-8b59-595bddfd2f9c","system_id":"levelo_inurba_marseille","lat":43.29705,"lon":5.36612,"is_reserved":false,"is_disabled":false,"rental_uris":{"android":"levelo://app?vid=537e7b22-ee92-45e0-8b59-595bddfd2f9c","ios":"levelo://app?vid=537e7b22-ee92-45e0-8b59-595bddfd2f9c"},"vehicle_type_id":"4","last_reported":1752437491,"current_range_meters":12800,"station_id":"ce4bgn12rcd13ifvqbt0","pricing_plan_id":"cebpf4jnsgd1na2vs0mg"},{"bike_id":"aa4a5cfc-64aa-4b42-8580-c550ae29b540","system_id":"levelo_inurba_marseille","lat":43.29598,"lon":5.38099,"is_reserved":false,"is_disabled":false,"rental_uris":{"android":"levelo://app?vid=aa4a5cfc-64aa-4b42-8580-c550ae29b540","ios":"levelo://app?vid=aa4a5cfc-64aa-4b42-8580-c550ae29b540"},"vehicle_type_id":"4","last_reported":1752437491,"current_range_meters":12800,"station_id":"ce4bgl12rcd13ifvqbo0","pricing_plan_id":"cebpf4jnsgd1na2vs0mg"},{"bike_id":"c370afe4-d9c6-40f5-9cef-b38f501bb7f6","system_id":"levelo_inurba_marseille","lat":43.29972,"lon":5.37183,"is_reserved":false,"is_disabled":false,"rental_uris":{"android":"levelo://app?vid=c370afe4-d9c6-40f5-9cef-b38f501bb7f6","ios":"levelo://app?vid=c370afe4-d9c6-40f5-9cef-b38f501bb7f6"},"vehicle_type_id":"4","last_reported":1752437491,"current_range_meters":12400,"station_id":"ce4bgr92rcd13ifvqc7g","pricing_plan_id":"cebpf4jnsgd1na2vs0mg"},{"bike_id":"0075684b-a504-453b-9132-a72c307964f4","system_id":"levelo_inurba_marseille","lat":43.29988,"lon":5.38483,"is_reserved":false,"is_disabled":false,"rental_uris":{"android":"levelo://app?vid=0075684b-a504-453b-9132-a72c307964f4","ios":"levelo://app?vid=0075684b-a504-453b-9132-a72c307964f4"},"vehicle_type_id":"4","last_reported":1752437491,"current_range_meters":12400,"station_id":"ce4bgj92rcd13ifvqbd0","pricing_plan_id":"cebpf4jnsgd1na2vs0mg"},{"bike_id":"7048b274-bb73-4f78-bd84-2dffe4927289","system_id":"levelo_inurba_marseille","lat":43.29822,"lon":5.39309,"is_reserved":false,"is_disabled":true,"rental_uris":{"android":"levelo://app?vid=7048b274-bb73-4f78-bd84-2dffe4927289","ios":"levelo://app?vid=7048b274-bb73-4f78-bd84-2dffe4927289"},"vehicle_type_id":"4","last_reported":1752437491,"current_range_meters":12800,"station_id":"chh1huq6cuj3fo74tm60","pricing_plan_id":"cebpf4jnsgd1na2vs0mg"},{"bike_id":"62fac614-47b6-4ccf-9920-6cea6ff3d419","system_id":"levelo_inurba_marseille","lat":43.230594,"lon":5.35491,"is_reserved":false,"is_disabled":true,"rental_uris":{"android":"levelo://app?vid=62fac614-47b6-4ccf-9920-6cea6ff3d419","ios":"levelo://app?vid=62fac614-47b6-4ccf-9920-6cea6ff3d419"},"vehicle_type_id":"4","last_reported":1752437491,"current_range_meters":12800,"station_id":"cpo3532slgdg3j2ikp40","pricing_plan_id":"cebpf4jnsgd1na2vs0mg"},{"bike_id":"b43b2136-b460-4889-aedd-7488171725a4","system_id":"levelo_inurba_marseille","lat":43.29532,"lon":5.38549,"is_reserved":false,"is_disabled":false,"rental_uris":{"android":"levelo://app?vid=b43b2136-b460-4889-aedd-7488171725a4","ios":"levelo://app?vid=b43b2136-b460-4889-aedd-7488171725a4"},"vehicle_type_id":"4","last_reported":1752437491,"current_range_meters":13600,"station_id":"ce4bgih2rcd13ifvqba0","pricing_plan_id":"cebpf4jnsgd1na2vs0mg"},{"bike_id":"28767555-140a-4c8c-a61f-9317e1c3556e","system_id":"levelo_inurba_marseille","lat":43.29537,"lon":5.3751,"is_reserved":false,"is_disabled":true,"rental_uris":{"android":"levelo://app?vid=28767555-140a-4c8c-a61f-9317e1c3556e","ios":"levelo://app?vid=28767555-140a-4c8c-a61f-9317e1c3556e"},"vehicle_type_id":"4","last_reported":1752437491,"current_range_meters":13600,"station_id":"ce4bgkp2rcd13ifvqbmg","pricing_plan_id":"cebpf4jnsgd1na2vs0mg"},{"bike_id":"116ab867-6d4c-4afd-97f7-a02b1218134c","system_id":"levelo_inurba_marseille","lat":43.29393,"lon":5.3863,"is_reserved":false,"is_disabled":false,"rental_uris":{"android":"levelo://app?vid=116ab867-6d4c-4afd-97f7-a02b1218134c","ios":"levelo://app?vid=116ab867-6d4c-4afd-97f7-a02b1218134c"},"vehicle_type_id":"4","last_reported":1752437491,"current_range_meters":13600,"station_id":"ce4bh2h2rcd13ifvqdh0","pricing_plan_id":"cebpf4jnsgd1na2vs0mg"},{"bike_id":"947f6994-5216-4191-afd1-9c7412197203","system_id":"levelo_inurba_marseille","lat":43.28399,"lon":5.37515,"is_reserved":false,"is_disabled":false,"rental_uris":{"android":"levelo://app?vid=947f6994-5216-4191-afd1-9c7412197203","ios":"levelo://app?vid=947f6994-5216-4191-afd1-9c7412197203"},"vehicle_type_id":"4","last_reported":1752437491,"current_range_meters":13600,"station_id":"ce4bh412rcd13ifvqds0","pricing_plan_id":"cebpf4jnsgd1na2vs0mg"},{"bike_id":"bcbf738f-1bc3-4516-85da-8f9c93fbde21","system_id":"levelo_inurba_marseille","lat":43.29642,"lon":5.38117,"is_reserved":false,"is_disabled":false,"rental_uris":{"android":"levelo://app?vid=bcbf738f-1bc3-4516-85da-8f9c93fbde21","ios":"levelo://app?vid=bcbf738f-1bc3-4516-85da-8f9c93fbde21"},"vehicle_type_id":"4","last_reported":1752437491,"current_range_meters":13600,"station_id":"ce4bgl12rcd13ifvqbo0","pricing_plan_id":"cebpf4jnsgd1na2vs0mg"},{"bike_id":"f13b9fd4-1587-4489-b9a2-350f8904c6d7","system_id":"levelo_inurba_marseille","lat":43.26208,"lon":5.37472,"is_reserved":false,"is_disabled":false,"rental_uris":{"android":"levelo://app?vid=f13b9fd4-1587-4489-b9a2-350f8904c6d7","ios":"levelo://app?vid=f13b9fd4-1587-4489-b9a2-350f8904c6d7"},"vehicle_type_id":"4","last_reported":1752437491,"current_range_meters":13600,"station_id":"ce4bhgp2rcd13ifvqfc0","pricing_plan_id":"cebpf4jnsgd1na2vs0mg"},{"bike_id":"471ea129-b1f5-4fca-bb14-fcf686254d3a","system_id":"levelo_inurba_marseille","lat":43.29258,"lon":5.40907,"is_reserved":false,"is_disabled":false,"rental_uris":{"android":"levelo://app?vid=471ea129-b1f5-4fca-bb14-fcf686254d3a","ios":"levelo://app?vid=471ea129-b1f5-4fca-bb14-fcf686254d3a"},"vehicle_type_id":"4","last_reported":1752437491,"current_range_meters":13600,"station_id":"ce4bh192rcd13ifvqdc0","pricing_plan_id":"cebpf4jnsgd1na2vs0mg"},{"bike_id":"9a46b9ab-a60b-45fc-88a3-caad63ae5b94","system_id":"levelo_inurba_marseille","lat":43.33775,"lon":5.37475,"is_reserved":false,"is_disabled":true,"rental_uris":{"android":"levelo://app?vid=9a46b9ab-a60b-45fc-88a3-caad63ae5b94","ios":"levelo://app?vid=9a46b9ab-a60b-45fc-88a3-caad63ae5b94"},"vehicle_type_id":"4","last_reported":1752437491,"current_range_meters":14000,"station_id":"","pricing_plan_id":"cebpf4jnsgd1na2vs0mg"},{"bike_id":"cc82db1e-071a-4225-a83d-f48bf721bc52","system_id":"levelo_inurba_marseille","lat":43.29521,"lon":5.37477,"is_reserved":false,"is_disabled":false,"rental_uris":{"android":"levelo://app?vid=cc82db1e-071a-4225-a83d-f48bf721bc52","ios":"levelo://app?vid=cc82db1e-071a-4225-a83d-f48bf721bc52"},"vehicle_type_id":"4","last_reported":1752437491,"current_range_meters":14000,"station_id":"ce4bgkp2rcd13ifvqbmg","pricing_plan_id":"cebpf4jnsgd1na2vs0mg"},{"bike_id":"7842d86c-0511-4129-ac6d-847df2da4398","system_id":"levelo_inurba_marseille","lat":43.29265,"lon":5.38447,"is_reserved":false,"is_disabled":false,"rental_uris":{"android":"levelo://app?vid=7842d86c-0511-4129-ac6d-847df2da4398","ios":"levelo://app?vid=7842d86c-0511-4129-ac6d-847df2da4398"},"vehicle_type_id":"4","last_reported":1752437491,"current_range_meters":14000,"station_id":"ce4bh692rcd13ifvqea0","pricing_plan_id":"cebpf4jnsgd1na2vs0mg"},{"bike_id":"b45f6071-e2d5-4a55-86bf-eab1c35cb86b","system_id":"levelo_inurba_marseille","lat":43.31182,"lon":5.38711,"is_reserved":false,"is_disabled":false,"rental_uris":{"android":"levelo://app?vid=b45f6071-e2d5-4a55-86bf-eab1c35cb86b","ios":"levelo://app?vid=b45f6071-e2d5-4a55-86bf-eab1c35cb86b"},"vehicle_type_id":"4","last_reported":1752437491,"current_range_meters":13600,"station_id":"ce4bgv12rcd13ifvqcp0","pricing_plan_id":"cebpf4jnsgd1na2vs0mg"},{"bike_id":"45cbf411-ed9a-43e6-b73c-fea10ebd7921","system_id":"levelo_inurba_marseille","lat":43.29852,"lon":5.36313,"is_reserved":false,"is_disabled":false,"rental_uris":{"android":"levelo://app?vid=45cbf411-ed9a-43e6-b73c-fea10ebd7921","ios":"levelo://app?vid=45cbf411-ed9a-43e6-b73c-fea10ebd7921"},"vehicle_type_id":"4","last_reported":1752437491,"current_range_meters":14400,"station_id":"","pricing_plan_id":"cebpf4jnsgd1na2vs0mg"},{"bike_id":"627f88d1-8193-418b-b42e-fda4ebc89b52","system_id":"levelo_inurba_marseille","lat":43.30516,"lon":5.36692,"is_reserved":false,"is_disabled":false,"rental_uris":{"android":"levelo://app?vid=627f88d1-8193-418b-b42e-fda4ebc89b52","ios":"levelo://app?vid=627f88d1-8193-418b-b42e-fda4ebc89b52"},"vehicle_type_id":"4","last_reported":1752437491,"current_range_meters":13600,"station_id":"ce4bgrp2rcd13ifvqc9g","pricing_plan_id":"cebpf4jnsgd1na2vs0mg"},{"bike_id":"cd15247b-6aed-4d2d-826e-5614149bf2e7","system_id":"levelo_inurba_marseille","lat":43.28343,"lon":5.37514,"is_reserved":false,"is_disabled":false,"rental_uris":{"android":"levelo://app?vid=cd15247b-6aed-4d2d-826e-5614149bf2e7","ios":"levelo://app?vid=cd15247b-6aed-4d2d-826e-5614149bf2e7"},"vehicle_type_id":"4","last_reported":1752437491,"current_range_meters":14400,"station_id":"ce4bh412rcd13ifvqds0","pricing_plan_id":"cebpf4jnsgd1na2vs0mg"},{"bike_id":"64477e12-a66c-4478-a6dd-c06aa9e747ba","system_id":"levelo_inurba_marseille","lat":43.28369,"lon":5.38638,"is_reserved":false,"is_disabled":false,"rental_uris":{"android":"levelo://app?vid=64477e12-a66c-4478-a6dd-c06aa9e747ba","ios":"levelo://app?vid=64477e12-a66c-4478-a6dd-c06aa9e747ba"},"vehicle_type_id":"4","last_reported":1752437491,"current_range_meters":14400,"station_id":"ce4bh492rcd13ifvqdvg","pricing_plan_id":"cebpf4jnsgd1na2vs0mg"},{"bike_id":"a25404a7-c8d3-46b6-b007-4a59900d81c3","system_id":"levelo_inurba_marseille","lat":43.292964,"lon":5.365659,"is_reserved":false,"is_disabled":false,"rental_uris":{"android":"levelo://app?vid=a25404a7-c8d3-46b6-b007-4a59900d81c3","ios":"levelo://app?vid=a25404a7-c8d3-46b6-b007-4a59900d81c3"},"vehicle_type_id":"4","last_reported":1752437491,"current_range_meters":14400,"station_id":"ce4bhap2rcd13ifvqek0","pricing_plan_id":"cebpf4jnsgd1na2vs0mg"},{"bike_id":"d23b74c8-dd37-49ae-9674-e8dbc508da56","system_id":"levelo_inurba_marseille","lat":43.29932,"lon":5.36527,"is_reserved":false,"is_disabled":false,"rental_uris":{"android":"levelo://app?vid=d23b74c8-dd37-49ae-9674-e8dbc508da56","ios":"levelo://app?vid=d23b74c8-dd37-49ae-9674-e8dbc508da56"},"vehicle_type_id":"4","last_reported":1752437491,"current_range_meters":14400,"station_id":"ce4bgm92rcd13ifvqbr0","pricing_plan_id":"cebpf4jnsgd1na2vs0mg"},{"bike_id":"5fe3ceee-686d-40ab-b007-7120b2e61bb9","system_id":"levelo_inurba_marseille","lat":43.29255,"lon":5.38452,"is_reserved":false,"is_disabled":false,"rental_uris":{"android":"levelo://app?vid=5fe3ceee-686d-40ab-b007-7120b2e61bb9","ios":"levelo://app?vid=5fe3ceee-686d-40ab-b007-7120b2e61bb9"},"vehicle_type_id":"4","last_reported":1752437491,"current_range_meters":14400,"station_id":"ce4bh692rcd13ifvqea0","pricing_plan_id":"cebpf4jnsgd1na2vs0mg"},{"bike_id":"4c7b8b0f-88b0-4aff-9ba3-6dc72c40a219","system_id":"levelo_inurba_marseille","lat":43.256738,"lon":5.410729,"is_reserved":false,"is_disabled":false,"rental_uris":{"android":"levelo://app?vid=4c7b8b0f-88b0-4aff-9ba3-6dc72c40a219","ios":"levelo://app?vid=4c7b8b0f-88b0-4aff-9ba3-6dc72c40a219"},"vehicle_type_id":"4","last_reported":1752437491,"current_range_meters":14800,"station_id":"ce4bhch2rcd13ifvqeug","pricing_plan_id":"cebpf4jnsgd1na2vs0mg"},{"bike_id":"ec7751a2-428d-41c3-9517-d646d159cf4e","system_id":"levelo_inurba_marseille","lat":43.32015,"lon":5.40913,"is_reserved":false,"is_disabled":false,"rental_uris":{"android":"levelo://app?vid=ec7751a2-428d-41c3-9517-d646d159cf4e","ios":"levelo://app?vid=ec7751a2-428d-41c3-9517-d646d159cf4e"},"vehicle_type_id":"4","last_reported":1752437491,"current_range_meters":14800,"station_id":"ce4bh492rcd13ifvqdug","pricing_plan_id":"cebpf4jnsgd1na2vs0mg"},{"bike_id":"945c9af6-e77e-449b-9309-350836dfae90","system_id":"levelo_inurba_marseille","lat":43.309397,"lon":5.401422,"is_reserved":false,"is_disabled":false,"rental_uris":{"android":"levelo://app?vid=945c9af6-e77e-449b-9309-350836dfae90","ios":"levelo://app?vid=945c9af6-e77e-449b-9309-350836dfae90"},"vehicle_type_id":"4","last_reported":1752437491,"current_range_meters":14800,"station_id":"ce4bgvp2rcd13ifvqct0","pricing_plan_id":"cebpf4jnsgd1na2vs0mg"},{"bike_id":"1a469edf-5352-481f-91e3-cfaef6ee1547","system_id":"levelo_inurba_marseille","lat":43.21194,"lon":5.35062,"is_reserved":false,"is_disabled":false,"rental_uris":{"android":"levelo://app?vid=1a469edf-5352-481f-91e3-cfaef6ee1547","ios":"levelo://app?vid=1a469edf-5352-481f-91e3-cfaef6ee1547"},"vehicle_type_id":"4","last_reported":1752437491,"current_range_meters":14800,"station_id":"st_cvj6sg6p6f1abm77japg","pricing_plan_id":"cebpf4jnsgd1na2vs0mg"},{"bike_id":"36d743a9-57e3-46f8-95e5-2aa1a40f8fbb","system_id":"levelo_inurba_marseille","lat":43.29928,"lon":5.37479,"is_reserved":false,"is_disabled":false,"rental_uris":{"android":"levelo://app?vid=36d743a9-57e3-46f8-95e5-2aa1a40f8fbb","ios":"levelo://app?vid=36d743a9-57e3-46f8-95e5-2aa1a40f8fbb"},"vehicle_type_id":"4","last_reported":1752437491,"current_range_meters":14400,"station_id":"ce4bgjh2rcd13ifvqbg0","pricing_plan_id":"cebpf4jnsgd1na2vs0mg"},{"bike_id":"2ee4bceb-5e6b-4926-882e-97629c7a5539","system_id":"levelo_inurba_marseille","lat":43.29776,"lon":5.3813,"is_reserved":false,"is_disabled":false,"rental_uris":{"android":"levelo://app?vid=2ee4bceb-5e6b-4926-882e-97629c7a5539","ios":"levelo://app?vid=2ee4bceb-5e6b-4926-882e-97629c7a5539"},"vehicle_type_id":"4","last_reported":1752437491,"current_range_meters":14800,"station_id":"ce4bgip2rcd13ifvqbb0","pricing_plan_id":"cebpf4jnsgd1na2vs0mg"},{"bike_id":"d6afdb44-a8dd-48c6-b755-d0e22ff18134","system_id":"levelo_inurba_marseille","lat":43.33608,"lon":5.41029,"is_reserved":false,"is_disabled":false,"rental_uris":{"android":"levelo://app?vid=d6afdb44-a8dd-48c6-b755-d0e22ff18134","ios":"levelo://app?vid=d6afdb44-a8dd-48c6-b755-d0e22ff18134"},"vehicle_type_id":"4","last_reported":1752437491,"current_range_meters":14400,"station_id":"ce4bhqh2rcd13ifvqhmg","pricing_plan_id":"cebpf4jnsgd1na2vs0mg"},{"bike_id":"77a51419-c0b5-4e72-8a74-72f4f3a28c06","system_id":"levelo_inurba_marseille","lat":43.29304,"lon":5.37168,"is_reserved":false,"is_disabled":false,"rental_uris":{"android":"levelo://app?vid=77a51419-c0b5-4e72-8a74-72f4f3a28c06","ios":"levelo://app?vid=77a51419-c0b5-4e72-8a74-72f4f3a28c06"},"vehicle_type_id":"4","last_reported":1752437491,"current_range_meters":14800,"station_id":"ce4bgh92rcd13ifvqb40","pricing_plan_id":"cebpf4jnsgd1na2vs0mg"},{"bike_id":"bfa12c31-1a7d-4ff9-9e9a-e56395392d12","system_id":"levelo_inurba_marseille","lat":43.23175,"lon":5.35591,"is_reserved":false,"is_disabled":true,"rental_uris":{"android":"levelo://app?vid=bfa12c31-1a7d-4ff9-9e9a-e56395392d12","ios":"levelo://app?vid=bfa12c31-1a7d-4ff9-9e9a-e56395392d12"},"vehicle_type_id":"4","last_reported":1752437491,"current_range_meters":14800,"station_id":"ce4bhu92rcd13ifvqi70","pricing_plan_id":"cebpf4jnsgd1na2vs0mg"},{"bike_id":"d8036479-4244-433c-95f7-f266fabeeb93","system_id":"levelo_inurba_marseille","lat":43.29931,"lon":5.3654,"is_reserved":false,"is_disabled":false,"rental_uris":{"android":"levelo://app?vid=d8036479-4244-433c-95f7-f266fabeeb93","ios":"levelo://app?vid=d8036479-4244-433c-95f7-f266fabeeb93"},"vehicle_type_id":"4","last_reported":1752437491,"current_range_meters":15200,"station_id":"ce4bgm92rcd13ifvqbr0","pricing_plan_id":"cebpf4jnsgd1na2vs0mg"},{"bike_id":"79ac9d5c-87ca-42a3-a25e-34606432c125","system_id":"levelo_inurba_marseille","lat":43.21192,"lon":5.35084,"is_reserved":false,"is_disabled":false,"rental_uris":{"android":"levelo://app?vid=79ac9d5c-87ca-42a3-a25e-34606432c125","ios":"levelo://app?vid=79ac9d5c-87ca-42a3-a25e-34606432c125"},"vehicle_type_id":"4","last_reported":1752437491,"current_range_meters":15200,"station_id":"st_cvj6sg6p6f1abm77japg","pricing_plan_id":"cebpf4jnsgd1na2vs0mg"},{"bike_id":"1700fcd6-30ad-4b74-a158-50e5dcb60b9b","system_id":"levelo_inurba_marseille","lat":43.289444,"lon":5.366399,"is_reserved":false,"is_disabled":true,"rental_uris":{"android":"levelo://app?vid=1700fcd6-30ad-4b74-a158-50e5dcb60b9b","ios":"levelo://app?vid=1700fcd6-30ad-4b74-a158-50e5dcb60b9b"},"vehicle_type_id":"4","last_reported":1752437491,"current_range_meters":16000,"station_id":"ce4bhap2rcd13ifvqek0","pricing_plan_id":"cebpf4jnsgd1na2vs0mg"},{"bike_id":"3ed5a958-260e-4469-9820-42936ef47aa5","system_id":"levelo_inurba_marseille","lat":43.29595,"lon":5.37723,"is_reserved":false,"is_disabled":false,"rental_uris":{"android":"levelo://app?vid=3ed5a958-260e-4469-9820-42936ef47aa5","ios":"levelo://app?vid=3ed5a958-260e-4469-9820-42936ef47aa5"},"vehicle_type_id":"4","last_reported":1752437491,"current_range_meters":16000,"station_id":"ce4bgi92rcd13ifvqb90","pricing_plan_id":"cebpf4jnsgd1na2vs0mg"},{"bike_id":"bae5cea7-9175-40c8-a618-e07f1eb58421","system_id":"levelo_inurba_marseille","lat":43.29717,"lon":5.37688,"is_reserved":false,"is_disabled":false,"rental_uris":{"android":"levelo://app?vid=bae5cea7-9175-40c8-a618-e07f1eb58421","ios":"levelo://app?vid=bae5cea7-9175-40c8-a618-e07f1eb58421"},"vehicle_type_id":"4","last_reported":1752437491,"current_range_meters":16000,"station_id":"ce4bgkh2rcd13ifvqbl0","pricing_plan_id":"cebpf4jnsgd1na2vs0mg"},{"bike_id":"79724c7a-8951-4858-8e03-5dd8592df824","system_id":"levelo_inurba_marseille","lat":43.30307,"lon":5.36911,"is_reserved":false,"is_disabled":true,"rental_uris":{"android":"levelo://app?vid=79724c7a-8951-4858-8e03-5dd8592df824","ios":"levelo://app?vid=79724c7a-8951-4858-8e03-5dd8592df824"},"vehicle_type_id":"4","last_reported":1752437491,"current_range_meters":16000,"station_id":"ce4bgqh2rcd13ifvqc5g","pricing_plan_id":"cebpf4jnsgd1na2vs0mg"},{"bike_id":"7b60e2b3-fe60-4caf-8d3e-4c917054d448","system_id":"levelo_inurba_marseille","lat":43.28427,"lon":5.34976,"is_reserved":false,"is_disabled":true,"rental_uris":{"android":"levelo://app?vid=7b60e2b3-fe60-4caf-8d3e-4c917054d448","ios":"levelo://app?vid=7b60e2b3-fe60-4caf-8d3e-4c917054d448"},"vehicle_type_id":"4","last_reported":1752437491,"current_range_meters":16000,"station_id":"ce4bhbh2rcd13ifvqepg","pricing_plan_id":"cebpf4jnsgd1na2vs0mg"},{"bike_id":"75469d84-c39d-4eb6-bd2c-f43b941536fe","system_id":"levelo_inurba_marseille","lat":43.30948,"lon":5.39028,"is_reserved":false,"is_disabled":false,"rental_uris":{"android":"levelo://app?vid=75469d84-c39d-4eb6-bd2c-f43b941536fe","ios":"levelo://app?vid=75469d84-c39d-4eb6-bd2c-f43b941536fe"},"vehicle_type_id":"4","last_reported":1752437491,"current_range_meters":16000,"station_id":"ce4bgup2rcd13ifvqco0","pricing_plan_id":"cebpf4jnsgd1na2vs0mg"},{"bike_id":"58375fde-ca97-4dab-be52-59caf98323d3","system_id":"levelo_inurba_marseille","lat":43.26545,"lon":5.37281,"is_reserved":false,"is_disabled":true,"rental_uris":{"android":"levelo://app?vid=58375fde-ca97-4dab-be52-59caf98323d3","ios":"levelo://app?vid=58375fde-ca97-4dab-be52-59caf98323d3"},"vehicle_type_id":"4","last_reported":1752437491,"current_range_meters":16000,"station_id":"ce4bhg12rcd13ifvqf70","pricing_plan_id":"cebpf4jnsgd1na2vs0mg"},{"bike_id":"5af5aa39-7620-442d-b98c-160e57f94184","system_id":"levelo_inurba_marseille","lat":43.29924,"lon":5.36514,"is_reserved":false,"is_disabled":false,"rental_uris":{"android":"levelo://app?vid=5af5aa39-7620-442d-b98c-160e57f94184","ios":"levelo://app?vid=5af5aa39-7620-442d-b98c-160e57f94184"},"vehicle_type_id":"4","last_reported":1752437491,"current_range_meters":16000,"station_id":"ce4bgm92rcd13ifvqbr0","pricing_plan_id":"cebpf4jnsgd1na2vs0mg"},{"bike_id":"615851ba-be8c-42a4-b1ee-de441f36e211","system_id":"levelo_inurba_marseille","lat":43.29696,"lon":5.366,"is_reserved":false,"is_disabled":false,"rental_uris":{"android":"levelo://app?vid=615851ba-be8c-42a4-b1ee-de441f36e211","ios":"levelo://app?vid=615851ba-be8c-42a4-b1ee-de441f36e211"},"vehicle_type_id":"4","last_reported":1752437491,"current_range_meters":16000,"station_id":"ce4bgn12rcd13ifvqbt0","pricing_plan_id":"cebpf4jnsgd1na2vs0mg"},{"bike_id":"c9c1ee2a-a96a-4172-bcf7-e1e7f8da72d9","system_id":"levelo_inurba_marseille","lat":43.25576,"lon":5.38229,"is_reserved":false,"is_disabled":false,"rental_uris":{"android":"levelo://app?vid=c9c1ee2a-a96a-4172-bcf7-e1e7f8da72d9","ios":"levelo://app?vid=c9c1ee2a-a96a-4172-bcf7-e1e7f8da72d9"},"vehicle_type_id":"4","last_reported":1752437491,"current_range_meters":16000,"station_id":"ce4bhih2rcd13ifvqfs0","pricing_plan_id":"cebpf4jnsgd1na2vs0mg"},{"bike_id":"2ef1123f-c057-4a3e-9e3d-ed63c708b122","system_id":"levelo_inurba_marseille","lat":43.30246,"lon":5.40083,"is_reserved":false,"is_disabled":false,"rental_uris":{"android":"levelo://app?vid=2ef1123f-c057-4a3e-9e3d-ed63c708b122","ios":"levelo://app?vid=2ef1123f-c057-4a3e-9e3d-ed63c708b122"},"vehicle_type_id":"4","last_reported":1752437491,"current_range_meters":16000,"station_id":"ce4bgvh2rcd13ifvqcs0","pricing_plan_id":"cebpf4jnsgd1na2vs0mg"},{"bike_id":"fbe44fff-6ece-42d8-95ea-c4e8c37e8112","system_id":"levelo_inurba_marseille","lat":43.28656,"lon":5.36344,"is_reserved":false,"is_disabled":false,"rental_uris":{"android":"levelo://app?vid=fbe44fff-6ece-42d8-95ea-c4e8c37e8112","ios":"levelo://app?vid=fbe44fff-6ece-42d8-95ea-c4e8c37e8112"},"vehicle_type_id":"4","last_reported":1752437491,"current_range_meters":16400,"station_id":"ce4bhah2rcd13ifvqej0","pricing_plan_id":"cebpf4jnsgd1na2vs0mg"},{"bike_id":"28f6661f-fa05-4b8f-8f5e-cb4158aac2c7","system_id":"levelo_inurba_marseille","lat":43.293741,"lon":5.378479,"is_reserved":false,"is_disabled":true,"rental_uris":{"android":"levelo://app?vid=28f6661f-fa05-4b8f-8f5e-cb4158aac2c7","ios":"levelo://app?vid=28f6661f-fa05-4b8f-8f5e-cb4158aac2c7"},"vehicle_type_id":"4","last_reported":1752437491,"current_range_meters":16400,"station_id":"ce4bgjh2rcd13ifvqbf0","pricing_plan_id":"cebpf4jnsgd1na2vs0mg"},{"bike_id":"31c710b8-59c4-4592-9629-b8ad795fae60","system_id":"levelo_inurba_marseille","lat":43.302487,"lon":5.40079,"is_reserved":false,"is_disabled":true,"rental_uris":{"android":"levelo://app?vid=31c710b8-59c4-4592-9629-b8ad795fae60","ios":"levelo://app?vid=31c710b8-59c4-4592-9629-b8ad795fae60"},"vehicle_type_id":"4","last_reported":1752437491,"current_range_meters":16400,"station_id":"ce4bgvh2rcd13ifvqcs0","pricing_plan_id":"cebpf4jnsgd1na2vs0mg"},{"bike_id":"b03acc09-64d6-4360-bffe-ce7e58c2b440","system_id":"levelo_inurba_marseille","lat":43.27812,"lon":5.40709,"is_reserved":false,"is_disabled":false,"rental_uris":{"android":"levelo://app?vid=b03acc09-64d6-4360-bffe-ce7e58c2b440","ios":"levelo://app?vid=b03acc09-64d6-4360-bffe-ce7e58c2b440"},"vehicle_type_id":"4","last_reported":1752437491,"current_range_meters":16400,"station_id":"ce4bhnh2rcd13ifvqgtg","pricing_plan_id":"cebpf4jnsgd1na2vs0mg"},{"bike_id":"00afd354-eb9e-4aa4-8a34-72bedfd2e410","system_id":"levelo_inurba_marseille","lat":43.308,"lon":5.38157,"is_reserved":false,"is_disabled":false,"rental_uris":{"android":"levelo://app?vid=00afd354-eb9e-4aa4-8a34-72bedfd2e410","ios":"levelo://app?vid=00afd354-eb9e-4aa4-8a34-72bedfd2e410"},"vehicle_type_id":"4","last_reported":1752437491,"current_range_meters":16400,"station_id":"ce4bgt12rcd13ifvqce0","pricing_plan_id":"cebpf4jnsgd1na2vs0mg"},{"bike_id":"f5a47db5-6fb2-46bd-a2de-efa4ad13bf60","system_id":"levelo_inurba_marseille","lat":43.21174,"lon":5.35078,"is_reserved":false,"is_disabled":false,"rental_uris":{"android":"levelo://app?vid=f5a47db5-6fb2-46bd-a2de-efa4ad13bf60","ios":"levelo://app?vid=f5a47db5-6fb2-46bd-a2de-efa4ad13bf60"},"vehicle_type_id":"4","last_reported":1752437491,"current_range_meters":16400,"station_id":"st_cvj6sg6p6f1abm77japg","pricing_plan_id":"cebpf4jnsgd1na2vs0mg"},{"bike_id":"a7f266e1-ee65-41f8-9c40-a9cb116db8cd","system_id":"levelo_inurba_marseille","lat":43.25709,"lon":5.41131,"is_reserved":false,"is_disabled":false,"rental_uris":{"android":"levelo://app?vid=a7f266e1-ee65-41f8-9c40-a9cb116db8cd","ios":"levelo://app?vid=a7f266e1-ee65-41f8-9c40-a9cb116db8cd"},"vehicle_type_id":"4","last_reported":1752437491,"current_range_meters":16400,"station_id":"ce4bhkp2rcd13ifvqgd0","pricing_plan_id":"cebpf4jnsgd1na2vs0mg"},{"bike_id":"b053f929-7efb-49cd-9959-74ef096980bb","system_id":"levelo_inurba_marseille","lat":43.33759,"lon":5.37484,"is_reserved":false,"is_disabled":true,"rental_uris":{"android":"levelo://app?vid=b053f929-7efb-49cd-9959-74ef096980bb","ios":"levelo://app?vid=b053f929-7efb-49cd-9959-74ef096980bb"},"vehicle_type_id":"4","last_reported":1752437491,"current_range_meters":16400,"station_id":"","pricing_plan_id":"cebpf4jnsgd1na2vs0mg"},{"bike_id":"1aedaa42-1f03-48cc-8e38-d983e72f730b","system_id":"levelo_inurba_marseille","lat":43.2707,"lon":5.42284,"is_reserved":false,"is_disabled":false,"rental_uris":{"android":"levelo://app?vid=1aedaa42-1f03-48cc-8e38-d983e72f730b","ios":"levelo://app?vid=1aedaa42-1f03-48cc-8e38-d983e72f730b"},"vehicle_type_id":"4","last_reported":1752437491,"current_range_meters":16400,"station_id":"ce4bhk92rcd13ifvqgb0","pricing_plan_id":"cebpf4jnsgd1na2vs0mg"},{"bike_id":"24f7302b-5746-41f7-a28c-948ec145bd50","system_id":"levelo_inurba_marseille","lat":43.30799,"lon":5.38157,"is_reserved":false,"is_disabled":false,"rental_uris":{"android":"levelo://app?vid=24f7302b-5746-41f7-a28c-948ec145bd50","ios":"levelo://app?vid=24f7302b-5746-41f7-a28c-948ec145bd50"},"vehicle_type_id":"4","last_reported":1752437491,"current_range_meters":16400,"station_id":"ce4bgt12rcd13ifvqce0","pricing_plan_id":"cebpf4jnsgd1na2vs0mg"},{"bike_id":"486e104a-f260-4fc3-a76c-007aafda0d08","system_id":"levelo_inurba_marseille","lat":43.29629,"lon":5.377,"is_reserved":false,"is_disabled":false,"rental_uris":{"android":"levelo://app?vid=486e104a-f260-4fc3-a76c-007aafda0d08","ios":"levelo://app?vid=486e104a-f260-4fc3-a76c-007aafda0d08"},"vehicle_type_id":"4","last_reported":1752437491,"current_range_meters":16400,"station_id":"ce4bgi92rcd13ifvqb90","pricing_plan_id":"cebpf4jnsgd1na2vs0mg"},{"bike_id":"d20e25d1-0bc7-4668-955d-f7bdc936f6ee","system_id":"levelo_inurba_marseille","lat":43.31914,"lon":5.36895,"is_reserved":false,"is_disabled":false,"rental_uris":{"android":"levelo://app?vid=d20e25d1-0bc7-4668-955d-f7bdc936f6ee","ios":"levelo://app?vid=d20e25d1-0bc7-4668-955d-f7bdc936f6ee"},"vehicle_type_id":"4","last_reported":1752437491,"current_range_meters":16400,"station_id":"","pricing_plan_id":"cebpf4jnsgd1na2vs0mg"},{"bike_id":"95263674-6383-4f36-b819-d255b1977ec6","system_id":"levelo_inurba_marseille","lat":43.23197,"lon":5.35544,"is_reserved":false,"is_disabled":false,"rental_uris":{"android":"levelo://app?vid=95263674-6383-4f36-b819-d255b1977ec6","ios":"levelo://app?vid=95263674-6383-4f36-b819-d255b1977ec6"},"vehicle_type_id":"4","last_reported":1752437491,"current_range_meters":16400,"station_id":"ce4bhu92rcd13ifvqi70","pricing_plan_id":"cebpf4jnsgd1na2vs0mg"},{"bike_id":"77afb162-ed1b-4c74-b5e9-8aca149da95a","system_id":"levelo_inurba_marseille","lat":43.29702,"lon":5.36612,"is_reserved":false,"is_disabled":false,"rental_uris":{"android":"levelo://app?vid=77afb162-ed1b-4c74-b5e9-8aca149da95a","ios":"levelo://app?vid=77afb162-ed1b-4c74-b5e9-8aca149da95a"},"vehicle_type_id":"4","last_reported":1752437491,"current_range_meters":16400,"station_id":"ce4bgn12rcd13ifvqbt0","pricing_plan_id":"cebpf4jnsgd1na2vs0mg"},{"bike_id":"2ec427da-b403-4a7e-86be-3f48ba535d18","system_id":"levelo_inurba_marseille","lat":43.21197,"lon":5.35076,"is_reserved":false,"is_disabled":false,"rental_uris":{"android":"levelo://app?vid=2ec427da-b403-4a7e-86be-3f48ba535d18","ios":"levelo://app?vid=2ec427da-b403-4a7e-86be-3f48ba535d18"},"vehicle_type_id":"4","last_reported":1752437491,"current_range_meters":16800,"station_id":"st_cvj6sg6p6f1abm77japg","pricing_plan_id":"cebpf4jnsgd1na2vs0mg"},{"bike_id":"caf871db-67b1-46df-ae74-ea04e84dd4ac","system_id":"levelo_inurba_marseille","lat":43.297072,"lon":5.366059,"is_reserved":false,"is_disabled":false,"rental_uris":{"android":"levelo://app?vid=caf871db-67b1-46df-ae74-ea04e84dd4ac","ios":"levelo://app?vid=caf871db-67b1-46df-ae74-ea04e84dd4ac"},"vehicle_type_id":"4","last_reported":1752437491,"current_range_meters":16800,"station_id":"ce4bhf92rcd13ifvqf40","pricing_plan_id":"cebpf4jnsgd1na2vs0mg"},{"bike_id":"350baf57-19b6-4304-9c57-75c381c047e9","system_id":"levelo_inurba_marseille","lat":43.30315,"lon":5.36912,"is_reserved":false,"is_disabled":false,"rental_uris":{"android":"levelo://app?vid=350baf57-19b6-4304-9c57-75c381c047e9","ios":"levelo://app?vid=350baf57-19b6-4304-9c57-75c381c047e9"},"vehicle_type_id":"4","last_reported":1752437491,"current_range_meters":16800,"station_id":"ce4bgqh2rcd13ifvqc5g","pricing_plan_id":"cebpf4jnsgd1na2vs0mg"},{"bike_id":"55253168-a971-491d-a2a9-88376350b929","system_id":"levelo_inurba_marseille","lat":43.29257,"lon":5.38457,"is_reserved":false,"is_disabled":false,"rental_uris":{"android":"levelo://app?vid=55253168-a971-491d-a2a9-88376350b929","ios":"levelo://app?vid=55253168-a971-491d-a2a9-88376350b929"},"vehicle_type_id":"4","last_reported":1752437491,"current_range_meters":16800,"station_id":"ce4bh692rcd13ifvqea0","pricing_plan_id":"cebpf4jnsgd1na2vs0mg"},{"bike_id":"91e36618-f857-45af-ac89-91d909da2db3","system_id":"levelo_inurba_marseille","lat":43.2938,"lon":5.38638,"is_reserved":false,"is_disabled":true,"rental_uris":{"android":"levelo://app?vid=91e36618-f857-45af-ac89-91d909da2db3","ios":"levelo://app?vid=91e36618-f857-45af-ac89-91d909da2db3"},"vehicle_type_id":"4","last_reported":1752437491,"current_range_meters":16800,"station_id":"ce4bh2h2rcd13ifvqdh0","pricing_plan_id":"cebpf4jnsgd1na2vs0mg"},{"bike_id":"7269d02a-d339-42f2-9268-579d2d090d90","system_id":"levelo_inurba_marseille","lat":43.2812,"lon":5.43861,"is_reserved":false,"is_disabled":false,"rental_uris":{"android":"levelo://app?vid=7269d02a-d339-42f2-9268-579d2d090d90","ios":"levelo://app?vid=7269d02a-d339-42f2-9268-579d2d090d90"},"vehicle_type_id":"4","last_reported":1752437491,"current_range_meters":16800,"station_id":"","pricing_plan_id":"cebpf4jnsgd1na2vs0mg"},{"bike_id":"e91ced2f-2041-4b38-8446-0d5d97adec95","system_id":"levelo_inurba_marseille","lat":43.25575,"lon":5.38229,"is_reserved":false,"is_disabled":true,"rental_uris":{"android":"levelo://app?vid=e91ced2f-2041-4b38-8446-0d5d97adec95","ios":"levelo://app?vid=e91ced2f-2041-4b38-8446-0d5d97adec95"},"vehicle_type_id":"4","last_reported":1752437491,"current_range_meters":16800,"station_id":"ce4bhih2rcd13ifvqfs0","pricing_plan_id":"cebpf4jnsgd1na2vs0mg"},{"bike_id":"40392a3b-1d10-4dd5-b1d6-6477ad9a4c60","system_id":"levelo_inurba_marseille","lat":43.29123,"lon":5.38097,"is_reserved":false,"is_disabled":false,"rental_uris":{"android":"levelo://app?vid=40392a3b-1d10-4dd5-b1d6-6477ad9a4c60","ios":"levelo://app?vid=40392a3b-1d10-4dd5-b1d6-6477ad9a4c60"},"vehicle_type_id":"4","last_reported":1752437491,"current_range_meters":16800,"station_id":"ce4bh512rcd13ifvqe2g","pricing_plan_id":"cebpf4jnsgd1na2vs0mg"},{"bike_id":"e83439d2-4642-48a2-8689-7a894582417f","system_id":"levelo_inurba_marseille","lat":43.21185,"lon":5.35083,"is_reserved":false,"is_disabled":false,"rental_uris":{"android":"levelo://app?vid=e83439d2-4642-48a2-8689-7a894582417f","ios":"levelo://app?vid=e83439d2-4642-48a2-8689-7a894582417f"},"vehicle_type_id":"4","last_reported":1752437491,"current_range_meters":16800,"station_id":"st_cvj6sg6p6f1abm77japg","pricing_plan_id":"cebpf4jnsgd1na2vs0mg"},{"bike_id":"fc88c49a-96b4-44c6-9c16-71760b2a189f","system_id":"levelo_inurba_marseille","lat":43.2992,"lon":5.38058,"is_reserved":false,"is_disabled":false,"rental_uris":{"android":"levelo://app?vid=fc88c49a-96b4-44c6-9c16-71760b2a189f","ios":"levelo://app?vid=fc88c49a-96b4-44c6-9c16-71760b2a189f"},"vehicle_type_id":"4","last_reported":1752437491,"current_range_meters":16800,"station_id":"","pricing_plan_id":"cebpf4jnsgd1na2vs0mg"},{"bike_id":"c8c4de1a-846f-4f5b-aace-9fb14bf7ad52","system_id":"levelo_inurba_marseille","lat":43.21191,"lon":5.35077,"is_reserved":false,"is_disabled":false,"rental_uris":{"android":"levelo://app?vid=c8c4de1a-846f-4f5b-aace-9fb14bf7ad52","ios":"levelo://app?vid=c8c4de1a-846f-4f5b-aace-9fb14bf7ad52"},"vehicle_type_id":"4","last_reported":1752437491,"current_range_meters":16800,"station_id":"st_cvj6sg6p6f1abm77japg","pricing_plan_id":"cebpf4jnsgd1na2vs0mg"},{"bike_id":"964fd0af-2898-4cb7-86f1-662455a7e797","system_id":"levelo_inurba_marseille","lat":43.26573,"lon":5.39004,"is_reserved":false,"is_disabled":false,"rental_uris":{"android":"levelo://app?vid=964fd0af-2898-4cb7-86f1-662455a7e797","ios":"levelo://app?vid=964fd0af-2898-4cb7-86f1-662455a7e797"},"vehicle_type_id":"4","last_reported":1752437491,"current_range_meters":16800,"station_id":"ce4bhe12rcd13ifvqf30","pricing_plan_id":"cebpf4jnsgd1na2vs0mg"},{"bike_id":"55774bdb-47b9-4c2a-ba58-c7e9af75c5ea","system_id":"levelo_inurba_marseille","lat":43.29027,"lon":5.38641,"is_reserved":false,"is_disabled":false,"rental_uris":{"android":"levelo://app?vid=55774bdb-47b9-4c2a-ba58-c7e9af75c5ea","ios":"levelo://app?vid=55774bdb-47b9-4c2a-ba58-c7e9af75c5ea"},"vehicle_type_id":"4","last_reported":1752437491,"current_range_meters":17200,"station_id":"ce4bh4p2rcd13ifvqe0g","pricing_plan_id":"cebpf4jnsgd1na2vs0mg"},{"bike_id":"45583b9b-98ff-4d18-a778-0d792c89bae3","system_id":"levelo_inurba_marseille","lat":43.28564,"lon":5.39503,"is_reserved":false,"is_disabled":true,"rental_uris":{"android":"levelo://app?vid=45583b9b-98ff-4d18-a778-0d792c89bae3","ios":"levelo://app?vid=45583b9b-98ff-4d18-a778-0d792c89bae3"},"vehicle_type_id":"4","last_reported":1752437491,"current_range_meters":17200,"station_id":"ce4bh292rcd13ifvqdg0","pricing_plan_id":"cebpf4jnsgd1na2vs0mg"},{"bike_id":"b1f565f2-83c4-4631-9b4d-1d683a0261ef","system_id":"levelo_inurba_marseille","lat":43.21175,"lon":5.35075,"is_reserved":false,"is_disabled":false,"rental_uris":{"android":"levelo://app?vid=b1f565f2-83c4-4631-9b4d-1d683a0261ef","ios":"levelo://app?vid=b1f565f2-83c4-4631-9b4d-1d683a0261ef"},"vehicle_type_id":"4","last_reported":1752437491,"current_range_meters":17200,"station_id":"st_cvj6sg6p6f1abm77japg","pricing_plan_id":"cebpf4jnsgd1na2vs0mg"},{"bike_id":"d10eed46-15ce-497e-b9b9-7d1b99e675e4","system_id":"levelo_inurba_marseille","lat":43.29704,"lon":5.36618,"is_reserved":false,"is_disabled":false,"rental_uris":{"android":"levelo://app?vid=d10eed46-15ce-497e-b9b9-7d1b99e675e4","ios":"levelo://app?vid=d10eed46-15ce-497e-b9b9-7d1b99e675e4"},"vehicle_type_id":"4","last_reported":1752437491,"current_range_meters":17200,"station_id":"ce4bgn12rcd13ifvqbt0","pricing_plan_id":"cebpf4jnsgd1na2vs0mg"},{"bike_id":"db16ecbd-0471-4c02-90d7-5debff30f7c3","system_id":"levelo_inurba_marseille","lat":43.28666,"lon":5.3634,"is_reserved":false,"is_disabled":false,"rental_uris":{"android":"levelo://app?vid=db16ecbd-0471-4c02-90d7-5debff30f7c3","ios":"levelo://app?vid=db16ecbd-0471-4c02-90d7-5debff30f7c3"},"vehicle_type_id":"4","last_reported":1752437491,"current_range_meters":17200,"station_id":"ce4bhah2rcd13ifvqej0","pricing_plan_id":"cebpf4jnsgd1na2vs0mg"},{"bike_id":"0f6dca1a-b4c5-4ec0-8efd-c48998aeaeaf","system_id":"levelo_inurba_marseille","lat":43.28704,"lon":5.39988,"is_reserved":false,"is_disabled":false,"rental_uris":{"android":"levelo://app?vid=0f6dca1a-b4c5-4ec0-8efd-c48998aeaeaf","ios":"levelo://app?vid=0f6dca1a-b4c5-4ec0-8efd-c48998aeaeaf"},"vehicle_type_id":"4","last_reported":1752437491,"current_range_meters":17200,"station_id":"ce4bho92rcd13ifvqh3g","pricing_plan_id":"cebpf4jnsgd1na2vs0mg"},{"bike_id":"bf67854a-fc75-4bbe-84b3-70a770694533","system_id":"levelo_inurba_marseille","lat":43.28969,"lon":5.39628,"is_reserved":false,"is_disabled":true,"rental_uris":{"android":"levelo://app?vid=bf67854a-fc75-4bbe-84b3-70a770694533","ios":"levelo://app?vid=bf67854a-fc75-4bbe-84b3-70a770694533"},"vehicle_type_id":"4","last_reported":1752437491,"current_range_meters":17200,"station_id":"ce4bh3h2rcd13ifvqdn0","pricing_plan_id":"cebpf4jnsgd1na2vs0mg"},{"bike_id":"67ed5122-667f-4264-8a18-9772cb04f08b","system_id":"levelo_inurba_marseille","lat":43.32057,"lon":5.41552,"is_reserved":false,"is_disabled":false,"rental_uris":{"android":"levelo://app?vid=67ed5122-667f-4264-8a18-9772cb04f08b","ios":"levelo://app?vid=67ed5122-667f-4264-8a18-9772cb04f08b"},"vehicle_type_id":"4","last_reported":1752437491,"current_range_meters":17200,"station_id":"ce4bhq92rcd13ifvqhkg","pricing_plan_id":"cebpf4jnsgd1na2vs0mg"},{"bike_id":"4c51dbd0-8384-4b37-84ac-f07b8ed027d5","system_id":"levelo_inurba_marseille","lat":43.29584,"lon":5.37592,"is_reserved":false,"is_disabled":false,"rental_uris":{"android":"levelo://app?vid=4c51dbd0-8384-4b37-84ac-f07b8ed027d5","ios":"levelo://app?vid=4c51dbd0-8384-4b37-84ac-f07b8ed027d5"},"vehicle_type_id":"4","last_reported":1752437491,"current_range_meters":17200,"station_id":"","pricing_plan_id":"cebpf4jnsgd1na2vs0mg"},{"bike_id":"8a01e88a-8371-4085-9838-47ae11897cd3","system_id":"levelo_inurba_marseille","lat":43.281526,"lon":5.426349,"is_reserved":false,"is_disabled":true,"rental_uris":{"android":"levelo://app?vid=8a01e88a-8371-4085-9838-47ae11897cd3","ios":"levelo://app?vid=8a01e88a-8371-4085-9838-47ae11897cd3"},"vehicle_type_id":"4","last_reported":1752437491,"current_range_meters":17200,"station_id":"ce4bhnh2rcd13ifvqgug","pricing_plan_id":"cebpf4jnsgd1na2vs0mg"},{"bike_id":"1fff8844-cffb-4c8c-8e59-c102b17f1911","system_id":"levelo_inurba_marseille","lat":43.29797,"lon":5.38096,"is_reserved":false,"is_disabled":false,"rental_uris":{"android":"levelo://app?vid=1fff8844-cffb-4c8c-8e59-c102b17f1911","ios":"levelo://app?vid=1fff8844-cffb-4c8c-8e59-c102b17f1911"},"vehicle_type_id":"4","last_reported":1752437491,"current_range_meters":17200,"station_id":"ce4bgip2rcd13ifvqbb0","pricing_plan_id":"cebpf4jnsgd1na2vs0mg"},{"bike_id":"697d5fc4-b988-4a4e-8323-c1ce5ed61a61","system_id":"levelo_inurba_marseille","lat":43.21195,"lon":5.35059,"is_reserved":false,"is_disabled":false,"rental_uris":{"android":"levelo://app?vid=697d5fc4-b988-4a4e-8323-c1ce5ed61a61","ios":"levelo://app?vid=697d5fc4-b988-4a4e-8323-c1ce5ed61a61"},"vehicle_type_id":"4","last_reported":1752437491,"current_range_meters":17600,"station_id":"st_cvj6sg6p6f1abm77japg","pricing_plan_id":"cebpf4jnsgd1na2vs0mg"},{"bike_id":"14206be8-0078-4681-aa79-3a75468d12ce","system_id":"levelo_inurba_marseille","lat":43.28607,"lon":5.37068,"is_reserved":false,"is_disabled":false,"rental_uris":{"android":"levelo://app?vid=14206be8-0078-4681-aa79-3a75468d12ce","ios":"levelo://app?vid=14206be8-0078-4681-aa79-3a75468d12ce"},"vehicle_type_id":"4","last_reported":1752437491,"current_range_meters":17600,"station_id":"ce4bht12rcd13ifvqi60","pricing_plan_id":"cebpf4jnsgd1na2vs0mg"},{"bike_id":"80955d0f-8669-4c02-b90f-c6fe20790c37","system_id":"levelo_inurba_marseille","lat":43.23201,"lon":5.35059,"is_reserved":false,"is_disabled":false,"rental_uris":{"android":"levelo://app?vid=80955d0f-8669-4c02-b90f-c6fe20790c37","ios":"levelo://app?vid=80955d0f-8669-4c02-b90f-c6fe20790c37"},"vehicle_type_id":"4","last_reported":1752437491,"current_range_meters":17600,"station_id":"","pricing_plan_id":"cebpf4jnsgd1na2vs0mg"},{"bike_id":"23a0fc67-4c39-4b74-8a86-2903d79b1606","system_id":"levelo_inurba_marseille","lat":43.23178,"lon":5.35563,"is_reserved":false,"is_disabled":true,"rental_uris":{"android":"levelo://app?vid=23a0fc67-4c39-4b74-8a86-2903d79b1606","ios":"levelo://app?vid=23a0fc67-4c39-4b74-8a86-2903d79b1606"},"vehicle_type_id":"4","last_reported":1752437491,"current_range_meters":17600,"station_id":"ce4bhu92rcd13ifvqi70","pricing_plan_id":"cebpf4jnsgd1na2vs0mg"},{"bike_id":"a4d07f45-19f9-4df9-9728-be6623530a64","system_id":"levelo_inurba_marseille","lat":43.23713,"lon":5.38833,"is_reserved":false,"is_disabled":false,"rental_uris":{"android":"levelo://app?vid=a4d07f45-19f9-4df9-9728-be6623530a64","ios":"levelo://app?vid=a4d07f45-19f9-4df9-9728-be6623530a64"},"vehicle_type_id":"4","last_reported":1752437491,"current_range_meters":17600,"station_id":"","pricing_plan_id":"cebpf4jnsgd1na2vs0mg"},{"bike_id":"f7cf9aab-0ed3-4931-a48c-8d0743d0c0b9","system_id":"levelo_inurba_marseille","lat":43.229261,"lon":5.353781,"is_reserved":false,"is_disabled":true,"rental_uris":{"android":"levelo://app?vid=f7cf9aab-0ed3-4931-a48c-8d0743d0c0b9","ios":"levelo://app?vid=f7cf9aab-0ed3-4931-a48c-8d0743d0c0b9"},"vehicle_type_id":"4","last_reported":1752437491,"current_range_meters":17600,"station_id":"cpo3532slgdg3j2ikp40","pricing_plan_id":"cebpf4jnsgd1na2vs0mg"},{"bike_id":"6c5208e4-7c58-4709-95fc-ef95571ca273","system_id":"levelo_inurba_marseille","lat":43.2953,"lon":5.38545,"is_reserved":false,"is_disabled":false,"rental_uris":{"android":"levelo://app?vid=6c5208e4-7c58-4709-95fc-ef95571ca273","ios":"levelo://app?vid=6c5208e4-7c58-4709-95fc-ef95571ca273"},"vehicle_type_id":"4","last_reported":1752437491,"current_range_meters":17600,"station_id":"ce4bgih2rcd13ifvqba0","pricing_plan_id":"cebpf4jnsgd1na2vs0mg"},{"bike_id":"c7162527-cc5e-4ff8-8971-f5d1827a76a2","system_id":"levelo_inurba_marseille","lat":43.29715,"lon":5.37702,"is_reserved":false,"is_disabled":false,"rental_uris":{"android":"levelo://app?vid=c7162527-cc5e-4ff8-8971-f5d1827a76a2","ios":"levelo://app?vid=c7162527-cc5e-4ff8-8971-f5d1827a76a2"},"vehicle_type_id":"4","last_reported":1752437491,"current_range_meters":17200,"station_id":"ce4bgkh2rcd13ifvqbl0","pricing_plan_id":"cebpf4jnsgd1na2vs0mg"},{"bike_id":"088e6b1d-8a81-47e0-9ad0-36233ed399c0","system_id":"levelo_inurba_marseille","lat":43.27925,"lon":5.39566,"is_reserved":false,"is_disabled":true,"rental_uris":{"android":"levelo://app?vid=088e6b1d-8a81-47e0-9ad0-36233ed399c0","ios":"levelo://app?vid=088e6b1d-8a81-47e0-9ad0-36233ed399c0"},"vehicle_type_id":"4","last_reported":1752437491,"current_range_meters":17600,"station_id":"ce4bhf92rcd13ifvqf40","pricing_plan_id":"cebpf4jnsgd1na2vs0mg"},{"bike_id":"8605f962-9695-43f5-b47a-24efc7e47fd2","system_id":"levelo_inurba_marseille","lat":43.29233,"lon":5.38451,"is_reserved":false,"is_disabled":false,"rental_uris":{"android":"levelo://app?vid=8605f962-9695-43f5-b47a-24efc7e47fd2","ios":"levelo://app?vid=8605f962-9695-43f5-b47a-24efc7e47fd2"},"vehicle_type_id":"4","last_reported":1752437491,"current_range_meters":18000,"station_id":"ce4bh692rcd13ifvqea0","pricing_plan_id":"cebpf4jnsgd1na2vs0mg"},{"bike_id":"a645d6c0-dcdf-402b-b506-c70f20c3f081","system_id":"levelo_inurba_marseille","lat":43.31361,"lon":5.3848,"is_reserved":false,"is_disabled":true,"rental_uris":{"android":"levelo://app?vid=a645d6c0-dcdf-402b-b506-c70f20c3f081","ios":"levelo://app?vid=a645d6c0-dcdf-402b-b506-c70f20c3f081"},"vehicle_type_id":"4","last_reported":1752437491,"current_range_meters":18000,"station_id":"ce4bgt92rcd13ifvqcf0","pricing_plan_id":"cebpf4jnsgd1na2vs0mg"},{"bike_id":"12d48e4d-a291-49bb-ab45-967804b53d7b","system_id":"levelo_inurba_marseille","lat":43.27615,"lon":5.36107,"is_reserved":false,"is_disabled":true,"rental_uris":{"android":"levelo://app?vid=12d48e4d-a291-49bb-ab45-967804b53d7b","ios":"levelo://app?vid=12d48e4d-a291-49bb-ab45-967804b53d7b"},"vehicle_type_id":"4","last_reported":1752437491,"current_range_meters":18000,"station_id":"ce4bgj92rcd13ifvqbe0","pricing_plan_id":"cebpf4jnsgd1na2vs0mg"},{"bike_id":"e1442ff3-c767-4bb3-901d-e5f60873ad13","system_id":"levelo_inurba_marseille","lat":43.23182,"lon":5.39993,"is_reserved":false,"is_disabled":false,"rental_uris":{"android":"levelo://app?vid=e1442ff3-c767-4bb3-901d-e5f60873ad13","ios":"levelo://app?vid=e1442ff3-c767-4bb3-901d-e5f60873ad13"},"vehicle_type_id":"4","last_reported":1752437491,"current_range_meters":18000,"station_id":"ce4bhn12rcd13ifvqgqg","pricing_plan_id":"cebpf4jnsgd1na2vs0mg"},{"bike_id":"9b59b22f-5f4b-432f-be59-c16459c4633a","system_id":"levelo_inurba_marseille","lat":43.28036,"lon":5.36951,"is_reserved":false,"is_disabled":false,"rental_uris":{"android":"levelo://app?vid=9b59b22f-5f4b-432f-be59-c16459c4633a","ios":"levelo://app?vid=9b59b22f-5f4b-432f-be59-c16459c4633a"},"vehicle_type_id":"4","last_reported":1752437491,"current_range_meters":18000,"station_id":"ce4bha12rcd13ifvqef0","pricing_plan_id":"cebpf4jnsgd1na2vs0mg"},{"bike_id":"e1928b01-bff5-4cea-b60c-f8d9223daef3","system_id":"levelo_inurba_marseille","lat":43.270724,"lon":5.422723,"is_reserved":false,"is_disabled":false,"rental_uris":{"android":"levelo://app?vid=e1928b01-bff5-4cea-b60c-f8d9223daef3","ios":"levelo://app?vid=e1928b01-bff5-4cea-b60c-f8d9223daef3"},"vehicle_type_id":"4","last_reported":1752437491,"current_range_meters":18000,"station_id":"ce4bhk92rcd13ifvqgb0","pricing_plan_id":"cebpf4jnsgd1na2vs0mg"},{"bike_id":"6ac174d4-75c5-4a9c-9699-97cd631c6e65","system_id":"levelo_inurba_marseille","lat":43.25497,"lon":5.39922,"is_reserved":false,"is_disabled":false,"rental_uris":{"android":"levelo://app?vid=6ac174d4-75c5-4a9c-9699-97cd631c6e65","ios":"levelo://app?vid=6ac174d4-75c5-4a9c-9699-97cd631c6e65"},"vehicle_type_id":"4","last_reported":1752437491,"current_range_meters":18000,"station_id":"","pricing_plan_id":"cebpf4jnsgd1na2vs0mg"},{"bike_id":"3fe12894-5c6e-4969-9825-6e38cace598e","system_id":"levelo_inurba_marseille","lat":43.29278,"lon":5.38449,"is_reserved":false,"is_disabled":false,"rental_uris":{"android":"levelo://app?vid=3fe12894-5c6e-4969-9825-6e38cace598e","ios":"levelo://app?vid=3fe12894-5c6e-4969-9825-6e38cace598e"},"vehicle_type_id":"4","last_reported":1752437491,"current_range_meters":18000,"station_id":"ce4bh692rcd13ifvqea0","pricing_plan_id":"cebpf4jnsgd1na2vs0mg"},{"bike_id":"5f48d587-f9d0-43e5-b0b2-bf2fb17b1a3c","system_id":"levelo_inurba_marseille","lat":43.29445,"lon":5.38584,"is_reserved":false,"is_disabled":true,"rental_uris":{"android":"levelo://app?vid=5f48d587-f9d0-43e5-b0b2-bf2fb17b1a3c","ios":"levelo://app?vid=5f48d587-f9d0-43e5-b0b2-bf2fb17b1a3c"},"vehicle_type_id":"4","last_reported":1752437491,"current_range_meters":18000,"station_id":"ce4bh2h2rcd13ifvqdh0","pricing_plan_id":"cebpf4jnsgd1na2vs0mg"},{"bike_id":"6cf8688a-1878-4708-9f08-7499d7476362","system_id":"levelo_inurba_marseille","lat":43.29529,"lon":5.3854,"is_reserved":false,"is_disabled":false,"rental_uris":{"android":"levelo://app?vid=6cf8688a-1878-4708-9f08-7499d7476362","ios":"levelo://app?vid=6cf8688a-1878-4708-9f08-7499d7476362"},"vehicle_type_id":"4","last_reported":1752437491,"current_range_meters":18000,"station_id":"ce4bgih2rcd13ifvqba0","pricing_plan_id":"cebpf4jnsgd1na2vs0mg"},{"bike_id":"9a79eb93-9c99-4d16-b7b4-020998d63252","system_id":"levelo_inurba_marseille","lat":43.29703,"lon":5.36606,"is_reserved":false,"is_disabled":false,"rental_uris":{"android":"levelo://app?vid=9a79eb93-9c99-4d16-b7b4-020998d63252","ios":"levelo://app?vid=9a79eb93-9c99-4d16-b7b4-020998d63252"},"vehicle_type_id":"4","last_reported":1752437491,"current_range_meters":18000,"station_id":"ce4bgn12rcd13ifvqbt0","pricing_plan_id":"cebpf4jnsgd1na2vs0mg"},{"bike_id":"0327ba3d-56c5-40a2-9b87-fb20780bb2cf","system_id":"levelo_inurba_marseille","lat":43.28471,"lon":5.38452,"is_reserved":false,"is_disabled":true,"rental_uris":{"android":"levelo://app?vid=0327ba3d-56c5-40a2-9b87-fb20780bb2cf","ios":"levelo://app?vid=0327ba3d-56c5-40a2-9b87-fb20780bb2cf"},"vehicle_type_id":"4","last_reported":1752437491,"current_range_meters":18000,"station_id":"ce4bh512rcd13ifvqe3g","pricing_plan_id":"cebpf4jnsgd1na2vs0mg"},{"bike_id":"36afecec-a91e-46ea-9246-f2d0f42bab15","system_id":"levelo_inurba_marseille","lat":43.296112,"lon":5.381058,"is_reserved":false,"is_disabled":false,"rental_uris":{"android":"levelo://app?vid=36afecec-a91e-46ea-9246-f2d0f42bab15","ios":"levelo://app?vid=36afecec-a91e-46ea-9246-f2d0f42bab15"},"vehicle_type_id":"4","last_reported":1752437491,"current_range_meters":18000,"station_id":"","pricing_plan_id":"cebpf4jnsgd1na2vs0mg"},{"bike_id":"97847e13-35af-475a-a7e5-48be3439b842","system_id":"levelo_inurba_marseille","lat":43.29783,"lon":5.39345,"is_reserved":false,"is_disabled":false,"rental_uris":{"android":"levelo://app?vid=97847e13-35af-475a-a7e5-48be3439b842","ios":"levelo://app?vid=97847e13-35af-475a-a7e5-48be3439b842"},"vehicle_type_id":"4","last_reported":1752437491,"current_range_meters":18000,"station_id":"chh1huq6cuj3fo74tm60","pricing_plan_id":"cebpf4jnsgd1na2vs0mg"},{"bike_id":"50e09392-846a-407c-85b4-e83b79049a51","system_id":"levelo_inurba_marseille","lat":43.30931,"lon":5.40138,"is_reserved":false,"is_disabled":false,"rental_uris":{"android":"levelo://app?vid=50e09392-846a-407c-85b4-e83b79049a51","ios":"levelo://app?vid=50e09392-846a-407c-85b4-e83b79049a51"},"vehicle_type_id":"4","last_reported":1752437491,"current_range_meters":18800,"station_id":"ce4bgvp2rcd13ifvqct0","pricing_plan_id":"cebpf4jnsgd1na2vs0mg"},{"bike_id":"6b16738b-0c00-44e5-8d4b-e2adefc49b7e","system_id":"levelo_inurba_marseille","lat":43.28414,"lon":5.37516,"is_reserved":false,"is_disabled":false,"rental_uris":{"android":"levelo://app?vid=6b16738b-0c00-44e5-8d4b-e2adefc49b7e","ios":"levelo://app?vid=6b16738b-0c00-44e5-8d4b-e2adefc49b7e"},"vehicle_type_id":"4","last_reported":1752437491,"current_range_meters":18000,"station_id":"ce4bh412rcd13ifvqds0","pricing_plan_id":"cebpf4jnsgd1na2vs0mg"},{"bike_id":"2c81c752-b139-48bc-a4ee-7fa7f8526278","system_id":"levelo_inurba_marseille","lat":43.21816,"lon":5.34579,"is_reserved":false,"is_disabled":true,"rental_uris":{"android":"levelo://app?vid=2c81c752-b139-48bc-a4ee-7fa7f8526278","ios":"levelo://app?vid=2c81c752-b139-48bc-a4ee-7fa7f8526278"},"vehicle_type_id":"4","last_reported":1752437491,"current_range_meters":18800,"station_id":"","pricing_plan_id":"cebpf4jnsgd1na2vs0mg"},{"bike_id":"93199722-14f5-40a6-8f7e-62be22730d5e","system_id":"levelo_inurba_marseille","lat":43.29935,"lon":5.36544,"is_reserved":false,"is_disabled":false,"rental_uris":{"android":"levelo://app?vid=93199722-14f5-40a6-8f7e-62be22730d5e","ios":"levelo://app?vid=93199722-14f5-40a6-8f7e-62be22730d5e"},"vehicle_type_id":"4","last_reported":1752437491,"current_range_meters":18800,"station_id":"ce4bgm92rcd13ifvqbr0","pricing_plan_id":"cebpf4jnsgd1na2vs0mg"},{"bike_id":"aa260077-cb0d-43c9-8e67-329c1b69779f","system_id":"levelo_inurba_marseille","lat":43.211856,"lon":5.35079,"is_reserved":false,"is_disabled":false,"rental_uris":{"android":"levelo://app?vid=aa260077-cb0d-43c9-8e67-329c1b69779f","ios":"levelo://app?vid=aa260077-cb0d-43c9-8e67-329c1b69779f"},"vehicle_type_id":"4","last_reported":1752437491,"current_range_meters":18800,"station_id":"st_cvj6sg6p6f1abm77japg","pricing_plan_id":"cebpf4jnsgd1na2vs0mg"},{"bike_id":"0d12e641-817a-42ca-8e95-ec00e9786e63","system_id":"levelo_inurba_marseille","lat":43.30804,"lon":5.38164,"is_reserved":false,"is_disabled":false,"rental_uris":{"android":"levelo://app?vid=0d12e641-817a-42ca-8e95-ec00e9786e63","ios":"levelo://app?vid=0d12e641-817a-42ca-8e95-ec00e9786e63"},"vehicle_type_id":"4","last_reported":1752437491,"current_range_meters":19200,"station_id":"ce4bgt12rcd13ifvqce0","pricing_plan_id":"cebpf4jnsgd1na2vs0mg"},{"bike_id":"e7712bfe-0afb-49c8-a238-4b85477740b0","system_id":"levelo_inurba_marseille","lat":43.30465,"lon":5.37901,"is_reserved":false,"is_disabled":false,"rental_uris":{"android":"levelo://app?vid=e7712bfe-0afb-49c8-a238-4b85477740b0","ios":"levelo://app?vid=e7712bfe-0afb-49c8-a238-4b85477740b0"},"vehicle_type_id":"4","last_reported":1752437491,"current_range_meters":19200,"station_id":"ce4bgup2rcd13ifvqcn0","pricing_plan_id":"cebpf4jnsgd1na2vs0mg"},{"bike_id":"0978e0ad-a056-4a71-b392-f3211f4f9023","system_id":"levelo_inurba_marseille","lat":43.29597,"lon":5.38095,"is_reserved":false,"is_disabled":false,"rental_uris":{"android":"levelo://app?vid=0978e0ad-a056-4a71-b392-f3211f4f9023","ios":"levelo://app?vid=0978e0ad-a056-4a71-b392-f3211f4f9023"},"vehicle_type_id":"4","last_reported":1752437491,"current_range_meters":19200,"station_id":"ce4bgl12rcd13ifvqbo0","pricing_plan_id":"cebpf4jnsgd1na2vs0mg"},{"bike_id":"8feb8518-50b4-4e95-a29b-e4d8f35fe37b","system_id":"levelo_inurba_marseille","lat":43.26054,"lon":5.39393,"is_reserved":false,"is_disabled":false,"rental_uris":{"android":"levelo://app?vid=8feb8518-50b4-4e95-a29b-e4d8f35fe37b","ios":"levelo://app?vid=8feb8518-50b4-4e95-a29b-e4d8f35fe37b"},"vehicle_type_id":"4","last_reported":1752437491,"current_range_meters":19200,"station_id":"ce4bhh92rcd13ifvqfj0","pricing_plan_id":"cebpf4jnsgd1na2vs0mg"},{"bike_id":"fe5e3cc4-7269-47dc-bb1e-2be389730cd8","system_id":"levelo_inurba_marseille","lat":43.29535,"lon":5.38542,"is_reserved":false,"is_disabled":false,"rental_uris":{"android":"levelo://app?vid=fe5e3cc4-7269-47dc-bb1e-2be389730cd8","ios":"levelo://app?vid=fe5e3cc4-7269-47dc-bb1e-2be389730cd8"},"vehicle_type_id":"4","last_reported":1752437491,"current_range_meters":19200,"station_id":"ce4bgih2rcd13ifvqba0","pricing_plan_id":"cebpf4jnsgd1na2vs0mg"},{"bike_id":"ff273063-b26e-410d-a8db-735ccf894b50","system_id":"levelo_inurba_marseille","lat":43.23997,"lon":5.37744,"is_reserved":false,"is_disabled":false,"rental_uris":{"android":"levelo://app?vid=ff273063-b26e-410d-a8db-735ccf894b50","ios":"levelo://app?vid=ff273063-b26e-410d-a8db-735ccf894b50"},"vehicle_type_id":"4","last_reported":1752437491,"current_range_meters":19200,"station_id":"","pricing_plan_id":"cebpf4jnsgd1na2vs0mg"},{"bike_id":"d4d09814-bfb5-45f2-8280-ce5d7b12bead","system_id":"levelo_inurba_marseille","lat":43.27938,"lon":5.4105,"is_reserved":false,"is_disabled":false,"rental_uris":{"android":"levelo://app?vid=d4d09814-bfb5-45f2-8280-ce5d7b12bead","ios":"levelo://app?vid=d4d09814-bfb5-45f2-8280-ce5d7b12bead"},"vehicle_type_id":"4","last_reported":1752437491,"current_range_meters":19200,"station_id":"ce4bhnp2rcd13ifvqh0g","pricing_plan_id":"cebpf4jnsgd1na2vs0mg"},