{"last_updated":1732927689,"ttl":60,"version":"2.2","data":{"bikes":[{"bike_id":"d375be11-1a40-470b-b905-c4946466142a","system_id":"levelo_inurba_marseille","lat":43.28464,"lon":5.35882,"is_reserved":false,"is_disabled":false,"rental_uris":{"android":"levelo://app?vid=d375be11-1a40-470b-b905-c4946466142a","ios":"levelo://app?vid=d375be11-1a40-470b-b905-c4946466142a"},"vehicle_type_id":"4","last_reported":1732927689,"current_range_meters":24800,"station_id":"ce4bhah2rcd13ifvqei0","pricing_plan_id":"cebpf4jnsgd1na2vs0mg"},{"bike_id":"d4200ecd-0eb1-4e61-b803-33817fb4645f","system_id":"levelo_inurba_marseille","lat":43.31489,"lon":5.37309,"is_reserved":false,"is_disabled":false,"rental_uris":{"android":"levelo://app?vid=d4200ecd-0eb1-4e61-b803-33817fb4645f","ios":"levelo://app?vid=d4200ecd-0eb1-4e61-b803-33817fb4645f"},"vehicle_type_id":"4","last_reported":1732927689,"current_range_meters":36000,"station_id":"ce4bgt12rcd13ifvqcd0","pricing_plan_id":"cebpf4jnsgd1na2vs0mg"},{"bike_id":"b856c8b4-412d-4c25-bdd4-e6b29aed04cb","system_id":"levelo_inurba_marseille","lat":43.22932,"lon":5.35382,"is_reserved":false,"is_disabled":false,"rental_uris":{"android":"levelo://app?vid=b856c8b4-412d-4c25-bdd4-e6b29aed04cb","ios":"levelo://app?vid=b856c8b4-412d-4c25-bdd4-e6b29aed04cb"},"vehicle_type_id":"4","last_reported":1732927689,"current_range_meters":39200,"station_id":"cpo3532slgdg3j2ikp40","pricing_plan_id":"cebpf4jnsgd1na2vs0mg"},{"bike_id":"3ab70a40-e825-45f1-adcb-4f1977bdbea9","system_id":"levelo_inurba_marseille","lat":43.30792,"lon":5.38127,"is_reserved":false,"is_disabled":false,"rental_uris":{"android":"levelo://app?vid=3ab70a40-e825-45f1-adcb-4f1977bdbea9","ios":"levelo://app?vid=3ab70a40-e825-45f1-adcb-4f1977bdbea9"},"vehicle_type_id":"4","last_reported":1732927689,"current_range_meters":35600,"station_id":"ce4bgt12rcd13ifvqce0","pricing_plan_id":"cebpf4jnsgd1na2vs0mg"},{"bike_id":"3b0e05b2-1e98-491d-b2e1-ddc66cfd8a1a","system_id":"levelo_inurba_marseille","lat":43.30063,"lon":5.38638,"is_reserved":false,"is_disabled":true,"rental_uris":{"android":"levelo://app?vid=3b0e05b2-1e98-491d-b2e1-ddc66cfd8a1a","ios":"levelo://app?vid=3b0e05b2-1e98-491d-b2e1-ddc66cfd8a1a"},"vehicle_type_id":"4","last_reported":1732927689,"current_range_meters":0,"station_id":"","pricing_plan_id":"cebpf4jnsgd1na2vs0mg"},{"bike_id":"84ccddc4-6681-44c8-bacd-154da9b78895","system_id":"levelo_inurba_marseille","lat":43.31721,"lon":5.42391,"is_reserved":false,"is_disabled":false,"rental_uris":{"android":"levelo://app?vid=84ccddc4-6681-44c8-bacd-154da9b78895","ios":"levelo://app?vid=84ccddc4-6681-44c8-bacd-154da9b78895"},"vehicle_type_id":"4","last_reported":1732927689,"current_range_meters":27200,"station_id":"ce4bhp92rcd13ifvqhbg","pricing_plan_id":"cebpf4jnsgd1na2vs0mg"},{"bike_id":"f412d18d-19d9-48ee-847a-f070dcabd337","system_id":"levelo_inurba_marseille","lat":43.27962,"lon":5.38714,"is_reserved":false,"is_disabled":false,"rental_uris":{"android":"levelo://app?vid=f412d18d-19d9-48ee-847a-f070dcabd337","ios":"levelo://app?vid=f412d18d-19d9-48ee-847a-f070dcabd337"},"vehicle_type_id":"4","last_reported":1732927689,"current_range_meters":23200,"station_id":"ce4bhg12rcd13ifvqf80","pricing_plan_id":"cebpf4jnsgd1na2vs0mg"},{"bike_id":"e2e30902-f575-40ed-a6ad-0f88d28c0438","system_id":"levelo_inurba_marseille","lat":43.28423,"lon":5.3917,"is_reserved":false,"is_disabled":false,"rental_uris":{"android":"levelo://app?vid=e2e30902-f575-40ed-a6ad-0f88d28c0438","ios":"levelo://app?vid=e2e30902-f575-40ed-a6ad-0f88d28c0438"},"vehicle_type_id":"4","last_reported":1732927689,"current_range_meters":34800,"station_id":"ce4bhoh2rcd13ifvqh5g","pricing_plan_id":"cebpf4jnsgd1na2vs0mg"},{"bike_id":"edb5639e-25fe-4ee3-ab07-5b09d8eb6b3c","system_id":"levelo_inurba_marseille","lat":43.30447,"lon":5.38893,"is_reserved":false,"is_disabled":true,"rental_uris":{"android":"levelo://app?vid=edb5639e-25fe-4ee3-ab07-5b09d8eb6b3c","ios":"levelo://app?vid=edb5639e-25fe-4ee3-ab07-5b09d8eb6b3c"},"vehicle_type_id":"4","last_reported":1732927689,"current_range_meters":29600,"station_id":"ce4bgk12rcd13ifvqbi0","pricing_plan_id":"cebpf4jnsgd1na2vs0mg"},{"bike_id":"55a59da6-5727-4b23-892f-57b9bc4daf50","system_id":"levelo_inurba_marseille","lat":43.31377,"lon":5.385,"is_reserved":false,"is_disabled":false,"rental_uris":{"android":"levelo://app?vid=55a59da6-5727-4b23-892f-57b9bc4daf50","ios":"levelo://app?vid=55a59da6-5727-4b23-892f-57b9bc4daf50"},"vehicle_type_id":"4","last_reported":1732927689,"current_range_meters":24800,"station_id":"ce4bgt92rcd13ifvqcf0","pricing_plan_id":"cebpf4jnsgd1na2vs0mg"},{"bike_id":"7974306f-50f1-4979-96e6-42a3a669c81a","system_id":"levelo_inurba_marseille","lat":43.32006,"lon":5.38168,"is_reserved":false,"is_disabled":false,"rental_uris":{"android":"levelo://app?vid=7974306f-50f1-4979-96e6-42a3a669c81a","ios":"levelo://app?vid=7974306f-50f1-4979-96e6-42a3a669c81a"},"vehicle_type_id":"4","last_reported":1732927689,"current_range_meters":20000,"station_id":"ce4bhr12rcd13ifvqhpg","pricing_plan_id":"cebpf4jnsgd1na2vs0mg"},{"bike_id":"dc4e9b89-a790-44b8-be05-fce6956608eb","system_id":"levelo_inurba_marseille","lat":43.31491,"lon":5.37302,"is_reserved":false,"is_disabled":false,"rental_uris":{"android":"levelo://app?vid=dc4e9b89-a790-44b8-be05-fce6956608eb","ios":"levelo://app?vid=dc4e9b89-a790-44b8-be05-fce6956608eb"},"vehicle_type_id":"4","last_reported":1732927689,"current_range_meters":28400,"station_id":"ce4bgt12rcd13ifvqcd0","pricing_plan_id":"cebpf4jnsgd1na2vs0mg"},{"bike_id":"d2c75749-ecf0-443d-b295-b1c030f8f99f","system_id":"levelo_inurba_marseille","lat":43.31123,"lon":5.3777,"is_reserved":false,"is_disabled":false,"rental_uris":{"android":"levelo://app?vid=d2c75749-ecf0-443d-b295-b1c030f8f99f","ios":"levelo://app?vid=d2c75749-ecf0-443d-b295-b1c030f8f99f"},"vehicle_type_id":"4","last_reported":1732927689,"current_range_meters":28400,"station_id":"ce4bgt92rcd13ifvqcg0","pricing_plan_id":"cebpf4jnsgd1na2vs0mg"},{"bike_id":"f7d93f70-2919-47f5-81d3-39682c777acb","system_id":"levelo_inurba_marseille","lat":43.3107,"lon":5.38353,"is_reserved":false,"is_disabled":false,"rental_uris":{"android":"levelo://app?vid=f7d93f70-2919-47f5-81d3-39682c777acb","ios":"levelo://app?vid=f7d93f70-2919-47f5-81d3-39682c777acb"},"vehicle_type_id":"4","last_reported":1732927689,"current_range_meters":30000,"station_id":"ce4bgv92rcd13ifvqcr0","pricing_plan_id":"cebpf4jnsgd1na2vs0mg"},{"bike_id":"5294d999-2261-43bd-8aaf-106ae106430c","system_id":"levelo_inurba_marseille","lat":43.31488,"lon":5.37298,"is_reserved":false,"is_disabled":false,"rental_uris":{"android":"levelo://app?vid=5294d999-2261-43bd-8aaf-106ae106430c","ios":"levelo://app?vid=5294d999-2261-43bd-8aaf-106ae106430c"},"vehicle_type_id":"4","last_reported":1732927689,"current_range_meters":8400,"station_id":"ce4bgt12rcd13ifvqcd0","pricing_plan_id":"cebpf4jnsgd1na2vs0mg"},{"bike_id":"5bcc2077-4ff7-4d51-92e7-2e0d95aa7015","system_id":"levelo_inurba_marseille","lat":43.26197,"lon":5.37448,"is_reserved":false,"is_disabled":false,"rental_uris":{"android":"levelo://app?vid=5bcc2077-4ff7-4d51-92e7-2e0d95aa7015","ios":"levelo://app?vid=5bcc2077-4ff7-4d51-92e7-2e0d95aa7015"},"vehicle_type_id":"4","last_reported":1732927689,"current_range_meters":31200,"station_id":"ce4bhgp2rcd13ifvqfc0","pricing_plan_id":"cebpf4jnsgd1na2vs0mg"},{"bike_id":"dd764c4f-e5a4-49d0-a29b-266bdb920ff5","system_id":"levelo_inurba_marseille","lat":43.24545,"lon":5.39522,"is_reserved":false,"is_disabled":false,"rental_uris":{"android":"levelo://app?vid=dd764c4f-e5a4-49d0-a29b-266bdb920ff5","ios":"levelo://app?vid=dd764c4f-e5a4-49d0-a29b-266bdb920ff5"},"vehicle_type_id":"4","last_reported":1732927689,"current_range_meters":23200,"station_id":"ce4bhlp2rcd13ifvqgjg","pricing_plan_id":"cebpf4jnsgd1na2vs0mg"},{"bike_id":"d77c8fa8-9230-4eda-bc9a-5b066cfdd6cc","system_id":"levelo_inurba_marseille","lat":43.25719,"lon":5.41114,"is_reserved":false,"is_disabled":false,"rental_uris":{"android":"levelo://app?vid=d77c8fa8-9230-4eda-bc9a-5b066cfdd6cc","ios":"levelo://app?vid=d77c8fa8-9230-4eda-bc9a-5b066cfdd6cc"},"vehicle_type_id":"4","last_reported":1732927689,"current_range_meters":22800,"station_id":"ce4bhkp2rcd13ifvqgd0","pricing_plan_id":"cebpf4jnsgd1na2vs0mg"},{"bike_id":"1fc9325f-710f-49a4-8684-4130de067a92","system_id":"levelo_inurba_marseille","lat":43.33602,"lon":5.41023,"is_reserved":false,"is_disabled":false,"rental_uris":{"android":"levelo://app?vid=1fc9325f-710f-49a4-8684-4130de067a92","ios":"levelo://app?vid=1fc9325f-710f-49a4-8684-4130de067a92"},"vehicle_type_id":"4","last_reported":1732927689,"current_range_meters":38800,"station_id":"ce4bhqh2rcd13ifvqhmg","pricing_plan_id":"cebpf4jnsgd1na2vs0mg"},{"bike_id":"2e205062-0f9e-4f82-8617-2c13f007dd60","system_id":"levelo_inurba_marseille","lat":43.33022,"lon":5.39039,"is_reserved":false,"is_disabled":false,"rental_uris":{"android":"levelo://app?vid=2e205062-0f9e-4f82-8617-2c13f007dd60","ios":"levelo://app?vid=2e205062-0f9e-4f82-8617-2c13f007dd60"},"vehicle_type_id":"4","last_reported":1732927689,"current_range_meters":24400,"station_id":"ce4bhr92rcd13ifvqhrg","pricing_plan_id":"cebpf4jnsgd1na2vs0mg"},{"bike_id":"9ffe5f9f-d1fd-425d-bcf2-a40e359baa8d","system_id":"levelo_inurba_marseille","lat":43.2745,"lon":5.39423,"is_reserved":false,"is_disabled":false,"rental_uris":{"android":"levelo://app?vid=9ffe5f9f-d1fd-425d-bcf2-a40e359baa8d","ios":"levelo://app?vid=9ffe5f9f-d1fd-425d-bcf2-a40e359baa8d"},"vehicle_type_id":"4","last_reported":1732927689,"current_range_meters":6800,"station_id":"ce4bhdp2rcd13ifvqf20","pricing_plan_id":"cebpf4jnsgd1na2vs0mg"},{"bike_id":"50685f0c-7f2b-45de-a548-3b9a1a1165a8","system_id":"levelo_inurba_marseille","lat":43.31367,"lon":5.38503,"is_reserved":false,"is_disabled":false,"rental_uris":{"android":"levelo://app?vid=50685f0c-7f2b-45de-a548-3b9a1a1165a8","ios":"levelo://app?vid=50685f0c-7f2b-45de-a548-3b9a1a1165a8"},"vehicle_type_id":"4","last_reported":1732927689,"current_range_meters":8800,"station_id":"ce4bgt92rcd13ifvqcf0","pricing_plan_id":"cebpf4jnsgd1na2vs0mg"},{"bike_id":"0ac97b73-02c6-44d6-8e4a-a93a591b88a2","system_id":"levelo_inurba_marseille","lat":43.3061,"lon":5.37225,"is_reserved":false,"is_disabled":false,"rental_uris":{"android":"levelo://app?vid=0ac97b73-02c6-44d6-8e4a-a93a591b88a2","ios":"levelo://app?vid=0ac97b73-02c6-44d6-8e4a-a93a591b88a2"},"vehicle_type_id":"4","last_reported":1732927689,"current_range_meters":30000,"station_id":"ce4bgqh2rcd13ifvqc4g","pricing_plan_id":"cebpf4jnsgd1na2vs0mg"},{"bike_id":"9e455e0d-ec4c-43a4-9911-72384dec058c","system_id":"levelo_inurba_marseille","lat":43.31757,"lon":5.39021,"is_reserved":false,"is_disabled":false,"rental_uris":{"android":"levelo://app?vid=9e455e0d-ec4c-43a4-9911-72384dec058c","ios":"levelo://app?vid=9e455e0d-ec4c-43a4-9911-72384dec058c"},"vehicle_type_id":"4","last_reported":1732927689,"current_range_meters":36400,"station_id":"ce4bhqp2rcd13ifvqhng","pricing_plan_id":"cebpf4jnsgd1na2vs0mg"},{"bike_id":"3403761e-eed7-48fa-b864-fde7c275870f","system_id":"levelo_inurba_marseille","lat":43.27418,"lon":5.39416,"is_reserved":false,"is_disabled":false,"rental_uris":{"android":"levelo://app?vid=3403761e-eed7-48fa-b864-fde7c275870f","ios":"levelo://app?vid=3403761e-eed7-48fa-b864-fde7c275870f"},"vehicle_type_id":"4","last_reported":1732927689,"current_range_meters":5600,"station_id":"ce4bhdp2rcd13ifvqf20","pricing_plan_id":"cebpf4jnsgd1na2vs0mg"},{"bike_id":"6f7949e1-de87-4a49-8620-fec27e04447f","system_id":"levelo_inurba_marseille","lat":43.33734,"lon":5.39191,"is_reserved":false,"is_disabled":false,"rental_uris":{"android":"levelo://app?vid=6f7949e1-de87-4a49-8620-fec27e04447f","ios":"levelo://app?vid=6f7949e1-de87-4a49-8620-fec27e04447f"},"vehicle_type_id":"4","last_reported":1732927689,"current_range_meters":28800,"station_id":"ce4bhr92rcd13ifvqhsg","pricing_plan_id":"cebpf4jnsgd1na2vs0mg"},{"bike_id":"35d571c6-7ee8-402e-b9a9-509c04cc6376","system_id":"levelo_inurba_marseille","lat":43.23194,"lon":5.35549,"is_reserved":false,"is_disabled":false,"rental_uris":{"android":"levelo://app?vid=35d571c6-7ee8-402e-b9a9-509c04cc6376","ios":"levelo://app?vid=35d571c6-7ee8-402e-b9a9-509c04cc6376"},"vehicle_type_id":"4","last_reported":1732927689,"current_range_meters":36800,"station_id":"ce4bhu92rcd13ifvqi70","pricing_plan_id":"cebpf4jnsgd1na2vs0mg"},{"bike_id":"7066298c-8444-4dbb-8e5a-afa45f0890f5","system_id":"levelo_inurba_marseille","lat":43.28856,"lon":5.39328,"is_reserved":false,"is_disabled":true,"rental_uris":{"android":"levelo://app?vid=7066298c-8444-4dbb-8e5a-afa45f0890f5","ios":"levelo://app?vid=7066298c-8444-4dbb-8e5a-afa45f0890f5"},"vehicle_type_id":"4","last_reported":1732927689,"current_range_meters":16000,"station_id":"ce4bh2p2rcd13ifvqdi0","pricing_plan_id":"cebpf4jnsgd1na2vs0mg"},{"bike_id":"79da6e11-068f-4f85-891a-bf5d6033ae1b","system_id":"levelo_inurba_marseille","lat":43.29186,"lon":5.39306,"is_reserved":false,"is_disabled":true,"rental_uris":{"android":"levelo://app?vid=79da6e11-068f-4f85-891a-bf5d6033ae1b","ios":"levelo://app?vid=79da6e11-068f-4f85-891a-bf5d6033ae1b"},"vehicle_type_id":"4","last_reported":1732927689,"current_range_meters":26800,"station_id":"ce4bh192rcd13ifvqdd0","pricing_plan_id":"cebpf4jnsgd1na2vs0mg"},{"bike_id":"ea65bc22-100f-4a7b-a38b-f2659223cf3d","system_id":"levelo_inurba_marseille","lat":43.32002,"lon":5.38151,"is_reserved":false,"is_disabled":false,"rental_uris":{"android":"levelo://app?vid=ea65bc22-100f-4a7b-a38b-f2659223cf3d","ios":"levelo://app?vid=ea65bc22-100f-4a7b-a38b-f2659223cf3d"},"vehicle_type_id":"4","last_reported":1732927689,"current_range_meters":9600,"station_id":"ce4bhr12rcd13ifvqhpg","pricing_plan_id":"cebpf4jnsgd1na2vs0mg"},{"bike_id":"7336a834-32f4-41a0-8d34-98b304a417b1","system_id":"levelo_inurba_marseille","lat":43.31215,"lon":5.36824,"is_reserved":false,"is_disabled":false,"rental_uris":{"android":"levelo://app?vid=7336a834-32f4-41a0-8d34-98b304a417b1","ios":"levelo://app?vid=7336a834-32f4-41a0-8d34-98b304a417b1"},"vehicle_type_id":"4","last_reported":1732927689,"current_range_meters":28400,"station_id":"ce4bgl92rcd13ifvqbq0","pricing_plan_id":"cebpf4jnsgd1na2vs0mg"},{"bike_id":"17c3787c-47ed-47fd-9c64-fc0be19f7592","system_id":"levelo_inurba_marseille","lat":43.30425,"lon":5.41289,"is_reserved":false,"is_disabled":false,"rental_uris":{"android":"levelo://app?vid=17c3787c-47ed-47fd-9c64-fc0be19f7592","ios":"levelo://app?vid=17c3787c-47ed-47fd-9c64-fc0be19f7592"},"vehicle_type_id":"4","last_reported":1732927689,"current_range_meters":19600,"station_id":"ce4bhop2rcd13ifvqh8g","pricing_plan_id":"cebpf4jnsgd1na2vs0mg"},{"bike_id":"c8e18c54-9b3f-4cd1-ad67-6ca07bf358c8","system_id":"levelo_inurba_marseille","lat":43.33023,"lon":5.39034,"is_reserved":false,"is_disabled":false,"rental_uris":{"android":"levelo://app?vid=c8e18c54-9b3f-4cd1-ad67-6ca07bf358c8","ios":"levelo://app?vid=c8e18c54-9b3f-4cd1-ad67-6ca07bf358c8"},"vehicle_type_id":"4","last_reported":1732927689,"current_range_meters":9600,"station_id":"ce4bhr92rcd13ifvqhrg","pricing_plan_id":"cebpf4jnsgd1na2vs0mg"},{"bike_id":"9df891fc-6fad-4fa6-8d41-90f57311b9ce","system_id":"levelo_inurba_marseille","lat":43.30769,"lon":5.37653,"is_reserved":false,"is_disabled":false,"rental_uris":{"android":"levelo://app?vid=9df891fc-6fad-4fa6-8d41-90f57311b9ce","ios":"levelo://app?vid=9df891fc-6fad-4fa6-8d41-90f57311b9ce"},"vehicle_type_id":"4","last_reported":1732927689,"current_range_meters":35200,"station_id":"ce4bgv92rcd13ifvqcq0","pricing_plan_id":"cebpf4jnsgd1na2vs0mg"},{"bike_id":"cbd24d3b-9e06-46c8-bf36-74d5e8096c43","system_id":"levelo_inurba_marseille","lat":43.28852,"lon":5.39307,"is_reserved":false,"is_disabled":false,"rental_uris":{"android":"levelo://app?vid=cbd24d3b-9e06-46c8-bf36-74d5e8096c43","ios":"levelo://app?vid=cbd24d3b-9e06-46c8-bf36-74d5e8096c43"},"vehicle_type_id":"4","last_reported":1732927689,"current_range_meters":38400,"station_id":"ce4bh2p2rcd13ifvqdi0","pricing_plan_id":"cebpf4jnsgd1na2vs0mg"},{"bike_id":"94bae708-d310-44a1-a04e-31b7e85a467c","system_id":"levelo_inurba_marseille","lat":43.30935,"lon":5.40141,"is_reserved":false,"is_disabled":false,"rental_uris":{"android":"levelo://app?vid=94bae708-d310-44a1-a04e-31b7e85a467c","ios":"levelo://app?vid=94bae708-d310-44a1-a04e-31b7e85a467c"},"vehicle_type_id":"4","last_reported":1732927689,"current_range_meters":31200,"station_id":"ce4bgvp2rcd13ifvqct0","pricing_plan_id":"cebpf4jnsgd1na2vs0mg"},{"bike_id":"54d94b0a-4c56-4afd-bd03-de5e41d25987","system_id":"levelo_inurba_marseille","lat":43.29204,"lon":5.35835,"is_reserved":false,"is_disabled":false,"rental_uris":{"android":"levelo://app?vid=54d94b0a-4c56-4afd-bd03-de5e41d25987","ios":"levelo://app?vid=54d94b0a-4c56-4afd-bd03-de5e41d25987"},"vehicle_type_id":"4","last_reported":1732927689,"current_range_meters":38800,"station_id":"ce4bhb12rcd13ifvqel0","pricing_plan_id":"cebpf4jnsgd1na2vs0mg"},{"bike_id":"98037c3a-9b2c-4fc3-b5c9-984ee3607601","system_id":"levelo_inurba_marseille","lat":43.32361,"lon":5.36758,"is_reserved":false,"is_disabled":false,"rental_uris":{"android":"levelo://app?vid=98037c3a-9b2c-4fc3-b5c9-984ee3607601","ios":"levelo://app?vid=98037c3a-9b2c-4fc3-b5c9-984ee3607601"},"vehicle_type_id":"4","last_reported":1732927689,"current_range_meters":19200,"station_id":"","pricing_plan_id":"cebpf4jnsgd1na2vs0mg"},{"bike_id":"2885d54f-ed7f-4788-bd94-87f3a3790be7","system_id":"levelo_inurba_marseille","lat":43.28848,"lon":5.39303,"is_reserved":false,"is_disabled":false,"rental_uris":{"android":"levelo://app?vid=2885d54f-ed7f-4788-bd94-87f3a3790be7","ios":"levelo://app?vid=2885d54f-ed7f-4788-bd94-87f3a3790be7"},"vehicle_type_id":"4","last_reported":1732927689,"current_range_meters":13600,"station_id":"ce4bh2p2rcd13ifvqdi0","pricing_plan_id":"cebpf4jnsgd1na2vs0mg"},{"bike_id":"19d8d449-a0eb-4c0e-9592-0053e853ceac","system_id":"levelo_inurba_marseille","lat":43.33022,"lon":5.39036,"is_reserved":false,"is_disabled":false,"rental_uris":{"android":"levelo://app?vid=19d8d449-a0eb-4c0e-9592-0053e853ceac","ios":"levelo://app?vid=19d8d449-a0eb-4c0e-9592-0053e853ceac"},"vehicle_type_id":"4","last_reported":1732927689,"current_range_meters":36800,"station_id":"ce4bhr92rcd13ifvqhrg","pricing_plan_id":"cebpf4jnsgd1na2vs0mg"},{"bike_id":"d1486dd5-23d4-40bc-bb61-4a3c8126196a","system_id":"levelo_inurba_marseille","lat":43.27348,"lon":5.36233,"is_reserved":false,"is_disabled":true,"rental_uris":{"android":"levelo://app?vid=d1486dd5-23d4-40bc-bb61-4a3c8126196a","ios":"levelo://app?vid=d1486dd5-23d4-40bc-bb61-4a3c8126196a"},"vehicle_type_id":"4","last_reported":1732927689,"current_range_meters":38800,"station_id":"ce4bhbh2rcd13ifvqeo0","pricing_plan_id":"cebpf4jnsgd1na2vs0mg"},{"bike_id":"30c3208d-1783-476f-9dd8-27344b6219bd","system_id":"levelo_inurba_marseille","lat":43.25823,"lon":5.39439,"is_reserved":false,"is_disabled":false,"rental_uris":{"android":"levelo://app?vid=30c3208d-1783-476f-9dd8-27344b6219bd","ios":"levelo://app?vid=30c3208d-1783-476f-9dd8-27344b6219bd"},"vehicle_type_id":"4","last_reported":1732927689,"current_range_meters":37600,"station_id":"ce4bhip2rcd13ifvqft0","pricing_plan_id":"cebpf4jnsgd1na2vs0mg"},{"bike_id":"5dc9edb1-f8c3-4553-889d-f73c08836757","system_id":"levelo_inurba_marseille","lat":43.32483,"lon":5.36565,"is_reserved":false,"is_disabled":true,"rental_uris":{"android":"levelo://app?vid=5dc9edb1-f8c3-4553-889d-f73c08836757","ios":"levelo://app?vid=5dc9edb1-f8c3-4553-889d-f73c08836757"},"vehicle_type_id":"4","last_reported":1732927689,"current_range_meters":6400,"station_id":"ce4bhs12rcd13ifvqhvg","pricing_plan_id":"cebpf4jnsgd1na2vs0mg"},{"bike_id":"47cf5621-bb46-4015-a67e-89a7584abc0d","system_id":"levelo_inurba_marseille","lat":43.30355,"lon":5.41871,"is_reserved":false,"is_disabled":false,"rental_uris":{"android":"levelo://app?vid=47cf5621-bb46-4015-a67e-89a7584abc0d","ios":"levelo://app?vid=47cf5621-bb46-4015-a67e-89a7584abc0d"},"vehicle_type_id":"4","last_reported":1732927689,"current_range_meters":31200,"station_id":"ce4bhop2rcd13ifvqh7g","pricing_plan_id":"cebpf4jnsgd1na2vs0mg"},{"bike_id":"d350231d-a46d-4666-ba51-f12c2e69a01c","system_id":"levelo_inurba_marseille","lat":43.25726,"lon":5.41108,"is_reserved":false,"is_disabled":false,"rental_uris":{"android":"levelo://app?vid=d350231d-a46d-4666-ba51-f12c2e69a01c","ios":"levelo://app?vid=d350231d-a46d-4666-ba51-f12c2e69a01c"},"vehicle_type_id":"4","last_reported":1732927689,"current_range_meters":39200,"station_id":"ce4bhkp2rcd13ifvqgd0","pricing_plan_id":"cebpf4jnsgd1na2vs0mg"},{"bike_id":"4651a703-59f3-466c-b16b-a4f8e06e86f3","system_id":"levelo_inurba_marseille","lat":43.31172,"lon":5.38712,"is_reserved":false,"is_disabled":false,"rental_uris":{"android":"levelo://app?vid=4651a703-59f3-466c-b16b-a4f8e06e86f3","ios":"levelo://app?vid=4651a703-59f3-466c-b16b-a4f8e06e86f3"},"vehicle_type_id":"4","last_reported":1732927689,"current_range_meters":39200,"station_id":"ce4bgv12rcd13ifvqcp0","pricing_plan_id":"cebpf4jnsgd1na2vs0mg"},{"bike_id":"17e69a6c-e451-444d-a02c-b7faaa4464c2","system_id":"levelo_inurba_marseille","lat":43.30801,"lon":5.38137,"is_reserved":false,"is_disabled":false,"rental_uris":{"android":"levelo://app?vid=17e69a6c-e451-444d-a02c-b7faaa4464c2","ios":"levelo://app?vid=17e69a6c-e451-444d-a02c-b7faaa4464c2"},"vehicle_type_id":"4","last_reported":1732927689,"current_range_meters":32000,"station_id":"ce4bgt12rcd13ifvqce0","pricing_plan_id":"cebpf4jnsgd1na2vs0mg"},{"bike_id":"8938b680-b8f0-439b-aa76-77079135e43c","system_id":"levelo_inurba_marseille","lat":43.31532,"lon":5.38026,"is_reserved":false,"is_disabled":false,"rental_uris":{"android":"levelo://app?vid=8938b680-b8f0-439b-aa76-77079135e43c","ios":"levelo://app?vid=8938b680-b8f0-439b-aa76-77079135e43c"},"vehicle_type_id":"4","last_reported":1732927689,"current_range_meters":33600,"station_id":"ce4bhsp2rcd13ifvqi50","pricing_plan_id":"cebpf4jnsgd1na2vs0mg"},{"bike_id":"ab48ff1d-73d7-44c7-9ef3-0adeaaf25f01","system_id":"levelo_inurba_marseille","lat":43.2694,"lon":5.38921,"is_reserved":false,"is_disabled":true,"rental_uris":{"android":"levelo://app?vid=ab48ff1d-73d7-44c7-9ef3-0adeaaf25f01","ios":"levelo://app?vid=ab48ff1d-73d7-44c7-9ef3-0adeaaf25f01"},"vehicle_type_id":"4","last_reported":1732927689,"current_range_meters":12800,"station_id":"ce4bhhh2rcd13ifvqfl0","pricing_plan_id":"cebpf4jnsgd1na2vs0mg"},{"bike_id":"34a919e2-17b1-4650-b548-63094cc7f6aa","system_id":"levelo_inurba_marseille","lat":43.273818,"lon":5.362607,"is_reserved":false,"is_disabled":false,"rental_uris":{"android":"levelo://app?vid=34a919e2-17b1-4650-b548-63094cc7f6aa","ios":"levelo://app?vid=34a919e2-17b1-4650-b548-63094cc7f6aa"},"vehicle_type_id":"4","last_reported":1732927689,"current_range_meters":30800,"station_id":"ce4bhbh2rcd13ifvqeo0","pricing_plan_id":"cebpf4jnsgd1na2vs0mg"},{"bike_id":"7a58c598-17ae-4c84-9a16-3f7c2ac5ee52","system_id":"levelo_inurba_marseille","lat":43.3022,"lon":5.43785,"is_reserved":false,"is_disabled":false,"rental_uris":{"android":"levelo://app?vid=7a58c598-17ae-4c84-9a16-3f7c2ac5ee52","ios":"levelo://app?vid=7a58c598-17ae-4c84-9a16-3f7c2ac5ee52"},"vehicle_type_id":"4","last_reported":1732927689,"current_range_meters":17200,"station_id":"","pricing_plan_id":"cebpf4jnsgd1na2vs0mg"},{"bike_id":"e0630b2a-582d-4859-ab15-1faa89bdcd97","system_id":"levelo_inurba_marseille","lat":43.30434,"lon":5.39749,"is_reserved":false,"is_disabled":false,"rental_uris":{"android":"levelo://app?vid=e0630b2a-582d-4859-ab15-1faa89bdcd97","ios":"levelo://app?vid=e0630b2a-582d-4859-ab15-1faa89bdcd97"},"vehicle_type_id":"4","last_reported":1732927689,"current_range_meters":30000,"station_id":"ce4bh092rcd13ifvqd20","pricing_plan_id":"cebpf4jnsgd1na2vs0mg"},{"bike_id":"94ddd20c-e5b2-4c73-a61a-2ac668abc7d2","system_id":"levelo_inurba_marseille","lat":43.32015,"lon":5.38166,"is_reserved":false,"is_disabled":false,"rental_uris":{"android":"levelo://app?vid=94ddd20c-e5b2-4c73-a61a-2ac668abc7d2","ios":"levelo://app?vid=94ddd20c-e5b2-4c73-a61a-2ac668abc7d2"},"vehicle_type_id":"4","last_reported":1732927689,"current_range_meters":38800,"station_id":"ce4bhr12rcd13ifvqhpg","pricing_plan_id":"cebpf4jnsgd1na2vs0mg"},{"bike_id":"fe2c00d6-fab6-472b-887d-35960cae9038","system_id":"levelo_inurba_marseille","lat":43.25941,"lon":5.40906,"is_reserved":false,"is_disabled":false,"rental_uris":{"android":"levelo://app?vid=fe2c00d6-fab6-472b-887d-35960cae9038","ios":"levelo://app?vid=fe2c00d6-fab6-472b-887d-35960cae9038"},"vehicle_type_id":"4","last_reported":1732927689,"current_range_meters":38800,"station_id":"ce4bhm92rcd13ifvqglg","pricing_plan_id":"cebpf4jnsgd1na2vs0mg"},{"bike_id":"dd44e59f-2fad-4d4c-9388-e21a3b977031","system_id":"levelo_inurba_marseille","lat":43.31996,"lon":5.38155,"is_reserved":false,"is_disabled":false,"rental_uris":{"android":"levelo://app?vid=dd44e59f-2fad-4d4c-9388-e21a3b977031","ios":"levelo://app?vid=dd44e59f-2fad-4d4c-9388-e21a3b977031"},"vehicle_type_id":"4","last_reported":1732927689,"current_range_meters":22800,"station_id":"ce4bhr12rcd13ifvqhpg","pricing_plan_id":"cebpf4jnsgd1na2vs0mg"},{"bike_id":"4035e70a-9b35-49ff-8763-9565717e2e74","system_id":"levelo_inurba_marseille","lat":43.28469,"lon":5.35888,"is_reserved":false,"is_disabled":true,"rental_uris":{"android":"levelo://app?vid=4035e70a-9b35-49ff-8763-9565717e2e74","ios":"levelo://app?vid=4035e70a-9b35-49ff-8763-9565717e2e74"},"vehicle_type_id":"4","last_reported":1732927689,"current_range_meters":8000,"station_id":"ce4bhah2rcd13ifvqei0","pricing_plan_id":"cebpf4jnsgd1na2vs0mg"},{"bike_id":"bc749360-3ce4-4dd6-a0ac-83aa82c323a7","system_id":"levelo_inurba_marseille","lat":43.28155,"lon":5.42639,"is_reserved":false,"is_disabled":true,"rental_uris":{"android":"levelo://app?vid=bc749360-3ce4-4dd6-a0ac-83aa82c323a7","ios":"levelo://app?vid=bc749360-3ce4-4dd6-a0ac-83aa82c323a7"},"vehicle_type_id":"4","last_reported":1732927689,"current_range_meters":37600,"station_id":"ce4bhnh2rcd13ifvqgug","pricing_plan_id":"cebpf4jnsgd1na2vs0mg"},{"bike_id":"a5083c7e-4a01-446d-8f78-53cc7c6d43ce","system_id":"levelo_inurba_marseille","lat":43.23194,"lon":5.35554,"is_reserved":false,"is_disabled":false,"rental_uris":{"android":"levelo://app?vid=a5083c7e-4a01-446d-8f78-53cc7c6d43ce","ios":"levelo://app?vid=a5083c7e-4a01-446d-8f78-53cc7c6d43ce"},"vehicle_type_id":"4","last_reported":1732927689,"current_range_meters":27200,"station_id":"ce4bhu92rcd13ifvqi70","pricing_plan_id":"cebpf4jnsgd1na2vs0mg"},{"bike_id":"4d4c884f-6933-49c0-8899-f9856d90f44d","system_id":"levelo_inurba_marseille","lat":43.29748,"lon":5.37971,"is_reserved":false,"is_disabled":true,"rental_uris":{"android":"levelo://app?vid=4d4c884f-6933-49c0-8899-f9856d90f44d","ios":"levelo://app?vid=4d4c884f-6933-49c0-8899-f9856d90f44d"},"vehicle_type_id":"4","last_reported":1732927689,"current_range_meters":0,"station_id":"","pricing_plan_id":"cebpf4jnsgd1na2vs0mg"},{"bike_id":"0294a25a-0a78-468c-a2ff-3674f9d0720d","system_id":"levelo_inurba_marseille","lat":43.34145,"lon":5.40907,"is_reserved":false,"is_disabled":false,"rental_uris":{"android":"levelo://app?vid=0294a25a-0a78-468c-a2ff-3674f9d0720d","ios":"levelo://app?vid=0294a25a-0a78-468c-a2ff-3674f9d0720d"},"vehicle_type_id":"4","last_reported":1732927689,"current_range_meters":38000,"station_id":"ce4bhqh2rcd13ifvqhlg","pricing_plan_id":"cebpf4jnsgd1na2vs0mg"},{"bike_id":"31fd05c2-ccd8-4263-9f30-869473540080","system_id":"levelo_inurba_marseille","lat":43.31365,"lon":5.38496,"is_reserved":false,"is_disabled":false,"rental_uris":{"android":"levelo://app?vid=31fd05c2-ccd8-4263-9f30-869473540080","ios":"levelo://app?vid=31fd05c2-ccd8-4263-9f30-869473540080"},"vehicle_type_id":"4","last_reported":1732927689,"current_range_meters":28400,"station_id":"ce4bgt92rcd13ifvqcf0","pricing_plan_id":"cebpf4jnsgd1na2vs0mg"},{"bike_id":"b2934c94-af9d-4f2f-8b68-f653a5eb02ff","system_id":"levelo_inurba_marseille","lat":43.25079,"lon":5.39519,"is_reserved":false,"is_disabled":false,"rental_uris":{"android":"levelo://app?vid=b2934c94-af9d-4f2f-8b68-f653a5eb02ff","ios":"levelo://app?vid=b2934c94-af9d-4f2f-8b68-f653a5eb02ff"},"vehicle_type_id":"4","last_reported":1732927689,"current_range_meters":39200,"station_id":"ce4bhm12rcd13ifvqgkg","pricing_plan_id":"cebpf4jnsgd1na2vs0mg"},{"bike_id":"ec9ad250-db01-42b8-9736-15127403fe10","system_id":"levelo_inurba_marseille","lat":43.313673,"lon":5.38494,"is_reserved":false,"is_disabled":false,"rental_uris":{"android":"levelo://app?vid=ec9ad250-db01-42b8-9736-15127403fe10","ios":"levelo://app?vid=ec9ad250-db01-42b8-9736-15127403fe10"},"vehicle_type_id":"4","last_reported":1732927689,"current_range_meters":28800,"station_id":"ce4bgt92rcd13ifvqcf0","pricing_plan_id":"cebpf4jnsgd1na2vs0mg"},{"bike_id":"9009be37-c6b1-406b-b0a8-fbab355f715e","system_id":"levelo_inurba_marseille","lat":43.33763,"lon":5.37495,"is_reserved":false,"is_disabled":false,"rental_uris":{"android":"levelo://app?vid=9009be37-c6b1-406b-b0a8-fbab355f715e","ios":"levelo://app?vid=9009be37-c6b1-406b-b0a8-fbab355f715e"},"vehicle_type_id":"4","last_reported":1732927689,"current_range_meters":38800,"station_id":"","pricing_plan_id":"cebpf4jnsgd1na2vs0mg"},{"bike_id":"3fd3c9e9-2a71-460f-909c-9685f3d1b7d4","system_id":"levelo_inurba_marseille","lat":43.25722,"lon":5.41108,"is_reserved":false,"is_disabled":false,"rental_uris":{"android":"levelo://app?vid=3fd3c9e9-2a71-460f-909c-9685f3d1b7d4","ios":"levelo://app?vid=3fd3c9e9-2a71-460f-909c-9685f3d1b7d4"},"vehicle_type_id":"4","last_reported":1732927689,"current_range_meters":28400,"station_id":"ce4bhkp2rcd13ifvqgd0","pricing_plan_id":"cebpf4jnsgd1na2vs0mg"},{"bike_id":"c81e7d9f-2f5c-4377-8a55-0fc1c7e25641","system_id":"levelo_inurba_marseille","lat":43.31713,"lon":5.43709,"is_reserved":false,"is_disabled":false,"rental_uris":{"android":"levelo://app?vid=c81e7d9f-2f5c-4377-8a55-0fc1c7e25641","ios":"levelo://app?vid=c81e7d9f-2f5c-4377-8a55-0fc1c7e25641"},"vehicle_type_id":"4","last_reported":1732927689,"current_range_meters":36000,"station_id":"ce4bhp92rcd13ifvqhcg","pricing_plan_id":"cebpf4jnsgd1na2vs0mg"},{"bike_id":"b46b606e-5726-4a29-9d8f-f480ac90a177","system_id":"levelo_inurba_marseille","lat":43.29703,"lon":5.36613,"is_reserved":false,"is_disabled":false,"rental_uris":{"android":"levelo://app?vid=b46b606e-5726-4a29-9d8f-f480ac90a177","ios":"levelo://app?vid=b46b606e-5726-4a29-9d8f-f480ac90a177"},"vehicle_type_id":"4","last_reported":1732927689,"current_range_meters":16400,"station_id":"ce4bgn12rcd13ifvqbt0","pricing_plan_id":"cebpf4jnsgd1na2vs0mg"},{"bike_id":"d2807836-6000-47ca-b96b-95836404774c","system_id":"levelo_inurba_marseille","lat":43.30211,"lon":5.39389,"is_reserved":false,"is_disabled":true,"rental_uris":{"android":"levelo://app?vid=d2807836-6000-47ca-b96b-95836404774c","ios":"levelo://app?vid=d2807836-6000-47ca-b96b-95836404774c"},"vehicle_type_id":"4","last_reported":1732927689,"current_range_meters":10800,"station_id":"","pricing_plan_id":"cebpf4jnsgd1na2vs0mg"},{"bike_id":"be1ea8ae-bb6c-4cc9-9878-4dd6e7c328d6","system_id":"levelo_inurba_marseille","lat":43.32105,"lon":5.36781,"is_reserved":false,"is_disabled":false,"rental_uris":{"android":"levelo://app?vid=be1ea8ae-bb6c-4cc9-9878-4dd6e7c328d6","ios":"levelo://app?vid=be1ea8ae-bb6c-4cc9-9878-4dd6e7c328d6"},"vehicle_type_id":"4","last_reported":1732927689,"current_range_meters":33200,"station_id":"ce4bhrh2rcd13ifvqhug","pricing_plan_id":"cebpf4jnsgd1na2vs0mg"},{"bike_id":"8c9876ea-1b04-44eb-a3de-6d20def82905","system_id":"levelo_inurba_marseille","lat":43.2843,"lon":5.34979,"is_reserved":false,"is_disabled":false,"rental_uris":{"android":"levelo://app?vid=8c9876ea-1b04-44eb-a3de-6d20def82905","ios":"levelo://app?vid=8c9876ea-1b04-44eb-a3de-6d20def82905"},"vehicle_type_id":"4","last_reported":1732927689,"current_range_meters":8400,"station_id":"ce4bhbh2rcd13ifvqepg","pricing_plan_id":"cebpf4jnsgd1na2vs0mg"},{"bike_id":"b1ac7571-eb4e-4f10-b111-5adbf1306f57","system_id":"levelo_inurba_marseille","lat":43.28462,"lon":5.35885,"is_reserved":false,"is_disabled":false,"rental_uris":{"android":"levelo://app?vid=b1ac7571-eb4e-4f10-b111-5adbf1306f57","ios":"levelo://app?vid=b1ac7571-eb4e-4f10-b111-5adbf1306f57"},"vehicle_type_id":"4","last_reported":1732927689,"current_range_meters":38800,"station_id":"ce4bhah2rcd13ifvqei0","pricing_plan_id":"cebpf4jnsgd1na2vs0mg"},{"bike_id":"82c2ea5e-645e-40d3-8db4-9be2f81924ed","system_id":"levelo_inurba_marseille","lat":43.28713,"lon":5.37932,"is_reserved":false,"is_disabled":false,"rental_uris":{"android":"levelo://app?vid=82c2ea5e-645e-40d3-8db4-9be2f81924ed","ios":"levelo://app?vid=82c2ea5e-645e-40d3-8db4-9be2f81924ed"},"vehicle_type_id":"4","last_reported":1732927689,"current_range_meters":26800,"station_id":"ce4bh9p2rcd13ifvqec0","pricing_plan_id":"cebpf4jnsgd1na2vs0mg"},{"bike_id":"4dab0eea-4807-419c-af47-d49102c38416","system_id":"levelo_inurba_marseille","lat":43.30334,"lon":5.40441,"is_reserved":false,"is_disabled":false,"rental_uris":{"android":"levelo://app?vid=4dab0eea-4807-419c-af47-d49102c38416","ios":"levelo://app?vid=4dab0eea-4807-419c-af47-d49102c38416"},"vehicle_type_id":"4","last_reported":1732927689,"current_range_meters":17200,"station_id":"ce4bh012rcd13ifvqd10","pricing_plan_id":"cebpf4jnsgd1na2vs0mg"},{"bike_id":"77be03dd-3d99-4535-adc0-1c7477c4a3a3","system_id":"levelo_inurba_marseille","lat":43.32287,"lon":5.38274,"is_reserved":false,"is_disabled":false,"rental_uris":{"android":"levelo://app?vid=77be03dd-3d99-4535-adc0-1c7477c4a3a3","ios":"levelo://app?vid=77be03dd-3d99-4535-adc0-1c7477c4a3a3"},"vehicle_type_id":"4","last_reported":1732927689,"current_range_meters":38800,"station_id":"ce4bhr12rcd13ifvqhqg","pricing_plan_id":"cebpf4jnsgd1na2vs0mg"},{"bike_id":"8857916b-5ad7-42a9-ba43-1c9c57aaad48","system_id":"levelo_inurba_marseille","lat":43.29175,"lon":5.37161,"is_reserved":false,"is_disabled":false,"rental_uris":{"android":"levelo://app?vid=8857916b-5ad7-42a9-ba43-1c9c57aaad48","ios":"levelo://app?vid=8857916b-5ad7-42a9-ba43-1c9c57aaad48"},"vehicle_type_id":"4","last_reported":1732927689,"current_range_meters":20000,"station_id":"ce4bha92rcd13ifvqeh0","pricing_plan_id":"cebpf4jnsgd1na2vs0mg"},{"bike_id":"f417758e-d5f5-4e46-8e61-41e3114e14c2","system_id":"levelo_inurba_marseille","lat":43.30143,"lon":5.37395,"is_reserved":false,"is_disabled":true,"rental_uris":{"android":"levelo://app?vid=f417758e-d5f5-4e46-8e61-41e3114e14c2","ios":"levelo://app?vid=f417758e-d5f5-4e46-8e61-41e3114e14c2"},"vehicle_type_id":"4","last_reported":1732927689,"current_range_meters":38800,"station_id":"ce4bgs92rcd13ifvqcc0","pricing_plan_id":"cebpf4jnsgd1na2vs0mg"},{"bike_id":"9885a916-0c71-47c7-a92e-d9a2093be9b3","system_id":"levelo_inurba_marseille","lat":43.27998,"lon":5.41663,"is_reserved":false,"is_disabled":false,"rental_uris":{"android":"levelo://app?vid=9885a916-0c71-47c7-a92e-d9a2093be9b3","ios":"levelo://app?vid=9885a916-0c71-47c7-a92e-d9a2093be9b3"},"vehicle_type_id":"4","last_reported":1732927689,"current_range_meters":8000,"station_id":"ce4bho12rcd13ifvqh1g","pricing_plan_id":"cebpf4jnsgd1na2vs0mg"},{"bike_id":"6c0c3074-75f3-48d9-ab05-ae44aae8167d","system_id":"levelo_inurba_marseille","lat":43.24803,"lon":5.37451,"is_reserved":false,"is_disabled":false,"rental_uris":{"android":"levelo://app?vid=6c0c3074-75f3-48d9-ab05-ae44aae8167d","ios":"levelo://app?vid=6c0c3074-75f3-48d9-ab05-ae44aae8167d"},"vehicle_type_id":"4","last_reported":1732927689,"current_range_meters":40000,"station_id":"ce4bhgh2rcd13ifvqfb0","pricing_plan_id":"cebpf4jnsgd1na2vs0mg"},{"bike_id":"ca20ea45-5a00-49af-88ae-1db20fe0c34f","system_id":"levelo_inurba_marseille","lat":43.26943,"lon":5.3892,"is_reserved":false,"is_disabled":true,"rental_uris":{"android":"levelo://app?vid=ca20ea45-5a00-49af-88ae-1db20fe0c34f","ios":"levelo://app?vid=ca20ea45-5a00-49af-88ae-1db20fe0c34f"},"vehicle_type_id":"4","last_reported":1732927689,"current_range_meters":11200,"station_id":"ce4bhhh2rcd13ifvqfl0","pricing_plan_id":"cebpf4jnsgd1na2vs0mg"},{"bike_id":"e8fa7be1-2407-41a7-b843-e7c70f1917ef","system_id":"levelo_inurba_marseille","lat":43.27618,"lon":5.361,"is_reserved":false,"is_disabled":true,"rental_uris":{"android":"levelo://app?vid=e8fa7be1-2407-41a7-b843-e7c70f1917ef","ios":"levelo://app?vid=e8fa7be1-2407-41a7-b843-e7c70f1917ef"},"vehicle_type_id":"4","last_reported":1732927689,"current_range_meters":0,"station_id":"ce4bgj92rcd13ifvqbe0","pricing_plan_id":"cebpf4jnsgd1na2vs0mg"},{"bike_id":"df0dfc86-7540-4a0c-8976-9af5497d0a2c","system_id":"levelo_inurba_marseille","lat":43.337444,"lon":5.374475,"is_reserved":false,"is_disabled":false,"rental_uris":{"android":"levelo://app?vid=df0dfc86-7540-4a0c-8976-9af5497d0a2c","ios":"levelo://app?vid=df0dfc86-7540-4a0c-8976-9af5497d0a2c"},"vehicle_type_id":"4","last_reported":1732927689,"current_range_meters":24400,"station_id":"","pricing_plan_id":"cebpf4jnsgd1na2vs0mg"},{"bike_id":"ff814e2b-967b-4af8-9776-67087772e9db","system_id":"levelo_inurba_marseille","lat":43.29701,"lon":5.37291,"is_reserved":false,"is_disabled":false,"rental_uris":{"android":"levelo://app?vid=ff814e2b-967b-4af8-9776-67087772e9db","ios":"levelo://app?vid=ff814e2b-967b-4af8-9776-67087772e9db"},"vehicle_type_id":"4","last_reported":1732927689,"current_range_meters":37600,"station_id":"ce4bgk12rcd13ifvqbj0","pricing_plan_id":"cebpf4jnsgd1na2vs0mg"},{"bike_id":"d6a0ff66-87dd-49de-a09b-bea530d1c972","system_id":"levelo_inurba_marseille","lat":43.2558,"lon":5.38233,"is_reserved":false,"is_disabled":true,"rental_uris":{"android":"levelo://app?vid=d6a0ff66-87dd-49de-a09b-bea530d1c972","ios":"levelo://app?vid=d6a0ff66-87dd-49de-a09b-bea530d1c972"},"vehicle_type_id":"4","last_reported":1732927689,"current_range_meters":30000,"station_id":"ce4bhih2rcd13ifvqfs0","pricing_plan_id":"cebpf4jnsgd1na2vs0mg"},{"bike_id":"b64c6095-9d78-4b69-b855-374d2a38d0a7","system_id":"levelo_inurba_marseille","lat":43.27619,"lon":5.36114,"is_reserved":false,"is_disabled":false,"rental_uris":{"android":"levelo://app?vid=b64c6095-9d78-4b69-b855-374d2a38d0a7","ios":"levelo://app?vid=b64c6095-9d78-4b69-b855-374d2a38d0a7"},"vehicle_type_id":"4","last_reported":1732927689,"current_range_meters":39200,"station_id":"ce4bgj92rcd13ifvqbe0","pricing_plan_id":"cebpf4jnsgd1na2vs0mg"},{"bike_id":"5edaa513-18ec-4cef-a923-f5208a28c4a2","system_id":"levelo_inurba_marseille","lat":43.29009,"lon":5.35616,"is_reserved":false,"is_disabled":false,"rental_uris":{"android":"levelo://app?vid=5edaa513-18ec-4cef-a923-f5208a28c4a2","ios":"levelo://app?vid=5edaa513-18ec-4cef-a923-f5208a28c4a2"},"vehicle_type_id":"4","last_reported":1732927689,"current_range_meters":30000,"station_id":"ce4bhb92rcd13ifvqen0","pricing_plan_id":"cebpf4jnsgd1na2vs0mg"},{"bike_id":"5475a59e-dc1c-4611-9183-c9b725626a4b","system_id":"levelo_inurba_marseille","lat":43.24076,"lon":5.3776,"is_reserved":false,"is_disabled":false,"rental_uris":{"android":"levelo://app?vid=5475a59e-dc1c-4611-9183-c9b725626a4b","ios":"levelo://app?vid=5475a59e-dc1c-4611-9183-c9b725626a4b"},"vehicle_type_id":"4","last_reported":1732927689,"current_range_meters":6000,"station_id":"ce4bhnp2rcd13ifvqgvg","pricing_plan_id":"cebpf4jnsgd1na2vs0mg"},{"bike_id":"3ca8d527-6c31-4160-8bc9-0dbae13780f9","system_id":"levelo_inurba_marseille","lat":43.28463,"lon":5.35876,"is_reserved":false,"is_disabled":true,"rental_uris":{"android":"levelo://app?vid=3ca8d527-6c31-4160-8bc9-0dbae13780f9","ios":"levelo://app?vid=3ca8d527-6c31-4160-8bc9-0dbae13780f9"},"vehicle_type_id":"4","last_reported":1732927689,"current_range_meters":20400,"station_id":"ce4bhah2rcd13ifvqei0","pricing_plan_id":"cebpf4jnsgd1na2vs0mg"},{"bike_id":"c074ca47-64f6-4069-b08a-8151f9f4825b","system_id":"levelo_inurba_marseille","lat":43.28269,"lon":5.35056,"is_reserved":false,"is_disabled":false,"rental_uris":{"android":"levelo://app?vid=c074ca47-64f6-4069-b08a-8151f9f4825b","ios":"levelo://app?vid=c074ca47-64f6-4069-b08a-8151f9f4825b"},"vehicle_type_id":"4","last_reported":1732927689,"current_range_meters":28000,"station_id":"ce4bhbp2rcd13ifvqerg","pricing_plan_id":"cebpf4jnsgd1na2vs0mg"},{"bike_id":"92de0aec-7fd7-4b0f-836a-d45b7677365d","system_id":"levelo_inurba_marseille","lat":43.25007,"lon":5.38924,"is_reserved":false,"is_disabled":false,"rental_uris":{"android":"levelo://app?vid=92de0aec-7fd7-4b0f-836a-d45b7677365d","ios":"levelo://app?vid=92de0aec-7fd7-4b0f-836a-d45b7677365d"},"vehicle_type_id":"4","last_reported":1732927689,"current_range_meters":40000,"station_id":"ce4bhgp2rcd13ifvqfd0","pricing_plan_id":"cebpf4jnsgd1na2vs0mg"},{"bike_id":"0651e545-d640-4c22-a85d-367b9b3a77da","system_id":"levelo_inurba_marseille","lat":43.30424,"lon":5.41288,"is_reserved":false,"is_disabled":false,"rental_uris":{"android":"levelo://app?vid=0651e545-d640-4c22-a85d-367b9b3a77da","ios":"levelo://app?vid=0651e545-d640-4c22-a85d-367b9b3a77da"},"vehicle_type_id":"4","last_reported":1732927689,"current_range_meters":39200,"station_id":"ce4bhop2rcd13ifvqh8g","pricing_plan_id":"cebpf4jnsgd1na2vs0mg"},{"bike_id":"0988cc42-55bb-4f3e-a0fc-1916f1b28c4e","system_id":"levelo_inurba_marseille","lat":43.3108,"lon":5.38353,"is_reserved":false,"is_disabled":false,"rental_uris":{"android":"levelo://app?vid=0988cc42-55bb-4f3e-a0fc-1916f1b28c4e","ios":"levelo://app?vid=0988cc42-55bb-4f3e-a0fc-1916f1b28c4e"},"vehicle_type_id":"4","last_reported":1732927689,"current_range_meters":37600,"station_id":"ce4bgv92rcd13ifvqcr0","pricing_plan_id":"cebpf4jnsgd1na2vs0mg"},{"bike_id":"4a2be555-d056-454c-bed3-fe781ba86f8e","system_id":"levelo_inurba_marseille","lat":43.25889,"lon":5.39954,"is_reserved":false,"is_disabled":true,"rental_uris":{"android":"levelo://app?vid=4a2be555-d056-454c-bed3-fe781ba86f8e","ios":"levelo://app?vid=4a2be555-d056-454c-bed3-fe781ba86f8e"},"vehicle_type_id":"4","last_reported":1732927689,"current_range_meters":0,"station_id":"","pricing_plan_id":"cebpf4jnsgd1na2vs0mg"},{"bike_id":"8f22ce9f-b266-4291-a09b-63ff117ff1ad","system_id":"levelo_inurba_marseille","lat":43.32479,"lon":5.3657,"is_reserved":false,"is_disabled":false,"rental_uris":{"android":"levelo://app?vid=8f22ce9f-b266-4291-a09b-63ff117ff1ad","ios":"levelo://app?vid=8f22ce9f-b266-4291-a09b-63ff117ff1ad"},"vehicle_type_id":"4","last_reported":1732927689,"current_range_meters":38400,"station_id":"ce4bhs12rcd13ifvqhvg","pricing_plan_id":"cebpf4jnsgd1na2vs0mg"},{"bike_id":"e7409b42-c149-4b21-bac4-0ccaf55b69e0","system_id":"levelo_inurba_marseille","lat":43.29606,"lon":5.38083,"is_reserved":false,"is_disabled":true,"rental_uris":{"android":"levelo://app?vid=e7409b42-c149-4b21-bac4-0ccaf55b69e0","ios":"levelo://app?vid=e7409b42-c149-4b21-bac4-0ccaf55b69e0"},"vehicle_type_id":"4","last_reported":1732927689,"current_range_meters":33200,"station_id":"ce4bgl12rcd13ifvqbo0","pricing_plan_id":"cebpf4jnsgd1na2vs0mg"},{"bike_id":"de65f4e9-5093-4fcc-9cb2-67f63896209f","system_id":"levelo_inurba_marseille","lat":43.31354,"lon":5.38497,"is_reserved":false,"is_disabled":false,"rental_uris":{"android":"levelo://app?vid=de65f4e9-5093-4fcc-9cb2-67f63896209f","ios":"levelo://app?vid=de65f4e9-5093-4fcc-9cb2-67f63896209f"},"vehicle_type_id":"4","last_reported":1732927689,"current_range_meters":38800,"station_id":"ce4bgt92rcd13ifvqcf0","pricing_plan_id":"cebpf4jnsgd1na2vs0mg"},{"bike_id":"149cbc14-0894-4485-abf0-1d0584f14756","system_id":"levelo_inurba_marseille","lat":43.27809,"lon":5.40717,"is_reserved":false,"is_disabled":false,"rental_uris":{"android":"levelo://app?vid=149cbc14-0894-4485-abf0-1d0584f14756","ios":"levelo://app?vid=149cbc14-0894-4485-abf0-1d0584f14756"},"vehicle_type_id":"4","last_reported":1732927689,"current_range_meters":40000,"station_id":"ce4bhnh2rcd13ifvqgtg","pricing_plan_id":"cebpf4jnsgd1na2vs0mg"},{"bike_id":"8ac1d851-4d76-4c23-a9e9-b3ad0f0f4bf1","system_id":"levelo_inurba_marseille","lat":43.32339,"lon":5.40624,"is_reserved":false,"is_disabled":false,"rental_uris":{"android":"levelo://app?vid=8ac1d851-4d76-4c23-a9e9-b3ad0f0f4bf1","ios":"levelo://app?vid=8ac1d851-4d76-4c23-a9e9-b3ad0f0f4bf1"},"vehicle_type_id":"4","last_reported":1732927689,"current_range_meters":38800,"station_id":"ce4bhq92rcd13ifvqhjg","pricing_plan_id":"cebpf4jnsgd1na2vs0mg"},{"bike_id":"fd224d5d-fd08-49c2-a474-aa715a23a2a9","system_id":"levelo_inurba_marseille","lat":43.25869,"lon":5.39896,"is_reserved":false,"is_disabled":false,"rental_uris":{"android":"levelo://app?vid=fd224d5d-fd08-49c2-a474-aa715a23a2a9","ios":"levelo://app?vid=fd224d5d-fd08-49c2-a474-aa715a23a2a9"},"vehicle_type_id":"4","last_reported":1732927689,"current_range_meters":38000,"station_id":"ce4bhl92rcd13ifvqghg","pricing_plan_id":"cebpf4jnsgd1na2vs0mg"},{"bike_id":"80ee5806-271f-4b24-a602-2dc27d804313","system_id":"levelo_inurba_marseille","lat":43.32111,"lon":5.36774,"is_reserved":false,"is_disabled":false,"rental_uris":{"android":"levelo://app?vid=80ee5806-271f-4b24-a602-2dc27d804313","ios":"levelo://app?vid=80ee5806-271f-4b24-a602-2dc27d804313"},"vehicle_type_id":"4","last_reported":1732927689,"current_range_meters":11600,"station_id":"ce4bhrh2rcd13ifvqhug","pricing_plan_id":"cebpf4jnsgd1na2vs0mg"},{"bike_id":"a99e441f-fcb3-4edf-8132-a5c34ea369bf","system_id":"levelo_inurba_marseille","lat":43.26943,"lon":5.40248,"is_reserved":false,"is_disabled":false,"rental_uris":{"android":"levelo://app?vid=a99e441f-fcb3-4edf-8132-a5c34ea369bf","ios":"levelo://app?vid=a99e441f-fcb3-4edf-8132-a5c34ea369bf"},"vehicle_type_id":"4","last_reported":1732927689,"current_range_meters":38800,"station_id":"cjm6bp8fraef2m0cb0m0","pricing_plan_id":"cebpf4jnsgd1na2vs0mg"},{"bike_id":"1d70e936-a5c9-4092-b55e-bd5c3d620336","system_id":"levelo_inurba_marseille","lat":43.28104,"lon":5.37838,"is_reserved":false,"is_disabled":false,"rental_uris":{"android":"levelo://app?vid=1d70e936-a5c9-4092-b55e-bd5c3d620336","ios":"levelo://app?vid=1d70e936-a5c9-4092-b55e-bd5c3d620336"},"vehicle_type_id":"4","last_reported":1732927689,"current_range_meters":24400,"station_id":"ce4bha12rcd13ifvqee0","pricing_plan_id":"cebpf4jnsgd1na2vs0mg"},{"bike_id":"3032096e-cca7-4267-a12b-d258401708bb","system_id":"levelo_inurba_marseille","lat":43.28044,"lon":5.36942,"is_reserved":false,"is_disabled":false,"rental_uris":{"android":"levelo://app?vid=3032096e-cca7-4267-a12b-d258401708bb","ios":"levelo://app?vid=3032096e-cca7-4267-a12b-d258401708bb"},"vehicle_type_id":"4","last_reported":1732927689,"current_range_meters":38800,"station_id":"ce4bha12rcd13ifvqef0","pricing_plan_id":"cebpf4jnsgd1na2vs0mg"},{"bike_id":"f77c946c-c6e5-452b-9a5e-5f2df84b15d2","system_id":"levelo_inurba_marseille","lat":43.30424,"lon":5.39747,"is_reserved":false,"is_disabled":true,"rental_uris":{"android":"levelo://app?vid=f77c946c-c6e5-452b-9a5e-5f2df84b15d2","ios":"levelo://app?vid=f77c946c-c6e5-452b-9a5e-5f2df84b15d2"},"vehicle_type_id":"4","last_reported":1732927689,"current_range_meters":26800,"station_id":"ce4bh092rcd13ifvqd20","pricing_plan_id":"cebpf4jnsgd1na2vs0mg"},{"bike_id":"caec5743-9551-49a1-bc6f-66ea9df752cc","system_id":"levelo_inurba_marseille","lat":43.33026,"lon":5.39049,"is_reserved":false,"is_disabled":false,"rental_uris":{"android":"levelo://app?vid=caec5743-9551-49a1-bc6f-66ea9df752cc","ios":"levelo://app?vid=caec5743-9551-49a1-bc6f-66ea9df752cc"},"vehicle_type_id":"4","last_reported":1732927689,"current_range_meters":34800,"station_id":"ce4bhr92rcd13ifvqhrg","pricing_plan_id":"cebpf4jnsgd1na2vs0mg"},{"bike_id":"f5e0b017-caa2-4d39-b9cf-f124b690de97","system_id":"levelo_inurba_marseille","lat":43.31124,"lon":5.37763,"is_reserved":false,"is_disabled":false,"rental_uris":{"android":"levelo://app?vid=f5e0b017-caa2-4d39-b9cf-f124b690de97","ios":"levelo://app?vid=f5e0b017-caa2-4d39-b9cf-f124b690de97"},"vehicle_type_id":"4","last_reported":1732927689,"current_range_meters":26800,"station_id":"ce4bgt92rcd13ifvqcg0","pricing_plan_id":"cebpf4jnsgd1na2vs0mg"},{"bike_id":"981f5323-76ee-4aff-abdb-308b2ece5ca8","system_id":"levelo_inurba_marseille","lat":43.337221,"lon":5.391809,"is_reserved":false,"is_disabled":false,"rental_uris":{"android":"levelo://app?vid=981f5323-76ee-4aff-abdb-308b2ece5ca8","ios":"levelo://app?vid=981f5323-76ee-4aff-abdb-308b2ece5ca8"},"vehicle_type_id":"4","last_reported":1732927689,"current_range_meters":11600,"station_id":"ce4bhr92rcd13ifvqhsg","pricing_plan_id":"cebpf4jnsgd1na2vs0mg"},{"bike_id":"81d9f7be-c3c6-4233-bf11-948e6f22debc","system_id":"levelo_inurba_marseille","lat":43.32361,"lon":5.38884,"is_reserved":false,"is_disabled":false,"rental_uris":{"android":"levelo://app?vid=81d9f7be-c3c6-4233-bf11-948e6f22debc","ios":"levelo://app?vid=81d9f7be-c3c6-4233-bf11-948e6f22debc"},"vehicle_type_id":"4","last_reported":1732927689,"current_range_meters":34000,"station_id":"ce4bhqp2rcd13ifvqhog","pricing_plan_id":"cebpf4jnsgd1na2vs0mg"},{"bike_id":"1eede84d-8533-480b-beca-64379132784d","system_id":"levelo_inurba_marseille","lat":43.33026,"lon":5.39039,"is_reserved":false,"is_disabled":false,"rental_uris":{"android":"levelo://app?vid=1eede84d-8533-480b-beca-64379132784d","ios":"levelo://app?vid=1eede84d-8533-480b-beca-64379132784d"},"vehicle_type_id":"4","last_reported":1732927689,"current_range_meters":38800,"station_id":"ce4bhr92rcd13ifvqhrg","pricing_plan_id":"cebpf4jnsgd1na2vs0mg"},{"bike_id":"def90535-8063-4c54-b688-08f7d163ce9a","system_id":"levelo_inurba_marseille","lat":43.29425,"lon":5.38605,"is_reserved":false,"is_disabled":true,"rental_uris":{"android":"levelo://app?vid=def90535-8063-4c54-b688-08f7d163ce9a","ios":"levelo://app?vid=def90535-8063-4c54-b688-08f7d163ce9a"},"vehicle_type_id":"4","last_reported":1732927689,"current_range_meters":0,"station_id":"ce4bh2h2rcd13ifvqdh0","pricing_plan_id":"cebpf4jnsgd1na2vs0mg"},{"bike_id":"af97a686-7dba-4ece-b2c8-70582f2b6789","system_id":"levelo_inurba_marseille","lat":43.25118,"lon":5.40316,"is_reserved":false,"is_disabled":false,"rental_uris":{"android":"levelo://app?vid=af97a686-7dba-4ece-b2c8-70582f2b6789","ios":"levelo://app?vid=af97a686-7dba-4ece-b2c8-70582f2b6789"},"vehicle_type_id":"4","last_reported":1732927689,"current_range_meters":40000,"station_id":"ce4bhlh2rcd13ifvqgig","pricing_plan_id":"cebpf4jnsgd1na2vs0mg"},{"bike_id":"dc92e0a1-8285-4f6f-b814-65daaa82340e","system_id":"levelo_inurba_marseille","lat":43.2694,"lon":5.40251,"is_reserved":false,"is_disabled":false,"rental_uris":{"android":"levelo://app?vid=dc92e0a1-8285-4f6f-b814-65daaa82340e","ios":"levelo://app?vid=dc92e0a1-8285-4f6f-b814-65daaa82340e"},"vehicle_type_id":"4","last_reported":1732927689,"current_range_meters":16800,"station_id":"cjm6bp8fraef2m0cb0m0","pricing_plan_id":"cebpf4jnsgd1na2vs0mg"},{"bike_id":"b9cfc5ba-ce6e-4df3-8dc7-2b5010abbd64","system_id":"levelo_inurba_marseille","lat":43.28847,"lon":5.39312,"is_reserved":false,"is_disabled":false,"rental_uris":{"android":"levelo://app?vid=b9cfc5ba-ce6e-4df3-8dc7-2b5010abbd64","ios":"levelo://app?vid=b9cfc5ba-ce6e-4df3-8dc7-2b5010abbd64"},"vehicle_type_id":"4","last_reported":1732927689,"current_range_meters":4400,"station_id":"ce4bh2p2rcd13ifvqdi0","pricing_plan_id":"cebpf4jnsgd1na2vs0mg"},{"bike_id":"ab1db49f-701c-4711-8b20-531372b5e60f","system_id":"levelo_inurba_marseille","lat":43.326288,"lon":5.375575,"is_reserved":false,"is_disabled":false,"rental_uris":{"android":"levelo://app?vid=ab1db49f-701c-4711-8b20-531372b5e60f","ios":"levelo://app?vid=ab1db49f-701c-4711-8b20-531372b5e60f"},"vehicle_type_id":"4","last_reported":1732927689,"current_range_meters":34000,"station_id":"","pricing_plan_id":"cebpf4jnsgd1na2vs0mg"},{"bike_id":"29a80c71-9648-4a26-b6c9-5f69092eaa01","system_id":"levelo_inurba_marseille","lat":43.2707,"lon":5.4228,"is_reserved":false,"is_disabled":true,"rental_uris":{"android":"levelo://app?vid=29a80c71-9648-4a26-b6c9-5f69092eaa01","ios":"levelo://app?vid=29a80c71-9648-4a26-b6c9-5f69092eaa01"},"vehicle_type_id":"4","last_reported":1732927689,"current_range_meters":38800,"station_id":"ce4bhk92rcd13ifvqgb0","pricing_plan_id":"cebpf4jnsgd1na2vs0mg"},{"bike_id":"6179da37-d06b-4e7f-84ec-990f5fbc58c6","system_id":"levelo_inurba_marseille","lat":43.30791,"lon":5.3814,"is_reserved":false,"is_disabled":false,"rental_uris":{"android":"levelo://app?vid=6179da37-d06b-4e7f-84ec-990f5fbc58c6","ios":"levelo://app?vid=6179da37-d06b-4e7f-84ec-990f5fbc58c6"},"vehicle_type_id":"4","last_reported":1732927689,"current_range_meters":36400,"station_id":"ce4bgt12rcd13ifvqce0","pricing_plan_id":"cebpf4jnsgd1na2vs0mg"},{"bike_id":"53b91f1a-a7ee-4246-b9b9-208f28c929ef","system_id":"levelo_inurba_marseille","lat":43.27997,"lon":5.40009,"is_reserved":false,"is_disabled":false,"rental_uris":{"android":"levelo://app?vid=53b91f1a-a7ee-4246-b9b9-208f28c929ef","ios":"levelo://app?vid=53b91f1a-a7ee-4246-b9b9-208f28c929ef"},"vehicle_type_id":"4","last_reported":1732927689,"current_range_meters":27200,"station_id":"ce4bho92rcd13ifvqh4g","pricing_plan_id":"cebpf4jnsgd1na2vs0mg"},{"bike_id":"4a9d6e1f-1828-4869-9bb6-c94fb652e1a9","system_id":"levelo_inurba_marseille","lat":43.22935,"lon":5.35378,"is_reserved":false,"is_disabled":false,"rental_uris":{"android":"levelo://app?vid=4a9d6e1f-1828-4869-9bb6-c94fb652e1a9","ios":"levelo://app?vid=4a9d6e1f-1828-4869-9bb6-c94fb652e1a9"},"vehicle_type_id":"4","last_reported":1732927689,"current_range_meters":39200,"station_id":"cpo3532slgdg3j2ikp40","pricing_plan_id":"cebpf4jnsgd1na2vs0mg"},{"bike_id":"0174841e-8011-4a7b-bd18-480101bee765","system_id":"levelo_inurba_marseille","lat":43.23967,"lon":5.3662,"is_reserved":false,"is_disabled":true,"rental_uris":{"android":"levelo://app?vid=0174841e-8011-4a7b-bd18-480101bee765","ios":"levelo://app?vid=0174841e-8011-4a7b-bd18-480101bee765"},"vehicle_type_id":"4","last_reported":1732927689,"current_range_meters":0,"station_id":"ce4bhi12rcd13ifvqfp0","pricing_plan_id":"cebpf4jnsgd1na2vs0mg"},{"bike_id":"b20c2912-08f0-41e9-9997-2837b64b293e","system_id":"levelo_inurba_marseille","lat":43.3117,"lon":5.38711,"is_reserved":false,"is_disabled":false,"rental_uris":{"android":"levelo://app?vid=b20c2912-08f0-41e9-9997-2837b64b293e","ios":"levelo://app?vid=b20c2912-08f0-41e9-9997-2837b64b293e"},"vehicle_type_id":"4","last_reported":1732927689,"current_range_meters":36800,"station_id":"ce4bgv12rcd13ifvqcp0","pricing_plan_id":"cebpf4jnsgd1na2vs0mg"},{"bike_id":"88b2bdc0-ac9d-4c3e-9ada-98a13ff8842d","system_id":"levelo_inurba_marseille","lat":43.27621,"lon":5.36108,"is_reserved":false,"is_disabled":false,"rental_uris":{"android":"levelo://app?vid=88b2bdc0-ac9d-4c3e-9ada-98a13ff8842d","ios":"levelo://app?vid=88b2bdc0-ac9d-4c3e-9ada-98a13ff8842d"},"vehicle_type_id":"4","last_reported":1732927689,"current_range_meters":32000,"station_id":"ce4bgj92rcd13ifvqbe0","pricing_plan_id":"cebpf4jnsgd1na2vs0mg"},{"bike_id":"52c5ec48-d9d2-4224-8f63-3b7560e41bcc","system_id":"levelo_inurba_marseille","lat":43.2418,"lon":5.39734,"is_reserved":false,"is_disabled":false,"rental_uris":{"android":"levelo://app?vid=52c5ec48-d9d2-4224-8f63-3b7560e41bcc","ios":"levelo://app?vid=52c5ec48-d9d2-4224-8f63-3b7560e41bcc"},"vehicle_type_id":"4","last_reported":1732927689,"current_range_meters":39200,"station_id":"ce4bhn12rcd13ifvqgpg","pricing_plan_id":"cebpf4jnsgd1na2vs0mg"},{"bike_id":"a233b25b-869e-422b-bf5e-63d3d8ff686f","system_id":"levelo_inurba_marseille","lat":43.30925,"lon":5.4014,"is_reserved":false,"is_disabled":true,"rental_uris":{"android":"levelo://app?vid=a233b25b-869e-422b-bf5e-63d3d8ff686f","ios":"levelo://app?vid=a233b25b-869e-422b-bf5e-63d3d8ff686f"},"vehicle_type_id":"4","last_reported":1732927689,"current_range_meters":24000,"station_id":"ce4bgvp2rcd13ifvqct0","pricing_plan_id":"cebpf4jnsgd1na2vs0mg"},{"bike_id":"9b43fa90-8002-406b-9078-95708d067095","system_id":"levelo_inurba_marseille","lat":43.2873,"lon":5.3609,"is_reserved":false,"is_disabled":false,"rental_uris":{"android":"levelo://app?vid=9b43fa90-8002-406b-9078-95708d067095","ios":"levelo://app?vid=9b43fa90-8002-406b-9078-95708d067095"},"vehicle_type_id":"4","last_reported":1732927689,"current_range_meters":39200,"station_id":"cki0cbj6b192h4jlfktg","pricing_plan_id":"cebpf4jnsgd1na2vs0mg"},{"bike_id":"759518f4-9f32-4b72-97fe-df61c6c7bd05","system_id":"levelo_inurba_marseille","lat":43.31296,"lon":5.40156,"is_reserved":false,"is_disabled":true,"rental_uris":{"android":"levelo://app?vid=759518f4-9f32-4b72-97fe-df61c6c7bd05","ios":"levelo://app?vid=759518f4-9f32-4b72-97fe-df61c6c7bd05"},"vehicle_type_id":"4","last_reported":1732927689,"current_range_meters":5600,"station_id":"ce4bh092rcd13ifvqd30","pricing_plan_id":"cebpf4jnsgd1na2vs0mg"},{"bike_id":"1a012ee7-fb29-4679-b59b-6d28f1150f72","system_id":"levelo_inurba_marseille","lat":43.30935,"lon":5.40148,"is_reserved":false,"is_disabled":false,"rental_uris":{"android":"levelo://app?vid=1a012ee7-fb29-4679-b59b-6d28f1150f72","ios":"levelo://app?vid=1a012ee7-fb29-4679-b59b-6d28f1150f72"},"vehicle_type_id":"4","last_reported":1732927689,"current_range_meters":34000,"station_id":"ce4bgvp2rcd13ifvqct0","pricing_plan_id":"cebpf4jnsgd1na2vs0mg"},{"bike_id":"ae2dbdc5-0973-4b7d-8b99-588d10a21c6f","system_id":"levelo_inurba_marseille","lat":43.25728,"lon":5.41106,"is_reserved":false,"is_disabled":false,"rental_uris":{"android":"levelo://app?vid=ae2dbdc5-0973-4b7d-8b99-588d10a21c6f","ios":"levelo://app?vid=ae2dbdc5-0973-4b7d-8b99-588d10a21c6f"},"vehicle_type_id":"4","last_reported":1732927689,"current_range_meters":37600,"station_id":"ce4bhkp2rcd13ifvqgd0","pricing_plan_id":"cebpf4jnsgd1na2vs0mg"},{"bike_id":"c70a391f-3889-4ed7-b703-81c3b06bf154","system_id":"levelo_inurba_marseille","lat":43.31365,"lon":5.38497,"is_reserved":false,"is_disabled":false,"rental_uris":{"android":"levelo://app?vid=c70a391f-3889-4ed7-b703-81c3b06bf154","ios":"levelo://app?vid=c70a391f-3889-4ed7-b703-81c3b06bf154"},"vehicle_type_id":"4","last_reported":1732927689,"current_range_meters":38800,"station_id":"ce4bgt92rcd13ifvqcf0","pricing_plan_id":"cebpf4jnsgd1na2vs0mg"},{"bike_id":"ac2a4554-ffe0-4e28-9df7-abf3737df124","system_id":"levelo_inurba_marseille","lat":43.24653,"lon":5.38894,"is_reserved":false,"is_disabled":false,"rental_uris":{"android":"levelo://app?vid=ac2a4554-ffe0-4e28-9df7-abf3737df124","ios":"levelo://app?vid=ac2a4554-ffe0-4e28-9df7-abf3737df124"},"vehicle_type_id":"4","last_reported":1732927689,"current_range_meters":32000,"station_id":"ce4bhg12rcd13ifvqf60","pricing_plan_id":"cebpf4jnsgd1na2vs0mg"},{"bike_id":"cf7b40b2-28eb-4a67-a9bf-ea6f6aa52140","system_id":"levelo_inurba_marseille","lat":43.27906,"lon":5.38004,"is_reserved":false,"is_disabled":false,"rental_uris":{"android":"levelo://app?vid=cf7b40b2-28eb-4a67-a9bf-ea6f6aa52140","ios":"levelo://app?vid=cf7b40b2-28eb-4a67-a9bf-ea6f6aa52140"},"vehicle_type_id":"4","last_reported":1732927689,"current_range_meters":39200,"station_id":"ce4bhf92rcd13ifvqf50","pricing_plan_id":"cebpf4jnsgd1na2vs0mg"},{"bike_id":"a0cde52d-c747-4aeb-9d06-d0535a909804","system_id":"levelo_inurba_marseille","lat":43.27667,"lon":5.38901,"is_reserved":false,"is_disabled":false,"rental_uris":{"android":"levelo://app?vid=a0cde52d-c747-4aeb-9d06-d0535a909804","ios":"levelo://app?vid=a0cde52d-c747-4aeb-9d06-d0535a909804"},"vehicle_type_id":"4","last_reported":1732927689,"current_range_meters":16400,"station_id":"ce4bhi12rcd13ifvqfo0","pricing_plan_id":"cebpf4jnsgd1na2vs0mg"},{"bike_id":"c2d172e1-98e6-4a29-80b6-476b9c5f1669","system_id":"levelo_inurba_marseille","lat":43.27622,"lon":5.36106,"is_reserved":false,"is_disabled":false,"rental_uris":{"android":"levelo://app?vid=c2d172e1-98e6-4a29-80b6-476b9c5f1669","ios":"levelo://app?vid=c2d172e1-98e6-4a29-80b6-476b9c5f1669"},"vehicle_type_id":"4","last_reported":1732927689,"current_range_meters":38800,"station_id":"ce4bgj92rcd13ifvqbe0","pricing_plan_id":"cebpf4jnsgd1na2vs0mg"},{"bike_id":"01dd4a61-2932-478c-bb90-a182878898af","system_id":"levelo_inurba_marseille","lat":43.31534,"lon":5.38025,"is_reserved":false,"is_disabled":false,"rental_uris":{"android":"levelo://app?vid=01dd4a61-2932-478c-bb90-a182878898af","ios":"levelo://app?vid=01dd4a61-2932-478c-bb90-a182878898af"},"vehicle_type_id":"4","last_reported":1732927689,"current_range_meters":39200,"station_id":"ce4bhsp2rcd13ifvqi50","pricing_plan_id":"cebpf4jnsgd1na2vs0mg"},{"bike_id":"96d93204-3945-432b-9395-884fa1e6785f","system_id":"levelo_inurba_marseille","lat":43.30646,"lon":5.40098,"is_reserved":false,"is_disabled":false,"rental_uris":{"android":"levelo://app?vid=96d93204-3945-432b-9395-884fa1e6785f","ios":"levelo://app?vid=96d93204-3945-432b-9395-884fa1e6785f"},"vehicle_type_id":"4","last_reported":1732927689,"current_range_meters":4000,"station_id":"ce4bh112rcd13ifvqda0","pricing_plan_id":"cebpf4jnsgd1na2vs0mg"},{"bike_id":"85b2d642-e7ac-491a-b9cf-0364da948773","system_id":"levelo_inurba_marseille","lat":43.28846,"lon":5.39314,"is_reserved":false,"is_disabled":false,"rental_uris":{"android":"levelo://app?vid=85b2d642-e7ac-491a-b9cf-0364da948773","ios":"levelo://app?vid=85b2d642-e7ac-491a-b9cf-0364da948773"},"vehicle_type_id":"4","last_reported":1732927689,"current_range_meters":10800,"station_id":"ce4bh2p2rcd13ifvqdi0","pricing_plan_id":"cebpf4jnsgd1na2vs0mg"},{"bike_id":"c872430b-cdb2-4c01-90a7-0a81173bfaa1","system_id":"levelo_inurba_marseille","lat":43.28003,"lon":5.41665,"is_reserved":false,"is_disabled":false,"rental_uris":{"android":"levelo://app?vid=c872430b-cdb2-4c01-90a7-0a81173bfaa1","ios":"levelo://app?vid=c872430b-cdb2-4c01-90a7-0a81173bfaa1"},"vehicle_type_id":"4","last_reported":1732927689,"current_range_meters":40000,"station_id":"ce4bho12rcd13ifvqh1g","pricing_plan_id":"cebpf4jnsgd1na2vs0mg"},{"bike_id":"d0dc94cc-b94b-4064-b42d-d702bb3c732d","system_id":"levelo_inurba_marseille","lat":43.31707,"lon":5.37737,"is_reserved":false,"is_disabled":false,"rental_uris":{"android":"levelo://app?vid=d0dc94cc-b94b-4064-b42d-d702bb3c732d","ios":"levelo://app?vid=d0dc94cc-b94b-4064-b42d-d702bb3c732d"},"vehicle_type_id":"4","last_reported":1732927689,"current_range_meters":39200,"station_id":"ce4bgth2rcd13ifvqch0","pricing_plan_id":"cebpf4jnsgd1na2vs0mg"},{"bike_id":"9b5b7b4c-38d3-45c8-835a-e199461c2717","system_id":"levelo_inurba_marseille","lat":43.30655,"lon":5.40074,"is_reserved":false,"is_disabled":false,"rental_uris":{"android":"levelo://app?vid=9b5b7b4c-38d3-45c8-835a-e199461c2717","ios":"levelo://app?vid=9b5b7b4c-38d3-45c8-835a-e199461c2717"},"vehicle_type_id":"4","last_reported":1732927689,"current_range_meters":28400,"station_id":"ce4bh112rcd13ifvqda0","pricing_plan_id":"cebpf4jnsgd1na2vs0mg"},{"bike_id":"2839c06e-dfc6-4bb4-92dd-cd78c43581f0","system_id":"levelo_inurba_marseille","lat":43.23192,"lon":5.35545,"is_reserved":false,"is_disabled":false,"rental_uris":{"android":"levelo://app?vid=2839c06e-dfc6-4bb4-92dd-cd78c43581f0","ios":"levelo://app?vid=2839c06e-dfc6-4bb4-92dd-cd78c43581f0"},"vehicle_type_id":"4","last_reported":1732927689,"current_range_meters":17200,"station_id":"ce4bhu92rcd13ifvqi70","pricing_plan_id":"cebpf4jnsgd1na2vs0mg"},{"bike_id":"3c39df4a-8a75-48af-a3c2-a8531174d388","system_id":"levelo_inurba_marseille","lat":43.2931,"lon":5.37175,"is_reserved":false,"is_disabled":true,"rental_uris":{"android":"levelo://app?vid=3c39df4a-8a75-48af-a3c2-a8531174d388","ios":"levelo://app?vid=3c39df4a-8a75-48af-a3c2-a8531174d388"},"vehicle_type_id":"4","last_reported":1732927689,"current_range_meters":2000,"station_id":"ce4bgh92rcd13ifvqb40","pricing_plan_id":"cebpf4jnsgd1na2vs0mg"},{"bike_id":"89d5ff8d-90a5-4061-9d4f-8640b3ed6189","system_id":"levelo_inurba_marseille","lat":43.29006,"lon":5.38124,"is_reserved":false,"is_disabled":false,"rental_uris":{"android":"levelo://app?vid=89d5ff8d-90a5-4061-9d4f-8640b3ed6189","ios":"levelo://app?vid=89d5ff8d-90a5-4061-9d4f-8640b3ed6189"},"vehicle_type_id":"4","last_reported":1732927689,"current_range_meters":25200,"station_id":"ce4bh4p2rcd13ifvqe1g","pricing_plan_id":"cebpf4jnsgd1na2vs0mg"},{"bike_id":"fe1c6c60-0f4f-4b5c-a7ea-9f2ff8347245","system_id":"levelo_inurba_marseille","lat":43.27617,"lon":5.36116,"is_reserved":false,"is_disabled":true,"rental_uris":{"android":"levelo://app?vid=fe1c6c60-0f4f-4b5c-a7ea-9f2ff8347245","ios":"levelo://app?vid=fe1c6c60-0f4f-4b5c-a7ea-9f2ff8347245"},"vehicle_type_id":"4","last_reported":1732927689,"current_range_meters":28800,"station_id":"ce4bgj92rcd13ifvqbe0","pricing_plan_id":"cebpf4jnsgd1na2vs0mg"},{"bike_id":"4abebe2b-dec7-442c-a6a0-da33deb742de","system_id":"levelo_inurba_marseille","lat":43.32109,"lon":5.368,"is_reserved":false,"is_disabled":false,"rental_uris":{"android":"levelo://app?vid=4abebe2b-dec7-442c-a6a0-da33deb742de","ios":"levelo://app?vid=4abebe2b-dec7-442c-a6a0-da33deb742de"},"vehicle_type_id":"4","last_reported":1732927689,"current_range_meters":38800,"station_id":"ce4bhrh2rcd13ifvqhug","pricing_plan_id":"cebpf4jnsgd1na2vs0mg"},{"bike_id":"7c06e51c-1045-4d74-87ea-a64602d1594b","system_id":"levelo_inurba_marseille","lat":43.31358,"lon":5.38487,"is_reserved":false,"is_disabled":false,"rental_uris":{"android":"levelo://app?vid=7c06e51c-1045-4d74-87ea-a64602d1594b","ios":"levelo://app?vid=7c06e51c-1045-4d74-87ea-a64602d1594b"},"vehicle_type_id":"4","last_reported":1732927689,"current_range_meters":26800,"station_id":"ce4bgt92rcd13ifvqcf0","pricing_plan_id":"cebpf4jnsgd1na2vs0mg"},{"bike_id":"95e16b67-0d53-4cca-8aaa-2b831d4e43c6","system_id":"levelo_inurba_marseille","lat":43.33024,"lon":5.39039,"is_reserved":false,"is_disabled":false,"rental_uris":{"android":"levelo://app?vid=95e16b67-0d53-4cca-8aaa-2b831d4e43c6","ios":"levelo://app?vid=95e16b67-0d53-4cca-8aaa-2b831d4e43c6"},"vehicle_type_id":"4","last_reported":1732927689,"current_range_meters":33200,"station_id":"ce4bhr92rcd13ifvqhrg","pricing_plan_id":"cebpf4jnsgd1na2vs0mg"},{"bike_id":"770fbfde-d646-4d94-98e9-2eaac78942b5","system_id":"levelo_inurba_marseille","lat":43.27812,"lon":5.40713,"is_reserved":false,"is_disabled":false,"rental_uris":{"android":"levelo://app?vid=770fbfde-d646-4d94-98e9-2eaac78942b5","ios":"levelo://app?vid=770fbfde-d646-4d94-98e9-2eaac78942b5"},"vehicle_type_id":"4","last_reported":1732927689,"current_range_meters":39200,"station_id":"ce4bhnh2rcd13ifvqgtg","pricing_plan_id":"cebpf4jnsgd1na2vs0mg"},{"bike_id":"4cc90b5b-25e0-4eb8-942a-d0033804c348","system_id":"levelo_inurba_marseille","lat":43.29041,"lon":5.35925,"is_reserved":false,"is_disabled":false,"rental_uris":{"android":"levelo://app?vid=4cc90b5b-25e0-4eb8-942a-d0033804c348","ios":"levelo://app?vid=4cc90b5b-25e0-4eb8-942a-d0033804c348"},"vehicle_type_id":"4","last_reported":1732927689,"current_range_meters":23200,"station_id":"ce4bha92rcd13ifvqeg0","pricing_plan_id":"cebpf4jnsgd1na2vs0mg"},{"bike_id":"0f17f004-1308-4dc1-baa4-8e9fe8d97b2d","system_id":"levelo_inurba_marseille","lat":43.25713,"lon":5.41117,"is_reserved":false,"is_disabled":false,"rental_uris":{"android":"levelo://app?vid=0f17f004-1308-4dc1-baa4-8e9fe8d97b2d","ios":"levelo://app?vid=0f17f004-1308-4dc1-baa4-8e9fe8d97b2d"},"vehicle_type_id":"4","last_reported":1732927689,"current_range_meters":26000,"station_id":"ce4bhkp2rcd13ifvqgd0","pricing_plan_id":"cebpf4jnsgd1na2vs0mg"},{"bike_id":"a6622c8e-a345-4fa3-9671-ecb3cc3299b3","system_id":"levelo_inurba_marseille","lat":43.25127,"lon":5.40363,"is_reserved":false,"is_disabled":false,"rental_uris":{"android":"levelo://app?vid=a6622c8e-a345-4fa3-9671-ecb3cc3299b3","ios":"levelo://app?vid=a6622c8e-a345-4fa3-9671-ecb3cc3299b3"},"vehicle_type_id":"4","last_reported":1732927689,"current_range_meters":40000,"station_id":"ce4bhlh2rcd13ifvqgig","pricing_plan_id":"cebpf4jnsgd1na2vs0mg"},{"bike_id":"0a6cb623-d052-4c80-95be-635004795b3a","system_id":"levelo_inurba_marseille","lat":43.25112,"lon":5.40321,"is_reserved":false,"is_disabled":false,"rental_uris":{"android":"levelo://app?vid=0a6cb623-d052-4c80-95be-635004795b3a","ios":"levelo://app?vid=0a6cb623-d052-4c80-95be-635004795b3a"},"vehicle_type_id":"4","last_reported":1732927689,"current_range_meters":27600,"station_id":"ce4bhlh2rcd13ifvqgig","pricing_plan_id":"cebpf4jnsgd1na2vs0mg"},{"bike_id":"6181465d-41d4-4278-ba37-3aeca5c3f8a0","system_id":"levelo_inurba_marseille","lat":43.29411,"lon":5.386185,"is_reserved":false,"is_disabled":false,"rental_uris":{"android":"levelo://app?vid=6181465d-41d4-4278-ba37-3aeca5c3f8a0","ios":"levelo://app?vid=6181465d-41d4-4278-ba37-3aeca5c3f8a0"},"vehicle_type_id":"4","last_reported":1732927689,"current_range_meters":5600,"station_id":"ce4bh2h2rcd13ifvqdh0","pricing_plan_id":"cebpf4jnsgd1na2vs0mg"},{"bike_id":"07b13898-8bee-4da1-8a9b-958623a7893d","system_id":"levelo_inurba_marseille","lat":43.30932,"lon":5.40146,"is_reserved":false,"is_disabled":false,"rental_uris":{"android":"levelo://app?vid=07b13898-8bee-4da1-8a9b-958623a7893d","ios":"levelo://app?vid=07b13898-8bee-4da1-8a9b-958623a7893d"},"vehicle_type_id":"4","last_reported":1732927689,"current_range_meters":39200,"station_id":"ce4bgvp2rcd13ifvqct0","pricing_plan_id":"cebpf4jnsgd1na2vs0mg"},{"bike_id":"92f7af08-1e68-4dac-b2ef-bf956ed706be","system_id":"levelo_inurba_marseille","lat":43.2816,"lon":5.38357,"is_reserved":false,"is_disabled":false,"rental_uris":{"android":"levelo://app?vid=92f7af08-1e68-4dac-b2ef-bf956ed706be","ios":"levelo://app?vid=92f7af08-1e68-4dac-b2ef-bf956ed706be"},"vehicle_type_id":"4","last_reported":1732927689,"current_range_meters":5600,"station_id":"ce4bha12rcd13ifvqee0","pricing_plan_id":"cebpf4jnsgd1na2vs0mg"},{"bike_id":"aed335d6-97c4-490f-94db-7d1da5c9ad3c","system_id":"levelo_inurba_marseille","lat":43.2963,"lon":5.40591,"is_reserved":false,"is_disabled":false,"rental_uris":{"android":"levelo://app?vid=aed335d6-97c4-490f-94db-7d1da5c9ad3c","ios":"levelo://app?vid=aed335d6-97c4-490f-94db-7d1da5c9ad3c"},"vehicle_type_id":"4","last_reported":1732927689,"current_range_meters":9200,"station_id":"ce4bh0h2rcd13ifvqd60","pricing_plan_id":"cebpf4jnsgd1na2vs0mg"},{"bike_id":"dc6d65f3-f4aa-40ce-ad9e-5dc7a9fcbf72","system_id":"levelo_inurba_marseille","lat":43.28706,"lon":5.39983,"is_reserved":false,"is_disabled":false,"rental_uris":{"android":"levelo://app?vid=dc6d65f3-f4aa-40ce-ad9e-5dc7a9fcbf72","ios":"levelo://app?vid=dc6d65f3-f4aa-40ce-ad9e-5dc7a9fcbf72"},"vehicle_type_id":"4","last_reported":1732927689,"current_range_meters":34800,"station_id":"ce4bho92rcd13ifvqh3g","pricing_plan_id":"cebpf4jnsgd1na2vs0mg"},{"bike_id":"9dd1fc98-a89e-437a-b707-6eb8b3c899e8","system_id":"levelo_inurba_marseille","lat":43.290395,"lon":5.359194,"is_reserved":false,"is_disabled":true,"rental_uris":{"android":"levelo://app?vid=9dd1fc98-a89e-437a-b707-6eb8b3c899e8","ios":"levelo://app?vid=9dd1fc98-a89e-437a-b707-6eb8b3c899e8"},"vehicle_type_id":"4","last_reported":1732927689,"current_range_meters":4000,"station_id":"ce4bha92rcd13ifvqeg0","pricing_plan_id":"cebpf4jnsgd1na2vs0mg"},{"bike_id":"cc825f38-4eb5-4797-9b30-89da685bdccf","system_id":"levelo_inurba_marseille","lat":43.2742,"lon":5.39415,"is_reserved":false,"is_disabled":false,"rental_uris":{"android":"levelo://app?vid=cc825f38-4eb5-4797-9b30-89da685bdccf","ios":"levelo://app?vid=cc825f38-4eb5-4797-9b30-89da685bdccf"},"vehicle_type_id":"4","last_reported":1732927689,"current_range_meters":24800,"station_id":"ce4bhdp2rcd13ifvqf20","pricing_plan_id":"cebpf4jnsgd1na2vs0mg"},{"bike_id":"9dc2d7f8-19a3-4300-bdf0-88ca062d2312","system_id":"levelo_inurba_marseille","lat":43.31073,"lon":5.38351,"is_reserved":false,"is_disabled":false,"rental_uris":{"android":"levelo://app?vid=9dc2d7f8-19a3-4300-bdf0-88ca062d2312","ios":"levelo://app?vid=9dc2d7f8-19a3-4300-bdf0-88ca062d2312"},"vehicle_type_id":"4","last_reported":1732927689,"current_range_meters":16400,"station_id":"ce4bgv92rcd13ifvqcr0","pricing_plan_id":"cebpf4jnsgd1na2vs0mg"},{"bike_id":"a1da46ac-0823-493f-ac56-218330798636","system_id":"levelo_inurba_marseille","lat":43.24396,"lon":5.37056,"is_reserved":false,"is_disabled":false,"rental_uris":{"android":"levelo://app?vid=a1da46ac-0823-493f-ac56-218330798636","ios":"levelo://app?vid=a1da46ac-0823-493f-ac56-218330798636"},"vehicle_type_id":"4","last_reported":1732927689,"current_range_meters":32800,"station_id":"ce4bhhh2rcd13ifvqfk0","pricing_plan_id":"cebpf4jnsgd1na2vs0mg"},{"bike_id":"0018a916-1f7c-49f6-b67a-824191a50d98","system_id":"levelo_inurba_marseille","lat":43.30247,"lon":5.40047,"is_reserved":false,"is_disabled":false,"rental_uris":{"android":"levelo://app?vid=0018a916-1f7c-49f6-b67a-824191a50d98","ios":"levelo://app?vid=0018a916-1f7c-49f6-b67a-824191a50d98"},"vehicle_type_id":"4","last_reported":1732927689,"current_range_meters":28800,"station_id":"ce4bgvh2rcd13ifvqcs0","pricing_plan_id":"cebpf4jnsgd1na2vs0mg"},{"bike_id":"a5909545-3e09-4859-9fda-9ffe4e6e4883","system_id":"levelo_inurba_marseille","lat":43.23066,"lon":5.35491,"is_reserved":false,"is_disabled":false,"rental_uris":{"android":"levelo://app?vid=a5909545-3e09-4859-9fda-9ffe4e6e4883","ios":"levelo://app?vid=a5909545-3e09-4859-9fda-9ffe4e6e4883"},"vehicle_type_id":"4","last_reported":1732927689,"current_range_meters":14400,"station_id":"cpo3342slgdg3j2ifvpg","pricing_plan_id":"cebpf4jnsgd1na2vs0mg"},{"bike_id":"c54fa7c9-a127-4d75-ac3d-fe8ea889edd3","system_id":"levelo_inurba_marseille","lat":43.30147,"lon":5.39868,"is_reserved":false,"is_disabled":true,"rental_uris":{"android":"levelo://app?vid=c54fa7c9-a127-4d75-ac3d-fe8ea889edd3","ios":"levelo://app?vid=c54fa7c9-a127-4d75-ac3d-fe8ea889edd3"},"vehicle_type_id":"4","last_reported":1732927689,"current_range_meters":37600,"station_id":"ce4bh0h2rcd13ifvqd40","pricing_plan_id":"cebpf4jnsgd1na2vs0mg"},{"bike_id":"a99c4b50-ed6f-4692-809b-22df41f741dc","system_id":"levelo_inurba_marseille","lat":43.28261,"lon":5.35057,"is_reserved":false,"is_disabled":false,"rental_uris":{"android":"levelo://app?vid=a99c4b50-ed6f-4692-809b-22df41f741dc","ios":"levelo://app?vid=a99c4b50-ed6f-4692-809b-22df41f741dc"},"vehicle_type_id":"4","last_reported":1732927689,"current_range_meters":16800,"station_id":"ce4bhbp2rcd13ifvqerg","pricing_plan_id":"cebpf4jnsgd1na2vs0mg"},{"bike_id":"8a706c0a-83d1-44fa-9127-38cdaec2557e","system_id":"levelo_inurba_marseille","lat":43.31326,"lon":5.39691,"is_reserved":false,"is_disabled":false,"rental_uris":{"android":"levelo://app?vid=8a706c0a-83d1-44fa-9127-38cdaec2557e","ios":"levelo://app?vid=8a706c0a-83d1-44fa-9127-38cdaec2557e"},"vehicle_type_id":"4","last_reported":1732927689,"current_range_meters":25200,"station_id":"ce4bgvp2rcd13ifvqcu0","pricing_plan_id":"cebpf4jnsgd1na2vs0mg"},{"bike_id":"78716590-acd8-4375-8266-67d9a41d59a7","system_id":"levelo_inurba_marseille","lat":43.32372,"lon":5.38879,"is_reserved":false,"is_disabled":false,"rental_uris":{"android":"levelo://app?vid=78716590-acd8-4375-8266-67d9a41d59a7","ios":"levelo://app?vid=78716590-acd8-4375-8266-67d9a41d59a7"},"vehicle_type_id":"4","last_reported":1732927689,"current_range_meters":30800,"station_id":"ce4bhqp2rcd13ifvqhog","pricing_plan_id":"cebpf4jnsgd1na2vs0mg"},{"bike_id":"797dcae1-f526-4029-8577-86245fa07752","system_id":"levelo_inurba_marseille","lat":43.26944,"lon":5.40251,"is_reserved":false,"is_disabled":false,"rental_uris":{"android":"levelo://app?vid=797dcae1-f526-4029-8577-86245fa07752","ios":"levelo://app?vid=797dcae1-f526-4029-8577-86245fa07752"},"vehicle_type_id":"4","last_reported":1732927689,"current_range_meters":39200,"station_id":"cjm6bp8fraef2m0cb0m0","pricing_plan_id":"cebpf4jnsgd1na2vs0mg"},{"bike_id":"7d915583-b887-4aeb-8816-82444c1b5b57","system_id":"levelo_inurba_marseille","lat":43.27999,"lon":5.4166,"is_reserved":false,"is_disabled":false,"rental_uris":{"android":"levelo://app?vid=7d915583-b887-4aeb-8816-82444c1b5b57","ios":"levelo://app?vid=7d915583-b887-4aeb-8816-82444c1b5b57"},"vehicle_type_id":"4","last_reported":1732927689,"current_range_meters":12800,"station_id":"ce4bho12rcd13ifvqh1g","pricing_plan_id":"cebpf4jnsgd1na2vs0mg"},{"bike_id":"d98f3600-3c42-477c-b935-6104b51ef2a6","system_id":"levelo_inurba_marseille","lat":43.27427,"lon":5.39413,"is_reserved":false,"is_disabled":false,"rental_uris":{"android":"levelo://app?vid=d98f3600-3c42-477c-b935-6104b51ef2a6","ios":"levelo://app?vid=d98f3600-3c42-477c-b935-6104b51ef2a6"},"vehicle_type_id":"4","last_reported":1732927689,"current_range_meters":19600,"station_id":"ce4bhdp2rcd13ifvqf20","pricing_plan_id":"cebpf4jnsgd1na2vs0mg"},{"bike_id":"e5951ee3-4a5a-4ebb-b469-096c5188dfa3","system_id":"levelo_inurba_marseille","lat":43.23198,"lon":5.35518,"is_reserved":false,"is_disabled":false,"rental_uris":{"android":"levelo://app?vid=e5951ee3-4a5a-4ebb-b469-096c5188dfa3","ios":"levelo://app?vid=e5951ee3-4a5a-4ebb-b469-096c5188dfa3"},"vehicle_type_id":"4","last_reported":1732927689,"current_range_meters":22000,"station_id":"ce4bhu92rcd13ifvqi70","pricing_plan_id":"cebpf4jnsgd1na2vs0mg"},{"bike_id":"f9a63393-5401-4f98-ae5a-dfbb8291ab6d","system_id":"levelo_inurba_marseille","lat":43.3004,"lon":5.37551,"is_reserved":false,"is_disabled":true,"rental_uris":{"android":"levelo://app?vid=f9a63393-5401-4f98-ae5a-dfbb8291ab6d","ios":"levelo://app?vid=f9a63393-5401-4f98-ae5a-dfbb8291ab6d"},"vehicle_type_id":"4","last_reported":1732927689,"current_range_meters":0,"station_id":"","pricing_plan_id":"cebpf4jnsgd1na2vs0mg"},{"bike_id":"d2300a67-e59d-4c6d-84e8-89c1777cddcc","system_id":"levelo_inurba_marseille","lat":43.31994,"lon":5.38151,"is_reserved":false,"is_disabled":false,"rental_uris":{"android":"levelo://app?vid=d2300a67-e59d-4c6d-84e8-89c1777cddcc","ios":"levelo://app?vid=d2300a67-e59d-4c6d-84e8-89c1777cddcc"},"vehicle_type_id":"4","last_reported":1732927689,"current_range_meters":38800,"station_id":"ce4bhr12rcd13ifvqhpg","pricing_plan_id":"cebpf4jnsgd1na2vs0mg"},{"bike_id":"3ce2fffb-4d51-444b-8bb2-5cd62ad86f77","system_id":"levelo_inurba_marseille","lat":43.31289,"lon":5.40156,"is_reserved":false,"is_disabled":false,"rental_uris":{"android":"levelo://app?vid=3ce2fffb-4d51-444b-8bb2-5cd62ad86f77","ios":"levelo://app?vid=3ce2fffb-4d51-444b-8bb2-5cd62ad86f77"},"vehicle_type_id":"4","last_reported":1732927689,"current_range_meters":38800,"station_id":"ce4bh092rcd13ifvqd30","pricing_plan_id":"cebpf4jnsgd1na2vs0mg"},{"bike_id":"aee73daf-60bc-4d8c-9efd-dfb7ca3420ec","system_id":"levelo_inurba_marseille","lat":43.28162,"lon":5.42644,"is_reserved":false,"is_disabled":false,"rental_uris":{"android":"levelo://app?vid=aee73daf-60bc-4d8c-9efd-dfb7ca3420ec","ios":"levelo://app?vid=aee73daf-60bc-4d8c-9efd-dfb7ca3420ec"},"vehicle_type_id":"4","last_reported":1732927689,"current_range_meters":29600,"station_id":"ce4bhnh2rcd13ifvqgug","pricing_plan_id":"cebpf4jnsgd1na2vs0mg"},{"bike_id":"d7cf6dba-f372-485f-8849-893e3853a422","system_id":"levelo_inurba_marseille","lat":43.31326,"lon":5.3969,"is_reserved":false,"is_disabled":false,"rental_uris":{"android":"levelo://app?vid=d7cf6dba-f372-485f-8849-893e3853a422","ios":"levelo://app?vid=d7cf6dba-f372-485f-8849-893e3853a422"},"vehicle_type_id":"4","last_reported":1732927689,"current_range_meters":16800,"station_id":"ce4bgvp2rcd13ifvqcu0","pricing_plan_id":"cebpf4jnsgd1na2vs0mg"},{"bike_id":"209edce5-94bd-42b7-894c-233f806592a5","system_id":"levelo_inurba_marseille","lat":43.32361,"lon":5.36758,"is_reserved":false,"is_disabled":false,"rental_uris":{"android":"levelo://app?vid=209edce5-94bd-42b7-894c-233f806592a5","ios":"levelo://app?vid=209edce5-94bd-42b7-894c-233f806592a5"},"vehicle_type_id":"4","last_reported":1732927689,"current_range_meters":30800,"station_id":"ce4bhsh2rcd13ifvqi2g","pricing_plan_id":"cebpf4jnsgd1na2vs0mg"},{"bike_id":"cb90edb8-6b97-4f13-aaf4-7fc553c35336","system_id":"levelo_inurba_marseille","lat":43.31721,"lon":5.37795,"is_reserved":false,"is_disabled":false,"rental_uris":{"android":"levelo://app?vid=cb90edb8-6b97-4f13-aaf4-7fc553c35336","ios":"levelo://app?vid=cb90edb8-6b97-4f13-aaf4-7fc553c35336"},"vehicle_type_id":"4","last_reported":1732927689,"current_range_meters":35600,"station_id":"ce4bgth2rcd13ifvqch0","pricing_plan_id":"cebpf4jnsgd1na2vs0mg"},{"bike_id":"ca671336-3c2c-4fe2-bd8e-7dcbd7736b5e","system_id":"levelo_inurba_marseille","lat":43.323334,"lon":5.406247,"is_reserved":false,"is_disabled":false,"rental_uris":{"android":"levelo://app?vid=ca671336-3c2c-4fe2-bd8e-7dcbd7736b5e","ios":"levelo://app?vid=ca671336-3c2c-4fe2-bd8e-7dcbd7736b5e"},"vehicle_type_id":"4","last_reported":1732927689,"current_range_meters":27200,"station_id":"ce4bhq92rcd13ifvqhjg","pricing_plan_id":"cebpf4jnsgd1na2vs0mg"},{"bike_id":"bba82484-d6d2-4eb9-a24b-0fee4128de51","system_id":"levelo_inurba_marseille","lat":43.3014,"lon":5.38772,"is_reserved":false,"is_disabled":true,"rental_uris":{"android":"levelo://app?vid=bba82484-d6d2-4eb9-a24b-0fee4128de51","ios":"levelo://app?vid=bba82484-d6d2-4eb9-a24b-0fee4128de51"},"vehicle_type_id":"4","last_reported":1732927689,"current_range_meters":0,"station_id":"ce4bghh2rcd13ifvqb60","pricing_plan_id":"cebpf4jnsgd1na2vs0mg"},{"bike_id":"a1de088e-f9bc-437b-86db-027b9d5a0352","system_id":"levelo_inurba_marseille","lat":43.33021,"lon":5.39034,"is_reserved":false,"is_disabled":false,"rental_uris":{"android":"levelo://app?vid=a1de088e-f9bc-437b-86db-027b9d5a0352","ios":"levelo://app?vid=a1de088e-f9bc-437b-86db-027b9d5a0352"},"vehicle_type_id":"4","last_reported":1732927689,"current_range_meters":38400,"station_id":"ce4bhr92rcd13ifvqhrg","pricing_plan_id":"cebpf4jnsgd1na2vs0mg"},{"bike_id":"6c1f80c2-d6d4-477c-ae6f-1b940c87be98","system_id":"levelo_inurba_marseille","lat":43.2744,"lon":5.39412,"is_reserved":false,"is_disabled":false,"rental_uris":{"android":"levelo://app?vid=6c1f80c2-d6d4-477c-ae6f-1b940c87be98","ios":"levelo://app?vid=6c1f80c2-d6d4-477c-ae6f-1b940c87be98"},"vehicle_type_id":"4","last_reported":1732927689,"current_range_meters":40000,"station_id":"ce4bhdp2rcd13ifvqf20","pricing_plan_id":"cebpf4jnsgd1na2vs0mg"},{"bike_id":"de8dedfd-c65e-4ce5-b8ec-b5ab34a22a6e","system_id":"levelo_inurba_marseille","lat":43.27068,"lon":5.42282,"is_reserved":false,"is_disabled":true,"rental_uris":{"android":"levelo://app?vid=de8dedfd-c65e-4ce5-b8ec-b5ab34a22a6e","ios":"levelo://app?vid=de8dedfd-c65e-4ce5-b8ec-b5ab34a22a6e"},"vehicle_type_id":"4","last_reported":1732927689,"current_range_meters":39200,"station_id":"ce4bhk92rcd13ifvqgb0","pricing_plan_id":"cebpf4jnsgd1na2vs0mg"},{"bike_id":"07f19606-6256-4b39-af02-46cc1675a4a6","system_id":"levelo_inurba_marseille","lat":43.27569,"lon":5.38418,"is_reserved":false,"is_disabled":false,"rental_uris":{"android":"levelo://app?vid=07f19606-6256-4b39-af02-46cc1675a4a6","ios":"levelo://app?vid=07f19606-6256-4b39-af02-46cc1675a4a6"},"vehicle_type_id":"4","last_reported":1732927689,"current_range_meters":22000,"station_id":"ce4bhh92rcd13ifvqfi0","pricing_plan_id":"cebpf4jnsgd1na2vs0mg"},{"bike_id":"38798db8-5bd5-4792-b41b-6f809d1b1c45","system_id":"levelo_inurba_marseille","lat":43.31999,"lon":5.38149,"is_reserved":false,"is_disabled":false,"rental_uris":{"android":"levelo://app?vid=38798db8-5bd5-4792-b41b-6f809d1b1c45","ios":"levelo://app?vid=38798db8-5bd5-4792-b41b-6f809d1b1c45"},"vehicle_type_id":"4","last_reported":1732927689,"current_range_meters":20400,"station_id":"ce4bhr12rcd13ifvqhpg","pricing_plan_id":"cebpf4jnsgd1na2vs0mg"},{"bike_id":"51e26bc1-7f19-405c-82f9-c518e8f04ff3","system_id":"levelo_inurba_marseille","lat":43.314823,"lon":5.373047,"is_reserved":false,"is_disabled":false,"rental_uris":{"android":"levelo://app?vid=51e26bc1-7f19-405c-82f9-c518e8f04ff3","ios":"levelo://app?vid=51e26bc1-7f19-405c-82f9-c518e8f04ff3"},"vehicle_type_id":"4","last_reported":1732927689,"current_range_meters":28800,"station_id":"ce4bgt12rcd13ifvqcd0","pricing_plan_id":"cebpf4jnsgd1na2vs0mg"},{"bike_id":"375f3ff8-f817-4dea-ba6a-e7f3d0cf2b56","system_id":"levelo_inurba_marseille","lat":43.28041,"lon":5.36949,"is_reserved":false,"is_disabled":false,"rental_uris":{"android":"levelo://app?vid=375f3ff8-f817-4dea-ba6a-e7f3d0cf2b56","ios":"levelo://app?vid=375f3ff8-f817-4dea-ba6a-e7f3d0cf2b56"},"vehicle_type_id":"4","last_reported":1732927689,"current_range_meters":39200,"station_id":"ce4bha12rcd13ifvqef0","pricing_plan_id":"cebpf4jnsgd1na2vs0mg"},{"bike_id":"f05403b4-7fc6-4ed9-83e5-21728471368c","system_id":"levelo_inurba_marseille","lat":43.30795,"lon":5.38149,"is_reserved":false,"is_disabled":false,"rental_uris":{"android":"levelo://app?vid=f05403b4-7fc6-4ed9-83e5-21728471368c","ios":"levelo://app?vid=f05403b4-7fc6-4ed9-83e5-21728471368c"},"vehicle_type_id":"4","last_reported":1732927689,"current_range_meters":23200,"station_id":"ce4bgt12rcd13ifvqce0","pricing_plan_id":"cebpf4jnsgd1na2vs0mg"},{"bike_id":"50f255d1-fdb4-49d7-9b2f-23e854e0bb06","system_id":"levelo_inurba_marseille","lat":43.30805,"lon":5.3817,"is_reserved":false,"is_disabled":false,"rental_uris":{"android":"levelo://app?vid=50f255d1-fdb4-49d7-9b2f-23e854e0bb06","ios":"levelo://app?vid=50f255d1-fdb4-49d7-9b2f-23e854e0bb06"},"vehicle_type_id":"4","last_reported":1732927689,"current_range_meters":38800,"station_id":"ce4bgt12rcd13ifvqce0","pricing_plan_id":"cebpf4jnsgd1na2vs0mg"},{"bike_id":"ced6f6fa-1cfb-4262-99ab-9eb61311c35b","system_id":"levelo_inurba_marseille","lat":43.312702,"lon":5.401709,"is_reserved":false,"is_disabled":false,"rental_uris":{"android":"levelo://app?vid=ced6f6fa-1cfb-4262-99ab-9eb61311c35b","ios":"levelo://app?vid=ced6f6fa-1cfb-4262-99ab-9eb61311c35b"},"vehicle_type_id":"4","last_reported":1732927689,"current_range_meters":30000,"station_id":"ce4bh092rcd13ifvqd30","pricing_plan_id":"cebpf4jnsgd1na2vs0mg"},{"bike_id":"c43fffd1-108f-4493-9c53-d2971d2b16a2","system_id":"levelo_inurba_marseille","lat":43.3292,"lon":5.41551,"is_reserved":false,"is_disabled":false,"rental_uris":{"android":"levelo://app?vid=c43fffd1-108f-4493-9c53-d2971d2b16a2","ios":"levelo://app?vid=c43fffd1-108f-4493-9c53-d2971d2b16a2"},"vehicle_type_id":"4","last_reported":1732927689,"current_range_meters":24000,"station_id":"","pricing_plan_id":"cebpf4jnsgd1na2vs0mg"},{"bike_id":"cf002d38-17c9-44fd-9354-c7910c4bd3ff","system_id":"levelo_inurba_marseille","lat":43.3302,"lon":5.39035,"is_reserved":false,"is_disabled":false,"rental_uris":{"android":"levelo://app?vid=cf002d38-17c9-44fd-9354-c7910c4bd3ff","ios":"levelo://app?vid=cf002d38-17c9-44fd-9354-c7910c4bd3ff"},"vehicle_type_id":"4","last_reported":1732927689,"current_range_meters":38000,"station_id":"ce4bhr92rcd13ifvqhrg","pricing_plan_id":"cebpf4jnsgd1na2vs0mg"},{"bike_id":"b56e00a8-9f84-4583-ae12-6bdea468f127","system_id":"levelo_inurba_marseille","lat":43.30803,"lon":5.38156,"is_reserved":false,"is_disabled":false,"rental_uris":{"android":"levelo://app?vid=b56e00a8-9f84-4583-ae12-6bdea468f127","ios":"levelo://app?vid=b56e00a8-9f84-4583-ae12-6bdea468f127"},"vehicle_type_id":"4","last_reported":1732927689,"current_range_meters":20000,"station_id":"ce4bgt12rcd13ifvqce0","pricing_plan_id":"cebpf4jnsgd1na2vs0mg"},{"bike_id":"cb261da6-4840-44c8-b66c-2a0cb568a4ad","system_id":"levelo_inurba_marseille","lat":43.2784,"lon":5.39204,"is_reserved":false,"is_disabled":true,"rental_uris":{"android":"levelo://app?vid=cb261da6-4840-44c8-b66c-2a0cb568a4ad","ios":"levelo://app?vid=cb261da6-4840-44c8-b66c-2a0cb568a4ad"},"vehicle_type_id":"4","last_reported":1732927689,"current_range_meters":39200,"station_id":"ce4bhjp2rcd13ifvqga0","pricing_plan_id":"cebpf4jnsgd1na2vs0mg"},{"bike_id":"f32a94d8-2796-498c-8b90-91b3bdf8f852","system_id":"levelo_inurba_marseille","lat":43.28663,"lon":5.36343,"is_reserved":false,"is_disabled":false,"rental_uris":{"android":"levelo://app?vid=f32a94d8-2796-498c-8b90-91b3bdf8f852","ios":"levelo://app?vid=f32a94d8-2796-498c-8b90-91b3bdf8f852"},"vehicle_type_id":"4","last_reported":1732927689,"current_range_meters":38800,"station_id":"ce4bhah2rcd13ifvqej0","pricing_plan_id":"cebpf4jnsgd1na2vs0mg"},{"bike_id":"43746d86-8a13-4845-9faf-ae69b548d714","system_id":"levelo_inurba_marseille","lat":43.29459,"lon":5.37917,"is_reserved":false,"is_disabled":true,"rental_uris":{"android":"levelo://app?vid=43746d86-8a13-4845-9faf-ae69b548d714","ios":"levelo://app?vid=43746d86-8a13-4845-9faf-ae69b548d714"},"vehicle_type_id":"4","last_reported":1732927689,"current_range_meters":0,"station_id":"","pricing_plan_id":"cebpf4jnsgd1na2vs0mg"},{"bike_id":"746d0832-fa34-43ef-bd41-a94b306dc08e","system_id":"levelo_inurba_marseille","lat":43.2467,"lon":5.38155,"is_reserved":false,"is_disabled":false,"rental_uris":{"android":"levelo://app?vid=746d0832-fa34-43ef-bd41-a94b306dc08e","ios":"levelo://app?vid=746d0832-fa34-43ef-bd41-a94b306dc08e"},"vehicle_type_id":"4","last_reported":1732927689,"current_range_meters":10000,"station_id":"ce4bhih2rcd13ifvqfr0","pricing_plan_id":"cebpf4jnsgd1na2vs0mg"},{"bike_id":"1665090c-d6bc-4de6-b530-613846e90070","system_id":"levelo_inurba_marseille","lat":43.31363,"lon":5.38498,"is_reserved":false,"is_disabled":false,"rental_uris":{"android":"levelo://app?vid=1665090c-d6bc-4de6-b530-613846e90070","ios":"levelo://app?vid=1665090c-d6bc-4de6-b530-613846e90070"},"vehicle_type_id":"4","last_reported":1732927689,"current_range_meters":28400,"station_id":"ce4bgt92rcd13ifvqcf0","pricing_plan_id":"cebpf4jnsgd1na2vs0mg"},{"bike_id":"4f9e2a6f-409c-4144-b32b-ac793231ce82","system_id":"levelo_inurba_marseille","lat":43.28619,"lon":5.35103,"is_reserved":false,"is_disabled":false,"rental_uris":{"android":"levelo://app?vid=4f9e2a6f-409c-4144-b32b-ac793231ce82","ios":"levelo://app?vid=4f9e2a6f-409c-4144-b32b-ac793231ce82"},"vehicle_type_id":"4","last_reported":1732927689,"current_range_meters":12000,"station_id":"ce4bhch2rcd13ifvqeug","pricing_plan_id":"cebpf4jnsgd1na2vs0mg"},{"bike_id":"98e2d888-37de-4669-ac4b-97e1a8acaade","system_id":"levelo_inurba_marseille","lat":43.29302,"lon":5.38552,"is_reserved":false,"is_disabled":true,"rental_uris":{"android":"levelo://app?vid=98e2d888-37de-4669-ac4b-97e1a8acaade","ios":"levelo://app?vid=98e2d888-37de-4669-ac4b-97e1a8acaade"},"vehicle_type_id":"4","last_reported":1732927689,"current_range_meters":0,"station_id":"","pricing_plan_id":"cebpf4jnsgd1na2vs0mg"},{"bike_id":"d8090434-8164-4911-a368-9f666e5165ad","system_id":"levelo_inurba_marseille","lat":43.26553,"lon":5.37287,"is_reserved":false,"is_disabled":false,"rental_uris":{"android":"levelo://app?vid=d8090434-8164-4911-a368-9f666e5165ad","ios":"levelo://app?vid=d8090434-8164-4911-a368-9f666e5165ad"},"vehicle_type_id":"4","last_reported":1732927689,"current_range_meters":34800,"station_id":"ce4bhg12rcd13ifvqf70","pricing_plan_id":"cebpf4jnsgd1na2vs0mg"},{"bike_id":"6f4c6ac4-bd1e-4399-bfc4-2299bfb8e320","system_id":"levelo_inurba_marseille","lat":43.28937,"lon":5.36635,"is_reserved":false,"is_disabled":false,"rental_uris":{"android":"levelo://app?vid=6f4c6ac4-bd1e-4399-bfc4-2299bfb8e320","ios":"levelo://app?vid=6f4c6ac4-bd1e-4399-bfc4-2299bfb8e320"},"vehicle_type_id":"4","last_reported":1732927689,"current_range_meters":34000,"station_id":"ce4bhap2rcd13ifvqek0","pricing_plan_id":"cebpf4jnsgd1na2vs0mg"},{"bike_id":"6da9caa4-0313-43ff-a969-1b6a799cb79a","system_id":"levelo_inurba_marseille","lat":43.28726,"lon":5.36086,"is_reserved":false,"is_disabled":false,"rental_uris":{"android":"levelo://app?vid=6da9caa4-0313-43ff-a969-1b6a799cb79a","ios":"levelo://app?vid=6da9caa4-0313-43ff-a969-1b6a799cb79a"},"vehicle_type_id":"4","last_reported":1732927689,"current_range_meters":20800,"station_id":"cki0cbj6b192h4jlfktg","pricing_plan_id":"cebpf4jnsgd1na2vs0mg"},{"bike_id":"3761fea6-32d7-4a30-8c67-2411a647f9dc","system_id":"levelo_inurba_marseille","lat":43.31364,"lon":5.38497,"is_reserved":false,"is_disabled":false,"rental_uris":{"android":"levelo://app?vid=3761fea6-32d7-4a30-8c67-2411a647f9dc","ios":"levelo://app?vid=3761fea6-32d7-4a30-8c67-2411a647f9dc"},"vehicle_type_id":"4","last_reported":1732927689,"current_range_meters":16000,"station_id":"ce4bgt92rcd13ifvqcf0","pricing_plan_id":"cebpf4jnsgd1na2vs0mg"},{"bike_id":"c1aa10ac-cd26-464c-86a3-79bcaa621471","system_id":"levelo_inurba_marseille","lat":43.30801,"lon":5.38163,"is_reserved":false,"is_disabled":false,"rental_uris":{"android":"levelo://app?vid=c1aa10ac-cd26-464c-86a3-79bcaa621471","ios":"levelo://app?vid=c1aa10ac-cd26-464c-86a3-79bcaa621471"},"vehicle_type_id":"4","last_reported":1732927689,"current_range_meters":38800,"station_id":"ce4bgt12rcd13ifvqce0","pricing_plan_id":"cebpf4jnsgd1na2vs0mg"},{"bike_id":"15e24c31-4292-4084-bcd3-e24f0a31685e","system_id":"levelo_inurba_marseille","lat":43.28422,"lon":5.34985,"is_reserved":false,"is_disabled":true,"rental_uris":{"android":"levelo://app?vid=15e24c31-4292-4084-bcd3-e24f0a31685e","ios":"levelo://app?vid=15e24c31-4292-4084-bcd3-e24f0a31685e"},"vehicle_type_id":"4","last_reported":1732927689,"current_range_meters":36800,"station_id":"ce4bhbh2rcd13ifvqepg","pricing_plan_id":"cebpf4jnsgd1na2vs0mg"},{"bike_id":"60bcfd83-20b5-46ea-b55f-3d3dab37186e","system_id":"levelo_inurba_marseille","lat":43.30423,"lon":5.39743,"is_reserved":false,"is_disabled":true,"rental_uris":{"android":"levelo://app?vid=60bcfd83-20b5-46ea-b55f-3d3dab37186e","ios":"levelo://app?vid=60bcfd83-20b5-46ea-b55f-3d3dab37186e"},"vehicle_type_id":"4","last_reported":1732927689,"current_range_meters":17200,"station_id":"ce4bh092rcd13ifvqd20","pricing_plan_id":"cebpf4jnsgd1na2vs0mg"},{"bike_id":"579ec052-1a9b-4b33-b6e7-3ce0d78a27eb","system_id":"levelo_inurba_marseille","lat":43.32487,"lon":5.36563,"is_reserved":false,"is_disabled":false,"rental_uris":{"android":"levelo://app?vid=579ec052-1a9b-4b33-b6e7-3ce0d78a27eb","ios":"levelo://app?vid=579ec052-1a9b-4b33-b6e7-3ce0d78a27eb"},"vehicle_type_id":"4","last_reported":1732927689,"current_range_meters":38400,"station_id":"ce4bhs12rcd13ifvqhvg","pricing_plan_id":"cebpf4jnsgd1na2vs0mg"},{"bike_id":"d7c027ce-affe-4e74-a76c-56f36651134b","system_id":"levelo_inurba_marseille","lat":43.22932,"lon":5.35378,"is_reserved":false,"is_disabled":false,"rental_uris":{"android":"levelo://app?vid=d7c027ce-affe-4e74-a76c-56f36651134b","ios":"levelo://app?vid=d7c027ce-affe-4e74-a76c-56f36651134b"},"vehicle_type_id":"4","last_reported":1732927689,"current_range_meters":33200,"station_id":"cpo3532slgdg3j2ikp40","pricing_plan_id":"cebpf4jnsgd1na2vs0mg"},{"bike_id":"e30e6432-35e0-4c66-98a0-e0c903123307","system_id":"levelo_inurba_marseille","lat":43.30805,"lon":5.38147,"is_reserved":false,"is_disabled":false,"rental_uris":{"android":"levelo://app?vid=e30e6432-35e0-4c66-98a0-e0c903123307","ios":"levelo://app?vid=e30e6432-35e0-4c66-98a0-e0c903123307"},"vehicle_type_id":"4","last_reported":1732927689,"current_range_meters":25200,"station_id":"ce4bgt12rcd13ifvqce0","pricing_plan_id":"cebpf4jnsgd1na2vs0mg"},{"bike_id":"9244d9fe-8890-4efa-bf2a-6d9fc44453ad","system_id":"levelo_inurba_marseille","lat":43.26785,"lon":5.39377,"is_reserved":false,"is_disabled":true,"rental_uris":{"android":"levelo://app?vid=9244d9fe-8890-4efa-bf2a-6d9fc44453ad","ios":"levelo://app?vid=9244d9fe-8890-4efa-bf2a-6d9fc44453ad"},"vehicle_type_id":"4","last_reported":1732927689,"current_range_meters":0,"station_id":"ce4bhh12rcd13ifvqfg0","pricing_plan_id":"cebpf4jnsgd1na2vs0mg"},{"bike_id":"391b8c15-944b-4f00-8b8d-d350837acb82","system_id":"levelo_inurba_marseille","lat":43.29005,"lon":5.35609,"is_reserved":false,"is_disabled":false,"rental_uris":{"android":"levelo://app?vid=391b8c15-944b-4f00-8b8d-d350837acb82","ios":"levelo://app?vid=391b8c15-944b-4f00-8b8d-d350837acb82"},"vehicle_type_id":"4","last_reported":1732927689,"current_range_meters":38000,"station_id":"ce4bhb92rcd13ifvqen0","pricing_plan_id":"cebpf4jnsgd1na2vs0mg"},{"bike_id":"2fb3aa0d-6fc6-490e-9c32-b4cafe2d61ef","system_id":"levelo_inurba_marseille","lat":43.30646,"lon":5.40092,"is_reserved":false,"is_disabled":false,"rental_uris":{"android":"levelo://app?vid=2fb3aa0d-6fc6-490e-9c32-b4cafe2d61ef","ios":"levelo://app?vid=2fb3aa0d-6fc6-490e-9c32-b4cafe2d61ef"},"vehicle_type_id":"4","last_reported":1732927689,"current_range_meters":20800,"station_id":"ce4bh112rcd13ifvqda0","pricing_plan_id":"cebpf4jnsgd1na2vs0mg"},{"bike_id":"fc4d15f5-6256-45a3-90d6-77bb4c676955","system_id":"levelo_inurba_marseille","lat":43.296284,"lon":5.377877,"is_reserved":false,"is_disabled":true,"rental_uris":{"android":"levelo://app?vid=fc4d15f5-6256-45a3-90d6-77bb4c676955","ios":"levelo://app?vid=fc4d15f5-6256-45a3-90d6-77bb4c676955"},"vehicle_type_id":"4","last_reported":1732927689,"current_range_meters":27200,"station_id":"","pricing_plan_id":"cebpf4jnsgd1na2vs0mg"},{"bike_id":"8a0291f2-ebd3-4755-be2d-09bbcc22d5e3","system_id":"levelo_inurba_marseille","lat":43.28087,"lon":5.3966,"is_reserved":false,"is_disabled":false,"rental_uris":{"android":"levelo://app?vid=8a0291f2-ebd3-4755-be2d-09bbcc22d5e3","ios":"levelo://app?vid=8a0291f2-ebd3-4755-be2d-09bbcc22d5e3"},"vehicle_type_id":"4","last_reported":1732927689,"current_range_meters":38800,"station_id":"ce4bho12rcd13ifvqh2g","pricing_plan_id":"cebpf4jnsgd1na2vs0mg"},{"bike_id":"c88f8730-1176-4717-97e2-17c27b15274f","system_id":"levelo_inurba_marseille","lat":43.23198,"lon":5.35544,"is_reserved":false,"is_disabled":false,"rental_uris":{"android":"levelo://app?vid=c88f8730-1176-4717-97e2-17c27b15274f","ios":"levelo://app?vid=c88f8730-1176-4717-97e2-17c27b15274f"},"vehicle_type_id":"4","last_reported":1732927689,"current_range_meters":40000,"station_id":"ce4bhu92rcd13ifvqi70","pricing_plan_id":"cebpf4jnsgd1na2vs0mg"},{"bike_id":"22adf9ca-f0ed-4a9d-af87-01b0820100f8","system_id":"levelo_inurba_marseille","lat":43.27607,"lon":5.36129,"is_reserved":false,"is_disabled":false,"rental_uris":{"android":"levelo://app?vid=22adf9ca-f0ed-4a9d-af87-01b0820100f8","ios":"levelo://app?vid=22adf9ca-f0ed-4a9d-af87-01b0820100f8"},"vehicle_type_id":"4","last_reported":1732927689,"current_range_meters":28000,"station_id":"ce4bgj92rcd13ifvqbe0","pricing_plan_id":"cebpf4jnsgd1na2vs0mg"},{"bike_id":"d8bdcde7-e12a-4f21-a275-8a5ecb244744","system_id":"levelo_inurba_marseille","lat":43.31075,"lon":5.38339,"is_reserved":false,"is_disabled":true,"rental_uris":{"android":"levelo://app?vid=d8bdcde7-e12a-4f21-a275-8a5ecb244744","ios":"levelo://app?vid=d8bdcde7-e12a-4f21-a275-8a5ecb244744"},"vehicle_type_id":"4","last_reported":1732927689,"current_range_meters":24800,"station_id":"ce4bgv92rcd13ifvqcr0","pricing_plan_id":"cebpf4jnsgd1na2vs0mg"},{"bike_id":"0a6cbbb4-301c-4442-8bc8-995dd6d050e5","system_id":"levelo_inurba_marseille","lat":43.2928,"lon":5.40111,"is_reserved":false,"is_disabled":false,"rental_uris":{"android":"levelo://app?vid=0a6cbbb4-301c-4442-8bc8-995dd6d050e5","ios":"levelo://app?vid=0a6cbbb4-301c-4442-8bc8-995dd6d050e5"},"vehicle_type_id":"4","last_reported":1732927689,"current_range_meters":13600,"station_id":"ce4bh312rcd13ifvqdk0","pricing_plan_id":"cebpf4jnsgd1na2vs0mg"},{"bike_id":"5547a441-9653-482c-905c-97a54076438b","system_id":"levelo_inurba_marseille","lat":43.32366,"lon":5.36766,"is_reserved":false,"is_disabled":false,"rental_uris":{"android":"levelo://app?vid=5547a441-9653-482c-905c-97a54076438b","ios":"levelo://app?vid=5547a441-9653-482c-905c-97a54076438b"},"vehicle_type_id":"4","last_reported":1732927689,"current_range_meters":18800,"station_id":"ce4bhsh2rcd13ifvqi2g","pricing_plan_id":"cebpf4jnsgd1na2vs0mg"},{"bike_id":"4744d8d4-874c-43b3-9198-08b98c9b2608","system_id":"levelo_inurba_marseille","lat":43.29642,"lon":5.40602,"is_reserved":false,"is_disabled":false,"rental_uris":{"android":"levelo://app?vid=4744d8d4-874c-43b3-9198-08b98c9b2608","ios":"levelo://app?vid=4744d8d4-874c-43b3-9198-08b98c9b2608"},"vehicle_type_id":"4","last_reported":1732927689,"current_range_meters":38800,"station_id":"ce4bh0h2rcd13ifvqd60","pricing_plan_id":"cebpf4jnsgd1na2vs0mg"},{"bike_id":"e38bf0e0-1b9e-4ece-944a-3abf9ee32cdf","system_id":"levelo_inurba_marseille","lat":43.30329,"lon":5.40436,"is_reserved":false,"is_disabled":false,"rental_uris":{"android":"levelo://app?vid=e38bf0e0-1b9e-4ece-944a-3abf9ee32cdf","ios":"levelo://app?vid=e38bf0e0-1b9e-4ece-944a-3abf9ee32cdf"},"vehicle_type_id":"4","last_reported":1732927689,"current_range_meters":30800,"station_id":"ce4bh012rcd13ifvqd10","pricing_plan_id":"cebpf4jnsgd1na2vs0mg"},