{"last_updated":1701547586,"ttl":30,"version":"2.2","data":{"bikes":[{"bike_id":"ab1a45bc-5c86-4dc9-86c5-b3cdd9eb5b1a","system_id":"levelo_inurba_marseille","lat":43.31747,"lon":5.36879,"is_reserved":false,"is_disabled":false,"rental_uris":{"android":"levelo://app?vid=ab1a45bc-5c86-4dc9-86c5-b3cdd9eb5b1a","ios":"levelo://app?vid=ab1a45bc-5c86-4dc9-86c5-b3cdd9eb5b1a"},"vehicle_type_id":"4","last_reported":1701547586,"current_range_meters":0,"station_id":"","pricing_plan_id":"free"},{"bike_id":"ad5698e7-82fa-402e-9016-9287d2871d13","system_id":"levelo_inurba_marseille","lat":43.314811,"lon":5.373103,"is_reserved":false,"is_disabled":false,"rental_uris":{"android":"levelo://app?vid=ad5698e7-82fa-402e-9016-9287d2871d13","ios":"levelo://app?vid=ad5698e7-82fa-402e-9016-9287d2871d13"},"vehicle_type_id":"4","last_reported":1701547586,"current_range_meters":25200,"station_id":"ce4bgt12rcd13ifvqcd0","pricing_plan_id":"free"},{"bike_id":"961ce847-f260-432b-98f4-1157ba9b3b4d","system_id":"levelo_inurba_marseille","lat":43.309039,"lon":5.371797,"is_reserved":false,"is_disabled":false,"rental_uris":{"android":"levelo://app?vid=961ce847-f260-432b-98f4-1157ba9b3b4d","ios":"levelo://app?vid=961ce847-f260-432b-98f4-1157ba9b3b4d"},"vehicle_type_id":"4","last_reported":1701547586,"current_range_meters":23200,"station_id":"ce4bguh2rcd13ifvqckg","pricing_plan_id":"free"},{"bike_id":"b84e71ce-9829-462e-ba97-447ab1dffbc2","system_id":"levelo_inurba_marseille","lat":43.309039,"lon":5.371797,"is_reserved":false,"is_disabled":false,"rental_uris":{"android":"levelo://app?vid=b84e71ce-9829-462e-ba97-447ab1dffbc2","ios":"levelo://app?vid=b84e71ce-9829-462e-ba97-447ab1dffbc2"},"vehicle_type_id":"4","last_reported":1701547586,"current_range_meters":5200,"station_id":"ce4bguh2rcd13ifvqckg","pricing_plan_id":"free"},{"bike_id":"61c37a7b-3a37-4b19-9022-a135487b8d21","system_id":"levelo_inurba_marseille","lat":43.30549,"lon":5.36531,"is_reserved":false,"is_disabled":false,"rental_uris":{"android":"levelo://app?vid=61c37a7b-3a37-4b19-9022-a135487b8d21","ios":"levelo://app?vid=61c37a7b-3a37-4b19-9022-a135487b8d21"},"vehicle_type_id":"4","last_reported":1701547586,"current_range_meters":0,"station_id":"ce4bgs12rcd13ifvqcag","pricing_plan_id":"free"},{"bike_id":"19ae476a-cb80-4007-82fd-b7d62f7beba8","system_id":"levelo_inurba_marseille","lat":43.305989,"lon":5.37225,"is_reserved":false,"is_disabled":false,"rental_uris":{"android":"levelo://app?vid=19ae476a-cb80-4007-82fd-b7d62f7beba8","ios":"levelo://app?vid=19ae476a-cb80-4007-82fd-b7d62f7beba8"},"vehicle_type_id":"4","last_reported":1701547586,"current_range_meters":14800,"station_id":"ce4bgqh2rcd13ifvqc4g","pricing_plan_id":"free"},{"bike_id":"89f1c406-a032-4051-ba08-fb879dc1933b","system_id":"levelo_inurba_marseille","lat":43.305989,"lon":5.37225,"is_reserved":false,"is_disabled":false,"rental_uris":{"android":"levelo://app?vid=89f1c406-a032-4051-ba08-fb879dc1933b","ios":"levelo://app?vid=89f1c406-a032-4051-ba08-fb879dc1933b"},"vehicle_type_id":"4","last_reported":1701547586,"current_range_meters":10400,"station_id":"ce4bgqh2rcd13ifvqc4g","pricing_plan_id":"free"},{"bike_id":"55fa1a17-66cc-4b14-a2d0-41a635ef96b1","system_id":"levelo_inurba_marseille","lat":43.3112,"lon":5.37757,"is_reserved":false,"is_disabled":false,"rental_uris":{"android":"levelo://app?vid=55fa1a17-66cc-4b14-a2d0-41a635ef96b1","ios":"levelo://app?vid=55fa1a17-66cc-4b14-a2d0-41a635ef96b1"},"vehicle_type_id":"4","last_reported":1701547586,"current_range_meters":800,"station_id":"ce4bgt92rcd13ifvqcg0","pricing_plan_id":"free"},{"bike_id":"cfd3bb51-5657-4943-be4a-4ca2f802bb01","system_id":"levelo_inurba_marseille","lat":43.308235,"lon":5.376554,"is_reserved":false,"is_disabled":false,"rental_uris":{"android":"levelo://app?vid=cfd3bb51-5657-4943-be4a-4ca2f802bb01","ios":"levelo://app?vid=cfd3bb51-5657-4943-be4a-4ca2f802bb01"},"vehicle_type_id":"4","last_reported":1701547586,"current_range_meters":9600,"station_id":"ce4bgv92rcd13ifvqcq0","pricing_plan_id":"free"},{"bike_id":"f427a2c3-6e4a-446b-ae2f-9be8aa7f4122","system_id":"levelo_inurba_marseille","lat":43.31719,"lon":5.376813,"is_reserved":false,"is_disabled":false,"rental_uris":{"android":"levelo://app?vid=f427a2c3-6e4a-446b-ae2f-9be8aa7f4122","ios":"levelo://app?vid=f427a2c3-6e4a-446b-ae2f-9be8aa7f4122"},"vehicle_type_id":"4","last_reported":1701547586,"current_range_meters":0,"station_id":"","pricing_plan_id":"free"},{"bike_id":"e913f328-1e31-4c22-bd87-f809ea246de4","system_id":"levelo_inurba_marseille","lat":43.317168,"lon":5.376883,"is_reserved":false,"is_disabled":false,"rental_uris":{"android":"levelo://app?vid=e913f328-1e31-4c22-bd87-f809ea246de4","ios":"levelo://app?vid=e913f328-1e31-4c22-bd87-f809ea246de4"},"vehicle_type_id":"4","last_reported":1701547586,"current_range_meters":0,"station_id":"","pricing_plan_id":"free"},{"bike_id":"701c35b1-4405-416d-a0cc-db89f5f2f6bc","system_id":"levelo_inurba_marseille","lat":43.317075,"lon":5.377367,"is_reserved":false,"is_disabled":false,"rental_uris":{"android":"levelo://app?vid=701c35b1-4405-416d-a0cc-db89f5f2f6bc","ios":"levelo://app?vid=701c35b1-4405-416d-a0cc-db89f5f2f6bc"},"vehicle_type_id":"4","last_reported":1701547586,"current_range_meters":7200,"station_id":"ce4bgth2rcd13ifvqch0","pricing_plan_id":"free"},{"bike_id":"fb6fd937-527b-4585-9058-0dfdc6436ac8","system_id":"levelo_inurba_marseille","lat":43.31351,"lon":5.37909,"is_reserved":false,"is_disabled":false,"rental_uris":{"android":"levelo://app?vid=fb6fd937-527b-4585-9058-0dfdc6436ac8","ios":"levelo://app?vid=fb6fd937-527b-4585-9058-0dfdc6436ac8"},"vehicle_type_id":"4","last_reported":1701547586,"current_range_meters":20400,"station_id":"","pricing_plan_id":"free"},{"bike_id":"b2b29b62-c952-42eb-9515-e1218d3d6120","system_id":"levelo_inurba_marseille","lat":43.30304,"lon":5.368987,"is_reserved":false,"is_disabled":false,"rental_uris":{"android":"levelo://app?vid=b2b29b62-c952-42eb-9515-e1218d3d6120","ios":"levelo://app?vid=b2b29b62-c952-42eb-9515-e1218d3d6120"},"vehicle_type_id":"4","last_reported":1701547586,"current_range_meters":23200,"station_id":"ce4bgqh2rcd13ifvqc5g","pricing_plan_id":"free"},{"bike_id":"7df567c5-6bc1-4e73-89ac-9349887c5133","system_id":"levelo_inurba_marseille","lat":43.30304,"lon":5.368987,"is_reserved":false,"is_disabled":false,"rental_uris":{"android":"levelo://app?vid=7df567c5-6bc1-4e73-89ac-9349887c5133","ios":"levelo://app?vid=7df567c5-6bc1-4e73-89ac-9349887c5133"},"vehicle_type_id":"4","last_reported":1701547586,"current_range_meters":27200,"station_id":"ce4bgqh2rcd13ifvqc5g","pricing_plan_id":"free"},{"bike_id":"bc8eac31-4b5b-48b3-aa99-5c3fdd18d82e","system_id":"levelo_inurba_marseille","lat":43.32483,"lon":5.36565,"is_reserved":false,"is_disabled":false,"rental_uris":{"android":"levelo://app?vid=bc8eac31-4b5b-48b3-aa99-5c3fdd18d82e","ios":"levelo://app?vid=bc8eac31-4b5b-48b3-aa99-5c3fdd18d82e"},"vehicle_type_id":"4","last_reported":1701547586,"current_range_meters":17200,"station_id":"ce4bhs12rcd13ifvqhvg","pricing_plan_id":"free"},{"bike_id":"8c6725c5-5ff6-4a6a-9768-66e32939cf43","system_id":"levelo_inurba_marseille","lat":43.324833,"lon":5.365689,"is_reserved":false,"is_disabled":false,"rental_uris":{"android":"levelo://app?vid=8c6725c5-5ff6-4a6a-9768-66e32939cf43","ios":"levelo://app?vid=8c6725c5-5ff6-4a6a-9768-66e32939cf43"},"vehicle_type_id":"4","last_reported":1701547586,"current_range_meters":25200,"station_id":"ce4bhs12rcd13ifvqhvg","pricing_plan_id":"free"},{"bike_id":"15e79264-8713-4f41-ba33-86735f90dd66","system_id":"levelo_inurba_marseille","lat":43.319935,"lon":5.381699,"is_reserved":false,"is_disabled":false,"rental_uris":{"android":"levelo://app?vid=15e79264-8713-4f41-ba33-86735f90dd66","ios":"levelo://app?vid=15e79264-8713-4f41-ba33-86735f90dd66"},"vehicle_type_id":"4","last_reported":1701547586,"current_range_meters":24800,"station_id":"ce4bhr12rcd13ifvqhpg","pricing_plan_id":"free"},{"bike_id":"2275aca5-3158-4c2c-8022-ca5d2714bc86","system_id":"levelo_inurba_marseille","lat":43.319997,"lon":5.381594,"is_reserved":false,"is_disabled":false,"rental_uris":{"android":"levelo://app?vid=2275aca5-3158-4c2c-8022-ca5d2714bc86","ios":"levelo://app?vid=2275aca5-3158-4c2c-8022-ca5d2714bc86"},"vehicle_type_id":"4","last_reported":1701547586,"current_range_meters":14000,"station_id":"ce4bhr12rcd13ifvqhpg","pricing_plan_id":"free"},{"bike_id":"3bedb087-8155-41d9-8327-cd136ea3f5ef","system_id":"levelo_inurba_marseille","lat":43.313799,"lon":5.384927,"is_reserved":false,"is_disabled":false,"rental_uris":{"android":"levelo://app?vid=3bedb087-8155-41d9-8327-cd136ea3f5ef","ios":"levelo://app?vid=3bedb087-8155-41d9-8327-cd136ea3f5ef"},"vehicle_type_id":"4","last_reported":1701547586,"current_range_meters":29600,"station_id":"ce4bgt92rcd13ifvqcf0","pricing_plan_id":"free"},{"bike_id":"4a51d0e0-4c05-41c7-bd11-dc36f8f6f8ed","system_id":"levelo_inurba_marseille","lat":43.31381,"lon":5.38501,"is_reserved":false,"is_disabled":false,"rental_uris":{"android":"levelo://app?vid=4a51d0e0-4c05-41c7-bd11-dc36f8f6f8ed","ios":"levelo://app?vid=4a51d0e0-4c05-41c7-bd11-dc36f8f6f8ed"},"vehicle_type_id":"4","last_reported":1701547586,"current_range_meters":20000,"station_id":"ce4bgt92rcd13ifvqcf0","pricing_plan_id":"free"},{"bike_id":"8a510583-18a4-4241-8ed3-6a287c2d3c24","system_id":"levelo_inurba_marseille","lat":43.31374,"lon":5.38502,"is_reserved":false,"is_disabled":false,"rental_uris":{"android":"levelo://app?vid=8a510583-18a4-4241-8ed3-6a287c2d3c24","ios":"levelo://app?vid=8a510583-18a4-4241-8ed3-6a287c2d3c24"},"vehicle_type_id":"4","last_reported":1701547586,"current_range_meters":31200,"station_id":"ce4bgt92rcd13ifvqcf0","pricing_plan_id":"free"},{"bike_id":"1bc53a9c-ffc9-4026-afd9-9a971feec816","system_id":"levelo_inurba_marseille","lat":43.299222,"lon":5.365554,"is_reserved":false,"is_disabled":false,"rental_uris":{"android":"levelo://app?vid=1bc53a9c-ffc9-4026-afd9-9a971feec816","ios":"levelo://app?vid=1bc53a9c-ffc9-4026-afd9-9a971feec816"},"vehicle_type_id":"4","last_reported":1701547586,"current_range_meters":15600,"station_id":"ce4bgm92rcd13ifvqbr0","pricing_plan_id":"free"},{"bike_id":"9fdb7f97-586d-42d2-befd-15216ba2e422","system_id":"levelo_inurba_marseille","lat":43.31183,"lon":5.38523,"is_reserved":false,"is_disabled":false,"rental_uris":{"android":"levelo://app?vid=9fdb7f97-586d-42d2-befd-15216ba2e422","ios":"levelo://app?vid=9fdb7f97-586d-42d2-befd-15216ba2e422"},"vehicle_type_id":"4","last_reported":1701547586,"current_range_meters":400,"station_id":"","pricing_plan_id":"free"},{"bike_id":"748d12ab-8e09-4ecd-b2d2-cbe0ea9624f6","system_id":"levelo_inurba_marseille","lat":43.298993,"lon":5.367275,"is_reserved":false,"is_disabled":false,"rental_uris":{"android":"levelo://app?vid=748d12ab-8e09-4ecd-b2d2-cbe0ea9624f6","ios":"levelo://app?vid=748d12ab-8e09-4ecd-b2d2-cbe0ea9624f6"},"vehicle_type_id":"4","last_reported":1701547586,"current_range_meters":5200,"station_id":"","pricing_plan_id":"free"},{"bike_id":"cfdc1506-99c7-40d4-b8c8-e4b85ec59a42","system_id":"levelo_inurba_marseille","lat":43.311722,"lon":5.387247,"is_reserved":false,"is_disabled":false,"rental_uris":{"android":"levelo://app?vid=cfdc1506-99c7-40d4-b8c8-e4b85ec59a42","ios":"levelo://app?vid=cfdc1506-99c7-40d4-b8c8-e4b85ec59a42"},"vehicle_type_id":"4","last_reported":1701547586,"current_range_meters":28400,"station_id":"ce4bgv12rcd13ifvqcp0","pricing_plan_id":"free"},{"bike_id":"3c6eacad-63e8-42f7-9988-09cf64b64dd8","system_id":"levelo_inurba_marseille","lat":43.32831,"lon":5.36677,"is_reserved":false,"is_disabled":false,"rental_uris":{"android":"levelo://app?vid=3c6eacad-63e8-42f7-9988-09cf64b64dd8","ios":"levelo://app?vid=3c6eacad-63e8-42f7-9988-09cf64b64dd8"},"vehicle_type_id":"4","last_reported":1701547586,"current_range_meters":6400,"station_id":"ce4bhs92rcd13ifvqi0g","pricing_plan_id":"free"},{"bike_id":"863e68e6-f678-4404-9035-1f0c001016cb","system_id":"levelo_inurba_marseille","lat":43.328355,"lon":5.36688,"is_reserved":false,"is_disabled":false,"rental_uris":{"android":"levelo://app?vid=863e68e6-f678-4404-9035-1f0c001016cb","ios":"levelo://app?vid=863e68e6-f678-4404-9035-1f0c001016cb"},"vehicle_type_id":"4","last_reported":1701547586,"current_range_meters":18400,"station_id":"ce4bhs92rcd13ifvqi0g","pricing_plan_id":"free"},{"bike_id":"c0284961-478e-4ccd-b43e-321d6e4c5580","system_id":"levelo_inurba_marseille","lat":43.328361,"lon":5.366786,"is_reserved":false,"is_disabled":false,"rental_uris":{"android":"levelo://app?vid=c0284961-478e-4ccd-b43e-321d6e4c5580","ios":"levelo://app?vid=c0284961-478e-4ccd-b43e-321d6e4c5580"},"vehicle_type_id":"4","last_reported":1701547586,"current_range_meters":1600,"station_id":"ce4bhs92rcd13ifvqi0g","pricing_plan_id":"free"},{"bike_id":"5c26bdfb-7b7c-43fb-8a01-250128a1a6f8","system_id":"levelo_inurba_marseille","lat":43.32837,"lon":5.36676,"is_reserved":false,"is_disabled":false,"rental_uris":{"android":"levelo://app?vid=5c26bdfb-7b7c-43fb-8a01-250128a1a6f8","ios":"levelo://app?vid=5c26bdfb-7b7c-43fb-8a01-250128a1a6f8"},"vehicle_type_id":"4","last_reported":1701547586,"current_range_meters":20400,"station_id":"ce4bhs92rcd13ifvqi0g","pricing_plan_id":"free"},{"bike_id":"56c27ac6-d3be-4b1b-a869-2d0f1759ad4a","system_id":"levelo_inurba_marseille","lat":43.29815,"lon":5.37652,"is_reserved":false,"is_disabled":false,"rental_uris":{"android":"levelo://app?vid=56c27ac6-d3be-4b1b-a869-2d0f1759ad4a","ios":"levelo://app?vid=56c27ac6-d3be-4b1b-a869-2d0f1759ad4a"},"vehicle_type_id":"4","last_reported":1701547586,"current_range_meters":4000,"station_id":"","pricing_plan_id":"free"},{"bike_id":"fe854a9c-60ee-4926-a15d-97b9985ced77","system_id":"levelo_inurba_marseille","lat":43.296129,"lon":5.370777,"is_reserved":false,"is_disabled":false,"rental_uris":{"android":"levelo://app?vid=fe854a9c-60ee-4926-a15d-97b9985ced77","ios":"levelo://app?vid=fe854a9c-60ee-4926-a15d-97b9985ced77"},"vehicle_type_id":"4","last_reported":1701547586,"current_range_meters":24400,"station_id":"ce4bgnh2rcd13ifvqc0g","pricing_plan_id":"free"},{"bike_id":"eaa0e7e7-2390-47fa-909b-7b240952cbef","system_id":"levelo_inurba_marseille","lat":43.316507,"lon":5.389613,"is_reserved":false,"is_disabled":false,"rental_uris":{"android":"levelo://app?vid=eaa0e7e7-2390-47fa-909b-7b240952cbef","ios":"levelo://app?vid=eaa0e7e7-2390-47fa-909b-7b240952cbef"},"vehicle_type_id":"4","last_reported":1701547586,"current_range_meters":18800,"station_id":"","pricing_plan_id":"free"},{"bike_id":"1c666de0-bbb4-4870-949f-dc6c7f975bbb","system_id":"levelo_inurba_marseille","lat":43.29908,"lon":5.38141,"is_reserved":false,"is_disabled":false,"rental_uris":{"android":"levelo://app?vid=1c666de0-bbb4-4870-949f-dc6c7f975bbb","ios":"levelo://app?vid=1c666de0-bbb4-4870-949f-dc6c7f975bbb"},"vehicle_type_id":"4","last_reported":1701547586,"current_range_meters":3600,"station_id":"ce4bgj12rcd13ifvqbc0","pricing_plan_id":"free"},{"bike_id":"6ae1abc7-0588-4097-8fe4-294f7a2079f8","system_id":"levelo_inurba_marseille","lat":43.29529,"lon":5.37506,"is_reserved":false,"is_disabled":false,"rental_uris":{"android":"levelo://app?vid=6ae1abc7-0588-4097-8fe4-294f7a2079f8","ios":"levelo://app?vid=6ae1abc7-0588-4097-8fe4-294f7a2079f8"},"vehicle_type_id":"4","last_reported":1701547586,"current_range_meters":12000,"station_id":"ce4bgkp2rcd13ifvqbmg","pricing_plan_id":"free"},{"bike_id":"20bb95db-acdc-480a-93d3-01288378204b","system_id":"levelo_inurba_marseille","lat":43.299724,"lon":5.384848,"is_reserved":false,"is_disabled":false,"rental_uris":{"android":"levelo://app?vid=20bb95db-acdc-480a-93d3-01288378204b","ios":"levelo://app?vid=20bb95db-acdc-480a-93d3-01288378204b"},"vehicle_type_id":"4","last_reported":1701547586,"current_range_meters":5200,"station_id":"ce4bgj92rcd13ifvqbd0","pricing_plan_id":"free"},{"bike_id":"0463955d-f664-45be-a52b-31805ea594fd","system_id":"levelo_inurba_marseille","lat":43.29601,"lon":5.381084,"is_reserved":false,"is_disabled":false,"rental_uris":{"android":"levelo://app?vid=0463955d-f664-45be-a52b-31805ea594fd","ios":"levelo://app?vid=0463955d-f664-45be-a52b-31805ea594fd"},"vehicle_type_id":"4","last_reported":1701547586,"current_range_meters":3600,"station_id":"ce4bgl12rcd13ifvqbo0","pricing_plan_id":"free"},{"bike_id":"0d45326b-ccb3-43a1-a557-95a3aefa8d65","system_id":"levelo_inurba_marseille","lat":43.29602,"lon":5.381084,"is_reserved":false,"is_disabled":false,"rental_uris":{"android":"levelo://app?vid=0d45326b-ccb3-43a1-a557-95a3aefa8d65","ios":"levelo://app?vid=0d45326b-ccb3-43a1-a557-95a3aefa8d65"},"vehicle_type_id":"4","last_reported":1701547586,"current_range_meters":8800,"station_id":"ce4bgl12rcd13ifvqbo0","pricing_plan_id":"free"},{"bike_id":"648d90d1-16a1-42bf-89f3-832a33b4e588","system_id":"levelo_inurba_marseille","lat":43.293009,"lon":5.374584,"is_reserved":false,"is_disabled":false,"rental_uris":{"android":"levelo://app?vid=648d90d1-16a1-42bf-89f3-832a33b4e588","ios":"levelo://app?vid=648d90d1-16a1-42bf-89f3-832a33b4e588"},"vehicle_type_id":"4","last_reported":1701547586,"current_range_meters":27200,"station_id":"ce4bgi12rcd13ifvqb70","pricing_plan_id":"free"},{"bike_id":"1480c094-176e-4c94-bf32-425943209478","system_id":"levelo_inurba_marseille","lat":43.298667,"lon":5.389023,"is_reserved":false,"is_disabled":false,"rental_uris":{"android":"levelo://app?vid=1480c094-176e-4c94-bf32-425943209478","ios":"levelo://app?vid=1480c094-176e-4c94-bf32-425943209478"},"vehicle_type_id":"4","last_reported":1701547586,"current_range_meters":31200,"station_id":"ce4bh392rcd13ifvqdl0","pricing_plan_id":"free"},{"bike_id":"51cab574-6add-473c-bfa1-6d0bad26083f","system_id":"levelo_inurba_marseille","lat":43.291675,"lon":5.371583,"is_reserved":false,"is_disabled":false,"rental_uris":{"android":"levelo://app?vid=51cab574-6add-473c-bfa1-6d0bad26083f","ios":"levelo://app?vid=51cab574-6add-473c-bfa1-6d0bad26083f"},"vehicle_type_id":"4","last_reported":1701547586,"current_range_meters":20000,"station_id":"ce4bha92rcd13ifvqeh0","pricing_plan_id":"free"},{"bike_id":"01d23048-c628-4d4a-af7b-e609ec0939ff","system_id":"levelo_inurba_marseille","lat":43.313291,"lon":5.396838,"is_reserved":false,"is_disabled":false,"rental_uris":{"android":"levelo://app?vid=01d23048-c628-4d4a-af7b-e609ec0939ff","ios":"levelo://app?vid=01d23048-c628-4d4a-af7b-e609ec0939ff"},"vehicle_type_id":"4","last_reported":1701547586,"current_range_meters":10000,"station_id":"ce4bgvp2rcd13ifvqcu0","pricing_plan_id":"free"},{"bike_id":"ba440e75-7dff-487b-86e0-37bc8b6559ae","system_id":"levelo_inurba_marseille","lat":43.3133,"lon":5.39695,"is_reserved":false,"is_disabled":false,"rental_uris":{"android":"levelo://app?vid=ba440e75-7dff-487b-86e0-37bc8b6559ae","ios":"levelo://app?vid=ba440e75-7dff-487b-86e0-37bc8b6559ae"},"vehicle_type_id":"4","last_reported":1701547586,"current_range_meters":6800,"station_id":"ce4bgvp2rcd13ifvqcu0","pricing_plan_id":"free"},{"bike_id":"bdbfa43c-d0f0-4cad-9eb3-59e010e1b6b8","system_id":"levelo_inurba_marseille","lat":43.29003,"lon":5.3676,"is_reserved":false,"is_disabled":false,"rental_uris":{"android":"levelo://app?vid=bdbfa43c-d0f0-4cad-9eb3-59e010e1b6b8","ios":"levelo://app?vid=bdbfa43c-d0f0-4cad-9eb3-59e010e1b6b8"},"vehicle_type_id":"4","last_reported":1701547586,"current_range_meters":4400,"station_id":"","pricing_plan_id":"free"},{"bike_id":"9880c865-56cb-4bc3-b297-28d097e542d6","system_id":"levelo_inurba_marseille","lat":43.29045,"lon":5.37575,"is_reserved":false,"is_disabled":false,"rental_uris":{"android":"levelo://app?vid=9880c865-56cb-4bc3-b297-28d097e542d6","ios":"levelo://app?vid=9880c865-56cb-4bc3-b297-28d097e542d6"},"vehicle_type_id":"4","last_reported":1701547586,"current_range_meters":0,"station_id":"ce4bh692rcd13ifvqe90","pricing_plan_id":"free"},{"bike_id":"697e641d-cdf5-4589-8e38-91a9b892e854","system_id":"levelo_inurba_marseille","lat":43.294162,"lon":5.386292,"is_reserved":false,"is_disabled":false,"rental_uris":{"android":"levelo://app?vid=697e641d-cdf5-4589-8e38-91a9b892e854","ios":"levelo://app?vid=697e641d-cdf5-4589-8e38-91a9b892e854"},"vehicle_type_id":"4","last_reported":1701547586,"current_range_meters":14000,"station_id":"ce4bh2h2rcd13ifvqdh0","pricing_plan_id":"free"},{"bike_id":"8fa08b8d-628a-407d-a165-bad8691cc437","system_id":"levelo_inurba_marseille","lat":43.28943,"lon":5.36637,"is_reserved":false,"is_disabled":false,"rental_uris":{"android":"levelo://app?vid=8fa08b8d-628a-407d-a165-bad8691cc437","ios":"levelo://app?vid=8fa08b8d-628a-407d-a165-bad8691cc437"},"vehicle_type_id":"4","last_reported":1701547586,"current_range_meters":0,"station_id":"ce4bhap2rcd13ifvqek0","pricing_plan_id":"free"},{"bike_id":"3adcfc30-a47c-4f8a-92dd-96172c49d1b3","system_id":"levelo_inurba_marseille","lat":43.29266,"lon":5.3844,"is_reserved":false,"is_disabled":false,"rental_uris":{"android":"levelo://app?vid=3adcfc30-a47c-4f8a-92dd-96172c49d1b3","ios":"levelo://app?vid=3adcfc30-a47c-4f8a-92dd-96172c49d1b3"},"vehicle_type_id":"4","last_reported":1701547586,"current_range_meters":22000,"station_id":"ce4bh692rcd13ifvqea0","pricing_plan_id":"free"},{"bike_id":"c84f14e5-1c6a-48d5-b94e-e3f9d118a260","system_id":"levelo_inurba_marseille","lat":43.29263,"lon":5.384478,"is_reserved":false,"is_disabled":false,"rental_uris":{"android":"levelo://app?vid=c84f14e5-1c6a-48d5-b94e-e3f9d118a260","ios":"levelo://app?vid=c84f14e5-1c6a-48d5-b94e-e3f9d118a260"},"vehicle_type_id":"4","last_reported":1701547586,"current_range_meters":8000,"station_id":"","pricing_plan_id":"free"},{"bike_id":"e9c56328-4fe0-4fd6-94e6-926155a62574","system_id":"levelo_inurba_marseille","lat":43.292642,"lon":5.384254,"is_reserved":false,"is_disabled":false,"rental_uris":{"android":"levelo://app?vid=e9c56328-4fe0-4fd6-94e6-926155a62574","ios":"levelo://app?vid=e9c56328-4fe0-4fd6-94e6-926155a62574"},"vehicle_type_id":"4","last_reported":1701547586,"current_range_meters":6800,"station_id":"ce4bh692rcd13ifvqea0","pricing_plan_id":"free"},{"bike_id":"8e447e7d-5239-4d27-9e40-eee6f5870676","system_id":"levelo_inurba_marseille","lat":43.33042,"lon":5.38915,"is_reserved":false,"is_disabled":false,"rental_uris":{"android":"levelo://app?vid=8e447e7d-5239-4d27-9e40-eee6f5870676","ios":"levelo://app?vid=8e447e7d-5239-4d27-9e40-eee6f5870676"},"vehicle_type_id":"4","last_reported":1701547586,"current_range_meters":3600,"station_id":"ce4bhr92rcd13ifvqhrg","pricing_plan_id":"free"},{"bike_id":"80f15921-9d11-40c5-80f6-47a0d3ed9900","system_id":"levelo_inurba_marseille","lat":43.33041,"lon":5.38922,"is_reserved":false,"is_disabled":false,"rental_uris":{"android":"levelo://app?vid=80f15921-9d11-40c5-80f6-47a0d3ed9900","ios":"levelo://app?vid=80f15921-9d11-40c5-80f6-47a0d3ed9900"},"vehicle_type_id":"4","last_reported":1701547586,"current_range_meters":30800,"station_id":"ce4bhr92rcd13ifvqhrg","pricing_plan_id":"free"},{"bike_id":"7785b159-149f-4c48-a377-d11ef9c82922","system_id":"levelo_inurba_marseille","lat":43.330442,"lon":5.389148,"is_reserved":false,"is_disabled":false,"rental_uris":{"android":"levelo://app?vid=7785b159-149f-4c48-a377-d11ef9c82922","ios":"levelo://app?vid=7785b159-149f-4c48-a377-d11ef9c82922"},"vehicle_type_id":"4","last_reported":1701547586,"current_range_meters":30800,"station_id":"ce4bhr92rcd13ifvqhrg","pricing_plan_id":"free"},{"bike_id":"b38135b0-bb14-4c25-bf29-b49d406cc922","system_id":"levelo_inurba_marseille","lat":43.33056,"lon":5.39058,"is_reserved":false,"is_disabled":false,"rental_uris":{"android":"levelo://app?vid=b38135b0-bb14-4c25-bf29-b49d406cc922","ios":"levelo://app?vid=b38135b0-bb14-4c25-bf29-b49d406cc922"},"vehicle_type_id":"4","last_reported":1701547586,"current_range_meters":0,"station_id":"","pricing_plan_id":"free"},{"bike_id":"ac65bbd9-e75e-4b3a-ac30-603443a4d20f","system_id":"levelo_inurba_marseille","lat":43.30926,"lon":5.40145,"is_reserved":false,"is_disabled":false,"rental_uris":{"android":"levelo://app?vid=ac65bbd9-e75e-4b3a-ac30-603443a4d20f","ios":"levelo://app?vid=ac65bbd9-e75e-4b3a-ac30-603443a4d20f"},"vehicle_type_id":"4","last_reported":1701547586,"current_range_meters":25200,"station_id":"ce4bgvp2rcd13ifvqct0","pricing_plan_id":"free"},{"bike_id":"e97a29b3-6ccc-4736-a3d7-6d9aa484d32e","system_id":"levelo_inurba_marseille","lat":43.309371,"lon":5.401449,"is_reserved":false,"is_disabled":false,"rental_uris":{"android":"levelo://app?vid=e97a29b3-6ccc-4736-a3d7-6d9aa484d32e","ios":"levelo://app?vid=e97a29b3-6ccc-4736-a3d7-6d9aa484d32e"},"vehicle_type_id":"4","last_reported":1701547586,"current_range_meters":11600,"station_id":"ce4bgvp2rcd13ifvqct0","pricing_plan_id":"free"},{"bike_id":"0175dbce-0d09-4f51-bddd-3cf82c8d27d3","system_id":"levelo_inurba_marseille","lat":43.30642,"lon":5.401031,"is_reserved":false,"is_disabled":false,"rental_uris":{"android":"levelo://app?vid=0175dbce-0d09-4f51-bddd-3cf82c8d27d3","ios":"levelo://app?vid=0175dbce-0d09-4f51-bddd-3cf82c8d27d3"},"vehicle_type_id":"4","last_reported":1701547586,"current_range_meters":26400,"station_id":"ce4bh112rcd13ifvqda0","pricing_plan_id":"free"},{"bike_id":"669efa68-f7f6-4eb7-ba33-fab873eab365","system_id":"levelo_inurba_marseille","lat":43.30642,"lon":5.401031,"is_reserved":false,"is_disabled":false,"rental_uris":{"android":"levelo://app?vid=669efa68-f7f6-4eb7-ba33-fab873eab365","ios":"levelo://app?vid=669efa68-f7f6-4eb7-ba33-fab873eab365"},"vehicle_type_id":"4","last_reported":1701547586,"current_range_meters":0,"station_id":"ce4bh112rcd13ifvqda0","pricing_plan_id":"free"},{"bike_id":"214a28a2-319c-4c5f-8e3f-93396c3e5a3f","system_id":"levelo_inurba_marseille","lat":43.301117,"lon":5.398795,"is_reserved":false,"is_disabled":false,"rental_uris":{"android":"levelo://app?vid=214a28a2-319c-4c5f-8e3f-93396c3e5a3f","ios":"levelo://app?vid=214a28a2-319c-4c5f-8e3f-93396c3e5a3f"},"vehicle_type_id":"4","last_reported":1701547586,"current_range_meters":9200,"station_id":"ce4bh0h2rcd13ifvqd40","pricing_plan_id":"free"},{"bike_id":"db541720-6c1f-4b55-9785-677c2f18d2d3","system_id":"levelo_inurba_marseille","lat":43.301117,"lon":5.398795,"is_reserved":false,"is_disabled":false,"rental_uris":{"android":"levelo://app?vid=db541720-6c1f-4b55-9785-677c2f18d2d3","ios":"levelo://app?vid=db541720-6c1f-4b55-9785-677c2f18d2d3"},"vehicle_type_id":"4","last_reported":1701547586,"current_range_meters":26800,"station_id":"ce4bh0h2rcd13ifvqd40","pricing_plan_id":"free"},{"bike_id":"760572f8-dee5-4bce-bcf9-f9099a8fc286","system_id":"levelo_inurba_marseille","lat":43.286961,"lon":5.373785,"is_reserved":false,"is_disabled":false,"rental_uris":{"android":"levelo://app?vid=760572f8-dee5-4bce-bcf9-f9099a8fc286","ios":"levelo://app?vid=760572f8-dee5-4bce-bcf9-f9099a8fc286"},"vehicle_type_id":"4","last_reported":1701547586,"current_range_meters":22000,"station_id":"ce4bh3p2rcd13ifvqdq0","pricing_plan_id":"free"},{"bike_id":"3ab64926-c7e4-46d5-aef6-8380be5dbf9a","system_id":"levelo_inurba_marseille","lat":43.290345,"lon":5.38646,"is_reserved":false,"is_disabled":false,"rental_uris":{"android":"levelo://app?vid=3ab64926-c7e4-46d5-aef6-8380be5dbf9a","ios":"levelo://app?vid=3ab64926-c7e4-46d5-aef6-8380be5dbf9a"},"vehicle_type_id":"4","last_reported":1701547586,"current_range_meters":25600,"station_id":"ce4bh4p2rcd13ifvqe0g","pricing_plan_id":"free"},{"bike_id":"31d0e2e3-2507-408e-a9fc-284f7bcf551c","system_id":"levelo_inurba_marseille","lat":43.290345,"lon":5.38646,"is_reserved":false,"is_disabled":false,"rental_uris":{"android":"levelo://app?vid=31d0e2e3-2507-408e-a9fc-284f7bcf551c","ios":"levelo://app?vid=31d0e2e3-2507-408e-a9fc-284f7bcf551c"},"vehicle_type_id":"4","last_reported":1701547586,"current_range_meters":21200,"station_id":"ce4bh4p2rcd13ifvqe0g","pricing_plan_id":"free"},{"bike_id":"f0676c78-a637-4aa9-9515-a282d51af89b","system_id":"levelo_inurba_marseille","lat":43.302759,"lon":5.400793,"is_reserved":false,"is_disabled":false,"rental_uris":{"android":"levelo://app?vid=f0676c78-a637-4aa9-9515-a282d51af89b","ios":"levelo://app?vid=f0676c78-a637-4aa9-9515-a282d51af89b"},"vehicle_type_id":"4","last_reported":1701547586,"current_range_meters":6000,"station_id":"ce4bgvh2rcd13ifvqcs0","pricing_plan_id":"free"},{"bike_id":"156f89b1-9ae5-4ccc-a969-e34ba6b50cc5","system_id":"levelo_inurba_marseille","lat":43.302759,"lon":5.400793,"is_reserved":false,"is_disabled":false,"rental_uris":{"android":"levelo://app?vid=156f89b1-9ae5-4ccc-a969-e34ba6b50cc5","ios":"levelo://app?vid=156f89b1-9ae5-4ccc-a969-e34ba6b50cc5"},"vehicle_type_id":"4","last_reported":1701547586,"current_range_meters":1600,"station_id":"ce4bgvh2rcd13ifvqcs0","pricing_plan_id":"free"},{"bike_id":"6e129d2d-10ae-459a-a110-627ae0b88872","system_id":"levelo_inurba_marseille","lat":43.290345,"lon":5.38646,"is_reserved":false,"is_disabled":false,"rental_uris":{"android":"levelo://app?vid=6e129d2d-10ae-459a-a110-627ae0b88872","ios":"levelo://app?vid=6e129d2d-10ae-459a-a110-627ae0b88872"},"vehicle_type_id":"4","last_reported":1701547586,"current_range_meters":26000,"station_id":"ce4bh4p2rcd13ifvqe0g","pricing_plan_id":"free"},{"bike_id":"205d3f8a-424c-4928-90e3-835802b94835","system_id":"levelo_inurba_marseille","lat":43.29037,"lon":5.38666,"is_reserved":false,"is_disabled":false,"rental_uris":{"android":"levelo://app?vid=205d3f8a-424c-4928-90e3-835802b94835","ios":"levelo://app?vid=205d3f8a-424c-4928-90e3-835802b94835"},"vehicle_type_id":"4","last_reported":1701547586,"current_range_meters":3600,"station_id":"ce4bh4p2rcd13ifvqe0g","pricing_plan_id":"free"},{"bike_id":"c3a87c12-6c30-412a-9a45-5b7567f9e541","system_id":"levelo_inurba_marseille","lat":43.302759,"lon":5.400793,"is_reserved":false,"is_disabled":false,"rental_uris":{"android":"levelo://app?vid=c3a87c12-6c30-412a-9a45-5b7567f9e541","ios":"levelo://app?vid=c3a87c12-6c30-412a-9a45-5b7567f9e541"},"vehicle_type_id":"4","last_reported":1701547586,"current_range_meters":400,"station_id":"ce4bgvh2rcd13ifvqcs0","pricing_plan_id":"free"},{"bike_id":"7964562c-bfb8-4036-92d0-39493630829a","system_id":"levelo_inurba_marseille","lat":43.287185,"lon":5.379373,"is_reserved":false,"is_disabled":false,"rental_uris":{"android":"levelo://app?vid=7964562c-bfb8-4036-92d0-39493630829a","ios":"levelo://app?vid=7964562c-bfb8-4036-92d0-39493630829a"},"vehicle_type_id":"4","last_reported":1701547586,"current_range_meters":8800,"station_id":"ce4bh9p2rcd13ifvqec0","pricing_plan_id":"free"},{"bike_id":"3728d962-7ca0-4bd9-aef9-772cd82e5768","system_id":"levelo_inurba_marseille","lat":43.287184,"lon":5.37937,"is_reserved":false,"is_disabled":false,"rental_uris":{"android":"levelo://app?vid=3728d962-7ca0-4bd9-aef9-772cd82e5768","ios":"levelo://app?vid=3728d962-7ca0-4bd9-aef9-772cd82e5768"},"vehicle_type_id":"4","last_reported":1701547586,"current_range_meters":24000,"station_id":"ce4bh9p2rcd13ifvqec0","pricing_plan_id":"free"},{"bike_id":"64fa1201-66ce-4117-9832-8ae725ccfa4c","system_id":"levelo_inurba_marseille","lat":43.287193,"lon":5.37923,"is_reserved":false,"is_disabled":false,"rental_uris":{"android":"levelo://app?vid=64fa1201-66ce-4117-9832-8ae725ccfa4c","ios":"levelo://app?vid=64fa1201-66ce-4117-9832-8ae725ccfa4c"},"vehicle_type_id":"4","last_reported":1701547586,"current_range_meters":4400,"station_id":"ce4bh9p2rcd13ifvqec0","pricing_plan_id":"free"},{"bike_id":"76cb10c0-1a9e-49a2-a117-4a84731b1680","system_id":"levelo_inurba_marseille","lat":43.287138,"lon":5.379198,"is_reserved":false,"is_disabled":false,"rental_uris":{"android":"levelo://app?vid=76cb10c0-1a9e-49a2-a117-4a84731b1680","ios":"levelo://app?vid=76cb10c0-1a9e-49a2-a117-4a84731b1680"},"vehicle_type_id":"4","last_reported":1701547586,"current_range_meters":31200,"station_id":"ce4bh9p2rcd13ifvqec0","pricing_plan_id":"free"},{"bike_id":"564fda43-95fd-4b89-998b-b134bca902a0","system_id":"levelo_inurba_marseille","lat":43.287185,"lon":5.379373,"is_reserved":false,"is_disabled":false,"rental_uris":{"android":"levelo://app?vid=564fda43-95fd-4b89-998b-b134bca902a0","ios":"levelo://app?vid=564fda43-95fd-4b89-998b-b134bca902a0"},"vehicle_type_id":"4","last_reported":1701547586,"current_range_meters":10400,"station_id":"ce4bh9p2rcd13ifvqec0","pricing_plan_id":"free"},{"bike_id":"64f718e9-b87a-4574-91ed-03a3fa9dd2ad","system_id":"levelo_inurba_marseille","lat":43.316277,"lon":5.404603,"is_reserved":false,"is_disabled":false,"rental_uris":{"android":"levelo://app?vid=64f718e9-b87a-4574-91ed-03a3fa9dd2ad","ios":"levelo://app?vid=64f718e9-b87a-4574-91ed-03a3fa9dd2ad"},"vehicle_type_id":"4","last_reported":1701547586,"current_range_meters":10000,"station_id":"ce4bh012rcd13ifvqd00","pricing_plan_id":"free"},{"bike_id":"fa9588ba-3ce6-4195-a292-fe7d837b9fa4","system_id":"levelo_inurba_marseille","lat":43.286213,"lon":5.350971,"is_reserved":false,"is_disabled":false,"rental_uris":{"android":"levelo://app?vid=fa9588ba-3ce6-4195-a292-fe7d837b9fa4","ios":"levelo://app?vid=fa9588ba-3ce6-4195-a292-fe7d837b9fa4"},"vehicle_type_id":"4","last_reported":1701547586,"current_range_meters":31200,"station_id":"ce4bhch2rcd13ifvqeug","pricing_plan_id":"free"},{"bike_id":"81399bbb-4fe3-4dbb-9731-a5572b9d2fda","system_id":"levelo_inurba_marseille","lat":43.28613,"lon":5.351,"is_reserved":false,"is_disabled":false,"rental_uris":{"android":"levelo://app?vid=81399bbb-4fe3-4dbb-9731-a5572b9d2fda","ios":"levelo://app?vid=81399bbb-4fe3-4dbb-9731-a5572b9d2fda"},"vehicle_type_id":"4","last_reported":1701547586,"current_range_meters":30000,"station_id":"ce4bhch2rcd13ifvqeug","pricing_plan_id":"free"},{"bike_id":"3b7ba15b-8c65-4fcd-826d-b82c270ff007","system_id":"levelo_inurba_marseille","lat":43.283998,"lon":5.375062,"is_reserved":false,"is_disabled":false,"rental_uris":{"android":"levelo://app?vid=3b7ba15b-8c65-4fcd-826d-b82c270ff007","ios":"levelo://app?vid=3b7ba15b-8c65-4fcd-826d-b82c270ff007"},"vehicle_type_id":"4","last_reported":1701547586,"current_range_meters":0,"station_id":"ce4bh412rcd13ifvqds0","pricing_plan_id":"free"},{"bike_id":"9ca43e35-365f-4c15-add0-0ecfae713b68","system_id":"levelo_inurba_marseille","lat":43.295713,"lon":5.399639,"is_reserved":false,"is_disabled":false,"rental_uris":{"android":"levelo://app?vid=9ca43e35-365f-4c15-add0-0ecfae713b68","ios":"levelo://app?vid=9ca43e35-365f-4c15-add0-0ecfae713b68"},"vehicle_type_id":"4","last_reported":1701547586,"current_range_meters":20400,"station_id":"ce4bh312rcd13ifvqdj0","pricing_plan_id":"free"},{"bike_id":"fd321bf4-5648-4e39-a523-527d79422192","system_id":"levelo_inurba_marseille","lat":43.295713,"lon":5.399639,"is_reserved":false,"is_disabled":false,"rental_uris":{"android":"levelo://app?vid=fd321bf4-5648-4e39-a523-527d79422192","ios":"levelo://app?vid=fd321bf4-5648-4e39-a523-527d79422192"},"vehicle_type_id":"4","last_reported":1701547586,"current_range_meters":27600,"station_id":"ce4bh312rcd13ifvqdj0","pricing_plan_id":"free"},{"bike_id":"75ee5a35-25e5-4210-a426-2d92cbb1b782","system_id":"levelo_inurba_marseille","lat":43.333214,"lon":5.39603,"is_reserved":false,"is_disabled":false,"rental_uris":{"android":"levelo://app?vid=75ee5a35-25e5-4210-a426-2d92cbb1b782","ios":"levelo://app?vid=75ee5a35-25e5-4210-a426-2d92cbb1b782"},"vehicle_type_id":"4","last_reported":1701547586,"current_range_meters":0,"station_id":"","pricing_plan_id":"free"},{"bike_id":"ea2473fb-9be4-4d6a-a5df-d2b35b97a902","system_id":"levelo_inurba_marseille","lat":43.286595,"lon":5.386795,"is_reserved":false,"is_disabled":false,"rental_uris":{"android":"levelo://app?vid=ea2473fb-9be4-4d6a-a5df-d2b35b97a902","ios":"levelo://app?vid=ea2473fb-9be4-4d6a-a5df-d2b35b97a902"},"vehicle_type_id":"4","last_reported":1701547586,"current_range_meters":24800,"station_id":"ce4bh492rcd13ifvqdug","pricing_plan_id":"free"},{"bike_id":"f99fc4d8-709b-4cee-a32c-2cdd6f1e8b1e","system_id":"levelo_inurba_marseille","lat":43.337488,"lon":5.391105,"is_reserved":false,"is_disabled":false,"rental_uris":{"android":"levelo://app?vid=f99fc4d8-709b-4cee-a32c-2cdd6f1e8b1e","ios":"levelo://app?vid=f99fc4d8-709b-4cee-a32c-2cdd6f1e8b1e"},"vehicle_type_id":"4","last_reported":1701547586,"current_range_meters":24400,"station_id":"","pricing_plan_id":"free"},{"bike_id":"23a6e18e-5ad6-40cf-b6fb-7a4b1a6034c9","system_id":"levelo_inurba_marseille","lat":43.33717,"lon":5.391857,"is_reserved":false,"is_disabled":false,"rental_uris":{"android":"levelo://app?vid=23a6e18e-5ad6-40cf-b6fb-7a4b1a6034c9","ios":"levelo://app?vid=23a6e18e-5ad6-40cf-b6fb-7a4b1a6034c9"},"vehicle_type_id":"4","last_reported":1701547586,"current_range_meters":28800,"station_id":"ce4bhr92rcd13ifvqhsg","pricing_plan_id":"free"},{"bike_id":"a6da11b4-fe19-4bab-ab8a-728f789a57ed","system_id":"levelo_inurba_marseille","lat":43.323464,"lon":5.406297,"is_reserved":false,"is_disabled":false,"rental_uris":{"android":"levelo://app?vid=a6da11b4-fe19-4bab-ab8a-728f789a57ed","ios":"levelo://app?vid=a6da11b4-fe19-4bab-ab8a-728f789a57ed"},"vehicle_type_id":"4","last_reported":1701547586,"current_range_meters":29200,"station_id":"ce4bhq92rcd13ifvqhjg","pricing_plan_id":"free"},{"bike_id":"4454b820-95a3-4d2a-b731-d124b0a3c139","system_id":"levelo_inurba_marseille","lat":43.288466,"lon":5.393173,"is_reserved":false,"is_disabled":false,"rental_uris":{"android":"levelo://app?vid=4454b820-95a3-4d2a-b731-d124b0a3c139","ios":"levelo://app?vid=4454b820-95a3-4d2a-b731-d124b0a3c139"},"vehicle_type_id":"4","last_reported":1701547586,"current_range_meters":8800,"station_id":"","pricing_plan_id":"free"},{"bike_id":"32965421-94f2-4e2c-bcfb-878e2de2ec80","system_id":"levelo_inurba_marseille","lat":43.289363,"lon":5.396322,"is_reserved":false,"is_disabled":false,"rental_uris":{"android":"levelo://app?vid=32965421-94f2-4e2c-bcfb-878e2de2ec80","ios":"levelo://app?vid=32965421-94f2-4e2c-bcfb-878e2de2ec80"},"vehicle_type_id":"4","last_reported":1701547586,"current_range_meters":20000,"station_id":"ce4bh3h2rcd13ifvqdn0","pricing_plan_id":"free"},{"bike_id":"87525435-0018-4238-8f9a-4592b6c16e6c","system_id":"levelo_inurba_marseille","lat":43.289363,"lon":5.396322,"is_reserved":false,"is_disabled":false,"rental_uris":{"android":"levelo://app?vid=87525435-0018-4238-8f9a-4592b6c16e6c","ios":"levelo://app?vid=87525435-0018-4238-8f9a-4592b6c16e6c"},"vehicle_type_id":"4","last_reported":1701547586,"current_range_meters":29200,"station_id":"ce4bh3h2rcd13ifvqdn0","pricing_plan_id":"free"},{"bike_id":"dc54cd12-472b-4b39-bfbd-78c4cc204a29","system_id":"levelo_inurba_marseille","lat":43.292724,"lon":5.401131,"is_reserved":false,"is_disabled":false,"rental_uris":{"android":"levelo://app?vid=dc54cd12-472b-4b39-bfbd-78c4cc204a29","ios":"levelo://app?vid=dc54cd12-472b-4b39-bfbd-78c4cc204a29"},"vehicle_type_id":"4","last_reported":1701547586,"current_range_meters":4800,"station_id":"ce4bh312rcd13ifvqdk0","pricing_plan_id":"free"},{"bike_id":"3ffe2381-791e-4dfc-ab55-b1a1afebe7c4","system_id":"levelo_inurba_marseille","lat":43.28039,"lon":5.369297,"is_reserved":false,"is_disabled":false,"rental_uris":{"android":"levelo://app?vid=3ffe2381-791e-4dfc-ab55-b1a1afebe7c4","ios":"levelo://app?vid=3ffe2381-791e-4dfc-ab55-b1a1afebe7c4"},"vehicle_type_id":"4","last_reported":1701547586,"current_range_meters":22800,"station_id":"ce4bha12rcd13ifvqef0","pricing_plan_id":"free"},{"bike_id":"aeb3e04b-88a1-45f0-8329-e8fd4f64a08c","system_id":"levelo_inurba_marseille","lat":43.282744,"lon":5.350533,"is_reserved":false,"is_disabled":false,"rental_uris":{"android":"levelo://app?vid=aeb3e04b-88a1-45f0-8329-e8fd4f64a08c","ios":"levelo://app?vid=aeb3e04b-88a1-45f0-8329-e8fd4f64a08c"},"vehicle_type_id":"4","last_reported":1701547586,"current_range_meters":18400,"station_id":"ce4bhbp2rcd13ifvqerg","pricing_plan_id":"free"},{"bike_id":"19432015-2a0c-4cfc-b57e-a3bd3a6a0881","system_id":"levelo_inurba_marseille","lat":43.284462,"lon":5.392121,"is_reserved":false,"is_disabled":false,"rental_uris":{"android":"levelo://app?vid=19432015-2a0c-4cfc-b57e-a3bd3a6a0881","ios":"levelo://app?vid=19432015-2a0c-4cfc-b57e-a3bd3a6a0881"},"vehicle_type_id":"4","last_reported":1701547586,"current_range_meters":3600,"station_id":"ce4bhoh2rcd13ifvqh5g","pricing_plan_id":"free"},{"bike_id":"af384580-a1d5-477a-9975-79207041d129","system_id":"levelo_inurba_marseille","lat":43.28573,"lon":5.394992,"is_reserved":false,"is_disabled":false,"rental_uris":{"android":"levelo://app?vid=af384580-a1d5-477a-9975-79207041d129","ios":"levelo://app?vid=af384580-a1d5-477a-9975-79207041d129"},"vehicle_type_id":"4","last_reported":1701547586,"current_range_meters":12000,"station_id":"ce4bh292rcd13ifvqdg0","pricing_plan_id":"free"},{"bike_id":"3b1f7170-54a9-4725-9600-7eb9566c2016","system_id":"levelo_inurba_marseille","lat":43.27902,"lon":5.38019,"is_reserved":false,"is_disabled":false,"rental_uris":{"android":"levelo://app?vid=3b1f7170-54a9-4725-9600-7eb9566c2016","ios":"levelo://app?vid=3b1f7170-54a9-4725-9600-7eb9566c2016"},"vehicle_type_id":"4","last_reported":1701547586,"current_range_meters":21200,"station_id":"","pricing_plan_id":"free"},{"bike_id":"71a02c85-c219-4535-9c48-f8f398135475","system_id":"levelo_inurba_marseille","lat":43.28698,"lon":5.3998,"is_reserved":false,"is_disabled":false,"rental_uris":{"android":"levelo://app?vid=71a02c85-c219-4535-9c48-f8f398135475","ios":"levelo://app?vid=71a02c85-c219-4535-9c48-f8f398135475"},"vehicle_type_id":"4","last_reported":1701547586,"current_range_meters":0,"station_id":"","pricing_plan_id":"free"},{"bike_id":"a86b05ec-d6e9-4108-9eb9-985025562aa2","system_id":"levelo_inurba_marseille","lat":43.299579,"lon":5.413255,"is_reserved":false,"is_disabled":false,"rental_uris":{"android":"levelo://app?vid=a86b05ec-d6e9-4108-9eb9-985025562aa2","ios":"levelo://app?vid=a86b05ec-d6e9-4108-9eb9-985025562aa2"},"vehicle_type_id":"4","last_reported":1701547586,"current_range_meters":26800,"station_id":"ce4bhp12rcd13ifvqh9g","pricing_plan_id":"free"},{"bike_id":"edd9c944-aa31-4494-80cc-552f28e27862","system_id":"levelo_inurba_marseille","lat":43.292647,"lon":5.409162,"is_reserved":false,"is_disabled":false,"rental_uris":{"android":"levelo://app?vid=edd9c944-aa31-4494-80cc-552f28e27862","ios":"levelo://app?vid=edd9c944-aa31-4494-80cc-552f28e27862"},"vehicle_type_id":"4","last_reported":1701547586,"current_range_meters":18800,"station_id":"","pricing_plan_id":"free"},{"bike_id":"e5cfeb43-44c4-48ef-a2cc-43adc794b053","system_id":"levelo_inurba_marseille","lat":43.276188,"lon":5.36105,"is_reserved":false,"is_disabled":false,"rental_uris":{"android":"levelo://app?vid=e5cfeb43-44c4-48ef-a2cc-43adc794b053","ios":"levelo://app?vid=e5cfeb43-44c4-48ef-a2cc-43adc794b053"},"vehicle_type_id":"4","last_reported":1701547586,"current_range_meters":19600,"station_id":"ce4bgj92rcd13ifvqbe0","pricing_plan_id":"free"},{"bike_id":"1e6c48f0-3fb9-4d72-8f3e-ffd81e386925","system_id":"levelo_inurba_marseille","lat":43.27611,"lon":5.36108,"is_reserved":false,"is_disabled":false,"rental_uris":{"android":"levelo://app?vid=1e6c48f0-3fb9-4d72-8f3e-ffd81e386925","ios":"levelo://app?vid=1e6c48f0-3fb9-4d72-8f3e-ffd81e386925"},"vehicle_type_id":"4","last_reported":1701547586,"current_range_meters":1200,"station_id":"ce4bgj92rcd13ifvqbe0","pricing_plan_id":"free"},{"bike_id":"451e5711-912b-4e6f-ba92-14f20d0093e3","system_id":"levelo_inurba_marseille","lat":43.336956,"lon":5.406551,"is_reserved":false,"is_disabled":false,"rental_uris":{"android":"levelo://app?vid=451e5711-912b-4e6f-ba92-14f20d0093e3","ios":"levelo://app?vid=451e5711-912b-4e6f-ba92-14f20d0093e3"},"vehicle_type_id":"4","last_reported":1701547586,"current_range_meters":18800,"station_id":"","pricing_plan_id":"free"},{"bike_id":"5d6816a6-2580-4828-b6d6-2c41202b9639","system_id":"levelo_inurba_marseille","lat":43.33612,"lon":5.410321,"is_reserved":false,"is_disabled":false,"rental_uris":{"android":"levelo://app?vid=5d6816a6-2580-4828-b6d6-2c41202b9639","ios":"levelo://app?vid=5d6816a6-2580-4828-b6d6-2c41202b9639"},"vehicle_type_id":"4","last_reported":1701547586,"current_range_meters":27600,"station_id":"ce4bhqh2rcd13ifvqhmg","pricing_plan_id":"free"},{"bike_id":"dd1614ba-585e-450a-834b-1c03d5d026e1","system_id":"levelo_inurba_marseille","lat":43.273613,"lon":5.362705,"is_reserved":false,"is_disabled":false,"rental_uris":{"android":"levelo://app?vid=dd1614ba-585e-450a-834b-1c03d5d026e1","ios":"levelo://app?vid=dd1614ba-585e-450a-834b-1c03d5d026e1"},"vehicle_type_id":"4","last_reported":1701547586,"current_range_meters":31200,"station_id":"ce4bhbh2rcd13ifvqeo0","pricing_plan_id":"free"},{"bike_id":"892e8a87-e08a-41a6-afe1-363e7f590cfa","system_id":"levelo_inurba_marseille","lat":43.275625,"lon":5.384392,"is_reserved":false,"is_disabled":false,"rental_uris":{"android":"levelo://app?vid=892e8a87-e08a-41a6-afe1-363e7f590cfa","ios":"levelo://app?vid=892e8a87-e08a-41a6-afe1-363e7f590cfa"},"vehicle_type_id":"4","last_reported":1701547586,"current_range_meters":19600,"station_id":"ce4bhh92rcd13ifvqfi0","pricing_plan_id":"free"},{"bike_id":"6c6dfa43-2cc5-48c4-9b7a-5ea1c94db2ec","system_id":"levelo_inurba_marseille","lat":43.273609,"lon":5.362708,"is_reserved":false,"is_disabled":false,"rental_uris":{"android":"levelo://app?vid=6c6dfa43-2cc5-48c4-9b7a-5ea1c94db2ec","ios":"levelo://app?vid=6c6dfa43-2cc5-48c4-9b7a-5ea1c94db2ec"},"vehicle_type_id":"4","last_reported":1701547586,"current_range_meters":30000,"station_id":"ce4bhbh2rcd13ifvqeo0","pricing_plan_id":"free"},{"bike_id":"b479fcc3-0a05-4ccb-ba48-fc63c4e9d231","system_id":"levelo_inurba_marseille","lat":43.336134,"lon":5.410341,"is_reserved":false,"is_disabled":false,"rental_uris":{"android":"levelo://app?vid=b479fcc3-0a05-4ccb-ba48-fc63c4e9d231","ios":"levelo://app?vid=b479fcc3-0a05-4ccb-ba48-fc63c4e9d231"},"vehicle_type_id":"4","last_reported":1701547586,"current_range_meters":24400,"station_id":"ce4bhqh2rcd13ifvqhmg","pricing_plan_id":"free"},{"bike_id":"7a497553-d9f0-4bef-bb1d-4bc900d88ef4","system_id":"levelo_inurba_marseille","lat":43.336228,"lon":5.410286,"is_reserved":false,"is_disabled":false,"rental_uris":{"android":"levelo://app?vid=7a497553-d9f0-4bef-bb1d-4bc900d88ef4","ios":"levelo://app?vid=7a497553-d9f0-4bef-bb1d-4bc900d88ef4"},"vehicle_type_id":"4","last_reported":1701547586,"current_range_meters":2800,"station_id":"ce4bhqh2rcd13ifvqhmg","pricing_plan_id":"free"},{"bike_id":"75269014-fd84-4a1f-9fa5-95a0080041c8","system_id":"levelo_inurba_marseille","lat":43.310785,"lon":5.424305,"is_reserved":false,"is_disabled":false,"rental_uris":{"android":"levelo://app?vid=75269014-fd84-4a1f-9fa5-95a0080041c8","ios":"levelo://app?vid=75269014-fd84-4a1f-9fa5-95a0080041c8"},"vehicle_type_id":"4","last_reported":1701547586,"current_range_meters":28800,"station_id":"ce4bhp92rcd13ifvqhag","pricing_plan_id":"free"},{"bike_id":"910fd3aa-d2e0-4553-894a-6161d41c7fcd","system_id":"levelo_inurba_marseille","lat":43.27609,"lon":5.39475,"is_reserved":false,"is_disabled":false,"rental_uris":{"android":"levelo://app?vid=910fd3aa-d2e0-4553-894a-6161d41c7fcd","ios":"levelo://app?vid=910fd3aa-d2e0-4553-894a-6161d41c7fcd"},"vehicle_type_id":"4","last_reported":1701547586,"current_range_meters":17200,"station_id":"","pricing_plan_id":"free"},{"bike_id":"da7f7625-db63-42fe-a02c-753cd5ff3678","system_id":"levelo_inurba_marseille","lat":43.340804,"lon":5.410219,"is_reserved":false,"is_disabled":false,"rental_uris":{"android":"levelo://app?vid=da7f7625-db63-42fe-a02c-753cd5ff3678","ios":"levelo://app?vid=da7f7625-db63-42fe-a02c-753cd5ff3678"},"vehicle_type_id":"4","last_reported":1701547586,"current_range_meters":26400,"station_id":"ce4bhqh2rcd13ifvqhlg","pricing_plan_id":"free"},{"bike_id":"ac66a036-a10d-4f8c-83e4-715d71e292f8","system_id":"levelo_inurba_marseille","lat":43.295523,"lon":5.422926,"is_reserved":false,"is_disabled":false,"rental_uris":{"android":"levelo://app?vid=ac66a036-a10d-4f8c-83e4-715d71e292f8","ios":"levelo://app?vid=ac66a036-a10d-4f8c-83e4-715d71e292f8"},"vehicle_type_id":"4","last_reported":1701547586,"current_range_meters":30000,"station_id":"ce4bhph2rcd13ifvqhdg","pricing_plan_id":"free"},{"bike_id":"689548cb-1532-4459-af24-ecb3a78e3715","system_id":"levelo_inurba_marseille","lat":43.295511,"lon":5.422926,"is_reserved":false,"is_disabled":false,"rental_uris":{"android":"levelo://app?vid=689548cb-1532-4459-af24-ecb3a78e3715","ios":"levelo://app?vid=689548cb-1532-4459-af24-ecb3a78e3715"},"vehicle_type_id":"4","last_reported":1701547586,"current_range_meters":19200,"station_id":"ce4bhph2rcd13ifvqhdg","pricing_plan_id":"free"},{"bike_id":"8b156044-7a84-4f31-abe4-e5ca23c29d1c","system_id":"levelo_inurba_marseille","lat":43.295511,"lon":5.422926,"is_reserved":false,"is_disabled":false,"rental_uris":{"android":"levelo://app?vid=8b156044-7a84-4f31-abe4-e5ca23c29d1c","ios":"levelo://app?vid=8b156044-7a84-4f31-abe4-e5ca23c29d1c"},"vehicle_type_id":"4","last_reported":1701547586,"current_range_meters":10400,"station_id":"ce4bhph2rcd13ifvqhdg","pricing_plan_id":"free"},{"bike_id":"7dd60e2a-9923-455c-8dec-742eab9c3667","system_id":"levelo_inurba_marseille","lat":43.272124,"lon":5.391768,"is_reserved":false,"is_disabled":false,"rental_uris":{"android":"levelo://app?vid=7dd60e2a-9923-455c-8dec-742eab9c3667","ios":"levelo://app?vid=7dd60e2a-9923-455c-8dec-742eab9c3667"},"vehicle_type_id":"4","last_reported":1701547586,"current_range_meters":27200,"station_id":"ce4bhhp2rcd13ifvqfm0","pricing_plan_id":"free"},{"bike_id":"a5100d23-a569-41ab-8441-98b4377b12ad","system_id":"levelo_inurba_marseille","lat":43.272118,"lon":5.391758,"is_reserved":false,"is_disabled":false,"rental_uris":{"android":"levelo://app?vid=a5100d23-a569-41ab-8441-98b4377b12ad","ios":"levelo://app?vid=a5100d23-a569-41ab-8441-98b4377b12ad"},"vehicle_type_id":"4","last_reported":1701547586,"current_range_meters":3600,"station_id":"ce4bhhp2rcd13ifvqfm0","pricing_plan_id":"free"},{"bike_id":"1498b710-3df3-4215-b47a-913cc16b2862","system_id":"levelo_inurba_marseille","lat":43.278128,"lon":5.407195,"is_reserved":false,"is_disabled":false,"rental_uris":{"android":"levelo://app?vid=1498b710-3df3-4215-b47a-913cc16b2862","ios":"levelo://app?vid=1498b710-3df3-4215-b47a-913cc16b2862"},"vehicle_type_id":"4","last_reported":1701547586,"current_range_meters":30400,"station_id":"ce4bhnh2rcd13ifvqgtg","pricing_plan_id":"free"},{"bike_id":"a28f3b06-5e92-4dde-982b-7f23131c5c19","system_id":"levelo_inurba_marseille","lat":43.278128,"lon":5.407195,"is_reserved":false,"is_disabled":false,"rental_uris":{"android":"levelo://app?vid=a28f3b06-5e92-4dde-982b-7f23131c5c19","ios":"levelo://app?vid=a28f3b06-5e92-4dde-982b-7f23131c5c19"},"vehicle_type_id":"4","last_reported":1701547586,"current_range_meters":5600,"station_id":"ce4bhnh2rcd13ifvqgtg","pricing_plan_id":"free"},{"bike_id":"91922c7f-1d64-4a99-aea2-0fb906b24e6b","system_id":"levelo_inurba_marseille","lat":43.269467,"lon":5.386439,"is_reserved":false,"is_disabled":false,"rental_uris":{"android":"levelo://app?vid=91922c7f-1d64-4a99-aea2-0fb906b24e6b","ios":"levelo://app?vid=91922c7f-1d64-4a99-aea2-0fb906b24e6b"},"vehicle_type_id":"4","last_reported":1701547586,"current_range_meters":20000,"station_id":"ce4bhh92rcd13ifvqfh0","pricing_plan_id":"free"},{"bike_id":"95685763-623c-4a3e-8903-f00a16384f53","system_id":"levelo_inurba_marseille","lat":43.269467,"lon":5.386439,"is_reserved":false,"is_disabled":false,"rental_uris":{"android":"levelo://app?vid=95685763-623c-4a3e-8903-f00a16384f53","ios":"levelo://app?vid=95685763-623c-4a3e-8903-f00a16384f53"},"vehicle_type_id":"4","last_reported":1701547586,"current_range_meters":30000,"station_id":"ce4bhh92rcd13ifvqfh0","pricing_plan_id":"free"},{"bike_id":"0c118ff4-2a38-4233-b9c3-18777831970a","system_id":"levelo_inurba_marseille","lat":43.269467,"lon":5.386439,"is_reserved":false,"is_disabled":false,"rental_uris":{"android":"levelo://app?vid=0c118ff4-2a38-4233-b9c3-18777831970a","ios":"levelo://app?vid=0c118ff4-2a38-4233-b9c3-18777831970a"},"vehicle_type_id":"4","last_reported":1701547586,"current_range_meters":15200,"station_id":"ce4bhh92rcd13ifvqfh0","pricing_plan_id":"free"},{"bike_id":"fed911af-a46f-45f7-ad61-6e747a39eef0","system_id":"levelo_inurba_marseille","lat":43.269467,"lon":5.386439,"is_reserved":false,"is_disabled":false,"rental_uris":{"android":"levelo://app?vid=fed911af-a46f-45f7-ad61-6e747a39eef0","ios":"levelo://app?vid=fed911af-a46f-45f7-ad61-6e747a39eef0"},"vehicle_type_id":"4","last_reported":1701547586,"current_range_meters":1600,"station_id":"ce4bhh92rcd13ifvqfh0","pricing_plan_id":"free"},{"bike_id":"cd7c9c41-1d10-45b2-bab5-01d5cedfd7da","system_id":"levelo_inurba_marseille","lat":43.269319,"lon":5.389397,"is_reserved":false,"is_disabled":false,"rental_uris":{"android":"levelo://app?vid=cd7c9c41-1d10-45b2-bab5-01d5cedfd7da","ios":"levelo://app?vid=cd7c9c41-1d10-45b2-bab5-01d5cedfd7da"},"vehicle_type_id":"4","last_reported":1701547586,"current_range_meters":21200,"station_id":"ce4bhhh2rcd13ifvqfl0","pricing_plan_id":"free"},{"bike_id":"75dca2a7-8ffa-48ac-8e05-c6d001069d7a","system_id":"levelo_inurba_marseille","lat":43.269319,"lon":5.389397,"is_reserved":false,"is_disabled":false,"rental_uris":{"android":"levelo://app?vid=75dca2a7-8ffa-48ac-8e05-c6d001069d7a","ios":"levelo://app?vid=75dca2a7-8ffa-48ac-8e05-c6d001069d7a"},"vehicle_type_id":"4","last_reported":1701547586,"current_range_meters":13600,"station_id":"ce4bhhh2rcd13ifvqfl0","pricing_plan_id":"free"},{"bike_id":"0d153516-293d-4659-b199-d6abfe9637b3","system_id":"levelo_inurba_marseille","lat":43.26681,"lon":5.382694,"is_reserved":false,"is_disabled":false,"rental_uris":{"android":"levelo://app?vid=0d153516-293d-4659-b199-d6abfe9637b3","ios":"levelo://app?vid=0d153516-293d-4659-b199-d6abfe9637b3"},"vehicle_type_id":"4","last_reported":1701547586,"current_range_meters":19600,"station_id":"ce4bhg92rcd13ifvqf90","pricing_plan_id":"free"},{"bike_id":"79eb9f92-5628-423a-91cd-f16c3c93e782","system_id":"levelo_inurba_marseille","lat":43.265714,"lon":5.372891,"is_reserved":false,"is_disabled":false,"rental_uris":{"android":"levelo://app?vid=79eb9f92-5628-423a-91cd-f16c3c93e782","ios":"levelo://app?vid=79eb9f92-5628-423a-91cd-f16c3c93e782"},"vehicle_type_id":"4","last_reported":1701547586,"current_range_meters":28400,"station_id":"ce4bhg12rcd13ifvqf70","pricing_plan_id":"free"},{"bike_id":"e87842d7-6646-4383-b827-c2d08e46f555","system_id":"levelo_inurba_marseille","lat":43.267966,"lon":5.393976,"is_reserved":false,"is_disabled":false,"rental_uris":{"android":"levelo://app?vid=e87842d7-6646-4383-b827-c2d08e46f555","ios":"levelo://app?vid=e87842d7-6646-4383-b827-c2d08e46f555"},"vehicle_type_id":"4","last_reported":1701547586,"current_range_meters":7600,"station_id":"ce4bhh12rcd13ifvqfg0","pricing_plan_id":"free"},{"bike_id":"f8282c01-63ae-4d35-9657-10e97a46cf20","system_id":"levelo_inurba_marseille","lat":43.267966,"lon":5.393976,"is_reserved":false,"is_disabled":false,"rental_uris":{"android":"levelo://app?vid=f8282c01-63ae-4d35-9657-10e97a46cf20","ios":"levelo://app?vid=f8282c01-63ae-4d35-9657-10e97a46cf20"},"vehicle_type_id":"4","last_reported":1701547586,"current_range_meters":18400,"station_id":"ce4bhh12rcd13ifvqfg0","pricing_plan_id":"free"},{"bike_id":"7f836f53-943f-483d-b774-3da943f05524","system_id":"levelo_inurba_marseille","lat":43.308051,"lon":5.43527,"is_reserved":false,"is_disabled":false,"rental_uris":{"android":"levelo://app?vid=7f836f53-943f-483d-b774-3da943f05524","ios":"levelo://app?vid=7f836f53-943f-483d-b774-3da943f05524"},"vehicle_type_id":"4","last_reported":1701547586,"current_range_meters":20000,"station_id":"ce4bhph2rcd13ifvqheg","pricing_plan_id":"free"},{"bike_id":"2f632e36-8b94-48a5-b28f-5f7c30d70b65","system_id":"levelo_inurba_marseille","lat":43.265571,"lon":5.390032,"is_reserved":false,"is_disabled":false,"rental_uris":{"android":"levelo://app?vid=2f632e36-8b94-48a5-b28f-5f7c30d70b65","ios":"levelo://app?vid=2f632e36-8b94-48a5-b28f-5f7c30d70b65"},"vehicle_type_id":"4","last_reported":1701547586,"current_range_meters":12800,"station_id":"ce4bhe12rcd13ifvqf30","pricing_plan_id":"free"},{"bike_id":"a4b829a4-30b9-48ee-b317-5b192e670ab8","system_id":"levelo_inurba_marseille","lat":43.2607,"lon":5.393983,"is_reserved":false,"is_disabled":false,"rental_uris":{"android":"levelo://app?vid=a4b829a4-30b9-48ee-b317-5b192e670ab8","ios":"levelo://app?vid=a4b829a4-30b9-48ee-b317-5b192e670ab8"},"vehicle_type_id":"4","last_reported":1701547586,"current_range_meters":12800,"station_id":"ce4bhh92rcd13ifvqfj0","pricing_plan_id":"free"},{"bike_id":"68ee5a36-a22f-406b-9e33-ee1a70a37d07","system_id":"levelo_inurba_marseille","lat":43.2607,"lon":5.393983,"is_reserved":false,"is_disabled":false,"rental_uris":{"android":"levelo://app?vid=68ee5a36-a22f-406b-9e33-ee1a70a37d07","ios":"levelo://app?vid=68ee5a36-a22f-406b-9e33-ee1a70a37d07"},"vehicle_type_id":"4","last_reported":1701547586,"current_range_meters":13600,"station_id":"ce4bhh92rcd13ifvqfj0","pricing_plan_id":"free"},{"bike_id":"aae89ef0-82b9-4330-b64e-eaeb9e0441da","system_id":"levelo_inurba_marseille","lat":43.2607,"lon":5.393983,"is_reserved":false,"is_disabled":false,"rental_uris":{"android":"levelo://app?vid=aae89ef0-82b9-4330-b64e-eaeb9e0441da","ios":"levelo://app?vid=aae89ef0-82b9-4330-b64e-eaeb9e0441da"},"vehicle_type_id":"4","last_reported":1701547586,"current_range_meters":20000,"station_id":"ce4bhh92rcd13ifvqfj0","pricing_plan_id":"free"},{"bike_id":"17af9e80-8bc8-42cb-91c0-1cc66c74fe88","system_id":"levelo_inurba_marseille","lat":43.2607,"lon":5.393983,"is_reserved":false,"is_disabled":false,"rental_uris":{"android":"levelo://app?vid=17af9e80-8bc8-42cb-91c0-1cc66c74fe88","ios":"levelo://app?vid=17af9e80-8bc8-42cb-91c0-1cc66c74fe88"},"vehicle_type_id":"4","last_reported":1701547586,"current_range_meters":26000,"station_id":"ce4bhh92rcd13ifvqfj0","pricing_plan_id":"free"},{"bike_id":"5dab4bcb-5d0f-40be-b34d-5cf261fa2623","system_id":"levelo_inurba_marseille","lat":43.258224,"lon":5.394369,"is_reserved":false,"is_disabled":false,"rental_uris":{"android":"levelo://app?vid=5dab4bcb-5d0f-40be-b34d-5cf261fa2623","ios":"levelo://app?vid=5dab4bcb-5d0f-40be-b34d-5cf261fa2623"},"vehicle_type_id":"4","last_reported":1701547586,"current_range_meters":10000,"station_id":"ce4bhip2rcd13ifvqft0","pricing_plan_id":"free"},{"bike_id":"36e6f17f-c3db-48f7-86dc-f3b3f3ec3e2f","system_id":"levelo_inurba_marseille","lat":43.258224,"lon":5.394369,"is_reserved":false,"is_disabled":false,"rental_uris":{"android":"levelo://app?vid=36e6f17f-c3db-48f7-86dc-f3b3f3ec3e2f","ios":"levelo://app?vid=36e6f17f-c3db-48f7-86dc-f3b3f3ec3e2f"},"vehicle_type_id":"4","last_reported":1701547586,"current_range_meters":13600,"station_id":"ce4bhip2rcd13ifvqft0","pricing_plan_id":"free"},{"bike_id":"d83e48ac-2a86-45c4-af3a-74f38c183d44","system_id":"levelo_inurba_marseille","lat":43.258224,"lon":5.394369,"is_reserved":false,"is_disabled":false,"rental_uris":{"android":"levelo://app?vid=d83e48ac-2a86-45c4-af3a-74f38c183d44","ios":"levelo://app?vid=d83e48ac-2a86-45c4-af3a-74f38c183d44"},"vehicle_type_id":"4","last_reported":1701547586,"current_range_meters":23600,"station_id":"ce4bhip2rcd13ifvqft0","pricing_plan_id":"free"},{"bike_id":"b19339bd-8b27-48d6-889b-67fd9c72d504","system_id":"levelo_inurba_marseille","lat":43.270721,"lon":5.422764,"is_reserved":false,"is_disabled":false,"rental_uris":{"android":"levelo://app?vid=b19339bd-8b27-48d6-889b-67fd9c72d504","ios":"levelo://app?vid=b19339bd-8b27-48d6-889b-67fd9c72d504"},"vehicle_type_id":"4","last_reported":1701547586,"current_range_meters":25600,"station_id":"ce4bhk92rcd13ifvqgb0","pricing_plan_id":"free"},{"bike_id":"bdc72d7c-9d46-4016-8a92-851cd50823f9","system_id":"levelo_inurba_marseille","lat":43.259009,"lon":5.40929,"is_reserved":false,"is_disabled":false,"rental_uris":{"android":"levelo://app?vid=bdc72d7c-9d46-4016-8a92-851cd50823f9","ios":"levelo://app?vid=bdc72d7c-9d46-4016-8a92-851cd50823f9"},"vehicle_type_id":"4","last_reported":1701547586,"current_range_meters":27200,"station_id":"ce4bhm92rcd13ifvqglg","pricing_plan_id":"free"},{"bike_id":"8d7a849d-d75b-49e8-8a06-ba3e35d09f67","system_id":"levelo_inurba_marseille","lat":43.2479,"lon":5.374457,"is_reserved":false,"is_disabled":false,"rental_uris":{"android":"levelo://app?vid=8d7a849d-d75b-49e8-8a06-ba3e35d09f67","ios":"levelo://app?vid=8d7a849d-d75b-49e8-8a06-ba3e35d09f67"},"vehicle_type_id":"4","last_reported":1701547586,"current_range_meters":27200,"station_id":"ce4bhgh2rcd13ifvqfb0","pricing_plan_id":"free"},{"bike_id":"c7a1bba4-33ec-4aee-91dc-223c408e1a82","system_id":"levelo_inurba_marseille","lat":43.2479,"lon":5.374457,"is_reserved":false,"is_disabled":false,"rental_uris":{"android":"levelo://app?vid=c7a1bba4-33ec-4aee-91dc-223c408e1a82","ios":"levelo://app?vid=c7a1bba4-33ec-4aee-91dc-223c408e1a82"},"vehicle_type_id":"4","last_reported":1701547586,"current_range_meters":22800,"station_id":"ce4bhgh2rcd13ifvqfb0","pricing_plan_id":"free"},{"bike_id":"d93d8fe3-dded-4b43-ad44-b17a7bd4f009","system_id":"levelo_inurba_marseille","lat":43.250966,"lon":5.395186,"is_reserved":false,"is_disabled":false,"rental_uris":{"android":"levelo://app?vid=d93d8fe3-dded-4b43-ad44-b17a7bd4f009","ios":"levelo://app?vid=d93d8fe3-dded-4b43-ad44-b17a7bd4f009"},"vehicle_type_id":"4","last_reported":1701547586,"current_range_meters":26000,"station_id":"ce4bhm12rcd13ifvqgkg","pricing_plan_id":"free"},{"bike_id":"95654d96-f5a8-4bc4-8912-51a33939e6bd","system_id":"levelo_inurba_marseille","lat":43.246677,"lon":5.38168,"is_reserved":false,"is_disabled":false,"rental_uris":{"android":"levelo://app?vid=95654d96-f5a8-4bc4-8912-51a33939e6bd","ios":"levelo://app?vid=95654d96-f5a8-4bc4-8912-51a33939e6bd"},"vehicle_type_id":"4","last_reported":1701547586,"current_range_meters":0,"station_id":"ce4bhih2rcd13ifvqfr0","pricing_plan_id":"free"},{"bike_id":"8c1e3f91-0625-4f6f-ad01-1f5fb2757871","system_id":"levelo_inurba_marseille","lat":43.25102,"lon":5.403214,"is_reserved":false,"is_disabled":false,"rental_uris":{"android":"levelo://app?vid=8c1e3f91-0625-4f6f-ad01-1f5fb2757871","ios":"levelo://app?vid=8c1e3f91-0625-4f6f-ad01-1f5fb2757871"},"vehicle_type_id":"4","last_reported":1701547586,"current_range_meters":31600,"station_id":"ce4bhlh2rcd13ifvqgig","pricing_plan_id":"free"},{"bike_id":"55aef649-cb82-488f-a60c-f93cbbae28ff","system_id":"levelo_inurba_marseille","lat":43.25102,"lon":5.403214,"is_reserved":false,"is_disabled":false,"rental_uris":{"android":"levelo://app?vid=55aef649-cb82-488f-a60c-f93cbbae28ff","ios":"levelo://app?vid=55aef649-cb82-488f-a60c-f93cbbae28ff"},"vehicle_type_id":"4","last_reported":1701547586,"current_range_meters":26000,"station_id":"ce4bhlh2rcd13ifvqgig","pricing_plan_id":"free"},{"bike_id":"bb520e6a-c991-494d-a369-164b85e1bcba","system_id":"levelo_inurba_marseille","lat":43.25102,"lon":5.403214,"is_reserved":false,"is_disabled":false,"rental_uris":{"android":"levelo://app?vid=bb520e6a-c991-494d-a369-164b85e1bcba","ios":"levelo://app?vid=bb520e6a-c991-494d-a369-164b85e1bcba"},"vehicle_type_id":"4","last_reported":1701547586,"current_range_meters":22800,"station_id":"ce4bhlh2rcd13ifvqgig","pricing_plan_id":"free"},{"bike_id":"d539f8a2-347b-4f07-a59e-0dc733e5dc4f","system_id":"levelo_inurba_marseille","lat":43.25102,"lon":5.403214,"is_reserved":false,"is_disabled":false,"rental_uris":{"android":"levelo://app?vid=d539f8a2-347b-4f07-a59e-0dc733e5dc4f","ios":"levelo://app?vid=d539f8a2-347b-4f07-a59e-0dc733e5dc4f"},"vehicle_type_id":"4","last_reported":1701547586,"current_range_meters":2400,"station_id":"ce4bhlh2rcd13ifvqgig","pricing_plan_id":"free"},{"bike_id":"61a9e6b0-f435-4470-83bd-a67a85c1a979","system_id":"levelo_inurba_marseille","lat":43.243884,"lon":5.370736,"is_reserved":false,"is_disabled":false,"rental_uris":{"android":"levelo://app?vid=61a9e6b0-f435-4470-83bd-a67a85c1a979","ios":"levelo://app?vid=61a9e6b0-f435-4470-83bd-a67a85c1a979"},"vehicle_type_id":"4","last_reported":1701547586,"current_range_meters":29600,"station_id":"ce4bhhh2rcd13ifvqfk0","pricing_plan_id":"free"},{"bike_id":"d01d6e75-71cc-424f-abc9-83946ce074e9","system_id":"levelo_inurba_marseille","lat":43.245581,"lon":5.395069,"is_reserved":false,"is_disabled":false,"rental_uris":{"android":"levelo://app?vid=d01d6e75-71cc-424f-abc9-83946ce074e9","ios":"levelo://app?vid=d01d6e75-71cc-424f-abc9-83946ce074e9"},"vehicle_type_id":"4","last_reported":1701547586,"current_range_meters":26800,"station_id":"ce4bhlp2rcd13ifvqgjg","pricing_plan_id":"free"},{"bike_id":"29bf0100-d2d4-4378-815d-e51b10d52424","system_id":"levelo_inurba_marseille","lat":43.240623,"lon":5.377642,"is_reserved":false,"is_disabled":false,"rental_uris":{"android":"levelo://app?vid=29bf0100-d2d4-4378-815d-e51b10d52424","ios":"levelo://app?vid=29bf0100-d2d4-4378-815d-e51b10d52424"},"vehicle_type_id":"4","last_reported":1701547586,"current_range_meters":22000,"station_id":"ce4bhnp2rcd13ifvqgvg","pricing_plan_id":"free"},{"bike_id":"00a1dec1-70c9-4d75-874e-755df7c08474","system_id":"levelo_inurba_marseille","lat":43.24073,"lon":5.37759,"is_reserved":false,"is_disabled":false,"rental_uris":{"android":"levelo://app?vid=00a1dec1-70c9-4d75-874e-755df7c08474","ios":"levelo://app?vid=00a1dec1-70c9-4d75-874e-755df7c08474"},"vehicle_type_id":"4","last_reported":1701547586,"current_range_meters":22000,"station_id":"ce4bhnp2rcd13ifvqgvg","pricing_plan_id":"free"},{"bike_id":"6fe4e7e3-a04b-4a0e-b30e-50edec3f23b9","system_id":"levelo_inurba_marseille","lat":43.239588,"lon":5.366238,"is_reserved":false,"is_disabled":false,"rental_uris":{"android":"levelo://app?vid=6fe4e7e3-a04b-4a0e-b30e-50edec3f23b9","ios":"levelo://app?vid=6fe4e7e3-a04b-4a0e-b30e-50edec3f23b9"},"vehicle_type_id":"4","last_reported":1701547586,"current_range_meters":1600,"station_id":"ce4bhi12rcd13ifvqfp0","pricing_plan_id":"free"},{"bike_id":"253842fc-929c-41d1-9477-59c41002129c","system_id":"levelo_inurba_marseille","lat":43.239588,"lon":5.366238,"is_reserved":false,"is_disabled":false,"rental_uris":{"android":"levelo://app?vid=253842fc-929c-41d1-9477-59c41002129c","ios":"levelo://app?vid=253842fc-929c-41d1-9477-59c41002129c"},"vehicle_type_id":"4","last_reported":1701547586,"current_range_meters":31200,"station_id":"ce4bhi12rcd13ifvqfp0","pricing_plan_id":"free"},{"bike_id":"54ac5bc5-2832-4694-927f-e59c90385069","system_id":"levelo_inurba_marseille","lat":43.239588,"lon":5.366238,"is_reserved":false,"is_disabled":false,"rental_uris":{"android":"levelo://app?vid=54ac5bc5-2832-4694-927f-e59c90385069","ios":"levelo://app?vid=54ac5bc5-2832-4694-927f-e59c90385069"},"vehicle_type_id":"4","last_reported":1701547586,"current_range_meters":28000,"station_id":"ce4bhi12rcd13ifvqfp0","pricing_plan_id":"free"},{"bike_id":"b101f295-ac85-402a-8afe-c635c176f114","system_id":"levelo_inurba_marseille","lat":43.285277,"lon":5.460569,"is_reserved":false,"is_disabled":false,"rental_uris":{"android":"levelo://app?vid=b101f295-ac85-402a-8afe-c635c176f114","ios":"levelo://app?vid=b101f295-ac85-402a-8afe-c635c176f114"},"vehicle_type_id":"4","last_reported":1701547586,"current_range_meters":22400,"station_id":"","pricing_plan_id":"free"},{"bike_id":"384a17af-27e8-4164-b8c0-d8b51c5b0eac","system_id":"levelo_inurba_marseille","lat":43.231923,"lon":5.355545,"is_reserved":false,"is_disabled":false,"rental_uris":{"android":"levelo://app?vid=384a17af-27e8-4164-b8c0-d8b51c5b0eac","ios":"levelo://app?vid=384a17af-27e8-4164-b8c0-d8b51c5b0eac"},"vehicle_type_id":"4","last_reported":1701547586,"current_range_meters":10800,"station_id":"ce4bhu92rcd13ifvqi70","pricing_plan_id":"free"},{"bike_id":"2be3c405-8f91-4ed6-a9c6-0bdfea6feb80","system_id":"levelo_inurba_marseille","lat":43.23201,"lon":5.35552,"is_reserved":false,"is_disabled":false,"rental_uris":{"android":"levelo://app?vid=2be3c405-8f91-4ed6-a9c6-0bdfea6feb80","ios":"levelo://app?vid=2be3c405-8f91-4ed6-a9c6-0bdfea6feb80"},"vehicle_type_id":"4","last_reported":1701547586,"current_range_meters":8000,"station_id":"ce4bhu92rcd13ifvqi70","pricing_plan_id":"free"},{"bike_id":"df76bb33-a4ef-4a36-a72d-84c57504fc7a","system_id":"levelo_inurba_marseille","lat":43.23201,"lon":5.35549,"is_reserved":false,"is_disabled":false,"rental_uris":{"android":"levelo://app?vid=df76bb33-a4ef-4a36-a72d-84c57504fc7a","ios":"levelo://app?vid=df76bb33-a4ef-4a36-a72d-84c57504fc7a"},"vehicle_type_id":"4","last_reported":1701547586,"current_range_meters":31200,"station_id":"ce4bhu92rcd13ifvqi70","pricing_plan_id":"free"},{"bike_id":"e1e0ee00-25b6-4b3e-9528-4dc4d90295d8","system_id":"levelo_inurba_marseille","lat":43.231923,"lon":5.355545,"is_reserved":false,"is_disabled":false,"rental_uris":{"android":"levelo://app?vid=e1e0ee00-25b6-4b3e-9528-4dc4d90295d8","ios":"levelo://app?vid=e1e0ee00-25b6-4b3e-9528-4dc4d90295d8"},"vehicle_type_id":"4","last_reported":1701547586,"current_range_meters":8800,"station_id":"ce4bhu92rcd13ifvqi70","pricing_plan_id":"free"},{"bike_id":"177a82e2-68da-4975-a68b-b32649f3d1f2","system_id":"levelo_inurba_marseille","lat":43.231923,"lon":5.355545,"is_reserved":false,"is_disabled":false,"rental_uris":{"android":"levelo://app?vid=177a82e2-68da-4975-a68b-b32649f3d1f2","ios":"levelo://app?vid=177a82e2-68da-4975-a68b-b32649f3d1f2"},"vehicle_type_id":"4","last_reported":1701547586,"current_range_meters":12800,"station_id":"ce4bhu92rcd13ifvqi70","pricing_plan_id":"free"},{"bike_id":"9e01ee59-41e6-425c-ae1f-3e33312fefcd","system_id":"levelo_inurba_marseille","lat":43.231923,"lon":5.355545,"is_reserved":false,"is_disabled":false,"rental_uris":{"android":"levelo://app?vid=9e01ee59-41e6-425c-ae1f-3e33312fefcd","ios":"levelo://app?vid=9e01ee59-41e6-425c-ae1f-3e33312fefcd"},"vehicle_type_id":"4","last_reported":1701547586,"current_range_meters":19600,"station_id":"ce4bhu92rcd13ifvqi70","pricing_plan_id":"free"},{"bike_id":"4506c45e-2d09-462d-97b5-d051c36d1044","system_id":"levelo_inurba_marseille","lat":43.231919,"lon":5.355532,"is_reserved":false,"is_disabled":false,"rental_uris":{"android":"levelo://app?vid=4506c45e-2d09-462d-97b5-d051c36d1044","ios":"levelo://app?vid=4506c45e-2d09-462d-97b5-d051c36d1044"},"vehicle_type_id":"4","last_reported":1701547586,"current_range_meters":30400,"station_id":"ce4bhu92rcd13ifvqi70","pricing_plan_id":"free"},{"bike_id":"2b04708e-eed8-4471-916a-9fdeea01eec7","system_id":"levelo_inurba_marseille","lat":43.231923,"lon":5.355545,"is_reserved":false,"is_disabled":false,"rental_uris":{"android":"levelo://app?vid=2b04708e-eed8-4471-916a-9fdeea01eec7","ios":"levelo://app?vid=2b04708e-eed8-4471-916a-9fdeea01eec7"},"vehicle_type_id":"4","last_reported":1701547586,"current_range_meters":15200,"station_id":"ce4bhu92rcd13ifvqi70","pricing_plan_id":"free"},{"bike_id":"90a66033-92d6-4ce5-9800-5d20674c66dd","system_id":"levelo_inurba_marseille","lat":43.23195,"lon":5.35543,"is_reserved":false,"is_disabled":false,"rental_uris":{"android":"levelo://app?vid=90a66033-92d6-4ce5-9800-5d20674c66dd","ios":"levelo://app?vid=90a66033-92d6-4ce5-9800-5d20674c66dd"},"vehicle_type_id":"4","last_reported":1701547586,"current_range_meters":31200,"station_id":"ce4bhu92rcd13ifvqi70","pricing_plan_id":"free"},{"bike_id":"b8f295a9-10f8-4746-b4a0-4491480d1fc4","system_id":"levelo_inurba_marseille","lat":43.231919,"lon":5.355532,"is_reserved":false,"is_disabled":false,"rental_uris":{"android":"levelo://app?vid=b8f295a9-10f8-4746-b4a0-4491480d1fc4","ios":"levelo://app?vid=b8f295a9-10f8-4746-b4a0-4491480d1fc4"},"vehicle_type_id":"4","last_reported":1701547586,"current_range_meters":23200,"station_id":"ce4bhu92rcd13ifvqi70","pricing_plan_id":"free"},{"bike_id":"6041d620-664b-4836-b597-a0e62593a032","system_id":"levelo_inurba_marseille","lat":43.231923,"lon":5.355545,"is_reserved":false,"is_disabled":false,"rental_uris":{"android":"levelo://app?vid=6041d620-664b-4836-b597-a0e62593a032","ios":"levelo://app?vid=6041d620-664b-4836-b597-a0e62593a032"},"vehicle_type_id":"4","last_reported":1701547586,"current_range_meters":31200,"station_id":"ce4bhu92rcd13ifvqi70","pricing_plan_id":"free"},{"bike_id":"cf3102c4-88e0-4a41-86b7-69a76932d3e6","system_id":"levelo_inurba_marseille","lat":43.231923,"lon":5.355545,"is_reserved":false,"is_disabled":false,"rental_uris":{"android":"levelo://app?vid=cf3102c4-88e0-4a41-86b7-69a76932d3e6","ios":"levelo://app?vid=cf3102c4-88e0-4a41-86b7-69a76932d3e6"},"vehicle_type_id":"4","last_reported":1701547586,"current_range_meters":31200,"station_id":"ce4bhu92rcd13ifvqi70","pricing_plan_id":"free"},{"bike_id":"4e176977-ccb9-4a01-b3da-279fd61eadf6","system_id":"levelo_inurba_marseille","lat":43.231919,"lon":5.355532,"is_reserved":false,"is_disabled":false,"rental_uris":{"android":"levelo://app?vid=4e176977-ccb9-4a01-b3da-279fd61eadf6","ios":"levelo://app?vid=4e176977-ccb9-4a01-b3da-279fd61eadf6"},"vehicle_type_id":"4","last_reported":1701547586,"current_range_meters":21600,"station_id":"ce4bhu92rcd13ifvqi70","pricing_plan_id":"free"},{"bike_id":"6382809b-45d0-4ad2-8be7-697249f82077","system_id":"levelo_inurba_marseille","lat":43.231919,"lon":5.355532,"is_reserved":false,"is_disabled":false,"rental_uris":{"android":"levelo://app?vid=6382809b-45d0-4ad2-8be7-697249f82077","ios":"levelo://app?vid=6382809b-45d0-4ad2-8be7-697249f82077"},"vehicle_type_id":"4","last_reported":1701547586,"current_range_meters":31600,"station_id":"ce4bhu92rcd13ifvqi70","pricing_plan_id":"free"},{"bike_id":"6462fbc5-ceb8-47e3-b56d-fc1e69bef19f","system_id":"levelo_inurba_marseille","lat":43.231919,"lon":5.355532,"is_reserved":false,"is_disabled":false,"rental_uris":{"android":"levelo://app?vid=6462fbc5-ceb8-47e3-b56d-fc1e69bef19f","ios":"levelo://app?vid=6462fbc5-ceb8-47e3-b56d-fc1e69bef19f"},"vehicle_type_id":"4","last_reported":1701547586,"current_range_meters":28800,"station_id":"ce4bhu92rcd13ifvqi70","pricing_plan_id":"free"},{"bike_id":"cb3c5614-5a37-4ab8-a51e-8b81ebb4f897","system_id":"levelo_inurba_marseille","lat":43.231919,"lon":5.355532,"is_reserved":false,"is_disabled":false,"rental_uris":{"android":"levelo://app?vid=cb3c5614-5a37-4ab8-a51e-8b81ebb4f897","ios":"levelo://app?vid=cb3c5614-5a37-4ab8-a51e-8b81ebb4f897"},"vehicle_type_id":"4","last_reported":1701547586,"current_range_meters":15600,"station_id":"ce4bhu92rcd13ifvqi70","pricing_plan_id":"free"},{"bike_id":"4dae0f2e-3beb-46e8-877b-0143e05c3e8e","system_id":"levelo_inurba_marseille","lat":43.231919,"lon":5.355532,"is_reserved":false,"is_disabled":false,"rental_uris":{"android":"levelo://app?vid=4dae0f2e-3beb-46e8-877b-0143e05c3e8e","ios":"levelo://app?vid=4dae0f2e-3beb-46e8-877b-0143e05c3e8e"},"vehicle_type_id":"4","last_reported":1701547586,"current_range_meters":31200,"station_id":"ce4bhu92rcd13ifvqi70","pricing_plan_id":"free"},{"bike_id":"6573cb36-3c40-4042-8b0f-1356381ee019","system_id":"levelo_inurba_marseille","lat":43.231923,"lon":5.355545,"is_reserved":false,"is_disabled":false,"rental_uris":{"android":"levelo://app?vid=6573cb36-3c40-4042-8b0f-1356381ee019","ios":"levelo://app?vid=6573cb36-3c40-4042-8b0f-1356381ee019"},"vehicle_type_id":"4","last_reported":1701547586,"current_range_meters":31200,"station_id":"ce4bhu92rcd13ifvqi70","pricing_plan_id":"free"},{"bike_id":"d0b35396-6769-42d4-8160-8b44cb829902","system_id":"levelo_inurba_marseille","lat":43.23192,"lon":5.399832,"is_reserved":false,"is_disabled":false,"rental_uris":{"android":"levelo://app?vid=d0b35396-6769-42d4-8160-8b44cb829902","ios":"levelo://app?vid=d0b35396-6769-42d4-8160-8b44cb829902"},"vehicle_type_id":"4","last_reported":1701547586,"current_range_meters":30800,"station_id":"ce4bhn12rcd13ifvqgqg","pricing_plan_id":"free"},{"bike_id":"88cf855f-bb31-40e0-8afc-686df3c193ab","system_id":"levelo_inurba_marseille","lat":43.231794,"lon":5.400052,"is_reserved":false,"is_disabled":false,"rental_uris":{"android":"levelo://app?vid=88cf855f-bb31-40e0-8afc-686df3c193ab","ios":"levelo://app?vid=88cf855f-bb31-40e0-8afc-686df3c193ab"},"vehicle_type_id":"4","last_reported":1701547586,"current_range_meters":28800,"station_id":"ce4bhn12rcd13ifvqgqg","pricing_plan_id":"free"},{"bike_id":"6bd9f065-50d9-4657-9ca0-a006f413d305","system_id":"levelo_inurba_marseille","lat":43.231794,"lon":5.400052,"is_reserved":false,"is_disabled":false,"rental_uris":{"android":"levelo://app?vid=6bd9f065-50d9-4657-9ca0-a006f413d305","ios":"levelo://app?vid=6bd9f065-50d9-4657-9ca0-a006f413d305"},"vehicle_type_id":"4","last_reported":1701547586,"current_range_meters":31200,"station_id":"ce4bhn12rcd13ifvqgqg","pricing_plan_id":"free"},{"bike_id":"3ca2546c-f9ed-464d-b941-53a82f5e8048","system_id":"levelo_inurba_marseille","lat":43.231794,"lon":5.400052,"is_reserved":false,"is_disabled":false,"rental_uris":{"android":"levelo://app?vid=3ca2546c-f9ed-464d-b941-53a82f5e8048","ios":"levelo://app?vid=3ca2546c-f9ed-464d-b941-53a82f5e8048"},"vehicle_type_id":"4","last_reported":1701547586,"current_range_meters":12800,"station_id":"ce4bhn12rcd13ifvqgqg","pricing_plan_id":"free"},{"bike_id":"22bd98e3-c33f-4c44-ae2b-f96729d36f4f","system_id":"levelo_inurba_marseille","lat":43.231793,"lon":5.400044,"is_reserved":false,"is_disabled":false,"rental_uris":{"android":"levelo://app?vid=22bd98e3-c33f-4c44-ae2b-f96729d36f4f","ios":"levelo://app?vid=22bd98e3-c33f-4c44-ae2b-f96729d36f4f"},"vehicle_type_id":"4","last_reported":1701547586,"current_range_meters":30000,"station_id":"ce4bhn12rcd13ifvqgqg","pricing_plan_id":"free"},{"bike_id":"b2dc27fe-d3dd-4dd0-b015-108c88d15d4b","system_id":"levelo_inurba_marseille","lat":43.231889,"lon":5.399849,"is_reserved":false,"is_disabled":false,"rental_uris":{"android":"levelo://app?vid=b2dc27fe-d3dd-4dd0-b015-108c88d15d4b","ios":"levelo://app?vid=b2dc27fe-d3dd-4dd0-b015-108c88d15d4b"},"vehicle_type_id":"4","last_reported":1701547586,"current_range_meters":14400,"station_id":"ce4bhn12rcd13ifvqgqg","pricing_plan_id":"free"},{"bike_id":"a926f4bb-1e59-4822-80ea-1d5ff6f2a5c5","system_id":"levelo_inurba_marseille","lat":43.23188,"lon":5.399827,"is_reserved":false,"is_disabled":false,"rental_uris":{"android":"levelo://app?vid=a926f4bb-1e59-4822-80ea-1d5ff6f2a5c5","ios":"levelo://app?vid=a926f4bb-1e59-4822-80ea-1d5ff6f2a5c5"},"vehicle_type_id":"4","last_reported":1701547586,"current_range_meters":18000,"station_id":"ce4bhn12rcd13ifvqgqg","pricing_plan_id":"free"},{"bike_id":"457c552c-8af5-4b7b-9f6b-8c901265a623","system_id":"levelo_inurba_marseille","lat":43.231875,"lon":5.399881,"is_reserved":false,"is_disabled":false,"rental_uris":{"android":"levelo://app?vid=457c552c-8af5-4b7b-9f6b-8c901265a623","ios":"levelo://app?vid=457c552c-8af5-4b7b-9f6b-8c901265a623"},"vehicle_type_id":"4","last_reported":1701547586,"current_range_meters":30800,"station_id":"ce4bhn12rcd13ifvqgqg","pricing_plan_id":"free"},{"bike_id":"6c2dc1c9-372c-445d-814a-4d69ce499bdb","system_id":"levelo_inurba_marseille","lat":43.23187,"lon":5.39988,"is_reserved":false,"is_disabled":false,"rental_uris":{"android":"levelo://app?vid=6c2dc1c9-372c-445d-814a-4d69ce499bdb","ios":"levelo://app?vid=6c2dc1c9-372c-445d-814a-4d69ce499bdb"},"vehicle_type_id":"4","last_reported":1701547586,"current_range_meters":0,"station_id":"ce4bhn12rcd13ifvqgqg","pricing_plan_id":"free"},{"bike_id":"77b1a551-da7f-429a-980e-bfc6767a5958","system_id":"levelo_inurba_marseille","lat":43.231794,"lon":5.400052,"is_reserved":false,"is_disabled":false,"rental_uris":{"android":"levelo://app?vid=77b1a551-da7f-429a-980e-bfc6767a5958","ios":"levelo://app?vid=77b1a551-da7f-429a-980e-bfc6767a5958"},"vehicle_type_id":"4","last_reported":1701547586,"current_range_meters":31200,"station_id":"ce4bhn12rcd13ifvqgqg","pricing_plan_id":"free"},{"bike_id":"83862a0a-d647-45eb-9884-693fce6366ab","system_id":"levelo_inurba_marseille","lat":43.23186,"lon":5.39986,"is_reserved":false,"is_disabled":false,"rental_uris":{"android":"levelo://app?vid=83862a0a-d647-45eb-9884-693fce6366ab","ios":"levelo://app?vid=83862a0a-d647-45eb-9884-693fce6366ab"},"vehicle_type_id":"4","last_reported":1701547586,"current_range_meters":17600,"station_id":"ce4bhn12rcd13ifvqgqg","pricing_plan_id":"free"},{"bike_id":"27852c29-47dc-4826-817e-c88bd3a0386e","system_id":"levelo_inurba_marseille","lat":43.23184,"lon":5.39993,"is_reserved":false,"is_disabled":false,"rental_uris":{"android":"levelo://app?vid=27852c29-47dc-4826-817e-c88bd3a0386e","ios":"levelo://app?vid=27852c29-47dc-4826-817e-c88bd3a0386e"},"vehicle_type_id":"4","last_reported":1701547586,"current_range_meters":21200,"station_id":"ce4bhn12rcd13ifvqgqg","pricing_plan_id":"free"},{"bike_id":"e47e98e0-4256-4c41-ae86-e531a41b9213","system_id":"levelo_inurba_marseille","lat":43.231794,"lon":5.400052,"is_reserved":false,"is_disabled":false,"rental_uris":{"android":"levelo://app?vid=e47e98e0-4256-4c41-ae86-e531a41b9213","ios":"levelo://app?vid=e47e98e0-4256-4c41-ae86-e531a41b9213"},"vehicle_type_id":"4","last_reported":1701547586,"current_range_meters":30800,"station_id":"ce4bhn12rcd13ifvqgqg","pricing_plan_id":"free"},{"bike_id":"cbdd057e-fe24-488c-9d67-9b0a90dfa6d5","system_id":"levelo_inurba_marseille","lat":43.23152,"lon":5.43717,"is_reserved":false,"is_disabled":false,"rental_uris":{"android":"levelo://app?vid=cbdd057e-fe24-488c-9d67-9b0a90dfa6d5","ios":"levelo://app?vid=cbdd057e-fe24-488c-9d67-9b0a90dfa6d5"},"vehicle_type_id":"4","last_reported":1701547586,"current_range_meters":18000,"station_id":"ce4bhmp2rcd13ifvqgog","pricing_plan_id":"free"}]}}