{"last_updated":1733609309,"ttl":60,"version":"2.2","data":{"bikes":[{"bike_id":"315cda4d-54e6-44c6-9a3e-df4c6e9b61b0","system_id":"levelo_inurba_marseille","lat":43.337444,"lon":5.374475,"is_reserved":false,"is_disabled":false,"rental_uris":{"android":"levelo://app?vid=315cda4d-54e6-44c6-9a3e-df4c6e9b61b0","ios":"levelo://app?vid=315cda4d-54e6-44c6-9a3e-df4c6e9b61b0"},"vehicle_type_id":"4","last_reported":1733609309,"current_range_meters":19200,"station_id":"","pricing_plan_id":"cebpf4jnsgd1na2vs0mg"},{"bike_id":"5653904d-83aa-4a9e-a12b-50e15e494cc5","system_id":"levelo_inurba_marseille","lat":43.29527,"lon":5.3904,"is_reserved":false,"is_disabled":false,"rental_uris":{"android":"levelo://app?vid=5653904d-83aa-4a9e-a12b-50e15e494cc5","ios":"levelo://app?vid=5653904d-83aa-4a9e-a12b-50e15e494cc5"},"vehicle_type_id":"4","last_reported":1733609309,"current_range_meters":38800,"station_id":"ce4bh3p2rcd13ifvqdp0","pricing_plan_id":"cebpf4jnsgd1na2vs0mg"},{"bike_id":"55d7a831-40f8-4501-9bc4-264da11c1dd0","system_id":"levelo_inurba_marseille","lat":43.29275,"lon":5.40118,"is_reserved":false,"is_disabled":true,"rental_uris":{"android":"levelo://app?vid=55d7a831-40f8-4501-9bc4-264da11c1dd0","ios":"levelo://app?vid=55d7a831-40f8-4501-9bc4-264da11c1dd0"},"vehicle_type_id":"4","last_reported":1733609309,"current_range_meters":25600,"station_id":"ce4bh312rcd13ifvqdk0","pricing_plan_id":"cebpf4jnsgd1na2vs0mg"},{"bike_id":"8e029eaf-e104-4c5d-858d-6cd39de73d09","system_id":"levelo_inurba_marseille","lat":43.24168,"lon":5.36383,"is_reserved":false,"is_disabled":false,"rental_uris":{"android":"levelo://app?vid=8e029eaf-e104-4c5d-858d-6cd39de73d09","ios":"levelo://app?vid=8e029eaf-e104-4c5d-858d-6cd39de73d09"},"vehicle_type_id":"4","last_reported":1733609309,"current_range_meters":31200,"station_id":"cpo36qri1sfpv3e86is0","pricing_plan_id":"cebpf4jnsgd1na2vs0mg"},{"bike_id":"7dea0d96-70fa-4522-82a7-67f7fc092a81","system_id":"levelo_inurba_marseille","lat":43.29733,"lon":5.37418,"is_reserved":false,"is_disabled":true,"rental_uris":{"android":"levelo://app?vid=7dea0d96-70fa-4522-82a7-67f7fc092a81","ios":"levelo://app?vid=7dea0d96-70fa-4522-82a7-67f7fc092a81"},"vehicle_type_id":"4","last_reported":1733609309,"current_range_meters":0,"station_id":"","pricing_plan_id":"cebpf4jnsgd1na2vs0mg"},{"bike_id":"38d7b96b-ea49-42ac-9547-ee57fecfb84c","system_id":"levelo_inurba_marseille","lat":43.28152,"lon":5.42637,"is_reserved":false,"is_disabled":false,"rental_uris":{"android":"levelo://app?vid=38d7b96b-ea49-42ac-9547-ee57fecfb84c","ios":"levelo://app?vid=38d7b96b-ea49-42ac-9547-ee57fecfb84c"},"vehicle_type_id":"4","last_reported":1733609309,"current_range_meters":24400,"station_id":"ce4bhnh2rcd13ifvqgug","pricing_plan_id":"cebpf4jnsgd1na2vs0mg"},{"bike_id":"e232d7ae-0864-4a70-8b5e-627ae37536a1","system_id":"levelo_inurba_marseille","lat":43.28111,"lon":5.37838,"is_reserved":false,"is_disabled":false,"rental_uris":{"android":"levelo://app?vid=e232d7ae-0864-4a70-8b5e-627ae37536a1","ios":"levelo://app?vid=e232d7ae-0864-4a70-8b5e-627ae37536a1"},"vehicle_type_id":"4","last_reported":1733609309,"current_range_meters":38800,"station_id":"ce4bha12rcd13ifvqee0","pricing_plan_id":"cebpf4jnsgd1na2vs0mg"},{"bike_id":"e37f0f48-ff13-4242-bca9-0687552cbad4","system_id":"levelo_inurba_marseille","lat":43.33026,"lon":5.39045,"is_reserved":false,"is_disabled":true,"rental_uris":{"android":"levelo://app?vid=e37f0f48-ff13-4242-bca9-0687552cbad4","ios":"levelo://app?vid=e37f0f48-ff13-4242-bca9-0687552cbad4"},"vehicle_type_id":"4","last_reported":1733609309,"current_range_meters":0,"station_id":"ce4bhr92rcd13ifvqhrg","pricing_plan_id":"cebpf4jnsgd1na2vs0mg"},{"bike_id":"f9e2e07a-1a1c-476a-b907-f71ab25c578d","system_id":"levelo_inurba_marseille","lat":43.31489,"lon":5.37306,"is_reserved":false,"is_disabled":false,"rental_uris":{"android":"levelo://app?vid=f9e2e07a-1a1c-476a-b907-f71ab25c578d","ios":"levelo://app?vid=f9e2e07a-1a1c-476a-b907-f71ab25c578d"},"vehicle_type_id":"4","last_reported":1733609309,"current_range_meters":38800,"station_id":"ce4bgt12rcd13ifvqcd0","pricing_plan_id":"cebpf4jnsgd1na2vs0mg"},{"bike_id":"2a4714ce-60ea-4e4b-8d17-db8f48e78980","system_id":"levelo_inurba_marseille","lat":43.32487,"lon":5.36563,"is_reserved":false,"is_disabled":false,"rental_uris":{"android":"levelo://app?vid=2a4714ce-60ea-4e4b-8d17-db8f48e78980","ios":"levelo://app?vid=2a4714ce-60ea-4e4b-8d17-db8f48e78980"},"vehicle_type_id":"4","last_reported":1733609309,"current_range_meters":38800,"station_id":"ce4bhs12rcd13ifvqhvg","pricing_plan_id":"cebpf4jnsgd1na2vs0mg"},{"bike_id":"2897b39e-4819-444a-9003-792e4302cc82","system_id":"levelo_inurba_marseille","lat":43.31273,"lon":5.40179,"is_reserved":false,"is_disabled":false,"rental_uris":{"android":"levelo://app?vid=2897b39e-4819-444a-9003-792e4302cc82","ios":"levelo://app?vid=2897b39e-4819-444a-9003-792e4302cc82"},"vehicle_type_id":"4","last_reported":1733609309,"current_range_meters":17200,"station_id":"ce4bh092rcd13ifvqd30","pricing_plan_id":"cebpf4jnsgd1na2vs0mg"},{"bike_id":"5fd8fda4-5ceb-4e39-b9f4-ea27acda2ce7","system_id":"levelo_inurba_marseille","lat":43.27184,"lon":5.40992,"is_reserved":false,"is_disabled":true,"rental_uris":{"android":"levelo://app?vid=5fd8fda4-5ceb-4e39-b9f4-ea27acda2ce7","ios":"levelo://app?vid=5fd8fda4-5ceb-4e39-b9f4-ea27acda2ce7"},"vehicle_type_id":"4","last_reported":1733609309,"current_range_meters":20800,"station_id":"ce4bhl12rcd13ifvqgf0","pricing_plan_id":"cebpf4jnsgd1na2vs0mg"},{"bike_id":"f28618e7-aa3f-48b3-bc07-904c60cc7503","system_id":"levelo_inurba_marseille","lat":43.30182,"lon":5.36611,"is_reserved":false,"is_disabled":false,"rental_uris":{"android":"levelo://app?vid=f28618e7-aa3f-48b3-bc07-904c60cc7503","ios":"levelo://app?vid=f28618e7-aa3f-48b3-bc07-904c60cc7503"},"vehicle_type_id":"4","last_reported":1733609309,"current_range_meters":28400,"station_id":"ce4bgrh2rcd13ifvqc8g","pricing_plan_id":"cebpf4jnsgd1na2vs0mg"},{"bike_id":"d11d7af5-74fc-48df-9cab-6fe348b61bb0","system_id":"levelo_inurba_marseille","lat":43.2931,"lon":5.37167,"is_reserved":false,"is_disabled":false,"rental_uris":{"android":"levelo://app?vid=d11d7af5-74fc-48df-9cab-6fe348b61bb0","ios":"levelo://app?vid=d11d7af5-74fc-48df-9cab-6fe348b61bb0"},"vehicle_type_id":"4","last_reported":1733609309,"current_range_meters":38800,"station_id":"ce4bgh92rcd13ifvqb40","pricing_plan_id":"cebpf4jnsgd1na2vs0mg"},{"bike_id":"8bd642b2-0279-44c7-9ee2-fc3b57332c83","system_id":"levelo_inurba_marseille","lat":43.27455,"lon":5.40073,"is_reserved":false,"is_disabled":true,"rental_uris":{"android":"levelo://app?vid=8bd642b2-0279-44c7-9ee2-fc3b57332c83","ios":"levelo://app?vid=8bd642b2-0279-44c7-9ee2-fc3b57332c83"},"vehicle_type_id":"4","last_reported":1733609309,"current_range_meters":0,"station_id":"","pricing_plan_id":"cebpf4jnsgd1na2vs0mg"},{"bike_id":"59760b4b-7d4e-4bb1-b683-9dcce79d8505","system_id":"levelo_inurba_marseille","lat":43.24078,"lon":5.37755,"is_reserved":false,"is_disabled":false,"rental_uris":{"android":"levelo://app?vid=59760b4b-7d4e-4bb1-b683-9dcce79d8505","ios":"levelo://app?vid=59760b4b-7d4e-4bb1-b683-9dcce79d8505"},"vehicle_type_id":"4","last_reported":1733609309,"current_range_meters":38800,"station_id":"ce4bhnp2rcd13ifvqgvg","pricing_plan_id":"cebpf4jnsgd1na2vs0mg"},{"bike_id":"d83d9dc7-ce4c-43e2-8c7d-eeda83c183ce","system_id":"levelo_inurba_marseille","lat":43.26055,"lon":5.39398,"is_reserved":false,"is_disabled":false,"rental_uris":{"android":"levelo://app?vid=d83d9dc7-ce4c-43e2-8c7d-eeda83c183ce","ios":"levelo://app?vid=d83d9dc7-ce4c-43e2-8c7d-eeda83c183ce"},"vehicle_type_id":"4","last_reported":1733609309,"current_range_meters":38800,"station_id":"ce4bhh92rcd13ifvqfj0","pricing_plan_id":"cebpf4jnsgd1na2vs0mg"},{"bike_id":"4ad99c17-08c8-492f-831b-e06f0ef99f43","system_id":"levelo_inurba_marseille","lat":43.29802,"lon":5.40411,"is_reserved":false,"is_disabled":false,"rental_uris":{"android":"levelo://app?vid=4ad99c17-08c8-492f-831b-e06f0ef99f43","ios":"levelo://app?vid=4ad99c17-08c8-492f-831b-e06f0ef99f43"},"vehicle_type_id":"4","last_reported":1733609309,"current_range_meters":38000,"station_id":"ce4bh112rcd13ifvqd90","pricing_plan_id":"cebpf4jnsgd1na2vs0mg"},{"bike_id":"aeb2d30e-81ec-4e7b-a816-a7ac5e038061","system_id":"levelo_inurba_marseille","lat":43.280815,"lon":5.407975,"is_reserved":false,"is_disabled":false,"rental_uris":{"android":"levelo://app?vid=aeb2d30e-81ec-4e7b-a816-a7ac5e038061","ios":"levelo://app?vid=aeb2d30e-81ec-4e7b-a816-a7ac5e038061"},"vehicle_type_id":"4","last_reported":1733609309,"current_range_meters":36400,"station_id":"ce4bgk12rcd13ifvqbi0","pricing_plan_id":"cebpf4jnsgd1na2vs0mg"},{"bike_id":"9ce6ad15-1501-4767-be1e-85b8ae49950f","system_id":"levelo_inurba_marseille","lat":43.2926,"lon":5.3846,"is_reserved":false,"is_disabled":false,"rental_uris":{"android":"levelo://app?vid=9ce6ad15-1501-4767-be1e-85b8ae49950f","ios":"levelo://app?vid=9ce6ad15-1501-4767-be1e-85b8ae49950f"},"vehicle_type_id":"4","last_reported":1733609309,"current_range_meters":11200,"station_id":"ce4bh692rcd13ifvqea0","pricing_plan_id":"cebpf4jnsgd1na2vs0mg"},{"bike_id":"74cdbc6e-5f1e-47ec-8395-54504d1f82a3","system_id":"levelo_inurba_marseille","lat":43.3089,"lon":5.37206,"is_reserved":false,"is_disabled":false,"rental_uris":{"android":"levelo://app?vid=74cdbc6e-5f1e-47ec-8395-54504d1f82a3","ios":"levelo://app?vid=74cdbc6e-5f1e-47ec-8395-54504d1f82a3"},"vehicle_type_id":"4","last_reported":1733609309,"current_range_meters":14800,"station_id":"ce4bguh2rcd13ifvqckg","pricing_plan_id":"cebpf4jnsgd1na2vs0mg"},{"bike_id":"650aedbd-7fe9-41b2-ab79-4b8450652642","system_id":"levelo_inurba_marseille","lat":43.29189,"lon":5.35792,"is_reserved":false,"is_disabled":true,"rental_uris":{"android":"levelo://app?vid=650aedbd-7fe9-41b2-ab79-4b8450652642","ios":"levelo://app?vid=650aedbd-7fe9-41b2-ab79-4b8450652642"},"vehicle_type_id":"4","last_reported":1733609309,"current_range_meters":38800,"station_id":"ce4bhb12rcd13ifvqel0","pricing_plan_id":"cebpf4jnsgd1na2vs0mg"},{"bike_id":"f359ebca-65ab-44f1-b316-32d2ac7c399b","system_id":"levelo_inurba_marseille","lat":43.29029,"lon":5.38147,"is_reserved":false,"is_disabled":false,"rental_uris":{"android":"levelo://app?vid=f359ebca-65ab-44f1-b316-32d2ac7c399b","ios":"levelo://app?vid=f359ebca-65ab-44f1-b316-32d2ac7c399b"},"vehicle_type_id":"4","last_reported":1733609309,"current_range_meters":32400,"station_id":"ce4bh4p2rcd13ifvqe1g","pricing_plan_id":"cebpf4jnsgd1na2vs0mg"},{"bike_id":"479889bf-dbf3-4abb-926f-bf7556951acc","system_id":"levelo_inurba_marseille","lat":43.29894,"lon":5.43668,"is_reserved":false,"is_disabled":false,"rental_uris":{"android":"levelo://app?vid=479889bf-dbf3-4abb-926f-bf7556951acc","ios":"levelo://app?vid=479889bf-dbf3-4abb-926f-bf7556951acc"},"vehicle_type_id":"4","last_reported":1733609309,"current_range_meters":38800,"station_id":"ce4bhpp2rcd13ifvqhfg","pricing_plan_id":"cebpf4jnsgd1na2vs0mg"},{"bike_id":"3000a861-0903-41f2-bb5d-48554b17ed5a","system_id":"levelo_inurba_marseille","lat":43.337444,"lon":5.374475,"is_reserved":false,"is_disabled":false,"rental_uris":{"android":"levelo://app?vid=3000a861-0903-41f2-bb5d-48554b17ed5a","ios":"levelo://app?vid=3000a861-0903-41f2-bb5d-48554b17ed5a"},"vehicle_type_id":"4","last_reported":1733609309,"current_range_meters":30800,"station_id":"","pricing_plan_id":"cebpf4jnsgd1na2vs0mg"},{"bike_id":"e14ff483-f290-4a96-beab-fc577b54c818","system_id":"levelo_inurba_marseille","lat":43.28492,"lon":5.36825,"is_reserved":false,"is_disabled":false,"rental_uris":{"android":"levelo://app?vid=e14ff483-f290-4a96-beab-fc577b54c818","ios":"levelo://app?vid=e14ff483-f290-4a96-beab-fc577b54c818"},"vehicle_type_id":"4","last_reported":1733609309,"current_range_meters":16000,"station_id":"","pricing_plan_id":"cebpf4jnsgd1na2vs0mg"},{"bike_id":"5198ebeb-704c-4d29-bbea-7ee0b65ac912","system_id":"levelo_inurba_marseille","lat":43.24078,"lon":5.37753,"is_reserved":false,"is_disabled":false,"rental_uris":{"android":"levelo://app?vid=5198ebeb-704c-4d29-bbea-7ee0b65ac912","ios":"levelo://app?vid=5198ebeb-704c-4d29-bbea-7ee0b65ac912"},"vehicle_type_id":"4","last_reported":1733609309,"current_range_meters":38800,"station_id":"ce4bhnp2rcd13ifvqgvg","pricing_plan_id":"cebpf4jnsgd1na2vs0mg"},{"bike_id":"95cfddd6-1f3c-4fd2-9652-931f20cf06bd","system_id":"levelo_inurba_marseille","lat":43.25576,"lon":5.38238,"is_reserved":false,"is_disabled":false,"rental_uris":{"android":"levelo://app?vid=95cfddd6-1f3c-4fd2-9652-931f20cf06bd","ios":"levelo://app?vid=95cfddd6-1f3c-4fd2-9652-931f20cf06bd"},"vehicle_type_id":"4","last_reported":1733609309,"current_range_meters":27600,"station_id":"ce4bhih2rcd13ifvqfs0","pricing_plan_id":"cebpf4jnsgd1na2vs0mg"},{"bike_id":"5a2102f3-04d2-4fe1-9bd4-bb4d3d20b677","system_id":"levelo_inurba_marseille","lat":43.26801,"lon":5.40261,"is_reserved":false,"is_disabled":false,"rental_uris":{"android":"levelo://app?vid=5a2102f3-04d2-4fe1-9bd4-bb4d3d20b677","ios":"levelo://app?vid=5a2102f3-04d2-4fe1-9bd4-bb4d3d20b677"},"vehicle_type_id":"4","last_reported":1733609309,"current_range_meters":38800,"station_id":"ce501612rcd8frsf0b60","pricing_plan_id":"cebpf4jnsgd1na2vs0mg"},{"bike_id":"89ceac00-2c22-4cb1-b85d-583fccdb788b","system_id":"levelo_inurba_marseille","lat":43.32103,"lon":5.3677,"is_reserved":false,"is_disabled":false,"rental_uris":{"android":"levelo://app?vid=89ceac00-2c22-4cb1-b85d-583fccdb788b","ios":"levelo://app?vid=89ceac00-2c22-4cb1-b85d-583fccdb788b"},"vehicle_type_id":"4","last_reported":1733609309,"current_range_meters":16400,"station_id":"ce4bhrh2rcd13ifvqhug","pricing_plan_id":"cebpf4jnsgd1na2vs0mg"},{"bike_id":"b0490633-77dc-46d5-9ee8-c136fd989e42","system_id":"levelo_inurba_marseille","lat":43.29898,"lon":5.43672,"is_reserved":false,"is_disabled":false,"rental_uris":{"android":"levelo://app?vid=b0490633-77dc-46d5-9ee8-c136fd989e42","ios":"levelo://app?vid=b0490633-77dc-46d5-9ee8-c136fd989e42"},"vehicle_type_id":"4","last_reported":1733609309,"current_range_meters":8800,"station_id":"ce4bhpp2rcd13ifvqhfg","pricing_plan_id":"cebpf4jnsgd1na2vs0mg"},{"bike_id":"ab1f0d28-f380-4551-95aa-09889e73948a","system_id":"levelo_inurba_marseille","lat":43.31117,"lon":5.37771,"is_reserved":false,"is_disabled":false,"rental_uris":{"android":"levelo://app?vid=ab1f0d28-f380-4551-95aa-09889e73948a","ios":"levelo://app?vid=ab1f0d28-f380-4551-95aa-09889e73948a"},"vehicle_type_id":"4","last_reported":1733609309,"current_range_meters":30000,"station_id":"ce4bgt92rcd13ifvqcg0","pricing_plan_id":"cebpf4jnsgd1na2vs0mg"},{"bike_id":"be2bb80b-a90e-46b8-abd2-749fa00601f0","system_id":"levelo_inurba_marseille","lat":43.301351,"lon":5.387836,"is_reserved":false,"is_disabled":false,"rental_uris":{"android":"levelo://app?vid=be2bb80b-a90e-46b8-abd2-749fa00601f0","ios":"levelo://app?vid=be2bb80b-a90e-46b8-abd2-749fa00601f0"},"vehicle_type_id":"4","last_reported":1733609309,"current_range_meters":24800,"station_id":"ce4bghh2rcd13ifvqb60","pricing_plan_id":"cebpf4jnsgd1na2vs0mg"},{"bike_id":"e6ef4c64-4c4c-48fa-a061-246db244ae4c","system_id":"levelo_inurba_marseille","lat":43.25579,"lon":5.38235,"is_reserved":false,"is_disabled":false,"rental_uris":{"android":"levelo://app?vid=e6ef4c64-4c4c-48fa-a061-246db244ae4c","ios":"levelo://app?vid=e6ef4c64-4c4c-48fa-a061-246db244ae4c"},"vehicle_type_id":"4","last_reported":1733609309,"current_range_meters":24400,"station_id":"ce4bhih2rcd13ifvqfs0","pricing_plan_id":"cebpf4jnsgd1na2vs0mg"},{"bike_id":"2b247ce2-f875-40e9-bf2a-461f41bc9f8c","system_id":"levelo_inurba_marseille","lat":43.2481,"lon":5.37464,"is_reserved":false,"is_disabled":true,"rental_uris":{"android":"levelo://app?vid=2b247ce2-f875-40e9-bf2a-461f41bc9f8c","ios":"levelo://app?vid=2b247ce2-f875-40e9-bf2a-461f41bc9f8c"},"vehicle_type_id":"4","last_reported":1733609309,"current_range_meters":2800,"station_id":"ce4bhgh2rcd13ifvqfb0","pricing_plan_id":"cebpf4jnsgd1na2vs0mg"},{"bike_id":"938640b4-f78c-4def-9b16-e6205edb88bc","system_id":"levelo_inurba_marseille","lat":43.28153,"lon":5.42633,"is_reserved":false,"is_disabled":true,"rental_uris":{"android":"levelo://app?vid=938640b4-f78c-4def-9b16-e6205edb88bc","ios":"levelo://app?vid=938640b4-f78c-4def-9b16-e6205edb88bc"},"vehicle_type_id":"4","last_reported":1733609309,"current_range_meters":12800,"station_id":"ce4bhnh2rcd13ifvqgug","pricing_plan_id":"cebpf4jnsgd1na2vs0mg"},{"bike_id":"88c1f670-c49e-46c2-a5e2-d489e778a200","system_id":"levelo_inurba_marseille","lat":43.32552,"lon":5.41435,"is_reserved":false,"is_disabled":false,"rental_uris":{"android":"levelo://app?vid=88c1f670-c49e-46c2-a5e2-d489e778a200","ios":"levelo://app?vid=88c1f670-c49e-46c2-a5e2-d489e778a200"},"vehicle_type_id":"4","last_reported":1733609309,"current_range_meters":17600,"station_id":"ce4bhq12rcd13ifvqhhg","pricing_plan_id":"cebpf4jnsgd1na2vs0mg"},{"bike_id":"6aeb447b-a7b4-4407-8e6c-ad0259c609e9","system_id":"levelo_inurba_marseille","lat":43.28852,"lon":5.35852,"is_reserved":false,"is_disabled":false,"rental_uris":{"android":"levelo://app?vid=6aeb447b-a7b4-4407-8e6c-ad0259c609e9","ios":"levelo://app?vid=6aeb447b-a7b4-4407-8e6c-ad0259c609e9"},"vehicle_type_id":"4","last_reported":1733609309,"current_range_meters":22000,"station_id":"ce4bhb12rcd13ifvqem0","pricing_plan_id":"cebpf4jnsgd1na2vs0mg"},{"bike_id":"32d80771-6afa-481c-905b-bbdfdc2c61dd","system_id":"levelo_inurba_marseille","lat":43.32483,"lon":5.3658,"is_reserved":false,"is_disabled":true,"rental_uris":{"android":"levelo://app?vid=32d80771-6afa-481c-905b-bbdfdc2c61dd","ios":"levelo://app?vid=32d80771-6afa-481c-905b-bbdfdc2c61dd"},"vehicle_type_id":"4","last_reported":1733609309,"current_range_meters":25600,"station_id":"ce4bhs12rcd13ifvqhvg","pricing_plan_id":"cebpf4jnsgd1na2vs0mg"},{"bike_id":"2f3968e7-9336-4ee4-ba78-8e92c0a818cc","system_id":"levelo_inurba_marseille","lat":43.31322,"lon":5.36647,"is_reserved":false,"is_disabled":true,"rental_uris":{"android":"levelo://app?vid=2f3968e7-9336-4ee4-ba78-8e92c0a818cc","ios":"levelo://app?vid=2f3968e7-9336-4ee4-ba78-8e92c0a818cc"},"vehicle_type_id":"4","last_reported":1733609309,"current_range_meters":0,"station_id":"","pricing_plan_id":"cebpf4jnsgd1na2vs0mg"},{"bike_id":"5ebc19a5-4eab-4ea6-b558-b6d986ab3c2e","system_id":"levelo_inurba_marseille","lat":43.24658,"lon":5.38893,"is_reserved":false,"is_disabled":false,"rental_uris":{"android":"levelo://app?vid=5ebc19a5-4eab-4ea6-b558-b6d986ab3c2e","ios":"levelo://app?vid=5ebc19a5-4eab-4ea6-b558-b6d986ab3c2e"},"vehicle_type_id":"4","last_reported":1733609309,"current_range_meters":38800,"station_id":"ce4bhg12rcd13ifvqf60","pricing_plan_id":"cebpf4jnsgd1na2vs0mg"},{"bike_id":"4d37d13c-52e3-4a68-9cba-952964672baf","system_id":"levelo_inurba_marseille","lat":43.31272,"lon":5.40168,"is_reserved":false,"is_disabled":false,"rental_uris":{"android":"levelo://app?vid=4d37d13c-52e3-4a68-9cba-952964672baf","ios":"levelo://app?vid=4d37d13c-52e3-4a68-9cba-952964672baf"},"vehicle_type_id":"4","last_reported":1733609309,"current_range_meters":2800,"station_id":"ce4bh092rcd13ifvqd30","pricing_plan_id":"cebpf4jnsgd1na2vs0mg"},{"bike_id":"3ba2ee36-2b31-4bc9-b8c0-c8096e25c27c","system_id":"levelo_inurba_marseille","lat":43.29898,"lon":5.43669,"is_reserved":false,"is_disabled":false,"rental_uris":{"android":"levelo://app?vid=3ba2ee36-2b31-4bc9-b8c0-c8096e25c27c","ios":"levelo://app?vid=3ba2ee36-2b31-4bc9-b8c0-c8096e25c27c"},"vehicle_type_id":"4","last_reported":1733609309,"current_range_meters":27600,"station_id":"ce4bhpp2rcd13ifvqhfg","pricing_plan_id":"cebpf4jnsgd1na2vs0mg"},{"bike_id":"7890fc54-1204-4f90-ba84-a69ad9463708","system_id":"levelo_inurba_marseille","lat":43.28661,"lon":5.36357,"is_reserved":false,"is_disabled":false,"rental_uris":{"android":"levelo://app?vid=7890fc54-1204-4f90-ba84-a69ad9463708","ios":"levelo://app?vid=7890fc54-1204-4f90-ba84-a69ad9463708"},"vehicle_type_id":"4","last_reported":1733609309,"current_range_meters":33200,"station_id":"ce4bhah2rcd13ifvqej0","pricing_plan_id":"cebpf4jnsgd1na2vs0mg"},{"bike_id":"b40b696f-64d7-45c8-83ef-44091bcac698","system_id":"levelo_inurba_marseille","lat":43.29526,"lon":5.39028,"is_reserved":false,"is_disabled":false,"rental_uris":{"android":"levelo://app?vid=b40b696f-64d7-45c8-83ef-44091bcac698","ios":"levelo://app?vid=b40b696f-64d7-45c8-83ef-44091bcac698"},"vehicle_type_id":"4","last_reported":1733609309,"current_range_meters":27600,"station_id":"ce4bh3p2rcd13ifvqdp0","pricing_plan_id":"cebpf4jnsgd1na2vs0mg"},{"bike_id":"7736d0dc-1989-4505-a61b-7fdb0a6489c6","system_id":"levelo_inurba_marseille","lat":43.32367,"lon":5.38889,"is_reserved":false,"is_disabled":true,"rental_uris":{"android":"levelo://app?vid=7736d0dc-1989-4505-a61b-7fdb0a6489c6","ios":"levelo://app?vid=7736d0dc-1989-4505-a61b-7fdb0a6489c6"},"vehicle_type_id":"4","last_reported":1733609309,"current_range_meters":4800,"station_id":"ce4bhqp2rcd13ifvqhog","pricing_plan_id":"cebpf4jnsgd1na2vs0mg"},{"bike_id":"0e77377b-ad1b-4799-934c-61d5e9b174fd","system_id":"levelo_inurba_marseille","lat":43.29794,"lon":5.38097,"is_reserved":false,"is_disabled":true,"rental_uris":{"android":"levelo://app?vid=0e77377b-ad1b-4799-934c-61d5e9b174fd","ios":"levelo://app?vid=0e77377b-ad1b-4799-934c-61d5e9b174fd"},"vehicle_type_id":"4","last_reported":1733609309,"current_range_meters":22800,"station_id":"ce4bgip2rcd13ifvqbb0","pricing_plan_id":"cebpf4jnsgd1na2vs0mg"},{"bike_id":"6583aefc-6815-4bd5-8f5c-a9c5d794f47e","system_id":"levelo_inurba_marseille","lat":43.36498,"lon":5.34272,"is_reserved":false,"is_disabled":false,"rental_uris":{"android":"levelo://app?vid=6583aefc-6815-4bd5-8f5c-a9c5d794f47e","ios":"levelo://app?vid=6583aefc-6815-4bd5-8f5c-a9c5d794f47e"},"vehicle_type_id":"4","last_reported":1733609309,"current_range_meters":24800,"station_id":"","pricing_plan_id":"cebpf4jnsgd1na2vs0mg"},{"bike_id":"07cf21b0-65a5-43b9-8d5a-03cfe755b1bb","system_id":"levelo_inurba_marseille","lat":43.2973,"lon":5.37687,"is_reserved":false,"is_disabled":false,"rental_uris":{"android":"levelo://app?vid=07cf21b0-65a5-43b9-8d5a-03cfe755b1bb","ios":"levelo://app?vid=07cf21b0-65a5-43b9-8d5a-03cfe755b1bb"},"vehicle_type_id":"4","last_reported":1733609309,"current_range_meters":24800,"station_id":"ce4bgkh2rcd13ifvqbl0","pricing_plan_id":"cebpf4jnsgd1na2vs0mg"},{"bike_id":"18c465ad-16a0-4d72-a337-11a15929aab8","system_id":"levelo_inurba_marseille","lat":43.23959,"lon":5.36631,"is_reserved":false,"is_disabled":true,"rental_uris":{"android":"levelo://app?vid=18c465ad-16a0-4d72-a337-11a15929aab8","ios":"levelo://app?vid=18c465ad-16a0-4d72-a337-11a15929aab8"},"vehicle_type_id":"4","last_reported":1733609309,"current_range_meters":38800,"station_id":"ce4bhi12rcd13ifvqfp0","pricing_plan_id":"cebpf4jnsgd1na2vs0mg"},{"bike_id":"d24ba112-fd35-4be4-adc0-0664a6e3ad7b","system_id":"levelo_inurba_marseille","lat":43.24658,"lon":5.38893,"is_reserved":false,"is_disabled":false,"rental_uris":{"android":"levelo://app?vid=d24ba112-fd35-4be4-adc0-0664a6e3ad7b","ios":"levelo://app?vid=d24ba112-fd35-4be4-adc0-0664a6e3ad7b"},"vehicle_type_id":"4","last_reported":1733609309,"current_range_meters":38800,"station_id":"ce4bhg12rcd13ifvqf60","pricing_plan_id":"cebpf4jnsgd1na2vs0mg"},{"bike_id":"f825a6e3-d202-4ddc-917b-5da49c4114c4","system_id":"levelo_inurba_marseille","lat":43.23192,"lon":5.35548,"is_reserved":false,"is_disabled":false,"rental_uris":{"android":"levelo://app?vid=f825a6e3-d202-4ddc-917b-5da49c4114c4","ios":"levelo://app?vid=f825a6e3-d202-4ddc-917b-5da49c4114c4"},"vehicle_type_id":"4","last_reported":1733609309,"current_range_meters":8000,"station_id":"ce4bhu92rcd13ifvqi70","pricing_plan_id":"cebpf4jnsgd1na2vs0mg"},{"bike_id":"8484a715-c898-4dcc-a30b-b27713f1f8b3","system_id":"levelo_inurba_marseille","lat":43.28707,"lon":5.37383,"is_reserved":false,"is_disabled":false,"rental_uris":{"android":"levelo://app?vid=8484a715-c898-4dcc-a30b-b27713f1f8b3","ios":"levelo://app?vid=8484a715-c898-4dcc-a30b-b27713f1f8b3"},"vehicle_type_id":"4","last_reported":1733609309,"current_range_meters":24400,"station_id":"ce4bh3p2rcd13ifvqdq0","pricing_plan_id":"cebpf4jnsgd1na2vs0mg"},{"bike_id":"468d023e-e483-49f2-92d7-7b95c7b3c650","system_id":"levelo_inurba_marseille","lat":43.29905,"lon":5.43675,"is_reserved":false,"is_disabled":false,"rental_uris":{"android":"levelo://app?vid=468d023e-e483-49f2-92d7-7b95c7b3c650","ios":"levelo://app?vid=468d023e-e483-49f2-92d7-7b95c7b3c650"},"vehicle_type_id":"4","last_reported":1733609309,"current_range_meters":11200,"station_id":"ce4bhpp2rcd13ifvqhfg","pricing_plan_id":"cebpf4jnsgd1na2vs0mg"},{"bike_id":"b0d0139d-a1a9-4bf4-a03d-0eabcf1ae106","system_id":"levelo_inurba_marseille","lat":43.25497,"lon":5.37659,"is_reserved":false,"is_disabled":false,"rental_uris":{"android":"levelo://app?vid=b0d0139d-a1a9-4bf4-a03d-0eabcf1ae106","ios":"levelo://app?vid=b0d0139d-a1a9-4bf4-a03d-0eabcf1ae106"},"vehicle_type_id":"4","last_reported":1733609309,"current_range_meters":34000,"station_id":"ce4bhh12rcd13ifvqff0","pricing_plan_id":"cebpf4jnsgd1na2vs0mg"},{"bike_id":"1f0069f4-0203-411f-9d54-4847020667f6","system_id":"levelo_inurba_marseille","lat":43.2861,"lon":5.39496,"is_reserved":false,"is_disabled":false,"rental_uris":{"android":"levelo://app?vid=1f0069f4-0203-411f-9d54-4847020667f6","ios":"levelo://app?vid=1f0069f4-0203-411f-9d54-4847020667f6"},"vehicle_type_id":"4","last_reported":1733609309,"current_range_meters":14400,"station_id":"ce4bh292rcd13ifvqdg0","pricing_plan_id":"cebpf4jnsgd1na2vs0mg"},{"bike_id":"c4657c79-2f8f-4993-92c9-26499857e24c","system_id":"levelo_inurba_marseille","lat":43.29853,"lon":5.36272,"is_reserved":false,"is_disabled":false,"rental_uris":{"android":"levelo://app?vid=c4657c79-2f8f-4993-92c9-26499857e24c","ios":"levelo://app?vid=c4657c79-2f8f-4993-92c9-26499857e24c"},"vehicle_type_id":"4","last_reported":1733609309,"current_range_meters":38000,"station_id":"ce4bgpp2rcd13ifvqc3g","pricing_plan_id":"cebpf4jnsgd1na2vs0mg"},{"bike_id":"95549e99-3d14-4048-a51a-7392522446dc","system_id":"levelo_inurba_marseille","lat":43.2319,"lon":5.35548,"is_reserved":false,"is_disabled":false,"rental_uris":{"android":"levelo://app?vid=95549e99-3d14-4048-a51a-7392522446dc","ios":"levelo://app?vid=95549e99-3d14-4048-a51a-7392522446dc"},"vehicle_type_id":"4","last_reported":1733609309,"current_range_meters":30400,"station_id":"ce4bhu92rcd13ifvqi70","pricing_plan_id":"cebpf4jnsgd1na2vs0mg"},{"bike_id":"1d885259-4890-4286-afb3-55f22044a06a","system_id":"levelo_inurba_marseille","lat":43.25493,"lon":5.37647,"is_reserved":false,"is_disabled":false,"rental_uris":{"android":"levelo://app?vid=1d885259-4890-4286-afb3-55f22044a06a","ios":"levelo://app?vid=1d885259-4890-4286-afb3-55f22044a06a"},"vehicle_type_id":"4","last_reported":1733609309,"current_range_meters":38000,"station_id":"ce4bhh12rcd13ifvqff0","pricing_plan_id":"cebpf4jnsgd1na2vs0mg"},{"bike_id":"f10c5e90-601b-4bd4-87e7-4cbb6a13a4fb","system_id":"levelo_inurba_marseille","lat":43.26123,"lon":5.39268,"is_reserved":false,"is_disabled":true,"rental_uris":{"android":"levelo://app?vid=f10c5e90-601b-4bd4-87e7-4cbb6a13a4fb","ios":"levelo://app?vid=f10c5e90-601b-4bd4-87e7-4cbb6a13a4fb"},"vehicle_type_id":"4","last_reported":1733609309,"current_range_meters":0,"station_id":"","pricing_plan_id":"cebpf4jnsgd1na2vs0mg"},{"bike_id":"b1a023a8-bfe2-4a8e-8aaa-4e18b6da929e","system_id":"levelo_inurba_marseille","lat":43.29415,"lon":5.38606,"is_reserved":false,"is_disabled":true,"rental_uris":{"android":"levelo://app?vid=b1a023a8-bfe2-4a8e-8aaa-4e18b6da929e","ios":"levelo://app?vid=b1a023a8-bfe2-4a8e-8aaa-4e18b6da929e"},"vehicle_type_id":"4","last_reported":1733609309,"current_range_meters":6400,"station_id":"ce4bh2h2rcd13ifvqdh0","pricing_plan_id":"cebpf4jnsgd1na2vs0mg"},{"bike_id":"5e468878-058d-46d1-a346-dd173435ca8d","system_id":"levelo_inurba_marseille","lat":43.29783,"lon":5.39339,"is_reserved":false,"is_disabled":false,"rental_uris":{"android":"levelo://app?vid=5e468878-058d-46d1-a346-dd173435ca8d","ios":"levelo://app?vid=5e468878-058d-46d1-a346-dd173435ca8d"},"vehicle_type_id":"4","last_reported":1733609309,"current_range_meters":39200,"station_id":"chh1huq6cuj3fo74tm60","pricing_plan_id":"cebpf4jnsgd1na2vs0mg"},{"bike_id":"d2d77fb1-d8e4-4d93-af48-f4130e25810f","system_id":"levelo_inurba_marseille","lat":43.25828,"lon":5.39436,"is_reserved":false,"is_disabled":false,"rental_uris":{"android":"levelo://app?vid=d2d77fb1-d8e4-4d93-af48-f4130e25810f","ios":"levelo://app?vid=d2d77fb1-d8e4-4d93-af48-f4130e25810f"},"vehicle_type_id":"4","last_reported":1733609309,"current_range_meters":35200,"station_id":"ce4bhip2rcd13ifvqft0","pricing_plan_id":"cebpf4jnsgd1na2vs0mg"},{"bike_id":"5d5e8e08-dd36-4331-9be8-d7717274c4bc","system_id":"levelo_inurba_marseille","lat":43.31275,"lon":5.401631,"is_reserved":false,"is_disabled":false,"rental_uris":{"android":"levelo://app?vid=5d5e8e08-dd36-4331-9be8-d7717274c4bc","ios":"levelo://app?vid=5d5e8e08-dd36-4331-9be8-d7717274c4bc"},"vehicle_type_id":"4","last_reported":1733609309,"current_range_meters":38800,"station_id":"ce4bh092rcd13ifvqd30","pricing_plan_id":"cebpf4jnsgd1na2vs0mg"},{"bike_id":"6e3f8772-b15f-40cc-b1c9-8f1733be3990","system_id":"levelo_inurba_marseille","lat":43.24803,"lon":5.37452,"is_reserved":false,"is_disabled":false,"rental_uris":{"android":"levelo://app?vid=6e3f8772-b15f-40cc-b1c9-8f1733be3990","ios":"levelo://app?vid=6e3f8772-b15f-40cc-b1c9-8f1733be3990"},"vehicle_type_id":"4","last_reported":1733609309,"current_range_meters":17200,"station_id":"ce4bhgh2rcd13ifvqfb0","pricing_plan_id":"cebpf4jnsgd1na2vs0mg"},{"bike_id":"95414d5c-6629-4e8c-8b6c-ad295613082f","system_id":"levelo_inurba_marseille","lat":43.30548,"lon":5.3654,"is_reserved":false,"is_disabled":true,"rental_uris":{"android":"levelo://app?vid=95414d5c-6629-4e8c-8b6c-ad295613082f","ios":"levelo://app?vid=95414d5c-6629-4e8c-8b6c-ad295613082f"},"vehicle_type_id":"4","last_reported":1733609309,"current_range_meters":0,"station_id":"ce4bgs12rcd13ifvqcag","pricing_plan_id":"cebpf4jnsgd1na2vs0mg"},{"bike_id":"45dcd923-4876-42e7-960a-878f303ebd33","system_id":"levelo_inurba_marseille","lat":43.32039,"lon":5.41566,"is_reserved":false,"is_disabled":false,"rental_uris":{"android":"levelo://app?vid=45dcd923-4876-42e7-960a-878f303ebd33","ios":"levelo://app?vid=45dcd923-4876-42e7-960a-878f303ebd33"},"vehicle_type_id":"4","last_reported":1733609309,"current_range_meters":34000,"station_id":"ce4bhq92rcd13ifvqhkg","pricing_plan_id":"cebpf4jnsgd1na2vs0mg"},{"bike_id":"9003abe5-1acf-4bc9-8847-3118dddaaea3","system_id":"levelo_inurba_marseille","lat":43.31361,"lon":5.38503,"is_reserved":false,"is_disabled":false,"rental_uris":{"android":"levelo://app?vid=9003abe5-1acf-4bc9-8847-3118dddaaea3","ios":"levelo://app?vid=9003abe5-1acf-4bc9-8847-3118dddaaea3"},"vehicle_type_id":"4","last_reported":1733609309,"current_range_meters":38800,"station_id":"ce4bgt92rcd13ifvqcf0","pricing_plan_id":"cebpf4jnsgd1na2vs0mg"},{"bike_id":"4e8813f7-059e-4f1a-92cd-87fd97b079e7","system_id":"levelo_inurba_marseille","lat":43.3042,"lon":5.41288,"is_reserved":false,"is_disabled":false,"rental_uris":{"android":"levelo://app?vid=4e8813f7-059e-4f1a-92cd-87fd97b079e7","ios":"levelo://app?vid=4e8813f7-059e-4f1a-92cd-87fd97b079e7"},"vehicle_type_id":"4","last_reported":1733609309,"current_range_meters":18800,"station_id":"ce4bhop2rcd13ifvqh8g","pricing_plan_id":"cebpf4jnsgd1na2vs0mg"},{"bike_id":"4ee32a79-d3c3-4ad5-a951-5b4528d6cc4b","system_id":"levelo_inurba_marseille","lat":43.31281,"lon":5.40169,"is_reserved":false,"is_disabled":false,"rental_uris":{"android":"levelo://app?vid=4ee32a79-d3c3-4ad5-a951-5b4528d6cc4b","ios":"levelo://app?vid=4ee32a79-d3c3-4ad5-a951-5b4528d6cc4b"},"vehicle_type_id":"4","last_reported":1733609309,"current_range_meters":35600,"station_id":"ce4bh092rcd13ifvqd30","pricing_plan_id":"cebpf4jnsgd1na2vs0mg"},{"bike_id":"c9b870d0-adbc-477b-b2c3-23e72738799d","system_id":"levelo_inurba_marseille","lat":43.24175,"lon":5.39732,"is_reserved":false,"is_disabled":false,"rental_uris":{"android":"levelo://app?vid=c9b870d0-adbc-477b-b2c3-23e72738799d","ios":"levelo://app?vid=c9b870d0-adbc-477b-b2c3-23e72738799d"},"vehicle_type_id":"4","last_reported":1733609309,"current_range_meters":24400,"station_id":"ce4bhn12rcd13ifvqgpg","pricing_plan_id":"cebpf4jnsgd1na2vs0mg"},{"bike_id":"6c95d172-e90f-4615-9d40-645b80c59fe9","system_id":"levelo_inurba_marseille","lat":43.31274,"lon":5.40171,"is_reserved":false,"is_disabled":false,"rental_uris":{"android":"levelo://app?vid=6c95d172-e90f-4615-9d40-645b80c59fe9","ios":"levelo://app?vid=6c95d172-e90f-4615-9d40-645b80c59fe9"},"vehicle_type_id":"4","last_reported":1733609309,"current_range_meters":35200,"station_id":"ce4bh092rcd13ifvqd30","pricing_plan_id":"cebpf4jnsgd1na2vs0mg"},{"bike_id":"76617812-83e6-420b-9090-9dab56f65a45","system_id":"levelo_inurba_marseille","lat":43.28933,"lon":5.38386,"is_reserved":false,"is_disabled":false,"rental_uris":{"android":"levelo://app?vid=76617812-83e6-420b-9090-9dab56f65a45","ios":"levelo://app?vid=76617812-83e6-420b-9090-9dab56f65a45"},"vehicle_type_id":"4","last_reported":1733609309,"current_range_meters":38400,"station_id":"ce4bh612rcd13ifvqe6g","pricing_plan_id":"cebpf4jnsgd1na2vs0mg"},{"bike_id":"73bc0833-d0b2-4f10-a6ee-ff223ab861e1","system_id":"levelo_inurba_marseille","lat":43.28363,"lon":5.38628,"is_reserved":false,"is_disabled":false,"rental_uris":{"android":"levelo://app?vid=73bc0833-d0b2-4f10-a6ee-ff223ab861e1","ios":"levelo://app?vid=73bc0833-d0b2-4f10-a6ee-ff223ab861e1"},"vehicle_type_id":"4","last_reported":1733609309,"current_range_meters":38800,"station_id":"ce4bh492rcd13ifvqdvg","pricing_plan_id":"cebpf4jnsgd1na2vs0mg"},{"bike_id":"2a022814-f741-4adf-a235-83d4941bf5e2","system_id":"levelo_inurba_marseille","lat":43.28421,"lon":5.34984,"is_reserved":false,"is_disabled":false,"rental_uris":{"android":"levelo://app?vid=2a022814-f741-4adf-a235-83d4941bf5e2","ios":"levelo://app?vid=2a022814-f741-4adf-a235-83d4941bf5e2"},"vehicle_type_id":"4","last_reported":1733609309,"current_range_meters":16400,"station_id":"ce4bhbh2rcd13ifvqepg","pricing_plan_id":"cebpf4jnsgd1na2vs0mg"},{"bike_id":"e8b85216-6f32-4c81-b3e9-22799d616c46","system_id":"levelo_inurba_marseille","lat":43.28943,"lon":5.36633,"is_reserved":false,"is_disabled":true,"rental_uris":{"android":"levelo://app?vid=e8b85216-6f32-4c81-b3e9-22799d616c46","ios":"levelo://app?vid=e8b85216-6f32-4c81-b3e9-22799d616c46"},"vehicle_type_id":"4","last_reported":1733609309,"current_range_meters":10000,"station_id":"ce4bhap2rcd13ifvqek0","pricing_plan_id":"cebpf4jnsgd1na2vs0mg"},{"bike_id":"9377eed1-097f-4df2-bce7-04ff61c950b3","system_id":"levelo_inurba_marseille","lat":43.27668,"lon":5.38869,"is_reserved":false,"is_disabled":false,"rental_uris":{"android":"levelo://app?vid=9377eed1-097f-4df2-bce7-04ff61c950b3","ios":"levelo://app?vid=9377eed1-097f-4df2-bce7-04ff61c950b3"},"vehicle_type_id":"4","last_reported":1733609309,"current_range_meters":36400,"station_id":"ce4bhi12rcd13ifvqfo0","pricing_plan_id":"cebpf4jnsgd1na2vs0mg"},{"bike_id":"43d7eecc-95c9-476c-817a-455c2aff05c6","system_id":"levelo_inurba_marseille","lat":43.23189,"lon":5.39988,"is_reserved":false,"is_disabled":false,"rental_uris":{"android":"levelo://app?vid=43d7eecc-95c9-476c-817a-455c2aff05c6","ios":"levelo://app?vid=43d7eecc-95c9-476c-817a-455c2aff05c6"},"vehicle_type_id":"4","last_reported":1733609309,"current_range_meters":38800,"station_id":"ce4bhn12rcd13ifvqgqg","pricing_plan_id":"cebpf4jnsgd1na2vs0mg"},{"bike_id":"b4b85197-48dd-4ba5-ae40-a2d6feedb2e1","system_id":"levelo_inurba_marseille","lat":43.28042,"lon":5.36938,"is_reserved":false,"is_disabled":false,"rental_uris":{"android":"levelo://app?vid=b4b85197-48dd-4ba5-ae40-a2d6feedb2e1","ios":"levelo://app?vid=b4b85197-48dd-4ba5-ae40-a2d6feedb2e1"},"vehicle_type_id":"4","last_reported":1733609309,"current_range_meters":32000,"station_id":"ce4bha12rcd13ifvqef0","pricing_plan_id":"cebpf4jnsgd1na2vs0mg"},{"bike_id":"f942e722-5039-4601-9971-0207b150598d","system_id":"levelo_inurba_marseille","lat":43.29853,"lon":5.36288,"is_reserved":false,"is_disabled":false,"rental_uris":{"android":"levelo://app?vid=f942e722-5039-4601-9971-0207b150598d","ios":"levelo://app?vid=f942e722-5039-4601-9971-0207b150598d"},"vehicle_type_id":"4","last_reported":1733609309,"current_range_meters":36800,"station_id":"ce4bgpp2rcd13ifvqc3g","pricing_plan_id":"cebpf4jnsgd1na2vs0mg"},{"bike_id":"987a5ab4-d60c-480c-94b6-7cab38975402","system_id":"levelo_inurba_marseille","lat":43.29748,"lon":5.37971,"is_reserved":false,"is_disabled":true,"rental_uris":{"android":"levelo://app?vid=987a5ab4-d60c-480c-94b6-7cab38975402","ios":"levelo://app?vid=987a5ab4-d60c-480c-94b6-7cab38975402"},"vehicle_type_id":"4","last_reported":1733609309,"current_range_meters":0,"station_id":"","pricing_plan_id":"cebpf4jnsgd1na2vs0mg"},{"bike_id":"db3b73b2-c012-4de8-a25a-066324dffd85","system_id":"levelo_inurba_marseille","lat":43.30546,"lon":5.36533,"is_reserved":false,"is_disabled":true,"rental_uris":{"android":"levelo://app?vid=db3b73b2-c012-4de8-a25a-066324dffd85","ios":"levelo://app?vid=db3b73b2-c012-4de8-a25a-066324dffd85"},"vehicle_type_id":"4","last_reported":1733609309,"current_range_meters":37600,"station_id":"ce4bgs12rcd13ifvqcag","pricing_plan_id":"cebpf4jnsgd1na2vs0mg"},{"bike_id":"ea3a9828-189e-48bb-9969-079f23b2d5e2","system_id":"levelo_inurba_marseille","lat":43.29037,"lon":5.37573,"is_reserved":false,"is_disabled":false,"rental_uris":{"android":"levelo://app?vid=ea3a9828-189e-48bb-9969-079f23b2d5e2","ios":"levelo://app?vid=ea3a9828-189e-48bb-9969-079f23b2d5e2"},"vehicle_type_id":"4","last_reported":1733609309,"current_range_meters":38800,"station_id":"ce4bh692rcd13ifvqe90","pricing_plan_id":"cebpf4jnsgd1na2vs0mg"},{"bike_id":"165d3311-a977-4745-b689-5e6993d37f26","system_id":"levelo_inurba_marseille","lat":43.32484,"lon":5.36567,"is_reserved":false,"is_disabled":true,"rental_uris":{"android":"levelo://app?vid=165d3311-a977-4745-b689-5e6993d37f26","ios":"levelo://app?vid=165d3311-a977-4745-b689-5e6993d37f26"},"vehicle_type_id":"4","last_reported":1733609309,"current_range_meters":35600,"station_id":"ce4bhs12rcd13ifvqhvg","pricing_plan_id":"cebpf4jnsgd1na2vs0mg"},{"bike_id":"b6da6692-7e69-4e98-8ae5-84a8533f251e","system_id":"levelo_inurba_marseille","lat":43.30552,"lon":5.36546,"is_reserved":false,"is_disabled":true,"rental_uris":{"android":"levelo://app?vid=b6da6692-7e69-4e98-8ae5-84a8533f251e","ios":"levelo://app?vid=b6da6692-7e69-4e98-8ae5-84a8533f251e"},"vehicle_type_id":"4","last_reported":1733609309,"current_range_meters":9200,"station_id":"ce4bgs12rcd13ifvqcag","pricing_plan_id":"cebpf4jnsgd1na2vs0mg"},{"bike_id":"05f50a29-9b9d-41ae-8b43-3d69a9a4fb88","system_id":"levelo_inurba_marseille","lat":43.25582,"lon":5.38227,"is_reserved":false,"is_disabled":false,"rental_uris":{"android":"levelo://app?vid=05f50a29-9b9d-41ae-8b43-3d69a9a4fb88","ios":"levelo://app?vid=05f50a29-9b9d-41ae-8b43-3d69a9a4fb88"},"vehicle_type_id":"4","last_reported":1733609309,"current_range_meters":38000,"station_id":"ce4bhih2rcd13ifvqfs0","pricing_plan_id":"cebpf4jnsgd1na2vs0mg"},{"bike_id":"11e86528-eb6b-4391-86a5-9b1822d069a4","system_id":"levelo_inurba_marseille","lat":43.278805,"lon":5.388003,"is_reserved":false,"is_disabled":true,"rental_uris":{"android":"levelo://app?vid=11e86528-eb6b-4391-86a5-9b1822d069a4","ios":"levelo://app?vid=11e86528-eb6b-4391-86a5-9b1822d069a4"},"vehicle_type_id":"4","last_reported":1733609309,"current_range_meters":0,"station_id":"","pricing_plan_id":"cebpf4jnsgd1na2vs0mg"},{"bike_id":"6cc6805f-c0ca-4585-bdf1-b5a0339762b0","system_id":"levelo_inurba_marseille","lat":43.29027,"lon":5.42744,"is_reserved":false,"is_disabled":true,"rental_uris":{"android":"levelo://app?vid=6cc6805f-c0ca-4585-bdf1-b5a0339762b0","ios":"levelo://app?vid=6cc6805f-c0ca-4585-bdf1-b5a0339762b0"},"vehicle_type_id":"4","last_reported":1733609309,"current_range_meters":0,"station_id":"","pricing_plan_id":"cebpf4jnsgd1na2vs0mg"},{"bike_id":"fbab0e01-40cc-4eff-939a-d9a8fdd7ac42","system_id":"levelo_inurba_marseille","lat":43.25728,"lon":5.4111,"is_reserved":false,"is_disabled":false,"rental_uris":{"android":"levelo://app?vid=fbab0e01-40cc-4eff-939a-d9a8fdd7ac42","ios":"levelo://app?vid=fbab0e01-40cc-4eff-939a-d9a8fdd7ac42"},"vehicle_type_id":"4","last_reported":1733609309,"current_range_meters":23200,"station_id":"ce4bhkp2rcd13ifvqgd0","pricing_plan_id":"cebpf4jnsgd1na2vs0mg"},{"bike_id":"7fe86e8b-f1b3-47fd-84b6-643366f68e78","system_id":"levelo_inurba_marseille","lat":43.35566,"lon":5.36172,"is_reserved":false,"is_disabled":false,"rental_uris":{"android":"levelo://app?vid=7fe86e8b-f1b3-47fd-84b6-643366f68e78","ios":"levelo://app?vid=7fe86e8b-f1b3-47fd-84b6-643366f68e78"},"vehicle_type_id":"4","last_reported":1733609309,"current_range_meters":9200,"station_id":"","pricing_plan_id":"cebpf4jnsgd1na2vs0mg"},{"bike_id":"0618e41c-8092-45a3-9464-a3eb184aee25","system_id":"levelo_inurba_marseille","lat":43.26553,"lon":5.37287,"is_reserved":false,"is_disabled":false,"rental_uris":{"android":"levelo://app?vid=0618e41c-8092-45a3-9464-a3eb184aee25","ios":"levelo://app?vid=0618e41c-8092-45a3-9464-a3eb184aee25"},"vehicle_type_id":"4","last_reported":1733609309,"current_range_meters":19600,"station_id":"ce4bhg12rcd13ifvqf70","pricing_plan_id":"cebpf4jnsgd1na2vs0mg"},{"bike_id":"97c5314b-8f54-4591-87b8-d1de9d2a7513","system_id":"levelo_inurba_marseille","lat":43.2844,"lon":5.39189,"is_reserved":false,"is_disabled":false,"rental_uris":{"android":"levelo://app?vid=97c5314b-8f54-4591-87b8-d1de9d2a7513","ios":"levelo://app?vid=97c5314b-8f54-4591-87b8-d1de9d2a7513"},"vehicle_type_id":"4","last_reported":1733609309,"current_range_meters":32800,"station_id":"ce4bhoh2rcd13ifvqh5g","pricing_plan_id":"cebpf4jnsgd1na2vs0mg"},{"bike_id":"9e7f6f97-f646-4d1a-98f4-87adba4ac820","system_id":"levelo_inurba_marseille","lat":43.29935,"lon":5.36548,"is_reserved":false,"is_disabled":false,"rental_uris":{"android":"levelo://app?vid=9e7f6f97-f646-4d1a-98f4-87adba4ac820","ios":"levelo://app?vid=9e7f6f97-f646-4d1a-98f4-87adba4ac820"},"vehicle_type_id":"4","last_reported":1733609309,"current_range_meters":20000,"station_id":"ce4bgm92rcd13ifvqbr0","pricing_plan_id":"cebpf4jnsgd1na2vs0mg"},{"bike_id":"9ae1ac69-56fa-4cce-82e4-ab245e7ed089","system_id":"levelo_inurba_marseille","lat":43.29257,"lon":5.38439,"is_reserved":false,"is_disabled":false,"rental_uris":{"android":"levelo://app?vid=9ae1ac69-56fa-4cce-82e4-ab245e7ed089","ios":"levelo://app?vid=9ae1ac69-56fa-4cce-82e4-ab245e7ed089"},"vehicle_type_id":"4","last_reported":1733609309,"current_range_meters":26000,"station_id":"ce4bh692rcd13ifvqea0","pricing_plan_id":"cebpf4jnsgd1na2vs0mg"},{"bike_id":"27ce5bef-3f52-426f-9978-bffa9d33ea4c","system_id":"levelo_inurba_marseille","lat":43.29193,"lon":5.39322,"is_reserved":false,"is_disabled":false,"rental_uris":{"android":"levelo://app?vid=27ce5bef-3f52-426f-9978-bffa9d33ea4c","ios":"levelo://app?vid=27ce5bef-3f52-426f-9978-bffa9d33ea4c"},"vehicle_type_id":"4","last_reported":1733609309,"current_range_meters":28400,"station_id":"ce4bh192rcd13ifvqdd0","pricing_plan_id":"cebpf4jnsgd1na2vs0mg"},{"bike_id":"42e96cd1-f946-4b12-8b40-94b96d25302d","system_id":"levelo_inurba_marseille","lat":43.32549,"lon":5.41441,"is_reserved":false,"is_disabled":false,"rental_uris":{"android":"levelo://app?vid=42e96cd1-f946-4b12-8b40-94b96d25302d","ios":"levelo://app?vid=42e96cd1-f946-4b12-8b40-94b96d25302d"},"vehicle_type_id":"4","last_reported":1733609309,"current_range_meters":38800,"station_id":"ce4bhq12rcd13ifvqhhg","pricing_plan_id":"cebpf4jnsgd1na2vs0mg"},{"bike_id":"3a1cabfd-7ea0-40e5-ba2a-bc16f7acb1fa","system_id":"levelo_inurba_marseille","lat":43.34335,"lon":5.35819,"is_reserved":false,"is_disabled":true,"rental_uris":{"android":"levelo://app?vid=3a1cabfd-7ea0-40e5-ba2a-bc16f7acb1fa","ios":"levelo://app?vid=3a1cabfd-7ea0-40e5-ba2a-bc16f7acb1fa"},"vehicle_type_id":"4","last_reported":1733609309,"current_range_meters":5600,"station_id":"","pricing_plan_id":"cebpf4jnsgd1na2vs0mg"},{"bike_id":"5bd0c961-72ce-4f47-8082-d8edb3b1d0ee","system_id":"levelo_inurba_marseille","lat":43.27179,"lon":5.40988,"is_reserved":false,"is_disabled":false,"rental_uris":{"android":"levelo://app?vid=5bd0c961-72ce-4f47-8082-d8edb3b1d0ee","ios":"levelo://app?vid=5bd0c961-72ce-4f47-8082-d8edb3b1d0ee"},"vehicle_type_id":"4","last_reported":1733609309,"current_range_meters":36800,"station_id":"ce4bhl12rcd13ifvqgf0","pricing_plan_id":"cebpf4jnsgd1na2vs0mg"},{"bike_id":"effff12d-7f88-4b3a-bd07-a5d1406d37cb","system_id":"levelo_inurba_marseille","lat":43.2718,"lon":5.40989,"is_reserved":false,"is_disabled":false,"rental_uris":{"android":"levelo://app?vid=effff12d-7f88-4b3a-bd07-a5d1406d37cb","ios":"levelo://app?vid=effff12d-7f88-4b3a-bd07-a5d1406d37cb"},"vehicle_type_id":"4","last_reported":1733609309,"current_range_meters":19200,"station_id":"ce4bhl12rcd13ifvqgf0","pricing_plan_id":"cebpf4jnsgd1na2vs0mg"},{"bike_id":"6975187f-29b4-4e6e-ab5f-82b6b91b9eff","system_id":"levelo_inurba_marseille","lat":43.25119,"lon":5.40317,"is_reserved":false,"is_disabled":false,"rental_uris":{"android":"levelo://app?vid=6975187f-29b4-4e6e-ab5f-82b6b91b9eff","ios":"levelo://app?vid=6975187f-29b4-4e6e-ab5f-82b6b91b9eff"},"vehicle_type_id":"4","last_reported":1733609309,"current_range_meters":38000,"station_id":"ce4bhlh2rcd13ifvqgig","pricing_plan_id":"cebpf4jnsgd1na2vs0mg"},{"bike_id":"95b68163-8c31-4ce4-989b-0d594a1f53e9","system_id":"levelo_inurba_marseille","lat":43.29679,"lon":5.37264,"is_reserved":false,"is_disabled":false,"rental_uris":{"android":"levelo://app?vid=95b68163-8c31-4ce4-989b-0d594a1f53e9","ios":"levelo://app?vid=95b68163-8c31-4ce4-989b-0d594a1f53e9"},"vehicle_type_id":"4","last_reported":1733609309,"current_range_meters":35600,"station_id":"ce4bgk12rcd13ifvqbj0","pricing_plan_id":"cebpf4jnsgd1na2vs0mg"},{"bike_id":"5f9ed35a-3f82-4093-b6ed-752e20d4b8f5","system_id":"levelo_inurba_marseille","lat":43.29266,"lon":5.38441,"is_reserved":false,"is_disabled":false,"rental_uris":{"android":"levelo://app?vid=5f9ed35a-3f82-4093-b6ed-752e20d4b8f5","ios":"levelo://app?vid=5f9ed35a-3f82-4093-b6ed-752e20d4b8f5"},"vehicle_type_id":"4","last_reported":1733609309,"current_range_meters":22000,"station_id":"ce4bh692rcd13ifvqea0","pricing_plan_id":"cebpf4jnsgd1na2vs0mg"},{"bike_id":"1a3df009-99c9-4437-b209-432ce706d383","system_id":"levelo_inurba_marseille","lat":43.29911,"lon":5.37477,"is_reserved":false,"is_disabled":false,"rental_uris":{"android":"levelo://app?vid=1a3df009-99c9-4437-b209-432ce706d383","ios":"levelo://app?vid=1a3df009-99c9-4437-b209-432ce706d383"},"vehicle_type_id":"4","last_reported":1733609309,"current_range_meters":37600,"station_id":"ce4bgjh2rcd13ifvqbg0","pricing_plan_id":"cebpf4jnsgd1na2vs0mg"},{"bike_id":"fc7ea287-6e78-4210-9698-a31ef4d0431c","system_id":"levelo_inurba_marseille","lat":43.27069,"lon":5.4227,"is_reserved":false,"is_disabled":false,"rental_uris":{"android":"levelo://app?vid=fc7ea287-6e78-4210-9698-a31ef4d0431c","ios":"levelo://app?vid=fc7ea287-6e78-4210-9698-a31ef4d0431c"},"vehicle_type_id":"4","last_reported":1733609309,"current_range_meters":38800,"station_id":"ce4bhk92rcd13ifvqgb0","pricing_plan_id":"cebpf4jnsgd1na2vs0mg"},{"bike_id":"90180111-4adc-44a4-b3b2-23febea5d380","system_id":"levelo_inurba_marseille","lat":43.33026,"lon":5.39041,"is_reserved":false,"is_disabled":false,"rental_uris":{"android":"levelo://app?vid=90180111-4adc-44a4-b3b2-23febea5d380","ios":"levelo://app?vid=90180111-4adc-44a4-b3b2-23febea5d380"},"vehicle_type_id":"4","last_reported":1733609309,"current_range_meters":30400,"station_id":"ce4bhr92rcd13ifvqhrg","pricing_plan_id":"cebpf4jnsgd1na2vs0mg"},{"bike_id":"e0bc52b0-330c-4776-9d5d-8c701f7bf846","system_id":"levelo_inurba_marseille","lat":43.29257,"lon":5.38452,"is_reserved":false,"is_disabled":false,"rental_uris":{"android":"levelo://app?vid=e0bc52b0-330c-4776-9d5d-8c701f7bf846","ios":"levelo://app?vid=e0bc52b0-330c-4776-9d5d-8c701f7bf846"},"vehicle_type_id":"4","last_reported":1733609309,"current_range_meters":38800,"station_id":"ce4bh692rcd13ifvqea0","pricing_plan_id":"cebpf4jnsgd1na2vs0mg"},{"bike_id":"1f610b82-9128-4e03-9855-53ffeab37d2c","system_id":"levelo_inurba_marseille","lat":43.25086,"lon":5.39519,"is_reserved":false,"is_disabled":false,"rental_uris":{"android":"levelo://app?vid=1f610b82-9128-4e03-9855-53ffeab37d2c","ios":"levelo://app?vid=1f610b82-9128-4e03-9855-53ffeab37d2c"},"vehicle_type_id":"4","last_reported":1733609309,"current_range_meters":38400,"station_id":"ce4bhm12rcd13ifvqgkg","pricing_plan_id":"cebpf4jnsgd1na2vs0mg"},{"bike_id":"344526a9-8d0b-479c-9bd3-d552a4e510d2","system_id":"levelo_inurba_marseille","lat":43.32659,"lon":5.40995,"is_reserved":false,"is_disabled":false,"rental_uris":{"android":"levelo://app?vid=344526a9-8d0b-479c-9bd3-d552a4e510d2","ios":"levelo://app?vid=344526a9-8d0b-479c-9bd3-d552a4e510d2"},"vehicle_type_id":"4","last_reported":1733609309,"current_range_meters":38800,"station_id":"ce4bhpp2rcd13ifvqhgg","pricing_plan_id":"cebpf4jnsgd1na2vs0mg"},{"bike_id":"7de2c9be-1b34-48ad-9b28-023101f3316f","system_id":"levelo_inurba_marseille","lat":43.3302,"lon":5.39037,"is_reserved":false,"is_disabled":false,"rental_uris":{"android":"levelo://app?vid=7de2c9be-1b34-48ad-9b28-023101f3316f","ios":"levelo://app?vid=7de2c9be-1b34-48ad-9b28-023101f3316f"},"vehicle_type_id":"4","last_reported":1733609309,"current_range_meters":38800,"station_id":"ce4bhr92rcd13ifvqhrg","pricing_plan_id":"cebpf4jnsgd1na2vs0mg"},{"bike_id":"067d4f8e-eded-4040-9b89-eb14aebc4852","system_id":"levelo_inurba_marseille","lat":43.29898,"lon":5.43671,"is_reserved":false,"is_disabled":false,"rental_uris":{"android":"levelo://app?vid=067d4f8e-eded-4040-9b89-eb14aebc4852","ios":"levelo://app?vid=067d4f8e-eded-4040-9b89-eb14aebc4852"},"vehicle_type_id":"4","last_reported":1733609309,"current_range_meters":9600,"station_id":"ce4bhpp2rcd13ifvqhfg","pricing_plan_id":"cebpf4jnsgd1na2vs0mg"},{"bike_id":"21a5c823-8bee-4201-9dc6-2df0dc0e4428","system_id":"levelo_inurba_marseille","lat":43.31364,"lon":5.3849,"is_reserved":false,"is_disabled":false,"rental_uris":{"android":"levelo://app?vid=21a5c823-8bee-4201-9dc6-2df0dc0e4428","ios":"levelo://app?vid=21a5c823-8bee-4201-9dc6-2df0dc0e4428"},"vehicle_type_id":"4","last_reported":1733609309,"current_range_meters":24400,"station_id":"ce4bgt92rcd13ifvqcf0","pricing_plan_id":"cebpf4jnsgd1na2vs0mg"},{"bike_id":"83985555-c848-4b28-808f-8a7e7cf8519e","system_id":"levelo_inurba_marseille","lat":43.28115,"lon":5.43955,"is_reserved":false,"is_disabled":true,"rental_uris":{"android":"levelo://app?vid=83985555-c848-4b28-808f-8a7e7cf8519e","ios":"levelo://app?vid=83985555-c848-4b28-808f-8a7e7cf8519e"},"vehicle_type_id":"4","last_reported":1733609309,"current_range_meters":0,"station_id":"","pricing_plan_id":"cebpf4jnsgd1na2vs0mg"},{"bike_id":"92c06b3e-c475-4dc4-8f84-41a8cbc68b62","system_id":"levelo_inurba_marseille","lat":43.28572,"lon":5.39511,"is_reserved":false,"is_disabled":false,"rental_uris":{"android":"levelo://app?vid=92c06b3e-c475-4dc4-8f84-41a8cbc68b62","ios":"levelo://app?vid=92c06b3e-c475-4dc4-8f84-41a8cbc68b62"},"vehicle_type_id":"4","last_reported":1733609309,"current_range_meters":39200,"station_id":"ce4bh292rcd13ifvqdg0","pricing_plan_id":"cebpf4jnsgd1na2vs0mg"},{"bike_id":"84eddd35-4076-462c-b0e4-9c17c748aeff","system_id":"levelo_inurba_marseille","lat":43.33771,"lon":5.37491,"is_reserved":false,"is_disabled":false,"rental_uris":{"android":"levelo://app?vid=84eddd35-4076-462c-b0e4-9c17c748aeff","ios":"levelo://app?vid=84eddd35-4076-462c-b0e4-9c17c748aeff"},"vehicle_type_id":"4","last_reported":1733609309,"current_range_meters":16800,"station_id":"","pricing_plan_id":"cebpf4jnsgd1na2vs0mg"},{"bike_id":"66d0f71e-5d76-4274-a432-4dd216931dd0","system_id":"levelo_inurba_marseille","lat":43.28434,"lon":5.34987,"is_reserved":false,"is_disabled":false,"rental_uris":{"android":"levelo://app?vid=66d0f71e-5d76-4274-a432-4dd216931dd0","ios":"levelo://app?vid=66d0f71e-5d76-4274-a432-4dd216931dd0"},"vehicle_type_id":"4","last_reported":1733609309,"current_range_meters":38800,"station_id":"ce4bhbh2rcd13ifvqepg","pricing_plan_id":"cebpf4jnsgd1na2vs0mg"},{"bike_id":"81622bfb-7284-4f38-9e9a-0a84276c1933","system_id":"levelo_inurba_marseille","lat":43.29872,"lon":5.39737,"is_reserved":false,"is_disabled":false,"rental_uris":{"android":"levelo://app?vid=81622bfb-7284-4f38-9e9a-0a84276c1933","ios":"levelo://app?vid=81622bfb-7284-4f38-9e9a-0a84276c1933"},"vehicle_type_id":"4","last_reported":1733609309,"current_range_meters":8000,"station_id":"ce4bh0h2rcd13ifvqd50","pricing_plan_id":"cebpf4jnsgd1na2vs0mg"},{"bike_id":"acb4a6e1-2183-49c3-8b5c-b59533f1aaad","system_id":"levelo_inurba_marseille","lat":43.3266,"lon":5.40993,"is_reserved":false,"is_disabled":false,"rental_uris":{"android":"levelo://app?vid=acb4a6e1-2183-49c3-8b5c-b59533f1aaad","ios":"levelo://app?vid=acb4a6e1-2183-49c3-8b5c-b59533f1aaad"},"vehicle_type_id":"4","last_reported":1733609309,"current_range_meters":26000,"station_id":"ce4bhpp2rcd13ifvqhgg","pricing_plan_id":"cebpf4jnsgd1na2vs0mg"},{"bike_id":"9a919cfd-f4f8-4bfd-8d63-095f7ad50ebf","system_id":"levelo_inurba_marseille","lat":43.29417,"lon":5.38636,"is_reserved":false,"is_disabled":false,"rental_uris":{"android":"levelo://app?vid=9a919cfd-f4f8-4bfd-8d63-095f7ad50ebf","ios":"levelo://app?vid=9a919cfd-f4f8-4bfd-8d63-095f7ad50ebf"},"vehicle_type_id":"4","last_reported":1733609309,"current_range_meters":13600,"station_id":"ce4bh2h2rcd13ifvqdh0","pricing_plan_id":"cebpf4jnsgd1na2vs0mg"},{"bike_id":"eac23467-e570-48ec-b16b-841a8ebbca98","system_id":"levelo_inurba_marseille","lat":43.31361,"lon":5.38492,"is_reserved":false,"is_disabled":false,"rental_uris":{"android":"levelo://app?vid=eac23467-e570-48ec-b16b-841a8ebbca98","ios":"levelo://app?vid=eac23467-e570-48ec-b16b-841a8ebbca98"},"vehicle_type_id":"4","last_reported":1733609309,"current_range_meters":19200,"station_id":"ce4bgt92rcd13ifvqcf0","pricing_plan_id":"cebpf4jnsgd1na2vs0mg"},{"bike_id":"59ec8469-de73-4900-aee6-d1b157890d0d","system_id":"levelo_inurba_marseille","lat":43.24665,"lon":5.38166,"is_reserved":false,"is_disabled":false,"rental_uris":{"android":"levelo://app?vid=59ec8469-de73-4900-aee6-d1b157890d0d","ios":"levelo://app?vid=59ec8469-de73-4900-aee6-d1b157890d0d"},"vehicle_type_id":"4","last_reported":1733609309,"current_range_meters":29600,"station_id":"ce4bhih2rcd13ifvqfr0","pricing_plan_id":"cebpf4jnsgd1na2vs0mg"},{"bike_id":"34cd3179-a984-4984-ba39-77f55cba8dc9","system_id":"levelo_inurba_marseille","lat":43.32656,"lon":5.40995,"is_reserved":false,"is_disabled":true,"rental_uris":{"android":"levelo://app?vid=34cd3179-a984-4984-ba39-77f55cba8dc9","ios":"levelo://app?vid=34cd3179-a984-4984-ba39-77f55cba8dc9"},"vehicle_type_id":"4","last_reported":1733609309,"current_range_meters":34800,"station_id":"ce4bhpp2rcd13ifvqhgg","pricing_plan_id":"cebpf4jnsgd1na2vs0mg"},{"bike_id":"5687e068-69cc-4397-b6fb-a40653dbd395","system_id":"levelo_inurba_marseille","lat":43.31765,"lon":5.39009,"is_reserved":false,"is_disabled":false,"rental_uris":{"android":"levelo://app?vid=5687e068-69cc-4397-b6fb-a40653dbd395","ios":"levelo://app?vid=5687e068-69cc-4397-b6fb-a40653dbd395"},"vehicle_type_id":"4","last_reported":1733609309,"current_range_meters":38800,"station_id":"ce4bhqp2rcd13ifvqhng","pricing_plan_id":"cebpf4jnsgd1na2vs0mg"},{"bike_id":"5edf82fa-e9d0-4d1f-98f1-37c98092771a","system_id":"levelo_inurba_marseille","lat":43.23202,"lon":5.35539,"is_reserved":false,"is_disabled":false,"rental_uris":{"android":"levelo://app?vid=5edf82fa-e9d0-4d1f-98f1-37c98092771a","ios":"levelo://app?vid=5edf82fa-e9d0-4d1f-98f1-37c98092771a"},"vehicle_type_id":"4","last_reported":1733609309,"current_range_meters":38800,"station_id":"ce4bhu92rcd13ifvqi70","pricing_plan_id":"cebpf4jnsgd1na2vs0mg"},{"bike_id":"860a8fe4-7741-4a7f-9f45-f1ab464a5837","system_id":"levelo_inurba_marseille","lat":43.24069,"lon":5.37764,"is_reserved":false,"is_disabled":false,"rental_uris":{"android":"levelo://app?vid=860a8fe4-7741-4a7f-9f45-f1ab464a5837","ios":"levelo://app?vid=860a8fe4-7741-4a7f-9f45-f1ab464a5837"},"vehicle_type_id":"4","last_reported":1733609309,"current_range_meters":17200,"station_id":"ce4bhnp2rcd13ifvqgvg","pricing_plan_id":"cebpf4jnsgd1na2vs0mg"},{"bike_id":"4e4572b4-d651-402e-ab1d-81400829906e","system_id":"levelo_inurba_marseille","lat":43.27943,"lon":5.41046,"is_reserved":false,"is_disabled":false,"rental_uris":{"android":"levelo://app?vid=4e4572b4-d651-402e-ab1d-81400829906e","ios":"levelo://app?vid=4e4572b4-d651-402e-ab1d-81400829906e"},"vehicle_type_id":"4","last_reported":1733609309,"current_range_meters":33600,"station_id":"ce4bhnp2rcd13ifvqh0g","pricing_plan_id":"cebpf4jnsgd1na2vs0mg"},{"bike_id":"3afcb54a-b8a5-40bb-8ae8-ddf1f47b8268","system_id":"levelo_inurba_marseille","lat":43.30539,"lon":5.38436,"is_reserved":false,"is_disabled":true,"rental_uris":{"android":"levelo://app?vid=3afcb54a-b8a5-40bb-8ae8-ddf1f47b8268","ios":"levelo://app?vid=3afcb54a-b8a5-40bb-8ae8-ddf1f47b8268"},"vehicle_type_id":"4","last_reported":1733609309,"current_range_meters":34800,"station_id":"ce4bgg92rcd13ifvqb30","pricing_plan_id":"cebpf4jnsgd1na2vs0mg"},{"bike_id":"a76f0499-0af6-402b-8f9f-ddd78320a7b4","system_id":"levelo_inurba_marseille","lat":43.30463,"lon":5.37896,"is_reserved":false,"is_disabled":true,"rental_uris":{"android":"levelo://app?vid=a76f0499-0af6-402b-8f9f-ddd78320a7b4","ios":"levelo://app?vid=a76f0499-0af6-402b-8f9f-ddd78320a7b4"},"vehicle_type_id":"4","last_reported":1733609309,"current_range_meters":38800,"station_id":"ce4bgup2rcd13ifvqcn0","pricing_plan_id":"cebpf4jnsgd1na2vs0mg"},{"bike_id":"83319820-ad4f-4208-bf65-c9fc431b1a4c","system_id":"levelo_inurba_marseille","lat":43.25833,"lon":5.39434,"is_reserved":false,"is_disabled":false,"rental_uris":{"android":"levelo://app?vid=83319820-ad4f-4208-bf65-c9fc431b1a4c","ios":"levelo://app?vid=83319820-ad4f-4208-bf65-c9fc431b1a4c"},"vehicle_type_id":"4","last_reported":1733609309,"current_range_meters":32000,"station_id":"ce4bhip2rcd13ifvqft0","pricing_plan_id":"cebpf4jnsgd1na2vs0mg"},{"bike_id":"209024fa-1289-499c-a8fd-f67770daf517","system_id":"levelo_inurba_marseille","lat":43.26958,"lon":5.3863,"is_reserved":false,"is_disabled":false,"rental_uris":{"android":"levelo://app?vid=209024fa-1289-499c-a8fd-f67770daf517","ios":"levelo://app?vid=209024fa-1289-499c-a8fd-f67770daf517"},"vehicle_type_id":"4","last_reported":1733609309,"current_range_meters":9200,"station_id":"ce4bhh92rcd13ifvqfh0","pricing_plan_id":"cebpf4jnsgd1na2vs0mg"},{"bike_id":"9c2d089d-e580-464c-a254-a84d0c5baff8","system_id":"levelo_inurba_marseille","lat":43.25866,"lon":5.399,"is_reserved":false,"is_disabled":false,"rental_uris":{"android":"levelo://app?vid=9c2d089d-e580-464c-a254-a84d0c5baff8","ios":"levelo://app?vid=9c2d089d-e580-464c-a254-a84d0c5baff8"},"vehicle_type_id":"4","last_reported":1733609309,"current_range_meters":38800,"station_id":"ce4bhl92rcd13ifvqghg","pricing_plan_id":"cebpf4jnsgd1na2vs0mg"},{"bike_id":"0694b84b-212e-4e3c-9092-6e213a66ec49","system_id":"levelo_inurba_marseille","lat":43.23065,"lon":5.35486,"is_reserved":false,"is_disabled":false,"rental_uris":{"android":"levelo://app?vid=0694b84b-212e-4e3c-9092-6e213a66ec49","ios":"levelo://app?vid=0694b84b-212e-4e3c-9092-6e213a66ec49"},"vehicle_type_id":"4","last_reported":1733609309,"current_range_meters":9200,"station_id":"cpo3342slgdg3j2ifvpg","pricing_plan_id":"cebpf4jnsgd1na2vs0mg"},{"bike_id":"4a77601f-4c25-4296-b777-4c72b80e34b6","system_id":"levelo_inurba_marseille","lat":43.29897,"lon":5.43669,"is_reserved":false,"is_disabled":false,"rental_uris":{"android":"levelo://app?vid=4a77601f-4c25-4296-b777-4c72b80e34b6","ios":"levelo://app?vid=4a77601f-4c25-4296-b777-4c72b80e34b6"},"vehicle_type_id":"4","last_reported":1733609309,"current_range_meters":18000,"station_id":"ce4bhpp2rcd13ifvqhfg","pricing_plan_id":"cebpf4jnsgd1na2vs0mg"},{"bike_id":"1d2346a2-f9a0-4928-8e9d-e861c93b75ad","system_id":"levelo_inurba_marseille","lat":43.29801,"lon":5.40408,"is_reserved":false,"is_disabled":false,"rental_uris":{"android":"levelo://app?vid=1d2346a2-f9a0-4928-8e9d-e861c93b75ad","ios":"levelo://app?vid=1d2346a2-f9a0-4928-8e9d-e861c93b75ad"},"vehicle_type_id":"4","last_reported":1733609309,"current_range_meters":20400,"station_id":"ce4bh112rcd13ifvqd90","pricing_plan_id":"cebpf4jnsgd1na2vs0mg"},{"bike_id":"1b0cf7b0-f1f1-420d-b39e-8993110a2cf3","system_id":"levelo_inurba_marseille","lat":43.29494,"lon":5.4384,"is_reserved":false,"is_disabled":false,"rental_uris":{"android":"levelo://app?vid=1b0cf7b0-f1f1-420d-b39e-8993110a2cf3","ios":"levelo://app?vid=1b0cf7b0-f1f1-420d-b39e-8993110a2cf3"},"vehicle_type_id":"4","last_reported":1733609309,"current_range_meters":23200,"station_id":"","pricing_plan_id":"cebpf4jnsgd1na2vs0mg"},{"bike_id":"15e21ff4-debb-4d61-969a-5518cc99a71c","system_id":"levelo_inurba_marseille","lat":43.27561,"lon":5.38425,"is_reserved":false,"is_disabled":false,"rental_uris":{"android":"levelo://app?vid=15e21ff4-debb-4d61-969a-5518cc99a71c","ios":"levelo://app?vid=15e21ff4-debb-4d61-969a-5518cc99a71c"},"vehicle_type_id":"4","last_reported":1733609309,"current_range_meters":38800,"station_id":"ce4bhh92rcd13ifvqfi0","pricing_plan_id":"cebpf4jnsgd1na2vs0mg"},{"bike_id":"0deb7b46-3bee-4382-87b1-3984fb62457f","system_id":"levelo_inurba_marseille","lat":43.28738,"lon":5.38912,"is_reserved":false,"is_disabled":true,"rental_uris":{"android":"levelo://app?vid=0deb7b46-3bee-4382-87b1-3984fb62457f","ios":"levelo://app?vid=0deb7b46-3bee-4382-87b1-3984fb62457f"},"vehicle_type_id":"4","last_reported":1733609309,"current_range_meters":24800,"station_id":"","pricing_plan_id":"cebpf4jnsgd1na2vs0mg"},{"bike_id":"99df643e-d3d1-46e3-8aff-9f144eef4f22","system_id":"levelo_inurba_marseille","lat":43.25719,"lon":5.41117,"is_reserved":false,"is_disabled":false,"rental_uris":{"android":"levelo://app?vid=99df643e-d3d1-46e3-8aff-9f144eef4f22","ios":"levelo://app?vid=99df643e-d3d1-46e3-8aff-9f144eef4f22"},"vehicle_type_id":"4","last_reported":1733609309,"current_range_meters":4800,"station_id":"ce4bhkp2rcd13ifvqgd0","pricing_plan_id":"cebpf4jnsgd1na2vs0mg"},{"bike_id":"0b2d9ccf-2279-41d0-bd68-27fbe32c181d","system_id":"levelo_inurba_marseille","lat":43.31314,"lon":5.3969,"is_reserved":false,"is_disabled":false,"rental_uris":{"android":"levelo://app?vid=0b2d9ccf-2279-41d0-bd68-27fbe32c181d","ios":"levelo://app?vid=0b2d9ccf-2279-41d0-bd68-27fbe32c181d"},"vehicle_type_id":"4","last_reported":1733609309,"current_range_meters":35600,"station_id":"ce4bgvp2rcd13ifvqcu0","pricing_plan_id":"cebpf4jnsgd1na2vs0mg"},{"bike_id":"5460e245-8621-4d83-bd98-c21b0b296c70","system_id":"levelo_inurba_marseille","lat":43.24386,"lon":5.37058,"is_reserved":false,"is_disabled":false,"rental_uris":{"android":"levelo://app?vid=5460e245-8621-4d83-bd98-c21b0b296c70","ios":"levelo://app?vid=5460e245-8621-4d83-bd98-c21b0b296c70"},"vehicle_type_id":"4","last_reported":1733609309,"current_range_meters":36000,"station_id":"ce4bhhh2rcd13ifvqfk0","pricing_plan_id":"cebpf4jnsgd1na2vs0mg"},{"bike_id":"7cdad35d-df5e-4eec-9265-9be894b31c91","system_id":"levelo_inurba_marseille","lat":43.23187,"lon":5.39993,"is_reserved":false,"is_disabled":false,"rental_uris":{"android":"levelo://app?vid=7cdad35d-df5e-4eec-9265-9be894b31c91","ios":"levelo://app?vid=7cdad35d-df5e-4eec-9265-9be894b31c91"},"vehicle_type_id":"4","last_reported":1733609309,"current_range_meters":14000,"station_id":"ce4bhn12rcd13ifvqgqg","pricing_plan_id":"cebpf4jnsgd1na2vs0mg"},{"bike_id":"07b8c281-3be1-46fd-bf35-bd455797c16c","system_id":"levelo_inurba_marseille","lat":43.23197,"lon":5.35548,"is_reserved":false,"is_disabled":false,"rental_uris":{"android":"levelo://app?vid=07b8c281-3be1-46fd-bf35-bd455797c16c","ios":"levelo://app?vid=07b8c281-3be1-46fd-bf35-bd455797c16c"},"vehicle_type_id":"4","last_reported":1733609309,"current_range_meters":28800,"station_id":"ce4bhu92rcd13ifvqi70","pricing_plan_id":"cebpf4jnsgd1na2vs0mg"},{"bike_id":"acb19ba6-304b-43cd-9700-47f51591c981","system_id":"levelo_inurba_marseille","lat":43.26806,"lon":5.40266,"is_reserved":false,"is_disabled":false,"rental_uris":{"android":"levelo://app?vid=acb19ba6-304b-43cd-9700-47f51591c981","ios":"levelo://app?vid=acb19ba6-304b-43cd-9700-47f51591c981"},"vehicle_type_id":"4","last_reported":1733609309,"current_range_meters":37600,"station_id":"ce501612rcd8frsf0b60","pricing_plan_id":"cebpf4jnsgd1na2vs0mg"},{"bike_id":"1587532c-8db8-44f6-ae88-ce1c3be01f92","system_id":"levelo_inurba_marseille","lat":43.28155,"lon":5.42652,"is_reserved":false,"is_disabled":false,"rental_uris":{"android":"levelo://app?vid=1587532c-8db8-44f6-ae88-ce1c3be01f92","ios":"levelo://app?vid=1587532c-8db8-44f6-ae88-ce1c3be01f92"},"vehicle_type_id":"4","last_reported":1733609309,"current_range_meters":16400,"station_id":"ce4bhnh2rcd13ifvqgug","pricing_plan_id":"cebpf4jnsgd1na2vs0mg"},{"bike_id":"1f31a30a-e0ef-4d21-bbb8-239dabcf7620","system_id":"levelo_inurba_marseille","lat":43.31327,"lon":5.39696,"is_reserved":false,"is_disabled":false,"rental_uris":{"android":"levelo://app?vid=1f31a30a-e0ef-4d21-bbb8-239dabcf7620","ios":"levelo://app?vid=1f31a30a-e0ef-4d21-bbb8-239dabcf7620"},"vehicle_type_id":"4","last_reported":1733609309,"current_range_meters":28000,"station_id":"ce4bgvp2rcd13ifvqcu0","pricing_plan_id":"cebpf4jnsgd1na2vs0mg"},{"bike_id":"7a0a2714-105e-4622-8b3e-a7dd62dc6941","system_id":"levelo_inurba_marseille","lat":43.29266,"lon":5.384189,"is_reserved":false,"is_disabled":true,"rental_uris":{"android":"levelo://app?vid=7a0a2714-105e-4622-8b3e-a7dd62dc6941","ios":"levelo://app?vid=7a0a2714-105e-4622-8b3e-a7dd62dc6941"},"vehicle_type_id":"4","last_reported":1733609309,"current_range_meters":0,"station_id":"","pricing_plan_id":"cebpf4jnsgd1na2vs0mg"},{"bike_id":"9f53acdf-b2be-4b69-b01b-87cbf7343be4","system_id":"levelo_inurba_marseille","lat":43.26495,"lon":5.39541,"is_reserved":false,"is_disabled":true,"rental_uris":{"android":"levelo://app?vid=9f53acdf-b2be-4b69-b01b-87cbf7343be4","ios":"levelo://app?vid=9f53acdf-b2be-4b69-b01b-87cbf7343be4"},"vehicle_type_id":"4","last_reported":1733609309,"current_range_meters":34800,"station_id":"ce4bhi12rcd13ifvqfq0","pricing_plan_id":"cebpf4jnsgd1na2vs0mg"},{"bike_id":"a5f05a06-bff4-4f39-af01-91b3d19736b8","system_id":"levelo_inurba_marseille","lat":43.23196,"lon":5.35555,"is_reserved":false,"is_disabled":false,"rental_uris":{"android":"levelo://app?vid=a5f05a06-bff4-4f39-af01-91b3d19736b8","ios":"levelo://app?vid=a5f05a06-bff4-4f39-af01-91b3d19736b8"},"vehicle_type_id":"4","last_reported":1733609309,"current_range_meters":28800,"station_id":"ce4bhu92rcd13ifvqi70","pricing_plan_id":"cebpf4jnsgd1na2vs0mg"},{"bike_id":"47c11abd-5bac-4d64-82e9-325102c6ac07","system_id":"levelo_inurba_marseille","lat":43.31069,"lon":5.38347,"is_reserved":false,"is_disabled":false,"rental_uris":{"android":"levelo://app?vid=47c11abd-5bac-4d64-82e9-325102c6ac07","ios":"levelo://app?vid=47c11abd-5bac-4d64-82e9-325102c6ac07"},"vehicle_type_id":"4","last_reported":1733609309,"current_range_meters":34000,"station_id":"ce4bgv92rcd13ifvqcr0","pricing_plan_id":"cebpf4jnsgd1na2vs0mg"},{"bike_id":"33f1a526-a5a3-4261-b1e0-d90c46ff918d","system_id":"levelo_inurba_marseille","lat":43.28151,"lon":5.42634,"is_reserved":false,"is_disabled":true,"rental_uris":{"android":"levelo://app?vid=33f1a526-a5a3-4261-b1e0-d90c46ff918d","ios":"levelo://app?vid=33f1a526-a5a3-4261-b1e0-d90c46ff918d"},"vehicle_type_id":"4","last_reported":1733609309,"current_range_meters":29600,"station_id":"ce4bhnh2rcd13ifvqgug","pricing_plan_id":"cebpf4jnsgd1na2vs0mg"},{"bike_id":"7d60acff-cb6c-4a92-aca6-d0de3845edf6","system_id":"levelo_inurba_marseille","lat":43.29533,"lon":5.38548,"is_reserved":false,"is_disabled":true,"rental_uris":{"android":"levelo://app?vid=7d60acff-cb6c-4a92-aca6-d0de3845edf6","ios":"levelo://app?vid=7d60acff-cb6c-4a92-aca6-d0de3845edf6"},"vehicle_type_id":"4","last_reported":1733609309,"current_range_meters":24400,"station_id":"ce4bgih2rcd13ifvqba0","pricing_plan_id":"cebpf4jnsgd1na2vs0mg"},{"bike_id":"315bd4f4-f720-4e17-a178-f9274a9e6361","system_id":"levelo_inurba_marseille","lat":43.30873,"lon":5.39648,"is_reserved":false,"is_disabled":false,"rental_uris":{"android":"levelo://app?vid=315bd4f4-f720-4e17-a178-f9274a9e6361","ios":"levelo://app?vid=315bd4f4-f720-4e17-a178-f9274a9e6361"},"vehicle_type_id":"4","last_reported":1733609309,"current_range_meters":38800,"station_id":"ce4bh012rcd13ifvqcv0","pricing_plan_id":"cebpf4jnsgd1na2vs0mg"},{"bike_id":"00fea40c-3f30-4c2b-96e2-43b5ab400ffa","system_id":"levelo_inurba_marseille","lat":43.22933,"lon":5.35378,"is_reserved":false,"is_disabled":false,"rental_uris":{"android":"levelo://app?vid=00fea40c-3f30-4c2b-96e2-43b5ab400ffa","ios":"levelo://app?vid=00fea40c-3f30-4c2b-96e2-43b5ab400ffa"},"vehicle_type_id":"4","last_reported":1733609309,"current_range_meters":38800,"station_id":"cpo3532slgdg3j2ikp40","pricing_plan_id":"cebpf4jnsgd1na2vs0mg"},{"bike_id":"4ad5add2-608e-43d3-8448-93331f5332b6","system_id":"levelo_inurba_marseille","lat":43.24389,"lon":5.3706,"is_reserved":false,"is_disabled":false,"rental_uris":{"android":"levelo://app?vid=4ad5add2-608e-43d3-8448-93331f5332b6","ios":"levelo://app?vid=4ad5add2-608e-43d3-8448-93331f5332b6"},"vehicle_type_id":"4","last_reported":1733609309,"current_range_meters":38800,"station_id":"ce4bhhh2rcd13ifvqfk0","pricing_plan_id":"cebpf4jnsgd1na2vs0mg"},{"bike_id":"aeb5b9ef-cf83-4f2b-8e3d-091258186d3c","system_id":"levelo_inurba_marseille","lat":43.25082,"lon":5.39494,"is_reserved":false,"is_disabled":false,"rental_uris":{"android":"levelo://app?vid=aeb5b9ef-cf83-4f2b-8e3d-091258186d3c","ios":"levelo://app?vid=aeb5b9ef-cf83-4f2b-8e3d-091258186d3c"},"vehicle_type_id":"4","last_reported":1733609309,"current_range_meters":38400,"station_id":"ce4bhm12rcd13ifvqgkg","pricing_plan_id":"cebpf4jnsgd1na2vs0mg"},{"bike_id":"0d568c8e-0ea0-4287-9438-5b27ec8267ed","system_id":"levelo_inurba_marseille","lat":43.28943,"lon":5.39631,"is_reserved":false,"is_disabled":false,"rental_uris":{"android":"levelo://app?vid=0d568c8e-0ea0-4287-9438-5b27ec8267ed","ios":"levelo://app?vid=0d568c8e-0ea0-4287-9438-5b27ec8267ed"},"vehicle_type_id":"4","last_reported":1733609309,"current_range_meters":28400,"station_id":"ce4bh3h2rcd13ifvqdn0","pricing_plan_id":"cebpf4jnsgd1na2vs0mg"},{"bike_id":"a68dbade-6959-4b41-9454-b2fcbedb0860","system_id":"levelo_inurba_marseille","lat":43.29712,"lon":5.36617,"is_reserved":false,"is_disabled":false,"rental_uris":{"android":"levelo://app?vid=a68dbade-6959-4b41-9454-b2fcbedb0860","ios":"levelo://app?vid=a68dbade-6959-4b41-9454-b2fcbedb0860"},"vehicle_type_id":"4","last_reported":1733609309,"current_range_meters":32000,"station_id":"ce4bgn12rcd13ifvqbt0","pricing_plan_id":"cebpf4jnsgd1na2vs0mg"},{"bike_id":"5c884da4-841f-4b0a-9224-f533cad9f8d9","system_id":"levelo_inurba_marseille","lat":43.26036,"lon":5.37546,"is_reserved":false,"is_disabled":false,"rental_uris":{"android":"levelo://app?vid=5c884da4-841f-4b0a-9224-f533cad9f8d9","ios":"levelo://app?vid=5c884da4-841f-4b0a-9224-f533cad9f8d9"},"vehicle_type_id":"4","last_reported":1733609309,"current_range_meters":10800,"station_id":"ce4bhgh2rcd13ifvqfa0","pricing_plan_id":"cebpf4jnsgd1na2vs0mg"},{"bike_id":"a3dd1984-4193-477f-b9a6-7f14c8f93b26","system_id":"levelo_inurba_marseille","lat":43.30101,"lon":5.39085,"is_reserved":false,"is_disabled":true,"rental_uris":{"android":"levelo://app?vid=a3dd1984-4193-477f-b9a6-7f14c8f93b26","ios":"levelo://app?vid=a3dd1984-4193-477f-b9a6-7f14c8f93b26"},"vehicle_type_id":"4","last_reported":1733609309,"current_range_meters":37600,"station_id":"ce4bh192rcd13ifvqdb0","pricing_plan_id":"cebpf4jnsgd1na2vs0mg"},{"bike_id":"43fe90c6-b703-4fdf-8681-338eb5248a12","system_id":"levelo_inurba_marseille","lat":43.31486,"lon":5.37306,"is_reserved":false,"is_disabled":false,"rental_uris":{"android":"levelo://app?vid=43fe90c6-b703-4fdf-8681-338eb5248a12","ios":"levelo://app?vid=43fe90c6-b703-4fdf-8681-338eb5248a12"},"vehicle_type_id":"4","last_reported":1733609309,"current_range_meters":27600,"station_id":"ce4bgt12rcd13ifvqcd0","pricing_plan_id":"cebpf4jnsgd1na2vs0mg"},{"bike_id":"6ad8fff5-6505-40fc-8922-2acdd3c82e7b","system_id":"levelo_inurba_marseille","lat":43.29788,"lon":5.38115,"is_reserved":false,"is_disabled":true,"rental_uris":{"android":"levelo://app?vid=6ad8fff5-6505-40fc-8922-2acdd3c82e7b","ios":"levelo://app?vid=6ad8fff5-6505-40fc-8922-2acdd3c82e7b"},"vehicle_type_id":"4","last_reported":1733609309,"current_range_meters":15200,"station_id":"ce4bgip2rcd13ifvqbb0","pricing_plan_id":"cebpf4jnsgd1na2vs0mg"},{"bike_id":"d3d2209a-a4e0-4ebd-ab3d-555850038a00","system_id":"levelo_inurba_marseille","lat":43.24808,"lon":5.37461,"is_reserved":false,"is_disabled":false,"rental_uris":{"android":"levelo://app?vid=d3d2209a-a4e0-4ebd-ab3d-555850038a00","ios":"levelo://app?vid=d3d2209a-a4e0-4ebd-ab3d-555850038a00"},"vehicle_type_id":"4","last_reported":1733609309,"current_range_meters":38400,"station_id":"ce4bhgh2rcd13ifvqfb0","pricing_plan_id":"cebpf4jnsgd1na2vs0mg"},{"bike_id":"3fc879ce-b9bd-4119-b6bb-0e3be71411fd","system_id":"levelo_inurba_marseille","lat":43.30431,"lon":5.38879,"is_reserved":false,"is_disabled":false,"rental_uris":{"android":"levelo://app?vid=3fc879ce-b9bd-4119-b6bb-0e3be71411fd","ios":"levelo://app?vid=3fc879ce-b9bd-4119-b6bb-0e3be71411fd"},"vehicle_type_id":"4","last_reported":1733609309,"current_range_meters":17600,"station_id":"ce4bgk12rcd13ifvqbi0","pricing_plan_id":"cebpf4jnsgd1na2vs0mg"},{"bike_id":"876b7213-145e-431e-a516-92adf95b96aa","system_id":"levelo_inurba_marseille","lat":43.27379,"lon":5.36255,"is_reserved":false,"is_disabled":false,"rental_uris":{"android":"levelo://app?vid=876b7213-145e-431e-a516-92adf95b96aa","ios":"levelo://app?vid=876b7213-145e-431e-a516-92adf95b96aa"},"vehicle_type_id":"4","last_reported":1733609309,"current_range_meters":9200,"station_id":"ce4bhbh2rcd13ifvqeo0","pricing_plan_id":"cebpf4jnsgd1na2vs0mg"},{"bike_id":"ecd3b94f-9e0c-4f1b-aa8b-f5f6d633a14d","system_id":"levelo_inurba_marseille","lat":43.29305,"lon":5.37164,"is_reserved":false,"is_disabled":false,"rental_uris":{"android":"levelo://app?vid=ecd3b94f-9e0c-4f1b-aa8b-f5f6d633a14d","ios":"levelo://app?vid=ecd3b94f-9e0c-4f1b-aa8b-f5f6d633a14d"},"vehicle_type_id":"4","last_reported":1733609309,"current_range_meters":37600,"station_id":"ce4bgh92rcd13ifvqb40","pricing_plan_id":"cebpf4jnsgd1na2vs0mg"},{"bike_id":"129c0fc6-03f4-4edb-a0d3-f2b832204b53","system_id":"levelo_inurba_marseille","lat":43.29532,"lon":5.39036,"is_reserved":false,"is_disabled":false,"rental_uris":{"android":"levelo://app?vid=129c0fc6-03f4-4edb-a0d3-f2b832204b53","ios":"levelo://app?vid=129c0fc6-03f4-4edb-a0d3-f2b832204b53"},"vehicle_type_id":"4","last_reported":1733609309,"current_range_meters":35600,"station_id":"ce4bh3p2rcd13ifvqdp0","pricing_plan_id":"cebpf4jnsgd1na2vs0mg"},{"bike_id":"129ecbc8-c797-46c8-9cf8-1672794d351b","system_id":"levelo_inurba_marseille","lat":43.24654,"lon":5.38897,"is_reserved":false,"is_disabled":false,"rental_uris":{"android":"levelo://app?vid=129ecbc8-c797-46c8-9cf8-1672794d351b","ios":"levelo://app?vid=129ecbc8-c797-46c8-9cf8-1672794d351b"},"vehicle_type_id":"4","last_reported":1733609309,"current_range_meters":32800,"station_id":"ce4bhg12rcd13ifvqf60","pricing_plan_id":"cebpf4jnsgd1na2vs0mg"},{"bike_id":"b3ca142e-2b46-4563-bc36-ba0408dafdbc","system_id":"levelo_inurba_marseille","lat":43.29633,"lon":5.40612,"is_reserved":false,"is_disabled":false,"rental_uris":{"android":"levelo://app?vid=b3ca142e-2b46-4563-bc36-ba0408dafdbc","ios":"levelo://app?vid=b3ca142e-2b46-4563-bc36-ba0408dafdbc"},"vehicle_type_id":"4","last_reported":1733609309,"current_range_meters":8800,"station_id":"ce4bh0h2rcd13ifvqd60","pricing_plan_id":"cebpf4jnsgd1na2vs0mg"},{"bike_id":"af0bd532-5fea-4a57-8e62-28c4d374f92f","system_id":"levelo_inurba_marseille","lat":43.281,"lon":5.3785,"is_reserved":false,"is_disabled":false,"rental_uris":{"android":"levelo://app?vid=af0bd532-5fea-4a57-8e62-28c4d374f92f","ios":"levelo://app?vid=af0bd532-5fea-4a57-8e62-28c4d374f92f"},"vehicle_type_id":"4","last_reported":1733609309,"current_range_meters":38800,"station_id":"ce4bha12rcd13ifvqee0","pricing_plan_id":"cebpf4jnsgd1na2vs0mg"},{"bike_id":"003a0423-dbbb-4892-9836-52426f6bb5a1","system_id":"levelo_inurba_marseille","lat":43.3148,"lon":5.37309,"is_reserved":false,"is_disabled":false,"rental_uris":{"android":"levelo://app?vid=003a0423-dbbb-4892-9836-52426f6bb5a1","ios":"levelo://app?vid=003a0423-dbbb-4892-9836-52426f6bb5a1"},"vehicle_type_id":"4","last_reported":1733609309,"current_range_meters":38800,"station_id":"ce4bgt12rcd13ifvqcd0","pricing_plan_id":"cebpf4jnsgd1na2vs0mg"},{"bike_id":"eb4e32cd-a02d-4e92-a013-1fdc0dd71ccb","system_id":"levelo_inurba_marseille","lat":43.324799,"lon":5.365716,"is_reserved":false,"is_disabled":false,"rental_uris":{"android":"levelo://app?vid=eb4e32cd-a02d-4e92-a013-1fdc0dd71ccb","ios":"levelo://app?vid=eb4e32cd-a02d-4e92-a013-1fdc0dd71ccb"},"vehicle_type_id":"4","last_reported":1733609309,"current_range_meters":3600,"station_id":"","pricing_plan_id":"cebpf4jnsgd1na2vs0mg"},{"bike_id":"db2fe59d-b5d1-4ec5-ba11-24efec8a7012","system_id":"levelo_inurba_marseille","lat":43.25489,"lon":5.3765,"is_reserved":false,"is_disabled":false,"rental_uris":{"android":"levelo://app?vid=db2fe59d-b5d1-4ec5-ba11-24efec8a7012","ios":"levelo://app?vid=db2fe59d-b5d1-4ec5-ba11-24efec8a7012"},"vehicle_type_id":"4","last_reported":1733609309,"current_range_meters":30800,"station_id":"ce4bhh12rcd13ifvqff0","pricing_plan_id":"cebpf4jnsgd1na2vs0mg"},{"bike_id":"7e0373f0-85f3-4ccf-b084-e5358e7224cd","system_id":"levelo_inurba_marseille","lat":43.24665,"lon":5.38167,"is_reserved":false,"is_disabled":false,"rental_uris":{"android":"levelo://app?vid=7e0373f0-85f3-4ccf-b084-e5358e7224cd","ios":"levelo://app?vid=7e0373f0-85f3-4ccf-b084-e5358e7224cd"},"vehicle_type_id":"4","last_reported":1733609309,"current_range_meters":38800,"station_id":"ce4bhih2rcd13ifvqfr0","pricing_plan_id":"cebpf4jnsgd1na2vs0mg"},{"bike_id":"8dc53ad0-5866-4cee-9fe3-13bc390f7685","system_id":"levelo_inurba_marseille","lat":43.30911,"lon":5.36849,"is_reserved":false,"is_disabled":false,"rental_uris":{"android":"levelo://app?vid=8dc53ad0-5866-4cee-9fe3-13bc390f7685","ios":"levelo://app?vid=8dc53ad0-5866-4cee-9fe3-13bc390f7685"},"vehicle_type_id":"4","last_reported":1733609309,"current_range_meters":32000,"station_id":"ce4bgn92rcd13ifvqbvg","pricing_plan_id":"cebpf4jnsgd1na2vs0mg"},{"bike_id":"bbf2a15a-7c34-4cdd-8f7d-611582aea846","system_id":"levelo_inurba_marseille","lat":43.2732,"lon":5.39093,"is_reserved":false,"is_disabled":false,"rental_uris":{"android":"levelo://app?vid=bbf2a15a-7c34-4cdd-8f7d-611582aea846","ios":"levelo://app?vid=bbf2a15a-7c34-4cdd-8f7d-611582aea846"},"vehicle_type_id":"4","last_reported":1733609309,"current_range_meters":16400,"station_id":"ce4bhgp2rcd13ifvqfe0","pricing_plan_id":"cebpf4jnsgd1na2vs0mg"},{"bike_id":"a66a2193-d2c7-4889-af96-33e58c39ac7e","system_id":"levelo_inurba_marseille","lat":43.29443,"lon":5.39747,"is_reserved":false,"is_disabled":false,"rental_uris":{"android":"levelo://app?vid=a66a2193-d2c7-4889-af96-33e58c39ac7e","ios":"levelo://app?vid=a66a2193-d2c7-4889-af96-33e58c39ac7e"},"vehicle_type_id":"4","last_reported":1733609309,"current_range_meters":34000,"station_id":"ce4bh3h2rcd13ifvqdo0","pricing_plan_id":"cebpf4jnsgd1na2vs0mg"},{"bike_id":"fd98eaa9-4d55-4e7b-aa90-0d14707466d9","system_id":"levelo_inurba_marseille","lat":43.337444,"lon":5.374475,"is_reserved":false,"is_disabled":true,"rental_uris":{"android":"levelo://app?vid=fd98eaa9-4d55-4e7b-aa90-0d14707466d9","ios":"levelo://app?vid=fd98eaa9-4d55-4e7b-aa90-0d14707466d9"},"vehicle_type_id":"4","last_reported":1733609309,"current_range_meters":0,"station_id":"","pricing_plan_id":"cebpf4jnsgd1na2vs0mg"},{"bike_id":"06f294bd-d283-4b87-866b-9173a9d88558","system_id":"levelo_inurba_marseille","lat":43.25867,"lon":5.39897,"is_reserved":false,"is_disabled":false,"rental_uris":{"android":"levelo://app?vid=06f294bd-d283-4b87-866b-9173a9d88558","ios":"levelo://app?vid=06f294bd-d283-4b87-866b-9173a9d88558"},"vehicle_type_id":"4","last_reported":1733609309,"current_range_meters":38800,"station_id":"ce4bhl92rcd13ifvqghg","pricing_plan_id":"cebpf4jnsgd1na2vs0mg"},{"bike_id":"2fade752-01f7-49b4-9ecd-3dee21fe39bc","system_id":"levelo_inurba_marseille","lat":43.27812,"lon":5.40712,"is_reserved":false,"is_disabled":false,"rental_uris":{"android":"levelo://app?vid=2fade752-01f7-49b4-9ecd-3dee21fe39bc","ios":"levelo://app?vid=2fade752-01f7-49b4-9ecd-3dee21fe39bc"},"vehicle_type_id":"4","last_reported":1733609309,"current_range_meters":38800,"station_id":"ce4bhnh2rcd13ifvqgtg","pricing_plan_id":"cebpf4jnsgd1na2vs0mg"},{"bike_id":"27747901-daa4-4699-83f2-9d3e8e7d86e6","system_id":"levelo_inurba_marseille","lat":43.25821,"lon":5.39433,"is_reserved":false,"is_disabled":false,"rental_uris":{"android":"levelo://app?vid=27747901-daa4-4699-83f2-9d3e8e7d86e6","ios":"levelo://app?vid=27747901-daa4-4699-83f2-9d3e8e7d86e6"},"vehicle_type_id":"4","last_reported":1733609309,"current_range_meters":29600,"station_id":"ce4bhip2rcd13ifvqft0","pricing_plan_id":"cebpf4jnsgd1na2vs0mg"},{"bike_id":"3e2734a9-3773-482a-b07f-3ee9eae4410f","system_id":"levelo_inurba_marseille","lat":43.31269,"lon":5.40162,"is_reserved":false,"is_disabled":false,"rental_uris":{"android":"levelo://app?vid=3e2734a9-3773-482a-b07f-3ee9eae4410f","ios":"levelo://app?vid=3e2734a9-3773-482a-b07f-3ee9eae4410f"},"vehicle_type_id":"4","last_reported":1733609309,"current_range_meters":38800,"station_id":"ce4bh092rcd13ifvqd30","pricing_plan_id":"cebpf4jnsgd1na2vs0mg"},{"bike_id":"9486753d-f0b0-46a3-8b01-0fd666cdfc9c","system_id":"levelo_inurba_marseille","lat":43.29422,"lon":5.38619,"is_reserved":false,"is_disabled":false,"rental_uris":{"android":"levelo://app?vid=9486753d-f0b0-46a3-8b01-0fd666cdfc9c","ios":"levelo://app?vid=9486753d-f0b0-46a3-8b01-0fd666cdfc9c"},"vehicle_type_id":"4","last_reported":1733609309,"current_range_meters":38800,"station_id":"ce4bh2h2rcd13ifvqdh0","pricing_plan_id":"cebpf4jnsgd1na2vs0mg"},{"bike_id":"4da1f21a-a94b-4e40-8119-4f95d0593822","system_id":"levelo_inurba_marseille","lat":43.3266,"lon":5.40988,"is_reserved":false,"is_disabled":false,"rental_uris":{"android":"levelo://app?vid=4da1f21a-a94b-4e40-8119-4f95d0593822","ios":"levelo://app?vid=4da1f21a-a94b-4e40-8119-4f95d0593822"},"vehicle_type_id":"4","last_reported":1733609309,"current_range_meters":38000,"station_id":"ce4bhpp2rcd13ifvqhgg","pricing_plan_id":"cebpf4jnsgd1na2vs0mg"},{"bike_id":"c2d8a1c2-d166-4a36-b32f-beec95c93bd5","system_id":"levelo_inurba_marseille","lat":43.33756,"lon":5.37459,"is_reserved":false,"is_disabled":true,"rental_uris":{"android":"levelo://app?vid=c2d8a1c2-d166-4a36-b32f-beec95c93bd5","ios":"levelo://app?vid=c2d8a1c2-d166-4a36-b32f-beec95c93bd5"},"vehicle_type_id":"4","last_reported":1733609309,"current_range_meters":0,"station_id":"","pricing_plan_id":"cebpf4jnsgd1na2vs0mg"},{"bike_id":"59048bf2-d396-4cd9-a38f-8d87a6826f42","system_id":"levelo_inurba_marseille","lat":43.28961,"lon":5.37847,"is_reserved":false,"is_disabled":false,"rental_uris":{"android":"levelo://app?vid=59048bf2-d396-4cd9-a38f-8d87a6826f42","ios":"levelo://app?vid=59048bf2-d396-4cd9-a38f-8d87a6826f42"},"vehicle_type_id":"4","last_reported":1733609309,"current_range_meters":38800,"station_id":"ce4bh9p2rcd13ifvqed0","pricing_plan_id":"cebpf4jnsgd1na2vs0mg"},{"bike_id":"0e3451bb-7a71-49a1-b69e-200c6dd6b013","system_id":"levelo_inurba_marseille","lat":43.29045,"lon":5.39971,"is_reserved":false,"is_disabled":true,"rental_uris":{"android":"levelo://app?vid=0e3451bb-7a71-49a1-b69e-200c6dd6b013","ios":"levelo://app?vid=0e3451bb-7a71-49a1-b69e-200c6dd6b013"},"vehicle_type_id":"4","last_reported":1733609309,"current_range_meters":38800,"station_id":"ce4bh392rcd13ifvqdm0","pricing_plan_id":"cebpf4jnsgd1na2vs0mg"},{"bike_id":"4e852007-aa97-4bec-bc94-5d63c5051a1c","system_id":"levelo_inurba_marseille","lat":43.29052,"lon":5.37163,"is_reserved":false,"is_disabled":false,"rental_uris":{"android":"levelo://app?vid=4e852007-aa97-4bec-bc94-5d63c5051a1c","ios":"levelo://app?vid=4e852007-aa97-4bec-bc94-5d63c5051a1c"},"vehicle_type_id":"4","last_reported":1733609309,"current_range_meters":28000,"station_id":"ce4bh5p2rcd13ifvqe4g","pricing_plan_id":"cebpf4jnsgd1na2vs0mg"},{"bike_id":"f37a82f0-00f5-47e4-a9b7-faa7c4437935","system_id":"levelo_inurba_marseille","lat":43.31069,"lon":5.38344,"is_reserved":false,"is_disabled":false,"rental_uris":{"android":"levelo://app?vid=f37a82f0-00f5-47e4-a9b7-faa7c4437935","ios":"levelo://app?vid=f37a82f0-00f5-47e4-a9b7-faa7c4437935"},"vehicle_type_id":"4","last_reported":1733609309,"current_range_meters":30400,"station_id":"ce4bgv92rcd13ifvqcr0","pricing_plan_id":"cebpf4jnsgd1na2vs0mg"},{"bike_id":"f5b6f5f8-8677-478f-ad4b-7c327942da6a","system_id":"levelo_inurba_marseille","lat":43.29976,"lon":5.38489,"is_reserved":false,"is_disabled":false,"rental_uris":{"android":"levelo://app?vid=f5b6f5f8-8677-478f-ad4b-7c327942da6a","ios":"levelo://app?vid=f5b6f5f8-8677-478f-ad4b-7c327942da6a"},"vehicle_type_id":"4","last_reported":1733609309,"current_range_meters":22800,"station_id":"ce4bgj92rcd13ifvqbd0","pricing_plan_id":"cebpf4jnsgd1na2vs0mg"},{"bike_id":"1c116fee-2365-407f-b033-8ab53c14818b","system_id":"levelo_inurba_marseille","lat":43.337444,"lon":5.374475,"is_reserved":false,"is_disabled":false,"rental_uris":{"android":"levelo://app?vid=1c116fee-2365-407f-b033-8ab53c14818b","ios":"levelo://app?vid=1c116fee-2365-407f-b033-8ab53c14818b"},"vehicle_type_id":"4","last_reported":1733609309,"current_range_meters":27200,"station_id":"","pricing_plan_id":"cebpf4jnsgd1na2vs0mg"},{"bike_id":"4676a81c-866f-4138-beb8-df5c0fc340a4","system_id":"levelo_inurba_marseille","lat":43.29263,"lon":5.38444,"is_reserved":false,"is_disabled":false,"rental_uris":{"android":"levelo://app?vid=4676a81c-866f-4138-beb8-df5c0fc340a4","ios":"levelo://app?vid=4676a81c-866f-4138-beb8-df5c0fc340a4"},"vehicle_type_id":"4","last_reported":1733609309,"current_range_meters":28400,"station_id":"ce4bh692rcd13ifvqea0","pricing_plan_id":"cebpf4jnsgd1na2vs0mg"},{"bike_id":"dc264619-1663-40f3-8321-3f84c420dac4","system_id":"levelo_inurba_marseille","lat":43.29255,"lon":5.38434,"is_reserved":false,"is_disabled":false,"rental_uris":{"android":"levelo://app?vid=dc264619-1663-40f3-8321-3f84c420dac4","ios":"levelo://app?vid=dc264619-1663-40f3-8321-3f84c420dac4"},"vehicle_type_id":"4","last_reported":1733609309,"current_range_meters":38800,"station_id":"ce4bh692rcd13ifvqea0","pricing_plan_id":"cebpf4jnsgd1na2vs0mg"},{"bike_id":"248c7271-10e8-4414-b250-5d2b1c182b1a","system_id":"levelo_inurba_marseille","lat":43.29256,"lon":5.38449,"is_reserved":false,"is_disabled":false,"rental_uris":{"android":"levelo://app?vid=248c7271-10e8-4414-b250-5d2b1c182b1a","ios":"levelo://app?vid=248c7271-10e8-4414-b250-5d2b1c182b1a"},"vehicle_type_id":"4","last_reported":1733609309,"current_range_meters":38800,"station_id":"ce4bh692rcd13ifvqea0","pricing_plan_id":"cebpf4jnsgd1na2vs0mg"},{"bike_id":"463bc732-9858-4992-a741-2b0344dd5d9b","system_id":"levelo_inurba_marseille","lat":43.323753,"lon":5.388807,"is_reserved":false,"is_disabled":false,"rental_uris":{"android":"levelo://app?vid=463bc732-9858-4992-a741-2b0344dd5d9b","ios":"levelo://app?vid=463bc732-9858-4992-a741-2b0344dd5d9b"},"vehicle_type_id":"4","last_reported":1733609309,"current_range_meters":39200,"station_id":"ce4bhqp2rcd13ifvqhog","pricing_plan_id":"cebpf4jnsgd1na2vs0mg"},{"bike_id":"f5561434-0740-4a3c-abc2-013f37687b8d","system_id":"levelo_inurba_marseille","lat":43.2481,"lon":5.37471,"is_reserved":false,"is_disabled":true,"rental_uris":{"android":"levelo://app?vid=f5561434-0740-4a3c-abc2-013f37687b8d","ios":"levelo://app?vid=f5561434-0740-4a3c-abc2-013f37687b8d"},"vehicle_type_id":"4","last_reported":1733609309,"current_range_meters":34800,"station_id":"ce4bhgh2rcd13ifvqfb0","pricing_plan_id":"cebpf4jnsgd1na2vs0mg"},{"bike_id":"b7e97006-7b12-44c5-bc2a-deaefb6653d4","system_id":"levelo_inurba_marseille","lat":43.32336,"lon":5.40618,"is_reserved":false,"is_disabled":false,"rental_uris":{"android":"levelo://app?vid=b7e97006-7b12-44c5-bc2a-deaefb6653d4","ios":"levelo://app?vid=b7e97006-7b12-44c5-bc2a-deaefb6653d4"},"vehicle_type_id":"4","last_reported":1733609309,"current_range_meters":17600,"station_id":"ce4bhq92rcd13ifvqhjg","pricing_plan_id":"cebpf4jnsgd1na2vs0mg"},{"bike_id":"0cc120f3-0353-45a2-8b5d-2fa342268f91","system_id":"levelo_inurba_marseille","lat":43.30886,"lon":5.39645,"is_reserved":false,"is_disabled":false,"rental_uris":{"android":"levelo://app?vid=0cc120f3-0353-45a2-8b5d-2fa342268f91","ios":"levelo://app?vid=0cc120f3-0353-45a2-8b5d-2fa342268f91"},"vehicle_type_id":"4","last_reported":1733609309,"current_range_meters":38800,"station_id":"ce4bh012rcd13ifvqcv0","pricing_plan_id":"cebpf4jnsgd1na2vs0mg"},{"bike_id":"6999b2bc-59ed-436b-aa5e-509132b2507a","system_id":"levelo_inurba_marseille","lat":43.29527,"lon":5.39394,"is_reserved":false,"is_disabled":false,"rental_uris":{"android":"levelo://app?vid=6999b2bc-59ed-436b-aa5e-509132b2507a","ios":"levelo://app?vid=6999b2bc-59ed-436b-aa5e-509132b2507a"},"vehicle_type_id":"4","last_reported":1733609309,"current_range_meters":39200,"station_id":"ce4bh292rcd13ifvqdf0","pricing_plan_id":"cebpf4jnsgd1na2vs0mg"},{"bike_id":"f06b77e1-3aac-4ac4-9340-5d3a6d8f8ca7","system_id":"levelo_inurba_marseille","lat":43.3033,"lon":5.40434,"is_reserved":false,"is_disabled":false,"rental_uris":{"android":"levelo://app?vid=f06b77e1-3aac-4ac4-9340-5d3a6d8f8ca7","ios":"levelo://app?vid=f06b77e1-3aac-4ac4-9340-5d3a6d8f8ca7"},"vehicle_type_id":"4","last_reported":1733609309,"current_range_meters":38800,"station_id":"ce4bh012rcd13ifvqd10","pricing_plan_id":"cebpf4jnsgd1na2vs0mg"},{"bike_id":"40a404a8-97d5-4dec-99c8-b24ae4fd112c","system_id":"levelo_inurba_marseille","lat":43.28669,"lon":5.38661,"is_reserved":false,"is_disabled":false,"rental_uris":{"android":"levelo://app?vid=40a404a8-97d5-4dec-99c8-b24ae4fd112c","ios":"levelo://app?vid=40a404a8-97d5-4dec-99c8-b24ae4fd112c"},"vehicle_type_id":"4","last_reported":1733609309,"current_range_meters":37600,"station_id":"ce4bh492rcd13ifvqdug","pricing_plan_id":"cebpf4jnsgd1na2vs0mg"},{"bike_id":"6c660714-bd36-4e1d-858f-095636bba76e","system_id":"levelo_inurba_marseille","lat":43.25938,"lon":5.40906,"is_reserved":false,"is_disabled":false,"rental_uris":{"android":"levelo://app?vid=6c660714-bd36-4e1d-858f-095636bba76e","ios":"levelo://app?vid=6c660714-bd36-4e1d-858f-095636bba76e"},"vehicle_type_id":"4","last_reported":1733609309,"current_range_meters":17200,"station_id":"ce4bhm92rcd13ifvqglg","pricing_plan_id":"cebpf4jnsgd1na2vs0mg"},{"bike_id":"7d84dffa-aa0f-4957-b875-ccc94ed5e4a5","system_id":"levelo_inurba_marseille","lat":43.31277,"lon":5.40165,"is_reserved":false,"is_disabled":false,"rental_uris":{"android":"levelo://app?vid=7d84dffa-aa0f-4957-b875-ccc94ed5e4a5","ios":"levelo://app?vid=7d84dffa-aa0f-4957-b875-ccc94ed5e4a5"},"vehicle_type_id":"4","last_reported":1733609309,"current_range_meters":38800,"station_id":"ce4bh092rcd13ifvqd30","pricing_plan_id":"cebpf4jnsgd1na2vs0mg"},{"bike_id":"e2d693aa-5ed2-4686-b4c9-c48bb50ba4ea","system_id":"levelo_inurba_marseille","lat":43.31329,"lon":5.39701,"is_reserved":false,"is_disabled":false,"rental_uris":{"android":"levelo://app?vid=e2d693aa-5ed2-4686-b4c9-c48bb50ba4ea","ios":"levelo://app?vid=e2d693aa-5ed2-4686-b4c9-c48bb50ba4ea"},"vehicle_type_id":"4","last_reported":1733609309,"current_range_meters":38800,"station_id":"ce4bgvp2rcd13ifvqcu0","pricing_plan_id":"cebpf4jnsgd1na2vs0mg"},{"bike_id":"bacc3450-9073-4434-a77d-41c29d8453a7","system_id":"levelo_inurba_marseille","lat":43.25723,"lon":5.41109,"is_reserved":false,"is_disabled":false,"rental_uris":{"android":"levelo://app?vid=bacc3450-9073-4434-a77d-41c29d8453a7","ios":"levelo://app?vid=bacc3450-9073-4434-a77d-41c29d8453a7"},"vehicle_type_id":"4","last_reported":1733609309,"current_range_meters":38800,"station_id":"ce4bhkp2rcd13ifvqgd0","pricing_plan_id":"cebpf4jnsgd1na2vs0mg"},{"bike_id":"b57ac3ac-1cb9-4a0e-9880-d76a5f5fa301","system_id":"levelo_inurba_marseille","lat":43.26206,"lon":5.37926,"is_reserved":false,"is_disabled":false,"rental_uris":{"android":"levelo://app?vid=b57ac3ac-1cb9-4a0e-9880-d76a5f5fa301","ios":"levelo://app?vid=b57ac3ac-1cb9-4a0e-9880-d76a5f5fa301"},"vehicle_type_id":"4","last_reported":1733609309,"current_range_meters":36400,"station_id":"ce4bhjp2rcd13ifvqg90","pricing_plan_id":"cebpf4jnsgd1na2vs0mg"},{"bike_id":"18cdda37-c078-44c1-ae6c-8a7ab3a2d4e4","system_id":"levelo_inurba_marseille","lat":43.28729,"lon":5.36092,"is_reserved":false,"is_disabled":false,"rental_uris":{"android":"levelo://app?vid=18cdda37-c078-44c1-ae6c-8a7ab3a2d4e4","ios":"levelo://app?vid=18cdda37-c078-44c1-ae6c-8a7ab3a2d4e4"},"vehicle_type_id":"4","last_reported":1733609309,"current_range_meters":38800,"station_id":"cki0cbj6b192h4jlfktg","pricing_plan_id":"cebpf4jnsgd1na2vs0mg"},{"bike_id":"080fcb1c-52b8-42d7-b477-4dbab7fa601d","system_id":"levelo_inurba_marseille","lat":43.33025,"lon":5.39035,"is_reserved":false,"is_disabled":false,"rental_uris":{"android":"levelo://app?vid=080fcb1c-52b8-42d7-b477-4dbab7fa601d","ios":"levelo://app?vid=080fcb1c-52b8-42d7-b477-4dbab7fa601d"},"vehicle_type_id":"4","last_reported":1733609309,"current_range_meters":25200,"station_id":"ce4bhr92rcd13ifvqhrg","pricing_plan_id":"cebpf4jnsgd1na2vs0mg"},{"bike_id":"ca7e1c39-caff-43f9-af4e-cdd19f0fa910","system_id":"levelo_inurba_marseille","lat":43.31883,"lon":5.40737,"is_reserved":false,"is_disabled":false,"rental_uris":{"android":"levelo://app?vid=ca7e1c39-caff-43f9-af4e-cdd19f0fa910","ios":"levelo://app?vid=ca7e1c39-caff-43f9-af4e-cdd19f0fa910"},"vehicle_type_id":"4","last_reported":1733609309,"current_range_meters":24400,"station_id":"ce4bhq12rcd13ifvqhig","pricing_plan_id":"cebpf4jnsgd1na2vs0mg"},{"bike_id":"4ada2632-99a3-4180-b36b-760c69351a07","system_id":"levelo_inurba_marseille","lat":43.27906,"lon":5.38008,"is_reserved":false,"is_disabled":false,"rental_uris":{"android":"levelo://app?vid=4ada2632-99a3-4180-b36b-760c69351a07","ios":"levelo://app?vid=4ada2632-99a3-4180-b36b-760c69351a07"},"vehicle_type_id":"4","last_reported":1733609309,"current_range_meters":18800,"station_id":"ce4bhf92rcd13ifvqf50","pricing_plan_id":"cebpf4jnsgd1na2vs0mg"},{"bike_id":"37f21803-4998-4b36-bf05-4b1e624f1a52","system_id":"levelo_inurba_marseille","lat":43.32656,"lon":5.40991,"is_reserved":false,"is_disabled":false,"rental_uris":{"android":"levelo://app?vid=37f21803-4998-4b36-bf05-4b1e624f1a52","ios":"levelo://app?vid=37f21803-4998-4b36-bf05-4b1e624f1a52"},"vehicle_type_id":"4","last_reported":1733609309,"current_range_meters":20000,"station_id":"ce4bhpp2rcd13ifvqhgg","pricing_plan_id":"cebpf4jnsgd1na2vs0mg"},{"bike_id":"91ba67a8-fa82-4064-bca6-f2cbf9bac40e","system_id":"levelo_inurba_marseille","lat":43.28606,"lon":5.37061,"is_reserved":false,"is_disabled":false,"rental_uris":{"android":"levelo://app?vid=91ba67a8-fa82-4064-bca6-f2cbf9bac40e","ios":"levelo://app?vid=91ba67a8-fa82-4064-bca6-f2cbf9bac40e"},"vehicle_type_id":"4","last_reported":1733609309,"current_range_meters":38400,"station_id":"ce4bht12rcd13ifvqi60","pricing_plan_id":"cebpf4jnsgd1na2vs0mg"},{"bike_id":"868a434e-7c11-4b20-84c6-7ecdbf24c83b","system_id":"levelo_inurba_marseille","lat":43.33021,"lon":5.39035,"is_reserved":false,"is_disabled":false,"rental_uris":{"android":"levelo://app?vid=868a434e-7c11-4b20-84c6-7ecdbf24c83b","ios":"levelo://app?vid=868a434e-7c11-4b20-84c6-7ecdbf24c83b"},"vehicle_type_id":"4","last_reported":1733609309,"current_range_meters":22800,"station_id":"ce4bhr92rcd13ifvqhrg","pricing_plan_id":"cebpf4jnsgd1na2vs0mg"},{"bike_id":"4c8b77e0-44a3-4695-a664-ecb5da6a9925","system_id":"levelo_inurba_marseille","lat":43.29566,"lon":5.39732,"is_reserved":false,"is_disabled":true,"rental_uris":{"android":"levelo://app?vid=4c8b77e0-44a3-4695-a664-ecb5da6a9925","ios":"levelo://app?vid=4c8b77e0-44a3-4695-a664-ecb5da6a9925"},"vehicle_type_id":"4","last_reported":1733609309,"current_range_meters":0,"station_id":"","pricing_plan_id":"cebpf4jnsgd1na2vs0mg"},{"bike_id":"0f0ad483-2682-4b3d-8858-da8201587984","system_id":"levelo_inurba_marseille","lat":43.2991,"lon":5.37477,"is_reserved":false,"is_disabled":false,"rental_uris":{"android":"levelo://app?vid=0f0ad483-2682-4b3d-8858-da8201587984","ios":"levelo://app?vid=0f0ad483-2682-4b3d-8858-da8201587984"},"vehicle_type_id":"4","last_reported":1733609309,"current_range_meters":24800,"station_id":"ce4bgjh2rcd13ifvqbg0","pricing_plan_id":"cebpf4jnsgd1na2vs0mg"},{"bike_id":"69b02490-edb0-40df-a433-3b4fea071b52","system_id":"levelo_inurba_marseille","lat":43.31711,"lon":5.43697,"is_reserved":false,"is_disabled":true,"rental_uris":{"android":"levelo://app?vid=69b02490-edb0-40df-a433-3b4fea071b52","ios":"levelo://app?vid=69b02490-edb0-40df-a433-3b4fea071b52"},"vehicle_type_id":"4","last_reported":1733609309,"current_range_meters":0,"station_id":"ce4bhp92rcd13ifvqhcg","pricing_plan_id":"cebpf4jnsgd1na2vs0mg"},{"bike_id":"da4f1099-c4da-4f81-ad90-21ccb63acb11","system_id":"levelo_inurba_marseille","lat":43.27971,"lon":5.38748,"is_reserved":false,"is_disabled":false,"rental_uris":{"android":"levelo://app?vid=da4f1099-c4da-4f81-ad90-21ccb63acb11","ios":"levelo://app?vid=da4f1099-c4da-4f81-ad90-21ccb63acb11"},"vehicle_type_id":"4","last_reported":1733609309,"current_range_meters":38400,"station_id":"ce4bhg12rcd13ifvqf80","pricing_plan_id":"cebpf4jnsgd1na2vs0mg"},{"bike_id":"35116aeb-0a76-4797-a5b2-a18534d3382f","system_id":"levelo_inurba_marseille","lat":43.337444,"lon":5.374475,"is_reserved":false,"is_disabled":false,"rental_uris":{"android":"levelo://app?vid=35116aeb-0a76-4797-a5b2-a18534d3382f","ios":"levelo://app?vid=35116aeb-0a76-4797-a5b2-a18534d3382f"},"vehicle_type_id":"4","last_reported":1733609309,"current_range_meters":27200,"station_id":"","pricing_plan_id":"cebpf4jnsgd1na2vs0mg"},{"bike_id":"4ae5fe7f-a755-40fe-9b35-59fbb2437146","system_id":"levelo_inurba_marseille","lat":43.24177,"lon":5.36417,"is_reserved":false,"is_disabled":false,"rental_uris":{"android":"levelo://app?vid=4ae5fe7f-a755-40fe-9b35-59fbb2437146","ios":"levelo://app?vid=4ae5fe7f-a755-40fe-9b35-59fbb2437146"},"vehicle_type_id":"4","last_reported":1733609309,"current_range_meters":30400,"station_id":"cpo36qri1sfpv3e86is0","pricing_plan_id":"cebpf4jnsgd1na2vs0mg"},{"bike_id":"bc8d776b-dc7a-4684-acdf-d93b6786694a","system_id":"levelo_inurba_marseille","lat":43.25941,"lon":5.40905,"is_reserved":false,"is_disabled":false,"rental_uris":{"android":"levelo://app?vid=bc8d776b-dc7a-4684-acdf-d93b6786694a","ios":"levelo://app?vid=bc8d776b-dc7a-4684-acdf-d93b6786694a"},"vehicle_type_id":"4","last_reported":1733609309,"current_range_meters":33200,"station_id":"ce4bhm92rcd13ifvqglg","pricing_plan_id":"cebpf4jnsgd1na2vs0mg"},{"bike_id":"24e2c4bd-87c1-4fd2-ae31-d53c0dfab110","system_id":"levelo_inurba_marseille","lat":43.29421,"lon":5.38627,"is_reserved":false,"is_disabled":false,"rental_uris":{"android":"levelo://app?vid=24e2c4bd-87c1-4fd2-ae31-d53c0dfab110","ios":"levelo://app?vid=24e2c4bd-87c1-4fd2-ae31-d53c0dfab110"},"vehicle_type_id":"4","last_reported":1733609309,"current_range_meters":38400,"station_id":"ce4bh2h2rcd13ifvqdh0","pricing_plan_id":"cebpf4jnsgd1na2vs0mg"},{"bike_id":"1e9c410b-4e1d-40bf-8b7d-18630112c15a","system_id":"levelo_inurba_marseille","lat":43.30322,"lon":5.40441,"is_reserved":false,"is_disabled":false,"rental_uris":{"android":"levelo://app?vid=1e9c410b-4e1d-40bf-8b7d-18630112c15a","ios":"levelo://app?vid=1e9c410b-4e1d-40bf-8b7d-18630112c15a"},"vehicle_type_id":"4","last_reported":1733609309,"current_range_meters":27200,"station_id":"ce4bh012rcd13ifvqd10","pricing_plan_id":"cebpf4jnsgd1na2vs0mg"},