{"last_updated":1745565008,"ttl":60,"version":"2.2","data":{"bikes":[{"bike_id":"ff337e12-6f7b-44e4-ae15-995060acf71f","system_id":"levelo_inurba_marseille","lat":43.29031,"lon":5.399612,"is_reserved":false,"is_disabled":false,"rental_uris":{"android":"levelo://app?vid=ff337e12-6f7b-44e4-ae15-995060acf71f","ios":"levelo://app?vid=ff337e12-6f7b-44e4-ae15-995060acf71f"},"vehicle_type_id":"4","last_reported":1745565008,"current_range_meters":2800,"station_id":"ce4bh392rcd13ifvqdm0","pricing_plan_id":"cebpf4jnsgd1na2vs0mg"},{"bike_id":"8b4bac15-47d4-4b48-89ad-d28a545e842f","system_id":"levelo_inurba_marseille","lat":43.22934,"lon":5.35382,"is_reserved":false,"is_disabled":false,"rental_uris":{"android":"levelo://app?vid=8b4bac15-47d4-4b48-89ad-d28a545e842f","ios":"levelo://app?vid=8b4bac15-47d4-4b48-89ad-d28a545e842f"},"vehicle_type_id":"4","last_reported":1745565008,"current_range_meters":2800,"station_id":"cpo3532slgdg3j2ikp40","pricing_plan_id":"cebpf4jnsgd1na2vs0mg"},{"bike_id":"c80b4906-338a-43d0-8b2c-1767d2950c18","system_id":"levelo_inurba_marseille","lat":43.24202,"lon":5.39697,"is_reserved":false,"is_disabled":false,"rental_uris":{"android":"levelo://app?vid=c80b4906-338a-43d0-8b2c-1767d2950c18","ios":"levelo://app?vid=c80b4906-338a-43d0-8b2c-1767d2950c18"},"vehicle_type_id":"4","last_reported":1745565008,"current_range_meters":2800,"station_id":"ce4bhn12rcd13ifvqgpg","pricing_plan_id":"cebpf4jnsgd1na2vs0mg"},{"bike_id":"029430fb-a21d-4841-b706-0cd6b3becfcc","system_id":"levelo_inurba_marseille","lat":43.26757,"lon":5.39493,"is_reserved":false,"is_disabled":false,"rental_uris":{"android":"levelo://app?vid=029430fb-a21d-4841-b706-0cd6b3becfcc","ios":"levelo://app?vid=029430fb-a21d-4841-b706-0cd6b3becfcc"},"vehicle_type_id":"4","last_reported":1745565008,"current_range_meters":2800,"station_id":"","pricing_plan_id":"cebpf4jnsgd1na2vs0mg"},{"bike_id":"ba98092f-1f95-4d1b-8c2e-943fbb808d72","system_id":"levelo_inurba_marseille","lat":43.241744,"lon":5.397286,"is_reserved":false,"is_disabled":false,"rental_uris":{"android":"levelo://app?vid=ba98092f-1f95-4d1b-8c2e-943fbb808d72","ios":"levelo://app?vid=ba98092f-1f95-4d1b-8c2e-943fbb808d72"},"vehicle_type_id":"4","last_reported":1745565008,"current_range_meters":2800,"station_id":"ce4bhn12rcd13ifvqgpg","pricing_plan_id":"cebpf4jnsgd1na2vs0mg"},{"bike_id":"e1d04b72-06e9-47d8-be6d-d66e34f82479","system_id":"levelo_inurba_marseille","lat":43.319909,"lon":5.381644,"is_reserved":false,"is_disabled":false,"rental_uris":{"android":"levelo://app?vid=e1d04b72-06e9-47d8-be6d-d66e34f82479","ios":"levelo://app?vid=e1d04b72-06e9-47d8-be6d-d66e34f82479"},"vehicle_type_id":"4","last_reported":1745565008,"current_range_meters":2800,"station_id":"ce4bhqp2rcd13ifvqhng","pricing_plan_id":"cebpf4jnsgd1na2vs0mg"},{"bike_id":"8c58cfbb-2295-48a6-9790-3340f2f27d8b","system_id":"levelo_inurba_marseille","lat":43.27963,"lon":5.38754,"is_reserved":false,"is_disabled":false,"rental_uris":{"android":"levelo://app?vid=8c58cfbb-2295-48a6-9790-3340f2f27d8b","ios":"levelo://app?vid=8c58cfbb-2295-48a6-9790-3340f2f27d8b"},"vehicle_type_id":"4","last_reported":1745565008,"current_range_meters":3200,"station_id":"ce4bhg12rcd13ifvqf80","pricing_plan_id":"cebpf4jnsgd1na2vs0mg"},{"bike_id":"da70d61b-208e-4f5a-8136-fdac79841f35","system_id":"levelo_inurba_marseille","lat":43.28005,"lon":5.36933,"is_reserved":false,"is_disabled":false,"rental_uris":{"android":"levelo://app?vid=da70d61b-208e-4f5a-8136-fdac79841f35","ios":"levelo://app?vid=da70d61b-208e-4f5a-8136-fdac79841f35"},"vehicle_type_id":"4","last_reported":1745565008,"current_range_meters":3200,"station_id":"ce4bha12rcd13ifvqef0","pricing_plan_id":"cebpf4jnsgd1na2vs0mg"},{"bike_id":"4dde3e55-d5d7-447c-b075-64b15d87a3d2","system_id":"levelo_inurba_marseille","lat":43.299173,"lon":5.41326,"is_reserved":false,"is_disabled":false,"rental_uris":{"android":"levelo://app?vid=4dde3e55-d5d7-447c-b075-64b15d87a3d2","ios":"levelo://app?vid=4dde3e55-d5d7-447c-b075-64b15d87a3d2"},"vehicle_type_id":"4","last_reported":1745565008,"current_range_meters":2800,"station_id":"ce4bhp12rcd13ifvqh9g","pricing_plan_id":"cebpf4jnsgd1na2vs0mg"},{"bike_id":"d373d43c-1ec8-4c15-97b7-3808631cf0d5","system_id":"levelo_inurba_marseille","lat":43.30621,"lon":5.37945,"is_reserved":false,"is_disabled":false,"rental_uris":{"android":"levelo://app?vid=d373d43c-1ec8-4c15-97b7-3808631cf0d5","ios":"levelo://app?vid=d373d43c-1ec8-4c15-97b7-3808631cf0d5"},"vehicle_type_id":"4","last_reported":1745565008,"current_range_meters":3200,"station_id":"","pricing_plan_id":"cebpf4jnsgd1na2vs0mg"},{"bike_id":"e23cb694-35da-4475-a93f-ed75f175ab7f","system_id":"levelo_inurba_marseille","lat":43.266487,"lon":5.372682,"is_reserved":false,"is_disabled":false,"rental_uris":{"android":"levelo://app?vid=e23cb694-35da-4475-a93f-ed75f175ab7f","ios":"levelo://app?vid=e23cb694-35da-4475-a93f-ed75f175ab7f"},"vehicle_type_id":"4","last_reported":1745565008,"current_range_meters":3200,"station_id":"ce4bhbp2rcd13ifvqerg","pricing_plan_id":"cebpf4jnsgd1na2vs0mg"},{"bike_id":"92f3a277-dac5-437f-931c-bf9d49d61266","system_id":"levelo_inurba_marseille","lat":43.30364,"lon":5.42491,"is_reserved":false,"is_disabled":false,"rental_uris":{"android":"levelo://app?vid=92f3a277-dac5-437f-931c-bf9d49d61266","ios":"levelo://app?vid=92f3a277-dac5-437f-931c-bf9d49d61266"},"vehicle_type_id":"4","last_reported":1745565008,"current_range_meters":3200,"station_id":"ce4bhoh2rcd13ifvqh6g","pricing_plan_id":"cebpf4jnsgd1na2vs0mg"},{"bike_id":"141535cf-fb3b-46b7-aef5-8d6d20a2c722","system_id":"levelo_inurba_marseille","lat":43.281163,"lon":5.378317,"is_reserved":false,"is_disabled":false,"rental_uris":{"android":"levelo://app?vid=141535cf-fb3b-46b7-aef5-8d6d20a2c722","ios":"levelo://app?vid=141535cf-fb3b-46b7-aef5-8d6d20a2c722"},"vehicle_type_id":"4","last_reported":1745565008,"current_range_meters":3200,"station_id":"ce4bha12rcd13ifvqee0","pricing_plan_id":"cebpf4jnsgd1na2vs0mg"},{"bike_id":"ab022574-6b84-42ba-aed4-659306abeb16","system_id":"levelo_inurba_marseille","lat":43.25091,"lon":5.39517,"is_reserved":false,"is_disabled":false,"rental_uris":{"android":"levelo://app?vid=ab022574-6b84-42ba-aed4-659306abeb16","ios":"levelo://app?vid=ab022574-6b84-42ba-aed4-659306abeb16"},"vehicle_type_id":"4","last_reported":1745565008,"current_range_meters":3600,"station_id":"ce4bhm12rcd13ifvqgkg","pricing_plan_id":"cebpf4jnsgd1na2vs0mg"},{"bike_id":"fed3087f-a5cb-449e-a43e-200233532ee8","system_id":"levelo_inurba_marseille","lat":43.28026,"lon":5.36945,"is_reserved":false,"is_disabled":true,"rental_uris":{"android":"levelo://app?vid=fed3087f-a5cb-449e-a43e-200233532ee8","ios":"levelo://app?vid=fed3087f-a5cb-449e-a43e-200233532ee8"},"vehicle_type_id":"4","last_reported":1745565008,"current_range_meters":3600,"station_id":"ce4bha12rcd13ifvqef0","pricing_plan_id":"cebpf4jnsgd1na2vs0mg"},{"bike_id":"31a262df-c78c-4b60-a80d-cd8c28deb9ba","system_id":"levelo_inurba_marseille","lat":43.30185,"lon":5.36625,"is_reserved":false,"is_disabled":false,"rental_uris":{"android":"levelo://app?vid=31a262df-c78c-4b60-a80d-cd8c28deb9ba","ios":"levelo://app?vid=31a262df-c78c-4b60-a80d-cd8c28deb9ba"},"vehicle_type_id":"4","last_reported":1745565008,"current_range_meters":3600,"station_id":"ce4bgrh2rcd13ifvqc8g","pricing_plan_id":"cebpf4jnsgd1na2vs0mg"},{"bike_id":"30704823-7a9c-4b12-af5d-93db18bfd3b9","system_id":"levelo_inurba_marseille","lat":43.28842,"lon":5.3994,"is_reserved":false,"is_disabled":false,"rental_uris":{"android":"levelo://app?vid=30704823-7a9c-4b12-af5d-93db18bfd3b9","ios":"levelo://app?vid=30704823-7a9c-4b12-af5d-93db18bfd3b9"},"vehicle_type_id":"4","last_reported":1745565008,"current_range_meters":3600,"station_id":"","pricing_plan_id":"cebpf4jnsgd1na2vs0mg"},{"bike_id":"c398c469-f4af-4c78-aea6-ed63a4bb3e8d","system_id":"levelo_inurba_marseille","lat":43.309077,"lon":5.368358,"is_reserved":false,"is_disabled":false,"rental_uris":{"android":"levelo://app?vid=c398c469-f4af-4c78-aea6-ed63a4bb3e8d","ios":"levelo://app?vid=c398c469-f4af-4c78-aea6-ed63a4bb3e8d"},"vehicle_type_id":"4","last_reported":1745565008,"current_range_meters":4000,"station_id":"ce4bgn92rcd13ifvqbvg","pricing_plan_id":"cebpf4jnsgd1na2vs0mg"},{"bike_id":"e52b8da7-98f9-4e55-a025-10dea4c1f453","system_id":"levelo_inurba_marseille","lat":43.25948,"lon":5.40889,"is_reserved":false,"is_disabled":false,"rental_uris":{"android":"levelo://app?vid=e52b8da7-98f9-4e55-a025-10dea4c1f453","ios":"levelo://app?vid=e52b8da7-98f9-4e55-a025-10dea4c1f453"},"vehicle_type_id":"4","last_reported":1745565008,"current_range_meters":4000,"station_id":"ce4bhm92rcd13ifvqglg","pricing_plan_id":"cebpf4jnsgd1na2vs0mg"},{"bike_id":"35ba198c-d030-4b10-b4ce-0e920c083b8c","system_id":"levelo_inurba_marseille","lat":43.25939,"lon":5.40901,"is_reserved":false,"is_disabled":false,"rental_uris":{"android":"levelo://app?vid=35ba198c-d030-4b10-b4ce-0e920c083b8c","ios":"levelo://app?vid=35ba198c-d030-4b10-b4ce-0e920c083b8c"},"vehicle_type_id":"4","last_reported":1745565008,"current_range_meters":4000,"station_id":"ce4bhm92rcd13ifvqglg","pricing_plan_id":"cebpf4jnsgd1na2vs0mg"},{"bike_id":"92c3b340-d069-4f1c-b55b-44c52f19597b","system_id":"levelo_inurba_marseille","lat":43.282488,"lon":5.377906,"is_reserved":false,"is_disabled":false,"rental_uris":{"android":"levelo://app?vid=92c3b340-d069-4f1c-b55b-44c52f19597b","ios":"levelo://app?vid=92c3b340-d069-4f1c-b55b-44c52f19597b"},"vehicle_type_id":"4","last_reported":1745565008,"current_range_meters":4400,"station_id":"","pricing_plan_id":"cebpf4jnsgd1na2vs0mg"},{"bike_id":"842aed09-7a81-4a3f-89e9-0b8e2d664089","system_id":"levelo_inurba_marseille","lat":43.29231,"lon":5.36047,"is_reserved":false,"is_disabled":false,"rental_uris":{"android":"levelo://app?vid=842aed09-7a81-4a3f-89e9-0b8e2d664089","ios":"levelo://app?vid=842aed09-7a81-4a3f-89e9-0b8e2d664089"},"vehicle_type_id":"4","last_reported":1745565008,"current_range_meters":4400,"station_id":"ce4bhbh2rcd13ifvqeqg","pricing_plan_id":"cebpf4jnsgd1na2vs0mg"},{"bike_id":"bf95ee47-eda3-4f2f-bbe7-3269ef43da0c","system_id":"levelo_inurba_marseille","lat":43.267286,"lon":5.38005,"is_reserved":false,"is_disabled":false,"rental_uris":{"android":"levelo://app?vid=bf95ee47-eda3-4f2f-bbe7-3269ef43da0c","ios":"levelo://app?vid=bf95ee47-eda3-4f2f-bbe7-3269ef43da0c"},"vehicle_type_id":"4","last_reported":1745565008,"current_range_meters":4000,"station_id":"ce4bhjp2rcd13ifvqg90","pricing_plan_id":"cebpf4jnsgd1na2vs0mg"},{"bike_id":"5b16eb17-ed57-4a23-aac2-2c155ee976fc","system_id":"levelo_inurba_marseille","lat":43.22939,"lon":5.35385,"is_reserved":false,"is_disabled":false,"rental_uris":{"android":"levelo://app?vid=5b16eb17-ed57-4a23-aac2-2c155ee976fc","ios":"levelo://app?vid=5b16eb17-ed57-4a23-aac2-2c155ee976fc"},"vehicle_type_id":"4","last_reported":1745565008,"current_range_meters":4400,"station_id":"cpo3532slgdg3j2ikp40","pricing_plan_id":"cebpf4jnsgd1na2vs0mg"},{"bike_id":"80f103c8-24eb-4091-a1c4-30fa303bb771","system_id":"levelo_inurba_marseille","lat":43.30323,"lon":5.40432,"is_reserved":false,"is_disabled":false,"rental_uris":{"android":"levelo://app?vid=80f103c8-24eb-4091-a1c4-30fa303bb771","ios":"levelo://app?vid=80f103c8-24eb-4091-a1c4-30fa303bb771"},"vehicle_type_id":"4","last_reported":1745565008,"current_range_meters":4400,"station_id":"ce4bh012rcd13ifvqd10","pricing_plan_id":"cebpf4jnsgd1na2vs0mg"},{"bike_id":"ce84d9c0-7738-4537-9da5-d4cf8a6acfb5","system_id":"levelo_inurba_marseille","lat":43.28351,"lon":5.38096,"is_reserved":false,"is_disabled":false,"rental_uris":{"android":"levelo://app?vid=ce84d9c0-7738-4537-9da5-d4cf8a6acfb5","ios":"levelo://app?vid=ce84d9c0-7738-4537-9da5-d4cf8a6acfb5"},"vehicle_type_id":"4","last_reported":1745565008,"current_range_meters":4800,"station_id":"ce4bh412rcd13ifvqdr0","pricing_plan_id":"cebpf4jnsgd1na2vs0mg"},{"bike_id":"466274b7-bf82-4010-9214-220ecb1658fd","system_id":"levelo_inurba_marseille","lat":43.21751,"lon":5.34624,"is_reserved":false,"is_disabled":false,"rental_uris":{"android":"levelo://app?vid=466274b7-bf82-4010-9214-220ecb1658fd","ios":"levelo://app?vid=466274b7-bf82-4010-9214-220ecb1658fd"},"vehicle_type_id":"4","last_reported":1745565008,"current_range_meters":4800,"station_id":"st_cvj6r9ubvosntc0bgbag","pricing_plan_id":"cebpf4jnsgd1na2vs0mg"},{"bike_id":"b798b525-be60-451c-ac2c-c888bd91763c","system_id":"levelo_inurba_marseille","lat":43.3128,"lon":5.36734,"is_reserved":false,"is_disabled":false,"rental_uris":{"android":"levelo://app?vid=b798b525-be60-451c-ac2c-c888bd91763c","ios":"levelo://app?vid=b798b525-be60-451c-ac2c-c888bd91763c"},"vehicle_type_id":"4","last_reported":1745565008,"current_range_meters":4800,"station_id":"ce4bgr92rcd13ifvqc6g","pricing_plan_id":"cebpf4jnsgd1na2vs0mg"},{"bike_id":"5d34f5a6-e4fb-4754-9539-95e557a51a4c","system_id":"levelo_inurba_marseille","lat":43.24182,"lon":5.39719,"is_reserved":false,"is_disabled":false,"rental_uris":{"android":"levelo://app?vid=5d34f5a6-e4fb-4754-9539-95e557a51a4c","ios":"levelo://app?vid=5d34f5a6-e4fb-4754-9539-95e557a51a4c"},"vehicle_type_id":"4","last_reported":1745565008,"current_range_meters":4800,"station_id":"ce4bhn12rcd13ifvqgpg","pricing_plan_id":"cebpf4jnsgd1na2vs0mg"},{"bike_id":"8764c801-9cd2-4e78-bbfe-a229706ee676","system_id":"levelo_inurba_marseille","lat":43.29873,"lon":5.38903,"is_reserved":false,"is_disabled":true,"rental_uris":{"android":"levelo://app?vid=8764c801-9cd2-4e78-bbfe-a229706ee676","ios":"levelo://app?vid=8764c801-9cd2-4e78-bbfe-a229706ee676"},"vehicle_type_id":"4","last_reported":1745565008,"current_range_meters":4800,"station_id":"ce4bh392rcd13ifvqdl0","pricing_plan_id":"cebpf4jnsgd1na2vs0mg"},{"bike_id":"60ee52f6-3432-4a14-b3b4-c3acf981d864","system_id":"levelo_inurba_marseille","lat":43.21755,"lon":5.34625,"is_reserved":false,"is_disabled":false,"rental_uris":{"android":"levelo://app?vid=60ee52f6-3432-4a14-b3b4-c3acf981d864","ios":"levelo://app?vid=60ee52f6-3432-4a14-b3b4-c3acf981d864"},"vehicle_type_id":"4","last_reported":1745565008,"current_range_meters":5600,"station_id":"st_cvj6r9ubvosntc0bgbag","pricing_plan_id":"cebpf4jnsgd1na2vs0mg"},{"bike_id":"04de76c4-a1ad-45bf-9e28-7c78bfcbb5c0","system_id":"levelo_inurba_marseille","lat":43.251934,"lon":5.374491,"is_reserved":false,"is_disabled":false,"rental_uris":{"android":"levelo://app?vid=04de76c4-a1ad-45bf-9e28-7c78bfcbb5c0","ios":"levelo://app?vid=04de76c4-a1ad-45bf-9e28-7c78bfcbb5c0"},"vehicle_type_id":"4","last_reported":1745565008,"current_range_meters":5600,"station_id":"","pricing_plan_id":"cebpf4jnsgd1na2vs0mg"},{"bike_id":"34034c9d-c50b-4bde-b734-6a951e24d5fa","system_id":"levelo_inurba_marseille","lat":43.29267,"lon":5.36848,"is_reserved":false,"is_disabled":false,"rental_uris":{"android":"levelo://app?vid=34034c9d-c50b-4bde-b734-6a951e24d5fa","ios":"levelo://app?vid=34034c9d-c50b-4bde-b734-6a951e24d5fa"},"vehicle_type_id":"4","last_reported":1745565008,"current_range_meters":6000,"station_id":"ce4bhbp2rcd13ifvqesg","pricing_plan_id":"cebpf4jnsgd1na2vs0mg"},{"bike_id":"15662f77-bda8-4561-9710-55fae20def56","system_id":"levelo_inurba_marseille","lat":43.29573,"lon":5.3751,"is_reserved":false,"is_disabled":false,"rental_uris":{"android":"levelo://app?vid=15662f77-bda8-4561-9710-55fae20def56","ios":"levelo://app?vid=15662f77-bda8-4561-9710-55fae20def56"},"vehicle_type_id":"4","last_reported":1745565008,"current_range_meters":6000,"station_id":"ce4bgh92rcd13ifvqb50","pricing_plan_id":"cebpf4jnsgd1na2vs0mg"},{"bike_id":"7c2c4ee1-c89b-4648-b758-7633dd7cc733","system_id":"levelo_inurba_marseille","lat":43.295622,"lon":5.366245,"is_reserved":false,"is_disabled":false,"rental_uris":{"android":"levelo://app?vid=7c2c4ee1-c89b-4648-b758-7633dd7cc733","ios":"levelo://app?vid=7c2c4ee1-c89b-4648-b758-7633dd7cc733"},"vehicle_type_id":"4","last_reported":1745565008,"current_range_meters":6000,"station_id":"ce4bgpp2rcd13ifvqc3g","pricing_plan_id":"cebpf4jnsgd1na2vs0mg"},{"bike_id":"9f9b6b01-2abf-400e-b80c-9b8337b89ff5","system_id":"levelo_inurba_marseille","lat":43.27965,"lon":5.38745,"is_reserved":false,"is_disabled":false,"rental_uris":{"android":"levelo://app?vid=9f9b6b01-2abf-400e-b80c-9b8337b89ff5","ios":"levelo://app?vid=9f9b6b01-2abf-400e-b80c-9b8337b89ff5"},"vehicle_type_id":"4","last_reported":1745565008,"current_range_meters":6400,"station_id":"ce4bhg12rcd13ifvqf80","pricing_plan_id":"cebpf4jnsgd1na2vs0mg"},{"bike_id":"85e57ba5-6f5b-4fd7-a5d4-a4ac7e63e789","system_id":"levelo_inurba_marseille","lat":43.29512,"lon":5.38539,"is_reserved":false,"is_disabled":true,"rental_uris":{"android":"levelo://app?vid=85e57ba5-6f5b-4fd7-a5d4-a4ac7e63e789","ios":"levelo://app?vid=85e57ba5-6f5b-4fd7-a5d4-a4ac7e63e789"},"vehicle_type_id":"4","last_reported":1745565008,"current_range_meters":6400,"station_id":"ce4bgih2rcd13ifvqba0","pricing_plan_id":"cebpf4jnsgd1na2vs0mg"},{"bike_id":"c53d6757-69a8-4e71-b1fc-4064e0b8defa","system_id":"levelo_inurba_marseille","lat":43.25923,"lon":5.40896,"is_reserved":false,"is_disabled":false,"rental_uris":{"android":"levelo://app?vid=c53d6757-69a8-4e71-b1fc-4064e0b8defa","ios":"levelo://app?vid=c53d6757-69a8-4e71-b1fc-4064e0b8defa"},"vehicle_type_id":"4","last_reported":1745565008,"current_range_meters":6400,"station_id":"ce4bhm92rcd13ifvqglg","pricing_plan_id":"cebpf4jnsgd1na2vs0mg"},{"bike_id":"87538ae9-4ca3-4a02-b690-abacfb14d664","system_id":"levelo_inurba_marseille","lat":43.29027,"lon":5.38139,"is_reserved":false,"is_disabled":false,"rental_uris":{"android":"levelo://app?vid=87538ae9-4ca3-4a02-b690-abacfb14d664","ios":"levelo://app?vid=87538ae9-4ca3-4a02-b690-abacfb14d664"},"vehicle_type_id":"4","last_reported":1745565008,"current_range_meters":6000,"station_id":"ce4bh4p2rcd13ifvqe1g","pricing_plan_id":"cebpf4jnsgd1na2vs0mg"},{"bike_id":"9423a34c-77c5-4d67-a211-0e67722ed8fa","system_id":"levelo_inurba_marseille","lat":43.262127,"lon":5.374369,"is_reserved":false,"is_disabled":false,"rental_uris":{"android":"levelo://app?vid=9423a34c-77c5-4d67-a211-0e67722ed8fa","ios":"levelo://app?vid=9423a34c-77c5-4d67-a211-0e67722ed8fa"},"vehicle_type_id":"4","last_reported":1745565008,"current_range_meters":6400,"station_id":"ce4bhgp2rcd13ifvqfc0","pricing_plan_id":"cebpf4jnsgd1na2vs0mg"},{"bike_id":"b3094e88-ac74-4f57-b096-b0357aadc63b","system_id":"levelo_inurba_marseille","lat":43.23153,"lon":5.43707,"is_reserved":false,"is_disabled":false,"rental_uris":{"android":"levelo://app?vid=b3094e88-ac74-4f57-b096-b0357aadc63b","ios":"levelo://app?vid=b3094e88-ac74-4f57-b096-b0357aadc63b"},"vehicle_type_id":"4","last_reported":1745565008,"current_range_meters":6400,"station_id":"ce4bhmp2rcd13ifvqgog","pricing_plan_id":"cebpf4jnsgd1na2vs0mg"},{"bike_id":"c563a00a-a1bb-458e-8c49-484359b6c2af","system_id":"levelo_inurba_marseille","lat":43.24542,"lon":5.39524,"is_reserved":false,"is_disabled":false,"rental_uris":{"android":"levelo://app?vid=c563a00a-a1bb-458e-8c49-484359b6c2af","ios":"levelo://app?vid=c563a00a-a1bb-458e-8c49-484359b6c2af"},"vehicle_type_id":"4","last_reported":1745565008,"current_range_meters":6400,"station_id":"ce4bhlp2rcd13ifvqgjg","pricing_plan_id":"cebpf4jnsgd1na2vs0mg"},{"bike_id":"7258c5f1-beb2-4c9f-8f52-f09c6b8e693d","system_id":"levelo_inurba_marseille","lat":43.30368,"lon":5.42487,"is_reserved":false,"is_disabled":false,"rental_uris":{"android":"levelo://app?vid=7258c5f1-beb2-4c9f-8f52-f09c6b8e693d","ios":"levelo://app?vid=7258c5f1-beb2-4c9f-8f52-f09c6b8e693d"},"vehicle_type_id":"4","last_reported":1745565008,"current_range_meters":6800,"station_id":"ce4bhoh2rcd13ifvqh6g","pricing_plan_id":"cebpf4jnsgd1na2vs0mg"},{"bike_id":"7d065f2f-4749-405a-868b-0b406c6210fd","system_id":"levelo_inurba_marseille","lat":43.29293,"lon":5.37452,"is_reserved":false,"is_disabled":false,"rental_uris":{"android":"levelo://app?vid=7d065f2f-4749-405a-868b-0b406c6210fd","ios":"levelo://app?vid=7d065f2f-4749-405a-868b-0b406c6210fd"},"vehicle_type_id":"4","last_reported":1745565008,"current_range_meters":6400,"station_id":"ce4bgi12rcd13ifvqb70","pricing_plan_id":"cebpf4jnsgd1na2vs0mg"},{"bike_id":"e3829d67-ce74-46e9-9136-98c1a59b0ef8","system_id":"levelo_inurba_marseille","lat":43.293296,"lon":5.379562,"is_reserved":false,"is_disabled":false,"rental_uris":{"android":"levelo://app?vid=e3829d67-ce74-46e9-9136-98c1a59b0ef8","ios":"levelo://app?vid=e3829d67-ce74-46e9-9136-98c1a59b0ef8"},"vehicle_type_id":"4","last_reported":1745565008,"current_range_meters":6800,"station_id":"ce4bgjh2rcd13ifvqbf0","pricing_plan_id":"cebpf4jnsgd1na2vs0mg"},{"bike_id":"e5e6387e-799d-49f8-9caa-4061ff31ee68","system_id":"levelo_inurba_marseille","lat":43.22516,"lon":5.34782,"is_reserved":false,"is_disabled":false,"rental_uris":{"android":"levelo://app?vid=e5e6387e-799d-49f8-9caa-4061ff31ee68","ios":"levelo://app?vid=e5e6387e-799d-49f8-9caa-4061ff31ee68"},"vehicle_type_id":"4","last_reported":1745565008,"current_range_meters":7200,"station_id":"st_cvj5dfep6f1abm77gieg","pricing_plan_id":"cebpf4jnsgd1na2vs0mg"},{"bike_id":"fc701c8b-d5b4-468d-84e9-ca8657c16f07","system_id":"levelo_inurba_marseille","lat":43.30586,"lon":5.39359,"is_reserved":false,"is_disabled":false,"rental_uris":{"android":"levelo://app?vid=fc701c8b-d5b4-468d-84e9-ca8657c16f07","ios":"levelo://app?vid=fc701c8b-d5b4-468d-84e9-ca8657c16f07"},"vehicle_type_id":"4","last_reported":1745565008,"current_range_meters":7200,"station_id":"ce4bh0p2rcd13ifvqd80","pricing_plan_id":"cebpf4jnsgd1na2vs0mg"},{"bike_id":"4d2d41a1-70ba-4052-9e03-92fd76f1c47a","system_id":"levelo_inurba_marseille","lat":43.26782,"lon":5.39416,"is_reserved":false,"is_disabled":false,"rental_uris":{"android":"levelo://app?vid=4d2d41a1-70ba-4052-9e03-92fd76f1c47a","ios":"levelo://app?vid=4d2d41a1-70ba-4052-9e03-92fd76f1c47a"},"vehicle_type_id":"4","last_reported":1745565008,"current_range_meters":7200,"station_id":"ce4bhh12rcd13ifvqfg0","pricing_plan_id":"cebpf4jnsgd1na2vs0mg"},{"bike_id":"4ab6bc02-32cf-4c5b-8e00-93978cd7dbda","system_id":"levelo_inurba_marseille","lat":43.34155,"lon":5.40902,"is_reserved":false,"is_disabled":false,"rental_uris":{"android":"levelo://app?vid=4ab6bc02-32cf-4c5b-8e00-93978cd7dbda","ios":"levelo://app?vid=4ab6bc02-32cf-4c5b-8e00-93978cd7dbda"},"vehicle_type_id":"4","last_reported":1745565008,"current_range_meters":7200,"station_id":"ce4bhqh2rcd13ifvqhlg","pricing_plan_id":"cebpf4jnsgd1na2vs0mg"},{"bike_id":"9d16ad86-9ee6-430b-bde1-d7870d768403","system_id":"levelo_inurba_marseille","lat":43.25942,"lon":5.40904,"is_reserved":false,"is_disabled":false,"rental_uris":{"android":"levelo://app?vid=9d16ad86-9ee6-430b-bde1-d7870d768403","ios":"levelo://app?vid=9d16ad86-9ee6-430b-bde1-d7870d768403"},"vehicle_type_id":"4","last_reported":1745565008,"current_range_meters":7200,"station_id":"ce4bhm92rcd13ifvqglg","pricing_plan_id":"cebpf4jnsgd1na2vs0mg"},{"bike_id":"99862305-32a2-444d-8334-228f5792e221","system_id":"levelo_inurba_marseille","lat":43.2927,"lon":5.36843,"is_reserved":false,"is_disabled":true,"rental_uris":{"android":"levelo://app?vid=99862305-32a2-444d-8334-228f5792e221","ios":"levelo://app?vid=99862305-32a2-444d-8334-228f5792e221"},"vehicle_type_id":"4","last_reported":1745565008,"current_range_meters":7200,"station_id":"ce4bhbp2rcd13ifvqesg","pricing_plan_id":"cebpf4jnsgd1na2vs0mg"},{"bike_id":"e802b2f8-399a-46c8-b42a-025e8b791966","system_id":"levelo_inurba_marseille","lat":43.27897,"lon":5.38022,"is_reserved":false,"is_disabled":false,"rental_uris":{"android":"levelo://app?vid=e802b2f8-399a-46c8-b42a-025e8b791966","ios":"levelo://app?vid=e802b2f8-399a-46c8-b42a-025e8b791966"},"vehicle_type_id":"4","last_reported":1745565008,"current_range_meters":7200,"station_id":"ce4bhf92rcd13ifvqf50","pricing_plan_id":"cebpf4jnsgd1na2vs0mg"},{"bike_id":"44c0201e-c9f3-4ec8-9f19-45cfbbe2ef08","system_id":"levelo_inurba_marseille","lat":43.25468,"lon":5.37673,"is_reserved":false,"is_disabled":false,"rental_uris":{"android":"levelo://app?vid=44c0201e-c9f3-4ec8-9f19-45cfbbe2ef08","ios":"levelo://app?vid=44c0201e-c9f3-4ec8-9f19-45cfbbe2ef08"},"vehicle_type_id":"4","last_reported":1745565008,"current_range_meters":8000,"station_id":"ce4bhh12rcd13ifvqff0","pricing_plan_id":"cebpf4jnsgd1na2vs0mg"},{"bike_id":"46374c49-3adc-4c5a-8966-e00f056c0d57","system_id":"levelo_inurba_marseille","lat":43.27846,"lon":5.35442,"is_reserved":false,"is_disabled":false,"rental_uris":{"android":"levelo://app?vid=46374c49-3adc-4c5a-8966-e00f056c0d57","ios":"levelo://app?vid=46374c49-3adc-4c5a-8966-e00f056c0d57"},"vehicle_type_id":"4","last_reported":1745565008,"current_range_meters":8400,"station_id":"","pricing_plan_id":"cebpf4jnsgd1na2vs0mg"},{"bike_id":"49dcf3c1-f917-40ce-87e5-97f6f3209a7b","system_id":"levelo_inurba_marseille","lat":43.2748,"lon":5.42465,"is_reserved":false,"is_disabled":true,"rental_uris":{"android":"levelo://app?vid=49dcf3c1-f917-40ce-87e5-97f6f3209a7b","ios":"levelo://app?vid=49dcf3c1-f917-40ce-87e5-97f6f3209a7b"},"vehicle_type_id":"4","last_reported":1745565008,"current_range_meters":8400,"station_id":"ce4bhn92rcd13ifvqgrg","pricing_plan_id":"cebpf4jnsgd1na2vs0mg"},{"bike_id":"c537ecaf-8650-4a60-80fc-62b73349b4d8","system_id":"levelo_inurba_marseille","lat":43.257009,"lon":5.4102,"is_reserved":false,"is_disabled":true,"rental_uris":{"android":"levelo://app?vid=c537ecaf-8650-4a60-80fc-62b73349b4d8","ios":"levelo://app?vid=c537ecaf-8650-4a60-80fc-62b73349b4d8"},"vehicle_type_id":"4","last_reported":1745565008,"current_range_meters":8400,"station_id":"ce4bhkp2rcd13ifvqgd0","pricing_plan_id":"cebpf4jnsgd1na2vs0mg"},{"bike_id":"df9d415b-f187-4411-b85c-97a6f7356daf","system_id":"levelo_inurba_marseille","lat":43.30295,"lon":5.39209,"is_reserved":false,"is_disabled":false,"rental_uris":{"android":"levelo://app?vid=df9d415b-f187-4411-b85c-97a6f7356daf","ios":"levelo://app?vid=df9d415b-f187-4411-b85c-97a6f7356daf"},"vehicle_type_id":"4","last_reported":1745565008,"current_range_meters":8400,"station_id":"ce4bgkh2rcd13ifvqbk0","pricing_plan_id":"cebpf4jnsgd1na2vs0mg"},{"bike_id":"2686948c-9820-4401-8134-ee2a9d1934f7","system_id":"levelo_inurba_marseille","lat":43.24671,"lon":5.38606,"is_reserved":false,"is_disabled":false,"rental_uris":{"android":"levelo://app?vid=2686948c-9820-4401-8134-ee2a9d1934f7","ios":"levelo://app?vid=2686948c-9820-4401-8134-ee2a9d1934f7"},"vehicle_type_id":"4","last_reported":1745565008,"current_range_meters":8400,"station_id":"","pricing_plan_id":"cebpf4jnsgd1na2vs0mg"},{"bike_id":"8bf7bae2-66cf-41b0-94df-d1c78d2e8a1a","system_id":"levelo_inurba_marseille","lat":43.2407,"lon":5.37758,"is_reserved":false,"is_disabled":false,"rental_uris":{"android":"levelo://app?vid=8bf7bae2-66cf-41b0-94df-d1c78d2e8a1a","ios":"levelo://app?vid=8bf7bae2-66cf-41b0-94df-d1c78d2e8a1a"},"vehicle_type_id":"4","last_reported":1745565008,"current_range_meters":8400,"station_id":"ce4bhnp2rcd13ifvqgvg","pricing_plan_id":"cebpf4jnsgd1na2vs0mg"},{"bike_id":"f61f9b03-e055-47b7-9cda-da22b923ec7e","system_id":"levelo_inurba_marseille","lat":43.25932,"lon":5.40906,"is_reserved":false,"is_disabled":false,"rental_uris":{"android":"levelo://app?vid=f61f9b03-e055-47b7-9cda-da22b923ec7e","ios":"levelo://app?vid=f61f9b03-e055-47b7-9cda-da22b923ec7e"},"vehicle_type_id":"4","last_reported":1745565008,"current_range_meters":8800,"station_id":"ce4bhm92rcd13ifvqglg","pricing_plan_id":"cebpf4jnsgd1na2vs0mg"},{"bike_id":"2007a154-3eec-485d-ab8e-22f7887e7f18","system_id":"levelo_inurba_marseille","lat":43.25726,"lon":5.41106,"is_reserved":false,"is_disabled":false,"rental_uris":{"android":"levelo://app?vid=2007a154-3eec-485d-ab8e-22f7887e7f18","ios":"levelo://app?vid=2007a154-3eec-485d-ab8e-22f7887e7f18"},"vehicle_type_id":"4","last_reported":1745565008,"current_range_meters":8800,"station_id":"ce4bhkp2rcd13ifvqgd0","pricing_plan_id":"cebpf4jnsgd1na2vs0mg"},{"bike_id":"025eb0af-0008-4297-af9b-062f276257b8","system_id":"levelo_inurba_marseille","lat":43.32546,"lon":5.41434,"is_reserved":false,"is_disabled":true,"rental_uris":{"android":"levelo://app?vid=025eb0af-0008-4297-af9b-062f276257b8","ios":"levelo://app?vid=025eb0af-0008-4297-af9b-062f276257b8"},"vehicle_type_id":"4","last_reported":1745565008,"current_range_meters":8800,"station_id":"ce4bhq12rcd13ifvqhhg","pricing_plan_id":"cebpf4jnsgd1na2vs0mg"},{"bike_id":"fc576aa6-dde3-41df-a3bf-4cec8eff505d","system_id":"levelo_inurba_marseille","lat":43.31229,"lon":5.36872,"is_reserved":false,"is_disabled":false,"rental_uris":{"android":"levelo://app?vid=fc576aa6-dde3-41df-a3bf-4cec8eff505d","ios":"levelo://app?vid=fc576aa6-dde3-41df-a3bf-4cec8eff505d"},"vehicle_type_id":"4","last_reported":1745565008,"current_range_meters":8800,"station_id":"ce4bgl92rcd13ifvqbq0","pricing_plan_id":"cebpf4jnsgd1na2vs0mg"},{"bike_id":"e3184f7c-4dbb-4c21-92dc-4a63d42a75a3","system_id":"levelo_inurba_marseille","lat":43.274973,"lon":5.424506,"is_reserved":false,"is_disabled":false,"rental_uris":{"android":"levelo://app?vid=e3184f7c-4dbb-4c21-92dc-4a63d42a75a3","ios":"levelo://app?vid=e3184f7c-4dbb-4c21-92dc-4a63d42a75a3"},"vehicle_type_id":"4","last_reported":1745565008,"current_range_meters":9200,"station_id":"ce4bhn92rcd13ifvqgrg","pricing_plan_id":"cebpf4jnsgd1na2vs0mg"},{"bike_id":"cd7424b2-b294-427a-b99f-9a1820f9fa36","system_id":"levelo_inurba_marseille","lat":43.25117,"lon":5.40315,"is_reserved":false,"is_disabled":false,"rental_uris":{"android":"levelo://app?vid=cd7424b2-b294-427a-b99f-9a1820f9fa36","ios":"levelo://app?vid=cd7424b2-b294-427a-b99f-9a1820f9fa36"},"vehicle_type_id":"4","last_reported":1745565008,"current_range_meters":9200,"station_id":"ce4bhlh2rcd13ifvqgig","pricing_plan_id":"cebpf4jnsgd1na2vs0mg"},{"bike_id":"fcf90a2a-a624-4f18-91cb-0c2577236d30","system_id":"levelo_inurba_marseille","lat":43.28659,"lon":5.38675,"is_reserved":false,"is_disabled":false,"rental_uris":{"android":"levelo://app?vid=fcf90a2a-a624-4f18-91cb-0c2577236d30","ios":"levelo://app?vid=fcf90a2a-a624-4f18-91cb-0c2577236d30"},"vehicle_type_id":"4","last_reported":1745565008,"current_range_meters":9200,"station_id":"ce4bh492rcd13ifvqdug","pricing_plan_id":"cebpf4jnsgd1na2vs0mg"},{"bike_id":"2a112877-49f5-46fa-8cde-0cd4528c281e","system_id":"levelo_inurba_marseille","lat":43.28069,"lon":5.3967,"is_reserved":false,"is_disabled":true,"rental_uris":{"android":"levelo://app?vid=2a112877-49f5-46fa-8cde-0cd4528c281e","ios":"levelo://app?vid=2a112877-49f5-46fa-8cde-0cd4528c281e"},"vehicle_type_id":"4","last_reported":1745565008,"current_range_meters":9200,"station_id":"ce4bho12rcd13ifvqh2g","pricing_plan_id":"cebpf4jnsgd1na2vs0mg"},{"bike_id":"f5c69073-50c0-490a-a2e7-837f52ac87fa","system_id":"levelo_inurba_marseille","lat":43.2408,"lon":5.37754,"is_reserved":false,"is_disabled":false,"rental_uris":{"android":"levelo://app?vid=f5c69073-50c0-490a-a2e7-837f52ac87fa","ios":"levelo://app?vid=f5c69073-50c0-490a-a2e7-837f52ac87fa"},"vehicle_type_id":"4","last_reported":1745565008,"current_range_meters":9600,"station_id":"ce4bhnp2rcd13ifvqgvg","pricing_plan_id":"cebpf4jnsgd1na2vs0mg"},{"bike_id":"3f4fffef-9d06-4513-a8be-a4167b14ccb8","system_id":"levelo_inurba_marseille","lat":43.30997,"lon":5.37142,"is_reserved":false,"is_disabled":false,"rental_uris":{"android":"levelo://app?vid=3f4fffef-9d06-4513-a8be-a4167b14ccb8","ios":"levelo://app?vid=3f4fffef-9d06-4513-a8be-a4167b14ccb8"},"vehicle_type_id":"4","last_reported":1745565008,"current_range_meters":9600,"station_id":"","pricing_plan_id":"cebpf4jnsgd1na2vs0mg"},{"bike_id":"1363e770-344e-44eb-8fc8-a6d68d0a8df0","system_id":"levelo_inurba_marseille","lat":43.28986,"lon":5.37829,"is_reserved":false,"is_disabled":false,"rental_uris":{"android":"levelo://app?vid=1363e770-344e-44eb-8fc8-a6d68d0a8df0","ios":"levelo://app?vid=1363e770-344e-44eb-8fc8-a6d68d0a8df0"},"vehicle_type_id":"4","last_reported":1745565008,"current_range_meters":9600,"station_id":"ce4bh9p2rcd13ifvqed0","pricing_plan_id":"cebpf4jnsgd1na2vs0mg"},{"bike_id":"187232e2-c79f-4308-99c4-f89a23f4f7c7","system_id":"levelo_inurba_marseille","lat":43.34138,"lon":5.40916,"is_reserved":false,"is_disabled":true,"rental_uris":{"android":"levelo://app?vid=187232e2-c79f-4308-99c4-f89a23f4f7c7","ios":"levelo://app?vid=187232e2-c79f-4308-99c4-f89a23f4f7c7"},"vehicle_type_id":"4","last_reported":1745565008,"current_range_meters":9600,"station_id":"ce4bhqh2rcd13ifvqhlg","pricing_plan_id":"cebpf4jnsgd1na2vs0mg"},{"bike_id":"3a41a14b-b60d-411c-aa4a-3b7d3df773ad","system_id":"levelo_inurba_marseille","lat":43.301893,"lon":5.366308,"is_reserved":false,"is_disabled":false,"rental_uris":{"android":"levelo://app?vid=3a41a14b-b60d-411c-aa4a-3b7d3df773ad","ios":"levelo://app?vid=3a41a14b-b60d-411c-aa4a-3b7d3df773ad"},"vehicle_type_id":"4","last_reported":1745565008,"current_range_meters":9600,"station_id":"ce4bgrh2rcd13ifvqc8g","pricing_plan_id":"cebpf4jnsgd1na2vs0mg"},{"bike_id":"6b0d1ec6-0d77-4bd1-9dce-9054c2481ed1","system_id":"levelo_inurba_marseille","lat":43.243904,"lon":5.370536,"is_reserved":false,"is_disabled":false,"rental_uris":{"android":"levelo://app?vid=6b0d1ec6-0d77-4bd1-9dce-9054c2481ed1","ios":"levelo://app?vid=6b0d1ec6-0d77-4bd1-9dce-9054c2481ed1"},"vehicle_type_id":"4","last_reported":1745565008,"current_range_meters":9600,"station_id":"ce4bhhh2rcd13ifvqfk0","pricing_plan_id":"cebpf4jnsgd1na2vs0mg"},{"bike_id":"d4a8fafa-88a7-48bf-b5a7-839e5bc03db8","system_id":"levelo_inurba_marseille","lat":43.25017,"lon":5.38915,"is_reserved":false,"is_disabled":false,"rental_uris":{"android":"levelo://app?vid=d4a8fafa-88a7-48bf-b5a7-839e5bc03db8","ios":"levelo://app?vid=d4a8fafa-88a7-48bf-b5a7-839e5bc03db8"},"vehicle_type_id":"4","last_reported":1745565008,"current_range_meters":9600,"station_id":"ce4bhgp2rcd13ifvqfd0","pricing_plan_id":"cebpf4jnsgd1na2vs0mg"},{"bike_id":"6b88630a-c519-48f5-8237-47f678613523","system_id":"levelo_inurba_marseille","lat":43.24168,"lon":5.3973,"is_reserved":false,"is_disabled":false,"rental_uris":{"android":"levelo://app?vid=6b88630a-c519-48f5-8237-47f678613523","ios":"levelo://app?vid=6b88630a-c519-48f5-8237-47f678613523"},"vehicle_type_id":"4","last_reported":1745565008,"current_range_meters":9600,"station_id":"ce4bhn12rcd13ifvqgpg","pricing_plan_id":"cebpf4jnsgd1na2vs0mg"},{"bike_id":"0dd2efff-ce8b-47fc-a148-afba5d4713cd","system_id":"levelo_inurba_marseille","lat":43.24655,"lon":5.389,"is_reserved":false,"is_disabled":false,"rental_uris":{"android":"levelo://app?vid=0dd2efff-ce8b-47fc-a148-afba5d4713cd","ios":"levelo://app?vid=0dd2efff-ce8b-47fc-a148-afba5d4713cd"},"vehicle_type_id":"4","last_reported":1745565008,"current_range_meters":10000,"station_id":"ce4bhg12rcd13ifvqf60","pricing_plan_id":"cebpf4jnsgd1na2vs0mg"},{"bike_id":"b1288da2-6a65-44a2-b3cb-535de8427b1c","system_id":"levelo_inurba_marseille","lat":43.31322,"lon":5.36721,"is_reserved":false,"is_disabled":false,"rental_uris":{"android":"levelo://app?vid=b1288da2-6a65-44a2-b3cb-535de8427b1c","ios":"levelo://app?vid=b1288da2-6a65-44a2-b3cb-535de8427b1c"},"vehicle_type_id":"4","last_reported":1745565008,"current_range_meters":10000,"station_id":"ce4bgr92rcd13ifvqc6g","pricing_plan_id":"cebpf4jnsgd1na2vs0mg"},{"bike_id":"d2aa4f08-82ea-428b-8a43-20481eff7a37","system_id":"levelo_inurba_marseille","lat":43.32299,"lon":5.38296,"is_reserved":false,"is_disabled":false,"rental_uris":{"android":"levelo://app?vid=d2aa4f08-82ea-428b-8a43-20481eff7a37","ios":"levelo://app?vid=d2aa4f08-82ea-428b-8a43-20481eff7a37"},"vehicle_type_id":"4","last_reported":1745565008,"current_range_meters":4400,"station_id":"ce4bhr12rcd13ifvqhqg","pricing_plan_id":"cebpf4jnsgd1na2vs0mg"},{"bike_id":"90eb2dd7-05c7-43e1-80d6-9c9f5d3715cb","system_id":"levelo_inurba_marseille","lat":43.29115,"lon":5.3813,"is_reserved":false,"is_disabled":false,"rental_uris":{"android":"levelo://app?vid=90eb2dd7-05c7-43e1-80d6-9c9f5d3715cb","ios":"levelo://app?vid=90eb2dd7-05c7-43e1-80d6-9c9f5d3715cb"},"vehicle_type_id":"4","last_reported":1745565008,"current_range_meters":9600,"station_id":"ce4bh512rcd13ifvqe2g","pricing_plan_id":"cebpf4jnsgd1na2vs0mg"},{"bike_id":"67d89213-bd8a-439e-93c1-8b1523c64d32","system_id":"levelo_inurba_marseille","lat":43.25005,"lon":5.38924,"is_reserved":false,"is_disabled":false,"rental_uris":{"android":"levelo://app?vid=67d89213-bd8a-439e-93c1-8b1523c64d32","ios":"levelo://app?vid=67d89213-bd8a-439e-93c1-8b1523c64d32"},"vehicle_type_id":"4","last_reported":1745565008,"current_range_meters":9600,"station_id":"ce4bhgp2rcd13ifvqfd0","pricing_plan_id":"cebpf4jnsgd1na2vs0mg"},{"bike_id":"df4bf57e-1775-40b2-994e-c9e7063ca69e","system_id":"levelo_inurba_marseille","lat":43.26801,"lon":5.40271,"is_reserved":false,"is_disabled":false,"rental_uris":{"android":"levelo://app?vid=df4bf57e-1775-40b2-994e-c9e7063ca69e","ios":"levelo://app?vid=df4bf57e-1775-40b2-994e-c9e7063ca69e"},"vehicle_type_id":"4","last_reported":1745565008,"current_range_meters":9200,"station_id":"ce501612rcd8frsf0b60","pricing_plan_id":"cebpf4jnsgd1na2vs0mg"},{"bike_id":"84c51a55-47b7-4b91-88f0-0d5a084f2e8f","system_id":"levelo_inurba_marseille","lat":43.28012,"lon":5.36939,"is_reserved":false,"is_disabled":false,"rental_uris":{"android":"levelo://app?vid=84c51a55-47b7-4b91-88f0-0d5a084f2e8f","ios":"levelo://app?vid=84c51a55-47b7-4b91-88f0-0d5a084f2e8f"},"vehicle_type_id":"4","last_reported":1745565008,"current_range_meters":10800,"station_id":"ce4bha12rcd13ifvqef0","pricing_plan_id":"cebpf4jnsgd1na2vs0mg"},{"bike_id":"0633e94d-9298-4f3e-a7ae-06f56cbbbbbf","system_id":"levelo_inurba_marseille","lat":43.2896,"lon":5.36386,"is_reserved":false,"is_disabled":false,"rental_uris":{"android":"levelo://app?vid=0633e94d-9298-4f3e-a7ae-06f56cbbbbbf","ios":"levelo://app?vid=0633e94d-9298-4f3e-a7ae-06f56cbbbbbf"},"vehicle_type_id":"4","last_reported":1745565008,"current_range_meters":10800,"station_id":"ce4bhc92rcd13ifvqetg","pricing_plan_id":"cebpf4jnsgd1na2vs0mg"},{"bike_id":"0013966c-ef97-46fc-a9b6-b1eb056f8ad3","system_id":"levelo_inurba_marseille","lat":43.24066,"lon":5.37701,"is_reserved":false,"is_disabled":false,"rental_uris":{"android":"levelo://app?vid=0013966c-ef97-46fc-a9b6-b1eb056f8ad3","ios":"levelo://app?vid=0013966c-ef97-46fc-a9b6-b1eb056f8ad3"},"vehicle_type_id":"4","last_reported":1745565008,"current_range_meters":11200,"station_id":"ce4bhnp2rcd13ifvqgvg","pricing_plan_id":"cebpf4jnsgd1na2vs0mg"},{"bike_id":"ec233356-9498-4c66-bedf-01f7e2bd86ee","system_id":"levelo_inurba_marseille","lat":43.24163,"lon":5.39737,"is_reserved":false,"is_disabled":false,"rental_uris":{"android":"levelo://app?vid=ec233356-9498-4c66-bedf-01f7e2bd86ee","ios":"levelo://app?vid=ec233356-9498-4c66-bedf-01f7e2bd86ee"},"vehicle_type_id":"4","last_reported":1745565008,"current_range_meters":11200,"station_id":"ce4bhn12rcd13ifvqgpg","pricing_plan_id":"cebpf4jnsgd1na2vs0mg"},{"bike_id":"9a315f48-9165-4800-b1e8-330f5848cb43","system_id":"levelo_inurba_marseille","lat":43.28657,"lon":5.38667,"is_reserved":false,"is_disabled":false,"rental_uris":{"android":"levelo://app?vid=9a315f48-9165-4800-b1e8-330f5848cb43","ios":"levelo://app?vid=9a315f48-9165-4800-b1e8-330f5848cb43"},"vehicle_type_id":"4","last_reported":1745565008,"current_range_meters":11200,"station_id":"ce4bh492rcd13ifvqdug","pricing_plan_id":"cebpf4jnsgd1na2vs0mg"},{"bike_id":"ac5b7b7f-db28-418c-8f69-75ffcabeb937","system_id":"levelo_inurba_marseille","lat":43.30193,"lon":5.36612,"is_reserved":false,"is_disabled":false,"rental_uris":{"android":"levelo://app?vid=ac5b7b7f-db28-418c-8f69-75ffcabeb937","ios":"levelo://app?vid=ac5b7b7f-db28-418c-8f69-75ffcabeb937"},"vehicle_type_id":"4","last_reported":1745565008,"current_range_meters":11600,"station_id":"ce4bgrh2rcd13ifvqc8g","pricing_plan_id":"cebpf4jnsgd1na2vs0mg"},{"bike_id":"eb927609-763d-4eb7-b911-f571617587aa","system_id":"levelo_inurba_marseille","lat":43.28854,"lon":5.35848,"is_reserved":false,"is_disabled":false,"rental_uris":{"android":"levelo://app?vid=eb927609-763d-4eb7-b911-f571617587aa","ios":"levelo://app?vid=eb927609-763d-4eb7-b911-f571617587aa"},"vehicle_type_id":"4","last_reported":1745565008,"current_range_meters":11200,"station_id":"ce4bhb12rcd13ifvqem0","pricing_plan_id":"cebpf4jnsgd1na2vs0mg"},{"bike_id":"16da2c32-1bdd-4b1b-96a0-87ea85bd5635","system_id":"levelo_inurba_marseille","lat":43.236121,"lon":5.436063,"is_reserved":false,"is_disabled":false,"rental_uris":{"android":"levelo://app?vid=16da2c32-1bdd-4b1b-96a0-87ea85bd5635","ios":"levelo://app?vid=16da2c32-1bdd-4b1b-96a0-87ea85bd5635"},"vehicle_type_id":"4","last_reported":1745565008,"current_range_meters":11600,"station_id":"ce4bhmp2rcd13ifvqgog","pricing_plan_id":"cebpf4jnsgd1na2vs0mg"},{"bike_id":"1a9b9ba2-6e5a-4697-beb7-5c65923a8b43","system_id":"levelo_inurba_marseille","lat":43.26763,"lon":5.39461,"is_reserved":false,"is_disabled":true,"rental_uris":{"android":"levelo://app?vid=1a9b9ba2-6e5a-4697-beb7-5c65923a8b43","ios":"levelo://app?vid=1a9b9ba2-6e5a-4697-beb7-5c65923a8b43"},"vehicle_type_id":"4","last_reported":1745565008,"current_range_meters":12000,"station_id":"ce4bhh12rcd13ifvqfg0","pricing_plan_id":"cebpf4jnsgd1na2vs0mg"},{"bike_id":"5c15bf38-3cdc-42de-bf08-47dbb32fc6d0","system_id":"levelo_inurba_marseille","lat":43.30302,"lon":5.36886,"is_reserved":false,"is_disabled":false,"rental_uris":{"android":"levelo://app?vid=5c15bf38-3cdc-42de-bf08-47dbb32fc6d0","ios":"levelo://app?vid=5c15bf38-3cdc-42de-bf08-47dbb32fc6d0"},"vehicle_type_id":"4","last_reported":1745565008,"current_range_meters":12000,"station_id":"ce4bgqh2rcd13ifvqc5g","pricing_plan_id":"cebpf4jnsgd1na2vs0mg"},{"bike_id":"95f87491-2a5c-4fb6-9af1-a2095e8be377","system_id":"levelo_inurba_marseille","lat":43.265524,"lon":5.372978,"is_reserved":false,"is_disabled":false,"rental_uris":{"android":"levelo://app?vid=95f87491-2a5c-4fb6-9af1-a2095e8be377","ios":"levelo://app?vid=95f87491-2a5c-4fb6-9af1-a2095e8be377"},"vehicle_type_id":"4","last_reported":1745565008,"current_range_meters":12000,"station_id":"ce4bhg12rcd13ifvqf70","pricing_plan_id":"cebpf4jnsgd1na2vs0mg"},{"bike_id":"a34cac34-324e-4070-b1d4-0ed2738f7343","system_id":"levelo_inurba_marseille","lat":43.30274,"lon":5.37726,"is_reserved":false,"is_disabled":false,"rental_uris":{"android":"levelo://app?vid=a34cac34-324e-4070-b1d4-0ed2738f7343","ios":"levelo://app?vid=a34cac34-324e-4070-b1d4-0ed2738f7343"},"vehicle_type_id":"4","last_reported":1745565008,"current_range_meters":12000,"station_id":"ce4bguh2rcd13ifvqcj0","pricing_plan_id":"cebpf4jnsgd1na2vs0mg"},{"bike_id":"55c8d26c-3501-4da5-bf3f-06ad5305341b","system_id":"levelo_inurba_marseille","lat":43.28093,"lon":5.37866,"is_reserved":false,"is_disabled":true,"rental_uris":{"android":"levelo://app?vid=55c8d26c-3501-4da5-bf3f-06ad5305341b","ios":"levelo://app?vid=55c8d26c-3501-4da5-bf3f-06ad5305341b"},"vehicle_type_id":"4","last_reported":1745565008,"current_range_meters":12000,"station_id":"ce4bha12rcd13ifvqee0","pricing_plan_id":"cebpf4jnsgd1na2vs0mg"},{"bike_id":"2f9bcd40-e058-46a9-a414-1794700964e9","system_id":"levelo_inurba_marseille","lat":43.24072,"lon":5.37758,"is_reserved":false,"is_disabled":false,"rental_uris":{"android":"levelo://app?vid=2f9bcd40-e058-46a9-a414-1794700964e9","ios":"levelo://app?vid=2f9bcd40-e058-46a9-a414-1794700964e9"},"vehicle_type_id":"4","last_reported":1745565008,"current_range_meters":12000,"station_id":"ce4bhnp2rcd13ifvqgvg","pricing_plan_id":"cebpf4jnsgd1na2vs0mg"},{"bike_id":"78dbd108-48f7-447d-adf0-71f4ec9e3688","system_id":"levelo_inurba_marseille","lat":43.29919,"lon":5.37479,"is_reserved":false,"is_disabled":false,"rental_uris":{"android":"levelo://app?vid=78dbd108-48f7-447d-adf0-71f4ec9e3688","ios":"levelo://app?vid=78dbd108-48f7-447d-adf0-71f4ec9e3688"},"vehicle_type_id":"4","last_reported":1745565008,"current_range_meters":11600,"station_id":"ce4bgjh2rcd13ifvqbg0","pricing_plan_id":"cebpf4jnsgd1na2vs0mg"},{"bike_id":"bb173ad7-1f9d-4286-b1ef-c33410cbaa3f","system_id":"levelo_inurba_marseille","lat":43.27608,"lon":5.36121,"is_reserved":false,"is_disabled":false,"rental_uris":{"android":"levelo://app?vid=bb173ad7-1f9d-4286-b1ef-c33410cbaa3f","ios":"levelo://app?vid=bb173ad7-1f9d-4286-b1ef-c33410cbaa3f"},"vehicle_type_id":"4","last_reported":1745565008,"current_range_meters":12000,"station_id":"ce4bgj92rcd13ifvqbe0","pricing_plan_id":"cebpf4jnsgd1na2vs0mg"},{"bike_id":"fbcbafb3-bd9e-4787-b986-5f3d88a01f9d","system_id":"levelo_inurba_marseille","lat":43.30905,"lon":5.36845,"is_reserved":false,"is_disabled":false,"rental_uris":{"android":"levelo://app?vid=fbcbafb3-bd9e-4787-b986-5f3d88a01f9d","ios":"levelo://app?vid=fbcbafb3-bd9e-4787-b986-5f3d88a01f9d"},"vehicle_type_id":"4","last_reported":1745565008,"current_range_meters":12000,"station_id":"ce4bgn92rcd13ifvqbvg","pricing_plan_id":"cebpf4jnsgd1na2vs0mg"},{"bike_id":"bd95f0bb-c5b1-4d5c-837c-b505e5069d47","system_id":"levelo_inurba_marseille","lat":43.332446,"lon":5.397903,"is_reserved":false,"is_disabled":false,"rental_uris":{"android":"levelo://app?vid=bd95f0bb-c5b1-4d5c-837c-b505e5069d47","ios":"levelo://app?vid=bd95f0bb-c5b1-4d5c-837c-b505e5069d47"},"vehicle_type_id":"4","last_reported":1745565008,"current_range_meters":12000,"station_id":"","pricing_plan_id":"cebpf4jnsgd1na2vs0mg"},{"bike_id":"6055ef42-188f-4962-8040-b80c8c5ab820","system_id":"levelo_inurba_marseille","lat":43.30548,"lon":5.36549,"is_reserved":false,"is_disabled":false,"rental_uris":{"android":"levelo://app?vid=6055ef42-188f-4962-8040-b80c8c5ab820","ios":"levelo://app?vid=6055ef42-188f-4962-8040-b80c8c5ab820"},"vehicle_type_id":"4","last_reported":1745565008,"current_range_meters":12400,"station_id":"ce4bgs12rcd13ifvqcag","pricing_plan_id":"cebpf4jnsgd1na2vs0mg"},{"bike_id":"5c8dde23-03af-4ec7-8c64-b6a7b95cfa5a","system_id":"levelo_inurba_marseille","lat":43.337273,"lon":5.391878,"is_reserved":false,"is_disabled":false,"rental_uris":{"android":"levelo://app?vid=5c8dde23-03af-4ec7-8c64-b6a7b95cfa5a","ios":"levelo://app?vid=5c8dde23-03af-4ec7-8c64-b6a7b95cfa5a"},"vehicle_type_id":"4","last_reported":1745565008,"current_range_meters":12400,"station_id":"ce4bhr92rcd13ifvqhsg","pricing_plan_id":"cebpf4jnsgd1na2vs0mg"},{"bike_id":"b7fa553d-7757-490d-adcb-0bafe1169148","system_id":"levelo_inurba_marseille","lat":43.27494,"lon":5.42452,"is_reserved":false,"is_disabled":false,"rental_uris":{"android":"levelo://app?vid=b7fa553d-7757-490d-adcb-0bafe1169148","ios":"levelo://app?vid=b7fa553d-7757-490d-adcb-0bafe1169148"},"vehicle_type_id":"4","last_reported":1745565008,"current_range_meters":12400,"station_id":"ce4bhn92rcd13ifvqgrg","pricing_plan_id":"cebpf4jnsgd1na2vs0mg"},{"bike_id":"67426bec-1d3c-4292-989f-a44694a33e81","system_id":"levelo_inurba_marseille","lat":43.30093,"lon":5.39079,"is_reserved":false,"is_disabled":true,"rental_uris":{"android":"levelo://app?vid=67426bec-1d3c-4292-989f-a44694a33e81","ios":"levelo://app?vid=67426bec-1d3c-4292-989f-a44694a33e81"},"vehicle_type_id":"4","last_reported":1745565008,"current_range_meters":12800,"station_id":"ce4bh192rcd13ifvqdb0","pricing_plan_id":"cebpf4jnsgd1na2vs0mg"},{"bike_id":"91597294-13a8-4b43-9fbd-6a7309b48e6b","system_id":"levelo_inurba_marseille","lat":43.27616,"lon":5.36112,"is_reserved":false,"is_disabled":false,"rental_uris":{"android":"levelo://app?vid=91597294-13a8-4b43-9fbd-6a7309b48e6b","ios":"levelo://app?vid=91597294-13a8-4b43-9fbd-6a7309b48e6b"},"vehicle_type_id":"4","last_reported":1745565008,"current_range_meters":12800,"station_id":"ce4bgj92rcd13ifvqbe0","pricing_plan_id":"cebpf4jnsgd1na2vs0mg"},{"bike_id":"176e1968-0545-432c-8c9e-cc938a7c0f88","system_id":"levelo_inurba_marseille","lat":43.30791,"lon":5.38173,"is_reserved":false,"is_disabled":true,"rental_uris":{"android":"levelo://app?vid=176e1968-0545-432c-8c9e-cc938a7c0f88","ios":"levelo://app?vid=176e1968-0545-432c-8c9e-cc938a7c0f88"},"vehicle_type_id":"4","last_reported":1745565008,"current_range_meters":13600,"station_id":"ce4bgt12rcd13ifvqce0","pricing_plan_id":"cebpf4jnsgd1na2vs0mg"},{"bike_id":"c86493f0-b1d4-49eb-9cd0-75ea9e581a89","system_id":"levelo_inurba_marseille","lat":43.27494,"lon":5.42455,"is_reserved":false,"is_disabled":false,"rental_uris":{"android":"levelo://app?vid=c86493f0-b1d4-49eb-9cd0-75ea9e581a89","ios":"levelo://app?vid=c86493f0-b1d4-49eb-9cd0-75ea9e581a89"},"vehicle_type_id":"4","last_reported":1745565008,"current_range_meters":13600,"station_id":"ce4bhn92rcd13ifvqgrg","pricing_plan_id":"cebpf4jnsgd1na2vs0mg"},{"bike_id":"71c9455a-a2e4-4adf-8b3e-bda071b38449","system_id":"levelo_inurba_marseille","lat":43.26681,"lon":5.38273,"is_reserved":false,"is_disabled":false,"rental_uris":{"android":"levelo://app?vid=71c9455a-a2e4-4adf-8b3e-bda071b38449","ios":"levelo://app?vid=71c9455a-a2e4-4adf-8b3e-bda071b38449"},"vehicle_type_id":"4","last_reported":1745565008,"current_range_meters":13600,"station_id":"ce4bhg92rcd13ifvqf90","pricing_plan_id":"cebpf4jnsgd1na2vs0mg"},{"bike_id":"9a5b234e-30e2-4990-b280-e3244c911160","system_id":"levelo_inurba_marseille","lat":43.23185,"lon":5.39975,"is_reserved":false,"is_disabled":false,"rental_uris":{"android":"levelo://app?vid=9a5b234e-30e2-4990-b280-e3244c911160","ios":"levelo://app?vid=9a5b234e-30e2-4990-b280-e3244c911160"},"vehicle_type_id":"4","last_reported":1745565008,"current_range_meters":12800,"station_id":"ce4bhn12rcd13ifvqgqg","pricing_plan_id":"cebpf4jnsgd1na2vs0mg"},{"bike_id":"8c26355a-df8a-43a7-b3f3-9910f45b19a0","system_id":"levelo_inurba_marseille","lat":43.3054,"lon":5.36527,"is_reserved":false,"is_disabled":false,"rental_uris":{"android":"levelo://app?vid=8c26355a-df8a-43a7-b3f3-9910f45b19a0","ios":"levelo://app?vid=8c26355a-df8a-43a7-b3f3-9910f45b19a0"},"vehicle_type_id":"4","last_reported":1745565008,"current_range_meters":13600,"station_id":"ce4bgs12rcd13ifvqcag","pricing_plan_id":"cebpf4jnsgd1na2vs0mg"},{"bike_id":"7242fde6-71be-44fc-a171-eead9671cf0e","system_id":"levelo_inurba_marseille","lat":43.30127,"lon":5.381,"is_reserved":false,"is_disabled":false,"rental_uris":{"android":"levelo://app?vid=7242fde6-71be-44fc-a171-eead9671cf0e","ios":"levelo://app?vid=7242fde6-71be-44fc-a171-eead9671cf0e"},"vehicle_type_id":"4","last_reported":1745565008,"current_range_meters":14000,"station_id":"ce4bgjp2rcd13ifvqbh0","pricing_plan_id":"cebpf4jnsgd1na2vs0mg"},{"bike_id":"a5b807e2-0dcd-4c88-a997-bb37c582102d","system_id":"levelo_inurba_marseille","lat":43.30425,"lon":5.37191,"is_reserved":false,"is_disabled":false,"rental_uris":{"android":"levelo://app?vid=a5b807e2-0dcd-4c88-a997-bb37c582102d","ios":"levelo://app?vid=a5b807e2-0dcd-4c88-a997-bb37c582102d"},"vehicle_type_id":"4","last_reported":1745565008,"current_range_meters":14000,"station_id":"","pricing_plan_id":"cebpf4jnsgd1na2vs0mg"},{"bike_id":"7c379aec-53b6-4cd7-a0f2-e73a75034457","system_id":"levelo_inurba_marseille","lat":43.24074,"lon":5.37755,"is_reserved":false,"is_disabled":false,"rental_uris":{"android":"levelo://app?vid=7c379aec-53b6-4cd7-a0f2-e73a75034457","ios":"levelo://app?vid=7c379aec-53b6-4cd7-a0f2-e73a75034457"},"vehicle_type_id":"4","last_reported":1745565008,"current_range_meters":13600,"station_id":"ce4bhnp2rcd13ifvqgvg","pricing_plan_id":"cebpf4jnsgd1na2vs0mg"},{"bike_id":"7fc5ed43-b2c3-4cf7-b081-488a7cbcc12f","system_id":"levelo_inurba_marseille","lat":43.3305,"lon":5.39015,"is_reserved":false,"is_disabled":false,"rental_uris":{"android":"levelo://app?vid=7fc5ed43-b2c3-4cf7-b081-488a7cbcc12f","ios":"levelo://app?vid=7fc5ed43-b2c3-4cf7-b081-488a7cbcc12f"},"vehicle_type_id":"4","last_reported":1745565008,"current_range_meters":14000,"station_id":"ce4bhr92rcd13ifvqhrg","pricing_plan_id":"cebpf4jnsgd1na2vs0mg"},{"bike_id":"a5d43969-4460-4461-82cb-40e52c00db9b","system_id":"levelo_inurba_marseille","lat":43.27825,"lon":5.39215,"is_reserved":false,"is_disabled":false,"rental_uris":{"android":"levelo://app?vid=a5d43969-4460-4461-82cb-40e52c00db9b","ios":"levelo://app?vid=a5d43969-4460-4461-82cb-40e52c00db9b"},"vehicle_type_id":"4","last_reported":1745565008,"current_range_meters":13600,"station_id":"ce4bhjp2rcd13ifvqga0","pricing_plan_id":"cebpf4jnsgd1na2vs0mg"},{"bike_id":"03ec5728-5a8d-475c-be69-d63e54c8d683","system_id":"levelo_inurba_marseille","lat":43.32462,"lon":5.36691,"is_reserved":false,"is_disabled":false,"rental_uris":{"android":"levelo://app?vid=03ec5728-5a8d-475c-be69-d63e54c8d683","ios":"levelo://app?vid=03ec5728-5a8d-475c-be69-d63e54c8d683"},"vehicle_type_id":"4","last_reported":1745565008,"current_range_meters":14400,"station_id":"","pricing_plan_id":"cebpf4jnsgd1na2vs0mg"},{"bike_id":"57844b1d-df59-42f6-8710-815fba9d9a8f","system_id":"levelo_inurba_marseille","lat":43.28354,"lon":5.38101,"is_reserved":false,"is_disabled":false,"rental_uris":{"android":"levelo://app?vid=57844b1d-df59-42f6-8710-815fba9d9a8f","ios":"levelo://app?vid=57844b1d-df59-42f6-8710-815fba9d9a8f"},"vehicle_type_id":"4","last_reported":1745565008,"current_range_meters":14000,"station_id":"ce4bh412rcd13ifvqdr0","pricing_plan_id":"cebpf4jnsgd1na2vs0mg"},{"bike_id":"382157cc-f260-4c49-ac0a-688acaaf408b","system_id":"levelo_inurba_marseille","lat":43.31487,"lon":5.37291,"is_reserved":false,"is_disabled":false,"rental_uris":{"android":"levelo://app?vid=382157cc-f260-4c49-ac0a-688acaaf408b","ios":"levelo://app?vid=382157cc-f260-4c49-ac0a-688acaaf408b"},"vehicle_type_id":"4","last_reported":1745565008,"current_range_meters":14400,"station_id":"ce4bgt12rcd13ifvqcd0","pricing_plan_id":"cebpf4jnsgd1na2vs0mg"},{"bike_id":"f12a9a5e-89bc-4406-8d33-ee6c190982eb","system_id":"levelo_inurba_marseille","lat":43.30322,"lon":5.36912,"is_reserved":false,"is_disabled":false,"rental_uris":{"android":"levelo://app?vid=f12a9a5e-89bc-4406-8d33-ee6c190982eb","ios":"levelo://app?vid=f12a9a5e-89bc-4406-8d33-ee6c190982eb"},"vehicle_type_id":"4","last_reported":1745565008,"current_range_meters":14400,"station_id":"ce4bgqh2rcd13ifvqc5g","pricing_plan_id":"cebpf4jnsgd1na2vs0mg"},{"bike_id":"db4d6b8c-c21f-4ec4-b315-5072c7d29dd3","system_id":"levelo_inurba_marseille","lat":43.29088,"lon":5.38158,"is_reserved":false,"is_disabled":false,"rental_uris":{"android":"levelo://app?vid=db4d6b8c-c21f-4ec4-b315-5072c7d29dd3","ios":"levelo://app?vid=db4d6b8c-c21f-4ec4-b315-5072c7d29dd3"},"vehicle_type_id":"4","last_reported":1745565008,"current_range_meters":14400,"station_id":"ce4bh512rcd13ifvqe2g","pricing_plan_id":"cebpf4jnsgd1na2vs0mg"},{"bike_id":"8f3cef88-ba0f-4160-81b3-e31b2146aa6c","system_id":"levelo_inurba_marseille","lat":43.28616,"lon":5.35101,"is_reserved":false,"is_disabled":false,"rental_uris":{"android":"levelo://app?vid=8f3cef88-ba0f-4160-81b3-e31b2146aa6c","ios":"levelo://app?vid=8f3cef88-ba0f-4160-81b3-e31b2146aa6c"},"vehicle_type_id":"4","last_reported":1745565008,"current_range_meters":14800,"station_id":"ce4bhch2rcd13ifvqeug","pricing_plan_id":"cebpf4jnsgd1na2vs0mg"},{"bike_id":"7597f9f7-581e-4aa1-9ea0-a72928416a0e","system_id":"levelo_inurba_marseille","lat":43.30303,"lon":5.39201,"is_reserved":false,"is_disabled":true,"rental_uris":{"android":"levelo://app?vid=7597f9f7-581e-4aa1-9ea0-a72928416a0e","ios":"levelo://app?vid=7597f9f7-581e-4aa1-9ea0-a72928416a0e"},"vehicle_type_id":"4","last_reported":1745565008,"current_range_meters":14800,"station_id":"ce4bgkh2rcd13ifvqbk0","pricing_plan_id":"cebpf4jnsgd1na2vs0mg"},{"bike_id":"e2dcabcf-64d8-4394-bb9a-ff877bee611a","system_id":"levelo_inurba_marseille","lat":43.32045,"lon":5.41523,"is_reserved":false,"is_disabled":false,"rental_uris":{"android":"levelo://app?vid=e2dcabcf-64d8-4394-bb9a-ff877bee611a","ios":"levelo://app?vid=e2dcabcf-64d8-4394-bb9a-ff877bee611a"},"vehicle_type_id":"4","last_reported":1745565008,"current_range_meters":14800,"station_id":"ce4bhq92rcd13ifvqhkg","pricing_plan_id":"cebpf4jnsgd1na2vs0mg"},{"bike_id":"230a4b18-f598-423a-928c-a723c4d4cf96","system_id":"levelo_inurba_marseille","lat":43.27363,"lon":5.36251,"is_reserved":false,"is_disabled":false,"rental_uris":{"android":"levelo://app?vid=230a4b18-f598-423a-928c-a723c4d4cf96","ios":"levelo://app?vid=230a4b18-f598-423a-928c-a723c4d4cf96"},"vehicle_type_id":"4","last_reported":1745565008,"current_range_meters":14800,"station_id":"ce4bhbh2rcd13ifvqeo0","pricing_plan_id":"cebpf4jnsgd1na2vs0mg"},{"bike_id":"ab40e08a-818d-4dd2-b1f2-7490b7bdb0b2","system_id":"levelo_inurba_marseille","lat":43.28475,"lon":5.38411,"is_reserved":false,"is_disabled":false,"rental_uris":{"android":"levelo://app?vid=ab40e08a-818d-4dd2-b1f2-7490b7bdb0b2","ios":"levelo://app?vid=ab40e08a-818d-4dd2-b1f2-7490b7bdb0b2"},"vehicle_type_id":"4","last_reported":1745565008,"current_range_meters":15200,"station_id":"ce4bh512rcd13ifvqe3g","pricing_plan_id":"cebpf4jnsgd1na2vs0mg"},{"bike_id":"bff532e1-58f7-4601-87b6-d6ae8925747c","system_id":"levelo_inurba_marseille","lat":43.25937,"lon":5.40909,"is_reserved":false,"is_disabled":false,"rental_uris":{"android":"levelo://app?vid=bff532e1-58f7-4601-87b6-d6ae8925747c","ios":"levelo://app?vid=bff532e1-58f7-4601-87b6-d6ae8925747c"},"vehicle_type_id":"4","last_reported":1745565008,"current_range_meters":15200,"station_id":"ce4bhm92rcd13ifvqglg","pricing_plan_id":"cebpf4jnsgd1na2vs0mg"},{"bike_id":"dc7e93aa-6a0d-4245-8724-ff18750ddafe","system_id":"levelo_inurba_marseille","lat":43.24063,"lon":5.37758,"is_reserved":false,"is_disabled":false,"rental_uris":{"android":"levelo://app?vid=dc7e93aa-6a0d-4245-8724-ff18750ddafe","ios":"levelo://app?vid=dc7e93aa-6a0d-4245-8724-ff18750ddafe"},"vehicle_type_id":"4","last_reported":1745565008,"current_range_meters":15200,"station_id":"ce4bhnp2rcd13ifvqgvg","pricing_plan_id":"cebpf4jnsgd1na2vs0mg"},{"bike_id":"e9b40b8c-aa8b-493b-9704-ac204b4fdb74","system_id":"levelo_inurba_marseille","lat":43.22522,"lon":5.3477,"is_reserved":false,"is_disabled":false,"rental_uris":{"android":"levelo://app?vid=e9b40b8c-aa8b-493b-9704-ac204b4fdb74","ios":"levelo://app?vid=e9b40b8c-aa8b-493b-9704-ac204b4fdb74"},"vehicle_type_id":"4","last_reported":1745565008,"current_range_meters":15200,"station_id":"st_cvj5dfep6f1abm77gieg","pricing_plan_id":"cebpf4jnsgd1na2vs0mg"},{"bike_id":"29af7bc1-d5a3-4246-881f-ac8add2b5d83","system_id":"levelo_inurba_marseille","lat":43.311508,"lon":5.387697,"is_reserved":false,"is_disabled":false,"rental_uris":{"android":"levelo://app?vid=29af7bc1-d5a3-4246-881f-ac8add2b5d83","ios":"levelo://app?vid=29af7bc1-d5a3-4246-881f-ac8add2b5d83"},"vehicle_type_id":"4","last_reported":1745565008,"current_range_meters":15200,"station_id":"ce4bguh2rcd13ifvqcj0","pricing_plan_id":"cebpf4jnsgd1na2vs0mg"},{"bike_id":"4c94f7c1-a0c7-4ce3-9631-7826316e3782","system_id":"levelo_inurba_marseille","lat":43.33603,"lon":5.41029,"is_reserved":false,"is_disabled":false,"rental_uris":{"android":"levelo://app?vid=4c94f7c1-a0c7-4ce3-9631-7826316e3782","ios":"levelo://app?vid=4c94f7c1-a0c7-4ce3-9631-7826316e3782"},"vehicle_type_id":"4","last_reported":1745565008,"current_range_meters":15200,"station_id":"ce4bhqh2rcd13ifvqhmg","pricing_plan_id":"cebpf4jnsgd1na2vs0mg"},{"bike_id":"2ca8090c-4d21-4ee4-a0f0-1b2a53c84c88","system_id":"levelo_inurba_marseille","lat":43.29276,"lon":5.36847,"is_reserved":false,"is_disabled":false,"rental_uris":{"android":"levelo://app?vid=2ca8090c-4d21-4ee4-a0f0-1b2a53c84c88","ios":"levelo://app?vid=2ca8090c-4d21-4ee4-a0f0-1b2a53c84c88"},"vehicle_type_id":"4","last_reported":1745565008,"current_range_meters":15200,"station_id":"ce4bhbp2rcd13ifvqesg","pricing_plan_id":"cebpf4jnsgd1na2vs0mg"},{"bike_id":"f437bbcd-3bc3-4220-9dfe-08d3eac84ba1","system_id":"levelo_inurba_marseille","lat":43.28607,"lon":5.35093,"is_reserved":false,"is_disabled":true,"rental_uris":{"android":"levelo://app?vid=f437bbcd-3bc3-4220-9dfe-08d3eac84ba1","ios":"levelo://app?vid=f437bbcd-3bc3-4220-9dfe-08d3eac84ba1"},"vehicle_type_id":"4","last_reported":1745565008,"current_range_meters":16000,"station_id":"ce4bhch2rcd13ifvqeug","pricing_plan_id":"cebpf4jnsgd1na2vs0mg"},{"bike_id":"3efdb5c2-25c0-4503-821b-74fe22d220d2","system_id":"levelo_inurba_marseille","lat":43.309454,"lon":5.390275,"is_reserved":false,"is_disabled":false,"rental_uris":{"android":"levelo://app?vid=3efdb5c2-25c0-4503-821b-74fe22d220d2","ios":"levelo://app?vid=3efdb5c2-25c0-4503-821b-74fe22d220d2"},"vehicle_type_id":"4","last_reported":1745565008,"current_range_meters":15200,"station_id":"ce4bguh2rcd13ifvqckg","pricing_plan_id":"cebpf4jnsgd1na2vs0mg"},{"bike_id":"d7844114-526e-4b53-a030-69252f001196","system_id":"levelo_inurba_marseille","lat":43.30547,"lon":5.36573,"is_reserved":false,"is_disabled":false,"rental_uris":{"android":"levelo://app?vid=d7844114-526e-4b53-a030-69252f001196","ios":"levelo://app?vid=d7844114-526e-4b53-a030-69252f001196"},"vehicle_type_id":"4","last_reported":1745565008,"current_range_meters":15200,"station_id":"ce4bgs12rcd13ifvqcag","pricing_plan_id":"cebpf4jnsgd1na2vs0mg"},{"bike_id":"0bfff189-ec6a-4439-b345-e9dd168ab867","system_id":"levelo_inurba_marseille","lat":43.337323,"lon":5.391796,"is_reserved":false,"is_disabled":false,"rental_uris":{"android":"levelo://app?vid=0bfff189-ec6a-4439-b345-e9dd168ab867","ios":"levelo://app?vid=0bfff189-ec6a-4439-b345-e9dd168ab867"},"vehicle_type_id":"4","last_reported":1745565008,"current_range_meters":15200,"station_id":"ce4bhr92rcd13ifvqhsg","pricing_plan_id":"cebpf4jnsgd1na2vs0mg"},{"bike_id":"93a0b7cc-4fc1-4422-b035-b47cbb481ab9","system_id":"levelo_inurba_marseille","lat":43.29197,"lon":5.39319,"is_reserved":false,"is_disabled":true,"rental_uris":{"android":"levelo://app?vid=93a0b7cc-4fc1-4422-b035-b47cbb481ab9","ios":"levelo://app?vid=93a0b7cc-4fc1-4422-b035-b47cbb481ab9"},"vehicle_type_id":"4","last_reported":1745565008,"current_range_meters":16000,"station_id":"ce4bh192rcd13ifvqdd0","pricing_plan_id":"cebpf4jnsgd1na2vs0mg"},{"bike_id":"b0c707d0-3db8-4d92-9fb4-e63c5f99eb7f","system_id":"levelo_inurba_marseille","lat":43.31483,"lon":5.37314,"is_reserved":false,"is_disabled":false,"rental_uris":{"android":"levelo://app?vid=b0c707d0-3db8-4d92-9fb4-e63c5f99eb7f","ios":"levelo://app?vid=b0c707d0-3db8-4d92-9fb4-e63c5f99eb7f"},"vehicle_type_id":"4","last_reported":1745565008,"current_range_meters":16000,"station_id":"ce4bgt12rcd13ifvqcd0","pricing_plan_id":"cebpf4jnsgd1na2vs0mg"},{"bike_id":"5d9c4043-4860-4248-b70b-21cea142bfdb","system_id":"levelo_inurba_marseille","lat":43.33613,"lon":5.41016,"is_reserved":false,"is_disabled":false,"rental_uris":{"android":"levelo://app?vid=5d9c4043-4860-4248-b70b-21cea142bfdb","ios":"levelo://app?vid=5d9c4043-4860-4248-b70b-21cea142bfdb"},"vehicle_type_id":"4","last_reported":1745565008,"current_range_meters":16000,"station_id":"ce4bhqh2rcd13ifvqhmg","pricing_plan_id":"cebpf4jnsgd1na2vs0mg"},{"bike_id":"b69ca577-3942-4321-b56b-68ee80a2ddac","system_id":"levelo_inurba_marseille","lat":43.2415,"lon":5.39724,"is_reserved":false,"is_disabled":false,"rental_uris":{"android":"levelo://app?vid=b69ca577-3942-4321-b56b-68ee80a2ddac","ios":"levelo://app?vid=b69ca577-3942-4321-b56b-68ee80a2ddac"},"vehicle_type_id":"4","last_reported":1745565008,"current_range_meters":16000,"station_id":"ce4bhn12rcd13ifvqgpg","pricing_plan_id":"cebpf4jnsgd1na2vs0mg"},{"bike_id":"7d3f044d-0da3-46a0-a663-7c18f6245972","system_id":"levelo_inurba_marseille","lat":43.31342,"lon":5.3671,"is_reserved":false,"is_disabled":false,"rental_uris":{"android":"levelo://app?vid=7d3f044d-0da3-46a0-a663-7c18f6245972","ios":"levelo://app?vid=7d3f044d-0da3-46a0-a663-7c18f6245972"},"vehicle_type_id":"4","last_reported":1745565008,"current_range_meters":16000,"station_id":"ce4bgr92rcd13ifvqc6g","pricing_plan_id":"cebpf4jnsgd1na2vs0mg"},{"bike_id":"3e5a5bec-d3d4-45ee-9c95-7c9b8e7a4c49","system_id":"levelo_inurba_marseille","lat":43.32349,"lon":5.36763,"is_reserved":false,"is_disabled":false,"rental_uris":{"android":"levelo://app?vid=3e5a5bec-d3d4-45ee-9c95-7c9b8e7a4c49","ios":"levelo://app?vid=3e5a5bec-d3d4-45ee-9c95-7c9b8e7a4c49"},"vehicle_type_id":"4","last_reported":1745565008,"current_range_meters":16000,"station_id":"ce4bhsh2rcd13ifvqi2g","pricing_plan_id":"cebpf4jnsgd1na2vs0mg"},{"bike_id":"08017c5e-0ebd-49ed-a7d1-dae38f57908c","system_id":"levelo_inurba_marseille","lat":43.32647,"lon":5.4096,"is_reserved":false,"is_disabled":false,"rental_uris":{"android":"levelo://app?vid=08017c5e-0ebd-49ed-a7d1-dae38f57908c","ios":"levelo://app?vid=08017c5e-0ebd-49ed-a7d1-dae38f57908c"},"vehicle_type_id":"4","last_reported":1745565008,"current_range_meters":16000,"station_id":"ce4bhpp2rcd13ifvqhgg","pricing_plan_id":"cebpf4jnsgd1na2vs0mg"},{"bike_id":"3a2924ee-1c38-472f-92a9-beb595f78e9b","system_id":"levelo_inurba_marseille","lat":43.33602,"lon":5.41032,"is_reserved":false,"is_disabled":false,"rental_uris":{"android":"levelo://app?vid=3a2924ee-1c38-472f-92a9-beb595f78e9b","ios":"levelo://app?vid=3a2924ee-1c38-472f-92a9-beb595f78e9b"},"vehicle_type_id":"4","last_reported":1745565008,"current_range_meters":16400,"station_id":"ce4bhqh2rcd13ifvqhmg","pricing_plan_id":"cebpf4jnsgd1na2vs0mg"},{"bike_id":"9a1c0be7-bd1a-4081-ab84-3ef05258b407","system_id":"levelo_inurba_marseille","lat":43.22939,"lon":5.35378,"is_reserved":false,"is_disabled":false,"rental_uris":{"android":"levelo://app?vid=9a1c0be7-bd1a-4081-ab84-3ef05258b407","ios":"levelo://app?vid=9a1c0be7-bd1a-4081-ab84-3ef05258b407"},"vehicle_type_id":"4","last_reported":1745565008,"current_range_meters":16400,"station_id":"cpo3532slgdg3j2ikp40","pricing_plan_id":"cebpf4jnsgd1na2vs0mg"},{"bike_id":"a9784e4d-72f3-45a0-bc5c-6a48517d28d6","system_id":"levelo_inurba_marseille","lat":43.33018,"lon":5.39021,"is_reserved":false,"is_disabled":false,"rental_uris":{"android":"levelo://app?vid=a9784e4d-72f3-45a0-bc5c-6a48517d28d6","ios":"levelo://app?vid=a9784e4d-72f3-45a0-bc5c-6a48517d28d6"},"vehicle_type_id":"4","last_reported":1745565008,"current_range_meters":16400,"station_id":"ce4bhr92rcd13ifvqhrg","pricing_plan_id":"cebpf4jnsgd1na2vs0mg"},{"bike_id":"395d4888-0166-4d69-923c-10eb08926754","system_id":"levelo_inurba_marseille","lat":43.269531,"lon":5.386261,"is_reserved":false,"is_disabled":false,"rental_uris":{"android":"levelo://app?vid=395d4888-0166-4d69-923c-10eb08926754","ios":"levelo://app?vid=395d4888-0166-4d69-923c-10eb08926754"},"vehicle_type_id":"4","last_reported":1745565008,"current_range_meters":16800,"station_id":"ce4bhh92rcd13ifvqfh0","pricing_plan_id":"cebpf4jnsgd1na2vs0mg"},{"bike_id":"791cb9fb-3de9-4ead-9fc7-afd01a815383","system_id":"levelo_inurba_marseille","lat":43.2681,"lon":5.40275,"is_reserved":false,"is_disabled":false,"rental_uris":{"android":"levelo://app?vid=791cb9fb-3de9-4ead-9fc7-afd01a815383","ios":"levelo://app?vid=791cb9fb-3de9-4ead-9fc7-afd01a815383"},"vehicle_type_id":"4","last_reported":1745565008,"current_range_meters":16800,"station_id":"ce501612rcd8frsf0b60","pricing_plan_id":"cebpf4jnsgd1na2vs0mg"},{"bike_id":"711ec129-e00e-4d89-97da-879374c7aa7e","system_id":"levelo_inurba_marseille","lat":43.29216,"lon":5.36066,"is_reserved":false,"is_disabled":false,"rental_uris":{"android":"levelo://app?vid=711ec129-e00e-4d89-97da-879374c7aa7e","ios":"levelo://app?vid=711ec129-e00e-4d89-97da-879374c7aa7e"},"vehicle_type_id":"4","last_reported":1745565008,"current_range_meters":16800,"station_id":"ce4bhbh2rcd13ifvqeqg","pricing_plan_id":"cebpf4jnsgd1na2vs0mg"},{"bike_id":"c23a60dd-0416-4e3b-830c-2528fe30db75","system_id":"levelo_inurba_marseille","lat":43.24073,"lon":5.3776,"is_reserved":false,"is_disabled":false,"rental_uris":{"android":"levelo://app?vid=c23a60dd-0416-4e3b-830c-2528fe30db75","ios":"levelo://app?vid=c23a60dd-0416-4e3b-830c-2528fe30db75"},"vehicle_type_id":"4","last_reported":1745565008,"current_range_meters":16800,"station_id":"ce4bhnp2rcd13ifvqgvg","pricing_plan_id":"cebpf4jnsgd1na2vs0mg"},{"bike_id":"b221c185-0bb2-44be-be16-6cd39ea12b73","system_id":"levelo_inurba_marseille","lat":43.304967,"lon":5.39327,"is_reserved":false,"is_disabled":false,"rental_uris":{"android":"levelo://app?vid=b221c185-0bb2-44be-be16-6cd39ea12b73","ios":"levelo://app?vid=b221c185-0bb2-44be-be16-6cd39ea12b73"},"vehicle_type_id":"4","last_reported":1745565008,"current_range_meters":16800,"station_id":"ce4bgt92rcd13ifvqcf0","pricing_plan_id":"cebpf4jnsgd1na2vs0mg"},{"bike_id":"a74f7875-e8bd-4cc9-9f56-11c66ee4baac","system_id":"levelo_inurba_marseille","lat":43.27486,"lon":5.42449,"is_reserved":false,"is_disabled":false,"rental_uris":{"android":"levelo://app?vid=a74f7875-e8bd-4cc9-9f56-11c66ee4baac","ios":"levelo://app?vid=a74f7875-e8bd-4cc9-9f56-11c66ee4baac"},"vehicle_type_id":"4","last_reported":1745565008,"current_range_meters":16800,"station_id":"ce4bhn92rcd13ifvqgrg","pricing_plan_id":"cebpf4jnsgd1na2vs0mg"},{"bike_id":"3fb9545b-3a5a-422c-ad5d-be4b40e1b40d","system_id":"levelo_inurba_marseille","lat":43.30885,"lon":5.36854,"is_reserved":false,"is_disabled":false,"rental_uris":{"android":"levelo://app?vid=3fb9545b-3a5a-422c-ad5d-be4b40e1b40d","ios":"levelo://app?vid=3fb9545b-3a5a-422c-ad5d-be4b40e1b40d"},"vehicle_type_id":"4","last_reported":1745565008,"current_range_meters":17200,"station_id":"ce4bgn92rcd13ifvqbvg","pricing_plan_id":"cebpf4jnsgd1na2vs0mg"},{"bike_id":"b04b2867-fbf0-4049-a1be-5593b1ff340a","system_id":"levelo_inurba_marseille","lat":43.241302,"lon":5.376976,"is_reserved":false,"is_disabled":false,"rental_uris":{"android":"levelo://app?vid=b04b2867-fbf0-4049-a1be-5593b1ff340a","ios":"levelo://app?vid=b04b2867-fbf0-4049-a1be-5593b1ff340a"},"vehicle_type_id":"4","last_reported":1745565008,"current_range_meters":17200,"station_id":"ce4bhah2rcd13ifvqei0","pricing_plan_id":"cebpf4jnsgd1na2vs0mg"},{"bike_id":"555b9ea9-ddf7-48ed-b93a-2830c5587aa3","system_id":"levelo_inurba_marseille","lat":43.29363,"lon":5.37842,"is_reserved":false,"is_disabled":false,"rental_uris":{"android":"levelo://app?vid=555b9ea9-ddf7-48ed-b93a-2830c5587aa3","ios":"levelo://app?vid=555b9ea9-ddf7-48ed-b93a-2830c5587aa3"},"vehicle_type_id":"4","last_reported":1745565008,"current_range_meters":16800,"station_id":"ce4bgjh2rcd13ifvqbf0","pricing_plan_id":"cebpf4jnsgd1na2vs0mg"},{"bike_id":"5d90e8c4-88f9-42f1-bfd8-e31a43c95b58","system_id":"levelo_inurba_marseille","lat":43.32476,"lon":5.36569,"is_reserved":false,"is_disabled":false,"rental_uris":{"android":"levelo://app?vid=5d90e8c4-88f9-42f1-bfd8-e31a43c95b58","ios":"levelo://app?vid=5d90e8c4-88f9-42f1-bfd8-e31a43c95b58"},"vehicle_type_id":"4","last_reported":1745565008,"current_range_meters":17200,"station_id":"ce4bhs12rcd13ifvqhvg","pricing_plan_id":"cebpf4jnsgd1na2vs0mg"},{"bike_id":"f5d41aa3-2886-4704-95b8-34f53da8b1e5","system_id":"levelo_inurba_marseille","lat":43.30912,"lon":5.36853,"is_reserved":false,"is_disabled":false,"rental_uris":{"android":"levelo://app?vid=f5d41aa3-2886-4704-95b8-34f53da8b1e5","ios":"levelo://app?vid=f5d41aa3-2886-4704-95b8-34f53da8b1e5"},"vehicle_type_id":"4","last_reported":1745565008,"current_range_meters":17200,"station_id":"ce4bgn92rcd13ifvqbvg","pricing_plan_id":"cebpf4jnsgd1na2vs0mg"},{"bike_id":"7b6f18a6-3b7c-4e85-a917-75795b55ca32","system_id":"levelo_inurba_marseille","lat":43.30533,"lon":5.36699,"is_reserved":false,"is_disabled":false,"rental_uris":{"android":"levelo://app?vid=7b6f18a6-3b7c-4e85-a917-75795b55ca32","ios":"levelo://app?vid=7b6f18a6-3b7c-4e85-a917-75795b55ca32"},"vehicle_type_id":"4","last_reported":1745565008,"current_range_meters":17600,"station_id":"ce4bgrp2rcd13ifvqc9g","pricing_plan_id":"cebpf4jnsgd1na2vs0mg"},{"bike_id":"8f1a38c1-df91-4bdf-9e4e-92ef410aba4f","system_id":"levelo_inurba_marseille","lat":43.212,"lon":5.35069,"is_reserved":false,"is_disabled":false,"rental_uris":{"android":"levelo://app?vid=8f1a38c1-df91-4bdf-9e4e-92ef410aba4f","ios":"levelo://app?vid=8f1a38c1-df91-4bdf-9e4e-92ef410aba4f"},"vehicle_type_id":"4","last_reported":1745565008,"current_range_meters":17600,"station_id":"st_cvj6sg6p6f1abm77japg","pricing_plan_id":"cebpf4jnsgd1na2vs0mg"},{"bike_id":"987d7900-bb2a-45cb-bed7-6d69f6fd4fa3","system_id":"levelo_inurba_marseille","lat":43.28523,"lon":5.38468,"is_reserved":false,"is_disabled":false,"rental_uris":{"android":"levelo://app?vid=987d7900-bb2a-45cb-bed7-6d69f6fd4fa3","ios":"levelo://app?vid=987d7900-bb2a-45cb-bed7-6d69f6fd4fa3"},"vehicle_type_id":"4","last_reported":1745565008,"current_range_meters":17600,"station_id":"","pricing_plan_id":"cebpf4jnsgd1na2vs0mg"},{"bike_id":"ecbc92b5-a8e1-4ba3-98de-bd8784bc0c64","system_id":"levelo_inurba_marseille","lat":43.26554,"lon":5.39026,"is_reserved":false,"is_disabled":true,"rental_uris":{"android":"levelo://app?vid=ecbc92b5-a8e1-4ba3-98de-bd8784bc0c64","ios":"levelo://app?vid=ecbc92b5-a8e1-4ba3-98de-bd8784bc0c64"},"vehicle_type_id":"4","last_reported":1745565008,"current_range_meters":18000,"station_id":"ce4bhe12rcd13ifvqf30","pricing_plan_id":"cebpf4jnsgd1na2vs0mg"},{"bike_id":"78e440e7-8bbc-44b4-9c74-197f80a59205","system_id":"levelo_inurba_marseille","lat":43.24167,"lon":5.36394,"is_reserved":false,"is_disabled":false,"rental_uris":{"android":"levelo://app?vid=78e440e7-8bbc-44b4-9c74-197f80a59205","ios":"levelo://app?vid=78e440e7-8bbc-44b4-9c74-197f80a59205"},"vehicle_type_id":"4","last_reported":1745565008,"current_range_meters":18000,"station_id":"cpo36qri1sfpv3e86is0","pricing_plan_id":"cebpf4jnsgd1na2vs0mg"},{"bike_id":"f419f481-04b5-42c9-b65a-846379214306","system_id":"levelo_inurba_marseille","lat":43.28542,"lon":5.39495,"is_reserved":false,"is_disabled":false,"rental_uris":{"android":"levelo://app?vid=f419f481-04b5-42c9-b65a-846379214306","ios":"levelo://app?vid=f419f481-04b5-42c9-b65a-846379214306"},"vehicle_type_id":"4","last_reported":1745565008,"current_range_meters":17600,"station_id":"ce4bhlh2rcd13ifvqgig","pricing_plan_id":"cebpf4jnsgd1na2vs0mg"},{"bike_id":"3f07211f-056a-43e0-a2e8-8cfd0d542cd1","system_id":"levelo_inurba_marseille","lat":43.30583,"lon":5.37256,"is_reserved":false,"is_disabled":false,"rental_uris":{"android":"levelo://app?vid=3f07211f-056a-43e0-a2e8-8cfd0d542cd1","ios":"levelo://app?vid=3f07211f-056a-43e0-a2e8-8cfd0d542cd1"},"vehicle_type_id":"4","last_reported":1745565008,"current_range_meters":18000,"station_id":"ce4bgqh2rcd13ifvqc4g","pricing_plan_id":"cebpf4jnsgd1na2vs0mg"},{"bike_id":"f8508ab8-79c1-40ba-87fb-00ec869a146d","system_id":"levelo_inurba_marseille","lat":43.27611,"lon":5.36103,"is_reserved":false,"is_disabled":false,"rental_uris":{"android":"levelo://app?vid=f8508ab8-79c1-40ba-87fb-00ec869a146d","ios":"levelo://app?vid=f8508ab8-79c1-40ba-87fb-00ec869a146d"},"vehicle_type_id":"4","last_reported":1745565008,"current_range_meters":18000,"station_id":"ce4bgj92rcd13ifvqbe0","pricing_plan_id":"cebpf4jnsgd1na2vs0mg"},{"bike_id":"bff055e2-9ae7-4273-8f40-ef2e123f7133","system_id":"levelo_inurba_marseille","lat":43.31082,"lon":5.42429,"is_reserved":false,"is_disabled":false,"rental_uris":{"android":"levelo://app?vid=bff055e2-9ae7-4273-8f40-ef2e123f7133","ios":"levelo://app?vid=bff055e2-9ae7-4273-8f40-ef2e123f7133"},"vehicle_type_id":"4","last_reported":1745565008,"current_range_meters":18800,"station_id":"ce4bhp92rcd13ifvqhag","pricing_plan_id":"cebpf4jnsgd1na2vs0mg"},{"bike_id":"2cb915c3-efce-4420-ba97-f7de67fde7a5","system_id":"levelo_inurba_marseille","lat":43.2929,"lon":5.37441,"is_reserved":false,"is_disabled":false,"rental_uris":{"android":"levelo://app?vid=2cb915c3-efce-4420-ba97-f7de67fde7a5","ios":"levelo://app?vid=2cb915c3-efce-4420-ba97-f7de67fde7a5"},"vehicle_type_id":"4","last_reported":1745565008,"current_range_meters":18800,"station_id":"ce4bgi12rcd13ifvqb70","pricing_plan_id":"cebpf4jnsgd1na2vs0mg"},{"bike_id":"025c3d3e-4920-4022-aa49-dbb8d20446ee","system_id":"levelo_inurba_marseille","lat":43.2873,"lon":5.37933,"is_reserved":false,"is_disabled":false,"rental_uris":{"android":"levelo://app?vid=025c3d3e-4920-4022-aa49-dbb8d20446ee","ios":"levelo://app?vid=025c3d3e-4920-4022-aa49-dbb8d20446ee"},"vehicle_type_id":"4","last_reported":1745565008,"current_range_meters":18800,"station_id":"ce4bh9p2rcd13ifvqec0","pricing_plan_id":"cebpf4jnsgd1na2vs0mg"},{"bike_id":"87d230e1-3701-4811-bc52-b6bcde5161e4","system_id":"levelo_inurba_marseille","lat":43.268052,"lon":5.40273,"is_reserved":false,"is_disabled":false,"rental_uris":{"android":"levelo://app?vid=87d230e1-3701-4811-bc52-b6bcde5161e4","ios":"levelo://app?vid=87d230e1-3701-4811-bc52-b6bcde5161e4"},"vehicle_type_id":"4","last_reported":1745565008,"current_range_meters":18800,"station_id":"ce4bhm92rcd13ifvqglg","pricing_plan_id":"cebpf4jnsgd1na2vs0mg"},{"bike_id":"d0c7a05f-35ba-4bc4-b2e1-7864f7396a38","system_id":"levelo_inurba_marseille","lat":43.28685,"lon":5.3867,"is_reserved":false,"is_disabled":true,"rental_uris":{"android":"levelo://app?vid=d0c7a05f-35ba-4bc4-b2e1-7864f7396a38","ios":"levelo://app?vid=d0c7a05f-35ba-4bc4-b2e1-7864f7396a38"},"vehicle_type_id":"4","last_reported":1745565008,"current_range_meters":18800,"station_id":"ce4bh492rcd13ifvqdug","pricing_plan_id":"cebpf4jnsgd1na2vs0mg"},{"bike_id":"b5feea90-89ce-4ec8-acc7-063b38f68f2a","system_id":"levelo_inurba_marseille","lat":43.32474,"lon":5.36581,"is_reserved":false,"is_disabled":false,"rental_uris":{"android":"levelo://app?vid=b5feea90-89ce-4ec8-acc7-063b38f68f2a","ios":"levelo://app?vid=b5feea90-89ce-4ec8-acc7-063b38f68f2a"},"vehicle_type_id":"4","last_reported":1745565008,"current_range_meters":18800,"station_id":"ce4bhs12rcd13ifvqhvg","pricing_plan_id":"cebpf4jnsgd1na2vs0mg"},{"bike_id":"ee08943a-ea78-49bb-a397-b42b8fb7e862","system_id":"levelo_inurba_marseille","lat":43.28606,"lon":5.37063,"is_reserved":false,"is_disabled":false,"rental_uris":{"android":"levelo://app?vid=ee08943a-ea78-49bb-a397-b42b8fb7e862","ios":"levelo://app?vid=ee08943a-ea78-49bb-a397-b42b8fb7e862"},"vehicle_type_id":"4","last_reported":1745565008,"current_range_meters":18800,"station_id":"ce4bht12rcd13ifvqi60","pricing_plan_id":"cebpf4jnsgd1na2vs0mg"},{"bike_id":"c75b0ecf-2815-46e8-a970-e0609ff997a4","system_id":"levelo_inurba_marseille","lat":43.26505,"lon":5.39551,"is_reserved":false,"is_disabled":true,"rental_uris":{"android":"levelo://app?vid=c75b0ecf-2815-46e8-a970-e0609ff997a4","ios":"levelo://app?vid=c75b0ecf-2815-46e8-a970-e0609ff997a4"},"vehicle_type_id":"4","last_reported":1745565008,"current_range_meters":19200,"station_id":"ce4bhi12rcd13ifvqfq0","pricing_plan_id":"cebpf4jnsgd1na2vs0mg"},{"bike_id":"300bceee-d39b-4929-b736-e6f2fe2a90fb","system_id":"levelo_inurba_marseille","lat":43.30264,"lon":5.37715,"is_reserved":false,"is_disabled":false,"rental_uris":{"android":"levelo://app?vid=300bceee-d39b-4929-b736-e6f2fe2a90fb","ios":"levelo://app?vid=300bceee-d39b-4929-b736-e6f2fe2a90fb"},"vehicle_type_id":"4","last_reported":1745565008,"current_range_meters":19200,"station_id":"ce4bguh2rcd13ifvqcj0","pricing_plan_id":"cebpf4jnsgd1na2vs0mg"},{"bike_id":"bea2e0e4-db0c-4c8a-afb4-be1ce83f3b82","system_id":"levelo_inurba_marseille","lat":43.28927,"lon":5.36386,"is_reserved":false,"is_disabled":false,"rental_uris":{"android":"levelo://app?vid=bea2e0e4-db0c-4c8a-afb4-be1ce83f3b82","ios":"levelo://app?vid=bea2e0e4-db0c-4c8a-afb4-be1ce83f3b82"},"vehicle_type_id":"4","last_reported":1745565008,"current_range_meters":19600,"station_id":"ce4bhc92rcd13ifvqetg","pricing_plan_id":"cebpf4jnsgd1na2vs0mg"},{"bike_id":"5ff47b76-872f-4730-b99b-fa729e4f3b8b","system_id":"levelo_inurba_marseille","lat":43.266804,"lon":5.382739,"is_reserved":false,"is_disabled":false,"rental_uris":{"android":"levelo://app?vid=5ff47b76-872f-4730-b99b-fa729e4f3b8b","ios":"levelo://app?vid=5ff47b76-872f-4730-b99b-fa729e4f3b8b"},"vehicle_type_id":"4","last_reported":1745565008,"current_range_meters":19200,"station_id":"ce4bhhp2rcd13ifvqfm0","pricing_plan_id":"cebpf4jnsgd1na2vs0mg"},{"bike_id":"ccdde928-c416-4dd5-8cd1-83350c83f5c0","system_id":"levelo_inurba_marseille","lat":43.29752,"lon":5.37276,"is_reserved":false,"is_disabled":true,"rental_uris":{"android":"levelo://app?vid=ccdde928-c416-4dd5-8cd1-83350c83f5c0","ios":"levelo://app?vid=ccdde928-c416-4dd5-8cd1-83350c83f5c0"},"vehicle_type_id":"4","last_reported":1745565008,"current_range_meters":19200,"station_id":"","pricing_plan_id":"cebpf4jnsgd1na2vs0mg"},{"bike_id":"244bbfbf-97ed-4a83-b6ae-33a828dedf46","system_id":"levelo_inurba_marseille","lat":43.2293,"lon":5.35381,"is_reserved":false,"is_disabled":false,"rental_uris":{"android":"levelo://app?vid=244bbfbf-97ed-4a83-b6ae-33a828dedf46","ios":"levelo://app?vid=244bbfbf-97ed-4a83-b6ae-33a828dedf46"},"vehicle_type_id":"4","last_reported":1745565008,"current_range_meters":19200,"station_id":"cpo3532slgdg3j2ikp40","pricing_plan_id":"cebpf4jnsgd1na2vs0mg"},{"bike_id":"391ee3af-ca61-4f95-a151-9bc5c1f6cb8b","system_id":"levelo_inurba_marseille","lat":43.29024,"lon":5.3999,"is_reserved":false,"is_disabled":true,"rental_uris":{"android":"levelo://app?vid=391ee3af-ca61-4f95-a151-9bc5c1f6cb8b","ios":"levelo://app?vid=391ee3af-ca61-4f95-a151-9bc5c1f6cb8b"},"vehicle_type_id":"4","last_reported":1745565008,"current_range_meters":18800,"station_id":"ce4bh392rcd13ifvqdm0","pricing_plan_id":"cebpf4jnsgd1na2vs0mg"},{"bike_id":"4046a82f-66e8-4b55-bd0a-356edea772d8","system_id":"levelo_inurba_marseille","lat":43.308133,"lon":5.373235,"is_reserved":false,"is_disabled":false,"rental_uris":{"android":"levelo://app?vid=4046a82f-66e8-4b55-bd0a-356edea772d8","ios":"levelo://app?vid=4046a82f-66e8-4b55-bd0a-356edea772d8"},"vehicle_type_id":"4","last_reported":1745565008,"current_range_meters":19600,"station_id":"","pricing_plan_id":"cebpf4jnsgd1na2vs0mg"},{"bike_id":"309cc900-32ed-4fbb-b085-4ff9bb73bc11","system_id":"levelo_inurba_marseille","lat":43.311167,"lon":5.377883,"is_reserved":false,"is_disabled":false,"rental_uris":{"android":"levelo://app?vid=309cc900-32ed-4fbb-b085-4ff9bb73bc11","ios":"levelo://app?vid=309cc900-32ed-4fbb-b085-4ff9bb73bc11"},"vehicle_type_id":"4","last_reported":1745565008,"current_range_meters":19200,"station_id":"ce4bhsp2rcd13ifvqi50","pricing_plan_id":"cebpf4jnsgd1na2vs0mg"},{"bike_id":"652c7b44-220c-4b32-8b64-ae95d0ad1640","system_id":"levelo_inurba_marseille","lat":43.23199,"lon":5.35552,"is_reserved":false,"is_disabled":true,"rental_uris":{"android":"levelo://app?vid=652c7b44-220c-4b32-8b64-ae95d0ad1640","ios":"levelo://app?vid=652c7b44-220c-4b32-8b64-ae95d0ad1640"},"vehicle_type_id":"4","last_reported":1745565008,"current_range_meters":19600,"station_id":"ce4bhu92rcd13ifvqi70","pricing_plan_id":"cebpf4jnsgd1na2vs0mg"},{"bike_id":"8434564c-0185-4c49-94cb-8f2e116401fa","system_id":"levelo_inurba_marseille","lat":43.301422,"lon":5.380867,"is_reserved":false,"is_disabled":false,"rental_uris":{"android":"levelo://app?vid=8434564c-0185-4c49-94cb-8f2e116401fa","ios":"levelo://app?vid=8434564c-0185-4c49-94cb-8f2e116401fa"},"vehicle_type_id":"4","last_reported":1745565008,"current_range_meters":19600,"station_id":"ce4bh9p2rcd13ifvqed0","pricing_plan_id":"cebpf4jnsgd1na2vs0mg"},{"bike_id":"4cfe389b-1eb8-484a-9ea6-87eb88cb8968","system_id":"levelo_inurba_marseille","lat":43.30131,"lon":5.37422,"is_reserved":false,"is_disabled":false,"rental_uris":{"android":"levelo://app?vid=4cfe389b-1eb8-484a-9ea6-87eb88cb8968","ios":"levelo://app?vid=4cfe389b-1eb8-484a-9ea6-87eb88cb8968"},"vehicle_type_id":"4","last_reported":1745565008,"current_range_meters":19600,"station_id":"ce4bgs92rcd13ifvqcc0","pricing_plan_id":"cebpf4jnsgd1na2vs0mg"},{"bike_id":"fbf3750d-6248-438c-bdc8-e7db0beafbd0","system_id":"levelo_inurba_marseille","lat":43.31331,"lon":5.36712,"is_reserved":false,"is_disabled":false,"rental_uris":{"android":"levelo://app?vid=fbf3750d-6248-438c-bdc8-e7db0beafbd0","ios":"levelo://app?vid=fbf3750d-6248-438c-bdc8-e7db0beafbd0"},"vehicle_type_id":"4","last_reported":1745565008,"current_range_meters":19600,"station_id":"ce4bgr92rcd13ifvqc6g","pricing_plan_id":"cebpf4jnsgd1na2vs0mg"},{"bike_id":"e378a675-c4c9-4cb7-ac37-3672f9358b55","system_id":"levelo_inurba_marseille","lat":43.29022,"lon":5.37553,"is_reserved":false,"is_disabled":false,"rental_uris":{"android":"levelo://app?vid=e378a675-c4c9-4cb7-ac37-3672f9358b55","ios":"levelo://app?vid=e378a675-c4c9-4cb7-ac37-3672f9358b55"},"vehicle_type_id":"4","last_reported":1745565008,"current_range_meters":20000,"station_id":"ce4bh692rcd13ifvqe90","pricing_plan_id":"cebpf4jnsgd1na2vs0mg"},{"bike_id":"82fc0d6e-6ff9-4435-939d-4e38481aaeb3","system_id":"levelo_inurba_marseille","lat":43.31364,"lon":5.36744,"is_reserved":false,"is_disabled":false,"rental_uris":{"android":"levelo://app?vid=82fc0d6e-6ff9-4435-939d-4e38481aaeb3","ios":"levelo://app?vid=82fc0d6e-6ff9-4435-939d-4e38481aaeb3"},"vehicle_type_id":"4","last_reported":1745565008,"current_range_meters":20000,"station_id":"ce4bgr92rcd13ifvqc6g","pricing_plan_id":"cebpf4jnsgd1na2vs0mg"},{"bike_id":"a033a220-ed4c-4b8d-9afd-4ef98c645254","system_id":"levelo_inurba_marseille","lat":43.32536,"lon":5.41426,"is_reserved":false,"is_disabled":false,"rental_uris":{"android":"levelo://app?vid=a033a220-ed4c-4b8d-9afd-4ef98c645254","ios":"levelo://app?vid=a033a220-ed4c-4b8d-9afd-4ef98c645254"},"vehicle_type_id":"4","last_reported":1745565008,"current_range_meters":20400,"station_id":"ce4bhq12rcd13ifvqhhg","pricing_plan_id":"cebpf4jnsgd1na2vs0mg"},{"bike_id":"9114e7ea-1415-413a-9460-06bb4616a68a","system_id":"levelo_inurba_marseille","lat":43.31239,"lon":5.36854,"is_reserved":false,"is_disabled":false,"rental_uris":{"android":"levelo://app?vid=9114e7ea-1415-413a-9460-06bb4616a68a","ios":"levelo://app?vid=9114e7ea-1415-413a-9460-06bb4616a68a"},"vehicle_type_id":"4","last_reported":1745565008,"current_range_meters":20400,"station_id":"ce4bgl92rcd13ifvqbq0","pricing_plan_id":"cebpf4jnsgd1na2vs0mg"},{"bike_id":"718a6228-7894-4dce-925b-6d6beabba521","system_id":"levelo_inurba_marseille","lat":43.30302,"lon":5.36888,"is_reserved":false,"is_disabled":false,"rental_uris":{"android":"levelo://app?vid=718a6228-7894-4dce-925b-6d6beabba521","ios":"levelo://app?vid=718a6228-7894-4dce-925b-6d6beabba521"},"vehicle_type_id":"4","last_reported":1745565008,"current_range_meters":20400,"station_id":"ce4bgqh2rcd13ifvqc5g","pricing_plan_id":"cebpf4jnsgd1na2vs0mg"},{"bike_id":"fb81db3c-12e2-44b7-8142-2689708da6f1","system_id":"levelo_inurba_marseille","lat":43.30932,"lon":5.37189,"is_reserved":false,"is_disabled":false,"rental_uris":{"android":"levelo://app?vid=fb81db3c-12e2-44b7-8142-2689708da6f1","ios":"levelo://app?vid=fb81db3c-12e2-44b7-8142-2689708da6f1"},"vehicle_type_id":"4","last_reported":1745565008,"current_range_meters":20400,"station_id":"ce4bguh2rcd13ifvqckg","pricing_plan_id":"cebpf4jnsgd1na2vs0mg"},{"bike_id":"1504a7b4-3c2b-41cd-85cd-57aa88641e7e","system_id":"levelo_inurba_marseille","lat":43.2972,"lon":5.36608,"is_reserved":false,"is_disabled":true,"rental_uris":{"android":"levelo://app?vid=1504a7b4-3c2b-41cd-85cd-57aa88641e7e","ios":"levelo://app?vid=1504a7b4-3c2b-41cd-85cd-57aa88641e7e"},"vehicle_type_id":"4","last_reported":1745565008,"current_range_meters":20400,"station_id":"ce4bgn12rcd13ifvqbt0","pricing_plan_id":"cebpf4jnsgd1na2vs0mg"},{"bike_id":"c815fa9c-7101-4ddd-95e6-4bb983754f83","system_id":"levelo_inurba_marseille","lat":43.31685,"lon":5.40472,"is_reserved":false,"is_disabled":false,"rental_uris":{"android":"levelo://app?vid=c815fa9c-7101-4ddd-95e6-4bb983754f83","ios":"levelo://app?vid=c815fa9c-7101-4ddd-95e6-4bb983754f83"},"vehicle_type_id":"4","last_reported":1745565008,"current_range_meters":20000,"station_id":"ce4bh012rcd13ifvqd00","pricing_plan_id":"cebpf4jnsgd1na2vs0mg"},{"bike_id":"a90d1162-3962-4ca4-8540-0160bfdeb2fe","system_id":"levelo_inurba_marseille","lat":43.24179,"lon":5.39725,"is_reserved":false,"is_disabled":false,"rental_uris":{"android":"levelo://app?vid=a90d1162-3962-4ca4-8540-0160bfdeb2fe","ios":"levelo://app?vid=a90d1162-3962-4ca4-8540-0160bfdeb2fe"},"vehicle_type_id":"4","last_reported":1745565008,"current_range_meters":20400,"station_id":"ce4bhn12rcd13ifvqgpg","pricing_plan_id":"cebpf4jnsgd1na2vs0mg"},{"bike_id":"9c9c110e-8bcb-46ac-980c-f056c1666c27","system_id":"levelo_inurba_marseille","lat":43.26194,"lon":5.37922,"is_reserved":false,"is_disabled":true,"rental_uris":{"android":"levelo://app?vid=9c9c110e-8bcb-46ac-980c-f056c1666c27","ios":"levelo://app?vid=9c9c110e-8bcb-46ac-980c-f056c1666c27"},"vehicle_type_id":"4","last_reported":1745565008,"current_range_meters":20400,"station_id":"ce4bhjp2rcd13ifvqg90","pricing_plan_id":"cebpf4jnsgd1na2vs0mg"},{"bike_id":"67ae30dc-9c2e-410a-b5f9-2d76e4d86c7b","system_id":"levelo_inurba_marseille","lat":43.33614,"lon":5.41016,"is_reserved":false,"is_disabled":true,"rental_uris":{"android":"levelo://app?vid=67ae30dc-9c2e-410a-b5f9-2d76e4d86c7b","ios":"levelo://app?vid=67ae30dc-9c2e-410a-b5f9-2d76e4d86c7b"},"vehicle_type_id":"4","last_reported":1745565008,"current_range_meters":20400,"station_id":"ce4bhqh2rcd13ifvqhmg","pricing_plan_id":"cebpf4jnsgd1na2vs0mg"},{"bike_id":"f377a9df-9d25-4272-9075-7ec14439612f","system_id":"levelo_inurba_marseille","lat":43.24652,"lon":5.38897,"is_reserved":false,"is_disabled":false,"rental_uris":{"android":"levelo://app?vid=f377a9df-9d25-4272-9075-7ec14439612f","ios":"levelo://app?vid=f377a9df-9d25-4272-9075-7ec14439612f"},"vehicle_type_id":"4","last_reported":1745565008,"current_range_meters":20000,"station_id":"ce4bhg12rcd13ifvqf60","pricing_plan_id":"cebpf4jnsgd1na2vs0mg"},{"bike_id":"4e19e794-2a53-449b-bb94-3a4499bada6d","system_id":"levelo_inurba_marseille","lat":43.31482,"lon":5.37292,"is_reserved":false,"is_disabled":false,"rental_uris":{"android":"levelo://app?vid=4e19e794-2a53-449b-bb94-3a4499bada6d","ios":"levelo://app?vid=4e19e794-2a53-449b-bb94-3a4499bada6d"},"vehicle_type_id":"4","last_reported":1745565008,"current_range_meters":20800,"station_id":"ce4bgt12rcd13ifvqcd0","pricing_plan_id":"cebpf4jnsgd1na2vs0mg"},{"bike_id":"4e000dc4-0b78-40c0-b61d-4df14157e1b6","system_id":"levelo_inurba_marseille","lat":43.30962,"lon":5.39052,"is_reserved":false,"is_disabled":false,"rental_uris":{"android":"levelo://app?vid=4e000dc4-0b78-40c0-b61d-4df14157e1b6","ios":"levelo://app?vid=4e000dc4-0b78-40c0-b61d-4df14157e1b6"},"vehicle_type_id":"4","last_reported":1745565008,"current_range_meters":20800,"station_id":"ce4bgup2rcd13ifvqco0","pricing_plan_id":"cebpf4jnsgd1na2vs0mg"},{"bike_id":"d5933df8-e3a2-49de-973f-f5752e47c06e","system_id":"levelo_inurba_marseille","lat":43.24991,"lon":5.38939,"is_reserved":false,"is_disabled":false,"rental_uris":{"android":"levelo://app?vid=d5933df8-e3a2-49de-973f-f5752e47c06e","ios":"levelo://app?vid=d5933df8-e3a2-49de-973f-f5752e47c06e"},"vehicle_type_id":"4","last_reported":1745565008,"current_range_meters":20800,"station_id":"ce4bhgp2rcd13ifvqfd0","pricing_plan_id":"cebpf4jnsgd1na2vs0mg"},{"bike_id":"6aa9cfe4-f0cd-4d6a-b273-44e33cd5431d","system_id":"levelo_inurba_marseille","lat":43.27813,"lon":5.40708,"is_reserved":false,"is_disabled":false,"rental_uris":{"android":"levelo://app?vid=6aa9cfe4-f0cd-4d6a-b273-44e33cd5431d","ios":"levelo://app?vid=6aa9cfe4-f0cd-4d6a-b273-44e33cd5431d"},"vehicle_type_id":"4","last_reported":1745565008,"current_range_meters":20800,"station_id":"ce4bhnh2rcd13ifvqgtg","pricing_plan_id":"cebpf4jnsgd1na2vs0mg"},{"bike_id":"0390d0f3-6da8-4b4c-b55e-9bb2cefe45c4","system_id":"levelo_inurba_marseille","lat":43.28558,"lon":5.40078,"is_reserved":false,"is_disabled":false,"rental_uris":{"android":"levelo://app?vid=0390d0f3-6da8-4b4c-b55e-9bb2cefe45c4","ios":"levelo://app?vid=0390d0f3-6da8-4b4c-b55e-9bb2cefe45c4"},"vehicle_type_id":"4","last_reported":1745565008,"current_range_meters":20800,"station_id":"","pricing_plan_id":"cebpf4jnsgd1na2vs0mg"},{"bike_id":"e92565b1-0dda-4426-8c0d-cf38ecdda8a2","system_id":"levelo_inurba_marseille","lat":43.21743,"lon":5.34602,"is_reserved":false,"is_disabled":false,"rental_uris":{"android":"levelo://app?vid=e92565b1-0dda-4426-8c0d-cf38ecdda8a2","ios":"levelo://app?vid=e92565b1-0dda-4426-8c0d-cf38ecdda8a2"},"vehicle_type_id":"4","last_reported":1745565008,"current_range_meters":20800,"station_id":"st_cvj6r9ubvosntc0bgbag","pricing_plan_id":"cebpf4jnsgd1na2vs0mg"},{"bike_id":"503d6127-db66-492b-90ed-555aa6999178","system_id":"levelo_inurba_marseille","lat":43.29555,"lon":5.38613,"is_reserved":false,"is_disabled":false,"rental_uris":{"android":"levelo://app?vid=503d6127-db66-492b-90ed-555aa6999178","ios":"levelo://app?vid=503d6127-db66-492b-90ed-555aa6999178"},"vehicle_type_id":"4","last_reported":1745565008,"current_range_meters":21600,"station_id":"","pricing_plan_id":"cebpf4jnsgd1na2vs0mg"},{"bike_id":"d9f26a3a-6ecb-49b8-b29e-ece4a2fb518e","system_id":"levelo_inurba_marseille","lat":43.30287,"lon":5.36921,"is_reserved":false,"is_disabled":false,"rental_uris":{"android":"levelo://app?vid=d9f26a3a-6ecb-49b8-b29e-ece4a2fb518e","ios":"levelo://app?vid=d9f26a3a-6ecb-49b8-b29e-ece4a2fb518e"},"vehicle_type_id":"4","last_reported":1745565008,"current_range_meters":21600,"station_id":"ce4bgqh2rcd13ifvqc5g","pricing_plan_id":"cebpf4jnsgd1na2vs0mg"},{"bike_id":"6c461439-2ca4-43d3-b2c8-15e666c2952c","system_id":"levelo_inurba_marseille","lat":43.30947,"lon":5.39029,"is_reserved":false,"is_disabled":false,"rental_uris":{"android":"levelo://app?vid=6c461439-2ca4-43d3-b2c8-15e666c2952c","ios":"levelo://app?vid=6c461439-2ca4-43d3-b2c8-15e666c2952c"},"vehicle_type_id":"4","last_reported":1745565008,"current_range_meters":21600,"station_id":"ce4bgup2rcd13ifvqco0","pricing_plan_id":"cebpf4jnsgd1na2vs0mg"},{"bike_id":"b1f6ff0d-3cb8-4133-80c3-37d47c62ead2","system_id":"levelo_inurba_marseille","lat":43.24068,"lon":5.37761,"is_reserved":false,"is_disabled":false,"rental_uris":{"android":"levelo://app?vid=b1f6ff0d-3cb8-4133-80c3-37d47c62ead2","ios":"levelo://app?vid=b1f6ff0d-3cb8-4133-80c3-37d47c62ead2"},"vehicle_type_id":"4","last_reported":1745565008,"current_range_meters":21600,"station_id":"ce4bhnp2rcd13ifvqgvg","pricing_plan_id":"cebpf4jnsgd1na2vs0mg"},{"bike_id":"752cd4f5-cacc-4330-807a-97d77d1ea089","system_id":"levelo_inurba_marseille","lat":43.25935,"lon":5.40906,"is_reserved":false,"is_disabled":false,"rental_uris":{"android":"levelo://app?vid=752cd4f5-cacc-4330-807a-97d77d1ea089","ios":"levelo://app?vid=752cd4f5-cacc-4330-807a-97d77d1ea089"},"vehicle_type_id":"4","last_reported":1745565008,"current_range_meters":21600,"station_id":"ce4bhm92rcd13ifvqglg","pricing_plan_id":"cebpf4jnsgd1na2vs0mg"},{"bike_id":"74b00b9d-8b2f-4f3a-b466-6eb97f96e40c","system_id":"levelo_inurba_marseille","lat":43.31999,"lon":5.381481,"is_reserved":false,"is_disabled":false,"rental_uris":{"android":"levelo://app?vid=74b00b9d-8b2f-4f3a-b466-6eb97f96e40c","ios":"levelo://app?vid=74b00b9d-8b2f-4f3a-b466-6eb97f96e40c"},"vehicle_type_id":"4","last_reported":1745565008,"current_range_meters":21600,"station_id":"","pricing_plan_id":"cebpf4jnsgd1na2vs0mg"},{"bike_id":"4fcaad10-b1cc-4c89-83d8-07325b88a247","system_id":"levelo_inurba_marseille","lat":43.30921,"lon":5.41218,"is_reserved":false,"is_disabled":false,"rental_uris":{"android":"levelo://app?vid=4fcaad10-b1cc-4c89-83d8-07325b88a247","ios":"levelo://app?vid=4fcaad10-b1cc-4c89-83d8-07325b88a247"},"vehicle_type_id":"4","last_reported":1745565008,"current_range_meters":21600,"station_id":"","pricing_plan_id":"cebpf4jnsgd1na2vs0mg"},{"bike_id":"093b76fe-a8a3-4abe-9200-0860d186ff0c","system_id":"levelo_inurba_marseille","lat":43.27214,"lon":5.39181,"is_reserved":false,"is_disabled":false,"rental_uris":{"android":"levelo://app?vid=093b76fe-a8a3-4abe-9200-0860d186ff0c","ios":"levelo://app?vid=093b76fe-a8a3-4abe-9200-0860d186ff0c"},"vehicle_type_id":"4","last_reported":1745565008,"current_range_meters":21600,"station_id":"ce4bhhp2rcd13ifvqfm0","pricing_plan_id":"cebpf4jnsgd1na2vs0mg"},{"bike_id":"a9e60031-e8ec-4a62-9857-7736e518fcf7","system_id":"levelo_inurba_marseille","lat":43.30539,"lon":5.36536,"is_reserved":false,"is_disabled":false,"rental_uris":{"android":"levelo://app?vid=a9e60031-e8ec-4a62-9857-7736e518fcf7","ios":"levelo://app?vid=a9e60031-e8ec-4a62-9857-7736e518fcf7"},"vehicle_type_id":"4","last_reported":1745565008,"current_range_meters":21600,"station_id":"ce4bgs12rcd13ifvqcag","pricing_plan_id":"cebpf4jnsgd1na2vs0mg"},{"bike_id":"05f1a43c-6202-41be-950c-cc0f3f74ff33","system_id":"levelo_inurba_marseille","lat":43.25866,"lon":5.39897,"is_reserved":false,"is_disabled":false,"rental_uris":{"android":"levelo://app?vid=05f1a43c-6202-41be-950c-cc0f3f74ff33","ios":"levelo://app?vid=05f1a43c-6202-41be-950c-cc0f3f74ff33"},"vehicle_type_id":"4","last_reported":1745565008,"current_range_meters":21600,"station_id":"ce4bhl92rcd13ifvqghg","pricing_plan_id":"cebpf4jnsgd1na2vs0mg"},{"bike_id":"a097252c-e84e-41ab-8359-8e436027f871","system_id":"levelo_inurba_marseille","lat":43.31227,"lon":5.36869,"is_reserved":false,"is_disabled":false,"rental_uris":{"android":"levelo://app?vid=a097252c-e84e-41ab-8359-8e436027f871","ios":"levelo://app?vid=a097252c-e84e-41ab-8359-8e436027f871"},"vehicle_type_id":"4","last_reported":1745565008,"current_range_meters":22000,"station_id":"ce4bgl92rcd13ifvqbq0","pricing_plan_id":"cebpf4jnsgd1na2vs0mg"},{"bike_id":"b11269c9-accb-40d5-ba6e-a85e88e6b4a2","system_id":"levelo_inurba_marseille","lat":43.28607,"lon":5.35103,"is_reserved":false,"is_disabled":false,"rental_uris":{"android":"levelo://app?vid=b11269c9-accb-40d5-ba6e-a85e88e6b4a2","ios":"levelo://app?vid=b11269c9-accb-40d5-ba6e-a85e88e6b4a2"},"vehicle_type_id":"4","last_reported":1745565008,"current_range_meters":22000,"station_id":"ce4bhch2rcd13ifvqeug","pricing_plan_id":"cebpf4jnsgd1na2vs0mg"},{"bike_id":"0ba6b97f-7600-4f0a-9781-84cdb028c126","system_id":"levelo_inurba_marseille","lat":43.27497,"lon":5.42458,"is_reserved":false,"is_disabled":false,"rental_uris":{"android":"levelo://app?vid=0ba6b97f-7600-4f0a-9781-84cdb028c126","ios":"levelo://app?vid=0ba6b97f-7600-4f0a-9781-84cdb028c126"},"vehicle_type_id":"4","last_reported":1745565008,"current_range_meters":22000,"station_id":"ce4bhn92rcd13ifvqgrg","pricing_plan_id":"cebpf4jnsgd1na2vs0mg"},{"bike_id":"c906612a-dab4-4bb4-b31a-a4aebfd1cc1d","system_id":"levelo_inurba_marseille","lat":43.299245,"lon":5.37434,"is_reserved":false,"is_disabled":true,"rental_uris":{"android":"levelo://app?vid=c906612a-dab4-4bb4-b31a-a4aebfd1cc1d","ios":"levelo://app?vid=c906612a-dab4-4bb4-b31a-a4aebfd1cc1d"},"vehicle_type_id":"4","last_reported":1745565008,"current_range_meters":22400,"station_id":"ce4bgr92rcd13ifvqc6g","pricing_plan_id":"cebpf4jnsgd1na2vs0mg"},{"bike_id":"426ab563-c09b-4f07-8866-840eb3307eae","system_id":"levelo_inurba_marseille","lat":43.2797,"lon":5.38722,"is_reserved":false,"is_disabled":false,"rental_uris":{"android":"levelo://app?vid=426ab563-c09b-4f07-8866-840eb3307eae","ios":"levelo://app?vid=426ab563-c09b-4f07-8866-840eb3307eae"},"vehicle_type_id":"4","last_reported":1745565008,"current_range_meters":22400,"station_id":"ce4bhg12rcd13ifvqf80","pricing_plan_id":"cebpf4jnsgd1na2vs0mg"},{"bike_id":"f2cd8a94-949a-477e-8c71-0c1042cc6dad","system_id":"levelo_inurba_marseille","lat":43.30909,"lon":5.3685,"is_reserved":false,"is_disabled":false,"rental_uris":{"android":"levelo://app?vid=f2cd8a94-949a-477e-8c71-0c1042cc6dad","ios":"levelo://app?vid=f2cd8a94-949a-477e-8c71-0c1042cc6dad"},"vehicle_type_id":"4","last_reported":1745565008,"current_range_meters":22400,"station_id":"ce4bgn92rcd13ifvqbvg","pricing_plan_id":"cebpf4jnsgd1na2vs0mg"},{"bike_id":"7e1d9c86-7c38-4849-95e4-11c3469d44f9","system_id":"levelo_inurba_marseille","lat":43.30954,"lon":5.39037,"is_reserved":false,"is_disabled":false,"rental_uris":{"android":"levelo://app?vid=7e1d9c86-7c38-4849-95e4-11c3469d44f9","ios":"levelo://app?vid=7e1d9c86-7c38-4849-95e4-11c3469d44f9"},"vehicle_type_id":"4","last_reported":1745565008,"current_range_meters":22400,"station_id":"ce4bgup2rcd13ifvqco0","pricing_plan_id":"cebpf4jnsgd1na2vs0mg"},{"bike_id":"a7949aa8-167b-4211-8d84-c80178b4d299","system_id":"levelo_inurba_marseille","lat":43.30426,"lon":5.388853,"is_reserved":false,"is_disabled":false,"rental_uris":{"android":"levelo://app?vid=a7949aa8-167b-4211-8d84-c80178b4d299","ios":"levelo://app?vid=a7949aa8-167b-4211-8d84-c80178b4d299"},"vehicle_type_id":"4","last_reported":1745565008,"current_range_meters":22000,"station_id":"ce4bhi12rcd13ifvqfp0","pricing_plan_id":"cebpf4jnsgd1na2vs0mg"},