{"last_updated":1753096168,"ttl":60,"version":"2.2","data":{"bikes":[{"bike_id":"53b742a7-31ae-4272-9bba-7740339e2a2f","system_id":"levelo_inurba_marseille","lat":43.33747,"lon":5.37463,"is_reserved":false,"is_disabled":false,"rental_uris":{"android":"levelo://app?vid=53b742a7-31ae-4272-9bba-7740339e2a2f","ios":"levelo://app?vid=53b742a7-31ae-4272-9bba-7740339e2a2f"},"vehicle_type_id":"1","last_reported":1753096168,"current_range_meters":6800,"station_id":"","pricing_plan_id":"cebpf4jnsgd1na2vs0mg"},{"bike_id":"bb1cd7a1-464c-4c8c-b894-6306d52075e4","system_id":"levelo_inurba_marseille","lat":43.34992,"lon":5.35145,"is_reserved":false,"is_disabled":false,"rental_uris":{"android":"levelo://app?vid=bb1cd7a1-464c-4c8c-b894-6306d52075e4","ios":"levelo://app?vid=bb1cd7a1-464c-4c8c-b894-6306d52075e4"},"vehicle_type_id":"4","last_reported":1753096168,"current_range_meters":2800,"station_id":"","pricing_plan_id":"cebpf4jnsgd1na2vs0mg"},{"bike_id":"06fcaf41-a3b3-4096-a515-28545e82af83","system_id":"levelo_inurba_marseille","lat":43.225053,"lon":5.347877,"is_reserved":false,"is_disabled":false,"rental_uris":{"android":"levelo://app?vid=06fcaf41-a3b3-4096-a515-28545e82af83","ios":"levelo://app?vid=06fcaf41-a3b3-4096-a515-28545e82af83"},"vehicle_type_id":"4","last_reported":1753096168,"current_range_meters":2800,"station_id":"st_cvj5dfep6f1abm77gieg","pricing_plan_id":"cebpf4jnsgd1na2vs0mg"},{"bike_id":"2d5426b7-c5ef-4761-9a4a-28e19dac621a","system_id":"levelo_inurba_marseille","lat":43.3041,"lon":5.41278,"is_reserved":false,"is_disabled":true,"rental_uris":{"android":"levelo://app?vid=2d5426b7-c5ef-4761-9a4a-28e19dac621a","ios":"levelo://app?vid=2d5426b7-c5ef-4761-9a4a-28e19dac621a"},"vehicle_type_id":"4","last_reported":1753096168,"current_range_meters":2800,"station_id":"ce4bhop2rcd13ifvqh8g","pricing_plan_id":"cebpf4jnsgd1na2vs0mg"},{"bike_id":"415ff839-3eb5-42b6-8141-99c745448c01","system_id":"levelo_inurba_marseille","lat":43.26568,"lon":5.3868,"is_reserved":false,"is_disabled":true,"rental_uris":{"android":"levelo://app?vid=415ff839-3eb5-42b6-8141-99c745448c01","ios":"levelo://app?vid=415ff839-3eb5-42b6-8141-99c745448c01"},"vehicle_type_id":"4","last_reported":1753096168,"current_range_meters":2800,"station_id":"","pricing_plan_id":"cebpf4jnsgd1na2vs0mg"},{"bike_id":"433415c1-acea-4306-b3ad-c55437db8988","system_id":"levelo_inurba_marseille","lat":43.29497,"lon":5.38194,"is_reserved":false,"is_disabled":false,"rental_uris":{"android":"levelo://app?vid=433415c1-acea-4306-b3ad-c55437db8988","ios":"levelo://app?vid=433415c1-acea-4306-b3ad-c55437db8988"},"vehicle_type_id":"4","last_reported":1753096168,"current_range_meters":3200,"station_id":"","pricing_plan_id":"cebpf4jnsgd1na2vs0mg"},{"bike_id":"ac141403-2eff-454e-8bd1-3d400d40ed2b","system_id":"levelo_inurba_marseille","lat":43.331131,"lon":5.400024,"is_reserved":false,"is_disabled":false,"rental_uris":{"android":"levelo://app?vid=ac141403-2eff-454e-8bd1-3d400d40ed2b","ios":"levelo://app?vid=ac141403-2eff-454e-8bd1-3d400d40ed2b"},"vehicle_type_id":"4","last_reported":1753096168,"current_range_meters":4000,"station_id":"","pricing_plan_id":"cebpf4jnsgd1na2vs0mg"},{"bike_id":"192c0fa5-c826-4847-bdd0-11edb7180ff9","system_id":"levelo_inurba_marseille","lat":43.30655,"lon":5.40067,"is_reserved":false,"is_disabled":true,"rental_uris":{"android":"levelo://app?vid=192c0fa5-c826-4847-bdd0-11edb7180ff9","ios":"levelo://app?vid=192c0fa5-c826-4847-bdd0-11edb7180ff9"},"vehicle_type_id":"4","last_reported":1753096168,"current_range_meters":4000,"station_id":"ce4bh112rcd13ifvqda0","pricing_plan_id":"cebpf4jnsgd1na2vs0mg"},{"bike_id":"aa060a46-926b-42cd-9c04-3f263c91a19f","system_id":"levelo_inurba_marseille","lat":43.225065,"lon":5.347849,"is_reserved":false,"is_disabled":false,"rental_uris":{"android":"levelo://app?vid=aa060a46-926b-42cd-9c04-3f263c91a19f","ios":"levelo://app?vid=aa060a46-926b-42cd-9c04-3f263c91a19f"},"vehicle_type_id":"4","last_reported":1753096168,"current_range_meters":4400,"station_id":"st_cvj5dfep6f1abm77gieg","pricing_plan_id":"cebpf4jnsgd1na2vs0mg"},{"bike_id":"a97429f0-ae42-4e21-aae2-35ef2a8535b2","system_id":"levelo_inurba_marseille","lat":43.23966,"lon":5.36633,"is_reserved":false,"is_disabled":false,"rental_uris":{"android":"levelo://app?vid=a97429f0-ae42-4e21-aae2-35ef2a8535b2","ios":"levelo://app?vid=a97429f0-ae42-4e21-aae2-35ef2a8535b2"},"vehicle_type_id":"4","last_reported":1753096168,"current_range_meters":6000,"station_id":"ce4bhi12rcd13ifvqfp0","pricing_plan_id":"cebpf4jnsgd1na2vs0mg"},{"bike_id":"0fd02cf6-67fb-4589-807f-241dd50b7e1a","system_id":"levelo_inurba_marseille","lat":43.29906,"lon":5.43647,"is_reserved":false,"is_disabled":true,"rental_uris":{"android":"levelo://app?vid=0fd02cf6-67fb-4589-807f-241dd50b7e1a","ios":"levelo://app?vid=0fd02cf6-67fb-4589-807f-241dd50b7e1a"},"vehicle_type_id":"4","last_reported":1753096168,"current_range_meters":6400,"station_id":"ce4bhpp2rcd13ifvqhfg","pricing_plan_id":"cebpf4jnsgd1na2vs0mg"},{"bike_id":"902978e3-a7ab-4bf5-b109-2dc084248175","system_id":"levelo_inurba_marseille","lat":43.30885,"lon":5.39671,"is_reserved":false,"is_disabled":false,"rental_uris":{"android":"levelo://app?vid=902978e3-a7ab-4bf5-b109-2dc084248175","ios":"levelo://app?vid=902978e3-a7ab-4bf5-b109-2dc084248175"},"vehicle_type_id":"4","last_reported":1753096168,"current_range_meters":6000,"station_id":"ce4bh012rcd13ifvqcv0","pricing_plan_id":"cebpf4jnsgd1na2vs0mg"},{"bike_id":"d1579d47-a546-45b8-92ae-07431d57ddcc","system_id":"levelo_inurba_marseille","lat":43.26682,"lon":5.38267,"is_reserved":false,"is_disabled":false,"rental_uris":{"android":"levelo://app?vid=d1579d47-a546-45b8-92ae-07431d57ddcc","ios":"levelo://app?vid=d1579d47-a546-45b8-92ae-07431d57ddcc"},"vehicle_type_id":"4","last_reported":1753096168,"current_range_meters":6800,"station_id":"ce4bhg92rcd13ifvqf90","pricing_plan_id":"cebpf4jnsgd1na2vs0mg"},{"bike_id":"ed415a14-b4b4-4caf-8a06-7fd1c907bac5","system_id":"levelo_inurba_marseille","lat":43.21512,"lon":5.34638,"is_reserved":false,"is_disabled":false,"rental_uris":{"android":"levelo://app?vid=ed415a14-b4b4-4caf-8a06-7fd1c907bac5","ios":"levelo://app?vid=ed415a14-b4b4-4caf-8a06-7fd1c907bac5"},"vehicle_type_id":"4","last_reported":1753096168,"current_range_meters":7200,"station_id":"","pricing_plan_id":"cebpf4jnsgd1na2vs0mg"},{"bike_id":"30b54822-6535-46da-936a-1525fad94512","system_id":"levelo_inurba_marseille","lat":43.3033,"lon":5.40439,"is_reserved":false,"is_disabled":false,"rental_uris":{"android":"levelo://app?vid=30b54822-6535-46da-936a-1525fad94512","ios":"levelo://app?vid=30b54822-6535-46da-936a-1525fad94512"},"vehicle_type_id":"4","last_reported":1753096168,"current_range_meters":6800,"station_id":"ce4bh012rcd13ifvqd10","pricing_plan_id":"cebpf4jnsgd1na2vs0mg"},{"bike_id":"a6de290b-5c15-427b-bc37-8301607e1735","system_id":"levelo_inurba_marseille","lat":43.337444,"lon":5.374475,"is_reserved":false,"is_disabled":false,"rental_uris":{"android":"levelo://app?vid=a6de290b-5c15-427b-bc37-8301607e1735","ios":"levelo://app?vid=a6de290b-5c15-427b-bc37-8301607e1735"},"vehicle_type_id":"4","last_reported":1753096168,"current_range_meters":8000,"station_id":"","pricing_plan_id":"cebpf4jnsgd1na2vs0mg"},{"bike_id":"6834b706-a618-40f6-8722-8e5e5439ff2c","system_id":"levelo_inurba_marseille","lat":43.217494,"lon":5.34598,"is_reserved":false,"is_disabled":false,"rental_uris":{"android":"levelo://app?vid=6834b706-a618-40f6-8722-8e5e5439ff2c","ios":"levelo://app?vid=6834b706-a618-40f6-8722-8e5e5439ff2c"},"vehicle_type_id":"4","last_reported":1753096168,"current_range_meters":8400,"station_id":"st_cvj6r9ubvosntc0bgbag","pricing_plan_id":"cebpf4jnsgd1na2vs0mg"},{"bike_id":"f18952d9-de72-4b00-ac50-ca46d1bc16b9","system_id":"levelo_inurba_marseille","lat":43.21192,"lon":5.3508,"is_reserved":false,"is_disabled":false,"rental_uris":{"android":"levelo://app?vid=f18952d9-de72-4b00-ac50-ca46d1bc16b9","ios":"levelo://app?vid=f18952d9-de72-4b00-ac50-ca46d1bc16b9"},"vehicle_type_id":"4","last_reported":1753096168,"current_range_meters":8400,"station_id":"st_cvj6sg6p6f1abm77japg","pricing_plan_id":"cebpf4jnsgd1na2vs0mg"},{"bike_id":"b61e484e-5dc3-4642-8ecc-03b5bb163029","system_id":"levelo_inurba_marseille","lat":43.27206,"lon":5.39181,"is_reserved":false,"is_disabled":false,"rental_uris":{"android":"levelo://app?vid=b61e484e-5dc3-4642-8ecc-03b5bb163029","ios":"levelo://app?vid=b61e484e-5dc3-4642-8ecc-03b5bb163029"},"vehicle_type_id":"4","last_reported":1753096168,"current_range_meters":8800,"station_id":"ce4bhhp2rcd13ifvqfm0","pricing_plan_id":"cebpf4jnsgd1na2vs0mg"},{"bike_id":"ec56498c-7315-46d2-8779-4f1d12c61dba","system_id":"levelo_inurba_marseille","lat":43.26732,"lon":5.37815,"is_reserved":false,"is_disabled":false,"rental_uris":{"android":"levelo://app?vid=ec56498c-7315-46d2-8779-4f1d12c61dba","ios":"levelo://app?vid=ec56498c-7315-46d2-8779-4f1d12c61dba"},"vehicle_type_id":"4","last_reported":1753096168,"current_range_meters":8800,"station_id":"","pricing_plan_id":"cebpf4jnsgd1na2vs0mg"},{"bike_id":"e4b35d68-ab9d-4d91-b883-4d6572ae325e","system_id":"levelo_inurba_marseille","lat":43.27951,"lon":5.38723,"is_reserved":false,"is_disabled":false,"rental_uris":{"android":"levelo://app?vid=e4b35d68-ab9d-4d91-b883-4d6572ae325e","ios":"levelo://app?vid=e4b35d68-ab9d-4d91-b883-4d6572ae325e"},"vehicle_type_id":"4","last_reported":1753096168,"current_range_meters":8800,"station_id":"ce4bhg12rcd13ifvqf80","pricing_plan_id":"cebpf4jnsgd1na2vs0mg"},{"bike_id":"f01f51fe-3fd3-45c0-815a-05ac1844b0e1","system_id":"levelo_inurba_marseille","lat":43.31407,"lon":5.37407,"is_reserved":false,"is_disabled":false,"rental_uris":{"android":"levelo://app?vid=f01f51fe-3fd3-45c0-815a-05ac1844b0e1","ios":"levelo://app?vid=f01f51fe-3fd3-45c0-815a-05ac1844b0e1"},"vehicle_type_id":"4","last_reported":1753096168,"current_range_meters":8400,"station_id":"ce4bgt12rcd13ifvqcd0","pricing_plan_id":"cebpf4jnsgd1na2vs0mg"},{"bike_id":"54c62cfd-190d-4a0a-99a0-7a5cc5804e08","system_id":"levelo_inurba_marseille","lat":43.2119,"lon":5.35081,"is_reserved":false,"is_disabled":false,"rental_uris":{"android":"levelo://app?vid=54c62cfd-190d-4a0a-99a0-7a5cc5804e08","ios":"levelo://app?vid=54c62cfd-190d-4a0a-99a0-7a5cc5804e08"},"vehicle_type_id":"4","last_reported":1753096168,"current_range_meters":9200,"station_id":"st_cvj6sg6p6f1abm77japg","pricing_plan_id":"cebpf4jnsgd1na2vs0mg"},{"bike_id":"9036d315-4723-4cdd-9f68-856fe767f9c3","system_id":"levelo_inurba_marseille","lat":43.331585,"lon":5.381676,"is_reserved":false,"is_disabled":false,"rental_uris":{"android":"levelo://app?vid=9036d315-4723-4cdd-9f68-856fe767f9c3","ios":"levelo://app?vid=9036d315-4723-4cdd-9f68-856fe767f9c3"},"vehicle_type_id":"4","last_reported":1753096168,"current_range_meters":9200,"station_id":"","pricing_plan_id":"cebpf4jnsgd1na2vs0mg"},{"bike_id":"664c12fb-93ff-46ac-b07e-343c27474980","system_id":"levelo_inurba_marseille","lat":43.27955,"lon":5.41056,"is_reserved":false,"is_disabled":false,"rental_uris":{"android":"levelo://app?vid=664c12fb-93ff-46ac-b07e-343c27474980","ios":"levelo://app?vid=664c12fb-93ff-46ac-b07e-343c27474980"},"vehicle_type_id":"4","last_reported":1753096168,"current_range_meters":9200,"station_id":"ce4bhnp2rcd13ifvqh0g","pricing_plan_id":"cebpf4jnsgd1na2vs0mg"},{"bike_id":"bb8c520b-f808-48d5-8c63-7c29e31a970d","system_id":"levelo_inurba_marseille","lat":43.217485,"lon":5.345973,"is_reserved":false,"is_disabled":false,"rental_uris":{"android":"levelo://app?vid=bb8c520b-f808-48d5-8c63-7c29e31a970d","ios":"levelo://app?vid=bb8c520b-f808-48d5-8c63-7c29e31a970d"},"vehicle_type_id":"4","last_reported":1753096168,"current_range_meters":9600,"station_id":"st_cvj6r9ubvosntc0bgbag","pricing_plan_id":"cebpf4jnsgd1na2vs0mg"},{"bike_id":"1496df81-fae7-4b78-abbc-e4b3fbfa4e20","system_id":"levelo_inurba_marseille","lat":43.31123,"lon":5.37778,"is_reserved":false,"is_disabled":false,"rental_uris":{"android":"levelo://app?vid=1496df81-fae7-4b78-abbc-e4b3fbfa4e20","ios":"levelo://app?vid=1496df81-fae7-4b78-abbc-e4b3fbfa4e20"},"vehicle_type_id":"4","last_reported":1753096168,"current_range_meters":9600,"station_id":"ce4bgt92rcd13ifvqcg0","pricing_plan_id":"cebpf4jnsgd1na2vs0mg"},{"bike_id":"b9d2f6b1-2316-4e08-a5d8-0d15d3bb3c6d","system_id":"levelo_inurba_marseille","lat":43.27433,"lon":5.38774,"is_reserved":false,"is_disabled":true,"rental_uris":{"android":"levelo://app?vid=b9d2f6b1-2316-4e08-a5d8-0d15d3bb3c6d","ios":"levelo://app?vid=b9d2f6b1-2316-4e08-a5d8-0d15d3bb3c6d"},"vehicle_type_id":"4","last_reported":1753096168,"current_range_meters":9600,"station_id":"","pricing_plan_id":"cebpf4jnsgd1na2vs0mg"},{"bike_id":"736c363b-3641-43dd-b890-bd43d8fd5283","system_id":"levelo_inurba_marseille","lat":43.22334,"lon":5.34604,"is_reserved":false,"is_disabled":false,"rental_uris":{"android":"levelo://app?vid=736c363b-3641-43dd-b890-bd43d8fd5283","ios":"levelo://app?vid=736c363b-3641-43dd-b890-bd43d8fd5283"},"vehicle_type_id":"4","last_reported":1753096168,"current_range_meters":12000,"station_id":"","pricing_plan_id":"cebpf4jnsgd1na2vs0mg"},{"bike_id":"93954e2a-10c9-4cb5-ad9e-77fcda68a18a","system_id":"levelo_inurba_marseille","lat":43.28485,"lon":5.38422,"is_reserved":false,"is_disabled":false,"rental_uris":{"android":"levelo://app?vid=93954e2a-10c9-4cb5-ad9e-77fcda68a18a","ios":"levelo://app?vid=93954e2a-10c9-4cb5-ad9e-77fcda68a18a"},"vehicle_type_id":"4","last_reported":1753096168,"current_range_meters":10000,"station_id":"ce4bh512rcd13ifvqe3g","pricing_plan_id":"cebpf4jnsgd1na2vs0mg"},{"bike_id":"52a09432-883f-465b-b54f-746e87888ccf","system_id":"levelo_inurba_marseille","lat":43.32484,"lon":5.36591,"is_reserved":false,"is_disabled":false,"rental_uris":{"android":"levelo://app?vid=52a09432-883f-465b-b54f-746e87888ccf","ios":"levelo://app?vid=52a09432-883f-465b-b54f-746e87888ccf"},"vehicle_type_id":"4","last_reported":1753096168,"current_range_meters":10000,"station_id":"ce4bhs12rcd13ifvqhvg","pricing_plan_id":"cebpf4jnsgd1na2vs0mg"},{"bike_id":"cfd7c1d9-7bcd-4971-afe4-64d706646a62","system_id":"levelo_inurba_marseille","lat":43.32361,"lon":5.36776,"is_reserved":false,"is_disabled":false,"rental_uris":{"android":"levelo://app?vid=cfd7c1d9-7bcd-4971-afe4-64d706646a62","ios":"levelo://app?vid=cfd7c1d9-7bcd-4971-afe4-64d706646a62"},"vehicle_type_id":"4","last_reported":1753096168,"current_range_meters":10000,"station_id":"ce4bhsh2rcd13ifvqi2g","pricing_plan_id":"cebpf4jnsgd1na2vs0mg"},{"bike_id":"6fc7e7f7-b587-4cc0-a408-641893c372a0","system_id":"levelo_inurba_marseille","lat":43.31491,"lon":5.37316,"is_reserved":false,"is_disabled":false,"rental_uris":{"android":"levelo://app?vid=6fc7e7f7-b587-4cc0-a408-641893c372a0","ios":"levelo://app?vid=6fc7e7f7-b587-4cc0-a408-641893c372a0"},"vehicle_type_id":"4","last_reported":1753096168,"current_range_meters":10000,"station_id":"ce4bgt12rcd13ifvqcd0","pricing_plan_id":"cebpf4jnsgd1na2vs0mg"},{"bike_id":"696c5e5f-ee49-4cdd-b0d3-ceab6c87d298","system_id":"levelo_inurba_marseille","lat":43.32103,"lon":5.36806,"is_reserved":false,"is_disabled":false,"rental_uris":{"android":"levelo://app?vid=696c5e5f-ee49-4cdd-b0d3-ceab6c87d298","ios":"levelo://app?vid=696c5e5f-ee49-4cdd-b0d3-ceab6c87d298"},"vehicle_type_id":"4","last_reported":1753096168,"current_range_meters":10800,"station_id":"ce4bhrh2rcd13ifvqhug","pricing_plan_id":"cebpf4jnsgd1na2vs0mg"},{"bike_id":"789b9520-5f57-461a-bab9-66d18b8b0d29","system_id":"levelo_inurba_marseille","lat":43.28726,"lon":5.36094,"is_reserved":false,"is_disabled":false,"rental_uris":{"android":"levelo://app?vid=789b9520-5f57-461a-bab9-66d18b8b0d29","ios":"levelo://app?vid=789b9520-5f57-461a-bab9-66d18b8b0d29"},"vehicle_type_id":"4","last_reported":1753096168,"current_range_meters":10800,"station_id":"cki0cbj6b192h4jlfktg","pricing_plan_id":"cebpf4jnsgd1na2vs0mg"},{"bike_id":"8b70e333-db95-4dad-9f25-3f58617e52f2","system_id":"levelo_inurba_marseille","lat":43.29901,"lon":5.4365,"is_reserved":false,"is_disabled":false,"rental_uris":{"android":"levelo://app?vid=8b70e333-db95-4dad-9f25-3f58617e52f2","ios":"levelo://app?vid=8b70e333-db95-4dad-9f25-3f58617e52f2"},"vehicle_type_id":"4","last_reported":1753096168,"current_range_meters":10800,"station_id":"ce4bhpp2rcd13ifvqhfg","pricing_plan_id":"cebpf4jnsgd1na2vs0mg"},{"bike_id":"dee6628b-f370-478a-a4db-32c84542aee7","system_id":"levelo_inurba_marseille","lat":43.33282,"lon":5.39037,"is_reserved":false,"is_disabled":false,"rental_uris":{"android":"levelo://app?vid=dee6628b-f370-478a-a4db-32c84542aee7","ios":"levelo://app?vid=dee6628b-f370-478a-a4db-32c84542aee7"},"vehicle_type_id":"4","last_reported":1753096168,"current_range_meters":10800,"station_id":"","pricing_plan_id":"cebpf4jnsgd1na2vs0mg"},{"bike_id":"37d8cb1b-1988-4390-9e4c-4eca73c82c19","system_id":"levelo_inurba_marseille","lat":43.26221,"lon":5.37467,"is_reserved":false,"is_disabled":true,"rental_uris":{"android":"levelo://app?vid=37d8cb1b-1988-4390-9e4c-4eca73c82c19","ios":"levelo://app?vid=37d8cb1b-1988-4390-9e4c-4eca73c82c19"},"vehicle_type_id":"4","last_reported":1753096168,"current_range_meters":10800,"station_id":"ce4bhgp2rcd13ifvqfc0","pricing_plan_id":"cebpf4jnsgd1na2vs0mg"},{"bike_id":"eb240428-00e7-472b-91f5-4bf4c52fb633","system_id":"levelo_inurba_marseille","lat":43.26221,"lon":5.37935,"is_reserved":false,"is_disabled":false,"rental_uris":{"android":"levelo://app?vid=eb240428-00e7-472b-91f5-4bf4c52fb633","ios":"levelo://app?vid=eb240428-00e7-472b-91f5-4bf4c52fb633"},"vehicle_type_id":"4","last_reported":1753096168,"current_range_meters":11600,"station_id":"ce4bhjp2rcd13ifvqg90","pricing_plan_id":"cebpf4jnsgd1na2vs0mg"},{"bike_id":"53cb4f43-b1af-4efe-9f40-e0338804f4d4","system_id":"levelo_inurba_marseille","lat":43.31276,"lon":5.39033,"is_reserved":false,"is_disabled":false,"rental_uris":{"android":"levelo://app?vid=53cb4f43-b1af-4efe-9f40-e0338804f4d4","ios":"levelo://app?vid=53cb4f43-b1af-4efe-9f40-e0338804f4d4"},"vehicle_type_id":"4","last_reported":1753096168,"current_range_meters":11600,"station_id":"","pricing_plan_id":"cebpf4jnsgd1na2vs0mg"},{"bike_id":"0cb2c80a-7457-4a4a-ad92-f0361b5225d6","system_id":"levelo_inurba_marseille","lat":43.24413,"lon":5.37413,"is_reserved":false,"is_disabled":false,"rental_uris":{"android":"levelo://app?vid=0cb2c80a-7457-4a4a-ad92-f0361b5225d6","ios":"levelo://app?vid=0cb2c80a-7457-4a4a-ad92-f0361b5225d6"},"vehicle_type_id":"4","last_reported":1753096168,"current_range_meters":11600,"station_id":"","pricing_plan_id":"cebpf4jnsgd1na2vs0mg"},{"bike_id":"6210a8b6-94e9-4d26-ad11-00b7a7fc2c67","system_id":"levelo_inurba_marseille","lat":43.2722,"lon":5.39194,"is_reserved":false,"is_disabled":false,"rental_uris":{"android":"levelo://app?vid=6210a8b6-94e9-4d26-ad11-00b7a7fc2c67","ios":"levelo://app?vid=6210a8b6-94e9-4d26-ad11-00b7a7fc2c67"},"vehicle_type_id":"4","last_reported":1753096168,"current_range_meters":11600,"station_id":"ce4bhhp2rcd13ifvqfm0","pricing_plan_id":"cebpf4jnsgd1na2vs0mg"},{"bike_id":"89954574-8c17-4192-a9ff-7a3c7f4c8faa","system_id":"levelo_inurba_marseille","lat":43.28009,"lon":5.4004,"is_reserved":false,"is_disabled":false,"rental_uris":{"android":"levelo://app?vid=89954574-8c17-4192-a9ff-7a3c7f4c8faa","ios":"levelo://app?vid=89954574-8c17-4192-a9ff-7a3c7f4c8faa"},"vehicle_type_id":"4","last_reported":1753096168,"current_range_meters":11600,"station_id":"ce4bho92rcd13ifvqh4g","pricing_plan_id":"cebpf4jnsgd1na2vs0mg"},{"bike_id":"8e3deb96-c66a-40c0-abbb-7b5a89f3c232","system_id":"levelo_inurba_marseille","lat":43.24998,"lon":5.38934,"is_reserved":false,"is_disabled":false,"rental_uris":{"android":"levelo://app?vid=8e3deb96-c66a-40c0-abbb-7b5a89f3c232","ios":"levelo://app?vid=8e3deb96-c66a-40c0-abbb-7b5a89f3c232"},"vehicle_type_id":"4","last_reported":1753096168,"current_range_meters":12000,"station_id":"ce4bhgp2rcd13ifvqfd0","pricing_plan_id":"cebpf4jnsgd1na2vs0mg"},{"bike_id":"341eec4e-ddcf-4f75-95c6-ecd84ef432ec","system_id":"levelo_inurba_marseille","lat":43.229344,"lon":5.353744,"is_reserved":false,"is_disabled":false,"rental_uris":{"android":"levelo://app?vid=341eec4e-ddcf-4f75-95c6-ecd84ef432ec","ios":"levelo://app?vid=341eec4e-ddcf-4f75-95c6-ecd84ef432ec"},"vehicle_type_id":"4","last_reported":1753096168,"current_range_meters":12000,"station_id":"cpo3532slgdg3j2ikp40","pricing_plan_id":"cebpf4jnsgd1na2vs0mg"},{"bike_id":"70e8442a-d310-4d4c-bc80-3cdc2f3d202a","system_id":"levelo_inurba_marseille","lat":43.30314,"lon":5.40438,"is_reserved":false,"is_disabled":false,"rental_uris":{"android":"levelo://app?vid=70e8442a-d310-4d4c-bc80-3cdc2f3d202a","ios":"levelo://app?vid=70e8442a-d310-4d4c-bc80-3cdc2f3d202a"},"vehicle_type_id":"4","last_reported":1753096168,"current_range_meters":12000,"station_id":"ce4bh012rcd13ifvqd10","pricing_plan_id":"cebpf4jnsgd1na2vs0mg"},{"bike_id":"0b55c746-5a1d-4c2e-a8b5-dc3659c3d86e","system_id":"levelo_inurba_marseille","lat":43.30143,"lon":5.3811,"is_reserved":false,"is_disabled":true,"rental_uris":{"android":"levelo://app?vid=0b55c746-5a1d-4c2e-a8b5-dc3659c3d86e","ios":"levelo://app?vid=0b55c746-5a1d-4c2e-a8b5-dc3659c3d86e"},"vehicle_type_id":"4","last_reported":1753096168,"current_range_meters":12000,"station_id":"ce4bgjp2rcd13ifvqbh0","pricing_plan_id":"cebpf4jnsgd1na2vs0mg"},{"bike_id":"4e5823ac-9313-4e20-81da-720a18c2dac7","system_id":"levelo_inurba_marseille","lat":43.321119,"lon":5.367703,"is_reserved":false,"is_disabled":false,"rental_uris":{"android":"levelo://app?vid=4e5823ac-9313-4e20-81da-720a18c2dac7","ios":"levelo://app?vid=4e5823ac-9313-4e20-81da-720a18c2dac7"},"vehicle_type_id":"4","last_reported":1753096168,"current_range_meters":12000,"station_id":"ce4bhrh2rcd13ifvqhug","pricing_plan_id":"cebpf4jnsgd1na2vs0mg"},{"bike_id":"8d799c4b-f3a7-4db5-bdee-c5186af140f6","system_id":"levelo_inurba_marseille","lat":43.28932,"lon":5.36639,"is_reserved":false,"is_disabled":false,"rental_uris":{"android":"levelo://app?vid=8d799c4b-f3a7-4db5-bdee-c5186af140f6","ios":"levelo://app?vid=8d799c4b-f3a7-4db5-bdee-c5186af140f6"},"vehicle_type_id":"4","last_reported":1753096168,"current_range_meters":14800,"station_id":"ce4bhap2rcd13ifvqek0","pricing_plan_id":"cebpf4jnsgd1na2vs0mg"},{"bike_id":"b29e2d14-59cb-4e3a-a7d7-249c735e0321","system_id":"levelo_inurba_marseille","lat":43.24167,"lon":5.36425,"is_reserved":false,"is_disabled":false,"rental_uris":{"android":"levelo://app?vid=b29e2d14-59cb-4e3a-a7d7-249c735e0321","ios":"levelo://app?vid=b29e2d14-59cb-4e3a-a7d7-249c735e0321"},"vehicle_type_id":"4","last_reported":1753096168,"current_range_meters":12400,"station_id":"cpo36qri1sfpv3e86is0","pricing_plan_id":"cebpf4jnsgd1na2vs0mg"},{"bike_id":"3a8a7d57-e6ee-4774-8004-16c6e9b32acb","system_id":"levelo_inurba_marseille","lat":43.27065,"lon":5.40299,"is_reserved":false,"is_disabled":false,"rental_uris":{"android":"levelo://app?vid=3a8a7d57-e6ee-4774-8004-16c6e9b32acb","ios":"levelo://app?vid=3a8a7d57-e6ee-4774-8004-16c6e9b32acb"},"vehicle_type_id":"4","last_reported":1753096168,"current_range_meters":12400,"station_id":"ce4bhk92rcd13ifvqgc0","pricing_plan_id":"cebpf4jnsgd1na2vs0mg"},{"bike_id":"43e703c6-9907-49a0-ac06-2809026f4383","system_id":"levelo_inurba_marseille","lat":43.225022,"lon":5.347875,"is_reserved":false,"is_disabled":false,"rental_uris":{"android":"levelo://app?vid=43e703c6-9907-49a0-ac06-2809026f4383","ios":"levelo://app?vid=43e703c6-9907-49a0-ac06-2809026f4383"},"vehicle_type_id":"4","last_reported":1753096168,"current_range_meters":12400,"station_id":"st_cvj5dfep6f1abm77gieg","pricing_plan_id":"cebpf4jnsgd1na2vs0mg"},{"bike_id":"6801cd72-6adc-4db3-85d5-02d33178892c","system_id":"levelo_inurba_marseille","lat":43.30604,"lon":5.39361,"is_reserved":false,"is_disabled":false,"rental_uris":{"android":"levelo://app?vid=6801cd72-6adc-4db3-85d5-02d33178892c","ios":"levelo://app?vid=6801cd72-6adc-4db3-85d5-02d33178892c"},"vehicle_type_id":"4","last_reported":1753096168,"current_range_meters":12800,"station_id":"ce4bh0p2rcd13ifvqd80","pricing_plan_id":"cebpf4jnsgd1na2vs0mg"},{"bike_id":"00b859be-86f4-4715-b79c-dbd934115c47","system_id":"levelo_inurba_marseille","lat":43.24175,"lon":5.39731,"is_reserved":false,"is_disabled":false,"rental_uris":{"android":"levelo://app?vid=00b859be-86f4-4715-b79c-dbd934115c47","ios":"levelo://app?vid=00b859be-86f4-4715-b79c-dbd934115c47"},"vehicle_type_id":"4","last_reported":1753096168,"current_range_meters":12800,"station_id":"ce4bhn12rcd13ifvqgpg","pricing_plan_id":"cebpf4jnsgd1na2vs0mg"},{"bike_id":"e0b37d9a-da47-43d2-ab93-bcae7d780243","system_id":"levelo_inurba_marseille","lat":43.3044,"lon":5.38901,"is_reserved":false,"is_disabled":false,"rental_uris":{"android":"levelo://app?vid=e0b37d9a-da47-43d2-ab93-bcae7d780243","ios":"levelo://app?vid=e0b37d9a-da47-43d2-ab93-bcae7d780243"},"vehicle_type_id":"4","last_reported":1753096168,"current_range_meters":12400,"station_id":"ce4bgk12rcd13ifvqbi0","pricing_plan_id":"cebpf4jnsgd1na2vs0mg"},{"bike_id":"61544ea3-a0b6-4fb1-9f76-fa48ec8fc6a3","system_id":"levelo_inurba_marseille","lat":43.30278,"lon":5.37715,"is_reserved":false,"is_disabled":false,"rental_uris":{"android":"levelo://app?vid=61544ea3-a0b6-4fb1-9f76-fa48ec8fc6a3","ios":"levelo://app?vid=61544ea3-a0b6-4fb1-9f76-fa48ec8fc6a3"},"vehicle_type_id":"4","last_reported":1753096168,"current_range_meters":12800,"station_id":"ce4bguh2rcd13ifvqcj0","pricing_plan_id":"cebpf4jnsgd1na2vs0mg"},{"bike_id":"c8b20505-5292-4f3c-ac3b-9f4b657aea72","system_id":"levelo_inurba_marseille","lat":43.284036,"lon":5.375055,"is_reserved":false,"is_disabled":false,"rental_uris":{"android":"levelo://app?vid=c8b20505-5292-4f3c-ac3b-9f4b657aea72","ios":"levelo://app?vid=c8b20505-5292-4f3c-ac3b-9f4b657aea72"},"vehicle_type_id":"4","last_reported":1753096168,"current_range_meters":12800,"station_id":"","pricing_plan_id":"cebpf4jnsgd1na2vs0mg"},{"bike_id":"9eaff894-2116-45d5-90ed-0b6866d75b0c","system_id":"levelo_inurba_marseille","lat":43.265643,"lon":5.390421,"is_reserved":false,"is_disabled":false,"rental_uris":{"android":"levelo://app?vid=9eaff894-2116-45d5-90ed-0b6866d75b0c","ios":"levelo://app?vid=9eaff894-2116-45d5-90ed-0b6866d75b0c"},"vehicle_type_id":"4","last_reported":1753096168,"current_range_meters":12800,"station_id":"ce4bhe12rcd13ifvqf30","pricing_plan_id":"cebpf4jnsgd1na2vs0mg"},{"bike_id":"3e44de02-1092-481f-8687-ecb6d9116ce4","system_id":"levelo_inurba_marseille","lat":43.28113,"lon":5.37843,"is_reserved":false,"is_disabled":false,"rental_uris":{"android":"levelo://app?vid=3e44de02-1092-481f-8687-ecb6d9116ce4","ios":"levelo://app?vid=3e44de02-1092-481f-8687-ecb6d9116ce4"},"vehicle_type_id":"4","last_reported":1753096168,"current_range_meters":12800,"station_id":"ce4bha12rcd13ifvqee0","pricing_plan_id":"cebpf4jnsgd1na2vs0mg"},{"bike_id":"064a0862-531d-4977-ae56-d0c9f19c963e","system_id":"levelo_inurba_marseille","lat":43.24546,"lon":5.39529,"is_reserved":false,"is_disabled":false,"rental_uris":{"android":"levelo://app?vid=064a0862-531d-4977-ae56-d0c9f19c963e","ios":"levelo://app?vid=064a0862-531d-4977-ae56-d0c9f19c963e"},"vehicle_type_id":"4","last_reported":1753096168,"current_range_meters":12800,"station_id":"ce4bhlp2rcd13ifvqgjg","pricing_plan_id":"cebpf4jnsgd1na2vs0mg"},{"bike_id":"7230cb4d-8cd2-4957-9d99-c27265ab6ce1","system_id":"levelo_inurba_marseille","lat":43.29299,"lon":5.37168,"is_reserved":false,"is_disabled":false,"rental_uris":{"android":"levelo://app?vid=7230cb4d-8cd2-4957-9d99-c27265ab6ce1","ios":"levelo://app?vid=7230cb4d-8cd2-4957-9d99-c27265ab6ce1"},"vehicle_type_id":"4","last_reported":1753096168,"current_range_meters":12800,"station_id":"","pricing_plan_id":"cebpf4jnsgd1na2vs0mg"},{"bike_id":"aa596c72-11ed-47dd-9611-ea69455c5e24","system_id":"levelo_inurba_marseille","lat":43.24808,"lon":5.37457,"is_reserved":false,"is_disabled":false,"rental_uris":{"android":"levelo://app?vid=aa596c72-11ed-47dd-9611-ea69455c5e24","ios":"levelo://app?vid=aa596c72-11ed-47dd-9611-ea69455c5e24"},"vehicle_type_id":"4","last_reported":1753096168,"current_range_meters":12800,"station_id":"ce4bhgh2rcd13ifvqfb0","pricing_plan_id":"cebpf4jnsgd1na2vs0mg"},{"bike_id":"2fa3a244-63ae-4119-84be-bc9930e503bc","system_id":"levelo_inurba_marseille","lat":43.295553,"lon":5.422963,"is_reserved":false,"is_disabled":false,"rental_uris":{"android":"levelo://app?vid=2fa3a244-63ae-4119-84be-bc9930e503bc","ios":"levelo://app?vid=2fa3a244-63ae-4119-84be-bc9930e503bc"},"vehicle_type_id":"4","last_reported":1753096168,"current_range_meters":13600,"station_id":"ce4bhph2rcd13ifvqhdg","pricing_plan_id":"cebpf4jnsgd1na2vs0mg"},{"bike_id":"01ef6f38-0cb9-4831-9c9a-0f76f326e484","system_id":"levelo_inurba_marseille","lat":43.29012,"lon":5.35626,"is_reserved":false,"is_disabled":false,"rental_uris":{"android":"levelo://app?vid=01ef6f38-0cb9-4831-9c9a-0f76f326e484","ios":"levelo://app?vid=01ef6f38-0cb9-4831-9c9a-0f76f326e484"},"vehicle_type_id":"4","last_reported":1753096168,"current_range_meters":13600,"station_id":"ce4bhb92rcd13ifvqen0","pricing_plan_id":"cebpf4jnsgd1na2vs0mg"},{"bike_id":"3d36c590-bfb3-4f3d-a821-3b0275041fa7","system_id":"levelo_inurba_marseille","lat":43.3043,"lon":5.41297,"is_reserved":false,"is_disabled":false,"rental_uris":{"android":"levelo://app?vid=3d36c590-bfb3-4f3d-a821-3b0275041fa7","ios":"levelo://app?vid=3d36c590-bfb3-4f3d-a821-3b0275041fa7"},"vehicle_type_id":"4","last_reported":1753096168,"current_range_meters":13600,"station_id":"ce4bhop2rcd13ifvqh8g","pricing_plan_id":"cebpf4jnsgd1na2vs0mg"},{"bike_id":"d2a9ef2a-3ecf-454e-ac8d-c81b3a196753","system_id":"levelo_inurba_marseille","lat":43.28623,"lon":5.3822,"is_reserved":false,"is_disabled":false,"rental_uris":{"android":"levelo://app?vid=d2a9ef2a-3ecf-454e-ac8d-c81b3a196753","ios":"levelo://app?vid=d2a9ef2a-3ecf-454e-ac8d-c81b3a196753"},"vehicle_type_id":"4","last_reported":1753096168,"current_range_meters":14000,"station_id":"","pricing_plan_id":"cebpf4jnsgd1na2vs0mg"},{"bike_id":"c3108234-85f0-454a-b0a6-60fa8653d492","system_id":"levelo_inurba_marseille","lat":43.270749,"lon":5.422729,"is_reserved":false,"is_disabled":false,"rental_uris":{"android":"levelo://app?vid=c3108234-85f0-454a-b0a6-60fa8653d492","ios":"levelo://app?vid=c3108234-85f0-454a-b0a6-60fa8653d492"},"vehicle_type_id":"4","last_reported":1753096168,"current_range_meters":14000,"station_id":"ce4bhk92rcd13ifvqgb0","pricing_plan_id":"cebpf4jnsgd1na2vs0mg"},{"bike_id":"52fc553f-1e8c-4701-a604-31e90c76b1d4","system_id":"levelo_inurba_marseille","lat":43.314898,"lon":5.372725,"is_reserved":false,"is_disabled":false,"rental_uris":{"android":"levelo://app?vid=52fc553f-1e8c-4701-a604-31e90c76b1d4","ios":"levelo://app?vid=52fc553f-1e8c-4701-a604-31e90c76b1d4"},"vehicle_type_id":"4","last_reported":1753096168,"current_range_meters":14400,"station_id":"ce4bgt12rcd13ifvqcd0","pricing_plan_id":"cebpf4jnsgd1na2vs0mg"},{"bike_id":"07481afa-6635-4dc1-8a31-8a97247e4afb","system_id":"levelo_inurba_marseille","lat":43.21187,"lon":5.35073,"is_reserved":false,"is_disabled":false,"rental_uris":{"android":"levelo://app?vid=07481afa-6635-4dc1-8a31-8a97247e4afb","ios":"levelo://app?vid=07481afa-6635-4dc1-8a31-8a97247e4afb"},"vehicle_type_id":"4","last_reported":1753096168,"current_range_meters":14400,"station_id":"st_cvj6sg6p6f1abm77japg","pricing_plan_id":"cebpf4jnsgd1na2vs0mg"},{"bike_id":"4f5a4cb8-34e9-402d-97fa-986ec5e74bb1","system_id":"levelo_inurba_marseille","lat":43.26225,"lon":5.40462,"is_reserved":false,"is_disabled":false,"rental_uris":{"android":"levelo://app?vid=4f5a4cb8-34e9-402d-97fa-986ec5e74bb1","ios":"levelo://app?vid=4f5a4cb8-34e9-402d-97fa-986ec5e74bb1"},"vehicle_type_id":"4","last_reported":1753096168,"current_range_meters":14400,"station_id":"ce4bhmh2rcd13ifvqgmg","pricing_plan_id":"cebpf4jnsgd1na2vs0mg"},{"bike_id":"a25e491c-fd89-4dd4-a4f4-93622b7035df","system_id":"levelo_inurba_marseille","lat":43.21754,"lon":5.34614,"is_reserved":false,"is_disabled":false,"rental_uris":{"android":"levelo://app?vid=a25e491c-fd89-4dd4-a4f4-93622b7035df","ios":"levelo://app?vid=a25e491c-fd89-4dd4-a4f4-93622b7035df"},"vehicle_type_id":"4","last_reported":1753096168,"current_range_meters":14400,"station_id":"st_cvj6r9ubvosntc0bgbag","pricing_plan_id":"cebpf4jnsgd1na2vs0mg"},{"bike_id":"3c992048-6199-4855-9d23-7c9235e988d7","system_id":"levelo_inurba_marseille","lat":43.29628,"lon":5.40595,"is_reserved":false,"is_disabled":false,"rental_uris":{"android":"levelo://app?vid=3c992048-6199-4855-9d23-7c9235e988d7","ios":"levelo://app?vid=3c992048-6199-4855-9d23-7c9235e988d7"},"vehicle_type_id":"4","last_reported":1753096168,"current_range_meters":14000,"station_id":"ce4bh0h2rcd13ifvqd60","pricing_plan_id":"cebpf4jnsgd1na2vs0mg"},{"bike_id":"d696f5e6-bd05-479e-8bbd-8918ae707b87","system_id":"levelo_inurba_marseille","lat":43.22935,"lon":5.35381,"is_reserved":false,"is_disabled":false,"rental_uris":{"android":"levelo://app?vid=d696f5e6-bd05-479e-8bbd-8918ae707b87","ios":"levelo://app?vid=d696f5e6-bd05-479e-8bbd-8918ae707b87"},"vehicle_type_id":"4","last_reported":1753096168,"current_range_meters":14800,"station_id":"cpo3532slgdg3j2ikp40","pricing_plan_id":"cebpf4jnsgd1na2vs0mg"},{"bike_id":"598b5b0c-c9b2-4595-a913-8ee843371c15","system_id":"levelo_inurba_marseille","lat":43.292,"lon":5.37222,"is_reserved":false,"is_disabled":false,"rental_uris":{"android":"levelo://app?vid=598b5b0c-c9b2-4595-a913-8ee843371c15","ios":"levelo://app?vid=598b5b0c-c9b2-4595-a913-8ee843371c15"},"vehicle_type_id":"4","last_reported":1753096168,"current_range_meters":14800,"station_id":"ce4bha92rcd13ifvqeh0","pricing_plan_id":"cebpf4jnsgd1na2vs0mg"},{"bike_id":"ac49738a-4d4f-43d3-9c67-46980e61ae95","system_id":"levelo_inurba_marseille","lat":43.31733,"lon":5.37657,"is_reserved":false,"is_disabled":false,"rental_uris":{"android":"levelo://app?vid=ac49738a-4d4f-43d3-9c67-46980e61ae95","ios":"levelo://app?vid=ac49738a-4d4f-43d3-9c67-46980e61ae95"},"vehicle_type_id":"4","last_reported":1753096168,"current_range_meters":14800,"station_id":"","pricing_plan_id":"cebpf4jnsgd1na2vs0mg"},{"bike_id":"8ec3987c-4e5e-4f67-aba7-96e36709e826","system_id":"levelo_inurba_marseille","lat":43.3273,"lon":5.40921,"is_reserved":false,"is_disabled":false,"rental_uris":{"android":"levelo://app?vid=8ec3987c-4e5e-4f67-aba7-96e36709e826","ios":"levelo://app?vid=8ec3987c-4e5e-4f67-aba7-96e36709e826"},"vehicle_type_id":"4","last_reported":1753096168,"current_range_meters":14800,"station_id":"","pricing_plan_id":"cebpf4jnsgd1na2vs0mg"},{"bike_id":"b6bc223e-0ea6-4154-9022-eff88ae7e4a5","system_id":"levelo_inurba_marseille","lat":43.27375,"lon":5.36271,"is_reserved":false,"is_disabled":false,"rental_uris":{"android":"levelo://app?vid=b6bc223e-0ea6-4154-9022-eff88ae7e4a5","ios":"levelo://app?vid=b6bc223e-0ea6-4154-9022-eff88ae7e4a5"},"vehicle_type_id":"4","last_reported":1753096168,"current_range_meters":14800,"station_id":"ce4bhbh2rcd13ifvqeo0","pricing_plan_id":"cebpf4jnsgd1na2vs0mg"},{"bike_id":"9c838529-2f8d-4cf1-ba58-27067ac84219","system_id":"levelo_inurba_marseille","lat":43.24169,"lon":5.36413,"is_reserved":false,"is_disabled":false,"rental_uris":{"android":"levelo://app?vid=9c838529-2f8d-4cf1-ba58-27067ac84219","ios":"levelo://app?vid=9c838529-2f8d-4cf1-ba58-27067ac84219"},"vehicle_type_id":"4","last_reported":1753096168,"current_range_meters":15200,"station_id":"cpo36qri1sfpv3e86is0","pricing_plan_id":"cebpf4jnsgd1na2vs0mg"},{"bike_id":"02bda465-5730-4d42-a0d1-5ffc89217a3f","system_id":"levelo_inurba_marseille","lat":43.28258,"lon":5.35066,"is_reserved":false,"is_disabled":false,"rental_uris":{"android":"levelo://app?vid=02bda465-5730-4d42-a0d1-5ffc89217a3f","ios":"levelo://app?vid=02bda465-5730-4d42-a0d1-5ffc89217a3f"},"vehicle_type_id":"4","last_reported":1753096168,"current_range_meters":15200,"station_id":"","pricing_plan_id":"cebpf4jnsgd1na2vs0mg"},{"bike_id":"f0d8d162-6040-4d04-bf93-cf5be6be6485","system_id":"levelo_inurba_marseille","lat":43.24397,"lon":5.37063,"is_reserved":false,"is_disabled":false,"rental_uris":{"android":"levelo://app?vid=f0d8d162-6040-4d04-bf93-cf5be6be6485","ios":"levelo://app?vid=f0d8d162-6040-4d04-bf93-cf5be6be6485"},"vehicle_type_id":"4","last_reported":1753096168,"current_range_meters":15200,"station_id":"ce4bhhh2rcd13ifvqfk0","pricing_plan_id":"cebpf4jnsgd1na2vs0mg"},{"bike_id":"790e1fa5-1754-480f-8609-e2b0c097c6f5","system_id":"levelo_inurba_marseille","lat":43.21748,"lon":5.34605,"is_reserved":false,"is_disabled":false,"rental_uris":{"android":"levelo://app?vid=790e1fa5-1754-480f-8609-e2b0c097c6f5","ios":"levelo://app?vid=790e1fa5-1754-480f-8609-e2b0c097c6f5"},"vehicle_type_id":"4","last_reported":1753096168,"current_range_meters":15200,"station_id":"st_cvj6r9ubvosntc0bgbag","pricing_plan_id":"cebpf4jnsgd1na2vs0mg"},{"bike_id":"5a42e90a-94ef-4a1b-b43d-3c279f1b53e1","system_id":"levelo_inurba_marseille","lat":43.23162,"lon":5.3556,"is_reserved":false,"is_disabled":false,"rental_uris":{"android":"levelo://app?vid=5a42e90a-94ef-4a1b-b43d-3c279f1b53e1","ios":"levelo://app?vid=5a42e90a-94ef-4a1b-b43d-3c279f1b53e1"},"vehicle_type_id":"4","last_reported":1753096168,"current_range_meters":14800,"station_id":"ce4bhu92rcd13ifvqi70","pricing_plan_id":"cebpf4jnsgd1na2vs0mg"},{"bike_id":"9bed02cd-f8f7-472d-aeb1-78f3f8ad5a73","system_id":"levelo_inurba_marseille","lat":43.2439,"lon":5.37067,"is_reserved":false,"is_disabled":false,"rental_uris":{"android":"levelo://app?vid=9bed02cd-f8f7-472d-aeb1-78f3f8ad5a73","ios":"levelo://app?vid=9bed02cd-f8f7-472d-aeb1-78f3f8ad5a73"},"vehicle_type_id":"4","last_reported":1753096168,"current_range_meters":16000,"station_id":"ce4bhhh2rcd13ifvqfk0","pricing_plan_id":"cebpf4jnsgd1na2vs0mg"},{"bike_id":"b7e0d1c7-c592-40ed-8a46-5c539fa1d393","system_id":"levelo_inurba_marseille","lat":43.301342,"lon":5.398634,"is_reserved":false,"is_disabled":false,"rental_uris":{"android":"levelo://app?vid=b7e0d1c7-c592-40ed-8a46-5c539fa1d393","ios":"levelo://app?vid=b7e0d1c7-c592-40ed-8a46-5c539fa1d393"},"vehicle_type_id":"4","last_reported":1753096168,"current_range_meters":16000,"station_id":"ce4bh0h2rcd13ifvqd40","pricing_plan_id":"cebpf4jnsgd1na2vs0mg"},{"bike_id":"3117258b-a0b2-4038-960e-7505313a6719","system_id":"levelo_inurba_marseille","lat":43.32115,"lon":5.36802,"is_reserved":false,"is_disabled":false,"rental_uris":{"android":"levelo://app?vid=3117258b-a0b2-4038-960e-7505313a6719","ios":"levelo://app?vid=3117258b-a0b2-4038-960e-7505313a6719"},"vehicle_type_id":"4","last_reported":1753096168,"current_range_meters":16000,"station_id":"ce4bhrh2rcd13ifvqhug","pricing_plan_id":"cebpf4jnsgd1na2vs0mg"},{"bike_id":"c695f162-6b42-40d7-8780-ed224e75f8e8","system_id":"levelo_inurba_marseille","lat":43.22808,"lon":5.34965,"is_reserved":false,"is_disabled":false,"rental_uris":{"android":"levelo://app?vid=c695f162-6b42-40d7-8780-ed224e75f8e8","ios":"levelo://app?vid=c695f162-6b42-40d7-8780-ed224e75f8e8"},"vehicle_type_id":"4","last_reported":1753096168,"current_range_meters":16000,"station_id":"","pricing_plan_id":"cebpf4jnsgd1na2vs0mg"},{"bike_id":"223b91e9-7398-4ab4-a85c-2ec44386b0e7","system_id":"levelo_inurba_marseille","lat":43.26932,"lon":5.40262,"is_reserved":false,"is_disabled":false,"rental_uris":{"android":"levelo://app?vid=223b91e9-7398-4ab4-a85c-2ec44386b0e7","ios":"levelo://app?vid=223b91e9-7398-4ab4-a85c-2ec44386b0e7"},"vehicle_type_id":"4","last_reported":1753096168,"current_range_meters":16000,"station_id":"cjm6bp8fraef2m0cb0m0","pricing_plan_id":"cebpf4jnsgd1na2vs0mg"},{"bike_id":"ef5bec01-1508-4f8d-9a81-91129dfbdd34","system_id":"levelo_inurba_marseille","lat":43.2511,"lon":5.40333,"is_reserved":false,"is_disabled":false,"rental_uris":{"android":"levelo://app?vid=ef5bec01-1508-4f8d-9a81-91129dfbdd34","ios":"levelo://app?vid=ef5bec01-1508-4f8d-9a81-91129dfbdd34"},"vehicle_type_id":"4","last_reported":1753096168,"current_range_meters":16000,"station_id":"ce4bhlh2rcd13ifvqgig","pricing_plan_id":"cebpf4jnsgd1na2vs0mg"},{"bike_id":"42c6daca-a04f-4385-b335-d79919ebfbf3","system_id":"levelo_inurba_marseille","lat":43.32491,"lon":5.36567,"is_reserved":false,"is_disabled":false,"rental_uris":{"android":"levelo://app?vid=42c6daca-a04f-4385-b335-d79919ebfbf3","ios":"levelo://app?vid=42c6daca-a04f-4385-b335-d79919ebfbf3"},"vehicle_type_id":"4","last_reported":1753096168,"current_range_meters":16000,"station_id":"ce4bhs12rcd13ifvqhvg","pricing_plan_id":"cebpf4jnsgd1na2vs0mg"},{"bike_id":"c3901ec0-1229-4631-bcf1-238232393337","system_id":"levelo_inurba_marseille","lat":43.29672,"lon":5.37287,"is_reserved":false,"is_disabled":false,"rental_uris":{"android":"levelo://app?vid=c3901ec0-1229-4631-bcf1-238232393337","ios":"levelo://app?vid=c3901ec0-1229-4631-bcf1-238232393337"},"vehicle_type_id":"4","last_reported":1753096168,"current_range_meters":16000,"station_id":"ce4bgk12rcd13ifvqbj0","pricing_plan_id":"cebpf4jnsgd1na2vs0mg"},{"bike_id":"d778a561-0abe-4676-9dca-d85a214615cb","system_id":"levelo_inurba_marseille","lat":43.337743,"lon":5.374289,"is_reserved":false,"is_disabled":false,"rental_uris":{"android":"levelo://app?vid=d778a561-0abe-4676-9dca-d85a214615cb","ios":"levelo://app?vid=d778a561-0abe-4676-9dca-d85a214615cb"},"vehicle_type_id":"4","last_reported":1753096168,"current_range_meters":16400,"station_id":"","pricing_plan_id":"cebpf4jnsgd1na2vs0mg"},{"bike_id":"c4ddf749-008b-4a14-af16-f3a13a431402","system_id":"levelo_inurba_marseille","lat":43.21174,"lon":5.35067,"is_reserved":false,"is_disabled":false,"rental_uris":{"android":"levelo://app?vid=c4ddf749-008b-4a14-af16-f3a13a431402","ios":"levelo://app?vid=c4ddf749-008b-4a14-af16-f3a13a431402"},"vehicle_type_id":"4","last_reported":1753096168,"current_range_meters":16400,"station_id":"st_cvj6sg6p6f1abm77japg","pricing_plan_id":"cebpf4jnsgd1na2vs0mg"},{"bike_id":"ca462da6-ca56-41e9-804d-6f4c0c39de80","system_id":"levelo_inurba_marseille","lat":43.30097,"lon":5.39083,"is_reserved":false,"is_disabled":false,"rental_uris":{"android":"levelo://app?vid=ca462da6-ca56-41e9-804d-6f4c0c39de80","ios":"levelo://app?vid=ca462da6-ca56-41e9-804d-6f4c0c39de80"},"vehicle_type_id":"4","last_reported":1753096168,"current_range_meters":16000,"station_id":"ce4bh192rcd13ifvqdb0","pricing_plan_id":"cebpf4jnsgd1na2vs0mg"},{"bike_id":"6216b029-c389-4c50-a955-1332f3141f59","system_id":"levelo_inurba_marseille","lat":43.240704,"lon":5.377619,"is_reserved":false,"is_disabled":false,"rental_uris":{"android":"levelo://app?vid=6216b029-c389-4c50-a955-1332f3141f59","ios":"levelo://app?vid=6216b029-c389-4c50-a955-1332f3141f59"},"vehicle_type_id":"4","last_reported":1753096168,"current_range_meters":16400,"station_id":"ce4bhnp2rcd13ifvqgvg","pricing_plan_id":"cebpf4jnsgd1na2vs0mg"},{"bike_id":"3fb96fc8-d5fa-4cf5-a8ad-367ac5eda46c","system_id":"levelo_inurba_marseille","lat":43.325385,"lon":5.41434,"is_reserved":false,"is_disabled":false,"rental_uris":{"android":"levelo://app?vid=3fb96fc8-d5fa-4cf5-a8ad-367ac5eda46c","ios":"levelo://app?vid=3fb96fc8-d5fa-4cf5-a8ad-367ac5eda46c"},"vehicle_type_id":"4","last_reported":1753096168,"current_range_meters":16400,"station_id":"ce4bhq12rcd13ifvqhhg","pricing_plan_id":"cebpf4jnsgd1na2vs0mg"},{"bike_id":"68ad25bf-3ce4-4219-aae6-b4b4ca3df214","system_id":"levelo_inurba_marseille","lat":43.22501,"lon":5.3479,"is_reserved":false,"is_disabled":false,"rental_uris":{"android":"levelo://app?vid=68ad25bf-3ce4-4219-aae6-b4b4ca3df214","ios":"levelo://app?vid=68ad25bf-3ce4-4219-aae6-b4b4ca3df214"},"vehicle_type_id":"4","last_reported":1753096168,"current_range_meters":16400,"station_id":"st_cvj5dfep6f1abm77gieg","pricing_plan_id":"cebpf4jnsgd1na2vs0mg"},{"bike_id":"03376a65-6eba-486d-a557-af6548afe0bc","system_id":"levelo_inurba_marseille","lat":43.299,"lon":5.43674,"is_reserved":false,"is_disabled":false,"rental_uris":{"android":"levelo://app?vid=03376a65-6eba-486d-a557-af6548afe0bc","ios":"levelo://app?vid=03376a65-6eba-486d-a557-af6548afe0bc"},"vehicle_type_id":"4","last_reported":1753096168,"current_range_meters":16400,"station_id":"ce4bhpp2rcd13ifvqhfg","pricing_plan_id":"cebpf4jnsgd1na2vs0mg"},{"bike_id":"a90ebd33-c537-4456-bde8-056c87112fe8","system_id":"levelo_inurba_marseille","lat":43.30543,"lon":5.36538,"is_reserved":false,"is_disabled":false,"rental_uris":{"android":"levelo://app?vid=a90ebd33-c537-4456-bde8-056c87112fe8","ios":"levelo://app?vid=a90ebd33-c537-4456-bde8-056c87112fe8"},"vehicle_type_id":"4","last_reported":1753096168,"current_range_meters":16400,"station_id":"ce4bgs12rcd13ifvqcag","pricing_plan_id":"cebpf4jnsgd1na2vs0mg"},{"bike_id":"1d3b5022-db4c-421f-80ea-61fb5aa4793a","system_id":"levelo_inurba_marseille","lat":43.28622,"lon":5.35107,"is_reserved":false,"is_disabled":false,"rental_uris":{"android":"levelo://app?vid=1d3b5022-db4c-421f-80ea-61fb5aa4793a","ios":"levelo://app?vid=1d3b5022-db4c-421f-80ea-61fb5aa4793a"},"vehicle_type_id":"4","last_reported":1753096168,"current_range_meters":16400,"station_id":"ce4bhch2rcd13ifvqeug","pricing_plan_id":"cebpf4jnsgd1na2vs0mg"},{"bike_id":"ecdfd721-9355-47ec-bb72-adc3ee5af59a","system_id":"levelo_inurba_marseille","lat":43.27163,"lon":5.41023,"is_reserved":false,"is_disabled":false,"rental_uris":{"android":"levelo://app?vid=ecdfd721-9355-47ec-bb72-adc3ee5af59a","ios":"levelo://app?vid=ecdfd721-9355-47ec-bb72-adc3ee5af59a"},"vehicle_type_id":"4","last_reported":1753096168,"current_range_meters":16400,"station_id":"ce4bhl12rcd13ifvqgf0","pricing_plan_id":"cebpf4jnsgd1na2vs0mg"},{"bike_id":"1c22819b-ef69-41c3-af80-068c7a58af48","system_id":"levelo_inurba_marseille","lat":43.321075,"lon":5.367694,"is_reserved":false,"is_disabled":false,"rental_uris":{"android":"levelo://app?vid=1c22819b-ef69-41c3-af80-068c7a58af48","ios":"levelo://app?vid=1c22819b-ef69-41c3-af80-068c7a58af48"},"vehicle_type_id":"4","last_reported":1753096168,"current_range_meters":16400,"station_id":"ce4bhrh2rcd13ifvqhug","pricing_plan_id":"cebpf4jnsgd1na2vs0mg"},{"bike_id":"50d16da1-39af-48c8-9080-8fc1a2184959","system_id":"levelo_inurba_marseille","lat":43.21208,"lon":5.3509,"is_reserved":false,"is_disabled":false,"rental_uris":{"android":"levelo://app?vid=50d16da1-39af-48c8-9080-8fc1a2184959","ios":"levelo://app?vid=50d16da1-39af-48c8-9080-8fc1a2184959"},"vehicle_type_id":"4","last_reported":1753096168,"current_range_meters":16400,"station_id":"st_cvj6sg6p6f1abm77japg","pricing_plan_id":"cebpf4jnsgd1na2vs0mg"},{"bike_id":"fb5a6e32-c682-4cda-adaf-444f40df4093","system_id":"levelo_inurba_marseille","lat":43.30546,"lon":5.36707,"is_reserved":false,"is_disabled":false,"rental_uris":{"android":"levelo://app?vid=fb5a6e32-c682-4cda-adaf-444f40df4093","ios":"levelo://app?vid=fb5a6e32-c682-4cda-adaf-444f40df4093"},"vehicle_type_id":"4","last_reported":1753096168,"current_range_meters":16400,"station_id":"ce4bgrp2rcd13ifvqc9g","pricing_plan_id":"cebpf4jnsgd1na2vs0mg"},{"bike_id":"0be3b91f-407e-46f7-aafe-92e99442e855","system_id":"levelo_inurba_marseille","lat":43.24811,"lon":5.37436,"is_reserved":false,"is_disabled":false,"rental_uris":{"android":"levelo://app?vid=0be3b91f-407e-46f7-aafe-92e99442e855","ios":"levelo://app?vid=0be3b91f-407e-46f7-aafe-92e99442e855"},"vehicle_type_id":"4","last_reported":1753096168,"current_range_meters":16800,"station_id":"ce4bhgh2rcd13ifvqfb0","pricing_plan_id":"cebpf4jnsgd1na2vs0mg"},{"bike_id":"1d5aee7d-e6a6-410e-a6d4-4539731cae9a","system_id":"levelo_inurba_marseille","lat":43.27948,"lon":5.41049,"is_reserved":false,"is_disabled":false,"rental_uris":{"android":"levelo://app?vid=1d5aee7d-e6a6-410e-a6d4-4539731cae9a","ios":"levelo://app?vid=1d5aee7d-e6a6-410e-a6d4-4539731cae9a"},"vehicle_type_id":"4","last_reported":1753096168,"current_range_meters":16800,"station_id":"ce4bhnp2rcd13ifvqh0g","pricing_plan_id":"cebpf4jnsgd1na2vs0mg"},{"bike_id":"195b2cba-dc2e-4b05-82fe-ceb3aeb8fa93","system_id":"levelo_inurba_marseille","lat":43.29903,"lon":5.38137,"is_reserved":false,"is_disabled":false,"rental_uris":{"android":"levelo://app?vid=195b2cba-dc2e-4b05-82fe-ceb3aeb8fa93","ios":"levelo://app?vid=195b2cba-dc2e-4b05-82fe-ceb3aeb8fa93"},"vehicle_type_id":"4","last_reported":1753096168,"current_range_meters":16800,"station_id":"ce4bgj12rcd13ifvqbc0","pricing_plan_id":"cebpf4jnsgd1na2vs0mg"},{"bike_id":"219bafe5-679a-4493-a868-57b0e86f55a8","system_id":"levelo_inurba_marseille","lat":43.22932,"lon":5.35377,"is_reserved":false,"is_disabled":false,"rental_uris":{"android":"levelo://app?vid=219bafe5-679a-4493-a868-57b0e86f55a8","ios":"levelo://app?vid=219bafe5-679a-4493-a868-57b0e86f55a8"},"vehicle_type_id":"4","last_reported":1753096168,"current_range_meters":16800,"station_id":"cpo3532slgdg3j2ikp40","pricing_plan_id":"cebpf4jnsgd1na2vs0mg"},{"bike_id":"4faa3c8e-9b5a-4d55-aebc-2e52610bf132","system_id":"levelo_inurba_marseille","lat":43.32643,"lon":5.42338,"is_reserved":false,"is_disabled":false,"rental_uris":{"android":"levelo://app?vid=4faa3c8e-9b5a-4d55-aebc-2e52610bf132","ios":"levelo://app?vid=4faa3c8e-9b5a-4d55-aebc-2e52610bf132"},"vehicle_type_id":"4","last_reported":1753096168,"current_range_meters":16800,"station_id":"","pricing_plan_id":"cebpf4jnsgd1na2vs0mg"},{"bike_id":"422e25d0-3373-4aa7-b263-db31e63210d4","system_id":"levelo_inurba_marseille","lat":43.2707,"lon":5.42278,"is_reserved":false,"is_disabled":false,"rental_uris":{"android":"levelo://app?vid=422e25d0-3373-4aa7-b263-db31e63210d4","ios":"levelo://app?vid=422e25d0-3373-4aa7-b263-db31e63210d4"},"vehicle_type_id":"4","last_reported":1753096168,"current_range_meters":16800,"station_id":"ce4bhk92rcd13ifvqgb0","pricing_plan_id":"cebpf4jnsgd1na2vs0mg"},{"bike_id":"8423e589-47bf-47a8-b90f-452fc938c46b","system_id":"levelo_inurba_marseille","lat":43.323551,"lon":5.367494,"is_reserved":false,"is_disabled":false,"rental_uris":{"android":"levelo://app?vid=8423e589-47bf-47a8-b90f-452fc938c46b","ios":"levelo://app?vid=8423e589-47bf-47a8-b90f-452fc938c46b"},"vehicle_type_id":"4","last_reported":1753096168,"current_range_meters":16800,"station_id":"ce4bhsh2rcd13ifvqi2g","pricing_plan_id":"cebpf4jnsgd1na2vs0mg"},{"bike_id":"a4b30c62-9a55-43ae-9934-2ba75333fd33","system_id":"levelo_inurba_marseille","lat":43.31763,"lon":5.39018,"is_reserved":false,"is_disabled":false,"rental_uris":{"android":"levelo://app?vid=a4b30c62-9a55-43ae-9934-2ba75333fd33","ios":"levelo://app?vid=a4b30c62-9a55-43ae-9934-2ba75333fd33"},"vehicle_type_id":"4","last_reported":1753096168,"current_range_meters":14800,"station_id":"ce4bhqp2rcd13ifvqhng","pricing_plan_id":"cebpf4jnsgd1na2vs0mg"},{"bike_id":"2186268c-4641-4ea0-b060-6ccef876f2aa","system_id":"levelo_inurba_marseille","lat":43.31202,"lon":5.3684,"is_reserved":false,"is_disabled":false,"rental_uris":{"android":"levelo://app?vid=2186268c-4641-4ea0-b060-6ccef876f2aa","ios":"levelo://app?vid=2186268c-4641-4ea0-b060-6ccef876f2aa"},"vehicle_type_id":"4","last_reported":1753096168,"current_range_meters":17600,"station_id":"ce4bgl92rcd13ifvqbq0","pricing_plan_id":"cebpf4jnsgd1na2vs0mg"},{"bike_id":"85b008dd-0f9f-4205-aa28-4f549082c3e6","system_id":"levelo_inurba_marseille","lat":43.2119,"lon":5.35082,"is_reserved":false,"is_disabled":false,"rental_uris":{"android":"levelo://app?vid=85b008dd-0f9f-4205-aa28-4f549082c3e6","ios":"levelo://app?vid=85b008dd-0f9f-4205-aa28-4f549082c3e6"},"vehicle_type_id":"4","last_reported":1753096168,"current_range_meters":17200,"station_id":"st_cvj6sg6p6f1abm77japg","pricing_plan_id":"cebpf4jnsgd1na2vs0mg"},{"bike_id":"51931bf6-1eb4-445c-8f29-98888cfaefc7","system_id":"levelo_inurba_marseille","lat":43.29393,"lon":5.39859,"is_reserved":false,"is_disabled":false,"rental_uris":{"android":"levelo://app?vid=51931bf6-1eb4-445c-8f29-98888cfaefc7","ios":"levelo://app?vid=51931bf6-1eb4-445c-8f29-98888cfaefc7"},"vehicle_type_id":"4","last_reported":1753096168,"current_range_meters":17200,"station_id":"","pricing_plan_id":"cebpf4jnsgd1na2vs0mg"},{"bike_id":"a1546d1b-8fab-4af7-be21-05bbf092884c","system_id":"levelo_inurba_marseille","lat":43.28103,"lon":5.37838,"is_reserved":false,"is_disabled":false,"rental_uris":{"android":"levelo://app?vid=a1546d1b-8fab-4af7-be21-05bbf092884c","ios":"levelo://app?vid=a1546d1b-8fab-4af7-be21-05bbf092884c"},"vehicle_type_id":"4","last_reported":1753096168,"current_range_meters":17200,"station_id":"ce4bha12rcd13ifvqee0","pricing_plan_id":"cebpf4jnsgd1na2vs0mg"},{"bike_id":"70192f99-f1b3-4ab3-a4df-9f1b2d0930ed","system_id":"levelo_inurba_marseille","lat":43.297268,"lon":5.377198,"is_reserved":false,"is_disabled":false,"rental_uris":{"android":"levelo://app?vid=70192f99-f1b3-4ab3-a4df-9f1b2d0930ed","ios":"levelo://app?vid=70192f99-f1b3-4ab3-a4df-9f1b2d0930ed"},"vehicle_type_id":"4","last_reported":1753096168,"current_range_meters":17200,"station_id":"ce4bgkh2rcd13ifvqbl0","pricing_plan_id":"cebpf4jnsgd1na2vs0mg"},{"bike_id":"6ecd5a2b-6dae-44b3-a162-e5286af43d43","system_id":"levelo_inurba_marseille","lat":43.22535,"lon":5.34785,"is_reserved":false,"is_disabled":false,"rental_uris":{"android":"levelo://app?vid=6ecd5a2b-6dae-44b3-a162-e5286af43d43","ios":"levelo://app?vid=6ecd5a2b-6dae-44b3-a162-e5286af43d43"},"vehicle_type_id":"4","last_reported":1753096168,"current_range_meters":17200,"station_id":"st_cvj5dfep6f1abm77gieg","pricing_plan_id":"cebpf4jnsgd1na2vs0mg"},{"bike_id":"2d6095ea-f882-494d-a187-fa879408181e","system_id":"levelo_inurba_marseille","lat":43.25156,"lon":5.3735,"is_reserved":false,"is_disabled":false,"rental_uris":{"android":"levelo://app?vid=2d6095ea-f882-494d-a187-fa879408181e","ios":"levelo://app?vid=2d6095ea-f882-494d-a187-fa879408181e"},"vehicle_type_id":"4","last_reported":1753096168,"current_range_meters":17200,"station_id":"","pricing_plan_id":"cebpf4jnsgd1na2vs0mg"},{"bike_id":"654c71a8-a635-4849-bc39-2ecd647d8f8a","system_id":"levelo_inurba_marseille","lat":43.2841,"lon":5.37503,"is_reserved":false,"is_disabled":false,"rental_uris":{"android":"levelo://app?vid=654c71a8-a635-4849-bc39-2ecd647d8f8a","ios":"levelo://app?vid=654c71a8-a635-4849-bc39-2ecd647d8f8a"},"vehicle_type_id":"4","last_reported":1753096168,"current_range_meters":17600,"station_id":"ce4bh412rcd13ifvqds0","pricing_plan_id":"cebpf4jnsgd1na2vs0mg"},{"bike_id":"4e3a9934-4f1f-44fc-83db-2f3d83ae9d8d","system_id":"levelo_inurba_marseille","lat":43.28345,"lon":5.41556,"is_reserved":false,"is_disabled":true,"rental_uris":{"android":"levelo://app?vid=4e3a9934-4f1f-44fc-83db-2f3d83ae9d8d","ios":"levelo://app?vid=4e3a9934-4f1f-44fc-83db-2f3d83ae9d8d"},"vehicle_type_id":"4","last_reported":1753096168,"current_range_meters":17600,"station_id":"","pricing_plan_id":"cebpf4jnsgd1na2vs0mg"},{"bike_id":"383b9b1c-f5ef-4dd0-80b8-e2514dc6b601","system_id":"levelo_inurba_marseille","lat":43.27989,"lon":5.40012,"is_reserved":false,"is_disabled":false,"rental_uris":{"android":"levelo://app?vid=383b9b1c-f5ef-4dd0-80b8-e2514dc6b601","ios":"levelo://app?vid=383b9b1c-f5ef-4dd0-80b8-e2514dc6b601"},"vehicle_type_id":"4","last_reported":1753096168,"current_range_meters":17600,"station_id":"","pricing_plan_id":"cebpf4jnsgd1na2vs0mg"},{"bike_id":"1b7bae2b-e58b-421b-88fb-afd1c833b87b","system_id":"levelo_inurba_marseille","lat":43.2119,"lon":5.3507,"is_reserved":false,"is_disabled":false,"rental_uris":{"android":"levelo://app?vid=1b7bae2b-e58b-421b-88fb-afd1c833b87b","ios":"levelo://app?vid=1b7bae2b-e58b-421b-88fb-afd1c833b87b"},"vehicle_type_id":"4","last_reported":1753096168,"current_range_meters":17600,"station_id":"st_cvj6sg6p6f1abm77japg","pricing_plan_id":"cebpf4jnsgd1na2vs0mg"},{"bike_id":"91faf937-6768-4101-98da-411036d125c4","system_id":"levelo_inurba_marseille","lat":43.22946,"lon":5.3541,"is_reserved":false,"is_disabled":false,"rental_uris":{"android":"levelo://app?vid=91faf937-6768-4101-98da-411036d125c4","ios":"levelo://app?vid=91faf937-6768-4101-98da-411036d125c4"},"vehicle_type_id":"4","last_reported":1753096168,"current_range_meters":17600,"station_id":"cpo3532slgdg3j2ikp40","pricing_plan_id":"cebpf4jnsgd1na2vs0mg"},{"bike_id":"2c97e1fe-7458-4f1a-9817-f18804020eea","system_id":"levelo_inurba_marseille","lat":43.2694,"lon":5.38968,"is_reserved":false,"is_disabled":false,"rental_uris":{"android":"levelo://app?vid=2c97e1fe-7458-4f1a-9817-f18804020eea","ios":"levelo://app?vid=2c97e1fe-7458-4f1a-9817-f18804020eea"},"vehicle_type_id":"4","last_reported":1753096168,"current_range_meters":17600,"station_id":"ce4bhhh2rcd13ifvqfl0","pricing_plan_id":"cebpf4jnsgd1na2vs0mg"},{"bike_id":"cf9c41eb-f80c-493b-b928-bdee1491bffb","system_id":"levelo_inurba_marseille","lat":43.31479,"lon":5.37288,"is_reserved":false,"is_disabled":false,"rental_uris":{"android":"levelo://app?vid=cf9c41eb-f80c-493b-b928-bdee1491bffb","ios":"levelo://app?vid=cf9c41eb-f80c-493b-b928-bdee1491bffb"},"vehicle_type_id":"4","last_reported":1753096168,"current_range_meters":17600,"station_id":"ce4bgt12rcd13ifvqcd0","pricing_plan_id":"cebpf4jnsgd1na2vs0mg"},{"bike_id":"ccb3a2c1-5335-4346-b5bb-08cb08061e0e","system_id":"levelo_inurba_marseille","lat":43.297777,"lon":5.381044,"is_reserved":false,"is_disabled":true,"rental_uris":{"android":"levelo://app?vid=ccb3a2c1-5335-4346-b5bb-08cb08061e0e","ios":"levelo://app?vid=ccb3a2c1-5335-4346-b5bb-08cb08061e0e"},"vehicle_type_id":"4","last_reported":1753096168,"current_range_meters":17600,"station_id":"ce4bgip2rcd13ifvqbb0","pricing_plan_id":"cebpf4jnsgd1na2vs0mg"},{"bike_id":"4d2fb385-600a-460f-817d-c81c8838ad28","system_id":"levelo_inurba_marseille","lat":43.323649,"lon":5.367577,"is_reserved":false,"is_disabled":false,"rental_uris":{"android":"levelo://app?vid=4d2fb385-600a-460f-817d-c81c8838ad28","ios":"levelo://app?vid=4d2fb385-600a-460f-817d-c81c8838ad28"},"vehicle_type_id":"4","last_reported":1753096168,"current_range_meters":18000,"station_id":"ce4bhsh2rcd13ifvqi2g","pricing_plan_id":"cebpf4jnsgd1na2vs0mg"},{"bike_id":"298d7476-28c7-4c61-8302-df95a7d5d3d6","system_id":"levelo_inurba_marseille","lat":43.22511,"lon":5.34776,"is_reserved":false,"is_disabled":false,"rental_uris":{"android":"levelo://app?vid=298d7476-28c7-4c61-8302-df95a7d5d3d6","ios":"levelo://app?vid=298d7476-28c7-4c61-8302-df95a7d5d3d6"},"vehicle_type_id":"4","last_reported":1753096168,"current_range_meters":18000,"station_id":"st_cvj5dfep6f1abm77gieg","pricing_plan_id":"cebpf4jnsgd1na2vs0mg"},{"bike_id":"b6191c96-af83-462f-a3cc-e4778a781fff","system_id":"levelo_inurba_marseille","lat":43.211886,"lon":5.350635,"is_reserved":false,"is_disabled":false,"rental_uris":{"android":"levelo://app?vid=b6191c96-af83-462f-a3cc-e4778a781fff","ios":"levelo://app?vid=b6191c96-af83-462f-a3cc-e4778a781fff"},"vehicle_type_id":"4","last_reported":1753096168,"current_range_meters":18000,"station_id":"st_cvj6sg6p6f1abm77japg","pricing_plan_id":"cebpf4jnsgd1na2vs0mg"},{"bike_id":"f394e9da-c4ef-4d75-9a78-8694ae8e001b","system_id":"levelo_inurba_marseille","lat":43.241744,"lon":5.39753,"is_reserved":false,"is_disabled":false,"rental_uris":{"android":"levelo://app?vid=f394e9da-c4ef-4d75-9a78-8694ae8e001b","ios":"levelo://app?vid=f394e9da-c4ef-4d75-9a78-8694ae8e001b"},"vehicle_type_id":"4","last_reported":1753096168,"current_range_meters":18000,"station_id":"ce4bhn12rcd13ifvqgpg","pricing_plan_id":"cebpf4jnsgd1na2vs0mg"},{"bike_id":"740b7423-7a27-4daa-9991-c3141fb84b3f","system_id":"levelo_inurba_marseille","lat":43.27174,"lon":5.41001,"is_reserved":false,"is_disabled":false,"rental_uris":{"android":"levelo://app?vid=740b7423-7a27-4daa-9991-c3141fb84b3f","ios":"levelo://app?vid=740b7423-7a27-4daa-9991-c3141fb84b3f"},"vehicle_type_id":"4","last_reported":1753096168,"current_range_meters":18000,"station_id":"ce4bhl12rcd13ifvqgf0","pricing_plan_id":"cebpf4jnsgd1na2vs0mg"},{"bike_id":"2f2f580c-ef7a-43a4-b01c-d27d729d3be1","system_id":"levelo_inurba_marseille","lat":43.29309,"lon":5.3714,"is_reserved":false,"is_disabled":false,"rental_uris":{"android":"levelo://app?vid=2f2f580c-ef7a-43a4-b01c-d27d729d3be1","ios":"levelo://app?vid=2f2f580c-ef7a-43a4-b01c-d27d729d3be1"},"vehicle_type_id":"4","last_reported":1753096168,"current_range_meters":18000,"station_id":"ce4bgh92rcd13ifvqb40","pricing_plan_id":"cebpf4jnsgd1na2vs0mg"},{"bike_id":"8775308d-a91e-4abc-aa83-a4e1580af611","system_id":"levelo_inurba_marseille","lat":43.26217,"lon":5.40437,"is_reserved":false,"is_disabled":false,"rental_uris":{"android":"levelo://app?vid=8775308d-a91e-4abc-aa83-a4e1580af611","ios":"levelo://app?vid=8775308d-a91e-4abc-aa83-a4e1580af611"},"vehicle_type_id":"4","last_reported":1753096168,"current_range_meters":18000,"station_id":"ce4bhmh2rcd13ifvqgmg","pricing_plan_id":"cebpf4jnsgd1na2vs0mg"},{"bike_id":"81a61f7b-9ad9-441c-8d73-2f6b291330ab","system_id":"levelo_inurba_marseille","lat":43.29706,"lon":5.37702,"is_reserved":false,"is_disabled":false,"rental_uris":{"android":"levelo://app?vid=81a61f7b-9ad9-441c-8d73-2f6b291330ab","ios":"levelo://app?vid=81a61f7b-9ad9-441c-8d73-2f6b291330ab"},"vehicle_type_id":"4","last_reported":1753096168,"current_range_meters":18000,"station_id":"ce4bgkh2rcd13ifvqbl0","pricing_plan_id":"cebpf4jnsgd1na2vs0mg"},{"bike_id":"a5d420c1-6f63-4560-9fe2-e08db2c4fecb","system_id":"levelo_inurba_marseille","lat":43.212,"lon":5.35092,"is_reserved":false,"is_disabled":false,"rental_uris":{"android":"levelo://app?vid=a5d420c1-6f63-4560-9fe2-e08db2c4fecb","ios":"levelo://app?vid=a5d420c1-6f63-4560-9fe2-e08db2c4fecb"},"vehicle_type_id":"4","last_reported":1753096168,"current_range_meters":18000,"station_id":"st_cvj6sg6p6f1abm77japg","pricing_plan_id":"cebpf4jnsgd1na2vs0mg"},{"bike_id":"1ef2503f-ea41-4c4a-a986-942aff558f83","system_id":"levelo_inurba_marseille","lat":43.31858,"lon":5.40531,"is_reserved":false,"is_disabled":false,"rental_uris":{"android":"levelo://app?vid=1ef2503f-ea41-4c4a-a986-942aff558f83","ios":"levelo://app?vid=1ef2503f-ea41-4c4a-a986-942aff558f83"},"vehicle_type_id":"4","last_reported":1753096168,"current_range_meters":18000,"station_id":"ce4bh012rcd13ifvqd00","pricing_plan_id":"cebpf4jnsgd1na2vs0mg"},{"bike_id":"263d4ced-6e04-4169-ac4b-7fa733c92fa6","system_id":"levelo_inurba_marseille","lat":43.32366,"lon":5.36785,"is_reserved":false,"is_disabled":false,"rental_uris":{"android":"levelo://app?vid=263d4ced-6e04-4169-ac4b-7fa733c92fa6","ios":"levelo://app?vid=263d4ced-6e04-4169-ac4b-7fa733c92fa6"},"vehicle_type_id":"4","last_reported":1753096168,"current_range_meters":18000,"station_id":"ce4bhsh2rcd13ifvqi2g","pricing_plan_id":"cebpf4jnsgd1na2vs0mg"},{"bike_id":"8375284e-2691-413a-83ad-f0707c45735e","system_id":"levelo_inurba_marseille","lat":43.24174,"lon":5.3973,"is_reserved":false,"is_disabled":false,"rental_uris":{"android":"levelo://app?vid=8375284e-2691-413a-83ad-f0707c45735e","ios":"levelo://app?vid=8375284e-2691-413a-83ad-f0707c45735e"},"vehicle_type_id":"4","last_reported":1753096168,"current_range_meters":18000,"station_id":"ce4bhn12rcd13ifvqgpg","pricing_plan_id":"cebpf4jnsgd1na2vs0mg"},{"bike_id":"2f7c640b-c47b-4f05-903c-567f36253045","system_id":"levelo_inurba_marseille","lat":43.26791,"lon":5.39416,"is_reserved":false,"is_disabled":false,"rental_uris":{"android":"levelo://app?vid=2f7c640b-c47b-4f05-903c-567f36253045","ios":"levelo://app?vid=2f7c640b-c47b-4f05-903c-567f36253045"},"vehicle_type_id":"4","last_reported":1753096168,"current_range_meters":18800,"station_id":"ce4bhh12rcd13ifvqfg0","pricing_plan_id":"cebpf4jnsgd1na2vs0mg"},{"bike_id":"c565f3da-388a-443e-b841-7d114c3eb960","system_id":"levelo_inurba_marseille","lat":43.24651,"lon":5.38148,"is_reserved":false,"is_disabled":false,"rental_uris":{"android":"levelo://app?vid=c565f3da-388a-443e-b841-7d114c3eb960","ios":"levelo://app?vid=c565f3da-388a-443e-b841-7d114c3eb960"},"vehicle_type_id":"4","last_reported":1753096168,"current_range_meters":18800,"station_id":"ce4bhih2rcd13ifvqfr0","pricing_plan_id":"cebpf4jnsgd1na2vs0mg"},{"bike_id":"f179510f-b81c-45fe-9555-e8a207850b63","system_id":"levelo_inurba_marseille","lat":43.25943,"lon":5.40908,"is_reserved":false,"is_disabled":false,"rental_uris":{"android":"levelo://app?vid=f179510f-b81c-45fe-9555-e8a207850b63","ios":"levelo://app?vid=f179510f-b81c-45fe-9555-e8a207850b63"},"vehicle_type_id":"4","last_reported":1753096168,"current_range_meters":18800,"station_id":"ce4bhm92rcd13ifvqglg","pricing_plan_id":"cebpf4jnsgd1na2vs0mg"},{"bike_id":"58cbfa7e-c704-4866-ba9b-204648f1391a","system_id":"levelo_inurba_marseille","lat":43.299579,"lon":5.380973,"is_reserved":false,"is_disabled":true,"rental_uris":{"android":"levelo://app?vid=58cbfa7e-c704-4866-ba9b-204648f1391a","ios":"levelo://app?vid=58cbfa7e-c704-4866-ba9b-204648f1391a"},"vehicle_type_id":"4","last_reported":1753096168,"current_range_meters":18800,"station_id":"","pricing_plan_id":"cebpf4jnsgd1na2vs0mg"},{"bike_id":"68499d2a-6435-4ba9-9088-53133349876d","system_id":"levelo_inurba_marseille","lat":43.29528,"lon":5.39397,"is_reserved":false,"is_disabled":false,"rental_uris":{"android":"levelo://app?vid=68499d2a-6435-4ba9-9088-53133349876d","ios":"levelo://app?vid=68499d2a-6435-4ba9-9088-53133349876d"},"vehicle_type_id":"4","last_reported":1753096168,"current_range_meters":18800,"station_id":"ce4bh292rcd13ifvqdf0","pricing_plan_id":"cebpf4jnsgd1na2vs0mg"},{"bike_id":"b06e858b-0977-450f-ad69-e10c7afe1021","system_id":"levelo_inurba_marseille","lat":43.27827,"lon":5.39207,"is_reserved":false,"is_disabled":false,"rental_uris":{"android":"levelo://app?vid=b06e858b-0977-450f-ad69-e10c7afe1021","ios":"levelo://app?vid=b06e858b-0977-450f-ad69-e10c7afe1021"},"vehicle_type_id":"4","last_reported":1753096168,"current_range_meters":18800,"station_id":"ce4bhjp2rcd13ifvqga0","pricing_plan_id":"cebpf4jnsgd1na2vs0mg"},{"bike_id":"8a9f8dc4-f073-4b8f-81d6-71fc4302315f","system_id":"levelo_inurba_marseille","lat":43.28446,"lon":5.40162,"is_reserved":false,"is_disabled":false,"rental_uris":{"android":"levelo://app?vid=8a9f8dc4-f073-4b8f-81d6-71fc4302315f","ios":"levelo://app?vid=8a9f8dc4-f073-4b8f-81d6-71fc4302315f"},"vehicle_type_id":"4","last_reported":1753096168,"current_range_meters":19200,"station_id":"","pricing_plan_id":"cebpf4jnsgd1na2vs0mg"},{"bike_id":"5d969bc6-fed5-4d58-8941-4b302b560607","system_id":"levelo_inurba_marseille","lat":43.28485,"lon":5.38536,"is_reserved":false,"is_disabled":false,"rental_uris":{"android":"levelo://app?vid=5d969bc6-fed5-4d58-8941-4b302b560607","ios":"levelo://app?vid=5d969bc6-fed5-4d58-8941-4b302b560607"},"vehicle_type_id":"4","last_reported":1753096168,"current_range_meters":19200,"station_id":"","pricing_plan_id":"cebpf4jnsgd1na2vs0mg"},{"bike_id":"d2229c93-297f-41f1-8cb1-b4545e35da58","system_id":"levelo_inurba_marseille","lat":43.308963,"lon":5.371921,"is_reserved":false,"is_disabled":false,"rental_uris":{"android":"levelo://app?vid=d2229c93-297f-41f1-8cb1-b4545e35da58","ios":"levelo://app?vid=d2229c93-297f-41f1-8cb1-b4545e35da58"},"vehicle_type_id":"4","last_reported":1753096168,"current_range_meters":19200,"station_id":"ce4bguh2rcd13ifvqckg","pricing_plan_id":"cebpf4jnsgd1na2vs0mg"},{"bike_id":"b67ca3f0-e632-4b9e-ad2f-ba95e62966cd","system_id":"levelo_inurba_marseille","lat":43.32088,"lon":5.36754,"is_reserved":false,"is_disabled":false,"rental_uris":{"android":"levelo://app?vid=b67ca3f0-e632-4b9e-ad2f-ba95e62966cd","ios":"levelo://app?vid=b67ca3f0-e632-4b9e-ad2f-ba95e62966cd"},"vehicle_type_id":"4","last_reported":1753096168,"current_range_meters":19200,"station_id":"ce4bhrh2rcd13ifvqhug","pricing_plan_id":"cebpf4jnsgd1na2vs0mg"},{"bike_id":"2975a10e-052a-4ed4-8afb-b52549159b49","system_id":"levelo_inurba_marseille","lat":43.32885,"lon":5.38772,"is_reserved":false,"is_disabled":false,"rental_uris":{"android":"levelo://app?vid=2975a10e-052a-4ed4-8afb-b52549159b49","ios":"levelo://app?vid=2975a10e-052a-4ed4-8afb-b52549159b49"},"vehicle_type_id":"4","last_reported":1753096168,"current_range_meters":19200,"station_id":"","pricing_plan_id":"cebpf4jnsgd1na2vs0mg"},{"bike_id":"f00edc13-f36f-48e1-91ef-9c20dba77eb5","system_id":"levelo_inurba_marseille","lat":43.337588,"lon":5.374346,"is_reserved":false,"is_disabled":false,"rental_uris":{"android":"levelo://app?vid=f00edc13-f36f-48e1-91ef-9c20dba77eb5","ios":"levelo://app?vid=f00edc13-f36f-48e1-91ef-9c20dba77eb5"},"vehicle_type_id":"4","last_reported":1753096168,"current_range_meters":19200,"station_id":"","pricing_plan_id":"cebpf4jnsgd1na2vs0mg"},{"bike_id":"270a17cb-d400-4dcf-b95e-31f2bfe3b52d","system_id":"levelo_inurba_marseille","lat":43.2293,"lon":5.35373,"is_reserved":false,"is_disabled":false,"rental_uris":{"android":"levelo://app?vid=270a17cb-d400-4dcf-b95e-31f2bfe3b52d","ios":"levelo://app?vid=270a17cb-d400-4dcf-b95e-31f2bfe3b52d"},"vehicle_type_id":"4","last_reported":1753096168,"current_range_meters":19200,"station_id":"cpo3532slgdg3j2ikp40","pricing_plan_id":"cebpf4jnsgd1na2vs0mg"},{"bike_id":"7c2d1fcc-642d-4b3e-b123-58c7a5afe87a","system_id":"levelo_inurba_marseille","lat":43.32369,"lon":5.38928,"is_reserved":false,"is_disabled":false,"rental_uris":{"android":"levelo://app?vid=7c2d1fcc-642d-4b3e-b123-58c7a5afe87a","ios":"levelo://app?vid=7c2d1fcc-642d-4b3e-b123-58c7a5afe87a"},"vehicle_type_id":"4","last_reported":1753096168,"current_range_meters":19200,"station_id":"ce4bhqp2rcd13ifvqhog","pricing_plan_id":"cebpf4jnsgd1na2vs0mg"},{"bike_id":"dc281935-39f3-44f3-851e-274eeeb27619","system_id":"levelo_inurba_marseille","lat":43.28376,"lon":5.38647,"is_reserved":false,"is_disabled":false,"rental_uris":{"android":"levelo://app?vid=dc281935-39f3-44f3-851e-274eeeb27619","ios":"levelo://app?vid=dc281935-39f3-44f3-851e-274eeeb27619"},"vehicle_type_id":"4","last_reported":1753096168,"current_range_meters":19200,"station_id":"ce4bh492rcd13ifvqdvg","pricing_plan_id":"cebpf4jnsgd1na2vs0mg"},{"bike_id":"668bfa40-7ae0-42dd-a6b6-6631a40f0c0f","system_id":"levelo_inurba_marseille","lat":43.33136,"lon":5.38643,"is_reserved":false,"is_disabled":false,"rental_uris":{"android":"levelo://app?vid=668bfa40-7ae0-42dd-a6b6-6631a40f0c0f","ios":"levelo://app?vid=668bfa40-7ae0-42dd-a6b6-6631a40f0c0f"},"vehicle_type_id":"4","last_reported":1753096168,"current_range_meters":19200,"station_id":"","pricing_plan_id":"cebpf4jnsgd1na2vs0mg"},{"bike_id":"0cf1db65-1b50-4d6f-a119-e80c9fe8f3c4","system_id":"levelo_inurba_marseille","lat":43.3056,"lon":5.36523,"is_reserved":false,"is_disabled":false,"rental_uris":{"android":"levelo://app?vid=0cf1db65-1b50-4d6f-a119-e80c9fe8f3c4","ios":"levelo://app?vid=0cf1db65-1b50-4d6f-a119-e80c9fe8f3c4"},"vehicle_type_id":"4","last_reported":1753096168,"current_range_meters":19200,"station_id":"ce4bgs12rcd13ifvqcag","pricing_plan_id":"cebpf4jnsgd1na2vs0mg"},{"bike_id":"e77da9ef-8155-42a4-a49c-30e2b59818cc","system_id":"levelo_inurba_marseille","lat":43.337444,"lon":5.374475,"is_reserved":false,"is_disabled":false,"rental_uris":{"android":"levelo://app?vid=e77da9ef-8155-42a4-a49c-30e2b59818cc","ios":"levelo://app?vid=e77da9ef-8155-42a4-a49c-30e2b59818cc"},"vehicle_type_id":"4","last_reported":1753096168,"current_range_meters":19200,"station_id":"","pricing_plan_id":"cebpf4jnsgd1na2vs0mg"},{"bike_id":"e06695ae-a245-4711-a52d-2e4e9d5d9750","system_id":"levelo_inurba_marseille","lat":43.30147,"lon":5.38089,"is_reserved":false,"is_disabled":false,"rental_uris":{"android":"levelo://app?vid=e06695ae-a245-4711-a52d-2e4e9d5d9750","ios":"levelo://app?vid=e06695ae-a245-4711-a52d-2e4e9d5d9750"},"vehicle_type_id":"4","last_reported":1753096168,"current_range_meters":19600,"station_id":"ce4bgjp2rcd13ifvqbh0","pricing_plan_id":"cebpf4jnsgd1na2vs0mg"},{"bike_id":"fe732a6c-bff8-47cc-932a-3c976c2c7a76","system_id":"levelo_inurba_marseille","lat":43.280363,"lon":5.369555,"is_reserved":false,"is_disabled":true,"rental_uris":{"android":"levelo://app?vid=fe732a6c-bff8-47cc-932a-3c976c2c7a76","ios":"levelo://app?vid=fe732a6c-bff8-47cc-932a-3c976c2c7a76"},"vehicle_type_id":"4","last_reported":1753096168,"current_range_meters":19600,"station_id":"","pricing_plan_id":"cebpf4jnsgd1na2vs0mg"},{"bike_id":"37a818b0-078f-48f9-9185-0f2ace1c835c","system_id":"levelo_inurba_marseille","lat":43.26204,"lon":5.37924,"is_reserved":false,"is_disabled":false,"rental_uris":{"android":"levelo://app?vid=37a818b0-078f-48f9-9185-0f2ace1c835c","ios":"levelo://app?vid=37a818b0-078f-48f9-9185-0f2ace1c835c"},"vehicle_type_id":"4","last_reported":1753096168,"current_range_meters":19600,"station_id":"ce4bhjp2rcd13ifvqg90","pricing_plan_id":"cebpf4jnsgd1na2vs0mg"},{"bike_id":"355acad9-198f-4e0f-a627-1a8c498c9f94","system_id":"levelo_inurba_marseille","lat":43.31333,"lon":5.397,"is_reserved":false,"is_disabled":false,"rental_uris":{"android":"levelo://app?vid=355acad9-198f-4e0f-a627-1a8c498c9f94","ios":"levelo://app?vid=355acad9-198f-4e0f-a627-1a8c498c9f94"},"vehicle_type_id":"4","last_reported":1753096168,"current_range_meters":19600,"station_id":"ce4bgvp2rcd13ifvqcu0","pricing_plan_id":"cebpf4jnsgd1na2vs0mg"},{"bike_id":"39b80e12-3f89-412e-9f4f-1473a55c196c","system_id":"levelo_inurba_marseille","lat":43.25113,"lon":5.4032,"is_reserved":false,"is_disabled":false,"rental_uris":{"android":"levelo://app?vid=39b80e12-3f89-412e-9f4f-1473a55c196c","ios":"levelo://app?vid=39b80e12-3f89-412e-9f4f-1473a55c196c"},"vehicle_type_id":"4","last_reported":1753096168,"current_range_meters":19600,"station_id":"ce4bhlh2rcd13ifvqgig","pricing_plan_id":"cebpf4jnsgd1na2vs0mg"},{"bike_id":"bc6c9262-ada6-4941-b85a-44b58e165734","system_id":"levelo_inurba_marseille","lat":43.25498,"lon":5.37647,"is_reserved":false,"is_disabled":false,"rental_uris":{"android":"levelo://app?vid=bc6c9262-ada6-4941-b85a-44b58e165734","ios":"levelo://app?vid=bc6c9262-ada6-4941-b85a-44b58e165734"},"vehicle_type_id":"4","last_reported":1753096168,"current_range_meters":19600,"station_id":"ce4bhh12rcd13ifvqff0","pricing_plan_id":"cebpf4jnsgd1na2vs0mg"},{"bike_id":"fe19c96f-38e6-40c4-845b-ed09018e2bf4","system_id":"levelo_inurba_marseille","lat":43.29582,"lon":5.37532,"is_reserved":false,"is_disabled":false,"rental_uris":{"android":"levelo://app?vid=fe19c96f-38e6-40c4-845b-ed09018e2bf4","ios":"levelo://app?vid=fe19c96f-38e6-40c4-845b-ed09018e2bf4"},"vehicle_type_id":"4","last_reported":1753096168,"current_range_meters":19600,"station_id":"ce4bgh92rcd13ifvqb50","pricing_plan_id":"cebpf4jnsgd1na2vs0mg"},{"bike_id":"13adf853-6ca7-4ebd-8c9f-f4512dd3a322","system_id":"levelo_inurba_marseille","lat":43.33281,"lon":5.39897,"is_reserved":false,"is_disabled":false,"rental_uris":{"android":"levelo://app?vid=13adf853-6ca7-4ebd-8c9f-f4512dd3a322","ios":"levelo://app?vid=13adf853-6ca7-4ebd-8c9f-f4512dd3a322"},"vehicle_type_id":"4","last_reported":1753096168,"current_range_meters":19600,"station_id":"","pricing_plan_id":"cebpf4jnsgd1na2vs0mg"},{"bike_id":"56c849d0-2fd7-4663-bd40-4459368ce979","system_id":"levelo_inurba_marseille","lat":43.31232,"lon":5.36857,"is_reserved":false,"is_disabled":false,"rental_uris":{"android":"levelo://app?vid=56c849d0-2fd7-4663-bd40-4459368ce979","ios":"levelo://app?vid=56c849d0-2fd7-4663-bd40-4459368ce979"},"vehicle_type_id":"4","last_reported":1753096168,"current_range_meters":20000,"station_id":"ce4bgl92rcd13ifvqbq0","pricing_plan_id":"cebpf4jnsgd1na2vs0mg"},{"bike_id":"5e4577d0-6bc3-49c3-849d-1eb7e6dfe630","system_id":"levelo_inurba_marseille","lat":43.26555,"lon":5.39035,"is_reserved":false,"is_disabled":false,"rental_uris":{"android":"levelo://app?vid=5e4577d0-6bc3-49c3-849d-1eb7e6dfe630","ios":"levelo://app?vid=5e4577d0-6bc3-49c3-849d-1eb7e6dfe630"},"vehicle_type_id":"4","last_reported":1753096168,"current_range_meters":19600,"station_id":"ce4bhe12rcd13ifvqf30","pricing_plan_id":"cebpf4jnsgd1na2vs0mg"},{"bike_id":"f2ae3914-afd9-4ae9-b087-b6a8c5753948","system_id":"levelo_inurba_marseille","lat":43.32365,"lon":5.36766,"is_reserved":false,"is_disabled":false,"rental_uris":{"android":"levelo://app?vid=f2ae3914-afd9-4ae9-b087-b6a8c5753948","ios":"levelo://app?vid=f2ae3914-afd9-4ae9-b087-b6a8c5753948"},"vehicle_type_id":"4","last_reported":1753096168,"current_range_meters":19600,"station_id":"ce4bhsh2rcd13ifvqi2g","pricing_plan_id":"cebpf4jnsgd1na2vs0mg"},{"bike_id":"a8425362-197a-4dc6-a73b-d17d37743a9c","system_id":"levelo_inurba_marseille","lat":43.21763,"lon":5.34604,"is_reserved":false,"is_disabled":false,"rental_uris":{"android":"levelo://app?vid=a8425362-197a-4dc6-a73b-d17d37743a9c","ios":"levelo://app?vid=a8425362-197a-4dc6-a73b-d17d37743a9c"},"vehicle_type_id":"4","last_reported":1753096168,"current_range_meters":19600,"station_id":"st_cvj6r9ubvosntc0bgbag","pricing_plan_id":"cebpf4jnsgd1na2vs0mg"},{"bike_id":"43aad259-34ad-4c27-880b-8f0f5eff4ba1","system_id":"levelo_inurba_marseille","lat":43.27998,"lon":5.4002,"is_reserved":false,"is_disabled":false,"rental_uris":{"android":"levelo://app?vid=43aad259-34ad-4c27-880b-8f0f5eff4ba1","ios":"levelo://app?vid=43aad259-34ad-4c27-880b-8f0f5eff4ba1"},"vehicle_type_id":"4","last_reported":1753096168,"current_range_meters":19600,"station_id":"ce4bho92rcd13ifvqh4g","pricing_plan_id":"cebpf4jnsgd1na2vs0mg"},{"bike_id":"5140bb8e-c44f-4d3a-995a-3be3ee966f00","system_id":"levelo_inurba_marseille","lat":43.28409,"lon":5.37531,"is_reserved":false,"is_disabled":false,"rental_uris":{"android":"levelo://app?vid=5140bb8e-c44f-4d3a-995a-3be3ee966f00","ios":"levelo://app?vid=5140bb8e-c44f-4d3a-995a-3be3ee966f00"},"vehicle_type_id":"4","last_reported":1753096168,"current_range_meters":20000,"station_id":"ce4bh412rcd13ifvqds0","pricing_plan_id":"cebpf4jnsgd1na2vs0mg"},{"bike_id":"2b8c7754-ea73-48b9-8bdf-672fdd376890","system_id":"levelo_inurba_marseille","lat":43.3054,"lon":5.36563,"is_reserved":false,"is_disabled":false,"rental_uris":{"android":"levelo://app?vid=2b8c7754-ea73-48b9-8bdf-672fdd376890","ios":"levelo://app?vid=2b8c7754-ea73-48b9-8bdf-672fdd376890"},"vehicle_type_id":"4","last_reported":1753096168,"current_range_meters":20000,"station_id":"ce4bgs12rcd13ifvqcag","pricing_plan_id":"cebpf4jnsgd1na2vs0mg"},{"bike_id":"0252eab3-c3f3-4486-b893-58cb3f957c57","system_id":"levelo_inurba_marseille","lat":43.31721,"lon":5.38504,"is_reserved":false,"is_disabled":false,"rental_uris":{"android":"levelo://app?vid=0252eab3-c3f3-4486-b893-58cb3f957c57","ios":"levelo://app?vid=0252eab3-c3f3-4486-b893-58cb3f957c57"},"vehicle_type_id":"4","last_reported":1753096168,"current_range_meters":20000,"station_id":"","pricing_plan_id":"cebpf4jnsgd1na2vs0mg"},{"bike_id":"b4c1aa2a-e931-4ce6-8816-30ad77bdd520","system_id":"levelo_inurba_marseille","lat":43.241448,"lon":5.363743,"is_reserved":false,"is_disabled":false,"rental_uris":{"android":"levelo://app?vid=b4c1aa2a-e931-4ce6-8816-30ad77bdd520","ios":"levelo://app?vid=b4c1aa2a-e931-4ce6-8816-30ad77bdd520"},"vehicle_type_id":"4","last_reported":1753096168,"current_range_meters":20000,"station_id":"","pricing_plan_id":"cebpf4jnsgd1na2vs0mg"},{"bike_id":"31e8ab33-a73c-4bc4-aace-3a66fb395031","system_id":"levelo_inurba_marseille","lat":43.25734,"lon":5.41111,"is_reserved":false,"is_disabled":false,"rental_uris":{"android":"levelo://app?vid=31e8ab33-a73c-4bc4-aace-3a66fb395031","ios":"levelo://app?vid=31e8ab33-a73c-4bc4-aace-3a66fb395031"},"vehicle_type_id":"4","last_reported":1753096168,"current_range_meters":20000,"station_id":"ce4bhkp2rcd13ifvqgd0","pricing_plan_id":"cebpf4jnsgd1na2vs0mg"},{"bike_id":"7d97e456-45c1-4597-8a3a-25e0fbee520a","system_id":"levelo_inurba_marseille","lat":43.29058,"lon":5.3717,"is_reserved":false,"is_disabled":false,"rental_uris":{"android":"levelo://app?vid=7d97e456-45c1-4597-8a3a-25e0fbee520a","ios":"levelo://app?vid=7d97e456-45c1-4597-8a3a-25e0fbee520a"},"vehicle_type_id":"4","last_reported":1753096168,"current_range_meters":20000,"station_id":"ce4bgh92rcd13ifvqb40","pricing_plan_id":"cebpf4jnsgd1na2vs0mg"},{"bike_id":"0b8d83ca-82f8-4ff4-86db-8f9101fcc108","system_id":"levelo_inurba_marseille","lat":43.29563,"lon":5.37516,"is_reserved":false,"is_disabled":false,"rental_uris":{"android":"levelo://app?vid=0b8d83ca-82f8-4ff4-86db-8f9101fcc108","ios":"levelo://app?vid=0b8d83ca-82f8-4ff4-86db-8f9101fcc108"},"vehicle_type_id":"4","last_reported":1753096168,"current_range_meters":20000,"station_id":"ce4bgh92rcd13ifvqb50","pricing_plan_id":"cebpf4jnsgd1na2vs0mg"},{"bike_id":"6148a6ba-71de-4967-ac26-761ce5cbaa46","system_id":"levelo_inurba_marseille","lat":43.29533,"lon":5.3855,"is_reserved":false,"is_disabled":false,"rental_uris":{"android":"levelo://app?vid=6148a6ba-71de-4967-ac26-761ce5cbaa46","ios":"levelo://app?vid=6148a6ba-71de-4967-ac26-761ce5cbaa46"},"vehicle_type_id":"4","last_reported":1753096168,"current_range_meters":20000,"station_id":"ce4bgih2rcd13ifvqba0","pricing_plan_id":"cebpf4jnsgd1na2vs0mg"},{"bike_id":"ee09eda1-e075-4f4d-9c5f-ac6a4aa881c4","system_id":"levelo_inurba_marseille","lat":43.278195,"lon":5.407193,"is_reserved":false,"is_disabled":false,"rental_uris":{"android":"levelo://app?vid=ee09eda1-e075-4f4d-9c5f-ac6a4aa881c4","ios":"levelo://app?vid=ee09eda1-e075-4f4d-9c5f-ac6a4aa881c4"},"vehicle_type_id":"4","last_reported":1753096168,"current_range_meters":20400,"station_id":"ce4bhnh2rcd13ifvqgtg","pricing_plan_id":"cebpf4jnsgd1na2vs0mg"},{"bike_id":"534098fe-a2b0-45be-a076-83fc2f5e28f9","system_id":"levelo_inurba_marseille","lat":43.32107,"lon":5.36768,"is_reserved":false,"is_disabled":false,"rental_uris":{"android":"levelo://app?vid=534098fe-a2b0-45be-a076-83fc2f5e28f9","ios":"levelo://app?vid=534098fe-a2b0-45be-a076-83fc2f5e28f9"},"vehicle_type_id":"4","last_reported":1753096168,"current_range_meters":20400,"station_id":"ce4bhrh2rcd13ifvqhug","pricing_plan_id":"cebpf4jnsgd1na2vs0mg"},{"bike_id":"201f3062-fb91-435d-8d11-2fc3a620191f","system_id":"levelo_inurba_marseille","lat":43.31505,"lon":5.39112,"is_reserved":false,"is_disabled":false,"rental_uris":{"android":"levelo://app?vid=201f3062-fb91-435d-8d11-2fc3a620191f","ios":"levelo://app?vid=201f3062-fb91-435d-8d11-2fc3a620191f"},"vehicle_type_id":"4","last_reported":1753096168,"current_range_meters":20400,"station_id":"","pricing_plan_id":"cebpf4jnsgd1na2vs0mg"},{"bike_id":"de5426ba-ae67-47a4-bece-c11c7065cd1e","system_id":"levelo_inurba_marseille","lat":43.21192,"lon":5.35069,"is_reserved":false,"is_disabled":false,"rental_uris":{"android":"levelo://app?vid=de5426ba-ae67-47a4-bece-c11c7065cd1e","ios":"levelo://app?vid=de5426ba-ae67-47a4-bece-c11c7065cd1e"},"vehicle_type_id":"4","last_reported":1753096168,"current_range_meters":20400,"station_id":"st_cvj6sg6p6f1abm77japg","pricing_plan_id":"cebpf4jnsgd1na2vs0mg"},{"bike_id":"dda96cde-9f78-4371-a72f-1d24145c396a","system_id":"levelo_inurba_marseille","lat":43.21193,"lon":5.35076,"is_reserved":false,"is_disabled":false,"rental_uris":{"android":"levelo://app?vid=dda96cde-9f78-4371-a72f-1d24145c396a","ios":"levelo://app?vid=dda96cde-9f78-4371-a72f-1d24145c396a"},"vehicle_type_id":"4","last_reported":1753096168,"current_range_meters":20800,"station_id":"st_cvj6sg6p6f1abm77japg","pricing_plan_id":"cebpf4jnsgd1na2vs0mg"},{"bike_id":"ae5bb3fb-bf15-4d9f-997b-a8735f0f799a","system_id":"levelo_inurba_marseille","lat":43.29278,"lon":5.40123,"is_reserved":false,"is_disabled":false,"rental_uris":{"android":"levelo://app?vid=ae5bb3fb-bf15-4d9f-997b-a8735f0f799a","ios":"levelo://app?vid=ae5bb3fb-bf15-4d9f-997b-a8735f0f799a"},"vehicle_type_id":"4","last_reported":1753096168,"current_range_meters":20800,"station_id":"ce4bh312rcd13ifvqdk0","pricing_plan_id":"cebpf4jnsgd1na2vs0mg"},{"bike_id":"6db579c2-caeb-4b29-bb94-d1803cf5a4f2","system_id":"levelo_inurba_marseille","lat":43.337444,"lon":5.374475,"is_reserved":false,"is_disabled":false,"rental_uris":{"android":"levelo://app?vid=6db579c2-caeb-4b29-bb94-d1803cf5a4f2","ios":"levelo://app?vid=6db579c2-caeb-4b29-bb94-d1803cf5a4f2"},"vehicle_type_id":"4","last_reported":1753096168,"current_range_meters":20800,"station_id":"","pricing_plan_id":"cebpf4jnsgd1na2vs0mg"},{"bike_id":"e4d5ab81-b7b7-40f1-b12b-b824557024d8","system_id":"levelo_inurba_marseille","lat":43.30158,"lon":5.38089,"is_reserved":false,"is_disabled":false,"rental_uris":{"android":"levelo://app?vid=e4d5ab81-b7b7-40f1-b12b-b824557024d8","ios":"levelo://app?vid=e4d5ab81-b7b7-40f1-b12b-b824557024d8"},"vehicle_type_id":"4","last_reported":1753096168,"current_range_meters":22400,"station_id":"ce4bgjp2rcd13ifvqbh0","pricing_plan_id":"cebpf4jnsgd1na2vs0mg"},{"bike_id":"5153e984-1abc-4d5b-91ef-21249865a3e6","system_id":"levelo_inurba_marseille","lat":43.21198,"lon":5.35063,"is_reserved":false,"is_disabled":false,"rental_uris":{"android":"levelo://app?vid=5153e984-1abc-4d5b-91ef-21249865a3e6","ios":"levelo://app?vid=5153e984-1abc-4d5b-91ef-21249865a3e6"},"vehicle_type_id":"4","last_reported":1753096168,"current_range_meters":20800,"station_id":"st_cvj6sg6p6f1abm77japg","pricing_plan_id":"cebpf4jnsgd1na2vs0mg"},{"bike_id":"e747a732-7862-4546-bac2-d24808813691","system_id":"levelo_inurba_marseille","lat":43.26938,"lon":5.40254,"is_reserved":false,"is_disabled":false,"rental_uris":{"android":"levelo://app?vid=e747a732-7862-4546-bac2-d24808813691","ios":"levelo://app?vid=e747a732-7862-4546-bac2-d24808813691"},"vehicle_type_id":"4","last_reported":1753096168,"current_range_meters":20800,"station_id":"cjm6bp8fraef2m0cb0m0","pricing_plan_id":"cebpf4jnsgd1na2vs0mg"},{"bike_id":"b41d5c99-8040-4e1d-83a5-5795d318a57c","system_id":"levelo_inurba_marseille","lat":43.27413,"lon":5.39416,"is_reserved":false,"is_disabled":false,"rental_uris":{"android":"levelo://app?vid=b41d5c99-8040-4e1d-83a5-5795d318a57c","ios":"levelo://app?vid=b41d5c99-8040-4e1d-83a5-5795d318a57c"},"vehicle_type_id":"4","last_reported":1753096168,"current_range_meters":20800,"station_id":"ce4bhgp2rcd13ifvqfe0","pricing_plan_id":"cebpf4jnsgd1na2vs0mg"},{"bike_id":"64a2f514-4942-458d-b3fc-7d7fd0dfd1b1","system_id":"levelo_inurba_marseille","lat":43.21205,"lon":5.35079,"is_reserved":false,"is_disabled":false,"rental_uris":{"android":"levelo://app?vid=64a2f514-4942-458d-b3fc-7d7fd0dfd1b1","ios":"levelo://app?vid=64a2f514-4942-458d-b3fc-7d7fd0dfd1b1"},"vehicle_type_id":"4","last_reported":1753096168,"current_range_meters":20800,"station_id":"st_cvj6sg6p6f1abm77japg","pricing_plan_id":"cebpf4jnsgd1na2vs0mg"},{"bike_id":"43289c39-b43b-4745-8781-6d56ee0c5b1f","system_id":"levelo_inurba_marseille","lat":43.311984,"lon":5.368196,"is_reserved":false,"is_disabled":false,"rental_uris":{"android":"levelo://app?vid=43289c39-b43b-4745-8781-6d56ee0c5b1f","ios":"levelo://app?vid=43289c39-b43b-4745-8781-6d56ee0c5b1f"},"vehicle_type_id":"4","last_reported":1753096168,"current_range_meters":21600,"station_id":"ce4bgl92rcd13ifvqbq0","pricing_plan_id":"cebpf4jnsgd1na2vs0mg"},{"bike_id":"79845fd9-a096-407d-8e46-9c0f471b0c5e","system_id":"levelo_inurba_marseille","lat":43.30895,"lon":5.37192,"is_reserved":false,"is_disabled":false,"rental_uris":{"android":"levelo://app?vid=79845fd9-a096-407d-8e46-9c0f471b0c5e","ios":"levelo://app?vid=79845fd9-a096-407d-8e46-9c0f471b0c5e"},"vehicle_type_id":"4","last_reported":1753096168,"current_range_meters":21600,"station_id":"ce4bguh2rcd13ifvqckg","pricing_plan_id":"cebpf4jnsgd1na2vs0mg"},{"bike_id":"891ebb35-1a90-4828-86a0-7622238fe05c","system_id":"levelo_inurba_marseille","lat":43.29027,"lon":5.38141,"is_reserved":false,"is_disabled":false,"rental_uris":{"android":"levelo://app?vid=891ebb35-1a90-4828-86a0-7622238fe05c","ios":"levelo://app?vid=891ebb35-1a90-4828-86a0-7622238fe05c"},"vehicle_type_id":"4","last_reported":1753096168,"current_range_meters":21600,"station_id":"ce4bh4p2rcd13ifvqe1g","pricing_plan_id":"cebpf4jnsgd1na2vs0mg"},{"bike_id":"d3f18a62-15c4-49e8-868b-211ecdb76db7","system_id":"levelo_inurba_marseille","lat":43.30597,"lon":5.39361,"is_reserved":false,"is_disabled":false,"rental_uris":{"android":"levelo://app?vid=d3f18a62-15c4-49e8-868b-211ecdb76db7","ios":"levelo://app?vid=d3f18a62-15c4-49e8-868b-211ecdb76db7"},"vehicle_type_id":"4","last_reported":1753096168,"current_range_meters":21600,"station_id":"ce4bh0p2rcd13ifvqd80","pricing_plan_id":"cebpf4jnsgd1na2vs0mg"},{"bike_id":"0a03fdfa-ed88-4586-a9ea-9c4f52fee979","system_id":"levelo_inurba_marseille","lat":43.299715,"lon":5.371462,"is_reserved":false,"is_disabled":false,"rental_uris":{"android":"levelo://app?vid=0a03fdfa-ed88-4586-a9ea-9c4f52fee979","ios":"levelo://app?vid=0a03fdfa-ed88-4586-a9ea-9c4f52fee979"},"vehicle_type_id":"4","last_reported":1753096168,"current_range_meters":22000,"station_id":"ce4bgr92rcd13ifvqc7g","pricing_plan_id":"cebpf4jnsgd1na2vs0mg"},{"bike_id":"ae86cda1-e6f4-47bf-ba69-437cdcdda6e6","system_id":"levelo_inurba_marseille","lat":43.27567,"lon":5.3843,"is_reserved":false,"is_disabled":false,"rental_uris":{"android":"levelo://app?vid=ae86cda1-e6f4-47bf-ba69-437cdcdda6e6","ios":"levelo://app?vid=ae86cda1-e6f4-47bf-ba69-437cdcdda6e6"},"vehicle_type_id":"4","last_reported":1753096168,"current_range_meters":20800,"station_id":"ce4bhh92rcd13ifvqfi0","pricing_plan_id":"cebpf4jnsgd1na2vs0mg"},{"bike_id":"e1821983-402d-4a49-a51f-17090930a3e9","system_id":"levelo_inurba_marseille","lat":43.21198,"lon":5.35081,"is_reserved":false,"is_disabled":false,"rental_uris":{"android":"levelo://app?vid=e1821983-402d-4a49-a51f-17090930a3e9","ios":"levelo://app?vid=e1821983-402d-4a49-a51f-17090930a3e9"},"vehicle_type_id":"4","last_reported":1753096168,"current_range_meters":21600,"station_id":"st_cvj6sg6p6f1abm77japg","pricing_plan_id":"cebpf4jnsgd1na2vs0mg"},{"bike_id":"bf389733-537f-48c7-94ff-fbc7815dcc9b","system_id":"levelo_inurba_marseille","lat":43.30569,"lon":5.36534,"is_reserved":false,"is_disabled":false,"rental_uris":{"android":"levelo://app?vid=bf389733-537f-48c7-94ff-fbc7815dcc9b","ios":"levelo://app?vid=bf389733-537f-48c7-94ff-fbc7815dcc9b"},"vehicle_type_id":"4","last_reported":1753096168,"current_range_meters":21600,"station_id":"ce4bgs12rcd13ifvqcag","pricing_plan_id":"cebpf4jnsgd1na2vs0mg"},{"bike_id":"c9695da4-3048-4cfc-83f0-62c3fac1ccbe","system_id":"levelo_inurba_marseille","lat":43.23065,"lon":5.35515,"is_reserved":false,"is_disabled":false,"rental_uris":{"android":"levelo://app?vid=c9695da4-3048-4cfc-83f0-62c3fac1ccbe","ios":"levelo://app?vid=c9695da4-3048-4cfc-83f0-62c3fac1ccbe"},"vehicle_type_id":"4","last_reported":1753096168,"current_range_meters":22000,"station_id":"cpo3342slgdg3j2ifvpg","pricing_plan_id":"cebpf4jnsgd1na2vs0mg"},{"bike_id":"5318d43a-4761-49f5-a226-f37048bd84eb","system_id":"levelo_inurba_marseille","lat":43.24685,"lon":5.38174,"is_reserved":false,"is_disabled":false,"rental_uris":{"android":"levelo://app?vid=5318d43a-4761-49f5-a226-f37048bd84eb","ios":"levelo://app?vid=5318d43a-4761-49f5-a226-f37048bd84eb"},"vehicle_type_id":"4","last_reported":1753096168,"current_range_meters":22000,"station_id":"ce4bhih2rcd13ifvqfr0","pricing_plan_id":"cebpf4jnsgd1na2vs0mg"},{"bike_id":"3700fdf7-6752-4ebc-916f-d514055b512f","system_id":"levelo_inurba_marseille","lat":43.29771,"lon":5.38126,"is_reserved":false,"is_disabled":false,"rental_uris":{"android":"levelo://app?vid=3700fdf7-6752-4ebc-916f-d514055b512f","ios":"levelo://app?vid=3700fdf7-6752-4ebc-916f-d514055b512f"},"vehicle_type_id":"4","last_reported":1753096168,"current_range_meters":22000,"station_id":"ce4bgip2rcd13ifvqbb0","pricing_plan_id":"cebpf4jnsgd1na2vs0mg"},{"bike_id":"112c519a-75f9-465e-a3be-d35e91feb119","system_id":"levelo_inurba_marseille","lat":43.22499,"lon":5.34775,"is_reserved":false,"is_disabled":false,"rental_uris":{"android":"levelo://app?vid=112c519a-75f9-465e-a3be-d35e91feb119","ios":"levelo://app?vid=112c519a-75f9-465e-a3be-d35e91feb119"},"vehicle_type_id":"4","last_reported":1753096168,"current_range_meters":22000,"station_id":"st_cvj5dfep6f1abm77gieg","pricing_plan_id":"cebpf4jnsgd1na2vs0mg"},{"bike_id":"aa300bb4-247d-477d-8bc1-77828548a2ac","system_id":"levelo_inurba_marseille","lat":43.30916,"lon":5.37222,"is_reserved":false,"is_disabled":false,"rental_uris":{"android":"levelo://app?vid=aa300bb4-247d-477d-8bc1-77828548a2ac","ios":"levelo://app?vid=aa300bb4-247d-477d-8bc1-77828548a2ac"},"vehicle_type_id":"4","last_reported":1753096168,"current_range_meters":22000,"station_id":"ce4bguh2rcd13ifvqckg","pricing_plan_id":"cebpf4jnsgd1na2vs0mg"},{"bike_id":"81f88721-00d0-431c-83bf-446e11578408","system_id":"levelo_inurba_marseille","lat":43.22501,"lon":5.34794,"is_reserved":false,"is_disabled":false,"rental_uris":{"android":"levelo://app?vid=81f88721-00d0-431c-83bf-446e11578408","ios":"levelo://app?vid=81f88721-00d0-431c-83bf-446e11578408"},"vehicle_type_id":"4","last_reported":1753096168,"current_range_meters":22000,"station_id":"st_cvj5dfep6f1abm77gieg","pricing_plan_id":"cebpf4jnsgd1na2vs0mg"},{"bike_id":"64743b6b-75cf-44b7-92b2-215957c79ed0","system_id":"levelo_inurba_marseille","lat":43.2466,"lon":5.3817,"is_reserved":false,"is_disabled":false,"rental_uris":{"android":"levelo://app?vid=64743b6b-75cf-44b7-92b2-215957c79ed0","ios":"levelo://app?vid=64743b6b-75cf-44b7-92b2-215957c79ed0"},"vehicle_type_id":"4","last_reported":1753096168,"current_range_meters":22000,"station_id":"ce4bhih2rcd13ifvqfr0","pricing_plan_id":"cebpf4jnsgd1na2vs0mg"},{"bike_id":"76ce6848-b3ec-411d-826e-fe6f5f277e84","system_id":"levelo_inurba_marseille","lat":43.29041,"lon":5.39964,"is_reserved":false,"is_disabled":true,"rental_uris":{"android":"levelo://app?vid=76ce6848-b3ec-411d-826e-fe6f5f277e84","ios":"levelo://app?vid=76ce6848-b3ec-411d-826e-fe6f5f277e84"},"vehicle_type_id":"4","last_reported":1753096168,"current_range_meters":22400,"station_id":"","pricing_plan_id":"cebpf4jnsgd1na2vs0mg"},{"bike_id":"6c93957c-439a-4d9a-81df-092bf8c0d567","system_id":"levelo_inurba_marseille","lat":43.30434,"lon":5.41291,"is_reserved":false,"is_disabled":false,"rental_uris":{"android":"levelo://app?vid=6c93957c-439a-4d9a-81df-092bf8c0d567","ios":"levelo://app?vid=6c93957c-439a-4d9a-81df-092bf8c0d567"},"vehicle_type_id":"4","last_reported":1753096168,"current_range_meters":22400,"station_id":"ce4bhop2rcd13ifvqh8g","pricing_plan_id":"cebpf4jnsgd1na2vs0mg"},{"bike_id":"01bc6391-b5f6-4327-bf49-b442439da127","system_id":"levelo_inurba_marseille","lat":43.24669,"lon":5.38165,"is_reserved":false,"is_disabled":false,"rental_uris":{"android":"levelo://app?vid=01bc6391-b5f6-4327-bf49-b442439da127","ios":"levelo://app?vid=01bc6391-b5f6-4327-bf49-b442439da127"},"vehicle_type_id":"4","last_reported":1753096168,"current_range_meters":22400,"station_id":"ce4bhih2rcd13ifvqfr0","pricing_plan_id":"cebpf4jnsgd1na2vs0mg"},{"bike_id":"e371b02c-6be8-41a0-80db-3b45d29259be","system_id":"levelo_inurba_marseille","lat":43.24668,"lon":5.38166,"is_reserved":false,"is_disabled":false,"rental_uris":{"android":"levelo://app?vid=e371b02c-6be8-41a0-80db-3b45d29259be","ios":"levelo://app?vid=e371b02c-6be8-41a0-80db-3b45d29259be"},"vehicle_type_id":"4","last_reported":1753096168,"current_range_meters":22400,"station_id":"ce4bhih2rcd13ifvqfr0","pricing_plan_id":"cebpf4jnsgd1na2vs0mg"},{"bike_id":"69bc51f8-a7fe-4ea9-a95e-46aa06773691","system_id":"levelo_inurba_marseille","lat":43.21194,"lon":5.35077,"is_reserved":false,"is_disabled":false,"rental_uris":{"android":"levelo://app?vid=69bc51f8-a7fe-4ea9-a95e-46aa06773691","ios":"levelo://app?vid=69bc51f8-a7fe-4ea9-a95e-46aa06773691"},"vehicle_type_id":"4","last_reported":1753096168,"current_range_meters":22400,"station_id":"st_cvj6sg6p6f1abm77japg","pricing_plan_id":"cebpf4jnsgd1na2vs0mg"},{"bike_id":"7a3e8286-d23a-436c-a229-6ffa0c627ba2","system_id":"levelo_inurba_marseille","lat":43.21183,"lon":5.35078,"is_reserved":false,"is_disabled":false,"rental_uris":{"android":"levelo://app?vid=7a3e8286-d23a-436c-a229-6ffa0c627ba2","ios":"levelo://app?vid=7a3e8286-d23a-436c-a229-6ffa0c627ba2"},"vehicle_type_id":"4","last_reported":1753096168,"current_range_meters":22400,"station_id":"st_cvj6sg6p6f1abm77japg","pricing_plan_id":"cebpf4jnsgd1na2vs0mg"},{"bike_id":"5be71068-a8a7-4945-aba0-478648db36cc","system_id":"levelo_inurba_marseille","lat":43.30914,"lon":5.36849,"is_reserved":false,"is_disabled":false,"rental_uris":{"android":"levelo://app?vid=5be71068-a8a7-4945-aba0-478648db36cc","ios":"levelo://app?vid=5be71068-a8a7-4945-aba0-478648db36cc"},"vehicle_type_id":"4","last_reported":1753096168,"current_range_meters":22400,"station_id":"ce4bgn92rcd13ifvqbvg","pricing_plan_id":"cebpf4jnsgd1na2vs0mg"},{"bike_id":"e072bac6-40e2-440e-b9c3-e724b8cc3896","system_id":"levelo_inurba_marseille","lat":43.29536,"lon":5.39041,"is_reserved":false,"is_disabled":false,"rental_uris":{"android":"levelo://app?vid=e072bac6-40e2-440e-b9c3-e724b8cc3896","ios":"levelo://app?vid=e072bac6-40e2-440e-b9c3-e724b8cc3896"},"vehicle_type_id":"4","last_reported":1753096168,"current_range_meters":22400,"station_id":"ce4bh3p2rcd13ifvqdp0","pricing_plan_id":"cebpf4jnsgd1na2vs0mg"},{"bike_id":"875c6470-4bd1-429a-b8f9-04be22eb75f1","system_id":"levelo_inurba_marseille","lat":43.231454,"lon":5.437172,"is_reserved":false,"is_disabled":true,"rental_uris":{"android":"levelo://app?vid=875c6470-4bd1-429a-b8f9-04be22eb75f1","ios":"levelo://app?vid=875c6470-4bd1-429a-b8f9-04be22eb75f1"},"vehicle_type_id":"4","last_reported":1753096168,"current_range_meters":22400,"station_id":"ce4bhmp2rcd13ifvqgog","pricing_plan_id":"cebpf4jnsgd1na2vs0mg"},{"bike_id":"a18bb49d-1f4a-4a1f-8713-0ccce8962909","system_id":"levelo_inurba_marseille","lat":43.25742,"lon":5.41024,"is_reserved":false,"is_disabled":false,"rental_uris":{"android":"levelo://app?vid=a18bb49d-1f4a-4a1f-8713-0ccce8962909","ios":"levelo://app?vid=a18bb49d-1f4a-4a1f-8713-0ccce8962909"},"vehicle_type_id":"4","last_reported":1753096168,"current_range_meters":22800,"station_id":"ce4bhkp2rcd13ifvqgd0","pricing_plan_id":"cebpf4jnsgd1na2vs0mg"},{"bike_id":"1329909a-61a6-44eb-b9f4-706c85654d16","system_id":"levelo_inurba_marseille","lat":43.29319,"lon":5.37368,"is_reserved":false,"is_disabled":false,"rental_uris":{"android":"levelo://app?vid=1329909a-61a6-44eb-b9f4-706c85654d16","ios":"levelo://app?vid=1329909a-61a6-44eb-b9f4-706c85654d16"},"vehicle_type_id":"4","last_reported":1753096168,"current_range_meters":22800,"station_id":"","pricing_plan_id":"cebpf4jnsgd1na2vs0mg"},{"bike_id":"3876af6e-a868-4aa6-afbb-deb3bffdb10a","system_id":"levelo_inurba_marseille","lat":43.229311,"lon":5.35395,"is_reserved":false,"is_disabled":false,"rental_uris":{"android":"levelo://app?vid=3876af6e-a868-4aa6-afbb-deb3bffdb10a","ios":"levelo://app?vid=3876af6e-a868-4aa6-afbb-deb3bffdb10a"},"vehicle_type_id":"4","last_reported":1753096168,"current_range_meters":22800,"station_id":"cpo3532slgdg3j2ikp40","pricing_plan_id":"cebpf4jnsgd1na2vs0mg"},{"bike_id":"79fa6b58-24ee-4b4b-ba0f-c93edcf822e9","system_id":"levelo_inurba_marseille","lat":43.26538,"lon":5.37321,"is_reserved":false,"is_disabled":false,"rental_uris":{"android":"levelo://app?vid=79fa6b58-24ee-4b4b-ba0f-c93edcf822e9","ios":"levelo://app?vid=79fa6b58-24ee-4b4b-ba0f-c93edcf822e9"},"vehicle_type_id":"4","last_reported":1753096168,"current_range_meters":22800,"station_id":"ce4bhg12rcd13ifvqf70","pricing_plan_id":"cebpf4jnsgd1na2vs0mg"},{"bike_id":"21ed3ce3-58da-4d21-a093-710ba2e8dd0d","system_id":"levelo_inurba_marseille","lat":43.30893,"lon":5.39676,"is_reserved":false,"is_disabled":false,"rental_uris":{"android":"levelo://app?vid=21ed3ce3-58da-4d21-a093-710ba2e8dd0d","ios":"levelo://app?vid=21ed3ce3-58da-4d21-a093-710ba2e8dd0d"},"vehicle_type_id":"4","last_reported":1753096168,"current_range_meters":22800,"station_id":"ce4bh012rcd13ifvqcv0","pricing_plan_id":"cebpf4jnsgd1na2vs0mg"},{"bike_id":"b1d5754d-fa7b-4fb2-ae2d-5068d9c31d45","system_id":"levelo_inurba_marseille","lat":43.33666,"lon":5.39225,"is_reserved":false,"is_disabled":false,"rental_uris":{"android":"levelo://app?vid=b1d5754d-fa7b-4fb2-ae2d-5068d9c31d45","ios":"levelo://app?vid=b1d5754d-fa7b-4fb2-ae2d-5068d9c31d45"},"vehicle_type_id":"4","last_reported":1753096168,"current_range_meters":22800,"station_id":"","pricing_plan_id":"cebpf4jnsgd1na2vs0mg"},{"bike_id":"e80f062d-07e0-4564-b2a0-f9c94e191f16","system_id":"levelo_inurba_marseille","lat":43.26179,"lon":5.37475,"is_reserved":false,"is_disabled":false,"rental_uris":{"android":"levelo://app?vid=e80f062d-07e0-4564-b2a0-f9c94e191f16","ios":"levelo://app?vid=e80f062d-07e0-4564-b2a0-f9c94e191f16"},"vehicle_type_id":"4","last_reported":1753096168,"current_range_meters":22800,"station_id":"ce4bhgp2rcd13ifvqfc0","pricing_plan_id":"cebpf4jnsgd1na2vs0mg"},