{"last_updated":1741913323,"ttl":60,"version":"2.2","data":{"bikes":[{"bike_id":"ede9cdcd-d1e4-4cc0-90bd-cfb7cc135dc4","system_id":"levelo_inurba_marseille","lat":43.24159,"lon":5.3969,"is_reserved":false,"is_disabled":true,"rental_uris":{"android":"levelo://app?vid=ede9cdcd-d1e4-4cc0-90bd-cfb7cc135dc4","ios":"levelo://app?vid=ede9cdcd-d1e4-4cc0-90bd-cfb7cc135dc4"},"vehicle_type_id":"4","last_reported":1741913323,"current_range_meters":3200,"station_id":"ce4bhn12rcd13ifvqgpg","pricing_plan_id":"cebpf4jnsgd1na2vs0mg"},{"bike_id":"f1e32cea-b14d-4f35-acec-c023e6c2a8f8","system_id":"levelo_inurba_marseille","lat":43.25119,"lon":5.40314,"is_reserved":false,"is_disabled":false,"rental_uris":{"android":"levelo://app?vid=f1e32cea-b14d-4f35-acec-c023e6c2a8f8","ios":"levelo://app?vid=f1e32cea-b14d-4f35-acec-c023e6c2a8f8"},"vehicle_type_id":"4","last_reported":1741913323,"current_range_meters":3200,"station_id":"ce4bhlh2rcd13ifvqgig","pricing_plan_id":"cebpf4jnsgd1na2vs0mg"},{"bike_id":"c90a3d95-3a8f-4d8e-96a4-e0902f8fa5e2","system_id":"levelo_inurba_marseille","lat":43.310754,"lon":5.375064,"is_reserved":false,"is_disabled":false,"rental_uris":{"android":"levelo://app?vid=c90a3d95-3a8f-4d8e-96a4-e0902f8fa5e2","ios":"levelo://app?vid=c90a3d95-3a8f-4d8e-96a4-e0902f8fa5e2"},"vehicle_type_id":"4","last_reported":1741913323,"current_range_meters":3600,"station_id":"","pricing_plan_id":"cebpf4jnsgd1na2vs0mg"},{"bike_id":"cb182a18-4381-4f7e-9a2b-b919b61d493c","system_id":"levelo_inurba_marseille","lat":43.24661,"lon":5.38163,"is_reserved":false,"is_disabled":false,"rental_uris":{"android":"levelo://app?vid=cb182a18-4381-4f7e-9a2b-b919b61d493c","ios":"levelo://app?vid=cb182a18-4381-4f7e-9a2b-b919b61d493c"},"vehicle_type_id":"4","last_reported":1741913323,"current_range_meters":3600,"station_id":"ce4bhih2rcd13ifvqfr0","pricing_plan_id":"cebpf4jnsgd1na2vs0mg"},{"bike_id":"4335b6e7-5c7c-46e7-8e31-2652dc96e1d5","system_id":"levelo_inurba_marseille","lat":43.29795,"lon":5.37051,"is_reserved":false,"is_disabled":false,"rental_uris":{"android":"levelo://app?vid=4335b6e7-5c7c-46e7-8e31-2652dc96e1d5","ios":"levelo://app?vid=4335b6e7-5c7c-46e7-8e31-2652dc96e1d5"},"vehicle_type_id":"4","last_reported":1741913323,"current_range_meters":4000,"station_id":"ce4bgop2rcd13ifvqc1g","pricing_plan_id":"cebpf4jnsgd1na2vs0mg"},{"bike_id":"eabb6b0c-9939-42bf-968f-dc61fc77f9d9","system_id":"levelo_inurba_marseille","lat":43.28016,"lon":5.36551,"is_reserved":false,"is_disabled":false,"rental_uris":{"android":"levelo://app?vid=eabb6b0c-9939-42bf-968f-dc61fc77f9d9","ios":"levelo://app?vid=eabb6b0c-9939-42bf-968f-dc61fc77f9d9"},"vehicle_type_id":"4","last_reported":1741913323,"current_range_meters":4000,"station_id":"","pricing_plan_id":"cebpf4jnsgd1na2vs0mg"},{"bike_id":"1716b85c-267a-4799-b270-e74eb7172ede","system_id":"levelo_inurba_marseille","lat":43.28038,"lon":5.3695,"is_reserved":false,"is_disabled":false,"rental_uris":{"android":"levelo://app?vid=1716b85c-267a-4799-b270-e74eb7172ede","ios":"levelo://app?vid=1716b85c-267a-4799-b270-e74eb7172ede"},"vehicle_type_id":"4","last_reported":1741913323,"current_range_meters":4000,"station_id":"ce4bha12rcd13ifvqef0","pricing_plan_id":"cebpf4jnsgd1na2vs0mg"},{"bike_id":"3a6f4a08-7097-425e-ba9b-503eb294df3b","system_id":"levelo_inurba_marseille","lat":43.27807,"lon":5.40714,"is_reserved":false,"is_disabled":true,"rental_uris":{"android":"levelo://app?vid=3a6f4a08-7097-425e-ba9b-503eb294df3b","ios":"levelo://app?vid=3a6f4a08-7097-425e-ba9b-503eb294df3b"},"vehicle_type_id":"4","last_reported":1741913323,"current_range_meters":4000,"station_id":"ce4bhnh2rcd13ifvqgtg","pricing_plan_id":"cebpf4jnsgd1na2vs0mg"},{"bike_id":"0e1454f0-c501-449b-b78c-ddfc8f4d9aab","system_id":"levelo_inurba_marseille","lat":43.33768,"lon":5.3749,"is_reserved":false,"is_disabled":false,"rental_uris":{"android":"levelo://app?vid=0e1454f0-c501-449b-b78c-ddfc8f4d9aab","ios":"levelo://app?vid=0e1454f0-c501-449b-b78c-ddfc8f4d9aab"},"vehicle_type_id":"4","last_reported":1741913323,"current_range_meters":4400,"station_id":"","pricing_plan_id":"cebpf4jnsgd1na2vs0mg"},{"bike_id":"08e2954e-f130-4b42-9188-72a9660b1561","system_id":"levelo_inurba_marseille","lat":43.29263,"lon":5.38437,"is_reserved":false,"is_disabled":false,"rental_uris":{"android":"levelo://app?vid=08e2954e-f130-4b42-9188-72a9660b1561","ios":"levelo://app?vid=08e2954e-f130-4b42-9188-72a9660b1561"},"vehicle_type_id":"4","last_reported":1741913323,"current_range_meters":4800,"station_id":"ce4bh112rcd13ifvqda0","pricing_plan_id":"cebpf4jnsgd1na2vs0mg"},{"bike_id":"3a8e5cbe-769a-4605-834b-200791d15b5d","system_id":"levelo_inurba_marseille","lat":43.30312,"lon":5.36892,"is_reserved":false,"is_disabled":false,"rental_uris":{"android":"levelo://app?vid=3a8e5cbe-769a-4605-834b-200791d15b5d","ios":"levelo://app?vid=3a8e5cbe-769a-4605-834b-200791d15b5d"},"vehicle_type_id":"4","last_reported":1741913323,"current_range_meters":6000,"station_id":"ce4bgqh2rcd13ifvqc5g","pricing_plan_id":"cebpf4jnsgd1na2vs0mg"},{"bike_id":"7f97dab3-6641-4c6a-9b12-3940cae11793","system_id":"levelo_inurba_marseille","lat":43.25005,"lon":5.38923,"is_reserved":false,"is_disabled":false,"rental_uris":{"android":"levelo://app?vid=7f97dab3-6641-4c6a-9b12-3940cae11793","ios":"levelo://app?vid=7f97dab3-6641-4c6a-9b12-3940cae11793"},"vehicle_type_id":"4","last_reported":1741913323,"current_range_meters":6000,"station_id":"ce4bhgp2rcd13ifvqfd0","pricing_plan_id":"cebpf4jnsgd1na2vs0mg"},{"bike_id":"088a4bb0-9b25-47e9-9fd1-337287ee4e2c","system_id":"levelo_inurba_marseille","lat":43.28738,"lon":5.3608,"is_reserved":false,"is_disabled":false,"rental_uris":{"android":"levelo://app?vid=088a4bb0-9b25-47e9-9fd1-337287ee4e2c","ios":"levelo://app?vid=088a4bb0-9b25-47e9-9fd1-337287ee4e2c"},"vehicle_type_id":"4","last_reported":1741913323,"current_range_meters":6000,"station_id":"cki0cbj6b192h4jlfktg","pricing_plan_id":"cebpf4jnsgd1na2vs0mg"},{"bike_id":"2fe54254-5b11-4939-bb74-6fb31c1295ea","system_id":"levelo_inurba_marseille","lat":43.22932,"lon":5.3538,"is_reserved":false,"is_disabled":false,"rental_uris":{"android":"levelo://app?vid=2fe54254-5b11-4939-bb74-6fb31c1295ea","ios":"levelo://app?vid=2fe54254-5b11-4939-bb74-6fb31c1295ea"},"vehicle_type_id":"4","last_reported":1741913323,"current_range_meters":6000,"station_id":"cpo3532slgdg3j2ikp40","pricing_plan_id":"cebpf4jnsgd1na2vs0mg"},{"bike_id":"a72cf16a-6a30-42fd-ab49-950071c074f6","system_id":"levelo_inurba_marseille","lat":43.25742,"lon":5.41074,"is_reserved":false,"is_disabled":false,"rental_uris":{"android":"levelo://app?vid=a72cf16a-6a30-42fd-ab49-950071c074f6","ios":"levelo://app?vid=a72cf16a-6a30-42fd-ab49-950071c074f6"},"vehicle_type_id":"4","last_reported":1741913323,"current_range_meters":6000,"station_id":"ce4bhkp2rcd13ifvqgd0","pricing_plan_id":"cebpf4jnsgd1na2vs0mg"},{"bike_id":"28cd2e82-5ec9-4af4-82a6-0279e5cdf721","system_id":"levelo_inurba_marseille","lat":43.27787,"lon":5.40774,"is_reserved":false,"is_disabled":false,"rental_uris":{"android":"levelo://app?vid=28cd2e82-5ec9-4af4-82a6-0279e5cdf721","ios":"levelo://app?vid=28cd2e82-5ec9-4af4-82a6-0279e5cdf721"},"vehicle_type_id":"4","last_reported":1741913323,"current_range_meters":6000,"station_id":"ce4bhnh2rcd13ifvqgtg","pricing_plan_id":"cebpf4jnsgd1na2vs0mg"},{"bike_id":"4cb8f842-136a-4433-88e0-08e50ae949b5","system_id":"levelo_inurba_marseille","lat":43.27809,"lon":5.40718,"is_reserved":false,"is_disabled":false,"rental_uris":{"android":"levelo://app?vid=4cb8f842-136a-4433-88e0-08e50ae949b5","ios":"levelo://app?vid=4cb8f842-136a-4433-88e0-08e50ae949b5"},"vehicle_type_id":"4","last_reported":1741913323,"current_range_meters":6000,"station_id":"ce4bhnh2rcd13ifvqgtg","pricing_plan_id":"cebpf4jnsgd1na2vs0mg"},{"bike_id":"d5ae4600-476e-4c8a-b248-76c73ec9f040","system_id":"levelo_inurba_marseille","lat":43.25007,"lon":5.38902,"is_reserved":false,"is_disabled":false,"rental_uris":{"android":"levelo://app?vid=d5ae4600-476e-4c8a-b248-76c73ec9f040","ios":"levelo://app?vid=d5ae4600-476e-4c8a-b248-76c73ec9f040"},"vehicle_type_id":"4","last_reported":1741913323,"current_range_meters":6400,"station_id":"ce4bhgp2rcd13ifvqfd0","pricing_plan_id":"cebpf4jnsgd1na2vs0mg"},{"bike_id":"55450433-5661-4ea2-be2d-9e8b36393cf7","system_id":"levelo_inurba_marseille","lat":43.31492,"lon":5.37369,"is_reserved":false,"is_disabled":false,"rental_uris":{"android":"levelo://app?vid=55450433-5661-4ea2-be2d-9e8b36393cf7","ios":"levelo://app?vid=55450433-5661-4ea2-be2d-9e8b36393cf7"},"vehicle_type_id":"4","last_reported":1741913323,"current_range_meters":6400,"station_id":"","pricing_plan_id":"cebpf4jnsgd1na2vs0mg"},{"bike_id":"8ca720cf-8cc7-4201-a29c-e07b0ffda00a","system_id":"levelo_inurba_marseille","lat":43.231902,"lon":5.399884,"is_reserved":false,"is_disabled":false,"rental_uris":{"android":"levelo://app?vid=8ca720cf-8cc7-4201-a29c-e07b0ffda00a","ios":"levelo://app?vid=8ca720cf-8cc7-4201-a29c-e07b0ffda00a"},"vehicle_type_id":"4","last_reported":1741913323,"current_range_meters":6400,"station_id":"ce4bhn12rcd13ifvqgqg","pricing_plan_id":"cebpf4jnsgd1na2vs0mg"},{"bike_id":"9e1237c1-208f-4b0d-9e05-70106fcb9362","system_id":"levelo_inurba_marseille","lat":43.28413,"lon":5.37532,"is_reserved":false,"is_disabled":false,"rental_uris":{"android":"levelo://app?vid=9e1237c1-208f-4b0d-9e05-70106fcb9362","ios":"levelo://app?vid=9e1237c1-208f-4b0d-9e05-70106fcb9362"},"vehicle_type_id":"4","last_reported":1741913323,"current_range_meters":6400,"station_id":"ce4bh412rcd13ifvqds0","pricing_plan_id":"cebpf4jnsgd1na2vs0mg"},{"bike_id":"56ebe466-b342-4e8c-9a0e-3406b8d2db2c","system_id":"levelo_inurba_marseille","lat":43.27991,"lon":5.39999,"is_reserved":false,"is_disabled":false,"rental_uris":{"android":"levelo://app?vid=56ebe466-b342-4e8c-9a0e-3406b8d2db2c","ios":"levelo://app?vid=56ebe466-b342-4e8c-9a0e-3406b8d2db2c"},"vehicle_type_id":"4","last_reported":1741913323,"current_range_meters":6800,"station_id":"ce4bho92rcd13ifvqh4g","pricing_plan_id":"cebpf4jnsgd1na2vs0mg"},{"bike_id":"7ebfb57f-258a-4c22-9402-1f9f24559070","system_id":"levelo_inurba_marseille","lat":43.25717,"lon":5.4111,"is_reserved":false,"is_disabled":false,"rental_uris":{"android":"levelo://app?vid=7ebfb57f-258a-4c22-9402-1f9f24559070","ios":"levelo://app?vid=7ebfb57f-258a-4c22-9402-1f9f24559070"},"vehicle_type_id":"4","last_reported":1741913323,"current_range_meters":6800,"station_id":"ce4bhkp2rcd13ifvqgd0","pricing_plan_id":"cebpf4jnsgd1na2vs0mg"},{"bike_id":"bbe3b04a-4a72-4f38-8422-b6f8f79a7093","system_id":"levelo_inurba_marseille","lat":43.325463,"lon":5.41018,"is_reserved":false,"is_disabled":false,"rental_uris":{"android":"levelo://app?vid=bbe3b04a-4a72-4f38-8422-b6f8f79a7093","ios":"levelo://app?vid=bbe3b04a-4a72-4f38-8422-b6f8f79a7093"},"vehicle_type_id":"4","last_reported":1741913323,"current_range_meters":6800,"station_id":"","pricing_plan_id":"cebpf4jnsgd1na2vs0mg"},{"bike_id":"0f161917-d8c5-4841-b64b-7e226665578c","system_id":"levelo_inurba_marseille","lat":43.25119,"lon":5.4032,"is_reserved":false,"is_disabled":false,"rental_uris":{"android":"levelo://app?vid=0f161917-d8c5-4841-b64b-7e226665578c","ios":"levelo://app?vid=0f161917-d8c5-4841-b64b-7e226665578c"},"vehicle_type_id":"4","last_reported":1741913323,"current_range_meters":6800,"station_id":"ce4bhlh2rcd13ifvqgig","pricing_plan_id":"cebpf4jnsgd1na2vs0mg"},{"bike_id":"a4acc583-7b24-4665-929d-fada161a91f7","system_id":"levelo_inurba_marseille","lat":43.29492,"lon":5.44436,"is_reserved":false,"is_disabled":false,"rental_uris":{"android":"levelo://app?vid=a4acc583-7b24-4665-929d-fada161a91f7","ios":"levelo://app?vid=a4acc583-7b24-4665-929d-fada161a91f7"},"vehicle_type_id":"4","last_reported":1741913323,"current_range_meters":6800,"station_id":"","pricing_plan_id":"cebpf4jnsgd1na2vs0mg"},{"bike_id":"d7cf3da4-03cf-4eae-b183-47670a6b872f","system_id":"levelo_inurba_marseille","lat":43.23188,"lon":5.35562,"is_reserved":false,"is_disabled":false,"rental_uris":{"android":"levelo://app?vid=d7cf3da4-03cf-4eae-b183-47670a6b872f","ios":"levelo://app?vid=d7cf3da4-03cf-4eae-b183-47670a6b872f"},"vehicle_type_id":"4","last_reported":1741913323,"current_range_meters":6800,"station_id":"ce4bhu92rcd13ifvqi70","pricing_plan_id":"cebpf4jnsgd1na2vs0mg"},{"bike_id":"db7198b7-4986-487c-848f-b6fa2eea4556","system_id":"levelo_inurba_marseille","lat":43.31986,"lon":5.38147,"is_reserved":false,"is_disabled":false,"rental_uris":{"android":"levelo://app?vid=db7198b7-4986-487c-848f-b6fa2eea4556","ios":"levelo://app?vid=db7198b7-4986-487c-848f-b6fa2eea4556"},"vehicle_type_id":"4","last_reported":1741913323,"current_range_meters":6800,"station_id":"ce4bhr12rcd13ifvqhpg","pricing_plan_id":"cebpf4jnsgd1na2vs0mg"},{"bike_id":"ccde3be1-4144-427e-acc2-fed605e4915f","system_id":"levelo_inurba_marseille","lat":43.281026,"lon":5.398509,"is_reserved":false,"is_disabled":false,"rental_uris":{"android":"levelo://app?vid=ccde3be1-4144-427e-acc2-fed605e4915f","ios":"levelo://app?vid=ccde3be1-4144-427e-acc2-fed605e4915f"},"vehicle_type_id":"4","last_reported":1741913323,"current_range_meters":6800,"station_id":"","pricing_plan_id":"cebpf4jnsgd1na2vs0mg"},{"bike_id":"931a65f6-98be-4189-b167-a49aeaf4dc43","system_id":"levelo_inurba_marseille","lat":43.25005,"lon":5.38935,"is_reserved":false,"is_disabled":false,"rental_uris":{"android":"levelo://app?vid=931a65f6-98be-4189-b167-a49aeaf4dc43","ios":"levelo://app?vid=931a65f6-98be-4189-b167-a49aeaf4dc43"},"vehicle_type_id":"4","last_reported":1741913323,"current_range_meters":6800,"station_id":"ce4bhgp2rcd13ifvqfd0","pricing_plan_id":"cebpf4jnsgd1na2vs0mg"},{"bike_id":"3674c64e-3a28-4e86-8ab2-f27f7050deb8","system_id":"levelo_inurba_marseille","lat":43.28708,"lon":5.37934,"is_reserved":false,"is_disabled":false,"rental_uris":{"android":"levelo://app?vid=3674c64e-3a28-4e86-8ab2-f27f7050deb8","ios":"levelo://app?vid=3674c64e-3a28-4e86-8ab2-f27f7050deb8"},"vehicle_type_id":"4","last_reported":1741913323,"current_range_meters":6800,"station_id":"ce4bh9p2rcd13ifvqec0","pricing_plan_id":"cebpf4jnsgd1na2vs0mg"},{"bike_id":"1d9a5003-f7eb-451d-80d5-0a02826709a5","system_id":"levelo_inurba_marseille","lat":43.30593,"lon":5.37217,"is_reserved":false,"is_disabled":true,"rental_uris":{"android":"levelo://app?vid=1d9a5003-f7eb-451d-80d5-0a02826709a5","ios":"levelo://app?vid=1d9a5003-f7eb-451d-80d5-0a02826709a5"},"vehicle_type_id":"4","last_reported":1741913323,"current_range_meters":7200,"station_id":"ce4bgqh2rcd13ifvqc4g","pricing_plan_id":"cebpf4jnsgd1na2vs0mg"},{"bike_id":"1bc48551-0c9e-4efb-8959-86401b55df78","system_id":"levelo_inurba_marseille","lat":43.3311,"lon":5.37992,"is_reserved":false,"is_disabled":false,"rental_uris":{"android":"levelo://app?vid=1bc48551-0c9e-4efb-8959-86401b55df78","ios":"levelo://app?vid=1bc48551-0c9e-4efb-8959-86401b55df78"},"vehicle_type_id":"4","last_reported":1741913323,"current_range_meters":7200,"station_id":"","pricing_plan_id":"cebpf4jnsgd1na2vs0mg"},{"bike_id":"3ae78f44-13b8-46f9-9116-9dc257446bf4","system_id":"levelo_inurba_marseille","lat":43.28653,"lon":5.36348,"is_reserved":false,"is_disabled":false,"rental_uris":{"android":"levelo://app?vid=3ae78f44-13b8-46f9-9116-9dc257446bf4","ios":"levelo://app?vid=3ae78f44-13b8-46f9-9116-9dc257446bf4"},"vehicle_type_id":"4","last_reported":1741913323,"current_range_meters":7200,"station_id":"ce4bhah2rcd13ifvqej0","pricing_plan_id":"cebpf4jnsgd1na2vs0mg"},{"bike_id":"0b827037-2187-4d73-b5ab-f60249434016","system_id":"levelo_inurba_marseille","lat":43.31356,"lon":5.38492,"is_reserved":false,"is_disabled":false,"rental_uris":{"android":"levelo://app?vid=0b827037-2187-4d73-b5ab-f60249434016","ios":"levelo://app?vid=0b827037-2187-4d73-b5ab-f60249434016"},"vehicle_type_id":"4","last_reported":1741913323,"current_range_meters":8000,"station_id":"ce4bgt92rcd13ifvqcf0","pricing_plan_id":"cebpf4jnsgd1na2vs0mg"},{"bike_id":"d0f37a2d-5920-4a00-ab9e-56f97581bf07","system_id":"levelo_inurba_marseille","lat":43.27809,"lon":5.40723,"is_reserved":false,"is_disabled":false,"rental_uris":{"android":"levelo://app?vid=d0f37a2d-5920-4a00-ab9e-56f97581bf07","ios":"levelo://app?vid=d0f37a2d-5920-4a00-ab9e-56f97581bf07"},"vehicle_type_id":"4","last_reported":1741913323,"current_range_meters":8000,"station_id":"ce4bhnh2rcd13ifvqgtg","pricing_plan_id":"cebpf4jnsgd1na2vs0mg"},{"bike_id":"a1865482-901a-461f-bbbf-89cc5aaa4978","system_id":"levelo_inurba_marseille","lat":43.31232,"lon":5.37859,"is_reserved":false,"is_disabled":false,"rental_uris":{"android":"levelo://app?vid=a1865482-901a-461f-bbbf-89cc5aaa4978","ios":"levelo://app?vid=a1865482-901a-461f-bbbf-89cc5aaa4978"},"vehicle_type_id":"4","last_reported":1741913323,"current_range_meters":8000,"station_id":"","pricing_plan_id":"cebpf4jnsgd1na2vs0mg"},{"bike_id":"7a5158c5-a332-40d9-b718-72571efee9d7","system_id":"levelo_inurba_marseille","lat":43.28119,"lon":5.44597,"is_reserved":false,"is_disabled":false,"rental_uris":{"android":"levelo://app?vid=7a5158c5-a332-40d9-b718-72571efee9d7","ios":"levelo://app?vid=7a5158c5-a332-40d9-b718-72571efee9d7"},"vehicle_type_id":"4","last_reported":1741913323,"current_range_meters":8000,"station_id":"","pricing_plan_id":"cebpf4jnsgd1na2vs0mg"},{"bike_id":"f284e0dc-cf65-4213-adb7-a02697043fe8","system_id":"levelo_inurba_marseille","lat":43.29956,"lon":5.41313,"is_reserved":false,"is_disabled":false,"rental_uris":{"android":"levelo://app?vid=f284e0dc-cf65-4213-adb7-a02697043fe8","ios":"levelo://app?vid=f284e0dc-cf65-4213-adb7-a02697043fe8"},"vehicle_type_id":"4","last_reported":1741913323,"current_range_meters":8000,"station_id":"ce4bhp12rcd13ifvqh9g","pricing_plan_id":"cebpf4jnsgd1na2vs0mg"},{"bike_id":"cd62f0b0-e712-4ed8-b222-8e7cb2c87e1b","system_id":"levelo_inurba_marseille","lat":43.23595,"lon":5.40349,"is_reserved":false,"is_disabled":false,"rental_uris":{"android":"levelo://app?vid=cd62f0b0-e712-4ed8-b222-8e7cb2c87e1b","ios":"levelo://app?vid=cd62f0b0-e712-4ed8-b222-8e7cb2c87e1b"},"vehicle_type_id":"4","last_reported":1741913323,"current_range_meters":8000,"station_id":"","pricing_plan_id":"cebpf4jnsgd1na2vs0mg"},{"bike_id":"fe2dbfad-2b3c-45be-b26a-7ab6c0dcbc97","system_id":"levelo_inurba_marseille","lat":43.30164,"lon":5.3769,"is_reserved":false,"is_disabled":false,"rental_uris":{"android":"levelo://app?vid=fe2dbfad-2b3c-45be-b26a-7ab6c0dcbc97","ios":"levelo://app?vid=fe2dbfad-2b3c-45be-b26a-7ab6c0dcbc97"},"vehicle_type_id":"4","last_reported":1741913323,"current_range_meters":8000,"station_id":"","pricing_plan_id":"cebpf4jnsgd1na2vs0mg"},{"bike_id":"eb566ff4-1bac-4bc4-88db-2a4f2a1cb684","system_id":"levelo_inurba_marseille","lat":43.289455,"lon":5.39613,"is_reserved":false,"is_disabled":false,"rental_uris":{"android":"levelo://app?vid=eb566ff4-1bac-4bc4-88db-2a4f2a1cb684","ios":"levelo://app?vid=eb566ff4-1bac-4bc4-88db-2a4f2a1cb684"},"vehicle_type_id":"4","last_reported":1741913323,"current_range_meters":8000,"station_id":"ce4bh3h2rcd13ifvqdn0","pricing_plan_id":"cebpf4jnsgd1na2vs0mg"},{"bike_id":"6231c48c-b2ee-4457-a881-f9675e466c5b","system_id":"levelo_inurba_marseille","lat":43.32335,"lon":5.40601,"is_reserved":false,"is_disabled":false,"rental_uris":{"android":"levelo://app?vid=6231c48c-b2ee-4457-a881-f9675e466c5b","ios":"levelo://app?vid=6231c48c-b2ee-4457-a881-f9675e466c5b"},"vehicle_type_id":"4","last_reported":1741913323,"current_range_meters":8000,"station_id":"ce4bhq92rcd13ifvqhjg","pricing_plan_id":"cebpf4jnsgd1na2vs0mg"},{"bike_id":"b640cf5f-f768-4c2b-aa5e-7c080b37e774","system_id":"levelo_inurba_marseille","lat":43.31055,"lon":5.38341,"is_reserved":false,"is_disabled":false,"rental_uris":{"android":"levelo://app?vid=b640cf5f-f768-4c2b-aa5e-7c080b37e774","ios":"levelo://app?vid=b640cf5f-f768-4c2b-aa5e-7c080b37e774"},"vehicle_type_id":"4","last_reported":1741913323,"current_range_meters":8000,"station_id":"ce4bgv92rcd13ifvqcr0","pricing_plan_id":"cebpf4jnsgd1na2vs0mg"},{"bike_id":"e350ce66-a995-469c-b4d1-ba6658fe49e2","system_id":"levelo_inurba_marseille","lat":43.278142,"lon":5.407132,"is_reserved":false,"is_disabled":false,"rental_uris":{"android":"levelo://app?vid=e350ce66-a995-469c-b4d1-ba6658fe49e2","ios":"levelo://app?vid=e350ce66-a995-469c-b4d1-ba6658fe49e2"},"vehicle_type_id":"4","last_reported":1741913323,"current_range_meters":8000,"station_id":"ce4bhnh2rcd13ifvqgtg","pricing_plan_id":"cebpf4jnsgd1na2vs0mg"},{"bike_id":"29c167e7-f543-4956-bde0-273e9178e2cf","system_id":"levelo_inurba_marseille","lat":43.32358,"lon":5.36759,"is_reserved":false,"is_disabled":false,"rental_uris":{"android":"levelo://app?vid=29c167e7-f543-4956-bde0-273e9178e2cf","ios":"levelo://app?vid=29c167e7-f543-4956-bde0-273e9178e2cf"},"vehicle_type_id":"4","last_reported":1741913323,"current_range_meters":8000,"station_id":"ce4bhsh2rcd13ifvqi2g","pricing_plan_id":"cebpf4jnsgd1na2vs0mg"},{"bike_id":"350ea95a-3b99-41d4-9c6f-7758f2dca2c0","system_id":"levelo_inurba_marseille","lat":43.26805,"lon":5.40268,"is_reserved":false,"is_disabled":false,"rental_uris":{"android":"levelo://app?vid=350ea95a-3b99-41d4-9c6f-7758f2dca2c0","ios":"levelo://app?vid=350ea95a-3b99-41d4-9c6f-7758f2dca2c0"},"vehicle_type_id":"4","last_reported":1741913323,"current_range_meters":8000,"station_id":"ce501612rcd8frsf0b60","pricing_plan_id":"cebpf4jnsgd1na2vs0mg"},{"bike_id":"814c8ec0-7f86-43ef-a1aa-fb2c579e864f","system_id":"levelo_inurba_marseille","lat":43.30455,"lon":5.38226,"is_reserved":false,"is_disabled":false,"rental_uris":{"android":"levelo://app?vid=814c8ec0-7f86-43ef-a1aa-fb2c579e864f","ios":"levelo://app?vid=814c8ec0-7f86-43ef-a1aa-fb2c579e864f"},"vehicle_type_id":"4","last_reported":1741913323,"current_range_meters":8400,"station_id":"","pricing_plan_id":"cebpf4jnsgd1na2vs0mg"},{"bike_id":"155c7165-40f9-4638-84a1-91e91cddb9e0","system_id":"levelo_inurba_marseille","lat":43.307941,"lon":5.373463,"is_reserved":false,"is_disabled":true,"rental_uris":{"android":"levelo://app?vid=155c7165-40f9-4638-84a1-91e91cddb9e0","ios":"levelo://app?vid=155c7165-40f9-4638-84a1-91e91cddb9e0"},"vehicle_type_id":"4","last_reported":1741913323,"current_range_meters":8400,"station_id":"","pricing_plan_id":"cebpf4jnsgd1na2vs0mg"},{"bike_id":"867ce339-ec44-46de-b242-200925a17d65","system_id":"levelo_inurba_marseille","lat":43.31183,"lon":5.38737,"is_reserved":false,"is_disabled":false,"rental_uris":{"android":"levelo://app?vid=867ce339-ec44-46de-b242-200925a17d65","ios":"levelo://app?vid=867ce339-ec44-46de-b242-200925a17d65"},"vehicle_type_id":"4","last_reported":1741913323,"current_range_meters":8400,"station_id":"ce4bgv12rcd13ifvqcp0","pricing_plan_id":"cebpf4jnsgd1na2vs0mg"},{"bike_id":"8b280ae3-41fc-4032-96f1-8905fd5fbf6d","system_id":"levelo_inurba_marseille","lat":43.2621,"lon":5.37441,"is_reserved":false,"is_disabled":false,"rental_uris":{"android":"levelo://app?vid=8b280ae3-41fc-4032-96f1-8905fd5fbf6d","ios":"levelo://app?vid=8b280ae3-41fc-4032-96f1-8905fd5fbf6d"},"vehicle_type_id":"4","last_reported":1741913323,"current_range_meters":8400,"station_id":"ce4bhgp2rcd13ifvqfc0","pricing_plan_id":"cebpf4jnsgd1na2vs0mg"},{"bike_id":"d0da08c1-6f2e-4548-8fc2-e9c8603b4e82","system_id":"levelo_inurba_marseille","lat":43.30944,"lon":5.39022,"is_reserved":false,"is_disabled":true,"rental_uris":{"android":"levelo://app?vid=d0da08c1-6f2e-4548-8fc2-e9c8603b4e82","ios":"levelo://app?vid=d0da08c1-6f2e-4548-8fc2-e9c8603b4e82"},"vehicle_type_id":"4","last_reported":1741913323,"current_range_meters":8400,"station_id":"ce4bgup2rcd13ifvqco0","pricing_plan_id":"cebpf4jnsgd1na2vs0mg"},{"bike_id":"b363f8b8-2518-47c4-9880-4e754d1b57c8","system_id":"levelo_inurba_marseille","lat":43.3092,"lon":5.40132,"is_reserved":false,"is_disabled":false,"rental_uris":{"android":"levelo://app?vid=b363f8b8-2518-47c4-9880-4e754d1b57c8","ios":"levelo://app?vid=b363f8b8-2518-47c4-9880-4e754d1b57c8"},"vehicle_type_id":"4","last_reported":1741913323,"current_range_meters":8400,"station_id":"ce4bgvp2rcd13ifvqct0","pricing_plan_id":"cebpf4jnsgd1na2vs0mg"},{"bike_id":"154d0f4a-7cf1-4b4a-8919-807104d462e1","system_id":"levelo_inurba_marseille","lat":43.26661,"lon":5.38604,"is_reserved":false,"is_disabled":false,"rental_uris":{"android":"levelo://app?vid=154d0f4a-7cf1-4b4a-8919-807104d462e1","ios":"levelo://app?vid=154d0f4a-7cf1-4b4a-8919-807104d462e1"},"vehicle_type_id":"4","last_reported":1741913323,"current_range_meters":8400,"station_id":"","pricing_plan_id":"cebpf4jnsgd1na2vs0mg"},{"bike_id":"36ebfc17-b6ab-4767-a5e0-c94c11aba8a2","system_id":"levelo_inurba_marseille","lat":43.323726,"lon":5.388893,"is_reserved":false,"is_disabled":false,"rental_uris":{"android":"levelo://app?vid=36ebfc17-b6ab-4767-a5e0-c94c11aba8a2","ios":"levelo://app?vid=36ebfc17-b6ab-4767-a5e0-c94c11aba8a2"},"vehicle_type_id":"4","last_reported":1741913323,"current_range_meters":8400,"station_id":"ce4bhqp2rcd13ifvqhog","pricing_plan_id":"cebpf4jnsgd1na2vs0mg"},{"bike_id":"e96bf3b6-2e9d-45b1-974e-cf0f29a36de0","system_id":"levelo_inurba_marseille","lat":43.31888,"lon":5.40727,"is_reserved":false,"is_disabled":false,"rental_uris":{"android":"levelo://app?vid=e96bf3b6-2e9d-45b1-974e-cf0f29a36de0","ios":"levelo://app?vid=e96bf3b6-2e9d-45b1-974e-cf0f29a36de0"},"vehicle_type_id":"4","last_reported":1741913323,"current_range_meters":8400,"station_id":"ce4bhq12rcd13ifvqhig","pricing_plan_id":"cebpf4jnsgd1na2vs0mg"},{"bike_id":"bb9e49e1-15a1-4567-8da3-1ff54c01ee0c","system_id":"levelo_inurba_marseille","lat":43.2843,"lon":5.34966,"is_reserved":false,"is_disabled":false,"rental_uris":{"android":"levelo://app?vid=bb9e49e1-15a1-4567-8da3-1ff54c01ee0c","ios":"levelo://app?vid=bb9e49e1-15a1-4567-8da3-1ff54c01ee0c"},"vehicle_type_id":"4","last_reported":1741913323,"current_range_meters":8400,"station_id":"ce4bhbh2rcd13ifvqepg","pricing_plan_id":"cebpf4jnsgd1na2vs0mg"},{"bike_id":"d0be61ee-8c6c-4bf7-99b6-f099a281a656","system_id":"levelo_inurba_marseille","lat":43.2502,"lon":5.38929,"is_reserved":false,"is_disabled":false,"rental_uris":{"android":"levelo://app?vid=d0be61ee-8c6c-4bf7-99b6-f099a281a656","ios":"levelo://app?vid=d0be61ee-8c6c-4bf7-99b6-f099a281a656"},"vehicle_type_id":"4","last_reported":1741913323,"current_range_meters":8400,"station_id":"ce4bhgp2rcd13ifvqfd0","pricing_plan_id":"cebpf4jnsgd1na2vs0mg"},{"bike_id":"7e68ab91-64b1-4ca8-90d6-c2d2040b8729","system_id":"levelo_inurba_marseille","lat":43.23207,"lon":5.39977,"is_reserved":false,"is_disabled":false,"rental_uris":{"android":"levelo://app?vid=7e68ab91-64b1-4ca8-90d6-c2d2040b8729","ios":"levelo://app?vid=7e68ab91-64b1-4ca8-90d6-c2d2040b8729"},"vehicle_type_id":"4","last_reported":1741913323,"current_range_meters":8400,"station_id":"ce4bhn12rcd13ifvqgqg","pricing_plan_id":"cebpf4jnsgd1na2vs0mg"},{"bike_id":"fa62e7ec-7147-46c0-be4f-553f88a41227","system_id":"levelo_inurba_marseille","lat":43.22931,"lon":5.35381,"is_reserved":false,"is_disabled":false,"rental_uris":{"android":"levelo://app?vid=fa62e7ec-7147-46c0-be4f-553f88a41227","ios":"levelo://app?vid=fa62e7ec-7147-46c0-be4f-553f88a41227"},"vehicle_type_id":"4","last_reported":1741913323,"current_range_meters":8400,"station_id":"cpo3532slgdg3j2ikp40","pricing_plan_id":"cebpf4jnsgd1na2vs0mg"},{"bike_id":"b3fead73-4c4c-401e-81a0-a7fad437c748","system_id":"levelo_inurba_marseille","lat":43.2501,"lon":5.38916,"is_reserved":false,"is_disabled":false,"rental_uris":{"android":"levelo://app?vid=b3fead73-4c4c-401e-81a0-a7fad437c748","ios":"levelo://app?vid=b3fead73-4c4c-401e-81a0-a7fad437c748"},"vehicle_type_id":"4","last_reported":1741913323,"current_range_meters":8400,"station_id":"ce4bhgp2rcd13ifvqfd0","pricing_plan_id":"cebpf4jnsgd1na2vs0mg"},{"bike_id":"283311da-440d-445d-b918-7a56d1166d93","system_id":"levelo_inurba_marseille","lat":43.28843,"lon":5.35846,"is_reserved":false,"is_disabled":false,"rental_uris":{"android":"levelo://app?vid=283311da-440d-445d-b918-7a56d1166d93","ios":"levelo://app?vid=283311da-440d-445d-b918-7a56d1166d93"},"vehicle_type_id":"4","last_reported":1741913323,"current_range_meters":8400,"station_id":"ce4bhb12rcd13ifvqem0","pricing_plan_id":"cebpf4jnsgd1na2vs0mg"},{"bike_id":"39df283f-35a5-4c44-9f0d-6dd6923a19a4","system_id":"levelo_inurba_marseille","lat":43.32138,"lon":5.36795,"is_reserved":false,"is_disabled":false,"rental_uris":{"android":"levelo://app?vid=39df283f-35a5-4c44-9f0d-6dd6923a19a4","ios":"levelo://app?vid=39df283f-35a5-4c44-9f0d-6dd6923a19a4"},"vehicle_type_id":"4","last_reported":1741913323,"current_range_meters":8400,"station_id":"ce4bhrh2rcd13ifvqhug","pricing_plan_id":"cebpf4jnsgd1na2vs0mg"},{"bike_id":"84cc18dd-0a68-4c30-826c-6a22b51c17d6","system_id":"levelo_inurba_marseille","lat":43.30931,"lon":5.4014,"is_reserved":false,"is_disabled":false,"rental_uris":{"android":"levelo://app?vid=84cc18dd-0a68-4c30-826c-6a22b51c17d6","ios":"levelo://app?vid=84cc18dd-0a68-4c30-826c-6a22b51c17d6"},"vehicle_type_id":"4","last_reported":1741913323,"current_range_meters":8800,"station_id":"ce4bgvp2rcd13ifvqct0","pricing_plan_id":"cebpf4jnsgd1na2vs0mg"},{"bike_id":"d4f28dc4-1355-4c42-a706-3679bbd67020","system_id":"levelo_inurba_marseille","lat":43.30661,"lon":5.40081,"is_reserved":false,"is_disabled":false,"rental_uris":{"android":"levelo://app?vid=d4f28dc4-1355-4c42-a706-3679bbd67020","ios":"levelo://app?vid=d4f28dc4-1355-4c42-a706-3679bbd67020"},"vehicle_type_id":"4","last_reported":1741913323,"current_range_meters":8800,"station_id":"ce4bh112rcd13ifvqda0","pricing_plan_id":"cebpf4jnsgd1na2vs0mg"},{"bike_id":"912073e3-7196-4f25-b618-cf16febee9e9","system_id":"levelo_inurba_marseille","lat":43.31341,"lon":5.39703,"is_reserved":false,"is_disabled":false,"rental_uris":{"android":"levelo://app?vid=912073e3-7196-4f25-b618-cf16febee9e9","ios":"levelo://app?vid=912073e3-7196-4f25-b618-cf16febee9e9"},"vehicle_type_id":"4","last_reported":1741913323,"current_range_meters":8800,"station_id":"ce4bgvp2rcd13ifvqcu0","pricing_plan_id":"cebpf4jnsgd1na2vs0mg"},{"bike_id":"bf2b9451-004a-4a30-894f-420bab883597","system_id":"levelo_inurba_marseille","lat":43.28104,"lon":5.37846,"is_reserved":false,"is_disabled":false,"rental_uris":{"android":"levelo://app?vid=bf2b9451-004a-4a30-894f-420bab883597","ios":"levelo://app?vid=bf2b9451-004a-4a30-894f-420bab883597"},"vehicle_type_id":"4","last_reported":1741913323,"current_range_meters":8800,"station_id":"ce4bha12rcd13ifvqee0","pricing_plan_id":"cebpf4jnsgd1na2vs0mg"},{"bike_id":"b78c10b7-b880-4638-b672-f8fc61bd3c48","system_id":"levelo_inurba_marseille","lat":43.24081,"lon":5.37774,"is_reserved":false,"is_disabled":false,"rental_uris":{"android":"levelo://app?vid=b78c10b7-b880-4638-b672-f8fc61bd3c48","ios":"levelo://app?vid=b78c10b7-b880-4638-b672-f8fc61bd3c48"},"vehicle_type_id":"4","last_reported":1741913323,"current_range_meters":8800,"station_id":"ce4bhnp2rcd13ifvqgvg","pricing_plan_id":"cebpf4jnsgd1na2vs0mg"},{"bike_id":"fb1b4ca4-cccf-4b54-beac-b8784ab5dfb8","system_id":"levelo_inurba_marseille","lat":43.29869,"lon":5.39735,"is_reserved":false,"is_disabled":false,"rental_uris":{"android":"levelo://app?vid=fb1b4ca4-cccf-4b54-beac-b8784ab5dfb8","ios":"levelo://app?vid=fb1b4ca4-cccf-4b54-beac-b8784ab5dfb8"},"vehicle_type_id":"4","last_reported":1741913323,"current_range_meters":8800,"station_id":"ce4bh0h2rcd13ifvqd50","pricing_plan_id":"cebpf4jnsgd1na2vs0mg"},{"bike_id":"1cbeb49c-8d51-46f2-ad03-8af78ea79d9a","system_id":"levelo_inurba_marseille","lat":43.241843,"lon":5.396966,"is_reserved":false,"is_disabled":false,"rental_uris":{"android":"levelo://app?vid=1cbeb49c-8d51-46f2-ad03-8af78ea79d9a","ios":"levelo://app?vid=1cbeb49c-8d51-46f2-ad03-8af78ea79d9a"},"vehicle_type_id":"4","last_reported":1741913323,"current_range_meters":8800,"station_id":"ce4bhn12rcd13ifvqgpg","pricing_plan_id":"cebpf4jnsgd1na2vs0mg"},{"bike_id":"95d88dff-75e3-4142-9dbd-74bd80d1ca00","system_id":"levelo_inurba_marseille","lat":43.28001,"lon":5.41618,"is_reserved":false,"is_disabled":false,"rental_uris":{"android":"levelo://app?vid=95d88dff-75e3-4142-9dbd-74bd80d1ca00","ios":"levelo://app?vid=95d88dff-75e3-4142-9dbd-74bd80d1ca00"},"vehicle_type_id":"4","last_reported":1741913323,"current_range_meters":8800,"station_id":"ce4bho12rcd13ifvqh1g","pricing_plan_id":"cebpf4jnsgd1na2vs0mg"},{"bike_id":"6307ec30-142e-4380-a1b4-79305fa6f44a","system_id":"levelo_inurba_marseille","lat":43.2574,"lon":5.41086,"is_reserved":false,"is_disabled":true,"rental_uris":{"android":"levelo://app?vid=6307ec30-142e-4380-a1b4-79305fa6f44a","ios":"levelo://app?vid=6307ec30-142e-4380-a1b4-79305fa6f44a"},"vehicle_type_id":"4","last_reported":1741913323,"current_range_meters":8800,"station_id":"ce4bhkp2rcd13ifvqgd0","pricing_plan_id":"cebpf4jnsgd1na2vs0mg"},{"bike_id":"db1d9945-452a-48d1-a218-9d250e8fb884","system_id":"levelo_inurba_marseille","lat":43.31326,"lon":5.3969,"is_reserved":false,"is_disabled":false,"rental_uris":{"android":"levelo://app?vid=db1d9945-452a-48d1-a218-9d250e8fb884","ios":"levelo://app?vid=db1d9945-452a-48d1-a218-9d250e8fb884"},"vehicle_type_id":"4","last_reported":1741913323,"current_range_meters":8800,"station_id":"ce4bgvp2rcd13ifvqcu0","pricing_plan_id":"cebpf4jnsgd1na2vs0mg"},{"bike_id":"38c96a38-330f-4ff3-9e6e-5c26787e2ba1","system_id":"levelo_inurba_marseille","lat":43.31066,"lon":5.38342,"is_reserved":false,"is_disabled":false,"rental_uris":{"android":"levelo://app?vid=38c96a38-330f-4ff3-9e6e-5c26787e2ba1","ios":"levelo://app?vid=38c96a38-330f-4ff3-9e6e-5c26787e2ba1"},"vehicle_type_id":"4","last_reported":1741913323,"current_range_meters":9200,"station_id":"ce4bgv92rcd13ifvqcr0","pricing_plan_id":"cebpf4jnsgd1na2vs0mg"},{"bike_id":"0dcda778-bf7d-4755-b78a-f4840d5b5675","system_id":"levelo_inurba_marseille","lat":43.2857,"lon":5.39493,"is_reserved":false,"is_disabled":false,"rental_uris":{"android":"levelo://app?vid=0dcda778-bf7d-4755-b78a-f4840d5b5675","ios":"levelo://app?vid=0dcda778-bf7d-4755-b78a-f4840d5b5675"},"vehicle_type_id":"4","last_reported":1741913323,"current_range_meters":9200,"station_id":"ce4bh292rcd13ifvqdg0","pricing_plan_id":"cebpf4jnsgd1na2vs0mg"},{"bike_id":"46f861aa-dccb-400d-8fc7-bb9082254569","system_id":"levelo_inurba_marseille","lat":43.28042,"lon":5.36939,"is_reserved":false,"is_disabled":false,"rental_uris":{"android":"levelo://app?vid=46f861aa-dccb-400d-8fc7-bb9082254569","ios":"levelo://app?vid=46f861aa-dccb-400d-8fc7-bb9082254569"},"vehicle_type_id":"4","last_reported":1741913323,"current_range_meters":9200,"station_id":"ce4bha12rcd13ifvqef0","pricing_plan_id":"cebpf4jnsgd1na2vs0mg"},{"bike_id":"a6a5619b-f159-4726-9967-b8d5bd215d37","system_id":"levelo_inurba_marseille","lat":43.287,"lon":5.39973,"is_reserved":false,"is_disabled":false,"rental_uris":{"android":"levelo://app?vid=a6a5619b-f159-4726-9967-b8d5bd215d37","ios":"levelo://app?vid=a6a5619b-f159-4726-9967-b8d5bd215d37"},"vehicle_type_id":"4","last_reported":1741913323,"current_range_meters":9200,"station_id":"ce4bho92rcd13ifvqh3g","pricing_plan_id":"cebpf4jnsgd1na2vs0mg"},{"bike_id":"6bdc7424-03f2-49cb-b720-187fb686656a","system_id":"levelo_inurba_marseille","lat":43.29867,"lon":5.39728,"is_reserved":false,"is_disabled":false,"rental_uris":{"android":"levelo://app?vid=6bdc7424-03f2-49cb-b720-187fb686656a","ios":"levelo://app?vid=6bdc7424-03f2-49cb-b720-187fb686656a"},"vehicle_type_id":"4","last_reported":1741913323,"current_range_meters":9200,"station_id":"ce4bh0h2rcd13ifvqd50","pricing_plan_id":"cebpf4jnsgd1na2vs0mg"},{"bike_id":"05485599-c5d2-4560-a085-53dc6075c7be","system_id":"levelo_inurba_marseille","lat":43.28001,"lon":5.40006,"is_reserved":false,"is_disabled":false,"rental_uris":{"android":"levelo://app?vid=05485599-c5d2-4560-a085-53dc6075c7be","ios":"levelo://app?vid=05485599-c5d2-4560-a085-53dc6075c7be"},"vehicle_type_id":"4","last_reported":1741913323,"current_range_meters":9200,"station_id":"ce4bho92rcd13ifvqh4g","pricing_plan_id":"cebpf4jnsgd1na2vs0mg"},{"bike_id":"76a1a065-7414-4909-8e1f-d9664a62f90e","system_id":"levelo_inurba_marseille","lat":43.28034,"lon":5.36934,"is_reserved":false,"is_disabled":false,"rental_uris":{"android":"levelo://app?vid=76a1a065-7414-4909-8e1f-d9664a62f90e","ios":"levelo://app?vid=76a1a065-7414-4909-8e1f-d9664a62f90e"},"vehicle_type_id":"4","last_reported":1741913323,"current_range_meters":9200,"station_id":"ce4bha12rcd13ifvqef0","pricing_plan_id":"cebpf4jnsgd1na2vs0mg"},{"bike_id":"4f2ddad8-944b-4f7f-88fd-24992043188c","system_id":"levelo_inurba_marseille","lat":43.3094,"lon":5.40151,"is_reserved":false,"is_disabled":false,"rental_uris":{"android":"levelo://app?vid=4f2ddad8-944b-4f7f-88fd-24992043188c","ios":"levelo://app?vid=4f2ddad8-944b-4f7f-88fd-24992043188c"},"vehicle_type_id":"4","last_reported":1741913323,"current_range_meters":9200,"station_id":"ce4bgvp2rcd13ifvqct0","pricing_plan_id":"cebpf4jnsgd1na2vs0mg"},{"bike_id":"c2100bd3-57ec-4820-992d-70841c2f886a","system_id":"levelo_inurba_marseille","lat":43.32108,"lon":5.36775,"is_reserved":false,"is_disabled":false,"rental_uris":{"android":"levelo://app?vid=c2100bd3-57ec-4820-992d-70841c2f886a","ios":"levelo://app?vid=c2100bd3-57ec-4820-992d-70841c2f886a"},"vehicle_type_id":"4","last_reported":1741913323,"current_range_meters":9200,"station_id":"ce4bhrh2rcd13ifvqhug","pricing_plan_id":"cebpf4jnsgd1na2vs0mg"},{"bike_id":"1179ea35-4831-4438-984a-d67269a5255b","system_id":"levelo_inurba_marseille","lat":43.23197,"lon":5.35541,"is_reserved":false,"is_disabled":false,"rental_uris":{"android":"levelo://app?vid=1179ea35-4831-4438-984a-d67269a5255b","ios":"levelo://app?vid=1179ea35-4831-4438-984a-d67269a5255b"},"vehicle_type_id":"4","last_reported":1741913323,"current_range_meters":9200,"station_id":"ce4bhu92rcd13ifvqi70","pricing_plan_id":"cebpf4jnsgd1na2vs0mg"},{"bike_id":"54184fa2-bc10-4430-9b0e-4e689a6e5eb5","system_id":"levelo_inurba_marseille","lat":43.30314,"lon":5.36924,"is_reserved":false,"is_disabled":true,"rental_uris":{"android":"levelo://app?vid=54184fa2-bc10-4430-9b0e-4e689a6e5eb5","ios":"levelo://app?vid=54184fa2-bc10-4430-9b0e-4e689a6e5eb5"},"vehicle_type_id":"4","last_reported":1741913323,"current_range_meters":9200,"station_id":"ce4bgqh2rcd13ifvqc5g","pricing_plan_id":"cebpf4jnsgd1na2vs0mg"},{"bike_id":"8c4e2b01-9679-46b7-86e3-aa2306d13c64","system_id":"levelo_inurba_marseille","lat":43.27835,"lon":5.39201,"is_reserved":false,"is_disabled":false,"rental_uris":{"android":"levelo://app?vid=8c4e2b01-9679-46b7-86e3-aa2306d13c64","ios":"levelo://app?vid=8c4e2b01-9679-46b7-86e3-aa2306d13c64"},"vehicle_type_id":"4","last_reported":1741913323,"current_range_meters":9200,"station_id":"ce4bhjp2rcd13ifvqga0","pricing_plan_id":"cebpf4jnsgd1na2vs0mg"},{"bike_id":"54bf63aa-0a8b-42b0-93c1-c2256fbfeabf","system_id":"levelo_inurba_marseille","lat":43.2658,"lon":5.39014,"is_reserved":false,"is_disabled":false,"rental_uris":{"android":"levelo://app?vid=54bf63aa-0a8b-42b0-93c1-c2256fbfeabf","ios":"levelo://app?vid=54bf63aa-0a8b-42b0-93c1-c2256fbfeabf"},"vehicle_type_id":"4","last_reported":1741913323,"current_range_meters":9600,"station_id":"ce4bhe12rcd13ifvqf30","pricing_plan_id":"cebpf4jnsgd1na2vs0mg"},{"bike_id":"66bd7c0a-ab4a-486e-bfaa-cafa91efd9cb","system_id":"levelo_inurba_marseille","lat":43.2654,"lon":5.37289,"is_reserved":false,"is_disabled":false,"rental_uris":{"android":"levelo://app?vid=66bd7c0a-ab4a-486e-bfaa-cafa91efd9cb","ios":"levelo://app?vid=66bd7c0a-ab4a-486e-bfaa-cafa91efd9cb"},"vehicle_type_id":"4","last_reported":1741913323,"current_range_meters":9600,"station_id":"ce4bhg12rcd13ifvqf70","pricing_plan_id":"cebpf4jnsgd1na2vs0mg"},{"bike_id":"8939fbba-2fc8-450a-9027-04db4f4e697a","system_id":"levelo_inurba_marseille","lat":43.31358,"lon":5.40476,"is_reserved":false,"is_disabled":false,"rental_uris":{"android":"levelo://app?vid=8939fbba-2fc8-450a-9027-04db4f4e697a","ios":"levelo://app?vid=8939fbba-2fc8-450a-9027-04db4f4e697a"},"vehicle_type_id":"4","last_reported":1741913323,"current_range_meters":9600,"station_id":"","pricing_plan_id":"cebpf4jnsgd1na2vs0mg"},{"bike_id":"22c0550b-29b7-487c-9f57-3e6e4e86fd41","system_id":"levelo_inurba_marseille","lat":43.31538,"lon":5.38026,"is_reserved":false,"is_disabled":false,"rental_uris":{"android":"levelo://app?vid=22c0550b-29b7-487c-9f57-3e6e4e86fd41","ios":"levelo://app?vid=22c0550b-29b7-487c-9f57-3e6e4e86fd41"},"vehicle_type_id":"4","last_reported":1741913323,"current_range_meters":9600,"station_id":"ce4bhsp2rcd13ifvqi50","pricing_plan_id":"cebpf4jnsgd1na2vs0mg"},{"bike_id":"fd0b94d0-5000-40fe-9251-aeb5428fb301","system_id":"levelo_inurba_marseille","lat":43.27151,"lon":5.41001,"is_reserved":false,"is_disabled":false,"rental_uris":{"android":"levelo://app?vid=fd0b94d0-5000-40fe-9251-aeb5428fb301","ios":"levelo://app?vid=fd0b94d0-5000-40fe-9251-aeb5428fb301"},"vehicle_type_id":"4","last_reported":1741913323,"current_range_meters":9600,"station_id":"ce4bhl12rcd13ifvqgf0","pricing_plan_id":"cebpf4jnsgd1na2vs0mg"},{"bike_id":"5bbbcc9c-c390-411b-9d62-74fb6404d435","system_id":"levelo_inurba_marseille","lat":43.24069,"lon":5.37726,"is_reserved":false,"is_disabled":false,"rental_uris":{"android":"levelo://app?vid=5bbbcc9c-c390-411b-9d62-74fb6404d435","ios":"levelo://app?vid=5bbbcc9c-c390-411b-9d62-74fb6404d435"},"vehicle_type_id":"4","last_reported":1741913323,"current_range_meters":9600,"station_id":"ce4bhnp2rcd13ifvqgvg","pricing_plan_id":"cebpf4jnsgd1na2vs0mg"},{"bike_id":"02757fb8-8293-4514-b994-62c44c21925e","system_id":"levelo_inurba_marseille","lat":43.2873,"lon":5.36095,"is_reserved":false,"is_disabled":false,"rental_uris":{"android":"levelo://app?vid=02757fb8-8293-4514-b994-62c44c21925e","ios":"levelo://app?vid=02757fb8-8293-4514-b994-62c44c21925e"},"vehicle_type_id":"4","last_reported":1741913323,"current_range_meters":9600,"station_id":"cki0cbj6b192h4jlfktg","pricing_plan_id":"cebpf4jnsgd1na2vs0mg"},{"bike_id":"85febf70-eab1-4f30-96f1-2b4d2195db5c","system_id":"levelo_inurba_marseille","lat":43.2923,"lon":5.38214,"is_reserved":false,"is_disabled":false,"rental_uris":{"android":"levelo://app?vid=85febf70-eab1-4f30-96f1-2b4d2195db5c","ios":"levelo://app?vid=85febf70-eab1-4f30-96f1-2b4d2195db5c"},"vehicle_type_id":"4","last_reported":1741913323,"current_range_meters":9600,"station_id":"","pricing_plan_id":"cebpf4jnsgd1na2vs0mg"},{"bike_id":"96bae133-2c88-4f4f-a72b-a62518ed1b8a","system_id":"levelo_inurba_marseille","lat":43.27493,"lon":5.42451,"is_reserved":false,"is_disabled":false,"rental_uris":{"android":"levelo://app?vid=96bae133-2c88-4f4f-a72b-a62518ed1b8a","ios":"levelo://app?vid=96bae133-2c88-4f4f-a72b-a62518ed1b8a"},"vehicle_type_id":"4","last_reported":1741913323,"current_range_meters":9600,"station_id":"ce4bhn92rcd13ifvqgrg","pricing_plan_id":"cebpf4jnsgd1na2vs0mg"},{"bike_id":"64f08214-fb31-440a-81c0-e1b65159de7d","system_id":"levelo_inurba_marseille","lat":43.31447,"lon":5.37561,"is_reserved":false,"is_disabled":false,"rental_uris":{"android":"levelo://app?vid=64f08214-fb31-440a-81c0-e1b65159de7d","ios":"levelo://app?vid=64f08214-fb31-440a-81c0-e1b65159de7d"},"vehicle_type_id":"4","last_reported":1741913323,"current_range_meters":9600,"station_id":"","pricing_plan_id":"cebpf4jnsgd1na2vs0mg"},{"bike_id":"414a87d8-0320-4da5-94cb-1c2e9eb2c2e2","system_id":"levelo_inurba_marseille","lat":43.25823,"lon":5.39445,"is_reserved":false,"is_disabled":false,"rental_uris":{"android":"levelo://app?vid=414a87d8-0320-4da5-94cb-1c2e9eb2c2e2","ios":"levelo://app?vid=414a87d8-0320-4da5-94cb-1c2e9eb2c2e2"},"vehicle_type_id":"4","last_reported":1741913323,"current_range_meters":10000,"station_id":"ce4bhip2rcd13ifvqft0","pricing_plan_id":"cebpf4jnsgd1na2vs0mg"},{"bike_id":"a25f12c4-dc85-4e88-89ff-7ae2c1a12ffe","system_id":"levelo_inurba_marseille","lat":43.31318,"lon":5.39681,"is_reserved":false,"is_disabled":false,"rental_uris":{"android":"levelo://app?vid=a25f12c4-dc85-4e88-89ff-7ae2c1a12ffe","ios":"levelo://app?vid=a25f12c4-dc85-4e88-89ff-7ae2c1a12ffe"},"vehicle_type_id":"4","last_reported":1741913323,"current_range_meters":10000,"station_id":"ce4bgvp2rcd13ifvqcu0","pricing_plan_id":"cebpf4jnsgd1na2vs0mg"},{"bike_id":"77c5059d-e18b-4169-9849-a973f1f035b1","system_id":"levelo_inurba_marseille","lat":43.27919,"lon":5.39566,"is_reserved":false,"is_disabled":false,"rental_uris":{"android":"levelo://app?vid=77c5059d-e18b-4169-9849-a973f1f035b1","ios":"levelo://app?vid=77c5059d-e18b-4169-9849-a973f1f035b1"},"vehicle_type_id":"4","last_reported":1741913323,"current_range_meters":10000,"station_id":"ce4bhf92rcd13ifvqf40","pricing_plan_id":"cebpf4jnsgd1na2vs0mg"},{"bike_id":"6cec560f-8635-4801-8462-637e6f2c72c5","system_id":"levelo_inurba_marseille","lat":43.231998,"lon":5.355519,"is_reserved":false,"is_disabled":false,"rental_uris":{"android":"levelo://app?vid=6cec560f-8635-4801-8462-637e6f2c72c5","ios":"levelo://app?vid=6cec560f-8635-4801-8462-637e6f2c72c5"},"vehicle_type_id":"4","last_reported":1741913323,"current_range_meters":10000,"station_id":"ce4bhu92rcd13ifvqi70","pricing_plan_id":"cebpf4jnsgd1na2vs0mg"},{"bike_id":"97a3342f-3ca5-439d-8886-7bbabf5b6c98","system_id":"levelo_inurba_marseille","lat":43.32126,"lon":5.36782,"is_reserved":false,"is_disabled":false,"rental_uris":{"android":"levelo://app?vid=97a3342f-3ca5-439d-8886-7bbabf5b6c98","ios":"levelo://app?vid=97a3342f-3ca5-439d-8886-7bbabf5b6c98"},"vehicle_type_id":"4","last_reported":1741913323,"current_range_meters":10000,"station_id":"ce4bhrh2rcd13ifvqhug","pricing_plan_id":"cebpf4jnsgd1na2vs0mg"},{"bike_id":"c6bf3b0f-e0bc-4aa5-859c-f11a2601f243","system_id":"levelo_inurba_marseille","lat":43.29442,"lon":5.39754,"is_reserved":false,"is_disabled":false,"rental_uris":{"android":"levelo://app?vid=c6bf3b0f-e0bc-4aa5-859c-f11a2601f243","ios":"levelo://app?vid=c6bf3b0f-e0bc-4aa5-859c-f11a2601f243"},"vehicle_type_id":"4","last_reported":1741913323,"current_range_meters":10000,"station_id":"ce4bh3h2rcd13ifvqdo0","pricing_plan_id":"cebpf4jnsgd1na2vs0mg"},{"bike_id":"320564be-2867-4ab5-80ba-99ed9100fc63","system_id":"levelo_inurba_marseille","lat":43.25835,"lon":5.39393,"is_reserved":false,"is_disabled":false,"rental_uris":{"android":"levelo://app?vid=320564be-2867-4ab5-80ba-99ed9100fc63","ios":"levelo://app?vid=320564be-2867-4ab5-80ba-99ed9100fc63"},"vehicle_type_id":"4","last_reported":1741913323,"current_range_meters":10000,"station_id":"","pricing_plan_id":"cebpf4jnsgd1na2vs0mg"},{"bike_id":"8a7d6fbc-9324-4554-9abc-ceeffff483c4","system_id":"levelo_inurba_marseille","lat":43.32365,"lon":5.38883,"is_reserved":false,"is_disabled":false,"rental_uris":{"android":"levelo://app?vid=8a7d6fbc-9324-4554-9abc-ceeffff483c4","ios":"levelo://app?vid=8a7d6fbc-9324-4554-9abc-ceeffff483c4"},"vehicle_type_id":"4","last_reported":1741913323,"current_range_meters":10000,"station_id":"ce4bhqp2rcd13ifvqhog","pricing_plan_id":"cebpf4jnsgd1na2vs0mg"},{"bike_id":"6944bb06-8a8c-4cf4-86a1-ca9561cf4ee4","system_id":"levelo_inurba_marseille","lat":43.23059,"lon":5.35503,"is_reserved":false,"is_disabled":false,"rental_uris":{"android":"levelo://app?vid=6944bb06-8a8c-4cf4-86a1-ca9561cf4ee4","ios":"levelo://app?vid=6944bb06-8a8c-4cf4-86a1-ca9561cf4ee4"},"vehicle_type_id":"4","last_reported":1741913323,"current_range_meters":10000,"station_id":"cpo3342slgdg3j2ifvpg","pricing_plan_id":"cebpf4jnsgd1na2vs0mg"},{"bike_id":"d2c1304d-c6de-4e19-a363-2c0c4bdd9fb1","system_id":"levelo_inurba_marseille","lat":43.24634,"lon":5.38934,"is_reserved":false,"is_disabled":false,"rental_uris":{"android":"levelo://app?vid=d2c1304d-c6de-4e19-a363-2c0c4bdd9fb1","ios":"levelo://app?vid=d2c1304d-c6de-4e19-a363-2c0c4bdd9fb1"},"vehicle_type_id":"4","last_reported":1741913323,"current_range_meters":10000,"station_id":"ce4bhg12rcd13ifvqf60","pricing_plan_id":"cebpf4jnsgd1na2vs0mg"},{"bike_id":"4b112a33-2820-4625-96c9-8f07ae7ff329","system_id":"levelo_inurba_marseille","lat":43.30823,"lon":5.43534,"is_reserved":false,"is_disabled":false,"rental_uris":{"android":"levelo://app?vid=4b112a33-2820-4625-96c9-8f07ae7ff329","ios":"levelo://app?vid=4b112a33-2820-4625-96c9-8f07ae7ff329"},"vehicle_type_id":"4","last_reported":1741913323,"current_range_meters":10000,"station_id":"ce4bhph2rcd13ifvqheg","pricing_plan_id":"cebpf4jnsgd1na2vs0mg"},{"bike_id":"6da3f8aa-e411-4c1e-af65-26a52e26c9c7","system_id":"levelo_inurba_marseille","lat":43.31058,"lon":5.38358,"is_reserved":false,"is_disabled":false,"rental_uris":{"android":"levelo://app?vid=6da3f8aa-e411-4c1e-af65-26a52e26c9c7","ios":"levelo://app?vid=6da3f8aa-e411-4c1e-af65-26a52e26c9c7"},"vehicle_type_id":"4","last_reported":1741913323,"current_range_meters":10800,"station_id":"ce4bgv92rcd13ifvqcr0","pricing_plan_id":"cebpf4jnsgd1na2vs0mg"},{"bike_id":"7121d818-13e2-43ed-b445-7134fefdd64f","system_id":"levelo_inurba_marseille","lat":43.23198,"lon":5.35544,"is_reserved":false,"is_disabled":false,"rental_uris":{"android":"levelo://app?vid=7121d818-13e2-43ed-b445-7134fefdd64f","ios":"levelo://app?vid=7121d818-13e2-43ed-b445-7134fefdd64f"},"vehicle_type_id":"4","last_reported":1741913323,"current_range_meters":10800,"station_id":"ce4bhu92rcd13ifvqi70","pricing_plan_id":"cebpf4jnsgd1na2vs0mg"},{"bike_id":"919a1558-498c-48b7-b738-7940b23ca37a","system_id":"levelo_inurba_marseille","lat":43.26239,"lon":5.40467,"is_reserved":false,"is_disabled":false,"rental_uris":{"android":"levelo://app?vid=919a1558-498c-48b7-b738-7940b23ca37a","ios":"levelo://app?vid=919a1558-498c-48b7-b738-7940b23ca37a"},"vehicle_type_id":"4","last_reported":1741913323,"current_range_meters":10800,"station_id":"ce4bhmh2rcd13ifvqgmg","pricing_plan_id":"cebpf4jnsgd1na2vs0mg"},{"bike_id":"bf7035b0-43dc-4781-beb1-fc31690da7ef","system_id":"levelo_inurba_marseille","lat":43.23954,"lon":5.36654,"is_reserved":false,"is_disabled":false,"rental_uris":{"android":"levelo://app?vid=bf7035b0-43dc-4781-beb1-fc31690da7ef","ios":"levelo://app?vid=bf7035b0-43dc-4781-beb1-fc31690da7ef"},"vehicle_type_id":"4","last_reported":1741913323,"current_range_meters":10800,"station_id":"ce4bhi12rcd13ifvqfp0","pricing_plan_id":"cebpf4jnsgd1na2vs0mg"},{"bike_id":"c118cc19-7f0e-4e54-b921-f1faa9246911","system_id":"levelo_inurba_marseille","lat":43.24083,"lon":5.37747,"is_reserved":false,"is_disabled":false,"rental_uris":{"android":"levelo://app?vid=c118cc19-7f0e-4e54-b921-f1faa9246911","ios":"levelo://app?vid=c118cc19-7f0e-4e54-b921-f1faa9246911"},"vehicle_type_id":"4","last_reported":1741913323,"current_range_meters":10800,"station_id":"ce4bhnp2rcd13ifvqgvg","pricing_plan_id":"cebpf4jnsgd1na2vs0mg"},{"bike_id":"c58ea9ca-fa82-45e4-b42f-886be65920e5","system_id":"levelo_inurba_marseille","lat":43.24543,"lon":5.39519,"is_reserved":false,"is_disabled":false,"rental_uris":{"android":"levelo://app?vid=c58ea9ca-fa82-45e4-b42f-886be65920e5","ios":"levelo://app?vid=c58ea9ca-fa82-45e4-b42f-886be65920e5"},"vehicle_type_id":"4","last_reported":1741913323,"current_range_meters":10800,"station_id":"ce4bhlp2rcd13ifvqgjg","pricing_plan_id":"cebpf4jnsgd1na2vs0mg"},{"bike_id":"436bf6fd-98f0-4c70-968c-7fcac8f398a5","system_id":"levelo_inurba_marseille","lat":43.25087,"lon":5.41059,"is_reserved":false,"is_disabled":false,"rental_uris":{"android":"levelo://app?vid=436bf6fd-98f0-4c70-968c-7fcac8f398a5","ios":"levelo://app?vid=436bf6fd-98f0-4c70-968c-7fcac8f398a5"},"vehicle_type_id":"4","last_reported":1741913323,"current_range_meters":11200,"station_id":"","pricing_plan_id":"cebpf4jnsgd1na2vs0mg"},{"bike_id":"1156d48d-c441-4ed8-8f3f-02ca2db64972","system_id":"levelo_inurba_marseille","lat":43.2987,"lon":5.39728,"is_reserved":false,"is_disabled":false,"rental_uris":{"android":"levelo://app?vid=1156d48d-c441-4ed8-8f3f-02ca2db64972","ios":"levelo://app?vid=1156d48d-c441-4ed8-8f3f-02ca2db64972"},"vehicle_type_id":"4","last_reported":1741913323,"current_range_meters":11200,"station_id":"ce4bh0h2rcd13ifvqd50","pricing_plan_id":"cebpf4jnsgd1na2vs0mg"},{"bike_id":"1ae01e22-4c4d-4069-8bf6-0be88949011a","system_id":"levelo_inurba_marseille","lat":43.32365,"lon":5.38888,"is_reserved":false,"is_disabled":false,"rental_uris":{"android":"levelo://app?vid=1ae01e22-4c4d-4069-8bf6-0be88949011a","ios":"levelo://app?vid=1ae01e22-4c4d-4069-8bf6-0be88949011a"},"vehicle_type_id":"4","last_reported":1741913323,"current_range_meters":11200,"station_id":"ce4bhqp2rcd13ifvqhog","pricing_plan_id":"cebpf4jnsgd1na2vs0mg"},{"bike_id":"b634fcd7-4303-4fed-a2f8-fcd04ed2a4dd","system_id":"levelo_inurba_marseille","lat":43.23059,"lon":5.35489,"is_reserved":false,"is_disabled":false,"rental_uris":{"android":"levelo://app?vid=b634fcd7-4303-4fed-a2f8-fcd04ed2a4dd","ios":"levelo://app?vid=b634fcd7-4303-4fed-a2f8-fcd04ed2a4dd"},"vehicle_type_id":"4","last_reported":1741913323,"current_range_meters":11200,"station_id":"cpo3342slgdg3j2ifvpg","pricing_plan_id":"cebpf4jnsgd1na2vs0mg"},{"bike_id":"3363e5ed-aafd-4c83-9f97-12270e6ffcf4","system_id":"levelo_inurba_marseille","lat":43.2487,"lon":5.40659,"is_reserved":false,"is_disabled":false,"rental_uris":{"android":"levelo://app?vid=3363e5ed-aafd-4c83-9f97-12270e6ffcf4","ios":"levelo://app?vid=3363e5ed-aafd-4c83-9f97-12270e6ffcf4"},"vehicle_type_id":"4","last_reported":1741913323,"current_range_meters":11200,"station_id":"","pricing_plan_id":"cebpf4jnsgd1na2vs0mg"},{"bike_id":"4034c580-5a30-4362-a2a8-2a1c6bf23b36","system_id":"levelo_inurba_marseille","lat":43.30783,"lon":5.37649,"is_reserved":false,"is_disabled":false,"rental_uris":{"android":"levelo://app?vid=4034c580-5a30-4362-a2a8-2a1c6bf23b36","ios":"levelo://app?vid=4034c580-5a30-4362-a2a8-2a1c6bf23b36"},"vehicle_type_id":"4","last_reported":1741913323,"current_range_meters":11200,"station_id":"ce4bgv92rcd13ifvqcq0","pricing_plan_id":"cebpf4jnsgd1na2vs0mg"},{"bike_id":"9fe8ba47-be57-43be-b757-1af1021ecf46","system_id":"levelo_inurba_marseille","lat":43.310698,"lon":5.383553,"is_reserved":false,"is_disabled":false,"rental_uris":{"android":"levelo://app?vid=9fe8ba47-be57-43be-b757-1af1021ecf46","ios":"levelo://app?vid=9fe8ba47-be57-43be-b757-1af1021ecf46"},"vehicle_type_id":"4","last_reported":1741913323,"current_range_meters":11200,"station_id":"ce4bgv92rcd13ifvqcr0","pricing_plan_id":"cebpf4jnsgd1na2vs0mg"},{"bike_id":"62a47026-2199-466d-b501-ec9560f21c66","system_id":"levelo_inurba_marseille","lat":43.2862,"lon":5.35102,"is_reserved":false,"is_disabled":false,"rental_uris":{"android":"levelo://app?vid=62a47026-2199-466d-b501-ec9560f21c66","ios":"levelo://app?vid=62a47026-2199-466d-b501-ec9560f21c66"},"vehicle_type_id":"4","last_reported":1741913323,"current_range_meters":11200,"station_id":"ce4bhch2rcd13ifvqeug","pricing_plan_id":"cebpf4jnsgd1na2vs0mg"},{"bike_id":"484d62e3-8e92-4d73-971b-41c613b66c1b","system_id":"levelo_inurba_marseille","lat":43.28853,"lon":5.35827,"is_reserved":false,"is_disabled":false,"rental_uris":{"android":"levelo://app?vid=484d62e3-8e92-4d73-971b-41c613b66c1b","ios":"levelo://app?vid=484d62e3-8e92-4d73-971b-41c613b66c1b"},"vehicle_type_id":"4","last_reported":1741913323,"current_range_meters":11200,"station_id":"ce4bhb12rcd13ifvqem0","pricing_plan_id":"cebpf4jnsgd1na2vs0mg"},{"bike_id":"36ec5a15-215b-4367-a3ca-336aadd9a251","system_id":"levelo_inurba_marseille","lat":43.33746,"lon":5.3745,"is_reserved":false,"is_disabled":false,"rental_uris":{"android":"levelo://app?vid=36ec5a15-215b-4367-a3ca-336aadd9a251","ios":"levelo://app?vid=36ec5a15-215b-4367-a3ca-336aadd9a251"},"vehicle_type_id":"4","last_reported":1741913323,"current_range_meters":11200,"station_id":"","pricing_plan_id":"cebpf4jnsgd1na2vs0mg"},{"bike_id":"a5c672ff-0d6f-4565-b2c7-94f7284c6604","system_id":"levelo_inurba_marseille","lat":43.27937,"lon":5.4104,"is_reserved":false,"is_disabled":false,"rental_uris":{"android":"levelo://app?vid=a5c672ff-0d6f-4565-b2c7-94f7284c6604","ios":"levelo://app?vid=a5c672ff-0d6f-4565-b2c7-94f7284c6604"},"vehicle_type_id":"4","last_reported":1741913323,"current_range_meters":11600,"station_id":"ce4bhnp2rcd13ifvqh0g","pricing_plan_id":"cebpf4jnsgd1na2vs0mg"},{"bike_id":"c629371c-a362-48a5-a545-6f79eddfc63b","system_id":"levelo_inurba_marseille","lat":43.28695,"lon":5.37398,"is_reserved":false,"is_disabled":false,"rental_uris":{"android":"levelo://app?vid=c629371c-a362-48a5-a545-6f79eddfc63b","ios":"levelo://app?vid=c629371c-a362-48a5-a545-6f79eddfc63b"},"vehicle_type_id":"4","last_reported":1741913323,"current_range_meters":11600,"station_id":"ce4bh3p2rcd13ifvqdq0","pricing_plan_id":"cebpf4jnsgd1na2vs0mg"},{"bike_id":"abfe12e1-f61c-4aa7-bf20-86b27e55f6bc","system_id":"levelo_inurba_marseille","lat":43.29789,"lon":5.37103,"is_reserved":false,"is_disabled":false,"rental_uris":{"android":"levelo://app?vid=abfe12e1-f61c-4aa7-bf20-86b27e55f6bc","ios":"levelo://app?vid=abfe12e1-f61c-4aa7-bf20-86b27e55f6bc"},"vehicle_type_id":"4","last_reported":1741913323,"current_range_meters":11600,"station_id":"ce4bgop2rcd13ifvqc1g","pricing_plan_id":"cebpf4jnsgd1na2vs0mg"},{"bike_id":"ed23775c-d7c5-451d-8fd8-d796531419a4","system_id":"levelo_inurba_marseille","lat":43.29369,"lon":5.37845,"is_reserved":false,"is_disabled":false,"rental_uris":{"android":"levelo://app?vid=ed23775c-d7c5-451d-8fd8-d796531419a4","ios":"levelo://app?vid=ed23775c-d7c5-451d-8fd8-d796531419a4"},"vehicle_type_id":"4","last_reported":1741913323,"current_range_meters":11200,"station_id":"ce4bgjh2rcd13ifvqbf0","pricing_plan_id":"cebpf4jnsgd1na2vs0mg"},{"bike_id":"468baa96-3c25-4c23-870e-453bcb0a0bfb","system_id":"levelo_inurba_marseille","lat":43.27829,"lon":5.40724,"is_reserved":false,"is_disabled":false,"rental_uris":{"android":"levelo://app?vid=468baa96-3c25-4c23-870e-453bcb0a0bfb","ios":"levelo://app?vid=468baa96-3c25-4c23-870e-453bcb0a0bfb"},"vehicle_type_id":"4","last_reported":1741913323,"current_range_meters":11600,"station_id":"ce4bhnh2rcd13ifvqgtg","pricing_plan_id":"cebpf4jnsgd1na2vs0mg"},{"bike_id":"205861f1-c8e8-437b-8921-43664245ec7b","system_id":"levelo_inurba_marseille","lat":43.30998,"lon":5.38464,"is_reserved":false,"is_disabled":false,"rental_uris":{"android":"levelo://app?vid=205861f1-c8e8-437b-8921-43664245ec7b","ios":"levelo://app?vid=205861f1-c8e8-437b-8921-43664245ec7b"},"vehicle_type_id":"4","last_reported":1741913323,"current_range_meters":11600,"station_id":"","pricing_plan_id":"cebpf4jnsgd1na2vs0mg"},{"bike_id":"74d894b1-9334-47c2-9db2-41270237a91f","system_id":"levelo_inurba_marseille","lat":43.23184,"lon":5.39984,"is_reserved":false,"is_disabled":false,"rental_uris":{"android":"levelo://app?vid=74d894b1-9334-47c2-9db2-41270237a91f","ios":"levelo://app?vid=74d894b1-9334-47c2-9db2-41270237a91f"},"vehicle_type_id":"4","last_reported":1741913323,"current_range_meters":11600,"station_id":"ce4bhn12rcd13ifvqgqg","pricing_plan_id":"cebpf4jnsgd1na2vs0mg"},{"bike_id":"4078ae31-3c28-4811-a96d-e5898683501c","system_id":"levelo_inurba_marseille","lat":43.27825,"lon":5.40722,"is_reserved":false,"is_disabled":false,"rental_uris":{"android":"levelo://app?vid=4078ae31-3c28-4811-a96d-e5898683501c","ios":"levelo://app?vid=4078ae31-3c28-4811-a96d-e5898683501c"},"vehicle_type_id":"4","last_reported":1741913323,"current_range_meters":11600,"station_id":"ce4bhnh2rcd13ifvqgtg","pricing_plan_id":"cebpf4jnsgd1na2vs0mg"},{"bike_id":"adf13718-871c-4cb2-b9d2-5a2c78cb19ce","system_id":"levelo_inurba_marseille","lat":43.29867,"lon":5.39727,"is_reserved":false,"is_disabled":false,"rental_uris":{"android":"levelo://app?vid=adf13718-871c-4cb2-b9d2-5a2c78cb19ce","ios":"levelo://app?vid=adf13718-871c-4cb2-b9d2-5a2c78cb19ce"},"vehicle_type_id":"4","last_reported":1741913323,"current_range_meters":11600,"station_id":"ce4bh0h2rcd13ifvqd50","pricing_plan_id":"cebpf4jnsgd1na2vs0mg"},{"bike_id":"9a719051-5115-4a08-8e7b-ae42f9cbb7fe","system_id":"levelo_inurba_marseille","lat":43.31112,"lon":5.37767,"is_reserved":false,"is_disabled":false,"rental_uris":{"android":"levelo://app?vid=9a719051-5115-4a08-8e7b-ae42f9cbb7fe","ios":"levelo://app?vid=9a719051-5115-4a08-8e7b-ae42f9cbb7fe"},"vehicle_type_id":"4","last_reported":1741913323,"current_range_meters":11600,"station_id":"ce4bgt92rcd13ifvqcg0","pricing_plan_id":"cebpf4jnsgd1na2vs0mg"},{"bike_id":"1364704f-c9ba-4f42-a150-59df36918858","system_id":"levelo_inurba_marseille","lat":43.30642,"lon":5.40091,"is_reserved":false,"is_disabled":false,"rental_uris":{"android":"levelo://app?vid=1364704f-c9ba-4f42-a150-59df36918858","ios":"levelo://app?vid=1364704f-c9ba-4f42-a150-59df36918858"},"vehicle_type_id":"4","last_reported":1741913323,"current_range_meters":11600,"station_id":"ce4bh112rcd13ifvqda0","pricing_plan_id":"cebpf4jnsgd1na2vs0mg"},{"bike_id":"7aea5cac-f54e-4123-8d88-d24797d30a41","system_id":"levelo_inurba_marseille","lat":43.24636,"lon":5.38904,"is_reserved":false,"is_disabled":false,"rental_uris":{"android":"levelo://app?vid=7aea5cac-f54e-4123-8d88-d24797d30a41","ios":"levelo://app?vid=7aea5cac-f54e-4123-8d88-d24797d30a41"},"vehicle_type_id":"4","last_reported":1741913323,"current_range_meters":11600,"station_id":"ce4bhg12rcd13ifvqf60","pricing_plan_id":"cebpf4jnsgd1na2vs0mg"},{"bike_id":"d9a03b36-8834-4ff0-a7a6-0aba8375e6fe","system_id":"levelo_inurba_marseille","lat":43.28457,"lon":5.39173,"is_reserved":false,"is_disabled":false,"rental_uris":{"android":"levelo://app?vid=d9a03b36-8834-4ff0-a7a6-0aba8375e6fe","ios":"levelo://app?vid=d9a03b36-8834-4ff0-a7a6-0aba8375e6fe"},"vehicle_type_id":"4","last_reported":1741913323,"current_range_meters":11600,"station_id":"ce4bhoh2rcd13ifvqh5g","pricing_plan_id":"cebpf4jnsgd1na2vs0mg"},{"bike_id":"0643190b-ebbc-483a-b94c-7cfb6f63af0f","system_id":"levelo_inurba_marseille","lat":43.30133,"lon":5.39886,"is_reserved":false,"is_disabled":false,"rental_uris":{"android":"levelo://app?vid=0643190b-ebbc-483a-b94c-7cfb6f63af0f","ios":"levelo://app?vid=0643190b-ebbc-483a-b94c-7cfb6f63af0f"},"vehicle_type_id":"4","last_reported":1741913323,"current_range_meters":12400,"station_id":"ce4bh0h2rcd13ifvqd40","pricing_plan_id":"cebpf4jnsgd1na2vs0mg"},{"bike_id":"840fe58d-702c-4643-802b-02b7904775ac","system_id":"levelo_inurba_marseille","lat":43.30798,"lon":5.43517,"is_reserved":false,"is_disabled":false,"rental_uris":{"android":"levelo://app?vid=840fe58d-702c-4643-802b-02b7904775ac","ios":"levelo://app?vid=840fe58d-702c-4643-802b-02b7904775ac"},"vehicle_type_id":"4","last_reported":1741913323,"current_range_meters":12000,"station_id":"ce4bhph2rcd13ifvqheg","pricing_plan_id":"cebpf4jnsgd1na2vs0mg"},{"bike_id":"56ef3efe-9ba9-4043-a730-5fc4d6f44599","system_id":"levelo_inurba_marseille","lat":43.291473,"lon":5.403708,"is_reserved":false,"is_disabled":false,"rental_uris":{"android":"levelo://app?vid=56ef3efe-9ba9-4043-a730-5fc4d6f44599","ios":"levelo://app?vid=56ef3efe-9ba9-4043-a730-5fc4d6f44599"},"vehicle_type_id":"4","last_reported":1741913323,"current_range_meters":12000,"station_id":"ce4bh412rcd13ifvqdr0","pricing_plan_id":"cebpf4jnsgd1na2vs0mg"},{"bike_id":"78dce6e6-36eb-4d6b-a861-292dc7c9e479","system_id":"levelo_inurba_marseille","lat":43.25014,"lon":5.38928,"is_reserved":false,"is_disabled":false,"rental_uris":{"android":"levelo://app?vid=78dce6e6-36eb-4d6b-a861-292dc7c9e479","ios":"levelo://app?vid=78dce6e6-36eb-4d6b-a861-292dc7c9e479"},"vehicle_type_id":"4","last_reported":1741913323,"current_range_meters":12400,"station_id":"ce4bhgp2rcd13ifvqfd0","pricing_plan_id":"cebpf4jnsgd1na2vs0mg"},{"bike_id":"a5e71948-735a-4229-b2ca-74d55fc62066","system_id":"levelo_inurba_marseille","lat":43.28034,"lon":5.36935,"is_reserved":false,"is_disabled":false,"rental_uris":{"android":"levelo://app?vid=a5e71948-735a-4229-b2ca-74d55fc62066","ios":"levelo://app?vid=a5e71948-735a-4229-b2ca-74d55fc62066"},"vehicle_type_id":"4","last_reported":1741913323,"current_range_meters":12400,"station_id":"ce4bha12rcd13ifvqef0","pricing_plan_id":"cebpf4jnsgd1na2vs0mg"},{"bike_id":"4b9cd23c-174d-4102-af82-13a4a1e38300","system_id":"levelo_inurba_marseille","lat":43.29726,"lon":5.36606,"is_reserved":false,"is_disabled":false,"rental_uris":{"android":"levelo://app?vid=4b9cd23c-174d-4102-af82-13a4a1e38300","ios":"levelo://app?vid=4b9cd23c-174d-4102-af82-13a4a1e38300"},"vehicle_type_id":"4","last_reported":1741913323,"current_range_meters":12400,"station_id":"ce4bgn12rcd13ifvqbt0","pricing_plan_id":"cebpf4jnsgd1na2vs0mg"},{"bike_id":"ebcd4851-ee73-482e-a175-3de8013b7e4b","system_id":"levelo_inurba_marseille","lat":43.30325,"lon":5.40434,"is_reserved":false,"is_disabled":false,"rental_uris":{"android":"levelo://app?vid=ebcd4851-ee73-482e-a175-3de8013b7e4b","ios":"levelo://app?vid=ebcd4851-ee73-482e-a175-3de8013b7e4b"},"vehicle_type_id":"4","last_reported":1741913323,"current_range_meters":12400,"station_id":"ce4bh012rcd13ifvqd10","pricing_plan_id":"cebpf4jnsgd1na2vs0mg"},{"bike_id":"d76b6165-d192-435e-aaea-6a18987b94b7","system_id":"levelo_inurba_marseille","lat":43.28423,"lon":5.34989,"is_reserved":false,"is_disabled":false,"rental_uris":{"android":"levelo://app?vid=d76b6165-d192-435e-aaea-6a18987b94b7","ios":"levelo://app?vid=d76b6165-d192-435e-aaea-6a18987b94b7"},"vehicle_type_id":"4","last_reported":1741913323,"current_range_meters":12400,"station_id":"ce4bhbh2rcd13ifvqepg","pricing_plan_id":"cebpf4jnsgd1na2vs0mg"},{"bike_id":"594a33ea-5c85-49b0-893b-48b1f5e1011a","system_id":"levelo_inurba_marseille","lat":43.30932,"lon":5.40148,"is_reserved":false,"is_disabled":true,"rental_uris":{"android":"levelo://app?vid=594a33ea-5c85-49b0-893b-48b1f5e1011a","ios":"levelo://app?vid=594a33ea-5c85-49b0-893b-48b1f5e1011a"},"vehicle_type_id":"4","last_reported":1741913323,"current_range_meters":12400,"station_id":"ce4bgvp2rcd13ifvqct0","pricing_plan_id":"cebpf4jnsgd1na2vs0mg"},{"bike_id":"68a34e8f-540a-4fe3-a5ff-deaa13caa845","system_id":"levelo_inurba_marseille","lat":43.29777,"lon":5.44743,"is_reserved":false,"is_disabled":false,"rental_uris":{"android":"levelo://app?vid=68a34e8f-540a-4fe3-a5ff-deaa13caa845","ios":"levelo://app?vid=68a34e8f-540a-4fe3-a5ff-deaa13caa845"},"vehicle_type_id":"4","last_reported":1741913323,"current_range_meters":12400,"station_id":"","pricing_plan_id":"cebpf4jnsgd1na2vs0mg"},{"bike_id":"53cbc3b8-73f7-4525-88f8-5bf9f8c70134","system_id":"levelo_inurba_marseille","lat":43.28402,"lon":5.37513,"is_reserved":false,"is_disabled":false,"rental_uris":{"android":"levelo://app?vid=53cbc3b8-73f7-4525-88f8-5bf9f8c70134","ios":"levelo://app?vid=53cbc3b8-73f7-4525-88f8-5bf9f8c70134"},"vehicle_type_id":"4","last_reported":1741913323,"current_range_meters":12400,"station_id":"ce4bh412rcd13ifvqds0","pricing_plan_id":"cebpf4jnsgd1na2vs0mg"},{"bike_id":"98befa5c-f449-457b-b6dd-787d678fbfe6","system_id":"levelo_inurba_marseille","lat":43.29786,"lon":5.37895,"is_reserved":false,"is_disabled":false,"rental_uris":{"android":"levelo://app?vid=98befa5c-f449-457b-b6dd-787d678fbfe6","ios":"levelo://app?vid=98befa5c-f449-457b-b6dd-787d678fbfe6"},"vehicle_type_id":"4","last_reported":1741913323,"current_range_meters":12400,"station_id":"","pricing_plan_id":"cebpf4jnsgd1na2vs0mg"},{"bike_id":"882877d6-b866-4b92-bcdf-bb43c34ed300","system_id":"levelo_inurba_marseille","lat":43.28431,"lon":5.34993,"is_reserved":false,"is_disabled":false,"rental_uris":{"android":"levelo://app?vid=882877d6-b866-4b92-bcdf-bb43c34ed300","ios":"levelo://app?vid=882877d6-b866-4b92-bcdf-bb43c34ed300"},"vehicle_type_id":"4","last_reported":1741913323,"current_range_meters":12800,"station_id":"ce4bhbh2rcd13ifvqepg","pricing_plan_id":"cebpf4jnsgd1na2vs0mg"},{"bike_id":"47861f9b-3f62-4c4d-98cc-dec3a122ad16","system_id":"levelo_inurba_marseille","lat":43.29,"lon":5.35587,"is_reserved":false,"is_disabled":false,"rental_uris":{"android":"levelo://app?vid=47861f9b-3f62-4c4d-98cc-dec3a122ad16","ios":"levelo://app?vid=47861f9b-3f62-4c4d-98cc-dec3a122ad16"},"vehicle_type_id":"4","last_reported":1741913323,"current_range_meters":12800,"station_id":"ce4bhb92rcd13ifvqen0","pricing_plan_id":"cebpf4jnsgd1na2vs0mg"},{"bike_id":"1ccba09a-030c-4f03-8cb9-142b3443ab59","system_id":"levelo_inurba_marseille","lat":43.30887,"lon":5.39639,"is_reserved":false,"is_disabled":false,"rental_uris":{"android":"levelo://app?vid=1ccba09a-030c-4f03-8cb9-142b3443ab59","ios":"levelo://app?vid=1ccba09a-030c-4f03-8cb9-142b3443ab59"},"vehicle_type_id":"4","last_reported":1741913323,"current_range_meters":13600,"station_id":"ce4bh012rcd13ifvqcv0","pricing_plan_id":"cebpf4jnsgd1na2vs0mg"},{"bike_id":"11ab28db-342a-4a7b-89e2-1b7c32ed69f6","system_id":"levelo_inurba_marseille","lat":43.31263,"lon":5.40161,"is_reserved":false,"is_disabled":false,"rental_uris":{"android":"levelo://app?vid=11ab28db-342a-4a7b-89e2-1b7c32ed69f6","ios":"levelo://app?vid=11ab28db-342a-4a7b-89e2-1b7c32ed69f6"},"vehicle_type_id":"4","last_reported":1741913323,"current_range_meters":13600,"station_id":"ce4bh092rcd13ifvqd30","pricing_plan_id":"cebpf4jnsgd1na2vs0mg"},{"bike_id":"dca0e3a1-1fcc-4fdf-8621-d9073d019364","system_id":"levelo_inurba_marseille","lat":43.28435,"lon":5.37518,"is_reserved":false,"is_disabled":false,"rental_uris":{"android":"levelo://app?vid=dca0e3a1-1fcc-4fdf-8621-d9073d019364","ios":"levelo://app?vid=dca0e3a1-1fcc-4fdf-8621-d9073d019364"},"vehicle_type_id":"4","last_reported":1741913323,"current_range_meters":13600,"station_id":"ce4bh412rcd13ifvqds0","pricing_plan_id":"cebpf4jnsgd1na2vs0mg"},{"bike_id":"aeec4843-e0cf-441f-b4d2-907b0f5fbe59","system_id":"levelo_inurba_marseille","lat":43.25827,"lon":5.3942,"is_reserved":false,"is_disabled":false,"rental_uris":{"android":"levelo://app?vid=aeec4843-e0cf-441f-b4d2-907b0f5fbe59","ios":"levelo://app?vid=aeec4843-e0cf-441f-b4d2-907b0f5fbe59"},"vehicle_type_id":"4","last_reported":1741913323,"current_range_meters":13600,"station_id":"ce4bhip2rcd13ifvqft0","pricing_plan_id":"cebpf4jnsgd1na2vs0mg"},{"bike_id":"3e8ed462-249d-4127-baca-638e949e7849","system_id":"levelo_inurba_marseille","lat":43.29623,"lon":5.40596,"is_reserved":false,"is_disabled":false,"rental_uris":{"android":"levelo://app?vid=3e8ed462-249d-4127-baca-638e949e7849","ios":"levelo://app?vid=3e8ed462-249d-4127-baca-638e949e7849"},"vehicle_type_id":"4","last_reported":1741913323,"current_range_meters":13600,"station_id":"ce4bh0h2rcd13ifvqd60","pricing_plan_id":"cebpf4jnsgd1na2vs0mg"},{"bike_id":"ab047761-22ba-4663-afe3-d5d1d10a6654","system_id":"levelo_inurba_marseille","lat":43.2884,"lon":5.38149,"is_reserved":false,"is_disabled":false,"rental_uris":{"android":"levelo://app?vid=ab047761-22ba-4663-afe3-d5d1d10a6654","ios":"levelo://app?vid=ab047761-22ba-4663-afe3-d5d1d10a6654"},"vehicle_type_id":"4","last_reported":1741913323,"current_range_meters":13600,"station_id":"","pricing_plan_id":"cebpf4jnsgd1na2vs0mg"},{"bike_id":"29832e81-b63f-44c3-a8ae-1ccbc505bd58","system_id":"levelo_inurba_marseille","lat":43.278208,"lon":5.407202,"is_reserved":false,"is_disabled":false,"rental_uris":{"android":"levelo://app?vid=29832e81-b63f-44c3-a8ae-1ccbc505bd58","ios":"levelo://app?vid=29832e81-b63f-44c3-a8ae-1ccbc505bd58"},"vehicle_type_id":"4","last_reported":1741913323,"current_range_meters":13600,"station_id":"ce4bhnh2rcd13ifvqgtg","pricing_plan_id":"cebpf4jnsgd1na2vs0mg"},{"bike_id":"662e13ee-ccf3-4ffe-9041-8137225be89d","system_id":"levelo_inurba_marseille","lat":43.28943,"lon":5.36385,"is_reserved":false,"is_disabled":false,"rental_uris":{"android":"levelo://app?vid=662e13ee-ccf3-4ffe-9041-8137225be89d","ios":"levelo://app?vid=662e13ee-ccf3-4ffe-9041-8137225be89d"},"vehicle_type_id":"4","last_reported":1741913323,"current_range_meters":13600,"station_id":"ce4bhc92rcd13ifvqetg","pricing_plan_id":"cebpf4jnsgd1na2vs0mg"},{"bike_id":"dc2dc920-7061-4611-9ad3-02d4898aaa15","system_id":"levelo_inurba_marseille","lat":43.23182,"lon":5.39984,"is_reserved":false,"is_disabled":false,"rental_uris":{"android":"levelo://app?vid=dc2dc920-7061-4611-9ad3-02d4898aaa15","ios":"levelo://app?vid=dc2dc920-7061-4611-9ad3-02d4898aaa15"},"vehicle_type_id":"4","last_reported":1741913323,"current_range_meters":13600,"station_id":"ce4bhn12rcd13ifvqgqg","pricing_plan_id":"cebpf4jnsgd1na2vs0mg"},{"bike_id":"4ceffd55-dd41-40ca-98b3-378b96050050","system_id":"levelo_inurba_marseille","lat":43.29272,"lon":5.40212,"is_reserved":false,"is_disabled":false,"rental_uris":{"android":"levelo://app?vid=4ceffd55-dd41-40ca-98b3-378b96050050","ios":"levelo://app?vid=4ceffd55-dd41-40ca-98b3-378b96050050"},"vehicle_type_id":"4","last_reported":1741913323,"current_range_meters":13600,"station_id":"ce4bh312rcd13ifvqdk0","pricing_plan_id":"cebpf4jnsgd1na2vs0mg"},{"bike_id":"3e33256a-d861-45c0-af01-75642132ca20","system_id":"levelo_inurba_marseille","lat":43.33024,"lon":5.39393,"is_reserved":false,"is_disabled":false,"rental_uris":{"android":"levelo://app?vid=3e33256a-d861-45c0-af01-75642132ca20","ios":"levelo://app?vid=3e33256a-d861-45c0-af01-75642132ca20"},"vehicle_type_id":"4","last_reported":1741913323,"current_range_meters":13600,"station_id":"","pricing_plan_id":"cebpf4jnsgd1na2vs0mg"},{"bike_id":"3959c750-cc5b-4501-a9c1-aa26389cb4a3","system_id":"levelo_inurba_marseille","lat":43.29268,"lon":5.38453,"is_reserved":false,"is_disabled":true,"rental_uris":{"android":"levelo://app?vid=3959c750-cc5b-4501-a9c1-aa26389cb4a3","ios":"levelo://app?vid=3959c750-cc5b-4501-a9c1-aa26389cb4a3"},"vehicle_type_id":"4","last_reported":1741913323,"current_range_meters":14000,"station_id":"ce4bh692rcd13ifvqea0","pricing_plan_id":"cebpf4jnsgd1na2vs0mg"},{"bike_id":"69c60efd-cced-4215-918d-ab39edd61a69","system_id":"levelo_inurba_marseille","lat":43.27992,"lon":5.41657,"is_reserved":false,"is_disabled":false,"rental_uris":{"android":"levelo://app?vid=69c60efd-cced-4215-918d-ab39edd61a69","ios":"levelo://app?vid=69c60efd-cced-4215-918d-ab39edd61a69"},"vehicle_type_id":"4","last_reported":1741913323,"current_range_meters":14000,"station_id":"ce4bho12rcd13ifvqh1g","pricing_plan_id":"cebpf4jnsgd1na2vs0mg"},{"bike_id":"7afbb10b-29e2-408a-bf9a-c9b594f91f98","system_id":"levelo_inurba_marseille","lat":43.26227,"lon":5.40463,"is_reserved":false,"is_disabled":false,"rental_uris":{"android":"levelo://app?vid=7afbb10b-29e2-408a-bf9a-c9b594f91f98","ios":"levelo://app?vid=7afbb10b-29e2-408a-bf9a-c9b594f91f98"},"vehicle_type_id":"4","last_reported":1741913323,"current_range_meters":14000,"station_id":"ce4bhmh2rcd13ifvqgmg","pricing_plan_id":"cebpf4jnsgd1na2vs0mg"},{"bike_id":"9fe7686a-dd83-42fb-a581-8ce0fadc4930","system_id":"levelo_inurba_marseille","lat":43.29923,"lon":5.37471,"is_reserved":false,"is_disabled":false,"rental_uris":{"android":"levelo://app?vid=9fe7686a-dd83-42fb-a581-8ce0fadc4930","ios":"levelo://app?vid=9fe7686a-dd83-42fb-a581-8ce0fadc4930"},"vehicle_type_id":"4","last_reported":1741913323,"current_range_meters":14000,"station_id":"ce4bgjh2rcd13ifvqbg0","pricing_plan_id":"cebpf4jnsgd1na2vs0mg"},{"bike_id":"975043cc-2947-4407-914c-c76c5824daa1","system_id":"levelo_inurba_marseille","lat":43.27058,"lon":5.40258,"is_reserved":false,"is_disabled":false,"rental_uris":{"android":"levelo://app?vid=975043cc-2947-4407-914c-c76c5824daa1","ios":"levelo://app?vid=975043cc-2947-4407-914c-c76c5824daa1"},"vehicle_type_id":"4","last_reported":1741913323,"current_range_meters":14000,"station_id":"ce4bhk92rcd13ifvqgc0","pricing_plan_id":"cebpf4jnsgd1na2vs0mg"},{"bike_id":"c196231e-0800-4d59-85c9-7bb960452077","system_id":"levelo_inurba_marseille","lat":43.311113,"lon":5.377725,"is_reserved":false,"is_disabled":false,"rental_uris":{"android":"levelo://app?vid=c196231e-0800-4d59-85c9-7bb960452077","ios":"levelo://app?vid=c196231e-0800-4d59-85c9-7bb960452077"},"vehicle_type_id":"4","last_reported":1741913323,"current_range_meters":14000,"station_id":"ce4bgt92rcd13ifvqcg0","pricing_plan_id":"cebpf4jnsgd1na2vs0mg"},{"bike_id":"ac9829db-5826-4bcf-b26b-4776553d00ba","system_id":"levelo_inurba_marseille","lat":43.31703,"lon":5.40385,"is_reserved":false,"is_disabled":false,"rental_uris":{"android":"levelo://app?vid=ac9829db-5826-4bcf-b26b-4776553d00ba","ios":"levelo://app?vid=ac9829db-5826-4bcf-b26b-4776553d00ba"},"vehicle_type_id":"4","last_reported":1741913323,"current_range_meters":14400,"station_id":"ce4bh012rcd13ifvqd00","pricing_plan_id":"cebpf4jnsgd1na2vs0mg"},{"bike_id":"c4f2740c-3fd6-4d84-b01f-bc333e653762","system_id":"levelo_inurba_marseille","lat":43.24658,"lon":5.38164,"is_reserved":false,"is_disabled":false,"rental_uris":{"android":"levelo://app?vid=c4f2740c-3fd6-4d84-b01f-bc333e653762","ios":"levelo://app?vid=c4f2740c-3fd6-4d84-b01f-bc333e653762"},"vehicle_type_id":"4","last_reported":1741913323,"current_range_meters":14400,"station_id":"ce4bhih2rcd13ifvqfr0","pricing_plan_id":"cebpf4jnsgd1na2vs0mg"},{"bike_id":"c54d1316-17b1-4d86-b690-d1349ec7e3d9","system_id":"levelo_inurba_marseille","lat":43.30315,"lon":5.36891,"is_reserved":false,"is_disabled":false,"rental_uris":{"android":"levelo://app?vid=c54d1316-17b1-4d86-b690-d1349ec7e3d9","ios":"levelo://app?vid=c54d1316-17b1-4d86-b690-d1349ec7e3d9"},"vehicle_type_id":"4","last_reported":1741913323,"current_range_meters":14400,"station_id":"ce4bgqh2rcd13ifvqc5g","pricing_plan_id":"cebpf4jnsgd1na2vs0mg"},{"bike_id":"209369df-b5a0-42fc-be55-c13f536bfc68","system_id":"levelo_inurba_marseille","lat":43.3141,"lon":5.36863,"is_reserved":false,"is_disabled":false,"rental_uris":{"android":"levelo://app?vid=209369df-b5a0-42fc-be55-c13f536bfc68","ios":"levelo://app?vid=209369df-b5a0-42fc-be55-c13f536bfc68"},"vehicle_type_id":"4","last_reported":1741913323,"current_range_meters":14400,"station_id":"","pricing_plan_id":"cebpf4jnsgd1na2vs0mg"},{"bike_id":"2fcdbd2d-52b8-4841-9569-2b04b6707abc","system_id":"levelo_inurba_marseille","lat":43.23203,"lon":5.39992,"is_reserved":false,"is_disabled":false,"rental_uris":{"android":"levelo://app?vid=2fcdbd2d-52b8-4841-9569-2b04b6707abc","ios":"levelo://app?vid=2fcdbd2d-52b8-4841-9569-2b04b6707abc"},"vehicle_type_id":"4","last_reported":1741913323,"current_range_meters":14800,"station_id":"ce4bhn12rcd13ifvqgqg","pricing_plan_id":"cebpf4jnsgd1na2vs0mg"},{"bike_id":"bf42223a-5f10-4652-a828-669a98265513","system_id":"levelo_inurba_marseille","lat":43.28718,"lon":5.37933,"is_reserved":false,"is_disabled":false,"rental_uris":{"android":"levelo://app?vid=bf42223a-5f10-4652-a828-669a98265513","ios":"levelo://app?vid=bf42223a-5f10-4652-a828-669a98265513"},"vehicle_type_id":"4","last_reported":1741913323,"current_range_meters":14800,"station_id":"ce4bh9p2rcd13ifvqec0","pricing_plan_id":"cebpf4jnsgd1na2vs0mg"},{"bike_id":"62df1872-4e78-478b-8baf-314399b3b7f3","system_id":"levelo_inurba_marseille","lat":43.27571,"lon":5.38423,"is_reserved":false,"is_disabled":false,"rental_uris":{"android":"levelo://app?vid=62df1872-4e78-478b-8baf-314399b3b7f3","ios":"levelo://app?vid=62df1872-4e78-478b-8baf-314399b3b7f3"},"vehicle_type_id":"4","last_reported":1741913323,"current_range_meters":14400,"station_id":"ce4bhh92rcd13ifvqfi0","pricing_plan_id":"cebpf4jnsgd1na2vs0mg"},{"bike_id":"c6f9c2cc-8d82-4ef0-9c96-3fa68372f355","system_id":"levelo_inurba_marseille","lat":43.25006,"lon":5.38942,"is_reserved":false,"is_disabled":false,"rental_uris":{"android":"levelo://app?vid=c6f9c2cc-8d82-4ef0-9c96-3fa68372f355","ios":"levelo://app?vid=c6f9c2cc-8d82-4ef0-9c96-3fa68372f355"},"vehicle_type_id":"4","last_reported":1741913323,"current_range_meters":14800,"station_id":"ce4bhgp2rcd13ifvqfd0","pricing_plan_id":"cebpf4jnsgd1na2vs0mg"},{"bike_id":"763a16a6-bc6e-48d4-84d3-a1ea13c086bc","system_id":"levelo_inurba_marseille","lat":43.29031,"lon":5.37557,"is_reserved":false,"is_disabled":true,"rental_uris":{"android":"levelo://app?vid=763a16a6-bc6e-48d4-84d3-a1ea13c086bc","ios":"levelo://app?vid=763a16a6-bc6e-48d4-84d3-a1ea13c086bc"},"vehicle_type_id":"4","last_reported":1741913323,"current_range_meters":14800,"station_id":"ce4bh692rcd13ifvqe90","pricing_plan_id":"cebpf4jnsgd1na2vs0mg"},{"bike_id":"bb262669-2828-4121-8e0f-2a10bcc2fb97","system_id":"levelo_inurba_marseille","lat":43.30666,"lon":5.40075,"is_reserved":false,"is_disabled":false,"rental_uris":{"android":"levelo://app?vid=bb262669-2828-4121-8e0f-2a10bcc2fb97","ios":"levelo://app?vid=bb262669-2828-4121-8e0f-2a10bcc2fb97"},"vehicle_type_id":"4","last_reported":1741913323,"current_range_meters":14800,"station_id":"ce4bh112rcd13ifvqda0","pricing_plan_id":"cebpf4jnsgd1na2vs0mg"},{"bike_id":"bf990c20-70f5-4659-83c7-3780ce4a6071","system_id":"levelo_inurba_marseille","lat":43.28442,"lon":5.39182,"is_reserved":false,"is_disabled":false,"rental_uris":{"android":"levelo://app?vid=bf990c20-70f5-4659-83c7-3780ce4a6071","ios":"levelo://app?vid=bf990c20-70f5-4659-83c7-3780ce4a6071"},"vehicle_type_id":"4","last_reported":1741913323,"current_range_meters":14800,"station_id":"ce4bhoh2rcd13ifvqh5g","pricing_plan_id":"cebpf4jnsgd1na2vs0mg"},{"bike_id":"66c355a3-28d1-4b81-a026-f4ce15271621","system_id":"levelo_inurba_marseille","lat":43.29632,"lon":5.40587,"is_reserved":false,"is_disabled":false,"rental_uris":{"android":"levelo://app?vid=66c355a3-28d1-4b81-a026-f4ce15271621","ios":"levelo://app?vid=66c355a3-28d1-4b81-a026-f4ce15271621"},"vehicle_type_id":"4","last_reported":1741913323,"current_range_meters":15200,"station_id":"ce4bh0h2rcd13ifvqd60","pricing_plan_id":"cebpf4jnsgd1na2vs0mg"},{"bike_id":"ce06a747-dfc5-4afc-8c06-8358fffe4bb2","system_id":"levelo_inurba_marseille","lat":43.28423,"lon":5.34979,"is_reserved":false,"is_disabled":false,"rental_uris":{"android":"levelo://app?vid=ce06a747-dfc5-4afc-8c06-8358fffe4bb2","ios":"levelo://app?vid=ce06a747-dfc5-4afc-8c06-8358fffe4bb2"},"vehicle_type_id":"4","last_reported":1741913323,"current_range_meters":15200,"station_id":"ce4bhbh2rcd13ifvqepg","pricing_plan_id":"cebpf4jnsgd1na2vs0mg"},{"bike_id":"59822710-2d10-4517-868b-42cfab329759","system_id":"levelo_inurba_marseille","lat":43.23199,"lon":5.35561,"is_reserved":false,"is_disabled":false,"rental_uris":{"android":"levelo://app?vid=59822710-2d10-4517-868b-42cfab329759","ios":"levelo://app?vid=59822710-2d10-4517-868b-42cfab329759"},"vehicle_type_id":"4","last_reported":1741913323,"current_range_meters":15200,"station_id":"ce4bhu92rcd13ifvqi70","pricing_plan_id":"cebpf4jnsgd1na2vs0mg"},{"bike_id":"ae64ab42-2eb1-48d5-91c4-ee0243171e9d","system_id":"levelo_inurba_marseille","lat":43.29053,"lon":5.39999,"is_reserved":false,"is_disabled":false,"rental_uris":{"android":"levelo://app?vid=ae64ab42-2eb1-48d5-91c4-ee0243171e9d","ios":"levelo://app?vid=ae64ab42-2eb1-48d5-91c4-ee0243171e9d"},"vehicle_type_id":"4","last_reported":1741913323,"current_range_meters":15200,"station_id":"ce4bh392rcd13ifvqdm0","pricing_plan_id":"cebpf4jnsgd1na2vs0mg"},{"bike_id":"31c8862d-1f7d-4f69-a37f-93c25c9ce4d5","system_id":"levelo_inurba_marseille","lat":43.25008,"lon":5.38923,"is_reserved":false,"is_disabled":false,"rental_uris":{"android":"levelo://app?vid=31c8862d-1f7d-4f69-a37f-93c25c9ce4d5","ios":"levelo://app?vid=31c8862d-1f7d-4f69-a37f-93c25c9ce4d5"},"vehicle_type_id":"4","last_reported":1741913323,"current_range_meters":15200,"station_id":"ce4bhgp2rcd13ifvqfd0","pricing_plan_id":"cebpf4jnsgd1na2vs0mg"},{"bike_id":"c7950de0-ccb6-4d1b-a54b-5d73e8dc2b0a","system_id":"levelo_inurba_marseille","lat":43.28438,"lon":5.39177,"is_reserved":false,"is_disabled":false,"rental_uris":{"android":"levelo://app?vid=c7950de0-ccb6-4d1b-a54b-5d73e8dc2b0a","ios":"levelo://app?vid=c7950de0-ccb6-4d1b-a54b-5d73e8dc2b0a"},"vehicle_type_id":"4","last_reported":1741913323,"current_range_meters":15200,"station_id":"ce4bhoh2rcd13ifvqh5g","pricing_plan_id":"cebpf4jnsgd1na2vs0mg"},{"bike_id":"d98e5f37-4f71-4a36-9b3b-496f87de0d61","system_id":"levelo_inurba_marseille","lat":43.311,"lon":5.37601,"is_reserved":false,"is_disabled":false,"rental_uris":{"android":"levelo://app?vid=d98e5f37-4f71-4a36-9b3b-496f87de0d61","ios":"levelo://app?vid=d98e5f37-4f71-4a36-9b3b-496f87de0d61"},"vehicle_type_id":"4","last_reported":1741913323,"current_range_meters":15200,"station_id":"","pricing_plan_id":"cebpf4jnsgd1na2vs0mg"},{"bike_id":"bd7fb638-a561-41df-90ca-f32685780427","system_id":"levelo_inurba_marseille","lat":43.22933,"lon":5.35371,"is_reserved":false,"is_disabled":false,"rental_uris":{"android":"levelo://app?vid=bd7fb638-a561-41df-90ca-f32685780427","ios":"levelo://app?vid=bd7fb638-a561-41df-90ca-f32685780427"},"vehicle_type_id":"4","last_reported":1741913323,"current_range_meters":15200,"station_id":"cpo3532slgdg3j2ikp40","pricing_plan_id":"cebpf4jnsgd1na2vs0mg"},{"bike_id":"71e80157-4ef4-4e3e-8058-1f3fbd36ccdb","system_id":"levelo_inurba_marseille","lat":43.28954,"lon":5.39624,"is_reserved":false,"is_disabled":false,"rental_uris":{"android":"levelo://app?vid=71e80157-4ef4-4e3e-8058-1f3fbd36ccdb","ios":"levelo://app?vid=71e80157-4ef4-4e3e-8058-1f3fbd36ccdb"},"vehicle_type_id":"4","last_reported":1741913323,"current_range_meters":15200,"station_id":"ce4bh3h2rcd13ifvqdn0","pricing_plan_id":"cebpf4jnsgd1na2vs0mg"},{"bike_id":"e8c41106-611b-4b63-ab3a-8921ab9bd516","system_id":"levelo_inurba_marseille","lat":43.28851,"lon":5.35845,"is_reserved":false,"is_disabled":false,"rental_uris":{"android":"levelo://app?vid=e8c41106-611b-4b63-ab3a-8921ab9bd516","ios":"levelo://app?vid=e8c41106-611b-4b63-ab3a-8921ab9bd516"},"vehicle_type_id":"4","last_reported":1741913323,"current_range_meters":16000,"station_id":"ce4bhb12rcd13ifvqem0","pricing_plan_id":"cebpf4jnsgd1na2vs0mg"},{"bike_id":"f8e9787d-4c7f-4b26-a202-4ff55b4e451b","system_id":"levelo_inurba_marseille","lat":43.29912,"lon":5.37468,"is_reserved":false,"is_disabled":true,"rental_uris":{"android":"levelo://app?vid=f8e9787d-4c7f-4b26-a202-4ff55b4e451b","ios":"levelo://app?vid=f8e9787d-4c7f-4b26-a202-4ff55b4e451b"},"vehicle_type_id":"4","last_reported":1741913323,"current_range_meters":16000,"station_id":"ce4bgjh2rcd13ifvqbg0","pricing_plan_id":"cebpf4jnsgd1na2vs0mg"},{"bike_id":"adad5726-72d5-4840-b502-aaab6f5e47bd","system_id":"levelo_inurba_marseille","lat":43.32619,"lon":5.40948,"is_reserved":false,"is_disabled":false,"rental_uris":{"android":"levelo://app?vid=adad5726-72d5-4840-b502-aaab6f5e47bd","ios":"levelo://app?vid=adad5726-72d5-4840-b502-aaab6f5e47bd"},"vehicle_type_id":"4","last_reported":1741913323,"current_range_meters":15200,"station_id":"ce4bhpp2rcd13ifvqhgg","pricing_plan_id":"cebpf4jnsgd1na2vs0mg"},{"bike_id":"5c6eed11-5b7b-4faa-9f2d-08025e97b244","system_id":"levelo_inurba_marseille","lat":43.24053,"lon":5.37732,"is_reserved":false,"is_disabled":false,"rental_uris":{"android":"levelo://app?vid=5c6eed11-5b7b-4faa-9f2d-08025e97b244","ios":"levelo://app?vid=5c6eed11-5b7b-4faa-9f2d-08025e97b244"},"vehicle_type_id":"4","last_reported":1741913323,"current_range_meters":16000,"station_id":"ce4bhnp2rcd13ifvqgvg","pricing_plan_id":"cebpf4jnsgd1na2vs0mg"},{"bike_id":"ba033f89-bb1c-4f92-a2bf-635f0998cf01","system_id":"levelo_inurba_marseille","lat":43.28428,"lon":5.39179,"is_reserved":false,"is_disabled":false,"rental_uris":{"android":"levelo://app?vid=ba033f89-bb1c-4f92-a2bf-635f0998cf01","ios":"levelo://app?vid=ba033f89-bb1c-4f92-a2bf-635f0998cf01"},"vehicle_type_id":"4","last_reported":1741913323,"current_range_meters":16400,"station_id":"ce4bhoh2rcd13ifvqh5g","pricing_plan_id":"cebpf4jnsgd1na2vs0mg"},{"bike_id":"07c72146-04d2-40c0-8674-54cd753f78e1","system_id":"levelo_inurba_marseille","lat":43.25017,"lon":5.38909,"is_reserved":false,"is_disabled":false,"rental_uris":{"android":"levelo://app?vid=07c72146-04d2-40c0-8674-54cd753f78e1","ios":"levelo://app?vid=07c72146-04d2-40c0-8674-54cd753f78e1"},"vehicle_type_id":"4","last_reported":1741913323,"current_range_meters":16400,"station_id":"ce4bhgp2rcd13ifvqfd0","pricing_plan_id":"cebpf4jnsgd1na2vs0mg"},{"bike_id":"90754bf0-9d7f-4ce9-b914-afc27481bc0c","system_id":"levelo_inurba_marseille","lat":43.289316,"lon":5.381704,"is_reserved":false,"is_disabled":false,"rental_uris":{"android":"levelo://app?vid=90754bf0-9d7f-4ce9-b914-afc27481bc0c","ios":"levelo://app?vid=90754bf0-9d7f-4ce9-b914-afc27481bc0c"},"vehicle_type_id":"4","last_reported":1741913323,"current_range_meters":16000,"station_id":"ce4bh512rcd13ifvqe3g","pricing_plan_id":"cebpf4jnsgd1na2vs0mg"},{"bike_id":"43c7a6fd-be71-49b8-84af-608bb2a161fd","system_id":"levelo_inurba_marseille","lat":43.28684,"lon":5.37401,"is_reserved":false,"is_disabled":false,"rental_uris":{"android":"levelo://app?vid=43c7a6fd-be71-49b8-84af-608bb2a161fd","ios":"levelo://app?vid=43c7a6fd-be71-49b8-84af-608bb2a161fd"},"vehicle_type_id":"4","last_reported":1741913323,"current_range_meters":16400,"station_id":"ce4bh3p2rcd13ifvqdq0","pricing_plan_id":"cebpf4jnsgd1na2vs0mg"},{"bike_id":"4c43d76a-2a48-4308-b0bd-954fe58a2085","system_id":"levelo_inurba_marseille","lat":43.3094,"lon":5.39078,"is_reserved":false,"is_disabled":false,"rental_uris":{"android":"levelo://app?vid=4c43d76a-2a48-4308-b0bd-954fe58a2085","ios":"levelo://app?vid=4c43d76a-2a48-4308-b0bd-954fe58a2085"},"vehicle_type_id":"4","last_reported":1741913323,"current_range_meters":16400,"station_id":"ce4bgup2rcd13ifvqco0","pricing_plan_id":"cebpf4jnsgd1na2vs0mg"},{"bike_id":"96f75d47-903c-45ac-ab93-3d63872bfcc8","system_id":"levelo_inurba_marseille","lat":43.27911,"lon":5.38019,"is_reserved":false,"is_disabled":false,"rental_uris":{"android":"levelo://app?vid=96f75d47-903c-45ac-ab93-3d63872bfcc8","ios":"levelo://app?vid=96f75d47-903c-45ac-ab93-3d63872bfcc8"},"vehicle_type_id":"4","last_reported":1741913323,"current_range_meters":16400,"station_id":"ce4bhf92rcd13ifvqf50","pricing_plan_id":"cebpf4jnsgd1na2vs0mg"},{"bike_id":"8e17715f-c74e-43f6-ada7-f6c63b953dbf","system_id":"levelo_inurba_marseille","lat":43.30884,"lon":5.372,"is_reserved":false,"is_disabled":false,"rental_uris":{"android":"levelo://app?vid=8e17715f-c74e-43f6-ada7-f6c63b953dbf","ios":"levelo://app?vid=8e17715f-c74e-43f6-ada7-f6c63b953dbf"},"vehicle_type_id":"4","last_reported":1741913323,"current_range_meters":16400,"station_id":"ce4bguh2rcd13ifvqckg","pricing_plan_id":"cebpf4jnsgd1na2vs0mg"},{"bike_id":"e0f00ea1-5190-455d-8f01-943045ce62ae","system_id":"levelo_inurba_marseille","lat":43.31167,"lon":5.37733,"is_reserved":false,"is_disabled":false,"rental_uris":{"android":"levelo://app?vid=e0f00ea1-5190-455d-8f01-943045ce62ae","ios":"levelo://app?vid=e0f00ea1-5190-455d-8f01-943045ce62ae"},"vehicle_type_id":"4","last_reported":1741913323,"current_range_meters":16400,"station_id":"","pricing_plan_id":"cebpf4jnsgd1na2vs0mg"},{"bike_id":"7f516de8-ea54-4dac-a704-2dab5ffa1423","system_id":"levelo_inurba_marseille","lat":43.27582,"lon":5.38429,"is_reserved":false,"is_disabled":false,"rental_uris":{"android":"levelo://app?vid=7f516de8-ea54-4dac-a704-2dab5ffa1423","ios":"levelo://app?vid=7f516de8-ea54-4dac-a704-2dab5ffa1423"},"vehicle_type_id":"4","last_reported":1741913323,"current_range_meters":16000,"station_id":"ce4bhh92rcd13ifvqfi0","pricing_plan_id":"cebpf4jnsgd1na2vs0mg"},{"bike_id":"480057fe-eac1-4351-8bb6-1067c18f12c8","system_id":"levelo_inurba_marseille","lat":43.28396,"lon":5.37512,"is_reserved":false,"is_disabled":false,"rental_uris":{"android":"levelo://app?vid=480057fe-eac1-4351-8bb6-1067c18f12c8","ios":"levelo://app?vid=480057fe-eac1-4351-8bb6-1067c18f12c8"},"vehicle_type_id":"4","last_reported":1741913323,"current_range_meters":16400,"station_id":"ce4bh412rcd13ifvqds0","pricing_plan_id":"cebpf4jnsgd1na2vs0mg"},{"bike_id":"08135f35-bf95-4ec3-b7d7-bd18c71af900","system_id":"levelo_inurba_marseille","lat":43.31268,"lon":5.40165,"is_reserved":false,"is_disabled":false,"rental_uris":{"android":"levelo://app?vid=08135f35-bf95-4ec3-b7d7-bd18c71af900","ios":"levelo://app?vid=08135f35-bf95-4ec3-b7d7-bd18c71af900"},"vehicle_type_id":"4","last_reported":1741913323,"current_range_meters":16400,"station_id":"ce4bh092rcd13ifvqd30","pricing_plan_id":"cebpf4jnsgd1na2vs0mg"},{"bike_id":"04f149c6-a120-4218-b435-a952d9eb67d0","system_id":"levelo_inurba_marseille","lat":43.24868,"lon":5.40642,"is_reserved":false,"is_disabled":false,"rental_uris":{"android":"levelo://app?vid=04f149c6-a120-4218-b435-a952d9eb67d0","ios":"levelo://app?vid=04f149c6-a120-4218-b435-a952d9eb67d0"},"vehicle_type_id":"4","last_reported":1741913323,"current_range_meters":16400,"station_id":"","pricing_plan_id":"cebpf4jnsgd1na2vs0mg"},{"bike_id":"cef6793a-a9f0-4fc9-a278-b244fe4073b8","system_id":"levelo_inurba_marseille","lat":43.31282,"lon":5.40162,"is_reserved":false,"is_disabled":false,"rental_uris":{"android":"levelo://app?vid=cef6793a-a9f0-4fc9-a278-b244fe4073b8","ios":"levelo://app?vid=cef6793a-a9f0-4fc9-a278-b244fe4073b8"},"vehicle_type_id":"4","last_reported":1741913323,"current_range_meters":16400,"station_id":"ce4bh092rcd13ifvqd30","pricing_plan_id":"cebpf4jnsgd1na2vs0mg"},{"bike_id":"fbb6deec-b01b-448c-87f8-db947ece7abe","system_id":"levelo_inurba_marseille","lat":43.29907,"lon":5.37478,"is_reserved":false,"is_disabled":false,"rental_uris":{"android":"levelo://app?vid=fbb6deec-b01b-448c-87f8-db947ece7abe","ios":"levelo://app?vid=fbb6deec-b01b-448c-87f8-db947ece7abe"},"vehicle_type_id":"4","last_reported":1741913323,"current_range_meters":16400,"station_id":"ce4bgjh2rcd13ifvqbg0","pricing_plan_id":"cebpf4jnsgd1na2vs0mg"},{"bike_id":"d9136c15-82b7-494f-a1d9-90a5c5c90210","system_id":"levelo_inurba_marseille","lat":43.302995,"lon":5.39218,"is_reserved":false,"is_disabled":false,"rental_uris":{"android":"levelo://app?vid=d9136c15-82b7-494f-a1d9-90a5c5c90210","ios":"levelo://app?vid=d9136c15-82b7-494f-a1d9-90a5c5c90210"},"vehicle_type_id":"4","last_reported":1741913323,"current_range_meters":16400,"station_id":"ce4bgkh2rcd13ifvqbk0","pricing_plan_id":"cebpf4jnsgd1na2vs0mg"},{"bike_id":"8eb1a957-a48f-4ea1-9a87-c9ca711e52f4","system_id":"levelo_inurba_marseille","lat":43.31482,"lon":5.37295,"is_reserved":false,"is_disabled":false,"rental_uris":{"android":"levelo://app?vid=8eb1a957-a48f-4ea1-9a87-c9ca711e52f4","ios":"levelo://app?vid=8eb1a957-a48f-4ea1-9a87-c9ca711e52f4"},"vehicle_type_id":"4","last_reported":1741913323,"current_range_meters":16400,"station_id":"ce4bgt12rcd13ifvqcd0","pricing_plan_id":"cebpf4jnsgd1na2vs0mg"},{"bike_id":"03681732-f126-4dbb-ad09-d1b9ba34b184","system_id":"levelo_inurba_marseille","lat":43.28273,"lon":5.35082,"is_reserved":false,"is_disabled":false,"rental_uris":{"android":"levelo://app?vid=03681732-f126-4dbb-ad09-d1b9ba34b184","ios":"levelo://app?vid=03681732-f126-4dbb-ad09-d1b9ba34b184"},"vehicle_type_id":"4","last_reported":1741913323,"current_range_meters":16800,"station_id":"ce4bhbp2rcd13ifvqerg","pricing_plan_id":"cebpf4jnsgd1na2vs0mg"},{"bike_id":"6b91507d-b61e-45af-bd1f-e83a2add3351","system_id":"levelo_inurba_marseille","lat":43.28452,"lon":5.35889,"is_reserved":false,"is_disabled":false,"rental_uris":{"android":"levelo://app?vid=6b91507d-b61e-45af-bd1f-e83a2add3351","ios":"levelo://app?vid=6b91507d-b61e-45af-bd1f-e83a2add3351"},"vehicle_type_id":"4","last_reported":1741913323,"current_range_meters":16800,"station_id":"ce4bhah2rcd13ifvqei0","pricing_plan_id":"cebpf4jnsgd1na2vs0mg"},{"bike_id":"aeefe2ec-65b5-4d03-80b3-2396e9b36193","system_id":"levelo_inurba_marseille","lat":43.31083,"lon":5.38351,"is_reserved":false,"is_disabled":false,"rental_uris":{"android":"levelo://app?vid=aeefe2ec-65b5-4d03-80b3-2396e9b36193","ios":"levelo://app?vid=aeefe2ec-65b5-4d03-80b3-2396e9b36193"},"vehicle_type_id":"4","last_reported":1741913323,"current_range_meters":16800,"station_id":"ce4bgv92rcd13ifvqcr0","pricing_plan_id":"cebpf4jnsgd1na2vs0mg"},{"bike_id":"cdfe7ef8-ff11-4f5d-aeb1-33a6b98a36bd","system_id":"levelo_inurba_marseille","lat":43.31116,"lon":5.3776,"is_reserved":false,"is_disabled":false,"rental_uris":{"android":"levelo://app?vid=cdfe7ef8-ff11-4f5d-aeb1-33a6b98a36bd","ios":"levelo://app?vid=cdfe7ef8-ff11-4f5d-aeb1-33a6b98a36bd"},"vehicle_type_id":"4","last_reported":1741913323,"current_range_meters":16800,"station_id":"ce4bgt92rcd13ifvqcg0","pricing_plan_id":"cebpf4jnsgd1na2vs0mg"},{"bike_id":"7c33a5f7-9cd7-4df2-b4dc-e390bdeb9d8e","system_id":"levelo_inurba_marseille","lat":43.25121,"lon":5.40313,"is_reserved":false,"is_disabled":false,"rental_uris":{"android":"levelo://app?vid=7c33a5f7-9cd7-4df2-b4dc-e390bdeb9d8e","ios":"levelo://app?vid=7c33a5f7-9cd7-4df2-b4dc-e390bdeb9d8e"},"vehicle_type_id":"4","last_reported":1741913323,"current_range_meters":16800,"station_id":"ce4bhlh2rcd13ifvqgig","pricing_plan_id":"cebpf4jnsgd1na2vs0mg"},{"bike_id":"50fc6919-e75b-41ca-91b1-b66005daff47","system_id":"levelo_inurba_marseille","lat":43.28722,"lon":5.37937,"is_reserved":false,"is_disabled":false,"rental_uris":{"android":"levelo://app?vid=50fc6919-e75b-41ca-91b1-b66005daff47","ios":"levelo://app?vid=50fc6919-e75b-41ca-91b1-b66005daff47"},"vehicle_type_id":"4","last_reported":1741913323,"current_range_meters":17600,"station_id":"ce4bh9p2rcd13ifvqec0","pricing_plan_id":"cebpf4jnsgd1na2vs0mg"},{"bike_id":"7ac836fc-8bfb-4f6d-9ed8-aaa4df0bd855","system_id":"levelo_inurba_marseille","lat":43.32345,"lon":5.38863,"is_reserved":false,"is_disabled":false,"rental_uris":{"android":"levelo://app?vid=7ac836fc-8bfb-4f6d-9ed8-aaa4df0bd855","ios":"levelo://app?vid=7ac836fc-8bfb-4f6d-9ed8-aaa4df0bd855"},"vehicle_type_id":"4","last_reported":1741913323,"current_range_meters":17200,"station_id":"ce4bhqp2rcd13ifvqhog","pricing_plan_id":"cebpf4jnsgd1na2vs0mg"},{"bike_id":"a01f6986-79a6-4123-a40a-03975b1ce552","system_id":"levelo_inurba_marseille","lat":43.28345,"lon":5.38099,"is_reserved":false,"is_disabled":false,"rental_uris":{"android":"levelo://app?vid=a01f6986-79a6-4123-a40a-03975b1ce552","ios":"levelo://app?vid=a01f6986-79a6-4123-a40a-03975b1ce552"},"vehicle_type_id":"4","last_reported":1741913323,"current_range_meters":17200,"station_id":"ce4bh412rcd13ifvqdr0","pricing_plan_id":"cebpf4jnsgd1na2vs0mg"},{"bike_id":"ae2c374b-e3c1-46b0-837c-29badd9bd7b0","system_id":"levelo_inurba_marseille","lat":43.30247,"lon":5.40054,"is_reserved":false,"is_disabled":false,"rental_uris":{"android":"levelo://app?vid=ae2c374b-e3c1-46b0-837c-29badd9bd7b0","ios":"levelo://app?vid=ae2c374b-e3c1-46b0-837c-29badd9bd7b0"},"vehicle_type_id":"4","last_reported":1741913323,"current_range_meters":17200,"station_id":"ce4bgvh2rcd13ifvqcs0","pricing_plan_id":"cebpf4jnsgd1na2vs0mg"},{"bike_id":"af2b5855-f21f-4585-9d1d-7c002cf2b81c","system_id":"levelo_inurba_marseille","lat":43.27818,"lon":5.40706,"is_reserved":false,"is_disabled":false,"rental_uris":{"android":"levelo://app?vid=af2b5855-f21f-4585-9d1d-7c002cf2b81c","ios":"levelo://app?vid=af2b5855-f21f-4585-9d1d-7c002cf2b81c"},"vehicle_type_id":"4","last_reported":1741913323,"current_range_meters":17200,"station_id":"ce4bhnh2rcd13ifvqgtg","pricing_plan_id":"cebpf4jnsgd1na2vs0mg"},{"bike_id":"bd66177f-a1f9-4db0-aaf4-f7bd40cddb3f","system_id":"levelo_inurba_marseille","lat":43.28713,"lon":5.36098,"is_reserved":false,"is_disabled":false,"rental_uris":{"android":"levelo://app?vid=bd66177f-a1f9-4db0-aaf4-f7bd40cddb3f","ios":"levelo://app?vid=bd66177f-a1f9-4db0-aaf4-f7bd40cddb3f"},"vehicle_type_id":"4","last_reported":1741913323,"current_range_meters":17600,"station_id":"cki0cbj6b192h4jlfktg","pricing_plan_id":"cebpf4jnsgd1na2vs0mg"},{"bike_id":"7d3dec2a-f125-461c-bae7-7278a452cc48","system_id":"levelo_inurba_marseille","lat":43.29293,"lon":5.37432,"is_reserved":false,"is_disabled":true,"rental_uris":{"android":"levelo://app?vid=7d3dec2a-f125-461c-bae7-7278a452cc48","ios":"levelo://app?vid=7d3dec2a-f125-461c-bae7-7278a452cc48"},"vehicle_type_id":"4","last_reported":1741913323,"current_range_meters":17600,"station_id":"ce4bgi12rcd13ifvqb70","pricing_plan_id":"cebpf4jnsgd1na2vs0mg"},{"bike_id":"0b7bfdb8-fd03-4687-9225-8085184f929c","system_id":"levelo_inurba_marseille","lat":43.32371,"lon":5.36758,"is_reserved":false,"is_disabled":false,"rental_uris":{"android":"levelo://app?vid=0b7bfdb8-fd03-4687-9225-8085184f929c","ios":"levelo://app?vid=0b7bfdb8-fd03-4687-9225-8085184f929c"},"vehicle_type_id":"4","last_reported":1741913323,"current_range_meters":17600,"station_id":"ce4bhsh2rcd13ifvqi2g","pricing_plan_id":"cebpf4jnsgd1na2vs0mg"},{"bike_id":"ac3c2bed-7068-40d3-b993-cf1e4b27bb6a","system_id":"levelo_inurba_marseille","lat":43.28108,"lon":5.378398,"is_reserved":false,"is_disabled":false,"rental_uris":{"android":"levelo://app?vid=ac3c2bed-7068-40d3-b993-cf1e4b27bb6a","ios":"levelo://app?vid=ac3c2bed-7068-40d3-b993-cf1e4b27bb6a"},"vehicle_type_id":"4","last_reported":1741913323,"current_range_meters":17600,"station_id":"ce4bha12rcd13ifvqee0","pricing_plan_id":"cebpf4jnsgd1na2vs0mg"},