{"last_updated":1700773573,"ttl":30,"version":"2.2","data":{"bikes":[{"bike_id":"8ab116d6-8c32-45d0-afdd-b57557824751","system_id":"levelo_inurba_marseille","lat":43.312239,"lon":5.368562,"is_reserved":false,"is_disabled":false,"rental_uris":{"android":"levelo://app?vid=8ab116d6-8c32-45d0-afdd-b57557824751","ios":"levelo://app?vid=8ab116d6-8c32-45d0-afdd-b57557824751"},"vehicle_type_id":"4","last_reported":1700773573,"current_range_meters":14400,"station_id":"ce4bgl92rcd13ifvqbq0","pricing_plan_id":"free"},{"bike_id":"cd51247a-5d7d-4cc4-9936-79d449bcf3f9","system_id":"levelo_inurba_marseille","lat":43.309076,"lon":5.368465,"is_reserved":false,"is_disabled":false,"rental_uris":{"android":"levelo://app?vid=cd51247a-5d7d-4cc4-9936-79d449bcf3f9","ios":"levelo://app?vid=cd51247a-5d7d-4cc4-9936-79d449bcf3f9"},"vehicle_type_id":"4","last_reported":1700773573,"current_range_meters":24800,"station_id":"ce4bgn92rcd13ifvqbvg","pricing_plan_id":"free"},{"bike_id":"d35ae367-22b6-4d21-97ce-321255209f46","system_id":"levelo_inurba_marseille","lat":43.314811,"lon":5.373103,"is_reserved":false,"is_disabled":false,"rental_uris":{"android":"levelo://app?vid=d35ae367-22b6-4d21-97ce-321255209f46","ios":"levelo://app?vid=d35ae367-22b6-4d21-97ce-321255209f46"},"vehicle_type_id":"4","last_reported":1700773573,"current_range_meters":1200,"station_id":"ce4bgt12rcd13ifvqcd0","pricing_plan_id":"free"},{"bike_id":"257d0f4b-d613-49fd-9785-905bf1271aec","system_id":"levelo_inurba_marseille","lat":43.31491,"lon":5.37308,"is_reserved":false,"is_disabled":false,"rental_uris":{"android":"levelo://app?vid=257d0f4b-d613-49fd-9785-905bf1271aec","ios":"levelo://app?vid=257d0f4b-d613-49fd-9785-905bf1271aec"},"vehicle_type_id":"4","last_reported":1700773573,"current_range_meters":28000,"station_id":"ce4bgt12rcd13ifvqcd0","pricing_plan_id":"free"},{"bike_id":"69aef4f0-afae-465d-8980-86bd95bb5632","system_id":"levelo_inurba_marseille","lat":43.309039,"lon":5.371797,"is_reserved":false,"is_disabled":false,"rental_uris":{"android":"levelo://app?vid=69aef4f0-afae-465d-8980-86bd95bb5632","ios":"levelo://app?vid=69aef4f0-afae-465d-8980-86bd95bb5632"},"vehicle_type_id":"4","last_reported":1700773573,"current_range_meters":27200,"station_id":"ce4bguh2rcd13ifvqckg","pricing_plan_id":"free"},{"bike_id":"6e7d3c46-ca1b-4a27-bc2b-c7355a70c9f9","system_id":"levelo_inurba_marseille","lat":43.305706,"lon":5.365654,"is_reserved":false,"is_disabled":false,"rental_uris":{"android":"levelo://app?vid=6e7d3c46-ca1b-4a27-bc2b-c7355a70c9f9","ios":"levelo://app?vid=6e7d3c46-ca1b-4a27-bc2b-c7355a70c9f9"},"vehicle_type_id":"4","last_reported":1700773573,"current_range_meters":26400,"station_id":"ce4bgs12rcd13ifvqcag","pricing_plan_id":"free"},{"bike_id":"8cdae92c-0f4a-47ca-9006-dba69a101a4b","system_id":"levelo_inurba_marseille","lat":43.305989,"lon":5.37225,"is_reserved":false,"is_disabled":false,"rental_uris":{"android":"levelo://app?vid=8cdae92c-0f4a-47ca-9006-dba69a101a4b","ios":"levelo://app?vid=8cdae92c-0f4a-47ca-9006-dba69a101a4b"},"vehicle_type_id":"4","last_reported":1700773573,"current_range_meters":8400,"station_id":"ce4bgqh2rcd13ifvqc4g","pricing_plan_id":"free"},{"bike_id":"c2c5011c-3369-48e0-8936-18047fdddafc","system_id":"levelo_inurba_marseille","lat":43.311125,"lon":5.377624,"is_reserved":false,"is_disabled":false,"rental_uris":{"android":"levelo://app?vid=c2c5011c-3369-48e0-8936-18047fdddafc","ios":"levelo://app?vid=c2c5011c-3369-48e0-8936-18047fdddafc"},"vehicle_type_id":"4","last_reported":1700773573,"current_range_meters":13200,"station_id":"ce4bgt92rcd13ifvqcg0","pricing_plan_id":"free"},{"bike_id":"5a8698b4-3054-4fbf-a065-3b17cf5390b2","system_id":"levelo_inurba_marseille","lat":43.311125,"lon":5.377624,"is_reserved":false,"is_disabled":false,"rental_uris":{"android":"levelo://app?vid=5a8698b4-3054-4fbf-a065-3b17cf5390b2","ios":"levelo://app?vid=5a8698b4-3054-4fbf-a065-3b17cf5390b2"},"vehicle_type_id":"4","last_reported":1700773573,"current_range_meters":11200,"station_id":"ce4bgt92rcd13ifvqcg0","pricing_plan_id":"free"},{"bike_id":"acf2e61c-da7a-4535-afce-6dae5cd5d176","system_id":"levelo_inurba_marseille","lat":43.308188,"lon":5.376453,"is_reserved":false,"is_disabled":false,"rental_uris":{"android":"levelo://app?vid=acf2e61c-da7a-4535-afce-6dae5cd5d176","ios":"levelo://app?vid=acf2e61c-da7a-4535-afce-6dae5cd5d176"},"vehicle_type_id":"4","last_reported":1700773573,"current_range_meters":6000,"station_id":"ce4bgv92rcd13ifvqcq0","pricing_plan_id":"free"},{"bike_id":"67f416e3-b4cf-474b-b706-32237387239e","system_id":"levelo_inurba_marseille","lat":43.307945,"lon":5.376487,"is_reserved":false,"is_disabled":false,"rental_uris":{"android":"levelo://app?vid=67f416e3-b4cf-474b-b706-32237387239e","ios":"levelo://app?vid=67f416e3-b4cf-474b-b706-32237387239e"},"vehicle_type_id":"4","last_reported":1700773573,"current_range_meters":26400,"station_id":"ce4bgv92rcd13ifvqcq0","pricing_plan_id":"free"},{"bike_id":"e7443ddc-7313-4f97-9d8c-ddaa69e6d825","system_id":"levelo_inurba_marseille","lat":43.307945,"lon":5.376487,"is_reserved":false,"is_disabled":false,"rental_uris":{"android":"levelo://app?vid=e7443ddc-7313-4f97-9d8c-ddaa69e6d825","ios":"levelo://app?vid=e7443ddc-7313-4f97-9d8c-ddaa69e6d825"},"vehicle_type_id":"4","last_reported":1700773573,"current_range_meters":5200,"station_id":"ce4bgv92rcd13ifvqcq0","pricing_plan_id":"free"},{"bike_id":"d8b67b59-983c-4f7e-b00e-95d254b0ce7a","system_id":"levelo_inurba_marseille","lat":43.307945,"lon":5.376487,"is_reserved":false,"is_disabled":false,"rental_uris":{"android":"levelo://app?vid=d8b67b59-983c-4f7e-b00e-95d254b0ce7a","ios":"levelo://app?vid=d8b67b59-983c-4f7e-b00e-95d254b0ce7a"},"vehicle_type_id":"4","last_reported":1700773573,"current_range_meters":29600,"station_id":"ce4bgv92rcd13ifvqcq0","pricing_plan_id":"free"},{"bike_id":"6688d18a-76b3-4d1f-a5d7-ff5674d61b67","system_id":"levelo_inurba_marseille","lat":43.303195,"lon":5.366405,"is_reserved":false,"is_disabled":false,"rental_uris":{"android":"levelo://app?vid=6688d18a-76b3-4d1f-a5d7-ff5674d61b67","ios":"levelo://app?vid=6688d18a-76b3-4d1f-a5d7-ff5674d61b67"},"vehicle_type_id":"4","last_reported":1700773573,"current_range_meters":0,"station_id":"","pricing_plan_id":"free"},{"bike_id":"a32773d0-cd3d-4430-a7d6-8f719e0273c7","system_id":"levelo_inurba_marseille","lat":43.315293,"lon":5.380349,"is_reserved":false,"is_disabled":false,"rental_uris":{"android":"levelo://app?vid=a32773d0-cd3d-4430-a7d6-8f719e0273c7","ios":"levelo://app?vid=a32773d0-cd3d-4430-a7d6-8f719e0273c7"},"vehicle_type_id":"4","last_reported":1700773573,"current_range_meters":2000,"station_id":"ce4bhsp2rcd13ifvqi50","pricing_plan_id":"free"},{"bike_id":"bf562041-1284-4883-8696-0a7531ab8af2","system_id":"levelo_inurba_marseille","lat":43.31532,"lon":5.38028,"is_reserved":false,"is_disabled":false,"rental_uris":{"android":"levelo://app?vid=bf562041-1284-4883-8696-0a7531ab8af2","ios":"levelo://app?vid=bf562041-1284-4883-8696-0a7531ab8af2"},"vehicle_type_id":"4","last_reported":1700773573,"current_range_meters":4400,"station_id":"ce4bhsp2rcd13ifvqi50","pricing_plan_id":"free"},{"bike_id":"e8f0168e-982a-4785-97c5-f62995241d3f","system_id":"levelo_inurba_marseille","lat":43.301939,"lon":5.366286,"is_reserved":false,"is_disabled":false,"rental_uris":{"android":"levelo://app?vid=e8f0168e-982a-4785-97c5-f62995241d3f","ios":"levelo://app?vid=e8f0168e-982a-4785-97c5-f62995241d3f"},"vehicle_type_id":"4","last_reported":1700773573,"current_range_meters":24400,"station_id":"ce4bgrh2rcd13ifvqc8g","pricing_plan_id":"free"},{"bike_id":"4a19c8ee-0bc2-4fde-8918-7a92fe9893af","system_id":"levelo_inurba_marseille","lat":43.301939,"lon":5.366286,"is_reserved":false,"is_disabled":false,"rental_uris":{"android":"levelo://app?vid=4a19c8ee-0bc2-4fde-8918-7a92fe9893af","ios":"levelo://app?vid=4a19c8ee-0bc2-4fde-8918-7a92fe9893af"},"vehicle_type_id":"4","last_reported":1700773573,"current_range_meters":27600,"station_id":"ce4bgrh2rcd13ifvqc8g","pricing_plan_id":"free"},{"bike_id":"dfb03d08-efc7-4001-9446-de22e8cc0831","system_id":"levelo_inurba_marseille","lat":43.301939,"lon":5.366286,"is_reserved":false,"is_disabled":false,"rental_uris":{"android":"levelo://app?vid=dfb03d08-efc7-4001-9446-de22e8cc0831","ios":"levelo://app?vid=dfb03d08-efc7-4001-9446-de22e8cc0831"},"vehicle_type_id":"4","last_reported":1700773573,"current_range_meters":14000,"station_id":"ce4bgrh2rcd13ifvqc8g","pricing_plan_id":"free"},{"bike_id":"0327687b-f51e-4077-bf49-2ec73a6de092","system_id":"levelo_inurba_marseille","lat":43.32233,"lon":5.37562,"is_reserved":false,"is_disabled":false,"rental_uris":{"android":"levelo://app?vid=0327687b-f51e-4077-bf49-2ec73a6de092","ios":"levelo://app?vid=0327687b-f51e-4077-bf49-2ec73a6de092"},"vehicle_type_id":"4","last_reported":1700773573,"current_range_meters":10000,"station_id":"","pricing_plan_id":"free"},{"bike_id":"826d0adb-5cdb-4306-b3a7-cd5647f1241c","system_id":"levelo_inurba_marseille","lat":43.308028,"lon":5.381507,"is_reserved":false,"is_disabled":false,"rental_uris":{"android":"levelo://app?vid=826d0adb-5cdb-4306-b3a7-cd5647f1241c","ios":"levelo://app?vid=826d0adb-5cdb-4306-b3a7-cd5647f1241c"},"vehicle_type_id":"4","last_reported":1700773573,"current_range_meters":8800,"station_id":"ce4bgup2rcd13ifvqcn0","pricing_plan_id":"free"},{"bike_id":"f7fad8b5-6a3d-4e4a-8f73-3cc62182fe1c","system_id":"levelo_inurba_marseille","lat":43.305364,"lon":5.384119,"is_reserved":false,"is_disabled":false,"rental_uris":{"android":"levelo://app?vid=f7fad8b5-6a3d-4e4a-8f73-3cc62182fe1c","ios":"levelo://app?vid=f7fad8b5-6a3d-4e4a-8f73-3cc62182fe1c"},"vehicle_type_id":"4","last_reported":1700773573,"current_range_meters":10800,"station_id":"ce4bgg92rcd13ifvqb30","pricing_plan_id":"free"},{"bike_id":"d3172877-f52b-4fdb-a734-20873a0635cb","system_id":"levelo_inurba_marseille","lat":43.311722,"lon":5.387247,"is_reserved":false,"is_disabled":false,"rental_uris":{"android":"levelo://app?vid=d3172877-f52b-4fdb-a734-20873a0635cb","ios":"levelo://app?vid=d3172877-f52b-4fdb-a734-20873a0635cb"},"vehicle_type_id":"4","last_reported":1700773573,"current_range_meters":23600,"station_id":"ce4bgv12rcd13ifvqcp0","pricing_plan_id":"free"},{"bike_id":"015fb704-8034-40a6-a70d-6be176a50f88","system_id":"levelo_inurba_marseille","lat":43.311722,"lon":5.387247,"is_reserved":false,"is_disabled":false,"rental_uris":{"android":"levelo://app?vid=015fb704-8034-40a6-a70d-6be176a50f88","ios":"levelo://app?vid=015fb704-8034-40a6-a70d-6be176a50f88"},"vehicle_type_id":"4","last_reported":1700773573,"current_range_meters":18800,"station_id":"ce4bgv12rcd13ifvqcp0","pricing_plan_id":"free"},{"bike_id":"6c8815d2-e69d-4ea2-93f2-13e13754bf40","system_id":"levelo_inurba_marseille","lat":43.311722,"lon":5.387247,"is_reserved":false,"is_disabled":false,"rental_uris":{"android":"levelo://app?vid=6c8815d2-e69d-4ea2-93f2-13e13754bf40","ios":"levelo://app?vid=6c8815d2-e69d-4ea2-93f2-13e13754bf40"},"vehicle_type_id":"4","last_reported":1700773573,"current_range_meters":12800,"station_id":"ce4bgv12rcd13ifvqcp0","pricing_plan_id":"free"},{"bike_id":"5a877054-2cf2-41cb-b572-968f14afeb92","system_id":"levelo_inurba_marseille","lat":43.322872,"lon":5.382756,"is_reserved":false,"is_disabled":false,"rental_uris":{"android":"levelo://app?vid=5a877054-2cf2-41cb-b572-968f14afeb92","ios":"levelo://app?vid=5a877054-2cf2-41cb-b572-968f14afeb92"},"vehicle_type_id":"4","last_reported":1700773573,"current_range_meters":28400,"station_id":"ce4bhr12rcd13ifvqhqg","pricing_plan_id":"free"},{"bike_id":"e20278c6-b58d-4286-b77b-9f26462eade6","system_id":"levelo_inurba_marseille","lat":43.322872,"lon":5.382756,"is_reserved":false,"is_disabled":false,"rental_uris":{"android":"levelo://app?vid=e20278c6-b58d-4286-b77b-9f26462eade6","ios":"levelo://app?vid=e20278c6-b58d-4286-b77b-9f26462eade6"},"vehicle_type_id":"4","last_reported":1700773573,"current_range_meters":26400,"station_id":"ce4bhr12rcd13ifvqhqg","pricing_plan_id":"free"},{"bike_id":"e2ed0fdf-a86d-4731-8450-034fb1e07017","system_id":"levelo_inurba_marseille","lat":43.322872,"lon":5.382756,"is_reserved":false,"is_disabled":false,"rental_uris":{"android":"levelo://app?vid=e2ed0fdf-a86d-4731-8450-034fb1e07017","ios":"levelo://app?vid=e2ed0fdf-a86d-4731-8450-034fb1e07017"},"vehicle_type_id":"4","last_reported":1700773573,"current_range_meters":7600,"station_id":"ce4bhr12rcd13ifvqhqg","pricing_plan_id":"free"},{"bike_id":"ddd3fff7-fc57-48f9-825f-f47d18d1dbee","system_id":"levelo_inurba_marseille","lat":43.32832,"lon":5.3668,"is_reserved":false,"is_disabled":false,"rental_uris":{"android":"levelo://app?vid=ddd3fff7-fc57-48f9-825f-f47d18d1dbee","ios":"levelo://app?vid=ddd3fff7-fc57-48f9-825f-f47d18d1dbee"},"vehicle_type_id":"4","last_reported":1700773573,"current_range_meters":3200,"station_id":"ce4bhs92rcd13ifvqi0g","pricing_plan_id":"free"},{"bike_id":"4d7509f5-9559-42ca-a60d-bef9e80f0981","system_id":"levelo_inurba_marseille","lat":43.299584,"lon":5.379154,"is_reserved":false,"is_disabled":false,"rental_uris":{"android":"levelo://app?vid=4d7509f5-9559-42ca-a60d-bef9e80f0981","ios":"levelo://app?vid=4d7509f5-9559-42ca-a60d-bef9e80f0981"},"vehicle_type_id":"4","last_reported":1700773573,"current_range_meters":0,"station_id":"","pricing_plan_id":"free"},{"bike_id":"9b08bd7e-5fb3-4e1b-9ddf-51fe2542d627","system_id":"levelo_inurba_marseille","lat":43.295943,"lon":5.367958,"is_reserved":false,"is_disabled":false,"rental_uris":{"android":"levelo://app?vid=9b08bd7e-5fb3-4e1b-9ddf-51fe2542d627","ios":"levelo://app?vid=9b08bd7e-5fb3-4e1b-9ddf-51fe2542d627"},"vehicle_type_id":"4","last_reported":1700773573,"current_range_meters":22800,"station_id":"","pricing_plan_id":"free"},{"bike_id":"bdc25def-4da0-4f2b-9e88-480ca7d0a74a","system_id":"levelo_inurba_marseille","lat":43.32851,"lon":5.375,"is_reserved":false,"is_disabled":false,"rental_uris":{"android":"levelo://app?vid=bdc25def-4da0-4f2b-9e88-480ca7d0a74a","ios":"levelo://app?vid=bdc25def-4da0-4f2b-9e88-480ca7d0a74a"},"vehicle_type_id":"4","last_reported":1700773573,"current_range_meters":26800,"station_id":"","pricing_plan_id":"free"},{"bike_id":"ce134bc8-1078-4a15-b28e-d94d66dd997f","system_id":"levelo_inurba_marseille","lat":43.309589,"lon":5.390258,"is_reserved":false,"is_disabled":false,"rental_uris":{"android":"levelo://app?vid=ce134bc8-1078-4a15-b28e-d94d66dd997f","ios":"levelo://app?vid=ce134bc8-1078-4a15-b28e-d94d66dd997f"},"vehicle_type_id":"4","last_reported":1700773573,"current_range_meters":10400,"station_id":"ce4bgup2rcd13ifvqco0","pricing_plan_id":"free"},{"bike_id":"548f59e9-a4da-4352-836b-473b4567f07e","system_id":"levelo_inurba_marseille","lat":43.309589,"lon":5.390258,"is_reserved":false,"is_disabled":false,"rental_uris":{"android":"levelo://app?vid=548f59e9-a4da-4352-836b-473b4567f07e","ios":"levelo://app?vid=548f59e9-a4da-4352-836b-473b4567f07e"},"vehicle_type_id":"4","last_reported":1700773573,"current_range_meters":1200,"station_id":"ce4bgup2rcd13ifvqco0","pricing_plan_id":"free"},{"bike_id":"a1bdb89d-3c72-4b37-88bf-c040491b8d68","system_id":"levelo_inurba_marseille","lat":43.317557,"lon":5.390173,"is_reserved":false,"is_disabled":false,"rental_uris":{"android":"levelo://app?vid=a1bdb89d-3c72-4b37-88bf-c040491b8d68","ios":"levelo://app?vid=a1bdb89d-3c72-4b37-88bf-c040491b8d68"},"vehicle_type_id":"4","last_reported":1700773573,"current_range_meters":26800,"station_id":"ce4bhqp2rcd13ifvqhng","pricing_plan_id":"free"},{"bike_id":"e870a805-2fbd-40ae-aeb8-108dc772ed5d","system_id":"levelo_inurba_marseille","lat":43.31752,"lon":5.3902,"is_reserved":false,"is_disabled":false,"rental_uris":{"android":"levelo://app?vid=e870a805-2fbd-40ae-aeb8-108dc772ed5d","ios":"levelo://app?vid=e870a805-2fbd-40ae-aeb8-108dc772ed5d"},"vehicle_type_id":"4","last_reported":1700773573,"current_range_meters":2400,"station_id":"ce4bhqp2rcd13ifvqhng","pricing_plan_id":"free"},{"bike_id":"1f6376eb-e4ee-49ba-bf5d-83d5ef5dbeda","system_id":"levelo_inurba_marseille","lat":43.317557,"lon":5.390173,"is_reserved":false,"is_disabled":false,"rental_uris":{"android":"levelo://app?vid=1f6376eb-e4ee-49ba-bf5d-83d5ef5dbeda","ios":"levelo://app?vid=1f6376eb-e4ee-49ba-bf5d-83d5ef5dbeda"},"vehicle_type_id":"4","last_reported":1700773573,"current_range_meters":28400,"station_id":"ce4bhqp2rcd13ifvqhng","pricing_plan_id":"free"},{"bike_id":"5251c705-746e-4e6b-b2cf-cf23c404d07c","system_id":"levelo_inurba_marseille","lat":43.298037,"lon":5.381066,"is_reserved":false,"is_disabled":false,"rental_uris":{"android":"levelo://app?vid=5251c705-746e-4e6b-b2cf-cf23c404d07c","ios":"levelo://app?vid=5251c705-746e-4e6b-b2cf-cf23c404d07c"},"vehicle_type_id":"4","last_reported":1700773573,"current_range_meters":16800,"station_id":"ce4bgip2rcd13ifvqbb0","pricing_plan_id":"free"},{"bike_id":"a50e9fb5-04f8-491f-8c14-9007ca0e845b","system_id":"levelo_inurba_marseille","lat":43.304274,"lon":5.388873,"is_reserved":false,"is_disabled":false,"rental_uris":{"android":"levelo://app?vid=a50e9fb5-04f8-491f-8c14-9007ca0e845b","ios":"levelo://app?vid=a50e9fb5-04f8-491f-8c14-9007ca0e845b"},"vehicle_type_id":"4","last_reported":1700773573,"current_range_meters":400,"station_id":"ce4bgk12rcd13ifvqbi0","pricing_plan_id":"free"},{"bike_id":"65d723b2-1586-47f5-b017-a785540b4a5f","system_id":"levelo_inurba_marseille","lat":43.2962,"lon":5.37732,"is_reserved":false,"is_disabled":false,"rental_uris":{"android":"levelo://app?vid=65d723b2-1586-47f5-b017-a785540b4a5f","ios":"levelo://app?vid=65d723b2-1586-47f5-b017-a785540b4a5f"},"vehicle_type_id":"4","last_reported":1700773573,"current_range_meters":0,"station_id":"ce4bgi92rcd13ifvqb90","pricing_plan_id":"free"},{"bike_id":"3d6ef2d2-0d04-4c8b-a1e0-4e4918c9b3d4","system_id":"levelo_inurba_marseille","lat":43.299707,"lon":5.384859,"is_reserved":false,"is_disabled":false,"rental_uris":{"android":"levelo://app?vid=3d6ef2d2-0d04-4c8b-a1e0-4e4918c9b3d4","ios":"levelo://app?vid=3d6ef2d2-0d04-4c8b-a1e0-4e4918c9b3d4"},"vehicle_type_id":"4","last_reported":1700773573,"current_range_meters":0,"station_id":"ce4bgj92rcd13ifvqbd0","pricing_plan_id":"free"},{"bike_id":"f9319564-fa38-4a76-9fa8-04d78c52fb19","system_id":"levelo_inurba_marseille","lat":43.295279,"lon":5.375048,"is_reserved":false,"is_disabled":false,"rental_uris":{"android":"levelo://app?vid=f9319564-fa38-4a76-9fa8-04d78c52fb19","ios":"levelo://app?vid=f9319564-fa38-4a76-9fa8-04d78c52fb19"},"vehicle_type_id":"4","last_reported":1700773573,"current_range_meters":24400,"station_id":"ce4bgkp2rcd13ifvqbmg","pricing_plan_id":"free"},{"bike_id":"fcbcb9d0-fb7a-41ab-a73f-fc9d980dd214","system_id":"levelo_inurba_marseille","lat":43.33068,"lon":5.37477,"is_reserved":false,"is_disabled":false,"rental_uris":{"android":"levelo://app?vid=fcbcb9d0-fb7a-41ab-a73f-fc9d980dd214","ios":"levelo://app?vid=fcbcb9d0-fb7a-41ab-a73f-fc9d980dd214"},"vehicle_type_id":"4","last_reported":1700773573,"current_range_meters":14800,"station_id":"","pricing_plan_id":"free"},{"bike_id":"6b621983-5e9e-42f7-990d-ad5a093820d2","system_id":"levelo_inurba_marseille","lat":43.293801,"lon":5.363066,"is_reserved":false,"is_disabled":false,"rental_uris":{"android":"levelo://app?vid=6b621983-5e9e-42f7-990d-ad5a093820d2","ios":"levelo://app?vid=6b621983-5e9e-42f7-990d-ad5a093820d2"},"vehicle_type_id":"4","last_reported":1700773573,"current_range_meters":7200,"station_id":"","pricing_plan_id":"free"},{"bike_id":"59398d6a-1eaf-4e92-b0ad-03db71680ea9","system_id":"levelo_inurba_marseille","lat":43.32367,"lon":5.388836,"is_reserved":false,"is_disabled":false,"rental_uris":{"android":"levelo://app?vid=59398d6a-1eaf-4e92-b0ad-03db71680ea9","ios":"levelo://app?vid=59398d6a-1eaf-4e92-b0ad-03db71680ea9"},"vehicle_type_id":"4","last_reported":1700773573,"current_range_meters":4000,"station_id":"ce4bhqp2rcd13ifvqhog","pricing_plan_id":"free"},{"bike_id":"20fdac33-64e2-4df1-8b27-81c3ee3a5c8e","system_id":"levelo_inurba_marseille","lat":43.29601,"lon":5.381084,"is_reserved":false,"is_disabled":false,"rental_uris":{"android":"levelo://app?vid=20fdac33-64e2-4df1-8b27-81c3ee3a5c8e","ios":"levelo://app?vid=20fdac33-64e2-4df1-8b27-81c3ee3a5c8e"},"vehicle_type_id":"4","last_reported":1700773573,"current_range_meters":11600,"station_id":"ce4bgl12rcd13ifvqbo0","pricing_plan_id":"free"},{"bike_id":"ffac6b07-3186-4ee0-8497-d2d2ed930394","system_id":"levelo_inurba_marseille","lat":43.293259,"lon":5.371586,"is_reserved":false,"is_disabled":false,"rental_uris":{"android":"levelo://app?vid=ffac6b07-3186-4ee0-8497-d2d2ed930394","ios":"levelo://app?vid=ffac6b07-3186-4ee0-8497-d2d2ed930394"},"vehicle_type_id":"4","last_reported":1700773573,"current_range_meters":20400,"station_id":"ce4bgh92rcd13ifvqb40","pricing_plan_id":"free"},{"bike_id":"adb16020-48ec-4408-b636-33c4e023a286","system_id":"levelo_inurba_marseille","lat":43.29271,"lon":5.36841,"is_reserved":false,"is_disabled":false,"rental_uris":{"android":"levelo://app?vid=adb16020-48ec-4408-b636-33c4e023a286","ios":"levelo://app?vid=adb16020-48ec-4408-b636-33c4e023a286"},"vehicle_type_id":"4","last_reported":1700773573,"current_range_meters":12800,"station_id":"ce4bhbp2rcd13ifvqesg","pricing_plan_id":"free"},{"bike_id":"5e1c738a-ecac-4d1a-b035-a4b98dd8ff08","system_id":"levelo_inurba_marseille","lat":43.29267,"lon":5.36835,"is_reserved":false,"is_disabled":false,"rental_uris":{"android":"levelo://app?vid=5e1c738a-ecac-4d1a-b035-a4b98dd8ff08","ios":"levelo://app?vid=5e1c738a-ecac-4d1a-b035-a4b98dd8ff08"},"vehicle_type_id":"4","last_reported":1700773573,"current_range_meters":9600,"station_id":"ce4bhbp2rcd13ifvqesg","pricing_plan_id":"free"},{"bike_id":"b664086b-eac2-4b9a-8068-eaed9265637d","system_id":"levelo_inurba_marseille","lat":43.29388,"lon":5.3787,"is_reserved":false,"is_disabled":false,"rental_uris":{"android":"levelo://app?vid=b664086b-eac2-4b9a-8068-eaed9265637d","ios":"levelo://app?vid=b664086b-eac2-4b9a-8068-eaed9265637d"},"vehicle_type_id":"4","last_reported":1700773573,"current_range_meters":4000,"station_id":"ce4bgjh2rcd13ifvqbf0","pricing_plan_id":"free"},{"bike_id":"6ed509a3-2be7-4825-a920-a1a8cc1986cd","system_id":"levelo_inurba_marseille","lat":43.291673,"lon":5.371457,"is_reserved":false,"is_disabled":false,"rental_uris":{"android":"levelo://app?vid=6ed509a3-2be7-4825-a920-a1a8cc1986cd","ios":"levelo://app?vid=6ed509a3-2be7-4825-a920-a1a8cc1986cd"},"vehicle_type_id":"4","last_reported":1700773573,"current_range_meters":0,"station_id":"ce4bha92rcd13ifvqeh0","pricing_plan_id":"free"},{"bike_id":"a584bb82-1fe0-44e8-bc3c-35d1bb75f86a","system_id":"levelo_inurba_marseille","lat":43.298764,"lon":5.388973,"is_reserved":false,"is_disabled":false,"rental_uris":{"android":"levelo://app?vid=a584bb82-1fe0-44e8-bc3c-35d1bb75f86a","ios":"levelo://app?vid=a584bb82-1fe0-44e8-bc3c-35d1bb75f86a"},"vehicle_type_id":"4","last_reported":1700773573,"current_range_meters":5200,"station_id":"ce4bh392rcd13ifvqdl0","pricing_plan_id":"free"},{"bike_id":"2f1bfd2d-9692-47f4-b7ed-6a818948afc3","system_id":"levelo_inurba_marseille","lat":43.291994,"lon":5.357886,"is_reserved":false,"is_disabled":false,"rental_uris":{"android":"levelo://app?vid=2f1bfd2d-9692-47f4-b7ed-6a818948afc3","ios":"levelo://app?vid=2f1bfd2d-9692-47f4-b7ed-6a818948afc3"},"vehicle_type_id":"4","last_reported":1700773573,"current_range_meters":0,"station_id":"ce4bhb12rcd13ifvqel0","pricing_plan_id":"free"},{"bike_id":"1d4213e4-e6eb-4c81-8721-fe22f361d186","system_id":"levelo_inurba_marseille","lat":43.31326,"lon":5.396876,"is_reserved":false,"is_disabled":false,"rental_uris":{"android":"levelo://app?vid=1d4213e4-e6eb-4c81-8721-fe22f361d186","ios":"levelo://app?vid=1d4213e4-e6eb-4c81-8721-fe22f361d186"},"vehicle_type_id":"4","last_reported":1700773573,"current_range_meters":12800,"station_id":"ce4bgvp2rcd13ifvqcu0","pricing_plan_id":"free"},{"bike_id":"26e807fd-59c1-46e5-ab9a-d4bbb6af95d0","system_id":"levelo_inurba_marseille","lat":43.313281,"lon":5.396878,"is_reserved":false,"is_disabled":false,"rental_uris":{"android":"levelo://app?vid=26e807fd-59c1-46e5-ab9a-d4bbb6af95d0","ios":"levelo://app?vid=26e807fd-59c1-46e5-ab9a-d4bbb6af95d0"},"vehicle_type_id":"4","last_reported":1700773573,"current_range_meters":30400,"station_id":"ce4bgvp2rcd13ifvqcu0","pricing_plan_id":"free"},{"bike_id":"d449de61-9601-45a0-b3f8-eda74045c90b","system_id":"levelo_inurba_marseille","lat":43.31329,"lon":5.39693,"is_reserved":false,"is_disabled":false,"rental_uris":{"android":"levelo://app?vid=d449de61-9601-45a0-b3f8-eda74045c90b","ios":"levelo://app?vid=d449de61-9601-45a0-b3f8-eda74045c90b"},"vehicle_type_id":"4","last_reported":1700773573,"current_range_meters":31200,"station_id":"ce4bgvp2rcd13ifvqcu0","pricing_plan_id":"free"},{"bike_id":"bfeda098-ec27-4ff7-ba82-cc314a7b5c10","system_id":"levelo_inurba_marseille","lat":43.31331,"lon":5.39694,"is_reserved":false,"is_disabled":false,"rental_uris":{"android":"levelo://app?vid=bfeda098-ec27-4ff7-ba82-cc314a7b5c10","ios":"levelo://app?vid=bfeda098-ec27-4ff7-ba82-cc314a7b5c10"},"vehicle_type_id":"4","last_reported":1700773573,"current_range_meters":18000,"station_id":"ce4bgvp2rcd13ifvqcu0","pricing_plan_id":"free"},{"bike_id":"65488e66-41ec-4b9a-a8ee-38dbbff7faed","system_id":"levelo_inurba_marseille","lat":43.313291,"lon":5.396838,"is_reserved":false,"is_disabled":false,"rental_uris":{"android":"levelo://app?vid=65488e66-41ec-4b9a-a8ee-38dbbff7faed","ios":"levelo://app?vid=65488e66-41ec-4b9a-a8ee-38dbbff7faed"},"vehicle_type_id":"4","last_reported":1700773573,"current_range_meters":19600,"station_id":"ce4bgvp2rcd13ifvqcu0","pricing_plan_id":"free"},{"bike_id":"9d95c8e2-d208-4cdd-b6ac-de29395ed6e3","system_id":"levelo_inurba_marseille","lat":43.291994,"lon":5.357886,"is_reserved":false,"is_disabled":false,"rental_uris":{"android":"levelo://app?vid=9d95c8e2-d208-4cdd-b6ac-de29395ed6e3","ios":"levelo://app?vid=9d95c8e2-d208-4cdd-b6ac-de29395ed6e3"},"vehicle_type_id":"4","last_reported":1700773573,"current_range_meters":2800,"station_id":"ce4bhb12rcd13ifvqel0","pricing_plan_id":"free"},{"bike_id":"1d10a1b1-d55f-4279-928a-9c6858f32ca9","system_id":"levelo_inurba_marseille","lat":43.33211,"lon":5.38112,"is_reserved":false,"is_disabled":false,"rental_uris":{"android":"levelo://app?vid=1d10a1b1-d55f-4279-928a-9c6858f32ca9","ios":"levelo://app?vid=1d10a1b1-d55f-4279-928a-9c6858f32ca9"},"vehicle_type_id":"4","last_reported":1700773573,"current_range_meters":0,"station_id":"","pricing_plan_id":"free"},{"bike_id":"353cfd9e-5057-4b08-bdfb-e420a95bfb56","system_id":"levelo_inurba_marseille","lat":43.290631,"lon":5.359244,"is_reserved":false,"is_disabled":false,"rental_uris":{"android":"levelo://app?vid=353cfd9e-5057-4b08-bdfb-e420a95bfb56","ios":"levelo://app?vid=353cfd9e-5057-4b08-bdfb-e420a95bfb56"},"vehicle_type_id":"4","last_reported":1700773573,"current_range_meters":29600,"station_id":"ce4bha92rcd13ifvqeg0","pricing_plan_id":"free"},{"bike_id":"ebd274ea-5a8a-4abc-a6bc-ecb3ca0e11ea","system_id":"levelo_inurba_marseille","lat":43.290631,"lon":5.359244,"is_reserved":false,"is_disabled":false,"rental_uris":{"android":"levelo://app?vid=ebd274ea-5a8a-4abc-a6bc-ecb3ca0e11ea","ios":"levelo://app?vid=ebd274ea-5a8a-4abc-a6bc-ecb3ca0e11ea"},"vehicle_type_id":"4","last_reported":1700773573,"current_range_meters":20400,"station_id":"ce4bha92rcd13ifvqeg0","pricing_plan_id":"free"},{"bike_id":"31c1e1c2-82b6-4c90-8694-42a6a6b7d7b6","system_id":"levelo_inurba_marseille","lat":43.290631,"lon":5.359244,"is_reserved":false,"is_disabled":false,"rental_uris":{"android":"levelo://app?vid=31c1e1c2-82b6-4c90-8694-42a6a6b7d7b6","ios":"levelo://app?vid=31c1e1c2-82b6-4c90-8694-42a6a6b7d7b6"},"vehicle_type_id":"4","last_reported":1700773573,"current_range_meters":18400,"station_id":"ce4bha92rcd13ifvqeg0","pricing_plan_id":"free"},{"bike_id":"18bfc9ea-e2dc-43dd-b624-4ef7f1445bab","system_id":"levelo_inurba_marseille","lat":43.29419,"lon":5.3863,"is_reserved":false,"is_disabled":false,"rental_uris":{"android":"levelo://app?vid=18bfc9ea-e2dc-43dd-b624-4ef7f1445bab","ios":"levelo://app?vid=18bfc9ea-e2dc-43dd-b624-4ef7f1445bab"},"vehicle_type_id":"4","last_reported":1700773573,"current_range_meters":0,"station_id":"ce4bh2h2rcd13ifvqdh0","pricing_plan_id":"free"},{"bike_id":"f21a1fbf-fa7d-4a50-b90d-104ef9cb43a3","system_id":"levelo_inurba_marseille","lat":43.289184,"lon":5.366408,"is_reserved":false,"is_disabled":false,"rental_uris":{"android":"levelo://app?vid=f21a1fbf-fa7d-4a50-b90d-104ef9cb43a3","ios":"levelo://app?vid=f21a1fbf-fa7d-4a50-b90d-104ef9cb43a3"},"vehicle_type_id":"4","last_reported":1700773573,"current_range_meters":0,"station_id":"ce4bhap2rcd13ifvqek0","pricing_plan_id":"free"},{"bike_id":"c52fec84-ac80-4310-9828-e5df8ec6c70b","system_id":"levelo_inurba_marseille","lat":43.289468,"lon":5.363719,"is_reserved":false,"is_disabled":false,"rental_uris":{"android":"levelo://app?vid=c52fec84-ac80-4310-9828-e5df8ec6c70b","ios":"levelo://app?vid=c52fec84-ac80-4310-9828-e5df8ec6c70b"},"vehicle_type_id":"4","last_reported":1700773573,"current_range_meters":25600,"station_id":"ce4bhc92rcd13ifvqetg","pricing_plan_id":"free"},{"bike_id":"0ab73b70-f4b9-4d75-be34-d1eab3e5c04f","system_id":"levelo_inurba_marseille","lat":43.292644,"lon":5.384257,"is_reserved":false,"is_disabled":false,"rental_uris":{"android":"levelo://app?vid=0ab73b70-f4b9-4d75-be34-d1eab3e5c04f","ios":"levelo://app?vid=0ab73b70-f4b9-4d75-be34-d1eab3e5c04f"},"vehicle_type_id":"4","last_reported":1700773573,"current_range_meters":6800,"station_id":"ce4bh692rcd13ifvqea0","pricing_plan_id":"free"},{"bike_id":"701670d6-fc97-4b89-9c5e-0bd96ccc65c6","system_id":"levelo_inurba_marseille","lat":43.290103,"lon":5.356114,"is_reserved":false,"is_disabled":false,"rental_uris":{"android":"levelo://app?vid=701670d6-fc97-4b89-9c5e-0bd96ccc65c6","ios":"levelo://app?vid=701670d6-fc97-4b89-9c5e-0bd96ccc65c6"},"vehicle_type_id":"4","last_reported":1700773573,"current_range_meters":0,"station_id":"ce4bhb92rcd13ifvqen0","pricing_plan_id":"free"},{"bike_id":"9affd314-0c44-4942-9735-312093611a47","system_id":"levelo_inurba_marseille","lat":43.290104,"lon":5.356111,"is_reserved":false,"is_disabled":false,"rental_uris":{"android":"levelo://app?vid=9affd314-0c44-4942-9735-312093611a47","ios":"levelo://app?vid=9affd314-0c44-4942-9735-312093611a47"},"vehicle_type_id":"4","last_reported":1700773573,"current_range_meters":21200,"station_id":"ce4bhb92rcd13ifvqen0","pricing_plan_id":"free"},{"bike_id":"e585230a-53f5-4f7d-bf93-fe2d5c446e87","system_id":"levelo_inurba_marseille","lat":43.33044,"lon":5.38918,"is_reserved":false,"is_disabled":false,"rental_uris":{"android":"levelo://app?vid=e585230a-53f5-4f7d-bf93-fe2d5c446e87","ios":"levelo://app?vid=e585230a-53f5-4f7d-bf93-fe2d5c446e87"},"vehicle_type_id":"4","last_reported":1700773573,"current_range_meters":0,"station_id":"ce4bhr92rcd13ifvqhrg","pricing_plan_id":"free"},{"bike_id":"d2468c84-97ba-4285-b0c1-4507b8b0e482","system_id":"levelo_inurba_marseille","lat":43.330442,"lon":5.389148,"is_reserved":false,"is_disabled":false,"rental_uris":{"android":"levelo://app?vid=d2468c84-97ba-4285-b0c1-4507b8b0e482","ios":"levelo://app?vid=d2468c84-97ba-4285-b0c1-4507b8b0e482"},"vehicle_type_id":"4","last_reported":1700773573,"current_range_meters":9600,"station_id":"ce4bhr92rcd13ifvqhrg","pricing_plan_id":"free"},{"bike_id":"4cf94302-1f5f-4c80-86b4-94673dae7d86","system_id":"levelo_inurba_marseille","lat":43.290104,"lon":5.356111,"is_reserved":false,"is_disabled":false,"rental_uris":{"android":"levelo://app?vid=4cf94302-1f5f-4c80-86b4-94673dae7d86","ios":"levelo://app?vid=4cf94302-1f5f-4c80-86b4-94673dae7d86"},"vehicle_type_id":"4","last_reported":1700773573,"current_range_meters":18400,"station_id":"ce4bhb92rcd13ifvqen0","pricing_plan_id":"free"},{"bike_id":"3b1c031d-862f-4fbd-b93a-d423afd0fe90","system_id":"levelo_inurba_marseille","lat":43.29786,"lon":5.39321,"is_reserved":false,"is_disabled":false,"rental_uris":{"android":"levelo://app?vid=3b1c031d-862f-4fbd-b93a-d423afd0fe90","ios":"levelo://app?vid=3b1c031d-862f-4fbd-b93a-d423afd0fe90"},"vehicle_type_id":"4","last_reported":1700773573,"current_range_meters":0,"station_id":"chh1huq6cuj3fo74tm60","pricing_plan_id":"free"},{"bike_id":"48a4499a-9809-4ac8-8605-e3af1058e079","system_id":"levelo_inurba_marseille","lat":43.2978,"lon":5.39333,"is_reserved":false,"is_disabled":false,"rental_uris":{"android":"levelo://app?vid=48a4499a-9809-4ac8-8605-e3af1058e079","ios":"levelo://app?vid=48a4499a-9809-4ac8-8605-e3af1058e079"},"vehicle_type_id":"4","last_reported":1700773573,"current_range_meters":10000,"station_id":"chh1huq6cuj3fo74tm60","pricing_plan_id":"free"},{"bike_id":"abbb8182-1a78-4d70-b671-161ac834f0fc","system_id":"levelo_inurba_marseille","lat":43.33102,"lon":5.38912,"is_reserved":false,"is_disabled":false,"rental_uris":{"android":"levelo://app?vid=abbb8182-1a78-4d70-b671-161ac834f0fc","ios":"levelo://app?vid=abbb8182-1a78-4d70-b671-161ac834f0fc"},"vehicle_type_id":"4","last_reported":1700773573,"current_range_meters":0,"station_id":"","pricing_plan_id":"free"},{"bike_id":"00b9b1e8-ddc2-405d-881c-011379b86739","system_id":"levelo_inurba_marseille","lat":43.289743,"lon":5.378304,"is_reserved":false,"is_disabled":false,"rental_uris":{"android":"levelo://app?vid=00b9b1e8-ddc2-405d-881c-011379b86739","ios":"levelo://app?vid=00b9b1e8-ddc2-405d-881c-011379b86739"},"vehicle_type_id":"4","last_reported":1700773573,"current_range_meters":22400,"station_id":"ce4bh9p2rcd13ifvqed0","pricing_plan_id":"free"},{"bike_id":"0f0dc65d-6eed-4573-9640-adb3f46a4dbe","system_id":"levelo_inurba_marseille","lat":43.289741,"lon":5.378306,"is_reserved":false,"is_disabled":false,"rental_uris":{"android":"levelo://app?vid=0f0dc65d-6eed-4573-9640-adb3f46a4dbe","ios":"levelo://app?vid=0f0dc65d-6eed-4573-9640-adb3f46a4dbe"},"vehicle_type_id":"4","last_reported":1700773573,"current_range_meters":12800,"station_id":"ce4bh9p2rcd13ifvqed0","pricing_plan_id":"free"},{"bike_id":"0a0e3775-4a28-4316-871a-b33519719445","system_id":"levelo_inurba_marseille","lat":43.28856,"lon":5.358371,"is_reserved":false,"is_disabled":false,"rental_uris":{"android":"levelo://app?vid=0a0e3775-4a28-4316-871a-b33519719445","ios":"levelo://app?vid=0a0e3775-4a28-4316-871a-b33519719445"},"vehicle_type_id":"4","last_reported":1700773573,"current_range_meters":2000,"station_id":"ce4bhb12rcd13ifvqem0","pricing_plan_id":"free"},{"bike_id":"d6173ef1-40a2-4b5a-8f60-72e50b67762d","system_id":"levelo_inurba_marseille","lat":43.28856,"lon":5.358371,"is_reserved":false,"is_disabled":false,"rental_uris":{"android":"levelo://app?vid=d6173ef1-40a2-4b5a-8f60-72e50b67762d","ios":"levelo://app?vid=d6173ef1-40a2-4b5a-8f60-72e50b67762d"},"vehicle_type_id":"4","last_reported":1700773573,"current_range_meters":11600,"station_id":"ce4bhb12rcd13ifvqem0","pricing_plan_id":"free"},{"bike_id":"05a66525-a622-4ae0-bcfd-3bdc44028202","system_id":"levelo_inurba_marseille","lat":43.28856,"lon":5.358371,"is_reserved":false,"is_disabled":false,"rental_uris":{"android":"levelo://app?vid=05a66525-a622-4ae0-bcfd-3bdc44028202","ios":"levelo://app?vid=05a66525-a622-4ae0-bcfd-3bdc44028202"},"vehicle_type_id":"4","last_reported":1700773573,"current_range_meters":5200,"station_id":"ce4bhb12rcd13ifvqem0","pricing_plan_id":"free"},{"bike_id":"f4a7a0e0-7c0b-4d35-ad51-b97de628aa4a","system_id":"levelo_inurba_marseille","lat":43.28856,"lon":5.358371,"is_reserved":false,"is_disabled":false,"rental_uris":{"android":"levelo://app?vid=f4a7a0e0-7c0b-4d35-ad51-b97de628aa4a","ios":"levelo://app?vid=f4a7a0e0-7c0b-4d35-ad51-b97de628aa4a"},"vehicle_type_id":"4","last_reported":1700773573,"current_range_meters":20400,"station_id":"ce4bhb12rcd13ifvqem0","pricing_plan_id":"free"},{"bike_id":"f5593e47-2a04-4df6-8f74-6e7fd26c90fb","system_id":"levelo_inurba_marseille","lat":43.28856,"lon":5.358371,"is_reserved":false,"is_disabled":false,"rental_uris":{"android":"levelo://app?vid=f5593e47-2a04-4df6-8f74-6e7fd26c90fb","ios":"levelo://app?vid=f5593e47-2a04-4df6-8f74-6e7fd26c90fb"},"vehicle_type_id":"4","last_reported":1700773573,"current_range_meters":18000,"station_id":"ce4bhb12rcd13ifvqem0","pricing_plan_id":"free"},{"bike_id":"0dc980ec-f42f-40d8-83a2-aa4dd1cf087d","system_id":"levelo_inurba_marseille","lat":43.31269,"lon":5.40165,"is_reserved":false,"is_disabled":false,"rental_uris":{"android":"levelo://app?vid=0dc980ec-f42f-40d8-83a2-aa4dd1cf087d","ios":"levelo://app?vid=0dc980ec-f42f-40d8-83a2-aa4dd1cf087d"},"vehicle_type_id":"4","last_reported":1700773573,"current_range_meters":2800,"station_id":"ce4bh092rcd13ifvqd30","pricing_plan_id":"free"},{"bike_id":"f76cc349-77e9-4547-8818-3350d932e1ad","system_id":"levelo_inurba_marseille","lat":43.312757,"lon":5.401683,"is_reserved":false,"is_disabled":false,"rental_uris":{"android":"levelo://app?vid=f76cc349-77e9-4547-8818-3350d932e1ad","ios":"levelo://app?vid=f76cc349-77e9-4547-8818-3350d932e1ad"},"vehicle_type_id":"4","last_reported":1700773573,"current_range_meters":25600,"station_id":"ce4bh092rcd13ifvqd30","pricing_plan_id":"free"},{"bike_id":"74d7130b-ffd1-43cf-9cdc-8c41faac6054","system_id":"levelo_inurba_marseille","lat":43.30924,"lon":5.40142,"is_reserved":false,"is_disabled":false,"rental_uris":{"android":"levelo://app?vid=74d7130b-ffd1-43cf-9cdc-8c41faac6054","ios":"levelo://app?vid=74d7130b-ffd1-43cf-9cdc-8c41faac6054"},"vehicle_type_id":"4","last_reported":1700773573,"current_range_meters":0,"station_id":"ce4bgvp2rcd13ifvqct0","pricing_plan_id":"free"},{"bike_id":"fcf9ec2b-5e18-4931-b190-65780f466146","system_id":"levelo_inurba_marseille","lat":43.33748,"lon":5.37455,"is_reserved":false,"is_disabled":false,"rental_uris":{"android":"levelo://app?vid=fcf9ec2b-5e18-4931-b190-65780f466146","ios":"levelo://app?vid=fcf9ec2b-5e18-4931-b190-65780f466146"},"vehicle_type_id":"4","last_reported":1700773573,"current_range_meters":28400,"station_id":"","pricing_plan_id":"free"},{"bike_id":"74ca821e-737c-4a7f-8745-b2564dd0cc06","system_id":"levelo_inurba_marseille","lat":43.30921,"lon":5.40144,"is_reserved":false,"is_disabled":false,"rental_uris":{"android":"levelo://app?vid=74ca821e-737c-4a7f-8745-b2564dd0cc06","ios":"levelo://app?vid=74ca821e-737c-4a7f-8745-b2564dd0cc06"},"vehicle_type_id":"4","last_reported":1700773573,"current_range_meters":12400,"station_id":"ce4bgvp2rcd13ifvqct0","pricing_plan_id":"free"},{"bike_id":"524d50fc-a595-49ba-ada8-d050d49d717b","system_id":"levelo_inurba_marseille","lat":43.306412,"lon":5.401035,"is_reserved":false,"is_disabled":false,"rental_uris":{"android":"levelo://app?vid=524d50fc-a595-49ba-ada8-d050d49d717b","ios":"levelo://app?vid=524d50fc-a595-49ba-ada8-d050d49d717b"},"vehicle_type_id":"4","last_reported":1700773573,"current_range_meters":9600,"station_id":"ce4bh112rcd13ifvqda0","pricing_plan_id":"free"},{"bike_id":"06f6eab3-5311-4b17-997a-27d55d425723","system_id":"levelo_inurba_marseille","lat":43.306412,"lon":5.401035,"is_reserved":false,"is_disabled":false,"rental_uris":{"android":"levelo://app?vid=06f6eab3-5311-4b17-997a-27d55d425723","ios":"levelo://app?vid=06f6eab3-5311-4b17-997a-27d55d425723"},"vehicle_type_id":"4","last_reported":1700773573,"current_range_meters":28400,"station_id":"ce4bh112rcd13ifvqda0","pricing_plan_id":"free"},{"bike_id":"a893e8a4-4ad4-4559-9b44-43a3796f5654","system_id":"levelo_inurba_marseille","lat":43.3376,"lon":5.37492,"is_reserved":false,"is_disabled":false,"rental_uris":{"android":"levelo://app?vid=a893e8a4-4ad4-4559-9b44-43a3796f5654","ios":"levelo://app?vid=a893e8a4-4ad4-4559-9b44-43a3796f5654"},"vehicle_type_id":"4","last_reported":1700773573,"current_range_meters":25200,"station_id":"","pricing_plan_id":"free"},{"bike_id":"bad9a012-cf16-41fc-bd66-af08a39e52f2","system_id":"levelo_inurba_marseille","lat":43.30642,"lon":5.401031,"is_reserved":false,"is_disabled":false,"rental_uris":{"android":"levelo://app?vid=bad9a012-cf16-41fc-bd66-af08a39e52f2","ios":"levelo://app?vid=bad9a012-cf16-41fc-bd66-af08a39e52f2"},"vehicle_type_id":"4","last_reported":1700773573,"current_range_meters":7200,"station_id":"ce4bh112rcd13ifvqda0","pricing_plan_id":"free"},{"bike_id":"dc82f46f-fcd2-4e23-8887-97beae56f5f5","system_id":"levelo_inurba_marseille","lat":43.30121,"lon":5.39869,"is_reserved":false,"is_disabled":false,"rental_uris":{"android":"levelo://app?vid=dc82f46f-fcd2-4e23-8887-97beae56f5f5","ios":"levelo://app?vid=dc82f46f-fcd2-4e23-8887-97beae56f5f5"},"vehicle_type_id":"4","last_reported":1700773573,"current_range_meters":1200,"station_id":"ce4bh0h2rcd13ifvqd40","pricing_plan_id":"free"},{"bike_id":"f2bc1aff-0b30-40ca-8773-002eb566e579","system_id":"levelo_inurba_marseille","lat":43.28727,"lon":5.36078,"is_reserved":false,"is_disabled":false,"rental_uris":{"android":"levelo://app?vid=f2bc1aff-0b30-40ca-8773-002eb566e579","ios":"levelo://app?vid=f2bc1aff-0b30-40ca-8773-002eb566e579"},"vehicle_type_id":"4","last_reported":1700773573,"current_range_meters":7600,"station_id":"cki0cbj6b192h4jlfktg","pricing_plan_id":"free"},{"bike_id":"534b8676-616c-4f89-be24-e3f16ca89c06","system_id":"levelo_inurba_marseille","lat":43.28727,"lon":5.36078,"is_reserved":false,"is_disabled":false,"rental_uris":{"android":"levelo://app?vid=534b8676-616c-4f89-be24-e3f16ca89c06","ios":"levelo://app?vid=534b8676-616c-4f89-be24-e3f16ca89c06"},"vehicle_type_id":"4","last_reported":1700773573,"current_range_meters":13200,"station_id":"cki0cbj6b192h4jlfktg","pricing_plan_id":"free"},{"bike_id":"0fdb01a2-ad1b-4de1-8b93-3b031de1e754","system_id":"levelo_inurba_marseille","lat":43.286961,"lon":5.373785,"is_reserved":false,"is_disabled":false,"rental_uris":{"android":"levelo://app?vid=0fdb01a2-ad1b-4de1-8b93-3b031de1e754","ios":"levelo://app?vid=0fdb01a2-ad1b-4de1-8b93-3b031de1e754"},"vehicle_type_id":"4","last_reported":1700773573,"current_range_meters":22000,"station_id":"ce4bh3p2rcd13ifvqdq0","pricing_plan_id":"free"},{"bike_id":"8c68fe79-df8c-464a-b88a-9f9e7304a23e","system_id":"levelo_inurba_marseille","lat":43.286961,"lon":5.373785,"is_reserved":false,"is_disabled":false,"rental_uris":{"android":"levelo://app?vid=8c68fe79-df8c-464a-b88a-9f9e7304a23e","ios":"levelo://app?vid=8c68fe79-df8c-464a-b88a-9f9e7304a23e"},"vehicle_type_id":"4","last_reported":1700773573,"current_range_meters":14400,"station_id":"ce4bh3p2rcd13ifvqdq0","pricing_plan_id":"free"},{"bike_id":"06ece8ea-fa9f-4d70-aeb3-787d9042a7f3","system_id":"levelo_inurba_marseille","lat":43.286593,"lon":5.363346,"is_reserved":false,"is_disabled":false,"rental_uris":{"android":"levelo://app?vid=06ece8ea-fa9f-4d70-aeb3-787d9042a7f3","ios":"levelo://app?vid=06ece8ea-fa9f-4d70-aeb3-787d9042a7f3"},"vehicle_type_id":"4","last_reported":1700773573,"current_range_meters":14800,"station_id":"ce4bhah2rcd13ifvqej0","pricing_plan_id":"free"},{"bike_id":"9ca0ef4a-8f61-4797-b4e7-b1247f622bc9","system_id":"levelo_inurba_marseille","lat":43.286961,"lon":5.373785,"is_reserved":false,"is_disabled":false,"rental_uris":{"android":"levelo://app?vid=9ca0ef4a-8f61-4797-b4e7-b1247f622bc9","ios":"levelo://app?vid=9ca0ef4a-8f61-4797-b4e7-b1247f622bc9"},"vehicle_type_id":"4","last_reported":1700773573,"current_range_meters":0,"station_id":"ce4bh3p2rcd13ifvqdq0","pricing_plan_id":"free"},{"bike_id":"be5b6b9b-7304-4ac0-ae3b-1c1b601e2986","system_id":"levelo_inurba_marseille","lat":43.289257,"lon":5.383916,"is_reserved":false,"is_disabled":false,"rental_uris":{"android":"levelo://app?vid=be5b6b9b-7304-4ac0-ae3b-1c1b601e2986","ios":"levelo://app?vid=be5b6b9b-7304-4ac0-ae3b-1c1b601e2986"},"vehicle_type_id":"4","last_reported":1700773573,"current_range_meters":25200,"station_id":"ce4bh612rcd13ifvqe6g","pricing_plan_id":"free"},{"bike_id":"92b29f4c-8a23-4727-84c5-fc2944f68728","system_id":"levelo_inurba_marseille","lat":43.30207,"lon":5.40033,"is_reserved":false,"is_disabled":false,"rental_uris":{"android":"levelo://app?vid=92b29f4c-8a23-4727-84c5-fc2944f68728","ios":"levelo://app?vid=92b29f4c-8a23-4727-84c5-fc2944f68728"},"vehicle_type_id":"4","last_reported":1700773573,"current_range_meters":15200,"station_id":"","pricing_plan_id":"free"},{"bike_id":"28436080-35aa-45e5-9650-188872e75bec","system_id":"levelo_inurba_marseille","lat":43.289307,"lon":5.38406,"is_reserved":false,"is_disabled":false,"rental_uris":{"android":"levelo://app?vid=28436080-35aa-45e5-9650-188872e75bec","ios":"levelo://app?vid=28436080-35aa-45e5-9650-188872e75bec"},"vehicle_type_id":"4","last_reported":1700773573,"current_range_meters":22400,"station_id":"ce4bh612rcd13ifvqe6g","pricing_plan_id":"free"},{"bike_id":"b367c5e8-2195-4fe3-aa1c-cdefa0646543","system_id":"levelo_inurba_marseille","lat":43.29203,"lon":5.39324,"is_reserved":false,"is_disabled":false,"rental_uris":{"android":"levelo://app?vid=b367c5e8-2195-4fe3-aa1c-cdefa0646543","ios":"levelo://app?vid=b367c5e8-2195-4fe3-aa1c-cdefa0646543"},"vehicle_type_id":"4","last_reported":1700773573,"current_range_meters":3200,"station_id":"ce4bh192rcd13ifvqdd0","pricing_plan_id":"free"},{"bike_id":"65536051-c83d-4e02-b4dd-4f1f369445db","system_id":"levelo_inurba_marseille","lat":43.284538,"lon":5.358657,"is_reserved":false,"is_disabled":false,"rental_uris":{"android":"levelo://app?vid=65536051-c83d-4e02-b4dd-4f1f369445db","ios":"levelo://app?vid=65536051-c83d-4e02-b4dd-4f1f369445db"},"vehicle_type_id":"4","last_reported":1700773573,"current_range_meters":9600,"station_id":"ce4bhah2rcd13ifvqei0","pricing_plan_id":"free"},{"bike_id":"3cd4239f-6e78-4d2b-b8ba-cb112706bc44","system_id":"levelo_inurba_marseille","lat":43.28464,"lon":5.3589,"is_reserved":false,"is_disabled":false,"rental_uris":{"android":"levelo://app?vid=3cd4239f-6e78-4d2b-b8ba-cb112706bc44","ios":"levelo://app?vid=3cd4239f-6e78-4d2b-b8ba-cb112706bc44"},"vehicle_type_id":"4","last_reported":1700773573,"current_range_meters":0,"station_id":"ce4bhah2rcd13ifvqei0","pricing_plan_id":"free"},{"bike_id":"bb23c365-8d4d-456e-b94a-f09375cb591e","system_id":"levelo_inurba_marseille","lat":43.284534,"lon":5.358662,"is_reserved":false,"is_disabled":false,"rental_uris":{"android":"levelo://app?vid=bb23c365-8d4d-456e-b94a-f09375cb591e","ios":"levelo://app?vid=bb23c365-8d4d-456e-b94a-f09375cb591e"},"vehicle_type_id":"4","last_reported":1700773573,"current_range_meters":10000,"station_id":"ce4bhah2rcd13ifvqei0","pricing_plan_id":"free"},{"bike_id":"ae8d1015-fe0e-41af-adec-d8e4e5591b84","system_id":"levelo_inurba_marseille","lat":43.294314,"lon":5.397498,"is_reserved":false,"is_disabled":false,"rental_uris":{"android":"levelo://app?vid=ae8d1015-fe0e-41af-adec-d8e4e5591b84","ios":"levelo://app?vid=ae8d1015-fe0e-41af-adec-d8e4e5591b84"},"vehicle_type_id":"4","last_reported":1700773573,"current_range_meters":16800,"station_id":"ce4bh3h2rcd13ifvqdo0","pricing_plan_id":"free"},{"bike_id":"92f11fe4-e8f2-4969-82f7-775d24eca8e2","system_id":"levelo_inurba_marseille","lat":43.285856,"lon":5.350771,"is_reserved":false,"is_disabled":false,"rental_uris":{"android":"levelo://app?vid=92f11fe4-e8f2-4969-82f7-775d24eca8e2","ios":"levelo://app?vid=92f11fe4-e8f2-4969-82f7-775d24eca8e2"},"vehicle_type_id":"4","last_reported":1700773573,"current_range_meters":3200,"station_id":"ce4bhch2rcd13ifvqeug","pricing_plan_id":"free"},{"bike_id":"594c91a6-c01c-43c6-8984-434e5fac7294","system_id":"levelo_inurba_marseille","lat":43.285856,"lon":5.350771,"is_reserved":false,"is_disabled":false,"rental_uris":{"android":"levelo://app?vid=594c91a6-c01c-43c6-8984-434e5fac7294","ios":"levelo://app?vid=594c91a6-c01c-43c6-8984-434e5fac7294"},"vehicle_type_id":"4","last_reported":1700773573,"current_range_meters":2000,"station_id":"ce4bhch2rcd13ifvqeug","pricing_plan_id":"free"},{"bike_id":"a549040f-0e8b-4901-8ea0-6e66b2cb377f","system_id":"levelo_inurba_marseille","lat":43.285856,"lon":5.350771,"is_reserved":false,"is_disabled":false,"rental_uris":{"android":"levelo://app?vid=a549040f-0e8b-4901-8ea0-6e66b2cb377f","ios":"levelo://app?vid=a549040f-0e8b-4901-8ea0-6e66b2cb377f"},"vehicle_type_id":"4","last_reported":1700773573,"current_range_meters":21600,"station_id":"ce4bhch2rcd13ifvqeug","pricing_plan_id":"free"},{"bike_id":"fe77c5a5-d089-4e74-b016-4ede21608de4","system_id":"levelo_inurba_marseille","lat":43.285856,"lon":5.350771,"is_reserved":false,"is_disabled":false,"rental_uris":{"android":"levelo://app?vid=fe77c5a5-d089-4e74-b016-4ede21608de4","ios":"levelo://app?vid=fe77c5a5-d089-4e74-b016-4ede21608de4"},"vehicle_type_id":"4","last_reported":1700773573,"current_range_meters":14400,"station_id":"ce4bhch2rcd13ifvqeug","pricing_plan_id":"free"},{"bike_id":"adbd441f-44c4-4168-877a-9278b4bd7ceb","system_id":"levelo_inurba_marseille","lat":43.331625,"lon":5.397705,"is_reserved":false,"is_disabled":false,"rental_uris":{"android":"levelo://app?vid=adbd441f-44c4-4168-877a-9278b4bd7ceb","ios":"levelo://app?vid=adbd441f-44c4-4168-877a-9278b4bd7ceb"},"vehicle_type_id":"4","last_reported":1700773573,"current_range_meters":16400,"station_id":"","pricing_plan_id":"free"},{"bike_id":"34229c22-6060-49b5-82ec-c616f1f6c96f","system_id":"levelo_inurba_marseille","lat":43.283147,"lon":5.363042,"is_reserved":false,"is_disabled":false,"rental_uris":{"android":"levelo://app?vid=34229c22-6060-49b5-82ec-c616f1f6c96f","ios":"levelo://app?vid=34229c22-6060-49b5-82ec-c616f1f6c96f"},"vehicle_type_id":"4","last_reported":1700773573,"current_range_meters":18800,"station_id":"","pricing_plan_id":"free"},{"bike_id":"a1e20dbe-3bf7-4e62-96be-f1fd33007f50","system_id":"levelo_inurba_marseille","lat":43.319179,"lon":5.407725,"is_reserved":false,"is_disabled":false,"rental_uris":{"android":"levelo://app?vid=a1e20dbe-3bf7-4e62-96be-f1fd33007f50","ios":"levelo://app?vid=a1e20dbe-3bf7-4e62-96be-f1fd33007f50"},"vehicle_type_id":"4","last_reported":1700773573,"current_range_meters":21600,"station_id":"ce4bhq12rcd13ifvqhig","pricing_plan_id":"free"},{"bike_id":"e7b16bb0-8dc4-447b-a16c-c403ed56db28","system_id":"levelo_inurba_marseille","lat":43.337168,"lon":5.391825,"is_reserved":false,"is_disabled":false,"rental_uris":{"android":"levelo://app?vid=e7b16bb0-8dc4-447b-a16c-c403ed56db28","ios":"levelo://app?vid=e7b16bb0-8dc4-447b-a16c-c403ed56db28"},"vehicle_type_id":"4","last_reported":1700773573,"current_range_meters":24800,"station_id":"ce4bhr92rcd13ifvqhsg","pricing_plan_id":"free"},{"bike_id":"5e4a9847-b43e-4573-ba96-8a7585faa130","system_id":"levelo_inurba_marseille","lat":43.323464,"lon":5.406297,"is_reserved":false,"is_disabled":false,"rental_uris":{"android":"levelo://app?vid=5e4a9847-b43e-4573-ba96-8a7585faa130","ios":"levelo://app?vid=5e4a9847-b43e-4573-ba96-8a7585faa130"},"vehicle_type_id":"4","last_reported":1700773573,"current_range_meters":27200,"station_id":"ce4bhq92rcd13ifvqhjg","pricing_plan_id":"free"},{"bike_id":"d9785b0c-0523-4b8b-9f28-f29210b1a5eb","system_id":"levelo_inurba_marseille","lat":43.323464,"lon":5.406297,"is_reserved":false,"is_disabled":false,"rental_uris":{"android":"levelo://app?vid=d9785b0c-0523-4b8b-9f28-f29210b1a5eb","ios":"levelo://app?vid=d9785b0c-0523-4b8b-9f28-f29210b1a5eb"},"vehicle_type_id":"4","last_reported":1700773573,"current_range_meters":29200,"station_id":"ce4bhq92rcd13ifvqhjg","pricing_plan_id":"free"},{"bike_id":"e5b0bfb0-2b79-481f-bea6-c48f741f69c9","system_id":"levelo_inurba_marseille","lat":43.29795,"lon":5.404086,"is_reserved":false,"is_disabled":false,"rental_uris":{"android":"levelo://app?vid=e5b0bfb0-2b79-481f-bea6-c48f741f69c9","ios":"levelo://app?vid=e5b0bfb0-2b79-481f-bea6-c48f741f69c9"},"vehicle_type_id":"4","last_reported":1700773573,"current_range_meters":0,"station_id":"ce4bh112rcd13ifvqd90","pricing_plan_id":"free"},{"bike_id":"0e09251f-c0d7-4021-bbba-547c22c32239","system_id":"levelo_inurba_marseille","lat":43.288501,"lon":5.393087,"is_reserved":false,"is_disabled":false,"rental_uris":{"android":"levelo://app?vid=0e09251f-c0d7-4021-bbba-547c22c32239","ios":"levelo://app?vid=0e09251f-c0d7-4021-bbba-547c22c32239"},"vehicle_type_id":"4","last_reported":1700773573,"current_range_meters":400,"station_id":"ce4bh2p2rcd13ifvqdi0","pricing_plan_id":"free"},{"bike_id":"754229ae-09f9-4172-998a-39276cfbf01b","system_id":"levelo_inurba_marseille","lat":43.283498,"lon":5.380948,"is_reserved":false,"is_disabled":false,"rental_uris":{"android":"levelo://app?vid=754229ae-09f9-4172-998a-39276cfbf01b","ios":"levelo://app?vid=754229ae-09f9-4172-998a-39276cfbf01b"},"vehicle_type_id":"4","last_reported":1700773573,"current_range_meters":22800,"station_id":"ce4bh412rcd13ifvqdr0","pricing_plan_id":"free"},{"bike_id":"b4bc6c19-20e6-4b1e-b989-40d4ba171e93","system_id":"levelo_inurba_marseille","lat":43.334937,"lon":5.397607,"is_reserved":false,"is_disabled":false,"rental_uris":{"android":"levelo://app?vid=b4bc6c19-20e6-4b1e-b989-40d4ba171e93","ios":"levelo://app?vid=b4bc6c19-20e6-4b1e-b989-40d4ba171e93"},"vehicle_type_id":"4","last_reported":1700773573,"current_range_meters":6800,"station_id":"","pricing_plan_id":"free"},{"bike_id":"e2284003-4e46-4e0a-93e7-73d05c3666d9","system_id":"levelo_inurba_marseille","lat":43.33479,"lon":5.39788,"is_reserved":false,"is_disabled":false,"rental_uris":{"android":"levelo://app?vid=e2284003-4e46-4e0a-93e7-73d05c3666d9","ios":"levelo://app?vid=e2284003-4e46-4e0a-93e7-73d05c3666d9"},"vehicle_type_id":"4","last_reported":1700773573,"current_range_meters":25600,"station_id":"","pricing_plan_id":"free"},{"bike_id":"5bd64c01-7024-4992-89f7-444df0fb7af5","system_id":"levelo_inurba_marseille","lat":43.282754,"lon":5.350519,"is_reserved":false,"is_disabled":false,"rental_uris":{"android":"levelo://app?vid=5bd64c01-7024-4992-89f7-444df0fb7af5","ios":"levelo://app?vid=5bd64c01-7024-4992-89f7-444df0fb7af5"},"vehicle_type_id":"4","last_reported":1700773573,"current_range_meters":18800,"station_id":"ce4bhbp2rcd13ifvqerg","pricing_plan_id":"free"},{"bike_id":"20f5d6c2-8e8d-4ab2-91eb-d6d4f0485cbe","system_id":"levelo_inurba_marseille","lat":43.282744,"lon":5.350533,"is_reserved":false,"is_disabled":false,"rental_uris":{"android":"levelo://app?vid=20f5d6c2-8e8d-4ab2-91eb-d6d4f0485cbe","ios":"levelo://app?vid=20f5d6c2-8e8d-4ab2-91eb-d6d4f0485cbe"},"vehicle_type_id":"4","last_reported":1700773573,"current_range_meters":16400,"station_id":"ce4bhbp2rcd13ifvqerg","pricing_plan_id":"free"},{"bike_id":"d3563ad8-da2c-464a-83a9-df1757509cf7","system_id":"levelo_inurba_marseille","lat":43.280382,"lon":5.369291,"is_reserved":false,"is_disabled":false,"rental_uris":{"android":"levelo://app?vid=d3563ad8-da2c-464a-83a9-df1757509cf7","ios":"levelo://app?vid=d3563ad8-da2c-464a-83a9-df1757509cf7"},"vehicle_type_id":"4","last_reported":1700773573,"current_range_meters":22400,"station_id":"ce4bha12rcd13ifvqef0","pricing_plan_id":"free"},{"bike_id":"857c10bc-5c00-4848-aed1-ce3268427462","system_id":"levelo_inurba_marseille","lat":43.28039,"lon":5.369297,"is_reserved":false,"is_disabled":false,"rental_uris":{"android":"levelo://app?vid=857c10bc-5c00-4848-aed1-ce3268427462","ios":"levelo://app?vid=857c10bc-5c00-4848-aed1-ce3268427462"},"vehicle_type_id":"4","last_reported":1700773573,"current_range_meters":28000,"station_id":"ce4bha12rcd13ifvqef0","pricing_plan_id":"free"},{"bike_id":"9ff350e0-938d-4ef8-81e3-2e41785c57d3","system_id":"levelo_inurba_marseille","lat":43.281044,"lon":5.378308,"is_reserved":false,"is_disabled":false,"rental_uris":{"android":"levelo://app?vid=9ff350e0-938d-4ef8-81e3-2e41785c57d3","ios":"levelo://app?vid=9ff350e0-938d-4ef8-81e3-2e41785c57d3"},"vehicle_type_id":"4","last_reported":1700773573,"current_range_meters":28400,"station_id":"ce4bha12rcd13ifvqee0","pricing_plan_id":"free"},{"bike_id":"1eb5853b-50db-4103-b4d9-fdc88619ddf4","system_id":"levelo_inurba_marseille","lat":43.281044,"lon":5.378308,"is_reserved":false,"is_disabled":false,"rental_uris":{"android":"levelo://app?vid=1eb5853b-50db-4103-b4d9-fdc88619ddf4","ios":"levelo://app?vid=1eb5853b-50db-4103-b4d9-fdc88619ddf4"},"vehicle_type_id":"4","last_reported":1700773573,"current_range_meters":30400,"station_id":"ce4bha12rcd13ifvqee0","pricing_plan_id":"free"},{"bike_id":"54c767a6-b15d-42ef-a9d2-184a15ec96d5","system_id":"levelo_inurba_marseille","lat":43.284462,"lon":5.392121,"is_reserved":false,"is_disabled":false,"rental_uris":{"android":"levelo://app?vid=54c767a6-b15d-42ef-a9d2-184a15ec96d5","ios":"levelo://app?vid=54c767a6-b15d-42ef-a9d2-184a15ec96d5"},"vehicle_type_id":"4","last_reported":1700773573,"current_range_meters":16000,"station_id":"ce4bhoh2rcd13ifvqh5g","pricing_plan_id":"free"},{"bike_id":"3bbc4b39-2387-4d93-9cbd-d579cd388b43","system_id":"levelo_inurba_marseille","lat":43.287154,"lon":5.399979,"is_reserved":false,"is_disabled":false,"rental_uris":{"android":"levelo://app?vid=3bbc4b39-2387-4d93-9cbd-d579cd388b43","ios":"levelo://app?vid=3bbc4b39-2387-4d93-9cbd-d579cd388b43"},"vehicle_type_id":"4","last_reported":1700773573,"current_range_meters":7200,"station_id":"ce4bho92rcd13ifvqh3g","pricing_plan_id":"free"},{"bike_id":"4d2c4986-a797-4c4a-b1ef-86d4126b90fd","system_id":"levelo_inurba_marseille","lat":43.285742,"lon":5.395004,"is_reserved":false,"is_disabled":false,"rental_uris":{"android":"levelo://app?vid=4d2c4986-a797-4c4a-b1ef-86d4126b90fd","ios":"levelo://app?vid=4d2c4986-a797-4c4a-b1ef-86d4126b90fd"},"vehicle_type_id":"4","last_reported":1700773573,"current_range_meters":12800,"station_id":"ce4bh292rcd13ifvqdg0","pricing_plan_id":"free"},{"bike_id":"db563756-c108-4bef-a217-b096ebb2383a","system_id":"levelo_inurba_marseille","lat":43.285742,"lon":5.395004,"is_reserved":false,"is_disabled":false,"rental_uris":{"android":"levelo://app?vid=db563756-c108-4bef-a217-b096ebb2383a","ios":"levelo://app?vid=db563756-c108-4bef-a217-b096ebb2383a"},"vehicle_type_id":"4","last_reported":1700773573,"current_range_meters":12400,"station_id":"ce4bh292rcd13ifvqdg0","pricing_plan_id":"free"},{"bike_id":"4989a061-819e-4989-812f-08946c6f6655","system_id":"levelo_inurba_marseille","lat":43.279087,"lon":5.380114,"is_reserved":false,"is_disabled":false,"rental_uris":{"android":"levelo://app?vid=4989a061-819e-4989-812f-08946c6f6655","ios":"levelo://app?vid=4989a061-819e-4989-812f-08946c6f6655"},"vehicle_type_id":"4","last_reported":1700773573,"current_range_meters":3600,"station_id":"ce4bhf92rcd13ifvqf50","pricing_plan_id":"free"},{"bike_id":"01c93ddb-da14-4fef-a292-7a08f650026c","system_id":"levelo_inurba_marseille","lat":43.287076,"lon":5.399888,"is_reserved":false,"is_disabled":false,"rental_uris":{"android":"levelo://app?vid=01c93ddb-da14-4fef-a292-7a08f650026c","ios":"levelo://app?vid=01c93ddb-da14-4fef-a292-7a08f650026c"},"vehicle_type_id":"4","last_reported":1700773573,"current_range_meters":0,"station_id":"ce4bho92rcd13ifvqh3g","pricing_plan_id":"free"},{"bike_id":"6e2c2465-4e40-4aae-912b-ca1fbcdf1978","system_id":"levelo_inurba_marseille","lat":43.327025,"lon":5.412368,"is_reserved":false,"is_disabled":false,"rental_uris":{"android":"levelo://app?vid=6e2c2465-4e40-4aae-912b-ca1fbcdf1978","ios":"levelo://app?vid=6e2c2465-4e40-4aae-912b-ca1fbcdf1978"},"vehicle_type_id":"4","last_reported":1700773573,"current_range_meters":0,"station_id":"","pricing_plan_id":"free"},{"bike_id":"8b80e9b8-fc48-4f01-a790-2afc2f3f0bd5","system_id":"levelo_inurba_marseille","lat":43.279742,"lon":5.38744,"is_reserved":false,"is_disabled":false,"rental_uris":{"android":"levelo://app?vid=8b80e9b8-fc48-4f01-a790-2afc2f3f0bd5","ios":"levelo://app?vid=8b80e9b8-fc48-4f01-a790-2afc2f3f0bd5"},"vehicle_type_id":"4","last_reported":1700773573,"current_range_meters":0,"station_id":"ce4bhg12rcd13ifvqf80","pricing_plan_id":"free"},{"bike_id":"a8e2b52b-9ba9-4b70-bcb4-1e1ad46ab6fe","system_id":"levelo_inurba_marseille","lat":43.29939,"lon":5.41321,"is_reserved":false,"is_disabled":false,"rental_uris":{"android":"levelo://app?vid=a8e2b52b-9ba9-4b70-bcb4-1e1ad46ab6fe","ios":"levelo://app?vid=a8e2b52b-9ba9-4b70-bcb4-1e1ad46ab6fe"},"vehicle_type_id":"4","last_reported":1700773573,"current_range_meters":30000,"station_id":"ce4bhp12rcd13ifvqh9g","pricing_plan_id":"free"},{"bike_id":"7011775b-c0e4-46dc-8231-7485425aba5f","system_id":"levelo_inurba_marseille","lat":43.29938,"lon":5.41321,"is_reserved":false,"is_disabled":false,"rental_uris":{"android":"levelo://app?vid=7011775b-c0e4-46dc-8231-7485425aba5f","ios":"levelo://app?vid=7011775b-c0e4-46dc-8231-7485425aba5f"},"vehicle_type_id":"4","last_reported":1700773573,"current_range_meters":26000,"station_id":"ce4bhp12rcd13ifvqh9g","pricing_plan_id":"free"},{"bike_id":"cf7c6503-d761-4e4a-b826-f55f74848caf","system_id":"levelo_inurba_marseille","lat":43.34882,"lon":5.37507,"is_reserved":false,"is_disabled":false,"rental_uris":{"android":"levelo://app?vid=cf7c6503-d761-4e4a-b826-f55f74848caf","ios":"levelo://app?vid=cf7c6503-d761-4e4a-b826-f55f74848caf"},"vehicle_type_id":"4","last_reported":1700773573,"current_range_meters":0,"station_id":"","pricing_plan_id":"free"},{"bike_id":"0b0295f3-f968-429c-a4e4-d203dcd6aecf","system_id":"levelo_inurba_marseille","lat":43.292569,"lon":5.409107,"is_reserved":false,"is_disabled":false,"rental_uris":{"android":"levelo://app?vid=0b0295f3-f968-429c-a4e4-d203dcd6aecf","ios":"levelo://app?vid=0b0295f3-f968-429c-a4e4-d203dcd6aecf"},"vehicle_type_id":"4","last_reported":1700773573,"current_range_meters":15600,"station_id":"ce4bh192rcd13ifvqdc0","pricing_plan_id":"free"},{"bike_id":"ae9ebd41-ca9a-4f54-b255-893c01b1ebe3","system_id":"levelo_inurba_marseille","lat":43.2762,"lon":5.361158,"is_reserved":false,"is_disabled":false,"rental_uris":{"android":"levelo://app?vid=ae9ebd41-ca9a-4f54-b255-893c01b1ebe3","ios":"levelo://app?vid=ae9ebd41-ca9a-4f54-b255-893c01b1ebe3"},"vehicle_type_id":"4","last_reported":1700773573,"current_range_meters":4000,"station_id":"ce4bgj92rcd13ifvqbe0","pricing_plan_id":"free"},{"bike_id":"8d3d6993-7247-41aa-885d-0eff357d4684","system_id":"levelo_inurba_marseille","lat":43.290104,"lon":5.356111,"is_reserved":false,"is_disabled":false,"rental_uris":{"android":"levelo://app?vid=8d3d6993-7247-41aa-885d-0eff357d4684","ios":"levelo://app?vid=8d3d6993-7247-41aa-885d-0eff357d4684"},"vehicle_type_id":"4","last_reported":1700773573,"current_range_meters":3600,"station_id":"ce4bhb92rcd13ifvqen0","pricing_plan_id":"free"},{"bike_id":"f9dcd82d-9654-4207-99fc-cadb91d84619","system_id":"levelo_inurba_marseille","lat":43.280784,"lon":5.396622,"is_reserved":false,"is_disabled":false,"rental_uris":{"android":"levelo://app?vid=f9dcd82d-9654-4207-99fc-cadb91d84619","ios":"levelo://app?vid=f9dcd82d-9654-4207-99fc-cadb91d84619"},"vehicle_type_id":"4","last_reported":1700773573,"current_range_meters":26000,"station_id":"ce4bho12rcd13ifvqh2g","pricing_plan_id":"free"},{"bike_id":"c9ac1d65-d48a-4b09-8e61-9d447f56f520","system_id":"levelo_inurba_marseille","lat":43.278399,"lon":5.392139,"is_reserved":false,"is_disabled":false,"rental_uris":{"android":"levelo://app?vid=c9ac1d65-d48a-4b09-8e61-9d447f56f520","ios":"levelo://app?vid=c9ac1d65-d48a-4b09-8e61-9d447f56f520"},"vehicle_type_id":"4","last_reported":1700773573,"current_range_meters":29600,"station_id":"ce4bhjp2rcd13ifvqga0","pricing_plan_id":"free"},{"bike_id":"5697d84d-df09-4180-9951-ae729757a0c8","system_id":"levelo_inurba_marseille","lat":43.336148,"lon":5.410349,"is_reserved":false,"is_disabled":false,"rental_uris":{"android":"levelo://app?vid=5697d84d-df09-4180-9951-ae729757a0c8","ios":"levelo://app?vid=5697d84d-df09-4180-9951-ae729757a0c8"},"vehicle_type_id":"4","last_reported":1700773573,"current_range_meters":25600,"station_id":"ce4bhqh2rcd13ifvqhmg","pricing_plan_id":"free"},{"bike_id":"a07c2d75-3c21-42ab-b08a-c12647aeebf7","system_id":"levelo_inurba_marseille","lat":43.317121,"lon":5.423936,"is_reserved":false,"is_disabled":false,"rental_uris":{"android":"levelo://app?vid=a07c2d75-3c21-42ab-b08a-c12647aeebf7","ios":"levelo://app?vid=a07c2d75-3c21-42ab-b08a-c12647aeebf7"},"vehicle_type_id":"4","last_reported":1700773573,"current_range_meters":29600,"station_id":"ce4bhp92rcd13ifvqhbg","pricing_plan_id":"free"},{"bike_id":"0b677ab6-a93b-4e0b-a612-efec26874138","system_id":"levelo_inurba_marseille","lat":43.317121,"lon":5.423936,"is_reserved":false,"is_disabled":false,"rental_uris":{"android":"levelo://app?vid=0b677ab6-a93b-4e0b-a612-efec26874138","ios":"levelo://app?vid=0b677ab6-a93b-4e0b-a612-efec26874138"},"vehicle_type_id":"4","last_reported":1700773573,"current_range_meters":24400,"station_id":"ce4bhp92rcd13ifvqhbg","pricing_plan_id":"free"},{"bike_id":"ee3353de-ad16-41b2-900b-c0d5b5e68caf","system_id":"levelo_inurba_marseille","lat":43.340804,"lon":5.410219,"is_reserved":false,"is_disabled":false,"rental_uris":{"android":"levelo://app?vid=ee3353de-ad16-41b2-900b-c0d5b5e68caf","ios":"levelo://app?vid=ee3353de-ad16-41b2-900b-c0d5b5e68caf"},"vehicle_type_id":"4","last_reported":1700773573,"current_range_meters":21200,"station_id":"ce4bhqh2rcd13ifvqhlg","pricing_plan_id":"free"},{"bike_id":"f6d19d1b-693b-4963-ba5a-4b930cec88fd","system_id":"levelo_inurba_marseille","lat":43.340804,"lon":5.410219,"is_reserved":false,"is_disabled":false,"rental_uris":{"android":"levelo://app?vid=f6d19d1b-693b-4963-ba5a-4b930cec88fd","ios":"levelo://app?vid=f6d19d1b-693b-4963-ba5a-4b930cec88fd"},"vehicle_type_id":"4","last_reported":1700773573,"current_range_meters":15200,"station_id":"ce4bhqh2rcd13ifvqhlg","pricing_plan_id":"free"},{"bike_id":"2c30d101-0787-42d6-a558-e6ebb182e3a9","system_id":"levelo_inurba_marseille","lat":43.274237,"lon":5.394109,"is_reserved":false,"is_disabled":false,"rental_uris":{"android":"levelo://app?vid=2c30d101-0787-42d6-a558-e6ebb182e3a9","ios":"levelo://app?vid=2c30d101-0787-42d6-a558-e6ebb182e3a9"},"vehicle_type_id":"4","last_reported":1700773573,"current_range_meters":0,"station_id":"ce4bhdp2rcd13ifvqf20","pricing_plan_id":"free"},{"bike_id":"c8f1f57d-9903-4f6b-8165-2772da2d446a","system_id":"levelo_inurba_marseille","lat":43.295511,"lon":5.422926,"is_reserved":false,"is_disabled":false,"rental_uris":{"android":"levelo://app?vid=c8f1f57d-9903-4f6b-8165-2772da2d446a","ios":"levelo://app?vid=c8f1f57d-9903-4f6b-8165-2772da2d446a"},"vehicle_type_id":"4","last_reported":1700773573,"current_range_meters":31200,"station_id":"ce4bhph2rcd13ifvqhdg","pricing_plan_id":"free"},{"bike_id":"25930601-41dc-466b-979a-4b5644836b1a","system_id":"levelo_inurba_marseille","lat":43.295523,"lon":5.422926,"is_reserved":false,"is_disabled":false,"rental_uris":{"android":"levelo://app?vid=25930601-41dc-466b-979a-4b5644836b1a","ios":"levelo://app?vid=25930601-41dc-466b-979a-4b5644836b1a"},"vehicle_type_id":"4","last_reported":1700773573,"current_range_meters":16000,"station_id":"ce4bhph2rcd13ifvqhdg","pricing_plan_id":"free"},{"bike_id":"78aac826-21e6-46b0-a2ae-fa22f2e35528","system_id":"levelo_inurba_marseille","lat":43.272206,"lon":5.391603,"is_reserved":false,"is_disabled":false,"rental_uris":{"android":"levelo://app?vid=78aac826-21e6-46b0-a2ae-fa22f2e35528","ios":"levelo://app?vid=78aac826-21e6-46b0-a2ae-fa22f2e35528"},"vehicle_type_id":"4","last_reported":1700773573,"current_range_meters":14800,"station_id":"ce4bhhp2rcd13ifvqfm0","pricing_plan_id":"free"},{"bike_id":"48c1fbfb-e6c4-4c56-a75c-55416f8bb4c3","system_id":"levelo_inurba_marseille","lat":43.27184,"lon":5.392952,"is_reserved":false,"is_disabled":false,"rental_uris":{"android":"levelo://app?vid=48c1fbfb-e6c4-4c56-a75c-55416f8bb4c3","ios":"levelo://app?vid=48c1fbfb-e6c4-4c56-a75c-55416f8bb4c3"},"vehicle_type_id":"4","last_reported":1700773573,"current_range_meters":24400,"station_id":"","pricing_plan_id":"free"},{"bike_id":"cab299ee-8056-4764-bb16-5dda3c13750d","system_id":"levelo_inurba_marseille","lat":43.278128,"lon":5.407195,"is_reserved":false,"is_disabled":false,"rental_uris":{"android":"levelo://app?vid=cab299ee-8056-4764-bb16-5dda3c13750d","ios":"levelo://app?vid=cab299ee-8056-4764-bb16-5dda3c13750d"},"vehicle_type_id":"4","last_reported":1700773573,"current_range_meters":28800,"station_id":"ce4bhnh2rcd13ifvqgtg","pricing_plan_id":"free"},{"bike_id":"1d7cfdca-6436-4165-9cdd-a2a5fccd2aa6","system_id":"levelo_inurba_marseille","lat":43.27946,"lon":5.41048,"is_reserved":false,"is_disabled":false,"rental_uris":{"android":"levelo://app?vid=1d7cfdca-6436-4165-9cdd-a2a5fccd2aa6","ios":"levelo://app?vid=1d7cfdca-6436-4165-9cdd-a2a5fccd2aa6"},"vehicle_type_id":"4","last_reported":1700773573,"current_range_meters":4400,"station_id":"ce4bhnp2rcd13ifvqh0g","pricing_plan_id":"free"},{"bike_id":"9e8d294d-24b3-41bc-8cab-61fd58675f94","system_id":"levelo_inurba_marseille","lat":43.2794,"lon":5.41047,"is_reserved":false,"is_disabled":false,"rental_uris":{"android":"levelo://app?vid=9e8d294d-24b3-41bc-8cab-61fd58675f94","ios":"levelo://app?vid=9e8d294d-24b3-41bc-8cab-61fd58675f94"},"vehicle_type_id":"4","last_reported":1700773573,"current_range_meters":0,"station_id":"ce4bhnp2rcd13ifvqh0g","pricing_plan_id":"free"},{"bike_id":"c529b527-42fd-46ba-9ba6-a6ed4671a6f8","system_id":"levelo_inurba_marseille","lat":43.26683,"lon":5.38263,"is_reserved":false,"is_disabled":false,"rental_uris":{"android":"levelo://app?vid=c529b527-42fd-46ba-9ba6-a6ed4671a6f8","ios":"levelo://app?vid=c529b527-42fd-46ba-9ba6-a6ed4671a6f8"},"vehicle_type_id":"4","last_reported":1700773573,"current_range_meters":25200,"station_id":"ce4bhg92rcd13ifvqf90","pricing_plan_id":"free"},{"bike_id":"9a31796c-56e5-4649-82c7-f77894f07c18","system_id":"levelo_inurba_marseille","lat":43.26684,"lon":5.38271,"is_reserved":false,"is_disabled":false,"rental_uris":{"android":"levelo://app?vid=9a31796c-56e5-4649-82c7-f77894f07c18","ios":"levelo://app?vid=9a31796c-56e5-4649-82c7-f77894f07c18"},"vehicle_type_id":"4","last_reported":1700773573,"current_range_meters":0,"station_id":"ce4bhg92rcd13ifvqf90","pricing_plan_id":"free"},{"bike_id":"28e8ce00-6b21-4e06-9930-c7c4408cc650","system_id":"levelo_inurba_marseille","lat":43.326174,"lon":5.430584,"is_reserved":false,"is_disabled":false,"rental_uris":{"android":"levelo://app?vid=28e8ce00-6b21-4e06-9930-c7c4408cc650","ios":"levelo://app?vid=28e8ce00-6b21-4e06-9930-c7c4408cc650"},"vehicle_type_id":"4","last_reported":1700773573,"current_range_meters":1600,"station_id":"","pricing_plan_id":"free"},{"bike_id":"266f7b68-b38d-4010-a86c-8688bbadcdcd","system_id":"levelo_inurba_marseille","lat":43.27996,"lon":5.416624,"is_reserved":false,"is_disabled":false,"rental_uris":{"android":"levelo://app?vid=266f7b68-b38d-4010-a86c-8688bbadcdcd","ios":"levelo://app?vid=266f7b68-b38d-4010-a86c-8688bbadcdcd"},"vehicle_type_id":"4","last_reported":1700773573,"current_range_meters":30400,"station_id":"ce4bho12rcd13ifvqh1g","pricing_plan_id":"free"},{"bike_id":"2036b9ee-932e-43e8-a085-bd6144da5eb6","system_id":"levelo_inurba_marseille","lat":43.267966,"lon":5.393976,"is_reserved":false,"is_disabled":false,"rental_uris":{"android":"levelo://app?vid=2036b9ee-932e-43e8-a085-bd6144da5eb6","ios":"levelo://app?vid=2036b9ee-932e-43e8-a085-bd6144da5eb6"},"vehicle_type_id":"4","last_reported":1700773573,"current_range_meters":25600,"station_id":"ce4bhh12rcd13ifvqfg0","pricing_plan_id":"free"},{"bike_id":"2b5f0b27-ae58-4e9e-bd76-c585f78e8a73","system_id":"levelo_inurba_marseille","lat":43.26386,"lon":5.37454,"is_reserved":false,"is_disabled":false,"rental_uris":{"android":"levelo://app?vid=2b5f0b27-ae58-4e9e-bd76-c585f78e8a73","ios":"levelo://app?vid=2b5f0b27-ae58-4e9e-bd76-c585f78e8a73"},"vehicle_type_id":"4","last_reported":1700773573,"current_range_meters":17200,"station_id":"","pricing_plan_id":"free"},{"bike_id":"bff709aa-9908-467c-9b91-161de7b65ca1","system_id":"levelo_inurba_marseille","lat":43.31713,"lon":5.43706,"is_reserved":false,"is_disabled":false,"rental_uris":{"android":"levelo://app?vid=bff709aa-9908-467c-9b91-161de7b65ca1","ios":"levelo://app?vid=bff709aa-9908-467c-9b91-161de7b65ca1"},"vehicle_type_id":"4","last_reported":1700773573,"current_range_meters":0,"station_id":"ce4bhp92rcd13ifvqhcg","pricing_plan_id":"free"},{"bike_id":"fbbd7ec6-9bef-49d9-bb08-6e5c4c4f0543","system_id":"levelo_inurba_marseille","lat":43.317104,"lon":5.436818,"is_reserved":false,"is_disabled":false,"rental_uris":{"android":"levelo://app?vid=fbbd7ec6-9bef-49d9-bb08-6e5c4c4f0543","ios":"levelo://app?vid=fbbd7ec6-9bef-49d9-bb08-6e5c4c4f0543"},"vehicle_type_id":"4","last_reported":1700773573,"current_range_meters":13600,"station_id":"ce4bhp92rcd13ifvqhcg","pricing_plan_id":"free"},{"bike_id":"0354214f-a714-49fe-a807-7ade6ff19672","system_id":"levelo_inurba_marseille","lat":43.271388,"lon":5.409269,"is_reserved":false,"is_disabled":false,"rental_uris":{"android":"levelo://app?vid=0354214f-a714-49fe-a807-7ade6ff19672","ios":"levelo://app?vid=0354214f-a714-49fe-a807-7ade6ff19672"},"vehicle_type_id":"4","last_reported":1700773573,"current_range_meters":9200,"station_id":"ce4bhl12rcd13ifvqgf0","pricing_plan_id":"free"},{"bike_id":"d0bb53f7-f1b8-4609-a668-27efdac67f66","system_id":"levelo_inurba_marseille","lat":43.26301,"lon":5.38842,"is_reserved":false,"is_disabled":false,"rental_uris":{"android":"levelo://app?vid=d0bb53f7-f1b8-4609-a668-27efdac67f66","ios":"levelo://app?vid=d0bb53f7-f1b8-4609-a668-27efdac67f66"},"vehicle_type_id":"4","last_reported":1700773573,"current_range_meters":0,"station_id":"","pricing_plan_id":"free"},{"bike_id":"c8e0aad3-4462-4f8b-93ce-b770998879ce","system_id":"levelo_inurba_marseille","lat":43.298949,"lon":5.436621,"is_reserved":false,"is_disabled":false,"rental_uris":{"android":"levelo://app?vid=c8e0aad3-4462-4f8b-93ce-b770998879ce","ios":"levelo://app?vid=c8e0aad3-4462-4f8b-93ce-b770998879ce"},"vehicle_type_id":"4","last_reported":1700773573,"current_range_meters":31200,"station_id":"ce4bhpp2rcd13ifvqhfg","pricing_plan_id":"free"},{"bike_id":"c6104b18-3ca1-44b4-83eb-3ad8cfbfedd4","system_id":"levelo_inurba_marseille","lat":43.281548,"lon":5.42643,"is_reserved":false,"is_disabled":false,"rental_uris":{"android":"levelo://app?vid=c6104b18-3ca1-44b4-83eb-3ad8cfbfedd4","ios":"levelo://app?vid=c6104b18-3ca1-44b4-83eb-3ad8cfbfedd4"},"vehicle_type_id":"4","last_reported":1700773573,"current_range_meters":0,"station_id":"ce4bhnh2rcd13ifvqgug","pricing_plan_id":"free"},{"bike_id":"a884cf6b-a909-4491-a1de-f2fb9ee8fd1b","system_id":"levelo_inurba_marseille","lat":43.2607,"lon":5.393983,"is_reserved":false,"is_disabled":false,"rental_uris":{"android":"levelo://app?vid=a884cf6b-a909-4491-a1de-f2fb9ee8fd1b","ios":"levelo://app?vid=a884cf6b-a909-4491-a1de-f2fb9ee8fd1b"},"vehicle_type_id":"4","last_reported":1700773573,"current_range_meters":8400,"station_id":"ce4bhh92rcd13ifvqfj0","pricing_plan_id":"free"},{"bike_id":"bef18bc3-fb70-4114-aad1-f3a8927aa27a","system_id":"levelo_inurba_marseille","lat":43.2607,"lon":5.393983,"is_reserved":false,"is_disabled":false,"rental_uris":{"android":"levelo://app?vid=bef18bc3-fb70-4114-aad1-f3a8927aa27a","ios":"levelo://app?vid=bef18bc3-fb70-4114-aad1-f3a8927aa27a"},"vehicle_type_id":"4","last_reported":1700773573,"current_range_meters":14000,"station_id":"ce4bhh92rcd13ifvqfj0","pricing_plan_id":"free"},{"bike_id":"4e026cf8-9d7f-480c-86b2-b8a0b393d65c","system_id":"levelo_inurba_marseille","lat":43.26087,"lon":5.39766,"is_reserved":false,"is_disabled":false,"rental_uris":{"android":"levelo://app?vid=4e026cf8-9d7f-480c-86b2-b8a0b393d65c","ios":"levelo://app?vid=4e026cf8-9d7f-480c-86b2-b8a0b393d65c"},"vehicle_type_id":"4","last_reported":1700773573,"current_range_meters":11200,"station_id":"ce4bhi12rcd13ifvqfq0","pricing_plan_id":"free"},{"bike_id":"89c9f6d4-6684-42ac-a1c6-3d843bdc7526","system_id":"levelo_inurba_marseille","lat":43.25829,"lon":5.39434,"is_reserved":false,"is_disabled":false,"rental_uris":{"android":"levelo://app?vid=89c9f6d4-6684-42ac-a1c6-3d843bdc7526","ios":"levelo://app?vid=89c9f6d4-6684-42ac-a1c6-3d843bdc7526"},"vehicle_type_id":"4","last_reported":1700773573,"current_range_meters":0,"station_id":"ce4bhip2rcd13ifvqft0","pricing_plan_id":"free"},{"bike_id":"bdfd682b-c794-4ee3-a51f-876b2fbf122b","system_id":"levelo_inurba_marseille","lat":43.25825,"lon":5.39419,"is_reserved":false,"is_disabled":false,"rental_uris":{"android":"levelo://app?vid=bdfd682b-c794-4ee3-a51f-876b2fbf122b","ios":"levelo://app?vid=bdfd682b-c794-4ee3-a51f-876b2fbf122b"},"vehicle_type_id":"4","last_reported":1700773573,"current_range_meters":29200,"station_id":"ce4bhip2rcd13ifvqft0","pricing_plan_id":"free"},{"bike_id":"0b938667-6ce3-4005-a540-9bccfd7ca7d8","system_id":"levelo_inurba_marseille","lat":43.25824,"lon":5.39422,"is_reserved":false,"is_disabled":false,"rental_uris":{"android":"levelo://app?vid=0b938667-6ce3-4005-a540-9bccfd7ca7d8","ios":"levelo://app?vid=0b938667-6ce3-4005-a540-9bccfd7ca7d8"},"vehicle_type_id":"4","last_reported":1700773573,"current_range_meters":0,"station_id":"ce4bhip2rcd13ifvqft0","pricing_plan_id":"free"},{"bike_id":"b58271b7-1ca2-4c49-8f3e-52f83be1885d","system_id":"levelo_inurba_marseille","lat":43.258224,"lon":5.394369,"is_reserved":false,"is_disabled":false,"rental_uris":{"android":"levelo://app?vid=b58271b7-1ca2-4c49-8f3e-52f83be1885d","ios":"levelo://app?vid=b58271b7-1ca2-4c49-8f3e-52f83be1885d"},"vehicle_type_id":"4","last_reported":1700773573,"current_range_meters":29600,"station_id":"ce4bhip2rcd13ifvqft0","pricing_plan_id":"free"},{"bike_id":"1713179f-ad69-4d47-aec4-507b87aecfd4","system_id":"levelo_inurba_marseille","lat":43.254947,"lon":5.376454,"is_reserved":false,"is_disabled":false,"rental_uris":{"android":"levelo://app?vid=1713179f-ad69-4d47-aec4-507b87aecfd4","ios":"levelo://app?vid=1713179f-ad69-4d47-aec4-507b87aecfd4"},"vehicle_type_id":"4","last_reported":1700773573,"current_range_meters":7600,"station_id":"ce4bhh12rcd13ifvqff0","pricing_plan_id":"free"},{"bike_id":"a3989391-6d1c-4821-b8b9-eb7a71eb7238","system_id":"levelo_inurba_marseille","lat":43.270721,"lon":5.422764,"is_reserved":false,"is_disabled":false,"rental_uris":{"android":"levelo://app?vid=a3989391-6d1c-4821-b8b9-eb7a71eb7238","ios":"levelo://app?vid=a3989391-6d1c-4821-b8b9-eb7a71eb7238"},"vehicle_type_id":"4","last_reported":1700773573,"current_range_meters":9200,"station_id":"ce4bhk92rcd13ifvqgb0","pricing_plan_id":"free"},{"bike_id":"5e6eacd8-f933-4342-a754-07d8d915f970","system_id":"levelo_inurba_marseille","lat":43.270721,"lon":5.422764,"is_reserved":false,"is_disabled":false,"rental_uris":{"android":"levelo://app?vid=5e6eacd8-f933-4342-a754-07d8d915f970","ios":"levelo://app?vid=5e6eacd8-f933-4342-a754-07d8d915f970"},"vehicle_type_id":"4","last_reported":1700773573,"current_range_meters":10000,"station_id":"ce4bhk92rcd13ifvqgb0","pricing_plan_id":"free"},{"bike_id":"0e7c9fed-8484-4161-9a2c-c940124bce8a","system_id":"levelo_inurba_marseille","lat":43.25715,"lon":5.41113,"is_reserved":false,"is_disabled":false,"rental_uris":{"android":"levelo://app?vid=0e7c9fed-8484-4161-9a2c-c940124bce8a","ios":"levelo://app?vid=0e7c9fed-8484-4161-9a2c-c940124bce8a"},"vehicle_type_id":"4","last_reported":1700773573,"current_range_meters":2000,"station_id":"ce4bhkp2rcd13ifvqgd0","pricing_plan_id":"free"},{"bike_id":"11494382-ce2e-44c2-806d-9f1bc6755b0a","system_id":"levelo_inurba_marseille","lat":43.250009,"lon":5.389195,"is_reserved":false,"is_disabled":false,"rental_uris":{"android":"levelo://app?vid=11494382-ce2e-44c2-806d-9f1bc6755b0a","ios":"levelo://app?vid=11494382-ce2e-44c2-806d-9f1bc6755b0a"},"vehicle_type_id":"4","last_reported":1700773573,"current_range_meters":29600,"station_id":"ce4bhgp2rcd13ifvqfd0","pricing_plan_id":"free"},{"bike_id":"2463e26a-c743-4daa-98ba-a3cd311bb8cd","system_id":"levelo_inurba_marseille","lat":43.2479,"lon":5.374457,"is_reserved":false,"is_disabled":false,"rental_uris":{"android":"levelo://app?vid=2463e26a-c743-4daa-98ba-a3cd311bb8cd","ios":"levelo://app?vid=2463e26a-c743-4daa-98ba-a3cd311bb8cd"},"vehicle_type_id":"4","last_reported":1700773573,"current_range_meters":21600,"station_id":"ce4bhgh2rcd13ifvqfb0","pricing_plan_id":"free"},{"bike_id":"03a6b57e-196d-4361-a53d-18c000089aa6","system_id":"levelo_inurba_marseille","lat":43.25089,"lon":5.39525,"is_reserved":false,"is_disabled":false,"rental_uris":{"android":"levelo://app?vid=03a6b57e-196d-4361-a53d-18c000089aa6","ios":"levelo://app?vid=03a6b57e-196d-4361-a53d-18c000089aa6"},"vehicle_type_id":"4","last_reported":1700773573,"current_range_meters":10800,"station_id":"ce4bhm12rcd13ifvqgkg","pricing_plan_id":"free"},{"bike_id":"88d7f9e9-bb37-46c1-b9b3-75abffa63e99","system_id":"levelo_inurba_marseille","lat":43.250966,"lon":5.395186,"is_reserved":false,"is_disabled":false,"rental_uris":{"android":"levelo://app?vid=88d7f9e9-bb37-46c1-b9b3-75abffa63e99","ios":"levelo://app?vid=88d7f9e9-bb37-46c1-b9b3-75abffa63e99"},"vehicle_type_id":"4","last_reported":1700773573,"current_range_meters":8800,"station_id":"ce4bhm12rcd13ifvqgkg","pricing_plan_id":"free"},{"bike_id":"efa187b0-d8d1-49c9-acc3-4b60600e5901","system_id":"levelo_inurba_marseille","lat":43.25083,"lon":5.39511,"is_reserved":false,"is_disabled":false,"rental_uris":{"android":"levelo://app?vid=efa187b0-d8d1-49c9-acc3-4b60600e5901","ios":"levelo://app?vid=efa187b0-d8d1-49c9-acc3-4b60600e5901"},"vehicle_type_id":"4","last_reported":1700773573,"current_range_meters":4800,"station_id":"ce4bhm12rcd13ifvqgkg","pricing_plan_id":"free"},{"bike_id":"b80925c1-effd-4120-a0b5-9ff7eadaaa2d","system_id":"levelo_inurba_marseille","lat":43.2508,"lon":5.39515,"is_reserved":false,"is_disabled":false,"rental_uris":{"android":"levelo://app?vid=b80925c1-effd-4120-a0b5-9ff7eadaaa2d","ios":"levelo://app?vid=b80925c1-effd-4120-a0b5-9ff7eadaaa2d"},"vehicle_type_id":"4","last_reported":1700773573,"current_range_meters":30400,"station_id":"ce4bhm12rcd13ifvqgkg","pricing_plan_id":"free"},{"bike_id":"4115e15c-f1c6-466f-9816-673e6aa1abdb","system_id":"levelo_inurba_marseille","lat":43.24693,"lon":5.382096,"is_reserved":false,"is_disabled":false,"rental_uris":{"android":"levelo://app?vid=4115e15c-f1c6-466f-9816-673e6aa1abdb","ios":"levelo://app?vid=4115e15c-f1c6-466f-9816-673e6aa1abdb"},"vehicle_type_id":"4","last_reported":1700773573,"current_range_meters":29200,"station_id":"ce4bhih2rcd13ifvqfr0","pricing_plan_id":"free"},{"bike_id":"e68545fb-4ac4-40af-8bbe-e46447688418","system_id":"levelo_inurba_marseille","lat":43.25102,"lon":5.403214,"is_reserved":false,"is_disabled":false,"rental_uris":{"android":"levelo://app?vid=e68545fb-4ac4-40af-8bbe-e46447688418","ios":"levelo://app?vid=e68545fb-4ac4-40af-8bbe-e46447688418"},"vehicle_type_id":"4","last_reported":1700773573,"current_range_meters":12400,"station_id":"ce4bhlh2rcd13ifvqgig","pricing_plan_id":"free"},{"bike_id":"b9d8e704-4d85-471e-8568-3bb46744e40a","system_id":"levelo_inurba_marseille","lat":43.25109,"lon":5.40318,"is_reserved":false,"is_disabled":false,"rental_uris":{"android":"levelo://app?vid=b9d8e704-4d85-471e-8568-3bb46744e40a","ios":"levelo://app?vid=b9d8e704-4d85-471e-8568-3bb46744e40a"},"vehicle_type_id":"4","last_reported":1700773573,"current_range_meters":21600,"station_id":"ce4bhlh2rcd13ifvqgig","pricing_plan_id":"free"},{"bike_id":"5c16a961-acaf-4fa7-8d92-919351feefaf","system_id":"levelo_inurba_marseille","lat":43.25105,"lon":5.40325,"is_reserved":false,"is_disabled":false,"rental_uris":{"android":"levelo://app?vid=5c16a961-acaf-4fa7-8d92-919351feefaf","ios":"levelo://app?vid=5c16a961-acaf-4fa7-8d92-919351feefaf"},"vehicle_type_id":"4","last_reported":1700773573,"current_range_meters":0,"station_id":"ce4bhlh2rcd13ifvqgig","pricing_plan_id":"free"},{"bike_id":"c4db6c00-0b4b-499c-a987-e15238075f65","system_id":"levelo_inurba_marseille","lat":43.246461,"lon":5.389014,"is_reserved":false,"is_disabled":false,"rental_uris":{"android":"levelo://app?vid=c4db6c00-0b4b-499c-a987-e15238075f65","ios":"levelo://app?vid=c4db6c00-0b4b-499c-a987-e15238075f65"},"vehicle_type_id":"4","last_reported":1700773573,"current_range_meters":26000,"station_id":"ce4bhg12rcd13ifvqf60","pricing_plan_id":"free"},{"bike_id":"686b3327-de0c-4eee-9419-25f93e0f2665","system_id":"levelo_inurba_marseille","lat":43.246467,"lon":5.388984,"is_reserved":false,"is_disabled":false,"rental_uris":{"android":"levelo://app?vid=686b3327-de0c-4eee-9419-25f93e0f2665","ios":"levelo://app?vid=686b3327-de0c-4eee-9419-25f93e0f2665"},"vehicle_type_id":"4","last_reported":1700773573,"current_range_meters":28400,"station_id":"ce4bhg12rcd13ifvqf60","pricing_plan_id":"free"},{"bike_id":"fb002053-0192-48fc-a8e8-72417b50f02a","system_id":"levelo_inurba_marseille","lat":43.245581,"lon":5.395069,"is_reserved":false,"is_disabled":false,"rental_uris":{"android":"levelo://app?vid=fb002053-0192-48fc-a8e8-72417b50f02a","ios":"levelo://app?vid=fb002053-0192-48fc-a8e8-72417b50f02a"},"vehicle_type_id":"4","last_reported":1700773573,"current_range_meters":31200,"station_id":"ce4bhlp2rcd13ifvqgjg","pricing_plan_id":"free"},{"bike_id":"404642da-847f-4dd8-8eba-db544ee8bc70","system_id":"levelo_inurba_marseille","lat":43.240623,"lon":5.377642,"is_reserved":false,"is_disabled":false,"rental_uris":{"android":"levelo://app?vid=404642da-847f-4dd8-8eba-db544ee8bc70","ios":"levelo://app?vid=404642da-847f-4dd8-8eba-db544ee8bc70"},"vehicle_type_id":"4","last_reported":1700773573,"current_range_meters":23200,"station_id":"ce4bhnp2rcd13ifvqgvg","pricing_plan_id":"free"},{"bike_id":"9fc31478-5bcb-4ffe-8064-58386a775379","system_id":"levelo_inurba_marseille","lat":43.240623,"lon":5.377642,"is_reserved":false,"is_disabled":false,"rental_uris":{"android":"levelo://app?vid=9fc31478-5bcb-4ffe-8064-58386a775379","ios":"levelo://app?vid=9fc31478-5bcb-4ffe-8064-58386a775379"},"vehicle_type_id":"4","last_reported":1700773573,"current_range_meters":16400,"station_id":"ce4bhnp2rcd13ifvqgvg","pricing_plan_id":"free"},{"bike_id":"4ef047e8-4098-4859-a97b-ebc738e120bd","system_id":"levelo_inurba_marseille","lat":43.240623,"lon":5.377642,"is_reserved":false,"is_disabled":false,"rental_uris":{"android":"levelo://app?vid=4ef047e8-4098-4859-a97b-ebc738e120bd","ios":"levelo://app?vid=4ef047e8-4098-4859-a97b-ebc738e120bd"},"vehicle_type_id":"4","last_reported":1700773573,"current_range_meters":12800,"station_id":"ce4bhnp2rcd13ifvqgvg","pricing_plan_id":"free"},{"bike_id":"e1295696-9512-457a-9e47-a650eae5f681","system_id":"levelo_inurba_marseille","lat":43.240623,"lon":5.377642,"is_reserved":false,"is_disabled":false,"rental_uris":{"android":"levelo://app?vid=e1295696-9512-457a-9e47-a650eae5f681","ios":"levelo://app?vid=e1295696-9512-457a-9e47-a650eae5f681"},"vehicle_type_id":"4","last_reported":1700773573,"current_range_meters":24000,"station_id":"ce4bhnp2rcd13ifvqgvg","pricing_plan_id":"free"},{"bike_id":"a521f606-5701-4030-b4c5-dab33339e8f5","system_id":"levelo_inurba_marseille","lat":43.240623,"lon":5.377642,"is_reserved":false,"is_disabled":false,"rental_uris":{"android":"levelo://app?vid=a521f606-5701-4030-b4c5-dab33339e8f5","ios":"levelo://app?vid=a521f606-5701-4030-b4c5-dab33339e8f5"},"vehicle_type_id":"4","last_reported":1700773573,"current_range_meters":32000,"station_id":"ce4bhnp2rcd13ifvqgvg","pricing_plan_id":"free"},{"bike_id":"7f36ee99-fc39-4607-9af5-7ed0f569f63d","system_id":"levelo_inurba_marseille","lat":43.240623,"lon":5.377642,"is_reserved":false,"is_disabled":false,"rental_uris":{"android":"levelo://app?vid=7f36ee99-fc39-4607-9af5-7ed0f569f63d","ios":"levelo://app?vid=7f36ee99-fc39-4607-9af5-7ed0f569f63d"},"vehicle_type_id":"4","last_reported":1700773573,"current_range_meters":20800,"station_id":"ce4bhnp2rcd13ifvqgvg","pricing_plan_id":"free"},{"bike_id":"4ca74aac-a103-4b68-b4a6-27881d713399","system_id":"levelo_inurba_marseille","lat":43.23967,"lon":5.36632,"is_reserved":false,"is_disabled":false,"rental_uris":{"android":"levelo://app?vid=4ca74aac-a103-4b68-b4a6-27881d713399","ios":"levelo://app?vid=4ca74aac-a103-4b68-b4a6-27881d713399"},"vehicle_type_id":"4","last_reported":1700773573,"current_range_meters":11600,"station_id":"ce4bhi12rcd13ifvqfp0","pricing_plan_id":"free"},{"bike_id":"4c434a78-92e8-423b-942f-5c940f305e63","system_id":"levelo_inurba_marseille","lat":43.23967,"lon":5.36625,"is_reserved":false,"is_disabled":false,"rental_uris":{"android":"levelo://app?vid=4c434a78-92e8-423b-942f-5c940f305e63","ios":"levelo://app?vid=4c434a78-92e8-423b-942f-5c940f305e63"},"vehicle_type_id":"4","last_reported":1700773573,"current_range_meters":5600,"station_id":"ce4bhi12rcd13ifvqfp0","pricing_plan_id":"free"},{"bike_id":"74946933-b2b7-48eb-9ae2-890f844b8c5f","system_id":"levelo_inurba_marseille","lat":43.239588,"lon":5.366238,"is_reserved":false,"is_disabled":false,"rental_uris":{"android":"levelo://app?vid=74946933-b2b7-48eb-9ae2-890f844b8c5f","ios":"levelo://app?vid=74946933-b2b7-48eb-9ae2-890f844b8c5f"},"vehicle_type_id":"4","last_reported":1700773573,"current_range_meters":29200,"station_id":"ce4bhi12rcd13ifvqfp0","pricing_plan_id":"free"},{"bike_id":"48696721-7d72-4e6d-a69f-9339b8fc83e7","system_id":"levelo_inurba_marseille","lat":43.23966,"lon":5.36629,"is_reserved":false,"is_disabled":false,"rental_uris":{"android":"levelo://app?vid=48696721-7d72-4e6d-a69f-9339b8fc83e7","ios":"levelo://app?vid=48696721-7d72-4e6d-a69f-9339b8fc83e7"},"vehicle_type_id":"4","last_reported":1700773573,"current_range_meters":6000,"station_id":"ce4bhi12rcd13ifvqfp0","pricing_plan_id":"free"},{"bike_id":"ec0ae06a-418c-40e7-bfed-2ce435e44142","system_id":"levelo_inurba_marseille","lat":43.23965,"lon":5.36634,"is_reserved":false,"is_disabled":false,"rental_uris":{"android":"levelo://app?vid=ec0ae06a-418c-40e7-bfed-2ce435e44142","ios":"levelo://app?vid=ec0ae06a-418c-40e7-bfed-2ce435e44142"},"vehicle_type_id":"4","last_reported":1700773573,"current_range_meters":10400,"station_id":"ce4bhi12rcd13ifvqfp0","pricing_plan_id":"free"},{"bike_id":"2c54862c-aff6-45d6-97d9-752ba2ae7638","system_id":"levelo_inurba_marseille","lat":43.239588,"lon":5.366238,"is_reserved":false,"is_disabled":false,"rental_uris":{"android":"levelo://app?vid=2c54862c-aff6-45d6-97d9-752ba2ae7638","ios":"levelo://app?vid=2c54862c-aff6-45d6-97d9-752ba2ae7638"},"vehicle_type_id":"4","last_reported":1700773573,"current_range_meters":1600,"station_id":"ce4bhi12rcd13ifvqfp0","pricing_plan_id":"free"},{"bike_id":"cb50d001-51e4-40eb-ab79-d786aad9a473","system_id":"levelo_inurba_marseille","lat":43.239588,"lon":5.366238,"is_reserved":false,"is_disabled":false,"rental_uris":{"android":"levelo://app?vid=cb50d001-51e4-40eb-ab79-d786aad9a473","ios":"levelo://app?vid=cb50d001-51e4-40eb-ab79-d786aad9a473"},"vehicle_type_id":"4","last_reported":1700773573,"current_range_meters":12800,"station_id":"ce4bhi12rcd13ifvqfp0","pricing_plan_id":"free"},{"bike_id":"92467384-89bb-4cba-b408-b94f63527936","system_id":"levelo_inurba_marseille","lat":43.239588,"lon":5.366238,"is_reserved":false,"is_disabled":false,"rental_uris":{"android":"levelo://app?vid=92467384-89bb-4cba-b408-b94f63527936","ios":"levelo://app?vid=92467384-89bb-4cba-b408-b94f63527936"},"vehicle_type_id":"4","last_reported":1700773573,"current_range_meters":6000,"station_id":"ce4bhi12rcd13ifvqfp0","pricing_plan_id":"free"},{"bike_id":"5af44420-f288-487d-abf9-5f4de05fc437","system_id":"levelo_inurba_marseille","lat":43.239588,"lon":5.366238,"is_reserved":false,"is_disabled":false,"rental_uris":{"android":"levelo://app?vid=5af44420-f288-487d-abf9-5f4de05fc437","ios":"levelo://app?vid=5af44420-f288-487d-abf9-5f4de05fc437"},"vehicle_type_id":"4","last_reported":1700773573,"current_range_meters":28800,"station_id":"ce4bhi12rcd13ifvqfp0","pricing_plan_id":"free"},{"bike_id":"f23c3054-5142-4e1d-9c5e-2633f402b011","system_id":"levelo_inurba_marseille","lat":43.241782,"lon":5.397261,"is_reserved":false,"is_disabled":false,"rental_uris":{"android":"levelo://app?vid=f23c3054-5142-4e1d-9c5e-2633f402b011","ios":"levelo://app?vid=f23c3054-5142-4e1d-9c5e-2633f402b011"},"vehicle_type_id":"4","last_reported":1700773573,"current_range_meters":4400,"station_id":"ce4bhn12rcd13ifvqgpg","pricing_plan_id":"free"},{"bike_id":"2e98bdf4-74a5-400e-8271-074e4343e92a","system_id":"levelo_inurba_marseille","lat":43.24181,"lon":5.39723,"is_reserved":false,"is_disabled":false,"rental_uris":{"android":"levelo://app?vid=2e98bdf4-74a5-400e-8271-074e4343e92a","ios":"levelo://app?vid=2e98bdf4-74a5-400e-8271-074e4343e92a"},"vehicle_type_id":"4","last_reported":1700773573,"current_range_meters":12800,"station_id":"ce4bhn12rcd13ifvqgpg","pricing_plan_id":"free"},{"bike_id":"15098f4a-57e6-48e8-846b-97856909e7a5","system_id":"levelo_inurba_marseille","lat":43.231919,"lon":5.355532,"is_reserved":false,"is_disabled":false,"rental_uris":{"android":"levelo://app?vid=15098f4a-57e6-48e8-846b-97856909e7a5","ios":"levelo://app?vid=15098f4a-57e6-48e8-846b-97856909e7a5"},"vehicle_type_id":"4","last_reported":1700773573,"current_range_meters":19600,"station_id":"ce4bhu92rcd13ifvqi70","pricing_plan_id":"free"},{"bike_id":"425d3457-d7b1-4bd6-af05-1b26bfd08345","system_id":"levelo_inurba_marseille","lat":43.231923,"lon":5.355545,"is_reserved":false,"is_disabled":false,"rental_uris":{"android":"levelo://app?vid=425d3457-d7b1-4bd6-af05-1b26bfd08345","ios":"levelo://app?vid=425d3457-d7b1-4bd6-af05-1b26bfd08345"},"vehicle_type_id":"4","last_reported":1700773573,"current_range_meters":30000,"station_id":"ce4bhu92rcd13ifvqi70","pricing_plan_id":"free"},{"bike_id":"c3facbb7-06a8-412a-9a80-52aeb0503e18","system_id":"levelo_inurba_marseille","lat":43.231923,"lon":5.355545,"is_reserved":false,"is_disabled":false,"rental_uris":{"android":"levelo://app?vid=c3facbb7-06a8-412a-9a80-52aeb0503e18","ios":"levelo://app?vid=c3facbb7-06a8-412a-9a80-52aeb0503e18"},"vehicle_type_id":"4","last_reported":1700773573,"current_range_meters":30000,"station_id":"ce4bhu92rcd13ifvqi70","pricing_plan_id":"free"},{"bike_id":"aeb874ed-5a67-45f7-94cd-1c1e110219bc","system_id":"levelo_inurba_marseille","lat":43.231919,"lon":5.355532,"is_reserved":false,"is_disabled":false,"rental_uris":{"android":"levelo://app?vid=aeb874ed-5a67-45f7-94cd-1c1e110219bc","ios":"levelo://app?vid=aeb874ed-5a67-45f7-94cd-1c1e110219bc"},"vehicle_type_id":"4","last_reported":1700773573,"current_range_meters":31600,"station_id":"ce4bhu92rcd13ifvqi70","pricing_plan_id":"free"},{"bike_id":"0d65e76d-9880-4e2c-a36d-b8425499c90e","system_id":"levelo_inurba_marseille","lat":43.231793,"lon":5.400044,"is_reserved":false,"is_disabled":false,"rental_uris":{"android":"levelo://app?vid=0d65e76d-9880-4e2c-a36d-b8425499c90e","ios":"levelo://app?vid=0d65e76d-9880-4e2c-a36d-b8425499c90e"},"vehicle_type_id":"4","last_reported":1700773573,"current_range_meters":21200,"station_id":"ce4bhn12rcd13ifvqgqg","pricing_plan_id":"free"},{"bike_id":"f31cda49-20f2-4ebe-96b2-ae91a8011c1d","system_id":"levelo_inurba_marseille","lat":43.231794,"lon":5.400052,"is_reserved":false,"is_disabled":false,"rental_uris":{"android":"levelo://app?vid=f31cda49-20f2-4ebe-96b2-ae91a8011c1d","ios":"levelo://app?vid=f31cda49-20f2-4ebe-96b2-ae91a8011c1d"},"vehicle_type_id":"4","last_reported":1700773573,"current_range_meters":11600,"station_id":"ce4bhn12rcd13ifvqgqg","pricing_plan_id":"free"},{"bike_id":"b1ff8538-de6b-4362-8b24-b9288098290c","system_id":"levelo_inurba_marseille","lat":43.231793,"lon":5.400044,"is_reserved":false,"is_disabled":false,"rental_uris":{"android":"levelo://app?vid=b1ff8538-de6b-4362-8b24-b9288098290c","ios":"levelo://app?vid=b1ff8538-de6b-4362-8b24-b9288098290c"},"vehicle_type_id":"4","last_reported":1700773573,"current_range_meters":14000,"station_id":"ce4bhn12rcd13ifvqgqg","pricing_plan_id":"free"},{"bike_id":"602c7bd9-ec05-4124-8420-3033368d41cb","system_id":"levelo_inurba_marseille","lat":43.231794,"lon":5.400052,"is_reserved":false,"is_disabled":false,"rental_uris":{"android":"levelo://app?vid=602c7bd9-ec05-4124-8420-3033368d41cb","ios":"levelo://app?vid=602c7bd9-ec05-4124-8420-3033368d41cb"},"vehicle_type_id":"4","last_reported":1700773573,"current_range_meters":24000,"station_id":"ce4bhn12rcd13ifvqgqg","pricing_plan_id":"free"},{"bike_id":"bfef33e7-e071-4d70-b1cc-05a6160336e4","system_id":"levelo_inurba_marseille","lat":43.231793,"lon":5.400044,"is_reserved":false,"is_disabled":false,"rental_uris":{"android":"levelo://app?vid=bfef33e7-e071-4d70-b1cc-05a6160336e4","ios":"levelo://app?vid=bfef33e7-e071-4d70-b1cc-05a6160336e4"},"vehicle_type_id":"4","last_reported":1700773573,"current_range_meters":23600,"station_id":"ce4bhn12rcd13ifvqgqg","pricing_plan_id":"free"},{"bike_id":"0781b68f-f7ce-4993-97f3-a63d398915f6","system_id":"levelo_inurba_marseille","lat":43.231793,"lon":5.400044,"is_reserved":false,"is_disabled":false,"rental_uris":{"android":"levelo://app?vid=0781b68f-f7ce-4993-97f3-a63d398915f6","ios":"levelo://app?vid=0781b68f-f7ce-4993-97f3-a63d398915f6"},"vehicle_type_id":"4","last_reported":1700773573,"current_range_meters":10000,"station_id":"ce4bhn12rcd13ifvqgqg","pricing_plan_id":"free"},{"bike_id":"d1fe046a-7159-4857-8428-6c74abf6f70d","system_id":"levelo_inurba_marseille","lat":43.231793,"lon":5.400044,"is_reserved":false,"is_disabled":false,"rental_uris":{"android":"levelo://app?vid=d1fe046a-7159-4857-8428-6c74abf6f70d","ios":"levelo://app?vid=d1fe046a-7159-4857-8428-6c74abf6f70d"},"vehicle_type_id":"4","last_reported":1700773573,"current_range_meters":4800,"station_id":"ce4bhn12rcd13ifvqgqg","pricing_plan_id":"free"},{"bike_id":"42b71bb2-3e67-452d-bdb5-18d18eec3243","system_id":"levelo_inurba_marseille","lat":43.231794,"lon":5.400052,"is_reserved":false,"is_disabled":false,"rental_uris":{"android":"levelo://app?vid=42b71bb2-3e67-452d-bdb5-18d18eec3243","ios":"levelo://app?vid=42b71bb2-3e67-452d-bdb5-18d18eec3243"},"vehicle_type_id":"4","last_reported":1700773573,"current_range_meters":30000,"station_id":"ce4bhn12rcd13ifvqgqg","pricing_plan_id":"free"},{"bike_id":"ba6d79c0-6a21-43e4-a3e7-c61b28164239","system_id":"levelo_inurba_marseille","lat":43.231793,"lon":5.400044,"is_reserved":false,"is_disabled":false,"rental_uris":{"android":"levelo://app?vid=ba6d79c0-6a21-43e4-a3e7-c61b28164239","ios":"levelo://app?vid=ba6d79c0-6a21-43e4-a3e7-c61b28164239"},"vehicle_type_id":"4","last_reported":1700773573,"current_range_meters":0,"station_id":"ce4bhn12rcd13ifvqgqg","pricing_plan_id":"free"},{"bike_id":"d3b8a9d5-8f94-4141-9ce6-0e001b35d74c","system_id":"levelo_inurba_marseille","lat":43.231793,"lon":5.400044,"is_reserved":false,"is_disabled":false,"rental_uris":{"android":"levelo://app?vid=d3b8a9d5-8f94-4141-9ce6-0e001b35d74c","ios":"levelo://app?vid=d3b8a9d5-8f94-4141-9ce6-0e001b35d74c"},"vehicle_type_id":"4","last_reported":1700773573,"current_range_meters":0,"station_id":"ce4bhn12rcd13ifvqgqg","pricing_plan_id":"free"},{"bike_id":"62d0079e-a6d1-4abb-8137-335ef37b5185","system_id":"levelo_inurba_marseille","lat":43.2318,"lon":5.399813,"is_reserved":false,"is_disabled":false,"rental_uris":{"android":"levelo://app?vid=62d0079e-a6d1-4abb-8137-335ef37b5185","ios":"levelo://app?vid=62d0079e-a6d1-4abb-8137-335ef37b5185"},"vehicle_type_id":"4","last_reported":1700773573,"current_range_meters":24800,"station_id":"ce4bhn12rcd13ifvqgqg","pricing_plan_id":"free"},{"bike_id":"7f6a5ad2-1ab9-499b-86ec-e71f6c27f9ff","system_id":"levelo_inurba_marseille","lat":43.231793,"lon":5.400044,"is_reserved":false,"is_disabled":false,"rental_uris":{"android":"levelo://app?vid=7f6a5ad2-1ab9-499b-86ec-e71f6c27f9ff","ios":"levelo://app?vid=7f6a5ad2-1ab9-499b-86ec-e71f6c27f9ff"},"vehicle_type_id":"4","last_reported":1700773573,"current_range_meters":17600,"station_id":"ce4bhn12rcd13ifvqgqg","pricing_plan_id":"free"},{"bike_id":"df7e6c4d-a3bc-48a2-a471-a72390a84d34","system_id":"levelo_inurba_marseille","lat":43.231793,"lon":5.400044,"is_reserved":false,"is_disabled":false,"rental_uris":{"android":"levelo://app?vid=df7e6c4d-a3bc-48a2-a471-a72390a84d34","ios":"levelo://app?vid=df7e6c4d-a3bc-48a2-a471-a72390a84d34"},"vehicle_type_id":"4","last_reported":1700773573,"current_range_meters":25600,"station_id":"ce4bhn12rcd13ifvqgqg","pricing_plan_id":"free"},{"bike_id":"9c2bf53e-bbf1-4349-bc38-b78a298e6986","system_id":"levelo_inurba_marseille","lat":43.231793,"lon":5.400044,"is_reserved":false,"is_disabled":false,"rental_uris":{"android":"levelo://app?vid=9c2bf53e-bbf1-4349-bc38-b78a298e6986","ios":"levelo://app?vid=9c2bf53e-bbf1-4349-bc38-b78a298e6986"},"vehicle_type_id":"4","last_reported":1700773573,"current_range_meters":26400,"station_id":"ce4bhn12rcd13ifvqgqg","pricing_plan_id":"free"}]}}