{"last_updated":1729746580,"ttl":60,"version":"2.2","data":{"bikes":[{"bike_id":"93fd7287-b7ec-4c38-ac80-5c37f66999b7","system_id":"levelo_inurba_marseille","lat":43.24392,"lon":5.37047,"is_reserved":false,"is_disabled":false,"rental_uris":{"android":"levelo://app?vid=93fd7287-b7ec-4c38-ac80-5c37f66999b7","ios":"levelo://app?vid=93fd7287-b7ec-4c38-ac80-5c37f66999b7"},"vehicle_type_id":"4","last_reported":1729746580,"current_range_meters":38400,"station_id":"ce4bhhh2rcd13ifvqfk0","pricing_plan_id":"cebpf4jnsgd1na2vs0mg"},{"bike_id":"5f4c504f-64d7-447b-9c63-fa627168ec7b","system_id":"levelo_inurba_marseille","lat":43.28461,"lon":5.35897,"is_reserved":false,"is_disabled":false,"rental_uris":{"android":"levelo://app?vid=5f4c504f-64d7-447b-9c63-fa627168ec7b","ios":"levelo://app?vid=5f4c504f-64d7-447b-9c63-fa627168ec7b"},"vehicle_type_id":"4","last_reported":1729746580,"current_range_meters":39200,"station_id":"ce4bhah2rcd13ifvqei0","pricing_plan_id":"cebpf4jnsgd1na2vs0mg"},{"bike_id":"6e7189c8-6d34-4945-8fbf-b2a1a37960a8","system_id":"levelo_inurba_marseille","lat":43.31708,"lon":5.37761,"is_reserved":false,"is_disabled":false,"rental_uris":{"android":"levelo://app?vid=6e7189c8-6d34-4945-8fbf-b2a1a37960a8","ios":"levelo://app?vid=6e7189c8-6d34-4945-8fbf-b2a1a37960a8"},"vehicle_type_id":"4","last_reported":1729746580,"current_range_meters":24400,"station_id":"ce4bgth2rcd13ifvqch0","pricing_plan_id":"cebpf4jnsgd1na2vs0mg"},{"bike_id":"684d650b-d1e1-47e4-8a18-a7ba9af19d7e","system_id":"levelo_inurba_marseille","lat":43.24176,"lon":5.39725,"is_reserved":false,"is_disabled":false,"rental_uris":{"android":"levelo://app?vid=684d650b-d1e1-47e4-8a18-a7ba9af19d7e","ios":"levelo://app?vid=684d650b-d1e1-47e4-8a18-a7ba9af19d7e"},"vehicle_type_id":"4","last_reported":1729746580,"current_range_meters":38000,"station_id":"ce4bhn12rcd13ifvqgpg","pricing_plan_id":"cebpf4jnsgd1na2vs0mg"},{"bike_id":"4e718520-217c-4986-8e4a-4dbcae9b7210","system_id":"levelo_inurba_marseille","lat":43.27987,"lon":5.41655,"is_reserved":false,"is_disabled":false,"rental_uris":{"android":"levelo://app?vid=4e718520-217c-4986-8e4a-4dbcae9b7210","ios":"levelo://app?vid=4e718520-217c-4986-8e4a-4dbcae9b7210"},"vehicle_type_id":"4","last_reported":1729746580,"current_range_meters":10000,"station_id":"ce4bho12rcd13ifvqh1g","pricing_plan_id":"cebpf4jnsgd1na2vs0mg"},{"bike_id":"ad149999-cdab-442e-abeb-f4ceecd45694","system_id":"levelo_inurba_marseille","lat":43.30935,"lon":5.40148,"is_reserved":false,"is_disabled":false,"rental_uris":{"android":"levelo://app?vid=ad149999-cdab-442e-abeb-f4ceecd45694","ios":"levelo://app?vid=ad149999-cdab-442e-abeb-f4ceecd45694"},"vehicle_type_id":"4","last_reported":1729746580,"current_range_meters":21600,"station_id":"ce4bgvp2rcd13ifvqct0","pricing_plan_id":"cebpf4jnsgd1na2vs0mg"},{"bike_id":"ab6deddc-46ee-4625-95e6-9d433b6d0dda","system_id":"levelo_inurba_marseille","lat":43.28467,"lon":5.3588,"is_reserved":false,"is_disabled":false,"rental_uris":{"android":"levelo://app?vid=ab6deddc-46ee-4625-95e6-9d433b6d0dda","ios":"levelo://app?vid=ab6deddc-46ee-4625-95e6-9d433b6d0dda"},"vehicle_type_id":"4","last_reported":1729746580,"current_range_meters":24800,"station_id":"ce4bhah2rcd13ifvqei0","pricing_plan_id":"cebpf4jnsgd1na2vs0mg"},{"bike_id":"00032ea5-fcb7-4615-bab4-363df68ed7fa","system_id":"levelo_inurba_marseille","lat":43.303248,"lon":5.404351,"is_reserved":false,"is_disabled":false,"rental_uris":{"android":"levelo://app?vid=00032ea5-fcb7-4615-bab4-363df68ed7fa","ios":"levelo://app?vid=00032ea5-fcb7-4615-bab4-363df68ed7fa"},"vehicle_type_id":"4","last_reported":1729746580,"current_range_meters":38000,"station_id":"ce4bh012rcd13ifvqd10","pricing_plan_id":"cebpf4jnsgd1na2vs0mg"},{"bike_id":"94c12172-b856-41ca-8443-edbd9913356a","system_id":"levelo_inurba_marseille","lat":43.30929,"lon":5.40143,"is_reserved":false,"is_disabled":false,"rental_uris":{"android":"levelo://app?vid=94c12172-b856-41ca-8443-edbd9913356a","ios":"levelo://app?vid=94c12172-b856-41ca-8443-edbd9913356a"},"vehicle_type_id":"4","last_reported":1729746580,"current_range_meters":6000,"station_id":"ce4bgvp2rcd13ifvqct0","pricing_plan_id":"cebpf4jnsgd1na2vs0mg"},{"bike_id":"497fc25b-f171-4786-80a0-e1e124b8028f","system_id":"levelo_inurba_marseille","lat":43.30794,"lon":5.38156,"is_reserved":false,"is_disabled":false,"rental_uris":{"android":"levelo://app?vid=497fc25b-f171-4786-80a0-e1e124b8028f","ios":"levelo://app?vid=497fc25b-f171-4786-80a0-e1e124b8028f"},"vehicle_type_id":"4","last_reported":1729746580,"current_range_meters":24400,"station_id":"ce4bgt12rcd13ifvqce0","pricing_plan_id":"cebpf4jnsgd1na2vs0mg"},{"bike_id":"21c7101c-ca4b-4c55-b4b1-4130a4e6a9f4","system_id":"levelo_inurba_marseille","lat":43.30547,"lon":5.36704,"is_reserved":false,"is_disabled":false,"rental_uris":{"android":"levelo://app?vid=21c7101c-ca4b-4c55-b4b1-4130a4e6a9f4","ios":"levelo://app?vid=21c7101c-ca4b-4c55-b4b1-4130a4e6a9f4"},"vehicle_type_id":"4","last_reported":1729746580,"current_range_meters":38400,"station_id":"ce4bgrp2rcd13ifvqc9g","pricing_plan_id":"cebpf4jnsgd1na2vs0mg"},{"bike_id":"b39cc9b2-716c-4c9d-849c-dae16c7c9a04","system_id":"levelo_inurba_marseille","lat":43.2781,"lon":5.4071,"is_reserved":false,"is_disabled":false,"rental_uris":{"android":"levelo://app?vid=b39cc9b2-716c-4c9d-849c-dae16c7c9a04","ios":"levelo://app?vid=b39cc9b2-716c-4c9d-849c-dae16c7c9a04"},"vehicle_type_id":"4","last_reported":1729746580,"current_range_meters":27600,"station_id":"ce4bhnh2rcd13ifvqgtg","pricing_plan_id":"cebpf4jnsgd1na2vs0mg"},{"bike_id":"9f074ccd-7b5d-4615-a0de-1df1963b28b4","system_id":"levelo_inurba_marseille","lat":43.31487,"lon":5.373,"is_reserved":false,"is_disabled":false,"rental_uris":{"android":"levelo://app?vid=9f074ccd-7b5d-4615-a0de-1df1963b28b4","ios":"levelo://app?vid=9f074ccd-7b5d-4615-a0de-1df1963b28b4"},"vehicle_type_id":"4","last_reported":1729746580,"current_range_meters":6400,"station_id":"ce4bgt12rcd13ifvqcd0","pricing_plan_id":"cebpf4jnsgd1na2vs0mg"},{"bike_id":"c39695b1-cee1-48ed-b86d-6df039d5292c","system_id":"levelo_inurba_marseille","lat":43.30535,"lon":5.36722,"is_reserved":false,"is_disabled":false,"rental_uris":{"android":"levelo://app?vid=c39695b1-cee1-48ed-b86d-6df039d5292c","ios":"levelo://app?vid=c39695b1-cee1-48ed-b86d-6df039d5292c"},"vehicle_type_id":"4","last_reported":1729746580,"current_range_meters":38000,"station_id":"ce4bgrp2rcd13ifvqc9g","pricing_plan_id":"cebpf4jnsgd1na2vs0mg"},{"bike_id":"a93517ff-5a1d-4565-bd61-fa3438f9dc6e","system_id":"levelo_inurba_marseille","lat":43.30886,"lon":5.39631,"is_reserved":false,"is_disabled":false,"rental_uris":{"android":"levelo://app?vid=a93517ff-5a1d-4565-bd61-fa3438f9dc6e","ios":"levelo://app?vid=a93517ff-5a1d-4565-bd61-fa3438f9dc6e"},"vehicle_type_id":"4","last_reported":1729746580,"current_range_meters":4800,"station_id":"ce4bh012rcd13ifvqcv0","pricing_plan_id":"cebpf4jnsgd1na2vs0mg"},{"bike_id":"f7674553-c2f7-442c-84e6-6b1b6677d5de","system_id":"levelo_inurba_marseille","lat":43.28715,"lon":5.39999,"is_reserved":false,"is_disabled":false,"rental_uris":{"android":"levelo://app?vid=f7674553-c2f7-442c-84e6-6b1b6677d5de","ios":"levelo://app?vid=f7674553-c2f7-442c-84e6-6b1b6677d5de"},"vehicle_type_id":"4","last_reported":1729746580,"current_range_meters":32800,"station_id":"ce4bho92rcd13ifvqh3g","pricing_plan_id":"cebpf4jnsgd1na2vs0mg"},{"bike_id":"694679e3-89bc-474b-88d4-72f2607e9aa9","system_id":"levelo_inurba_marseille","lat":43.27829,"lon":5.40716,"is_reserved":false,"is_disabled":false,"rental_uris":{"android":"levelo://app?vid=694679e3-89bc-474b-88d4-72f2607e9aa9","ios":"levelo://app?vid=694679e3-89bc-474b-88d4-72f2607e9aa9"},"vehicle_type_id":"4","last_reported":1729746580,"current_range_meters":6800,"station_id":"ce4bhnh2rcd13ifvqgtg","pricing_plan_id":"cebpf4jnsgd1na2vs0mg"},{"bike_id":"cc99ca6d-33d2-4a11-b5ce-f76b4cb06056","system_id":"levelo_inurba_marseille","lat":43.24392,"lon":5.37047,"is_reserved":false,"is_disabled":false,"rental_uris":{"android":"levelo://app?vid=cc99ca6d-33d2-4a11-b5ce-f76b4cb06056","ios":"levelo://app?vid=cc99ca6d-33d2-4a11-b5ce-f76b4cb06056"},"vehicle_type_id":"4","last_reported":1729746580,"current_range_meters":24800,"station_id":"ce4bhhh2rcd13ifvqfk0","pricing_plan_id":"cebpf4jnsgd1na2vs0mg"},{"bike_id":"0a1b479d-52cc-43be-b555-b0ec65cfda36","system_id":"levelo_inurba_marseille","lat":43.24069,"lon":5.3776,"is_reserved":false,"is_disabled":false,"rental_uris":{"android":"levelo://app?vid=0a1b479d-52cc-43be-b555-b0ec65cfda36","ios":"levelo://app?vid=0a1b479d-52cc-43be-b555-b0ec65cfda36"},"vehicle_type_id":"4","last_reported":1729746580,"current_range_meters":38400,"station_id":"ce4bhnp2rcd13ifvqgvg","pricing_plan_id":"cebpf4jnsgd1na2vs0mg"},{"bike_id":"aaacc01e-2072-4eb7-84b4-77017c34f869","system_id":"levelo_inurba_marseille","lat":43.28374,"lon":5.38645,"is_reserved":false,"is_disabled":false,"rental_uris":{"android":"levelo://app?vid=aaacc01e-2072-4eb7-84b4-77017c34f869","ios":"levelo://app?vid=aaacc01e-2072-4eb7-84b4-77017c34f869"},"vehicle_type_id":"4","last_reported":1729746580,"current_range_meters":27600,"station_id":"ce4bh492rcd13ifvqdvg","pricing_plan_id":"cebpf4jnsgd1na2vs0mg"},{"bike_id":"2e131b58-2054-4e77-b451-bf31396efab3","system_id":"levelo_inurba_marseille","lat":43.3089,"lon":5.37204,"is_reserved":false,"is_disabled":false,"rental_uris":{"android":"levelo://app?vid=2e131b58-2054-4e77-b451-bf31396efab3","ios":"levelo://app?vid=2e131b58-2054-4e77-b451-bf31396efab3"},"vehicle_type_id":"4","last_reported":1729746580,"current_range_meters":25600,"station_id":"ce4bguh2rcd13ifvqckg","pricing_plan_id":"cebpf4jnsgd1na2vs0mg"},{"bike_id":"c80861ab-e94d-4e79-91dd-39988fbd0a6a","system_id":"levelo_inurba_marseille","lat":43.30955,"lon":5.39055,"is_reserved":false,"is_disabled":false,"rental_uris":{"android":"levelo://app?vid=c80861ab-e94d-4e79-91dd-39988fbd0a6a","ios":"levelo://app?vid=c80861ab-e94d-4e79-91dd-39988fbd0a6a"},"vehicle_type_id":"4","last_reported":1729746580,"current_range_meters":38800,"station_id":"ce4bgup2rcd13ifvqco0","pricing_plan_id":"cebpf4jnsgd1na2vs0mg"},{"bike_id":"6abf3a03-af67-4859-8e11-a67b93278e15","system_id":"levelo_inurba_marseille","lat":43.32,"lon":5.38145,"is_reserved":false,"is_disabled":false,"rental_uris":{"android":"levelo://app?vid=6abf3a03-af67-4859-8e11-a67b93278e15","ios":"levelo://app?vid=6abf3a03-af67-4859-8e11-a67b93278e15"},"vehicle_type_id":"4","last_reported":1729746580,"current_range_meters":8000,"station_id":"ce4bhr12rcd13ifvqhpg","pricing_plan_id":"cebpf4jnsgd1na2vs0mg"},{"bike_id":"03dd22fb-5c79-41d9-9a45-aa97b9b6fd1f","system_id":"levelo_inurba_marseille","lat":43.28461,"lon":5.35881,"is_reserved":false,"is_disabled":false,"rental_uris":{"android":"levelo://app?vid=03dd22fb-5c79-41d9-9a45-aa97b9b6fd1f","ios":"levelo://app?vid=03dd22fb-5c79-41d9-9a45-aa97b9b6fd1f"},"vehicle_type_id":"4","last_reported":1729746580,"current_range_meters":38800,"station_id":"ce4bhah2rcd13ifvqei0","pricing_plan_id":"cebpf4jnsgd1na2vs0mg"},{"bike_id":"18773a67-aaf4-4d0c-9bc3-2a029c8809da","system_id":"levelo_inurba_marseille","lat":43.33605,"lon":5.41027,"is_reserved":false,"is_disabled":false,"rental_uris":{"android":"levelo://app?vid=18773a67-aaf4-4d0c-9bc3-2a029c8809da","ios":"levelo://app?vid=18773a67-aaf4-4d0c-9bc3-2a029c8809da"},"vehicle_type_id":"4","last_reported":1729746580,"current_range_meters":5600,"station_id":"ce4bhqh2rcd13ifvqhmg","pricing_plan_id":"cebpf4jnsgd1na2vs0mg"},{"bike_id":"cea9d1db-f57d-46d9-b5ea-3e72aa1fb49e","system_id":"levelo_inurba_marseille","lat":43.28463,"lon":5.35887,"is_reserved":false,"is_disabled":false,"rental_uris":{"android":"levelo://app?vid=cea9d1db-f57d-46d9-b5ea-3e72aa1fb49e","ios":"levelo://app?vid=cea9d1db-f57d-46d9-b5ea-3e72aa1fb49e"},"vehicle_type_id":"4","last_reported":1729746580,"current_range_meters":12800,"station_id":"ce4bhah2rcd13ifvqei0","pricing_plan_id":"cebpf4jnsgd1na2vs0mg"},{"bike_id":"c32c8fa1-ca72-4391-80ca-255b828a665b","system_id":"levelo_inurba_marseille","lat":43.3149,"lon":5.37299,"is_reserved":false,"is_disabled":false,"rental_uris":{"android":"levelo://app?vid=c32c8fa1-ca72-4391-80ca-255b828a665b","ios":"levelo://app?vid=c32c8fa1-ca72-4391-80ca-255b828a665b"},"vehicle_type_id":"4","last_reported":1729746580,"current_range_meters":31200,"station_id":"ce4bgt12rcd13ifvqcd0","pricing_plan_id":"cebpf4jnsgd1na2vs0mg"},{"bike_id":"36ec8878-8122-4313-9a7f-14a8878dc458","system_id":"levelo_inurba_marseille","lat":43.33737,"lon":5.37458,"is_reserved":false,"is_disabled":false,"rental_uris":{"android":"levelo://app?vid=36ec8878-8122-4313-9a7f-14a8878dc458","ios":"levelo://app?vid=36ec8878-8122-4313-9a7f-14a8878dc458"},"vehicle_type_id":"4","last_reported":1729746580,"current_range_meters":26000,"station_id":"","pricing_plan_id":"cebpf4jnsgd1na2vs0mg"},{"bike_id":"3ebe64e8-02ed-4213-bfd6-2dedfd110c25","system_id":"levelo_inurba_marseille","lat":43.27807,"lon":5.40706,"is_reserved":false,"is_disabled":false,"rental_uris":{"android":"levelo://app?vid=3ebe64e8-02ed-4213-bfd6-2dedfd110c25","ios":"levelo://app?vid=3ebe64e8-02ed-4213-bfd6-2dedfd110c25"},"vehicle_type_id":"4","last_reported":1729746580,"current_range_meters":19600,"station_id":"ce4bhnh2rcd13ifvqgtg","pricing_plan_id":"cebpf4jnsgd1na2vs0mg"},{"bike_id":"ebb2ba92-cd48-49c1-9ee2-134baa8f6dd4","system_id":"levelo_inurba_marseille","lat":43.23179,"lon":5.39987,"is_reserved":false,"is_disabled":false,"rental_uris":{"android":"levelo://app?vid=ebb2ba92-cd48-49c1-9ee2-134baa8f6dd4","ios":"levelo://app?vid=ebb2ba92-cd48-49c1-9ee2-134baa8f6dd4"},"vehicle_type_id":"4","last_reported":1729746580,"current_range_meters":17200,"station_id":"ce4bhn12rcd13ifvqgqg","pricing_plan_id":"cebpf4jnsgd1na2vs0mg"},{"bike_id":"342b8e9e-8728-45a0-9fb0-e3e7103c1a48","system_id":"levelo_inurba_marseille","lat":43.27493,"lon":5.42462,"is_reserved":false,"is_disabled":false,"rental_uris":{"android":"levelo://app?vid=342b8e9e-8728-45a0-9fb0-e3e7103c1a48","ios":"levelo://app?vid=342b8e9e-8728-45a0-9fb0-e3e7103c1a48"},"vehicle_type_id":"4","last_reported":1729746580,"current_range_meters":8400,"station_id":"ce4bhn92rcd13ifvqgrg","pricing_plan_id":"cebpf4jnsgd1na2vs0mg"},{"bike_id":"28eeec66-e2d2-4bd5-b6ff-36c187130263","system_id":"levelo_inurba_marseille","lat":43.3055,"lon":5.38428,"is_reserved":false,"is_disabled":false,"rental_uris":{"android":"levelo://app?vid=28eeec66-e2d2-4bd5-b6ff-36c187130263","ios":"levelo://app?vid=28eeec66-e2d2-4bd5-b6ff-36c187130263"},"vehicle_type_id":"4","last_reported":1729746580,"current_range_meters":38800,"station_id":"ce4bgg92rcd13ifvqb30","pricing_plan_id":"cebpf4jnsgd1na2vs0mg"},{"bike_id":"3e6dacef-7721-4fd6-908f-05fbf9bc0354","system_id":"levelo_inurba_marseille","lat":43.23194,"lon":5.35557,"is_reserved":false,"is_disabled":false,"rental_uris":{"android":"levelo://app?vid=3e6dacef-7721-4fd6-908f-05fbf9bc0354","ios":"levelo://app?vid=3e6dacef-7721-4fd6-908f-05fbf9bc0354"},"vehicle_type_id":"4","last_reported":1729746580,"current_range_meters":37600,"station_id":"ce4bhu92rcd13ifvqi70","pricing_plan_id":"cebpf4jnsgd1na2vs0mg"},{"bike_id":"495d7bba-2e6f-4e8b-b10b-420b00e64d17","system_id":"levelo_inurba_marseille","lat":43.29515,"lon":5.39418,"is_reserved":false,"is_disabled":false,"rental_uris":{"android":"levelo://app?vid=495d7bba-2e6f-4e8b-b10b-420b00e64d17","ios":"levelo://app?vid=495d7bba-2e6f-4e8b-b10b-420b00e64d17"},"vehicle_type_id":"4","last_reported":1729746580,"current_range_meters":38000,"station_id":"ce4bh292rcd13ifvqdf0","pricing_plan_id":"cebpf4jnsgd1na2vs0mg"},{"bike_id":"2e1e6313-596d-4bc2-9ce6-3bb4d2c6d1ef","system_id":"levelo_inurba_marseille","lat":43.28365,"lon":5.38624,"is_reserved":false,"is_disabled":false,"rental_uris":{"android":"levelo://app?vid=2e1e6313-596d-4bc2-9ce6-3bb4d2c6d1ef","ios":"levelo://app?vid=2e1e6313-596d-4bc2-9ce6-3bb4d2c6d1ef"},"vehicle_type_id":"4","last_reported":1729746580,"current_range_meters":38800,"station_id":"ce4bh492rcd13ifvqdvg","pricing_plan_id":"cebpf4jnsgd1na2vs0mg"},{"bike_id":"c6376113-7a27-485a-ba93-1ff2a4ce0fc8","system_id":"levelo_inurba_marseille","lat":43.28483,"lon":5.38574,"is_reserved":false,"is_disabled":false,"rental_uris":{"android":"levelo://app?vid=c6376113-7a27-485a-ba93-1ff2a4ce0fc8","ios":"levelo://app?vid=c6376113-7a27-485a-ba93-1ff2a4ce0fc8"},"vehicle_type_id":"4","last_reported":1729746580,"current_range_meters":36000,"station_id":"ce4bh8p2rcd13ifvqeb0","pricing_plan_id":"cebpf4jnsgd1na2vs0mg"},{"bike_id":"b8c9a954-8a45-4a7c-9122-e43683fb8fcc","system_id":"levelo_inurba_marseille","lat":43.246471,"lon":5.388987,"is_reserved":false,"is_disabled":false,"rental_uris":{"android":"levelo://app?vid=b8c9a954-8a45-4a7c-9122-e43683fb8fcc","ios":"levelo://app?vid=b8c9a954-8a45-4a7c-9122-e43683fb8fcc"},"vehicle_type_id":"4","last_reported":1729746580,"current_range_meters":38000,"station_id":"ce4bhg12rcd13ifvqf60","pricing_plan_id":"cebpf4jnsgd1na2vs0mg"},{"bike_id":"97ce6431-cdfe-4c86-8575-534875aed7f5","system_id":"levelo_inurba_marseille","lat":43.3053,"lon":5.36659,"is_reserved":false,"is_disabled":false,"rental_uris":{"android":"levelo://app?vid=97ce6431-cdfe-4c86-8575-534875aed7f5","ios":"levelo://app?vid=97ce6431-cdfe-4c86-8575-534875aed7f5"},"vehicle_type_id":"4","last_reported":1729746580,"current_range_meters":8800,"station_id":"","pricing_plan_id":"cebpf4jnsgd1na2vs0mg"},{"bike_id":"bc8c5f05-14d5-4aff-bd18-3ffa8d394552","system_id":"levelo_inurba_marseille","lat":43.30598,"lon":5.37239,"is_reserved":false,"is_disabled":false,"rental_uris":{"android":"levelo://app?vid=bc8c5f05-14d5-4aff-bd18-3ffa8d394552","ios":"levelo://app?vid=bc8c5f05-14d5-4aff-bd18-3ffa8d394552"},"vehicle_type_id":"4","last_reported":1729746580,"current_range_meters":26800,"station_id":"ce4bgqh2rcd13ifvqc4g","pricing_plan_id":"cebpf4jnsgd1na2vs0mg"},{"bike_id":"bc4efb73-4734-4293-a1eb-82c722d0ec12","system_id":"levelo_inurba_marseille","lat":43.25502,"lon":5.37649,"is_reserved":false,"is_disabled":false,"rental_uris":{"android":"levelo://app?vid=bc4efb73-4734-4293-a1eb-82c722d0ec12","ios":"levelo://app?vid=bc4efb73-4734-4293-a1eb-82c722d0ec12"},"vehicle_type_id":"4","last_reported":1729746580,"current_range_meters":38000,"station_id":"ce4bhh12rcd13ifvqff0","pricing_plan_id":"cebpf4jnsgd1na2vs0mg"},{"bike_id":"4e6761e9-7a62-4e39-b016-0258a469d9f7","system_id":"levelo_inurba_marseille","lat":43.25832,"lon":5.39426,"is_reserved":false,"is_disabled":false,"rental_uris":{"android":"levelo://app?vid=4e6761e9-7a62-4e39-b016-0258a469d9f7","ios":"levelo://app?vid=4e6761e9-7a62-4e39-b016-0258a469d9f7"},"vehicle_type_id":"4","last_reported":1729746580,"current_range_meters":32000,"station_id":"ce4bhip2rcd13ifvqft0","pricing_plan_id":"cebpf4jnsgd1na2vs0mg"},{"bike_id":"66b05623-5668-42d4-96b3-2489f31ac472","system_id":"levelo_inurba_marseille","lat":43.2694,"lon":5.40241,"is_reserved":false,"is_disabled":false,"rental_uris":{"android":"levelo://app?vid=66b05623-5668-42d4-96b3-2489f31ac472","ios":"levelo://app?vid=66b05623-5668-42d4-96b3-2489f31ac472"},"vehicle_type_id":"4","last_reported":1729746580,"current_range_meters":37600,"station_id":"cjm6bp8fraef2m0cb0m0","pricing_plan_id":"cebpf4jnsgd1na2vs0mg"},{"bike_id":"b69d0c64-0724-4563-ab4e-cdb5166b1cd5","system_id":"levelo_inurba_marseille","lat":43.33108,"lon":5.38207,"is_reserved":false,"is_disabled":false,"rental_uris":{"android":"levelo://app?vid=b69d0c64-0724-4563-ab4e-cdb5166b1cd5","ios":"levelo://app?vid=b69d0c64-0724-4563-ab4e-cdb5166b1cd5"},"vehicle_type_id":"4","last_reported":1729746580,"current_range_meters":28000,"station_id":"","pricing_plan_id":"cebpf4jnsgd1na2vs0mg"},{"bike_id":"87c652f1-9909-4dc3-afe3-1f22c557134a","system_id":"levelo_inurba_marseille","lat":43.27053,"lon":5.40271,"is_reserved":false,"is_disabled":false,"rental_uris":{"android":"levelo://app?vid=87c652f1-9909-4dc3-afe3-1f22c557134a","ios":"levelo://app?vid=87c652f1-9909-4dc3-afe3-1f22c557134a"},"vehicle_type_id":"4","last_reported":1729746580,"current_range_meters":32400,"station_id":"ce4bhk92rcd13ifvqgc0","pricing_plan_id":"cebpf4jnsgd1na2vs0mg"},{"bike_id":"039d9520-5588-49ee-bfb9-14e6aff89ebf","system_id":"levelo_inurba_marseille","lat":43.29131,"lon":5.38303,"is_reserved":false,"is_disabled":false,"rental_uris":{"android":"levelo://app?vid=039d9520-5588-49ee-bfb9-14e6aff89ebf","ios":"levelo://app?vid=039d9520-5588-49ee-bfb9-14e6aff89ebf"},"vehicle_type_id":"4","last_reported":1729746580,"current_range_meters":27600,"station_id":"ce4bgup2rcd13ifvqcn0","pricing_plan_id":"cebpf4jnsgd1na2vs0mg"},{"bike_id":"01a9d8cc-aa8c-46ef-ae9f-5314ce56efd1","system_id":"levelo_inurba_marseille","lat":43.24182,"lon":5.39722,"is_reserved":false,"is_disabled":false,"rental_uris":{"android":"levelo://app?vid=01a9d8cc-aa8c-46ef-ae9f-5314ce56efd1","ios":"levelo://app?vid=01a9d8cc-aa8c-46ef-ae9f-5314ce56efd1"},"vehicle_type_id":"4","last_reported":1729746580,"current_range_meters":2800,"station_id":"ce4bhn12rcd13ifvqgpg","pricing_plan_id":"cebpf4jnsgd1na2vs0mg"},{"bike_id":"ce122c4a-9cda-429c-9da4-662fecb066a8","system_id":"levelo_inurba_marseille","lat":43.28479,"lon":5.38548,"is_reserved":false,"is_disabled":false,"rental_uris":{"android":"levelo://app?vid=ce122c4a-9cda-429c-9da4-662fecb066a8","ios":"levelo://app?vid=ce122c4a-9cda-429c-9da4-662fecb066a8"},"vehicle_type_id":"4","last_reported":1729746580,"current_range_meters":38800,"station_id":"ce4bh8p2rcd13ifvqeb0","pricing_plan_id":"cebpf4jnsgd1na2vs0mg"},{"bike_id":"89d7dad2-f110-49a2-b81e-0ff960506c0a","system_id":"levelo_inurba_marseille","lat":43.28712,"lon":5.4,"is_reserved":false,"is_disabled":false,"rental_uris":{"android":"levelo://app?vid=89d7dad2-f110-49a2-b81e-0ff960506c0a","ios":"levelo://app?vid=89d7dad2-f110-49a2-b81e-0ff960506c0a"},"vehicle_type_id":"4","last_reported":1729746580,"current_range_meters":38400,"station_id":"ce4bho92rcd13ifvqh3g","pricing_plan_id":"cebpf4jnsgd1na2vs0mg"},{"bike_id":"24c20e40-d0c4-4e46-9a0f-866947a231d3","system_id":"levelo_inurba_marseille","lat":43.28709,"lon":5.37395,"is_reserved":false,"is_disabled":false,"rental_uris":{"android":"levelo://app?vid=24c20e40-d0c4-4e46-9a0f-866947a231d3","ios":"levelo://app?vid=24c20e40-d0c4-4e46-9a0f-866947a231d3"},"vehicle_type_id":"4","last_reported":1729746580,"current_range_meters":9200,"station_id":"ce4bh3p2rcd13ifvqdq0","pricing_plan_id":"cebpf4jnsgd1na2vs0mg"},{"bike_id":"67614826-965b-46dd-a77e-57f3194790c7","system_id":"levelo_inurba_marseille","lat":43.307824,"lon":5.376515,"is_reserved":false,"is_disabled":false,"rental_uris":{"android":"levelo://app?vid=67614826-965b-46dd-a77e-57f3194790c7","ios":"levelo://app?vid=67614826-965b-46dd-a77e-57f3194790c7"},"vehicle_type_id":"4","last_reported":1729746580,"current_range_meters":14800,"station_id":"ce4bgv92rcd13ifvqcq0","pricing_plan_id":"cebpf4jnsgd1na2vs0mg"},{"bike_id":"fde709f1-a6ac-4d43-b48e-b44d88b498ae","system_id":"levelo_inurba_marseille","lat":43.28107,"lon":5.37828,"is_reserved":false,"is_disabled":false,"rental_uris":{"android":"levelo://app?vid=fde709f1-a6ac-4d43-b48e-b44d88b498ae","ios":"levelo://app?vid=fde709f1-a6ac-4d43-b48e-b44d88b498ae"},"vehicle_type_id":"4","last_reported":1729746580,"current_range_meters":38800,"station_id":"ce4bha12rcd13ifvqee0","pricing_plan_id":"cebpf4jnsgd1na2vs0mg"},{"bike_id":"aa99f811-363e-46a8-aef9-b5e22fccd73b","system_id":"levelo_inurba_marseille","lat":43.27891,"lon":5.38008,"is_reserved":false,"is_disabled":false,"rental_uris":{"android":"levelo://app?vid=aa99f811-363e-46a8-aef9-b5e22fccd73b","ios":"levelo://app?vid=aa99f811-363e-46a8-aef9-b5e22fccd73b"},"vehicle_type_id":"4","last_reported":1729746580,"current_range_meters":38800,"station_id":"ce4bhf92rcd13ifvqf50","pricing_plan_id":"cebpf4jnsgd1na2vs0mg"},{"bike_id":"e2296e9b-eed6-4fd1-ac02-4223589e07f6","system_id":"levelo_inurba_marseille","lat":43.30595,"lon":5.37231,"is_reserved":false,"is_disabled":false,"rental_uris":{"android":"levelo://app?vid=e2296e9b-eed6-4fd1-ac02-4223589e07f6","ios":"levelo://app?vid=e2296e9b-eed6-4fd1-ac02-4223589e07f6"},"vehicle_type_id":"4","last_reported":1729746580,"current_range_meters":19600,"station_id":"ce4bgqh2rcd13ifvqc4g","pricing_plan_id":"cebpf4jnsgd1na2vs0mg"},{"bike_id":"787a043b-4421-4306-8bcb-bb4dc495eaa9","system_id":"levelo_inurba_marseille","lat":43.2846,"lon":5.38423,"is_reserved":false,"is_disabled":false,"rental_uris":{"android":"levelo://app?vid=787a043b-4421-4306-8bcb-bb4dc495eaa9","ios":"levelo://app?vid=787a043b-4421-4306-8bcb-bb4dc495eaa9"},"vehicle_type_id":"4","last_reported":1729746580,"current_range_meters":21600,"station_id":"ce4bh512rcd13ifvqe3g","pricing_plan_id":"cebpf4jnsgd1na2vs0mg"},{"bike_id":"d7515cbf-5aa1-41fd-b258-49d42fd5997e","system_id":"levelo_inurba_marseille","lat":43.30464,"lon":5.3791,"is_reserved":false,"is_disabled":false,"rental_uris":{"android":"levelo://app?vid=d7515cbf-5aa1-41fd-b258-49d42fd5997e","ios":"levelo://app?vid=d7515cbf-5aa1-41fd-b258-49d42fd5997e"},"vehicle_type_id":"4","last_reported":1729746580,"current_range_meters":6800,"station_id":"ce4bgup2rcd13ifvqcn0","pricing_plan_id":"cebpf4jnsgd1na2vs0mg"},{"bike_id":"34c2d35f-94a2-453c-b236-1f771fc5b604","system_id":"levelo_inurba_marseille","lat":43.2397,"lon":5.36633,"is_reserved":false,"is_disabled":false,"rental_uris":{"android":"levelo://app?vid=34c2d35f-94a2-453c-b236-1f771fc5b604","ios":"levelo://app?vid=34c2d35f-94a2-453c-b236-1f771fc5b604"},"vehicle_type_id":"4","last_reported":1729746580,"current_range_meters":38000,"station_id":"ce4bhi12rcd13ifvqfp0","pricing_plan_id":"cebpf4jnsgd1na2vs0mg"},{"bike_id":"2763fb51-5aeb-45c6-9c3a-23eb0832edec","system_id":"levelo_inurba_marseille","lat":43.29251,"lon":5.40903,"is_reserved":false,"is_disabled":false,"rental_uris":{"android":"levelo://app?vid=2763fb51-5aeb-45c6-9c3a-23eb0832edec","ios":"levelo://app?vid=2763fb51-5aeb-45c6-9c3a-23eb0832edec"},"vehicle_type_id":"4","last_reported":1729746580,"current_range_meters":38000,"station_id":"ce4bh192rcd13ifvqdc0","pricing_plan_id":"cebpf4jnsgd1na2vs0mg"},{"bike_id":"96d40975-7092-47a9-98a5-5115382e751f","system_id":"levelo_inurba_marseille","lat":43.29254,"lon":5.40911,"is_reserved":false,"is_disabled":false,"rental_uris":{"android":"levelo://app?vid=96d40975-7092-47a9-98a5-5115382e751f","ios":"levelo://app?vid=96d40975-7092-47a9-98a5-5115382e751f"},"vehicle_type_id":"4","last_reported":1729746580,"current_range_meters":38800,"station_id":"ce4bh192rcd13ifvqdc0","pricing_plan_id":"cebpf4jnsgd1na2vs0mg"},{"bike_id":"380cebd2-629c-405c-b64b-401aabe3bd03","system_id":"levelo_inurba_marseille","lat":43.2887,"lon":5.3586,"is_reserved":false,"is_disabled":false,"rental_uris":{"android":"levelo://app?vid=380cebd2-629c-405c-b64b-401aabe3bd03","ios":"levelo://app?vid=380cebd2-629c-405c-b64b-401aabe3bd03"},"vehicle_type_id":"4","last_reported":1729746580,"current_range_meters":36000,"station_id":"ce4bhb12rcd13ifvqem0","pricing_plan_id":"cebpf4jnsgd1na2vs0mg"},{"bike_id":"5e347b29-85c9-4926-993a-059ad0e4e49a","system_id":"levelo_inurba_marseille","lat":43.30149,"lon":5.38071,"is_reserved":false,"is_disabled":false,"rental_uris":{"android":"levelo://app?vid=5e347b29-85c9-4926-993a-059ad0e4e49a","ios":"levelo://app?vid=5e347b29-85c9-4926-993a-059ad0e4e49a"},"vehicle_type_id":"4","last_reported":1729746580,"current_range_meters":16400,"station_id":"ce4bgjp2rcd13ifvqbh0","pricing_plan_id":"cebpf4jnsgd1na2vs0mg"},{"bike_id":"2e8e7736-5b0b-4bf8-ba25-255b089e4b92","system_id":"levelo_inurba_marseille","lat":43.28687,"lon":5.39984,"is_reserved":false,"is_disabled":false,"rental_uris":{"android":"levelo://app?vid=2e8e7736-5b0b-4bf8-ba25-255b089e4b92","ios":"levelo://app?vid=2e8e7736-5b0b-4bf8-ba25-255b089e4b92"},"vehicle_type_id":"4","last_reported":1729746580,"current_range_meters":37600,"station_id":"ce4bho92rcd13ifvqh3g","pricing_plan_id":"cebpf4jnsgd1na2vs0mg"},{"bike_id":"fc98b86f-6f66-4864-96d0-5dffffb9adc6","system_id":"levelo_inurba_marseille","lat":43.33761,"lon":5.37442,"is_reserved":false,"is_disabled":false,"rental_uris":{"android":"levelo://app?vid=fc98b86f-6f66-4864-96d0-5dffffb9adc6","ios":"levelo://app?vid=fc98b86f-6f66-4864-96d0-5dffffb9adc6"},"vehicle_type_id":"4","last_reported":1729746580,"current_range_meters":27200,"station_id":"","pricing_plan_id":"cebpf4jnsgd1na2vs0mg"},{"bike_id":"9dfaa351-ad75-4aff-9e9a-7e244dbeff4d","system_id":"levelo_inurba_marseille","lat":43.28352,"lon":5.38115,"is_reserved":false,"is_disabled":false,"rental_uris":{"android":"levelo://app?vid=9dfaa351-ad75-4aff-9e9a-7e244dbeff4d","ios":"levelo://app?vid=9dfaa351-ad75-4aff-9e9a-7e244dbeff4d"},"vehicle_type_id":"4","last_reported":1729746580,"current_range_meters":38000,"station_id":"ce4bh412rcd13ifvqdr0","pricing_plan_id":"cebpf4jnsgd1na2vs0mg"},{"bike_id":"a0867b31-14ba-4b04-b603-d6d8cc117eb0","system_id":"levelo_inurba_marseille","lat":43.32659,"lon":5.40992,"is_reserved":false,"is_disabled":false,"rental_uris":{"android":"levelo://app?vid=a0867b31-14ba-4b04-b603-d6d8cc117eb0","ios":"levelo://app?vid=a0867b31-14ba-4b04-b603-d6d8cc117eb0"},"vehicle_type_id":"4","last_reported":1729746580,"current_range_meters":38800,"station_id":"ce4bhpp2rcd13ifvqhgg","pricing_plan_id":"cebpf4jnsgd1na2vs0mg"},{"bike_id":"b0a71160-4dba-4146-bb1d-3741c34398e9","system_id":"levelo_inurba_marseille","lat":43.30929,"lon":5.40153,"is_reserved":false,"is_disabled":false,"rental_uris":{"android":"levelo://app?vid=b0a71160-4dba-4146-bb1d-3741c34398e9","ios":"levelo://app?vid=b0a71160-4dba-4146-bb1d-3741c34398e9"},"vehicle_type_id":"4","last_reported":1729746580,"current_range_meters":37600,"station_id":"ce4bgvp2rcd13ifvqct0","pricing_plan_id":"cebpf4jnsgd1na2vs0mg"},{"bike_id":"190ab3f4-0dd0-4288-849a-ab444ee4de87","system_id":"levelo_inurba_marseille","lat":43.28567,"lon":5.39506,"is_reserved":false,"is_disabled":false,"rental_uris":{"android":"levelo://app?vid=190ab3f4-0dd0-4288-849a-ab444ee4de87","ios":"levelo://app?vid=190ab3f4-0dd0-4288-849a-ab444ee4de87"},"vehicle_type_id":"4","last_reported":1729746580,"current_range_meters":38800,"station_id":"ce4bh292rcd13ifvqdg0","pricing_plan_id":"cebpf4jnsgd1na2vs0mg"},{"bike_id":"12a11a00-cd1e-442a-8e8b-2c2a06ae2fb4","system_id":"levelo_inurba_marseille","lat":43.31277,"lon":5.40159,"is_reserved":false,"is_disabled":false,"rental_uris":{"android":"levelo://app?vid=12a11a00-cd1e-442a-8e8b-2c2a06ae2fb4","ios":"levelo://app?vid=12a11a00-cd1e-442a-8e8b-2c2a06ae2fb4"},"vehicle_type_id":"4","last_reported":1729746580,"current_range_meters":38800,"station_id":"ce4bh092rcd13ifvqd30","pricing_plan_id":"cebpf4jnsgd1na2vs0mg"},{"bike_id":"7aa910a1-32e6-41bf-bc9d-1ee459afbc77","system_id":"levelo_inurba_marseille","lat":43.28424,"lon":5.37516,"is_reserved":false,"is_disabled":false,"rental_uris":{"android":"levelo://app?vid=7aa910a1-32e6-41bf-bc9d-1ee459afbc77","ios":"levelo://app?vid=7aa910a1-32e6-41bf-bc9d-1ee459afbc77"},"vehicle_type_id":"4","last_reported":1729746580,"current_range_meters":18000,"station_id":"ce4bh412rcd13ifvqds0","pricing_plan_id":"cebpf4jnsgd1na2vs0mg"},{"bike_id":"15bf3f86-f551-45cf-aa6e-89d9451c8125","system_id":"levelo_inurba_marseille","lat":43.28463,"lon":5.35892,"is_reserved":false,"is_disabled":false,"rental_uris":{"android":"levelo://app?vid=15bf3f86-f551-45cf-aa6e-89d9451c8125","ios":"levelo://app?vid=15bf3f86-f551-45cf-aa6e-89d9451c8125"},"vehicle_type_id":"4","last_reported":1729746580,"current_range_meters":38800,"station_id":"ce4bhah2rcd13ifvqei0","pricing_plan_id":"cebpf4jnsgd1na2vs0mg"},{"bike_id":"d4e73e0f-35c1-478b-8630-1c59c3f1caea","system_id":"levelo_inurba_marseille","lat":43.31074,"lon":5.383509,"is_reserved":false,"is_disabled":false,"rental_uris":{"android":"levelo://app?vid=d4e73e0f-35c1-478b-8630-1c59c3f1caea","ios":"levelo://app?vid=d4e73e0f-35c1-478b-8630-1c59c3f1caea"},"vehicle_type_id":"4","last_reported":1729746580,"current_range_meters":13600,"station_id":"ce4bgv92rcd13ifvqcr0","pricing_plan_id":"cebpf4jnsgd1na2vs0mg"},{"bike_id":"5933de8d-7245-4fc6-9cfe-72a4f51f3340","system_id":"levelo_inurba_marseille","lat":43.31331,"lon":5.39691,"is_reserved":false,"is_disabled":false,"rental_uris":{"android":"levelo://app?vid=5933de8d-7245-4fc6-9cfe-72a4f51f3340","ios":"levelo://app?vid=5933de8d-7245-4fc6-9cfe-72a4f51f3340"},"vehicle_type_id":"4","last_reported":1729746580,"current_range_meters":38800,"station_id":"ce4bgvp2rcd13ifvqcu0","pricing_plan_id":"cebpf4jnsgd1na2vs0mg"},{"bike_id":"08a41d86-bf74-42d1-b350-4800246eef64","system_id":"levelo_inurba_marseille","lat":43.24177,"lon":5.38796,"is_reserved":false,"is_disabled":false,"rental_uris":{"android":"levelo://app?vid=08a41d86-bf74-42d1-b350-4800246eef64","ios":"levelo://app?vid=08a41d86-bf74-42d1-b350-4800246eef64"},"vehicle_type_id":"4","last_reported":1729746580,"current_range_meters":32400,"station_id":"","pricing_plan_id":"cebpf4jnsgd1na2vs0mg"},{"bike_id":"db69ea4c-1c7d-43a0-b7f1-e0da5b76f2ea","system_id":"levelo_inurba_marseille","lat":43.28428,"lon":5.45958,"is_reserved":false,"is_disabled":false,"rental_uris":{"android":"levelo://app?vid=db69ea4c-1c7d-43a0-b7f1-e0da5b76f2ea","ios":"levelo://app?vid=db69ea4c-1c7d-43a0-b7f1-e0da5b76f2ea"},"vehicle_type_id":"4","last_reported":1729746580,"current_range_meters":10000,"station_id":"","pricing_plan_id":"cebpf4jnsgd1na2vs0mg"},{"bike_id":"d3438caa-62a2-49c4-ac73-4c5ed5b399cd","system_id":"levelo_inurba_marseille","lat":43.30649,"lon":5.40087,"is_reserved":false,"is_disabled":false,"rental_uris":{"android":"levelo://app?vid=d3438caa-62a2-49c4-ac73-4c5ed5b399cd","ios":"levelo://app?vid=d3438caa-62a2-49c4-ac73-4c5ed5b399cd"},"vehicle_type_id":"4","last_reported":1729746580,"current_range_meters":38800,"station_id":"ce4bh112rcd13ifvqda0","pricing_plan_id":"cebpf4jnsgd1na2vs0mg"},{"bike_id":"1cd8084c-ce68-4d27-914c-ee4521a0ba66","system_id":"levelo_inurba_marseille","lat":43.28407,"lon":5.37517,"is_reserved":false,"is_disabled":false,"rental_uris":{"android":"levelo://app?vid=1cd8084c-ce68-4d27-914c-ee4521a0ba66","ios":"levelo://app?vid=1cd8084c-ce68-4d27-914c-ee4521a0ba66"},"vehicle_type_id":"4","last_reported":1729746580,"current_range_meters":4000,"station_id":"ce4bh412rcd13ifvqds0","pricing_plan_id":"cebpf4jnsgd1na2vs0mg"},{"bike_id":"0ae1663c-5bb3-40eb-aebe-2e4d249f3588","system_id":"levelo_inurba_marseille","lat":43.31331,"lon":5.39698,"is_reserved":false,"is_disabled":false,"rental_uris":{"android":"levelo://app?vid=0ae1663c-5bb3-40eb-aebe-2e4d249f3588","ios":"levelo://app?vid=0ae1663c-5bb3-40eb-aebe-2e4d249f3588"},"vehicle_type_id":"4","last_reported":1729746580,"current_range_meters":33200,"station_id":"ce4bgvp2rcd13ifvqcu0","pricing_plan_id":"cebpf4jnsgd1na2vs0mg"},{"bike_id":"86869bbe-711e-4293-b1ec-b076c7845480","system_id":"levelo_inurba_marseille","lat":43.23184,"lon":5.39988,"is_reserved":false,"is_disabled":false,"rental_uris":{"android":"levelo://app?vid=86869bbe-711e-4293-b1ec-b076c7845480","ios":"levelo://app?vid=86869bbe-711e-4293-b1ec-b076c7845480"},"vehicle_type_id":"4","last_reported":1729746580,"current_range_meters":38800,"station_id":"ce4bhn12rcd13ifvqgqg","pricing_plan_id":"cebpf4jnsgd1na2vs0mg"},{"bike_id":"1a8a522f-8c9f-4ee6-bfba-536ceb11403e","system_id":"levelo_inurba_marseille","lat":43.28152,"lon":5.42643,"is_reserved":false,"is_disabled":false,"rental_uris":{"android":"levelo://app?vid=1a8a522f-8c9f-4ee6-bfba-536ceb11403e","ios":"levelo://app?vid=1a8a522f-8c9f-4ee6-bfba-536ceb11403e"},"vehicle_type_id":"4","last_reported":1729746580,"current_range_meters":4800,"station_id":"ce4bhnh2rcd13ifvqgug","pricing_plan_id":"cebpf4jnsgd1na2vs0mg"},{"bike_id":"b995583f-b1c8-4b22-98b9-9d5eb39de5d2","system_id":"levelo_inurba_marseille","lat":43.30144,"lon":5.38074,"is_reserved":false,"is_disabled":false,"rental_uris":{"android":"levelo://app?vid=b995583f-b1c8-4b22-98b9-9d5eb39de5d2","ios":"levelo://app?vid=b995583f-b1c8-4b22-98b9-9d5eb39de5d2"},"vehicle_type_id":"4","last_reported":1729746580,"current_range_meters":32000,"station_id":"ce4bgjp2rcd13ifvqbh0","pricing_plan_id":"cebpf4jnsgd1na2vs0mg"},{"bike_id":"53eb66b3-3244-460e-b9c2-b5ecf87a638d","system_id":"levelo_inurba_marseille","lat":43.33088,"lon":5.43146,"is_reserved":false,"is_disabled":false,"rental_uris":{"android":"levelo://app?vid=53eb66b3-3244-460e-b9c2-b5ecf87a638d","ios":"levelo://app?vid=53eb66b3-3244-460e-b9c2-b5ecf87a638d"},"vehicle_type_id":"4","last_reported":1729746580,"current_range_meters":22000,"station_id":"","pricing_plan_id":"cebpf4jnsgd1na2vs0mg"},{"bike_id":"18649550-08ee-4931-9cda-b8265bc3c7aa","system_id":"levelo_inurba_marseille","lat":43.269435,"lon":5.402476,"is_reserved":false,"is_disabled":false,"rental_uris":{"android":"levelo://app?vid=18649550-08ee-4931-9cda-b8265bc3c7aa","ios":"levelo://app?vid=18649550-08ee-4931-9cda-b8265bc3c7aa"},"vehicle_type_id":"4","last_reported":1729746580,"current_range_meters":14000,"station_id":"cjm6bp8fraef2m0cb0m0","pricing_plan_id":"cebpf4jnsgd1na2vs0mg"},{"bike_id":"f1263351-9f0f-41ba-b8f6-38db19b22437","system_id":"levelo_inurba_marseille","lat":43.30472,"lon":5.37916,"is_reserved":false,"is_disabled":false,"rental_uris":{"android":"levelo://app?vid=f1263351-9f0f-41ba-b8f6-38db19b22437","ios":"levelo://app?vid=f1263351-9f0f-41ba-b8f6-38db19b22437"},"vehicle_type_id":"4","last_reported":1729746580,"current_range_meters":28400,"station_id":"ce4bgup2rcd13ifvqcn0","pricing_plan_id":"cebpf4jnsgd1na2vs0mg"},{"bike_id":"71e623a9-6987-43d4-929e-8d1572fd78e1","system_id":"levelo_inurba_marseille","lat":43.30786,"lon":5.37654,"is_reserved":false,"is_disabled":false,"rental_uris":{"android":"levelo://app?vid=71e623a9-6987-43d4-929e-8d1572fd78e1","ios":"levelo://app?vid=71e623a9-6987-43d4-929e-8d1572fd78e1"},"vehicle_type_id":"4","last_reported":1729746580,"current_range_meters":19600,"station_id":"ce4bgv92rcd13ifvqcq0","pricing_plan_id":"cebpf4jnsgd1na2vs0mg"},{"bike_id":"66a4f883-7fbf-4cd6-a3f9-0c4cdf338648","system_id":"levelo_inurba_marseille","lat":43.3089,"lon":5.39644,"is_reserved":false,"is_disabled":false,"rental_uris":{"android":"levelo://app?vid=66a4f883-7fbf-4cd6-a3f9-0c4cdf338648","ios":"levelo://app?vid=66a4f883-7fbf-4cd6-a3f9-0c4cdf338648"},"vehicle_type_id":"4","last_reported":1729746580,"current_range_meters":28400,"station_id":"ce4bh012rcd13ifvqcv0","pricing_plan_id":"cebpf4jnsgd1na2vs0mg"},{"bike_id":"158bcdbf-dd61-4bdb-af54-9e4b45931736","system_id":"levelo_inurba_marseille","lat":43.280386,"lon":5.369374,"is_reserved":false,"is_disabled":false,"rental_uris":{"android":"levelo://app?vid=158bcdbf-dd61-4bdb-af54-9e4b45931736","ios":"levelo://app?vid=158bcdbf-dd61-4bdb-af54-9e4b45931736"},"vehicle_type_id":"4","last_reported":1729746580,"current_range_meters":38000,"station_id":"ce4bha12rcd13ifvqef0","pricing_plan_id":"cebpf4jnsgd1na2vs0mg"},{"bike_id":"3a8f7674-88fb-4d6e-b15d-6a7a3d976266","system_id":"levelo_inurba_marseille","lat":43.31174,"lon":5.38712,"is_reserved":false,"is_disabled":false,"rental_uris":{"android":"levelo://app?vid=3a8f7674-88fb-4d6e-b15d-6a7a3d976266","ios":"levelo://app?vid=3a8f7674-88fb-4d6e-b15d-6a7a3d976266"},"vehicle_type_id":"4","last_reported":1729746580,"current_range_meters":37600,"station_id":"ce4bgv12rcd13ifvqcp0","pricing_plan_id":"cebpf4jnsgd1na2vs0mg"},{"bike_id":"32090a56-d013-4d5c-8379-d81e2e46055b","system_id":"levelo_inurba_marseille","lat":43.24668,"lon":5.38175,"is_reserved":false,"is_disabled":false,"rental_uris":{"android":"levelo://app?vid=32090a56-d013-4d5c-8379-d81e2e46055b","ios":"levelo://app?vid=32090a56-d013-4d5c-8379-d81e2e46055b"},"vehicle_type_id":"4","last_reported":1729746580,"current_range_meters":7200,"station_id":"ce4bhih2rcd13ifvqfr0","pricing_plan_id":"cebpf4jnsgd1na2vs0mg"},{"bike_id":"ee56864d-0289-4ab0-b1d9-4e118a6c50f5","system_id":"levelo_inurba_marseille","lat":43.341504,"lon":5.408973,"is_reserved":false,"is_disabled":false,"rental_uris":{"android":"levelo://app?vid=ee56864d-0289-4ab0-b1d9-4e118a6c50f5","ios":"levelo://app?vid=ee56864d-0289-4ab0-b1d9-4e118a6c50f5"},"vehicle_type_id":"4","last_reported":1729746580,"current_range_meters":38800,"station_id":"ce4bhqh2rcd13ifvqhlg","pricing_plan_id":"cebpf4jnsgd1na2vs0mg"},{"bike_id":"03817e17-e2e3-401b-ace0-554729b932d7","system_id":"levelo_inurba_marseille","lat":43.308,"lon":5.3816,"is_reserved":false,"is_disabled":false,"rental_uris":{"android":"levelo://app?vid=03817e17-e2e3-401b-ace0-554729b932d7","ios":"levelo://app?vid=03817e17-e2e3-401b-ace0-554729b932d7"},"vehicle_type_id":"4","last_reported":1729746580,"current_range_meters":9600,"station_id":"ce4bgt12rcd13ifvqce0","pricing_plan_id":"cebpf4jnsgd1na2vs0mg"},{"bike_id":"a2787c06-c966-48a0-856b-82de179c8951","system_id":"levelo_inurba_marseille","lat":43.30883,"lon":5.39653,"is_reserved":false,"is_disabled":false,"rental_uris":{"android":"levelo://app?vid=a2787c06-c966-48a0-856b-82de179c8951","ios":"levelo://app?vid=a2787c06-c966-48a0-856b-82de179c8951"},"vehicle_type_id":"4","last_reported":1729746580,"current_range_meters":28400,"station_id":"ce4bh012rcd13ifvqcv0","pricing_plan_id":"cebpf4jnsgd1na2vs0mg"},{"bike_id":"7485068c-a88f-4a63-93f1-c517b3ac24fe","system_id":"levelo_inurba_marseille","lat":43.28568,"lon":5.39504,"is_reserved":false,"is_disabled":false,"rental_uris":{"android":"levelo://app?vid=7485068c-a88f-4a63-93f1-c517b3ac24fe","ios":"levelo://app?vid=7485068c-a88f-4a63-93f1-c517b3ac24fe"},"vehicle_type_id":"4","last_reported":1729746580,"current_range_meters":9600,"station_id":"ce4bh292rcd13ifvqdg0","pricing_plan_id":"cebpf4jnsgd1na2vs0mg"},{"bike_id":"3a14a8b6-bb6d-49ce-a05e-f2620ff49d64","system_id":"levelo_inurba_marseille","lat":43.255851,"lon":5.382425,"is_reserved":false,"is_disabled":false,"rental_uris":{"android":"levelo://app?vid=3a14a8b6-bb6d-49ce-a05e-f2620ff49d64","ios":"levelo://app?vid=3a14a8b6-bb6d-49ce-a05e-f2620ff49d64"},"vehicle_type_id":"4","last_reported":1729746580,"current_range_meters":39200,"station_id":"ce4bhih2rcd13ifvqfs0","pricing_plan_id":"cebpf4jnsgd1na2vs0mg"},{"bike_id":"8851e641-2a34-4df4-9c62-4bc8ce7ebb4a","system_id":"levelo_inurba_marseille","lat":43.28705,"lon":5.37388,"is_reserved":false,"is_disabled":false,"rental_uris":{"android":"levelo://app?vid=8851e641-2a34-4df4-9c62-4bc8ce7ebb4a","ios":"levelo://app?vid=8851e641-2a34-4df4-9c62-4bc8ce7ebb4a"},"vehicle_type_id":"4","last_reported":1729746580,"current_range_meters":37600,"station_id":"ce4bh3p2rcd13ifvqdq0","pricing_plan_id":"cebpf4jnsgd1na2vs0mg"},{"bike_id":"3fdbc46d-c6fa-44a5-ace0-c37da7a74a1a","system_id":"levelo_inurba_marseille","lat":43.25866,"lon":5.399,"is_reserved":false,"is_disabled":false,"rental_uris":{"android":"levelo://app?vid=3fdbc46d-c6fa-44a5-ace0-c37da7a74a1a","ios":"levelo://app?vid=3fdbc46d-c6fa-44a5-ace0-c37da7a74a1a"},"vehicle_type_id":"4","last_reported":1729746580,"current_range_meters":38800,"station_id":"ce4bhl92rcd13ifvqghg","pricing_plan_id":"cebpf4jnsgd1na2vs0mg"},{"bike_id":"606ae9a4-e252-4838-9386-7e52ddadecec","system_id":"levelo_inurba_marseille","lat":43.28566,"lon":5.39505,"is_reserved":false,"is_disabled":false,"rental_uris":{"android":"levelo://app?vid=606ae9a4-e252-4838-9386-7e52ddadecec","ios":"levelo://app?vid=606ae9a4-e252-4838-9386-7e52ddadecec"},"vehicle_type_id":"4","last_reported":1729746580,"current_range_meters":21600,"station_id":"ce4bh292rcd13ifvqdg0","pricing_plan_id":"cebpf4jnsgd1na2vs0mg"},{"bike_id":"8236bfcb-c909-4bfd-9556-ca9c64355776","system_id":"levelo_inurba_marseille","lat":43.27944,"lon":5.41043,"is_reserved":false,"is_disabled":false,"rental_uris":{"android":"levelo://app?vid=8236bfcb-c909-4bfd-9556-ca9c64355776","ios":"levelo://app?vid=8236bfcb-c909-4bfd-9556-ca9c64355776"},"vehicle_type_id":"4","last_reported":1729746580,"current_range_meters":34000,"station_id":"ce4bhnp2rcd13ifvqh0g","pricing_plan_id":"cebpf4jnsgd1na2vs0mg"},{"bike_id":"53100c54-a4e3-45a7-9427-b292d95b6c16","system_id":"levelo_inurba_marseille","lat":43.3091,"lon":5.37202,"is_reserved":false,"is_disabled":false,"rental_uris":{"android":"levelo://app?vid=53100c54-a4e3-45a7-9427-b292d95b6c16","ios":"levelo://app?vid=53100c54-a4e3-45a7-9427-b292d95b6c16"},"vehicle_type_id":"4","last_reported":1729746580,"current_range_meters":38800,"station_id":"ce4bguh2rcd13ifvqckg","pricing_plan_id":"cebpf4jnsgd1na2vs0mg"},{"bike_id":"828c7278-921c-4b79-a531-6487a21b2bc6","system_id":"levelo_inurba_marseille","lat":43.29035,"lon":5.39976,"is_reserved":false,"is_disabled":false,"rental_uris":{"android":"levelo://app?vid=828c7278-921c-4b79-a531-6487a21b2bc6","ios":"levelo://app?vid=828c7278-921c-4b79-a531-6487a21b2bc6"},"vehicle_type_id":"4","last_reported":1729746580,"current_range_meters":37600,"station_id":"ce4bh392rcd13ifvqdm0","pricing_plan_id":"cebpf4jnsgd1na2vs0mg"},{"bike_id":"ee8aca3a-e9b8-4db2-b237-7fbf12308fde","system_id":"levelo_inurba_marseille","lat":43.30887,"lon":5.39631,"is_reserved":false,"is_disabled":false,"rental_uris":{"android":"levelo://app?vid=ee8aca3a-e9b8-4db2-b237-7fbf12308fde","ios":"levelo://app?vid=ee8aca3a-e9b8-4db2-b237-7fbf12308fde"},"vehicle_type_id":"4","last_reported":1729746580,"current_range_meters":38000,"station_id":"ce4bh012rcd13ifvqcv0","pricing_plan_id":"cebpf4jnsgd1na2vs0mg"},{"bike_id":"60b5ad38-328b-49d2-ab74-b91edfe19bd7","system_id":"levelo_inurba_marseille","lat":43.30887,"lon":5.39632,"is_reserved":false,"is_disabled":false,"rental_uris":{"android":"levelo://app?vid=60b5ad38-328b-49d2-ab74-b91edfe19bd7","ios":"levelo://app?vid=60b5ad38-328b-49d2-ab74-b91edfe19bd7"},"vehicle_type_id":"4","last_reported":1729746580,"current_range_meters":25200,"station_id":"ce4bh012rcd13ifvqcv0","pricing_plan_id":"cebpf4jnsgd1na2vs0mg"},{"bike_id":"399a9b33-7aba-4d13-9ed9-b18fa087368d","system_id":"levelo_inurba_marseille","lat":43.28727,"lon":5.36093,"is_reserved":false,"is_disabled":false,"rental_uris":{"android":"levelo://app?vid=399a9b33-7aba-4d13-9ed9-b18fa087368d","ios":"levelo://app?vid=399a9b33-7aba-4d13-9ed9-b18fa087368d"},"vehicle_type_id":"4","last_reported":1729746580,"current_range_meters":24800,"station_id":"cki0cbj6b192h4jlfktg","pricing_plan_id":"cebpf4jnsgd1na2vs0mg"},{"bike_id":"071e16e2-df94-401a-affb-26b4fa8d97c8","system_id":"levelo_inurba_marseille","lat":43.28079,"lon":5.39663,"is_reserved":false,"is_disabled":false,"rental_uris":{"android":"levelo://app?vid=071e16e2-df94-401a-affb-26b4fa8d97c8","ios":"levelo://app?vid=071e16e2-df94-401a-affb-26b4fa8d97c8"},"vehicle_type_id":"4","last_reported":1729746580,"current_range_meters":28400,"station_id":"ce4bho12rcd13ifvqh2g","pricing_plan_id":"cebpf4jnsgd1na2vs0mg"},{"bike_id":"3b9ec8f1-654f-4f01-8471-7c08eefc1ccd","system_id":"levelo_inurba_marseille","lat":43.26569,"lon":5.38996,"is_reserved":false,"is_disabled":false,"rental_uris":{"android":"levelo://app?vid=3b9ec8f1-654f-4f01-8471-7c08eefc1ccd","ios":"levelo://app?vid=3b9ec8f1-654f-4f01-8471-7c08eefc1ccd"},"vehicle_type_id":"4","last_reported":1729746580,"current_range_meters":33600,"station_id":"ce4bhe12rcd13ifvqf30","pricing_plan_id":"cebpf4jnsgd1na2vs0mg"},{"bike_id":"901c8390-57d3-4c3a-a1aa-a6bc59812b3a","system_id":"levelo_inurba_marseille","lat":43.26947,"lon":5.40244,"is_reserved":false,"is_disabled":false,"rental_uris":{"android":"levelo://app?vid=901c8390-57d3-4c3a-a1aa-a6bc59812b3a","ios":"levelo://app?vid=901c8390-57d3-4c3a-a1aa-a6bc59812b3a"},"vehicle_type_id":"4","last_reported":1729746580,"current_range_meters":37600,"station_id":"cjm6bp8fraef2m0cb0m0","pricing_plan_id":"cebpf4jnsgd1na2vs0mg"},{"bike_id":"12965f57-3a1d-4768-83c5-e018ff17ce98","system_id":"levelo_inurba_marseille","lat":43.24177,"lon":5.39733,"is_reserved":false,"is_disabled":false,"rental_uris":{"android":"levelo://app?vid=12965f57-3a1d-4768-83c5-e018ff17ce98","ios":"levelo://app?vid=12965f57-3a1d-4768-83c5-e018ff17ce98"},"vehicle_type_id":"4","last_reported":1729746580,"current_range_meters":38800,"station_id":"ce4bhn12rcd13ifvqgpg","pricing_plan_id":"cebpf4jnsgd1na2vs0mg"},{"bike_id":"cbd67fc7-6897-4929-bddc-6bb781249d6c","system_id":"levelo_inurba_marseille","lat":43.28464,"lon":5.35884,"is_reserved":false,"is_disabled":false,"rental_uris":{"android":"levelo://app?vid=cbd67fc7-6897-4929-bddc-6bb781249d6c","ios":"levelo://app?vid=cbd67fc7-6897-4929-bddc-6bb781249d6c"},"vehicle_type_id":"4","last_reported":1729746580,"current_range_meters":18800,"station_id":"ce4bhah2rcd13ifvqei0","pricing_plan_id":"cebpf4jnsgd1na2vs0mg"},{"bike_id":"ca982e76-69f3-439a-9894-278d1904d395","system_id":"levelo_inurba_marseille","lat":43.27432,"lon":5.39412,"is_reserved":false,"is_disabled":false,"rental_uris":{"android":"levelo://app?vid=ca982e76-69f3-439a-9894-278d1904d395","ios":"levelo://app?vid=ca982e76-69f3-439a-9894-278d1904d395"},"vehicle_type_id":"4","last_reported":1729746580,"current_range_meters":38000,"station_id":"ce4bhdp2rcd13ifvqf20","pricing_plan_id":"cebpf4jnsgd1na2vs0mg"},{"bike_id":"133018a5-687a-4595-a6b3-d05463345fd5","system_id":"levelo_inurba_marseille","lat":43.2795,"lon":5.41032,"is_reserved":false,"is_disabled":false,"rental_uris":{"android":"levelo://app?vid=133018a5-687a-4595-a6b3-d05463345fd5","ios":"levelo://app?vid=133018a5-687a-4595-a6b3-d05463345fd5"},"vehicle_type_id":"4","last_reported":1729746580,"current_range_meters":38800,"station_id":"ce4bhnp2rcd13ifvqh0g","pricing_plan_id":"cebpf4jnsgd1na2vs0mg"},{"bike_id":"22516433-e256-400e-ba52-60772187b394","system_id":"levelo_inurba_marseille","lat":43.30937,"lon":5.40136,"is_reserved":false,"is_disabled":false,"rental_uris":{"android":"levelo://app?vid=22516433-e256-400e-ba52-60772187b394","ios":"levelo://app?vid=22516433-e256-400e-ba52-60772187b394"},"vehicle_type_id":"4","last_reported":1729746580,"current_range_meters":38800,"station_id":"ce4bgvp2rcd13ifvqct0","pricing_plan_id":"cebpf4jnsgd1na2vs0mg"},{"bike_id":"8b368eb4-d88f-4e27-9a59-f48c296d2a4c","system_id":"levelo_inurba_marseille","lat":43.27986,"lon":5.41655,"is_reserved":false,"is_disabled":false,"rental_uris":{"android":"levelo://app?vid=8b368eb4-d88f-4e27-9a59-f48c296d2a4c","ios":"levelo://app?vid=8b368eb4-d88f-4e27-9a59-f48c296d2a4c"},"vehicle_type_id":"4","last_reported":1729746580,"current_range_meters":24400,"station_id":"ce4bho12rcd13ifvqh1g","pricing_plan_id":"cebpf4jnsgd1na2vs0mg"},{"bike_id":"84a1642f-a00b-4ae1-9856-163f872d7fa4","system_id":"levelo_inurba_marseille","lat":43.28082,"lon":5.39651,"is_reserved":false,"is_disabled":false,"rental_uris":{"android":"levelo://app?vid=84a1642f-a00b-4ae1-9856-163f872d7fa4","ios":"levelo://app?vid=84a1642f-a00b-4ae1-9856-163f872d7fa4"},"vehicle_type_id":"4","last_reported":1729746580,"current_range_meters":37600,"station_id":"ce4bho12rcd13ifvqh2g","pricing_plan_id":"cebpf4jnsgd1na2vs0mg"},{"bike_id":"a159004c-6b0d-4cda-b6c0-b8546774c9f5","system_id":"levelo_inurba_marseille","lat":43.24551,"lon":5.39523,"is_reserved":false,"is_disabled":false,"rental_uris":{"android":"levelo://app?vid=a159004c-6b0d-4cda-b6c0-b8546774c9f5","ios":"levelo://app?vid=a159004c-6b0d-4cda-b6c0-b8546774c9f5"},"vehicle_type_id":"4","last_reported":1729746580,"current_range_meters":5600,"station_id":"ce4bhlp2rcd13ifvqgjg","pricing_plan_id":"cebpf4jnsgd1na2vs0mg"},{"bike_id":"c246f050-1ca2-4896-9426-46adcde35e73","system_id":"levelo_inurba_marseille","lat":43.31331,"lon":5.39701,"is_reserved":false,"is_disabled":false,"rental_uris":{"android":"levelo://app?vid=c246f050-1ca2-4896-9426-46adcde35e73","ios":"levelo://app?vid=c246f050-1ca2-4896-9426-46adcde35e73"},"vehicle_type_id":"4","last_reported":1729746580,"current_range_meters":27600,"station_id":"ce4bgvp2rcd13ifvqcu0","pricing_plan_id":"cebpf4jnsgd1na2vs0mg"},{"bike_id":"513e9df3-7590-42dd-a419-2e9e62f66b47","system_id":"levelo_inurba_marseille","lat":43.31324,"lon":5.39698,"is_reserved":false,"is_disabled":false,"rental_uris":{"android":"levelo://app?vid=513e9df3-7590-42dd-a419-2e9e62f66b47","ios":"levelo://app?vid=513e9df3-7590-42dd-a419-2e9e62f66b47"},"vehicle_type_id":"4","last_reported":1729746580,"current_range_meters":8400,"station_id":"ce4bgvp2rcd13ifvqcu0","pricing_plan_id":"cebpf4jnsgd1na2vs0mg"},{"bike_id":"9c980766-3696-42be-8e1a-d22fb6edb5c5","system_id":"levelo_inurba_marseille","lat":43.30664,"lon":5.38198,"is_reserved":false,"is_disabled":false,"rental_uris":{"android":"levelo://app?vid=9c980766-3696-42be-8e1a-d22fb6edb5c5","ios":"levelo://app?vid=9c980766-3696-42be-8e1a-d22fb6edb5c5"},"vehicle_type_id":"4","last_reported":1729746580,"current_range_meters":29600,"station_id":"","pricing_plan_id":"cebpf4jnsgd1na2vs0mg"},{"bike_id":"3d879563-7515-4e7c-8fcb-591818df3455","system_id":"levelo_inurba_marseille","lat":43.28356,"lon":5.38105,"is_reserved":false,"is_disabled":false,"rental_uris":{"android":"levelo://app?vid=3d879563-7515-4e7c-8fcb-591818df3455","ios":"levelo://app?vid=3d879563-7515-4e7c-8fcb-591818df3455"},"vehicle_type_id":"4","last_reported":1729746580,"current_range_meters":38400,"station_id":"ce4bh412rcd13ifvqdr0","pricing_plan_id":"cebpf4jnsgd1na2vs0mg"},{"bike_id":"8d5b743c-ab08-408d-9aa9-a0f9f3f7ae93","system_id":"levelo_inurba_marseille","lat":43.30802,"lon":5.38151,"is_reserved":false,"is_disabled":false,"rental_uris":{"android":"levelo://app?vid=8d5b743c-ab08-408d-9aa9-a0f9f3f7ae93","ios":"levelo://app?vid=8d5b743c-ab08-408d-9aa9-a0f9f3f7ae93"},"vehicle_type_id":"4","last_reported":1729746580,"current_range_meters":22400,"station_id":"ce4bgt12rcd13ifvqce0","pricing_plan_id":"cebpf4jnsgd1na2vs0mg"},{"bike_id":"fbf97ef8-bd1b-4c04-9a9d-32289ab679c9","system_id":"levelo_inurba_marseille","lat":43.31705,"lon":5.37717,"is_reserved":false,"is_disabled":false,"rental_uris":{"android":"levelo://app?vid=fbf97ef8-bd1b-4c04-9a9d-32289ab679c9","ios":"levelo://app?vid=fbf97ef8-bd1b-4c04-9a9d-32289ab679c9"},"vehicle_type_id":"4","last_reported":1729746580,"current_range_meters":28800,"station_id":"ce4bgth2rcd13ifvqch0","pricing_plan_id":"cebpf4jnsgd1na2vs0mg"},{"bike_id":"c795749b-6514-4187-b84f-9dd949a143e0","system_id":"levelo_inurba_marseille","lat":43.32653,"lon":5.40989,"is_reserved":false,"is_disabled":false,"rental_uris":{"android":"levelo://app?vid=c795749b-6514-4187-b84f-9dd949a143e0","ios":"levelo://app?vid=c795749b-6514-4187-b84f-9dd949a143e0"},"vehicle_type_id":"4","last_reported":1729746580,"current_range_meters":38400,"station_id":"ce4bhpp2rcd13ifvqhgg","pricing_plan_id":"cebpf4jnsgd1na2vs0mg"},{"bike_id":"580656df-3830-4c81-bc34-c502f76a985d","system_id":"levelo_inurba_marseille","lat":43.317111,"lon":5.37758,"is_reserved":false,"is_disabled":false,"rental_uris":{"android":"levelo://app?vid=580656df-3830-4c81-bc34-c502f76a985d","ios":"levelo://app?vid=580656df-3830-4c81-bc34-c502f76a985d"},"vehicle_type_id":"4","last_reported":1729746580,"current_range_meters":33200,"station_id":"ce4bgth2rcd13ifvqch0","pricing_plan_id":"cebpf4jnsgd1na2vs0mg"},{"bike_id":"20c0bf66-c5aa-4a0e-be77-4512d31e6639","system_id":"levelo_inurba_marseille","lat":43.27965,"lon":5.38742,"is_reserved":false,"is_disabled":false,"rental_uris":{"android":"levelo://app?vid=20c0bf66-c5aa-4a0e-be77-4512d31e6639","ios":"levelo://app?vid=20c0bf66-c5aa-4a0e-be77-4512d31e6639"},"vehicle_type_id":"4","last_reported":1729746580,"current_range_meters":35200,"station_id":"ce4bhg12rcd13ifvqf80","pricing_plan_id":"cebpf4jnsgd1na2vs0mg"},{"bike_id":"6a1b6894-02d9-495e-835d-2b0a5397f3ad","system_id":"levelo_inurba_marseille","lat":43.30256,"lon":5.37692,"is_reserved":false,"is_disabled":false,"rental_uris":{"android":"levelo://app?vid=6a1b6894-02d9-495e-835d-2b0a5397f3ad","ios":"levelo://app?vid=6a1b6894-02d9-495e-835d-2b0a5397f3ad"},"vehicle_type_id":"4","last_reported":1729746580,"current_range_meters":38000,"station_id":"ce4bguh2rcd13ifvqcj0","pricing_plan_id":"cebpf4jnsgd1na2vs0mg"},{"bike_id":"df18893b-652a-4978-8f09-21082eee1738","system_id":"levelo_inurba_marseille","lat":43.310701,"lon":5.383463,"is_reserved":false,"is_disabled":false,"rental_uris":{"android":"levelo://app?vid=df18893b-652a-4978-8f09-21082eee1738","ios":"levelo://app?vid=df18893b-652a-4978-8f09-21082eee1738"},"vehicle_type_id":"4","last_reported":1729746580,"current_range_meters":22400,"station_id":"ce4bgv92rcd13ifvqcr0","pricing_plan_id":"cebpf4jnsgd1na2vs0mg"},{"bike_id":"8d3a665e-b607-4c6b-bfa9-0539dee50c40","system_id":"levelo_inurba_marseille","lat":43.3046,"lon":5.37903,"is_reserved":false,"is_disabled":false,"rental_uris":{"android":"levelo://app?vid=8d3a665e-b607-4c6b-bfa9-0539dee50c40","ios":"levelo://app?vid=8d3a665e-b607-4c6b-bfa9-0539dee50c40"},"vehicle_type_id":"4","last_reported":1729746580,"current_range_meters":26000,"station_id":"ce4bgup2rcd13ifvqcn0","pricing_plan_id":"cebpf4jnsgd1na2vs0mg"},{"bike_id":"557283f1-a9de-4bfb-8a50-374ced1e8f57","system_id":"levelo_inurba_marseille","lat":43.307834,"lon":5.376587,"is_reserved":false,"is_disabled":false,"rental_uris":{"android":"levelo://app?vid=557283f1-a9de-4bfb-8a50-374ced1e8f57","ios":"levelo://app?vid=557283f1-a9de-4bfb-8a50-374ced1e8f57"},"vehicle_type_id":"4","last_reported":1729746580,"current_range_meters":36800,"station_id":"ce4bgv92rcd13ifvqcq0","pricing_plan_id":"cebpf4jnsgd1na2vs0mg"},{"bike_id":"fcfba191-b160-468b-a9de-289faef41612","system_id":"levelo_inurba_marseille","lat":43.29558,"lon":5.42291,"is_reserved":false,"is_disabled":false,"rental_uris":{"android":"levelo://app?vid=fcfba191-b160-468b-a9de-289faef41612","ios":"levelo://app?vid=fcfba191-b160-468b-a9de-289faef41612"},"vehicle_type_id":"4","last_reported":1729746580,"current_range_meters":37600,"station_id":"ce4bhph2rcd13ifvqhdg","pricing_plan_id":"cebpf4jnsgd1na2vs0mg"},{"bike_id":"90c3a3ae-e1f9-49f9-8230-c82dc265a457","system_id":"levelo_inurba_marseille","lat":43.32003,"lon":5.38153,"is_reserved":false,"is_disabled":false,"rental_uris":{"android":"levelo://app?vid=90c3a3ae-e1f9-49f9-8230-c82dc265a457","ios":"levelo://app?vid=90c3a3ae-e1f9-49f9-8230-c82dc265a457"},"vehicle_type_id":"4","last_reported":1729746580,"current_range_meters":8000,"station_id":"ce4bhr12rcd13ifvqhpg","pricing_plan_id":"cebpf4jnsgd1na2vs0mg"},{"bike_id":"d43610d4-6ab3-4063-97de-1a3507b8b43a","system_id":"levelo_inurba_marseille","lat":43.26801,"lon":5.40259,"is_reserved":false,"is_disabled":false,"rental_uris":{"android":"levelo://app?vid=d43610d4-6ab3-4063-97de-1a3507b8b43a","ios":"levelo://app?vid=d43610d4-6ab3-4063-97de-1a3507b8b43a"},"vehicle_type_id":"4","last_reported":1729746580,"current_range_meters":28800,"station_id":"ce501612rcd8frsf0b60","pricing_plan_id":"cebpf4jnsgd1na2vs0mg"},{"bike_id":"e6b310af-d763-4708-a97e-f6f2e27c7b8b","system_id":"levelo_inurba_marseille","lat":43.27172,"lon":5.4098,"is_reserved":false,"is_disabled":false,"rental_uris":{"android":"levelo://app?vid=e6b310af-d763-4708-a97e-f6f2e27c7b8b","ios":"levelo://app?vid=e6b310af-d763-4708-a97e-f6f2e27c7b8b"},"vehicle_type_id":"4","last_reported":1729746580,"current_range_meters":8800,"station_id":"ce4bhl12rcd13ifvqgf0","pricing_plan_id":"cebpf4jnsgd1na2vs0mg"},{"bike_id":"29307b0a-20bd-4b38-88dd-bf6801123e99","system_id":"levelo_inurba_marseille","lat":43.24184,"lon":5.39714,"is_reserved":false,"is_disabled":false,"rental_uris":{"android":"levelo://app?vid=29307b0a-20bd-4b38-88dd-bf6801123e99","ios":"levelo://app?vid=29307b0a-20bd-4b38-88dd-bf6801123e99"},"vehicle_type_id":"4","last_reported":1729746580,"current_range_meters":38000,"station_id":"ce4bhn12rcd13ifvqgpg","pricing_plan_id":"cebpf4jnsgd1na2vs0mg"},{"bike_id":"f36ff287-1568-4c08-93bf-292e61a3a499","system_id":"levelo_inurba_marseille","lat":43.30473,"lon":5.37905,"is_reserved":false,"is_disabled":false,"rental_uris":{"android":"levelo://app?vid=f36ff287-1568-4c08-93bf-292e61a3a499","ios":"levelo://app?vid=f36ff287-1568-4c08-93bf-292e61a3a499"},"vehicle_type_id":"4","last_reported":1729746580,"current_range_meters":40000,"station_id":"ce4bgup2rcd13ifvqcn0","pricing_plan_id":"cebpf4jnsgd1na2vs0mg"},{"bike_id":"57dfa82b-35a5-4e19-9a9a-cd2e56a43c86","system_id":"levelo_inurba_marseille","lat":43.30474,"lon":5.37906,"is_reserved":false,"is_disabled":false,"rental_uris":{"android":"levelo://app?vid=57dfa82b-35a5-4e19-9a9a-cd2e56a43c86","ios":"levelo://app?vid=57dfa82b-35a5-4e19-9a9a-cd2e56a43c86"},"vehicle_type_id":"4","last_reported":1729746580,"current_range_meters":32000,"station_id":"ce4bgup2rcd13ifvqcn0","pricing_plan_id":"cebpf4jnsgd1na2vs0mg"},{"bike_id":"87b14e22-9ad1-4d7e-b481-3b435b60c5b6","system_id":"levelo_inurba_marseille","lat":43.26811,"lon":5.40258,"is_reserved":false,"is_disabled":false,"rental_uris":{"android":"levelo://app?vid=87b14e22-9ad1-4d7e-b481-3b435b60c5b6","ios":"levelo://app?vid=87b14e22-9ad1-4d7e-b481-3b435b60c5b6"},"vehicle_type_id":"4","last_reported":1729746580,"current_range_meters":16800,"station_id":"ce501612rcd8frsf0b60","pricing_plan_id":"cebpf4jnsgd1na2vs0mg"},{"bike_id":"61ce41c0-c830-4f5f-b326-d71c02bdc8f9","system_id":"levelo_inurba_marseille","lat":43.3371,"lon":5.39181,"is_reserved":false,"is_disabled":false,"rental_uris":{"android":"levelo://app?vid=61ce41c0-c830-4f5f-b326-d71c02bdc8f9","ios":"levelo://app?vid=61ce41c0-c830-4f5f-b326-d71c02bdc8f9"},"vehicle_type_id":"4","last_reported":1729746580,"current_range_meters":18000,"station_id":"ce4bhr92rcd13ifvqhsg","pricing_plan_id":"cebpf4jnsgd1na2vs0mg"},{"bike_id":"53643c73-ebff-4438-9bbc-d1455671aa2b","system_id":"levelo_inurba_marseille","lat":43.31997,"lon":5.3814,"is_reserved":false,"is_disabled":false,"rental_uris":{"android":"levelo://app?vid=53643c73-ebff-4438-9bbc-d1455671aa2b","ios":"levelo://app?vid=53643c73-ebff-4438-9bbc-d1455671aa2b"},"vehicle_type_id":"4","last_reported":1729746580,"current_range_meters":30800,"station_id":"ce4bhr12rcd13ifvqhpg","pricing_plan_id":"cebpf4jnsgd1na2vs0mg"},{"bike_id":"b88bed07-aa41-4e48-8a3a-39b278e9fd91","system_id":"levelo_inurba_marseille","lat":43.26023,"lon":5.3755,"is_reserved":false,"is_disabled":false,"rental_uris":{"android":"levelo://app?vid=b88bed07-aa41-4e48-8a3a-39b278e9fd91","ios":"levelo://app?vid=b88bed07-aa41-4e48-8a3a-39b278e9fd91"},"vehicle_type_id":"4","last_reported":1729746580,"current_range_meters":36000,"station_id":"ce4bhgh2rcd13ifvqfa0","pricing_plan_id":"cebpf4jnsgd1na2vs0mg"},{"bike_id":"7fc88e82-317d-44cb-98a9-da45b639e89f","system_id":"levelo_inurba_marseille","lat":43.25118,"lon":5.40314,"is_reserved":false,"is_disabled":false,"rental_uris":{"android":"levelo://app?vid=7fc88e82-317d-44cb-98a9-da45b639e89f","ios":"levelo://app?vid=7fc88e82-317d-44cb-98a9-da45b639e89f"},"vehicle_type_id":"4","last_reported":1729746580,"current_range_meters":28400,"station_id":"ce4bhlh2rcd13ifvqgig","pricing_plan_id":"cebpf4jnsgd1na2vs0mg"},{"bike_id":"83c1c1bf-7f3e-40f7-8901-caa547648f75","system_id":"levelo_inurba_marseille","lat":43.29262,"lon":5.40911,"is_reserved":false,"is_disabled":false,"rental_uris":{"android":"levelo://app?vid=83c1c1bf-7f3e-40f7-8901-caa547648f75","ios":"levelo://app?vid=83c1c1bf-7f3e-40f7-8901-caa547648f75"},"vehicle_type_id":"4","last_reported":1729746580,"current_range_meters":38800,"station_id":"ce4bh192rcd13ifvqdc0","pricing_plan_id":"cebpf4jnsgd1na2vs0mg"},{"bike_id":"00a8bd9d-eef3-42e3-9e17-61a6e620d1f8","system_id":"levelo_inurba_marseille","lat":43.33021,"lon":5.39041,"is_reserved":false,"is_disabled":false,"rental_uris":{"android":"levelo://app?vid=00a8bd9d-eef3-42e3-9e17-61a6e620d1f8","ios":"levelo://app?vid=00a8bd9d-eef3-42e3-9e17-61a6e620d1f8"},"vehicle_type_id":"4","last_reported":1729746580,"current_range_meters":39200,"station_id":"ce4bhr92rcd13ifvqhrg","pricing_plan_id":"cebpf4jnsgd1na2vs0mg"},{"bike_id":"16c623cf-ab3f-4890-b15b-3153fd350014","system_id":"levelo_inurba_marseille","lat":43.24648,"lon":5.3889,"is_reserved":false,"is_disabled":false,"rental_uris":{"android":"levelo://app?vid=16c623cf-ab3f-4890-b15b-3153fd350014","ios":"levelo://app?vid=16c623cf-ab3f-4890-b15b-3153fd350014"},"vehicle_type_id":"4","last_reported":1729746580,"current_range_meters":28400,"station_id":"ce4bhg12rcd13ifvqf60","pricing_plan_id":"cebpf4jnsgd1na2vs0mg"},{"bike_id":"84bdd819-4ab1-4f82-9b18-7a085349e454","system_id":"levelo_inurba_marseille","lat":43.25582,"lon":5.38234,"is_reserved":false,"is_disabled":false,"rental_uris":{"android":"levelo://app?vid=84bdd819-4ab1-4f82-9b18-7a085349e454","ios":"levelo://app?vid=84bdd819-4ab1-4f82-9b18-7a085349e454"},"vehicle_type_id":"4","last_reported":1729746580,"current_range_meters":37600,"station_id":"ce4bhih2rcd13ifvqfs0","pricing_plan_id":"cebpf4jnsgd1na2vs0mg"},{"bike_id":"f57afd03-c92f-4ffa-9b51-edefd10dccaf","system_id":"levelo_inurba_marseille","lat":43.2871,"lon":5.3998,"is_reserved":false,"is_disabled":false,"rental_uris":{"android":"levelo://app?vid=f57afd03-c92f-4ffa-9b51-edefd10dccaf","ios":"levelo://app?vid=f57afd03-c92f-4ffa-9b51-edefd10dccaf"},"vehicle_type_id":"4","last_reported":1729746580,"current_range_meters":2800,"station_id":"ce4bho92rcd13ifvqh3g","pricing_plan_id":"cebpf4jnsgd1na2vs0mg"},{"bike_id":"b9e25745-609f-490f-b10e-40e4cbe6e867","system_id":"levelo_inurba_marseille","lat":43.29896,"lon":5.43657,"is_reserved":false,"is_disabled":false,"rental_uris":{"android":"levelo://app?vid=b9e25745-609f-490f-b10e-40e4cbe6e867","ios":"levelo://app?vid=b9e25745-609f-490f-b10e-40e4cbe6e867"},"vehicle_type_id":"4","last_reported":1729746580,"current_range_meters":38800,"station_id":"ce4bhpp2rcd13ifvqhfg","pricing_plan_id":"cebpf4jnsgd1na2vs0mg"},{"bike_id":"40d7d049-8518-4ec4-b0e7-a82d69869ad0","system_id":"levelo_inurba_marseille","lat":43.3028,"lon":5.37709,"is_reserved":false,"is_disabled":false,"rental_uris":{"android":"levelo://app?vid=40d7d049-8518-4ec4-b0e7-a82d69869ad0","ios":"levelo://app?vid=40d7d049-8518-4ec4-b0e7-a82d69869ad0"},"vehicle_type_id":"4","last_reported":1729746580,"current_range_meters":39200,"station_id":"ce4bguh2rcd13ifvqcj0","pricing_plan_id":"cebpf4jnsgd1na2vs0mg"},{"bike_id":"22ebe0c1-2f94-4163-8713-fcc002d694da","system_id":"levelo_inurba_marseille","lat":43.28357,"lon":5.38116,"is_reserved":false,"is_disabled":false,"rental_uris":{"android":"levelo://app?vid=22ebe0c1-2f94-4163-8713-fcc002d694da","ios":"levelo://app?vid=22ebe0c1-2f94-4163-8713-fcc002d694da"},"vehicle_type_id":"4","last_reported":1729746580,"current_range_meters":38800,"station_id":"ce4bh412rcd13ifvqdr0","pricing_plan_id":"cebpf4jnsgd1na2vs0mg"},{"bike_id":"5c2a0495-5bb1-472c-9ad5-2c6fadcaa05f","system_id":"levelo_inurba_marseille","lat":43.28034,"lon":5.36941,"is_reserved":false,"is_disabled":false,"rental_uris":{"android":"levelo://app?vid=5c2a0495-5bb1-472c-9ad5-2c6fadcaa05f","ios":"levelo://app?vid=5c2a0495-5bb1-472c-9ad5-2c6fadcaa05f"},"vehicle_type_id":"4","last_reported":1729746580,"current_range_meters":36400,"station_id":"ce4bha12rcd13ifvqef0","pricing_plan_id":"cebpf4jnsgd1na2vs0mg"},{"bike_id":"4fd2f565-ace7-4302-8010-18516f6fa357","system_id":"levelo_inurba_marseille","lat":43.326598,"lon":5.409887,"is_reserved":false,"is_disabled":false,"rental_uris":{"android":"levelo://app?vid=4fd2f565-ace7-4302-8010-18516f6fa357","ios":"levelo://app?vid=4fd2f565-ace7-4302-8010-18516f6fa357"},"vehicle_type_id":"4","last_reported":1729746580,"current_range_meters":37600,"station_id":"ce4bhpp2rcd13ifvqhgg","pricing_plan_id":"cebpf4jnsgd1na2vs0mg"},{"bike_id":"9a5500e7-910d-435f-a360-a01008478b62","system_id":"levelo_inurba_marseille","lat":43.27902,"lon":5.38017,"is_reserved":false,"is_disabled":false,"rental_uris":{"android":"levelo://app?vid=9a5500e7-910d-435f-a360-a01008478b62","ios":"levelo://app?vid=9a5500e7-910d-435f-a360-a01008478b62"},"vehicle_type_id":"4","last_reported":1729746580,"current_range_meters":7200,"station_id":"ce4bhf92rcd13ifvqf50","pricing_plan_id":"cebpf4jnsgd1na2vs0mg"},{"bike_id":"5c73b6dd-684f-4ba7-92a7-bd5d7dc4ea5e","system_id":"levelo_inurba_marseille","lat":43.2656,"lon":5.37284,"is_reserved":false,"is_disabled":false,"rental_uris":{"android":"levelo://app?vid=5c73b6dd-684f-4ba7-92a7-bd5d7dc4ea5e","ios":"levelo://app?vid=5c73b6dd-684f-4ba7-92a7-bd5d7dc4ea5e"},"vehicle_type_id":"4","last_reported":1729746580,"current_range_meters":29600,"station_id":"ce4bhg12rcd13ifvqf70","pricing_plan_id":"cebpf4jnsgd1na2vs0mg"},{"bike_id":"5d5bbb3f-f738-4f9c-b74e-909d1f45337e","system_id":"levelo_inurba_marseille","lat":43.27833,"lon":5.39208,"is_reserved":false,"is_disabled":false,"rental_uris":{"android":"levelo://app?vid=5d5bbb3f-f738-4f9c-b74e-909d1f45337e","ios":"levelo://app?vid=5d5bbb3f-f738-4f9c-b74e-909d1f45337e"},"vehicle_type_id":"4","last_reported":1729746580,"current_range_meters":37600,"station_id":"ce4bhjp2rcd13ifvqga0","pricing_plan_id":"cebpf4jnsgd1na2vs0mg"},{"bike_id":"f94a562f-59f2-4ba1-a457-b8508034886e","system_id":"levelo_inurba_marseille","lat":43.2737,"lon":5.362461,"is_reserved":false,"is_disabled":false,"rental_uris":{"android":"levelo://app?vid=f94a562f-59f2-4ba1-a457-b8508034886e","ios":"levelo://app?vid=f94a562f-59f2-4ba1-a457-b8508034886e"},"vehicle_type_id":"4","last_reported":1729746580,"current_range_meters":24000,"station_id":"ce4bhbh2rcd13ifvqeo0","pricing_plan_id":"cebpf4jnsgd1na2vs0mg"},{"bike_id":"6304ec57-e41d-437e-8311-e819942e1bed","system_id":"levelo_inurba_marseille","lat":43.30661,"lon":5.4008,"is_reserved":false,"is_disabled":false,"rental_uris":{"android":"levelo://app?vid=6304ec57-e41d-437e-8311-e819942e1bed","ios":"levelo://app?vid=6304ec57-e41d-437e-8311-e819942e1bed"},"vehicle_type_id":"4","last_reported":1729746580,"current_range_meters":30000,"station_id":"ce4bh112rcd13ifvqda0","pricing_plan_id":"cebpf4jnsgd1na2vs0mg"},{"bike_id":"4ec25af9-2c50-4187-b3b7-1dc66bf6c68a","system_id":"levelo_inurba_marseille","lat":43.282896,"lon":5.40837,"is_reserved":false,"is_disabled":false,"rental_uris":{"android":"levelo://app?vid=4ec25af9-2c50-4187-b3b7-1dc66bf6c68a","ios":"levelo://app?vid=4ec25af9-2c50-4187-b3b7-1dc66bf6c68a"},"vehicle_type_id":"4","last_reported":1729746580,"current_range_meters":8800,"station_id":"","pricing_plan_id":"cebpf4jnsgd1na2vs0mg"},{"bike_id":"85d96a2e-4b28-4067-b73c-35673d495574","system_id":"levelo_inurba_marseille","lat":43.28848,"lon":5.35852,"is_reserved":false,"is_disabled":false,"rental_uris":{"android":"levelo://app?vid=85d96a2e-4b28-4067-b73c-35673d495574","ios":"levelo://app?vid=85d96a2e-4b28-4067-b73c-35673d495574"},"vehicle_type_id":"4","last_reported":1729746580,"current_range_meters":38800,"station_id":"ce4bhb12rcd13ifvqem0","pricing_plan_id":"cebpf4jnsgd1na2vs0mg"},{"bike_id":"5d732d0c-a180-4271-95ea-2ef2107c6689","system_id":"levelo_inurba_marseille","lat":43.25863,"lon":5.39903,"is_reserved":false,"is_disabled":false,"rental_uris":{"android":"levelo://app?vid=5d732d0c-a180-4271-95ea-2ef2107c6689","ios":"levelo://app?vid=5d732d0c-a180-4271-95ea-2ef2107c6689"},"vehicle_type_id":"4","last_reported":1729746580,"current_range_meters":24000,"station_id":"ce4bhl92rcd13ifvqghg","pricing_plan_id":"cebpf4jnsgd1na2vs0mg"},{"bike_id":"1084d8f9-8014-4f36-960f-827a500d24f2","system_id":"levelo_inurba_marseille","lat":43.28564,"lon":5.39513,"is_reserved":false,"is_disabled":false,"rental_uris":{"android":"levelo://app?vid=1084d8f9-8014-4f36-960f-827a500d24f2","ios":"levelo://app?vid=1084d8f9-8014-4f36-960f-827a500d24f2"},"vehicle_type_id":"4","last_reported":1729746580,"current_range_meters":22800,"station_id":"ce4bh292rcd13ifvqdg0","pricing_plan_id":"cebpf4jnsgd1na2vs0mg"},{"bike_id":"40cb59f2-37b1-49ed-b88b-99133dfc2206","system_id":"levelo_inurba_marseille","lat":43.309616,"lon":5.390389,"is_reserved":false,"is_disabled":false,"rental_uris":{"android":"levelo://app?vid=40cb59f2-37b1-49ed-b88b-99133dfc2206","ios":"levelo://app?vid=40cb59f2-37b1-49ed-b88b-99133dfc2206"},"vehicle_type_id":"4","last_reported":1729746580,"current_range_meters":8000,"station_id":"ce4bgup2rcd13ifvqco0","pricing_plan_id":"cebpf4jnsgd1na2vs0mg"},{"bike_id":"11f4da9f-54d4-4fc3-bb64-30048373bf8c","system_id":"levelo_inurba_marseille","lat":43.2315,"lon":5.43717,"is_reserved":false,"is_disabled":false,"rental_uris":{"android":"levelo://app?vid=11f4da9f-54d4-4fc3-bb64-30048373bf8c","ios":"levelo://app?vid=11f4da9f-54d4-4fc3-bb64-30048373bf8c"},"vehicle_type_id":"4","last_reported":1729746580,"current_range_meters":19200,"station_id":"ce4bhmp2rcd13ifvqgog","pricing_plan_id":"cebpf4jnsgd1na2vs0mg"},{"bike_id":"103ed008-6f4b-4142-8ae0-e6b210d9a427","system_id":"levelo_inurba_marseille","lat":43.22928,"lon":5.35374,"is_reserved":false,"is_disabled":false,"rental_uris":{"android":"levelo://app?vid=103ed008-6f4b-4142-8ae0-e6b210d9a427","ios":"levelo://app?vid=103ed008-6f4b-4142-8ae0-e6b210d9a427"},"vehicle_type_id":"4","last_reported":1729746580,"current_range_meters":12400,"station_id":"cpo3532slgdg3j2ikp40","pricing_plan_id":"cebpf4jnsgd1na2vs0mg"},{"bike_id":"503f7d31-6546-4f3c-93f9-187ede06bd9f","system_id":"levelo_inurba_marseille","lat":43.28408,"lon":5.37516,"is_reserved":false,"is_disabled":false,"rental_uris":{"android":"levelo://app?vid=503f7d31-6546-4f3c-93f9-187ede06bd9f","ios":"levelo://app?vid=503f7d31-6546-4f3c-93f9-187ede06bd9f"},"vehicle_type_id":"4","last_reported":1729746580,"current_range_meters":32800,"station_id":"ce4bh412rcd13ifvqds0","pricing_plan_id":"cebpf4jnsgd1na2vs0mg"},{"bike_id":"fa8da294-671e-4e9a-ad17-e5263743ae7c","system_id":"levelo_inurba_marseille","lat":43.24552,"lon":5.39526,"is_reserved":false,"is_disabled":false,"rental_uris":{"android":"levelo://app?vid=fa8da294-671e-4e9a-ad17-e5263743ae7c","ios":"levelo://app?vid=fa8da294-671e-4e9a-ad17-e5263743ae7c"},"vehicle_type_id":"4","last_reported":1729746580,"current_range_meters":23200,"station_id":"ce4bhlp2rcd13ifvqgjg","pricing_plan_id":"cebpf4jnsgd1na2vs0mg"},{"bike_id":"534d1db3-5c04-4d3e-aefb-da803638f9f8","system_id":"levelo_inurba_marseille","lat":43.28673,"lon":5.36356,"is_reserved":false,"is_disabled":false,"rental_uris":{"android":"levelo://app?vid=534d1db3-5c04-4d3e-aefb-da803638f9f8","ios":"levelo://app?vid=534d1db3-5c04-4d3e-aefb-da803638f9f8"},"vehicle_type_id":"4","last_reported":1729746580,"current_range_meters":16000,"station_id":"ce4bhah2rcd13ifvqej0","pricing_plan_id":"cebpf4jnsgd1na2vs0mg"},{"bike_id":"6b340b4a-ed26-473e-a399-c20857275ff8","system_id":"levelo_inurba_marseille","lat":43.30145,"lon":5.37412,"is_reserved":false,"is_disabled":false,"rental_uris":{"android":"levelo://app?vid=6b340b4a-ed26-473e-a399-c20857275ff8","ios":"levelo://app?vid=6b340b4a-ed26-473e-a399-c20857275ff8"},"vehicle_type_id":"4","last_reported":1729746580,"current_range_meters":36800,"station_id":"ce4bgs92rcd13ifvqcc0","pricing_plan_id":"cebpf4jnsgd1na2vs0mg"},{"bike_id":"61bc9fdc-13cc-4f71-a31f-ffb08ccd51d2","system_id":"levelo_inurba_marseille","lat":43.30653,"lon":5.40076,"is_reserved":false,"is_disabled":false,"rental_uris":{"android":"levelo://app?vid=61bc9fdc-13cc-4f71-a31f-ffb08ccd51d2","ios":"levelo://app?vid=61bc9fdc-13cc-4f71-a31f-ffb08ccd51d2"},"vehicle_type_id":"4","last_reported":1729746580,"current_range_meters":36000,"station_id":"ce4bh112rcd13ifvqda0","pricing_plan_id":"cebpf4jnsgd1na2vs0mg"},{"bike_id":"efabcb8c-ee14-4cdc-be9a-ea85da1c61a6","system_id":"levelo_inurba_marseille","lat":43.32363,"lon":5.38886,"is_reserved":false,"is_disabled":false,"rental_uris":{"android":"levelo://app?vid=efabcb8c-ee14-4cdc-be9a-ea85da1c61a6","ios":"levelo://app?vid=efabcb8c-ee14-4cdc-be9a-ea85da1c61a6"},"vehicle_type_id":"4","last_reported":1729746580,"current_range_meters":35600,"station_id":"ce4bhqp2rcd13ifvqhog","pricing_plan_id":"cebpf4jnsgd1na2vs0mg"},{"bike_id":"fa6f6ac8-634a-4a36-91e8-75c143cb5939","system_id":"levelo_inurba_marseille","lat":43.31332,"lon":5.39696,"is_reserved":false,"is_disabled":false,"rental_uris":{"android":"levelo://app?vid=fa6f6ac8-634a-4a36-91e8-75c143cb5939","ios":"levelo://app?vid=fa6f6ac8-634a-4a36-91e8-75c143cb5939"},"vehicle_type_id":"4","last_reported":1729746580,"current_range_meters":27600,"station_id":"ce4bgvp2rcd13ifvqcu0","pricing_plan_id":"cebpf4jnsgd1na2vs0mg"},{"bike_id":"ea86be19-4354-4299-8ffb-9b0930336d68","system_id":"levelo_inurba_marseille","lat":43.28412,"lon":5.3751,"is_reserved":false,"is_disabled":false,"rental_uris":{"android":"levelo://app?vid=ea86be19-4354-4299-8ffb-9b0930336d68","ios":"levelo://app?vid=ea86be19-4354-4299-8ffb-9b0930336d68"},"vehicle_type_id":"4","last_reported":1729746580,"current_range_meters":2800,"station_id":"ce4bh412rcd13ifvqds0","pricing_plan_id":"cebpf4jnsgd1na2vs0mg"},{"bike_id":"e93d0849-6889-4c3b-b756-5d2c77aee686","system_id":"levelo_inurba_marseille","lat":43.27988,"lon":5.41656,"is_reserved":false,"is_disabled":false,"rental_uris":{"android":"levelo://app?vid=e93d0849-6889-4c3b-b756-5d2c77aee686","ios":"levelo://app?vid=e93d0849-6889-4c3b-b756-5d2c77aee686"},"vehicle_type_id":"4","last_reported":1729746580,"current_range_meters":38800,"station_id":"ce4bho12rcd13ifvqh1g","pricing_plan_id":"cebpf4jnsgd1na2vs0mg"},{"bike_id":"3a23f1af-30a4-4557-accf-46d9aacc6d5a","system_id":"levelo_inurba_marseille","lat":43.28463,"lon":5.35893,"is_reserved":false,"is_disabled":false,"rental_uris":{"android":"levelo://app?vid=3a23f1af-30a4-4557-accf-46d9aacc6d5a","ios":"levelo://app?vid=3a23f1af-30a4-4557-accf-46d9aacc6d5a"},"vehicle_type_id":"4","last_reported":1729746580,"current_range_meters":30000,"station_id":"ce4bhah2rcd13ifvqei0","pricing_plan_id":"cebpf4jnsgd1na2vs0mg"},{"bike_id":"c89ce7df-fc83-43a7-9971-2b4baf34d8f2","system_id":"levelo_inurba_marseille","lat":43.31173,"lon":5.38709,"is_reserved":false,"is_disabled":false,"rental_uris":{"android":"levelo://app?vid=c89ce7df-fc83-43a7-9971-2b4baf34d8f2","ios":"levelo://app?vid=c89ce7df-fc83-43a7-9971-2b4baf34d8f2"},"vehicle_type_id":"4","last_reported":1729746580,"current_range_meters":32000,"station_id":"ce4bgv12rcd13ifvqcp0","pricing_plan_id":"cebpf4jnsgd1na2vs0mg"},{"bike_id":"78b3255c-91c8-4ff8-8e93-5ecd48719f38","system_id":"levelo_inurba_marseille","lat":43.31275,"lon":5.4017,"is_reserved":false,"is_disabled":false,"rental_uris":{"android":"levelo://app?vid=78b3255c-91c8-4ff8-8e93-5ecd48719f38","ios":"levelo://app?vid=78b3255c-91c8-4ff8-8e93-5ecd48719f38"},"vehicle_type_id":"4","last_reported":1729746580,"current_range_meters":38800,"station_id":"ce4bh092rcd13ifvqd30","pricing_plan_id":"cebpf4jnsgd1na2vs0mg"},{"bike_id":"9a0af0d7-bb17-4d5c-aa62-31f0b495007a","system_id":"levelo_inurba_marseille","lat":43.24391,"lon":5.37049,"is_reserved":false,"is_disabled":false,"rental_uris":{"android":"levelo://app?vid=9a0af0d7-bb17-4d5c-aa62-31f0b495007a","ios":"levelo://app?vid=9a0af0d7-bb17-4d5c-aa62-31f0b495007a"},"vehicle_type_id":"4","last_reported":1729746580,"current_range_meters":27200,"station_id":"ce4bhhh2rcd13ifvqfk0","pricing_plan_id":"cebpf4jnsgd1na2vs0mg"},{"bike_id":"10ef942d-e564-4c77-a954-c43e0e015bbc","system_id":"levelo_inurba_marseille","lat":43.23187,"lon":5.39991,"is_reserved":false,"is_disabled":false,"rental_uris":{"android":"levelo://app?vid=10ef942d-e564-4c77-a954-c43e0e015bbc","ios":"levelo://app?vid=10ef942d-e564-4c77-a954-c43e0e015bbc"},"vehicle_type_id":"4","last_reported":1729746580,"current_range_meters":13600,"station_id":"ce4bhn12rcd13ifvqgqg","pricing_plan_id":"cebpf4jnsgd1na2vs0mg"},{"bike_id":"86661cc4-ae13-4ef8-929e-e580a0049ea9","system_id":"levelo_inurba_marseille","lat":43.29221,"lon":5.36075,"is_reserved":false,"is_disabled":false,"rental_uris":{"android":"levelo://app?vid=86661cc4-ae13-4ef8-929e-e580a0049ea9","ios":"levelo://app?vid=86661cc4-ae13-4ef8-929e-e580a0049ea9"},"vehicle_type_id":"4","last_reported":1729746580,"current_range_meters":35200,"station_id":"ce4bhbh2rcd13ifvqeqg","pricing_plan_id":"cebpf4jnsgd1na2vs0mg"},{"bike_id":"0bc90dc2-cf8c-457e-a6aa-9b91de95f992","system_id":"levelo_inurba_marseille","lat":43.22787,"lon":5.41576,"is_reserved":false,"is_disabled":false,"rental_uris":{"android":"levelo://app?vid=0bc90dc2-cf8c-457e-a6aa-9b91de95f992","ios":"levelo://app?vid=0bc90dc2-cf8c-457e-a6aa-9b91de95f992"},"vehicle_type_id":"4","last_reported":1729746580,"current_range_meters":34000,"station_id":"","pricing_plan_id":"cebpf4jnsgd1na2vs0mg"},{"bike_id":"f3631442-88e4-4b99-802a-caff4044a5fa","system_id":"levelo_inurba_marseille","lat":43.25581,"lon":5.38231,"is_reserved":false,"is_disabled":false,"rental_uris":{"android":"levelo://app?vid=f3631442-88e4-4b99-802a-caff4044a5fa","ios":"levelo://app?vid=f3631442-88e4-4b99-802a-caff4044a5fa"},"vehicle_type_id":"4","last_reported":1729746580,"current_range_meters":10800,"station_id":"ce4bhih2rcd13ifvqfs0","pricing_plan_id":"cebpf4jnsgd1na2vs0mg"},{"bike_id":"67bf2a4e-b0b8-45b5-8898-2db548cfe92d","system_id":"levelo_inurba_marseille","lat":43.313286,"lon":5.39691,"is_reserved":false,"is_disabled":false,"rental_uris":{"android":"levelo://app?vid=67bf2a4e-b0b8-45b5-8898-2db548cfe92d","ios":"levelo://app?vid=67bf2a4e-b0b8-45b5-8898-2db548cfe92d"},"vehicle_type_id":"4","last_reported":1729746580,"current_range_meters":34000,"station_id":"ce4bgvp2rcd13ifvqcu0","pricing_plan_id":"cebpf4jnsgd1na2vs0mg"},{"bike_id":"adb692e3-757f-448e-88e2-08bb58fbf765","system_id":"levelo_inurba_marseille","lat":43.304749,"lon":5.37889,"is_reserved":false,"is_disabled":false,"rental_uris":{"android":"levelo://app?vid=adb692e3-757f-448e-88e2-08bb58fbf765","ios":"levelo://app?vid=adb692e3-757f-448e-88e2-08bb58fbf765"},"vehicle_type_id":"4","last_reported":1729746580,"current_range_meters":17200,"station_id":"ce4bgup2rcd13ifvqcn0","pricing_plan_id":"cebpf4jnsgd1na2vs0mg"},{"bike_id":"77f4b066-aec9-4c35-96ec-732b3f9a5964","system_id":"levelo_inurba_marseille","lat":43.278984,"lon":5.380079,"is_reserved":false,"is_disabled":false,"rental_uris":{"android":"levelo://app?vid=77f4b066-aec9-4c35-96ec-732b3f9a5964","ios":"levelo://app?vid=77f4b066-aec9-4c35-96ec-732b3f9a5964"},"vehicle_type_id":"4","last_reported":1729746580,"current_range_meters":34800,"station_id":"ce4bhf92rcd13ifvqf50","pricing_plan_id":"cebpf4jnsgd1na2vs0mg"},{"bike_id":"4246efd7-6801-4b7b-b007-6178b971f023","system_id":"levelo_inurba_marseille","lat":43.28434,"lon":5.39177,"is_reserved":false,"is_disabled":false,"rental_uris":{"android":"levelo://app?vid=4246efd7-6801-4b7b-b007-6178b971f023","ios":"levelo://app?vid=4246efd7-6801-4b7b-b007-6178b971f023"},"vehicle_type_id":"4","last_reported":1729746580,"current_range_meters":38800,"station_id":"ce4bhoh2rcd13ifvqh5g","pricing_plan_id":"cebpf4jnsgd1na2vs0mg"},{"bike_id":"22ab1e35-28a4-4b22-b795-3795ae46ef50","system_id":"levelo_inurba_marseille","lat":43.32041,"lon":5.41551,"is_reserved":false,"is_disabled":false,"rental_uris":{"android":"levelo://app?vid=22ab1e35-28a4-4b22-b795-3795ae46ef50","ios":"levelo://app?vid=22ab1e35-28a4-4b22-b795-3795ae46ef50"},"vehicle_type_id":"4","last_reported":1729746580,"current_range_meters":8800,"station_id":"ce4bhq92rcd13ifvqhkg","pricing_plan_id":"cebpf4jnsgd1na2vs0mg"},{"bike_id":"7397392f-0476-4392-864a-87abb3fc4e4a","system_id":"levelo_inurba_marseille","lat":43.30888,"lon":5.39638,"is_reserved":false,"is_disabled":false,"rental_uris":{"android":"levelo://app?vid=7397392f-0476-4392-864a-87abb3fc4e4a","ios":"levelo://app?vid=7397392f-0476-4392-864a-87abb3fc4e4a"},"vehicle_type_id":"4","last_reported":1729746580,"current_range_meters":23200,"station_id":"ce4bh012rcd13ifvqcv0","pricing_plan_id":"cebpf4jnsgd1na2vs0mg"},{"bike_id":"a0bfcec4-1019-4422-bc30-2e46cb48cb4e","system_id":"levelo_inurba_marseille","lat":43.33759,"lon":5.37455,"is_reserved":false,"is_disabled":false,"rental_uris":{"android":"levelo://app?vid=a0bfcec4-1019-4422-bc30-2e46cb48cb4e","ios":"levelo://app?vid=a0bfcec4-1019-4422-bc30-2e46cb48cb4e"},"vehicle_type_id":"4","last_reported":1729746580,"current_range_meters":24400,"station_id":"","pricing_plan_id":"cebpf4jnsgd1na2vs0mg"},{"bike_id":"106754a9-7f28-4856-ad68-7916862f566f","system_id":"levelo_inurba_marseille","lat":43.26806,"lon":5.40266,"is_reserved":false,"is_disabled":false,"rental_uris":{"android":"levelo://app?vid=106754a9-7f28-4856-ad68-7916862f566f","ios":"levelo://app?vid=106754a9-7f28-4856-ad68-7916862f566f"},"vehicle_type_id":"4","last_reported":1729746580,"current_range_meters":38800,"station_id":"ce501612rcd8frsf0b60","pricing_plan_id":"cebpf4jnsgd1na2vs0mg"},{"bike_id":"65831b18-6bfb-4f8d-8d3d-30340f302448","system_id":"levelo_inurba_marseille","lat":43.28844,"lon":5.35844,"is_reserved":false,"is_disabled":false,"rental_uris":{"android":"levelo://app?vid=65831b18-6bfb-4f8d-8d3d-30340f302448","ios":"levelo://app?vid=65831b18-6bfb-4f8d-8d3d-30340f302448"},"vehicle_type_id":"4","last_reported":1729746580,"current_range_meters":38800,"station_id":"ce4bhb12rcd13ifvqem0","pricing_plan_id":"cebpf4jnsgd1na2vs0mg"},{"bike_id":"178565c8-00cd-4ad6-b5d9-88108c13e2fe","system_id":"levelo_inurba_marseille","lat":43.28411,"lon":5.37514,"is_reserved":false,"is_disabled":false,"rental_uris":{"android":"levelo://app?vid=178565c8-00cd-4ad6-b5d9-88108c13e2fe","ios":"levelo://app?vid=178565c8-00cd-4ad6-b5d9-88108c13e2fe"},"vehicle_type_id":"4","last_reported":1729746580,"current_range_meters":38800,"station_id":"ce4bh412rcd13ifvqds0","pricing_plan_id":"cebpf4jnsgd1na2vs0mg"},{"bike_id":"af860a9e-cf32-446b-acb1-d20c9a569468","system_id":"levelo_inurba_marseille","lat":43.25728,"lon":5.41107,"is_reserved":false,"is_disabled":false,"rental_uris":{"android":"levelo://app?vid=af860a9e-cf32-446b-acb1-d20c9a569468","ios":"levelo://app?vid=af860a9e-cf32-446b-acb1-d20c9a569468"},"vehicle_type_id":"4","last_reported":1729746580,"current_range_meters":36800,"station_id":"ce4bhkp2rcd13ifvqgd0","pricing_plan_id":"cebpf4jnsgd1na2vs0mg"},{"bike_id":"9cc86360-5eab-45ae-a458-952e8a91e43e","system_id":"levelo_inurba_marseille","lat":43.22933,"lon":5.35379,"is_reserved":false,"is_disabled":false,"rental_uris":{"android":"levelo://app?vid=9cc86360-5eab-45ae-a458-952e8a91e43e","ios":"levelo://app?vid=9cc86360-5eab-45ae-a458-952e8a91e43e"},"vehicle_type_id":"4","last_reported":1729746580,"current_range_meters":18000,"station_id":"cpo3532slgdg3j2ikp40","pricing_plan_id":"cebpf4jnsgd1na2vs0mg"},{"bike_id":"9f8414d9-8d6a-488a-8592-ad75faa8a566","system_id":"levelo_inurba_marseille","lat":43.28477,"lon":5.38415,"is_reserved":false,"is_disabled":false,"rental_uris":{"android":"levelo://app?vid=9f8414d9-8d6a-488a-8592-ad75faa8a566","ios":"levelo://app?vid=9f8414d9-8d6a-488a-8592-ad75faa8a566"},"vehicle_type_id":"4","last_reported":1729746580,"current_range_meters":30000,"station_id":"ce4bh512rcd13ifvqe3g","pricing_plan_id":"cebpf4jnsgd1na2vs0mg"},{"bike_id":"334339a2-7b68-46ab-84f8-5314e58f57b5","system_id":"levelo_inurba_marseille","lat":43.30799,"lon":5.38148,"is_reserved":false,"is_disabled":false,"rental_uris":{"android":"levelo://app?vid=334339a2-7b68-46ab-84f8-5314e58f57b5","ios":"levelo://app?vid=334339a2-7b68-46ab-84f8-5314e58f57b5"},"vehicle_type_id":"4","last_reported":1729746580,"current_range_meters":37600,"station_id":"ce4bgt12rcd13ifvqce0","pricing_plan_id":"cebpf4jnsgd1na2vs0mg"},{"bike_id":"d4178fde-d9f1-489b-bf7f-8a98157127e4","system_id":"levelo_inurba_marseille","lat":43.294416,"lon":5.397498,"is_reserved":false,"is_disabled":false,"rental_uris":{"android":"levelo://app?vid=d4178fde-d9f1-489b-bf7f-8a98157127e4","ios":"levelo://app?vid=d4178fde-d9f1-489b-bf7f-8a98157127e4"},"vehicle_type_id":"4","last_reported":1729746580,"current_range_meters":38800,"station_id":"ce4bh3h2rcd13ifvqdo0","pricing_plan_id":"cebpf4jnsgd1na2vs0mg"},{"bike_id":"2791bec2-772a-458f-a57f-284af3c571b9","system_id":"levelo_inurba_marseille","lat":43.27614,"lon":5.36111,"is_reserved":false,"is_disabled":false,"rental_uris":{"android":"levelo://app?vid=2791bec2-772a-458f-a57f-284af3c571b9","ios":"levelo://app?vid=2791bec2-772a-458f-a57f-284af3c571b9"},"vehicle_type_id":"4","last_reported":1729746580,"current_range_meters":38400,"station_id":"ce4bgj92rcd13ifvqbe0","pricing_plan_id":"cebpf4jnsgd1na2vs0mg"},{"bike_id":"4a0e8360-a05c-4109-81a9-fc615adb8a72","system_id":"levelo_inurba_marseille","lat":43.30889,"lon":5.39641,"is_reserved":false,"is_disabled":false,"rental_uris":{"android":"levelo://app?vid=4a0e8360-a05c-4109-81a9-fc615adb8a72","ios":"levelo://app?vid=4a0e8360-a05c-4109-81a9-fc615adb8a72"},"vehicle_type_id":"4","last_reported":1729746580,"current_range_meters":17600,"station_id":"ce4bh012rcd13ifvqcv0","pricing_plan_id":"cebpf4jnsgd1na2vs0mg"},{"bike_id":"be230514-183a-4179-859d-7351e13f49e9","system_id":"levelo_inurba_marseille","lat":43.28033,"lon":5.36929,"is_reserved":false,"is_disabled":false,"rental_uris":{"android":"levelo://app?vid=be230514-183a-4179-859d-7351e13f49e9","ios":"levelo://app?vid=be230514-183a-4179-859d-7351e13f49e9"},"vehicle_type_id":"4","last_reported":1729746580,"current_range_meters":33600,"station_id":"ce4bha12rcd13ifvqef0","pricing_plan_id":"cebpf4jnsgd1na2vs0mg"},{"bike_id":"bbb4600c-9366-419c-8bcb-c3c1c4bc5806","system_id":"levelo_inurba_marseille","lat":43.274951,"lon":5.424466,"is_reserved":false,"is_disabled":false,"rental_uris":{"android":"levelo://app?vid=bbb4600c-9366-419c-8bcb-c3c1c4bc5806","ios":"levelo://app?vid=bbb4600c-9366-419c-8bcb-c3c1c4bc5806"},"vehicle_type_id":"4","last_reported":1729746580,"current_range_meters":39200,"station_id":"ce4bhn92rcd13ifvqgrg","pricing_plan_id":"cebpf4jnsgd1na2vs0mg"},{"bike_id":"5fbfa25f-18f4-4163-b216-2ccea5d0ec25","system_id":"levelo_inurba_marseille","lat":43.26561,"lon":5.37284,"is_reserved":false,"is_disabled":false,"rental_uris":{"android":"levelo://app?vid=5fbfa25f-18f4-4163-b216-2ccea5d0ec25","ios":"levelo://app?vid=5fbfa25f-18f4-4163-b216-2ccea5d0ec25"},"vehicle_type_id":"4","last_reported":1729746580,"current_range_meters":6400,"station_id":"ce4bhg12rcd13ifvqf70","pricing_plan_id":"cebpf4jnsgd1na2vs0mg"},{"bike_id":"8d0955dd-8bd4-4746-baaa-693d700c8601","system_id":"levelo_inurba_marseille","lat":43.31886,"lon":5.40729,"is_reserved":false,"is_disabled":false,"rental_uris":{"android":"levelo://app?vid=8d0955dd-8bd4-4746-baaa-693d700c8601","ios":"levelo://app?vid=8d0955dd-8bd4-4746-baaa-693d700c8601"},"vehicle_type_id":"4","last_reported":1729746580,"current_range_meters":28800,"station_id":"ce4bhq12rcd13ifvqhig","pricing_plan_id":"cebpf4jnsgd1na2vs0mg"},{"bike_id":"cfcebfa7-3f59-4d32-a8f1-45e59f6e2f26","system_id":"levelo_inurba_marseille","lat":43.22932,"lon":5.35378,"is_reserved":false,"is_disabled":false,"rental_uris":{"android":"levelo://app?vid=cfcebfa7-3f59-4d32-a8f1-45e59f6e2f26","ios":"levelo://app?vid=cfcebfa7-3f59-4d32-a8f1-45e59f6e2f26"},"vehicle_type_id":"4","last_reported":1729746580,"current_range_meters":32800,"station_id":"cpo3532slgdg3j2ikp40","pricing_plan_id":"cebpf4jnsgd1na2vs0mg"},{"bike_id":"3e381e9b-65a4-436a-a571-b4ba1ee13663","system_id":"levelo_inurba_marseille","lat":43.32483,"lon":5.36559,"is_reserved":false,"is_disabled":false,"rental_uris":{"android":"levelo://app?vid=3e381e9b-65a4-436a-a571-b4ba1ee13663","ios":"levelo://app?vid=3e381e9b-65a4-436a-a571-b4ba1ee13663"},"vehicle_type_id":"4","last_reported":1729746580,"current_range_meters":16800,"station_id":"ce4bhs12rcd13ifvqhvg","pricing_plan_id":"cebpf4jnsgd1na2vs0mg"},{"bike_id":"a3dcf7ee-59f1-4f53-936b-77f32b59962d","system_id":"levelo_inurba_marseille","lat":43.274978,"lon":5.424499,"is_reserved":false,"is_disabled":false,"rental_uris":{"android":"levelo://app?vid=a3dcf7ee-59f1-4f53-936b-77f32b59962d","ios":"levelo://app?vid=a3dcf7ee-59f1-4f53-936b-77f32b59962d"},"vehicle_type_id":"4","last_reported":1729746580,"current_range_meters":39200,"station_id":"ce4bhn92rcd13ifvqgrg","pricing_plan_id":"cebpf4jnsgd1na2vs0mg"},{"bike_id":"3a526fc6-5f14-429c-8829-287dc38ef285","system_id":"levelo_inurba_marseille","lat":43.22931,"lon":5.35374,"is_reserved":false,"is_disabled":false,"rental_uris":{"android":"levelo://app?vid=3a526fc6-5f14-429c-8829-287dc38ef285","ios":"levelo://app?vid=3a526fc6-5f14-429c-8829-287dc38ef285"},"vehicle_type_id":"4","last_reported":1729746580,"current_range_meters":33200,"station_id":"cpo3532slgdg3j2ikp40","pricing_plan_id":"cebpf4jnsgd1na2vs0mg"},{"bike_id":"50d120a1-10db-46f7-af46-f5262df90342","system_id":"levelo_inurba_marseille","lat":43.24185,"lon":5.39727,"is_reserved":false,"is_disabled":false,"rental_uris":{"android":"levelo://app?vid=50d120a1-10db-46f7-af46-f5262df90342","ios":"levelo://app?vid=50d120a1-10db-46f7-af46-f5262df90342"},"vehicle_type_id":"4","last_reported":1729746580,"current_range_meters":30800,"station_id":"ce4bhn12rcd13ifvqgpg","pricing_plan_id":"cebpf4jnsgd1na2vs0mg"},{"bike_id":"d57a072d-6550-4bc1-b290-ca5af4ceaa49","system_id":"levelo_inurba_marseille","lat":43.26193,"lon":5.37448,"is_reserved":false,"is_disabled":false,"rental_uris":{"android":"levelo://app?vid=d57a072d-6550-4bc1-b290-ca5af4ceaa49","ios":"levelo://app?vid=d57a072d-6550-4bc1-b290-ca5af4ceaa49"},"vehicle_type_id":"4","last_reported":1729746580,"current_range_meters":33600,"station_id":"ce4bhgp2rcd13ifvqfc0","pricing_plan_id":"cebpf4jnsgd1na2vs0mg"},{"bike_id":"a8cd7bce-3b23-4374-87e7-deb598a770f1","system_id":"levelo_inurba_marseille","lat":43.28984,"lon":5.37839,"is_reserved":false,"is_disabled":false,"rental_uris":{"android":"levelo://app?vid=a8cd7bce-3b23-4374-87e7-deb598a770f1","ios":"levelo://app?vid=a8cd7bce-3b23-4374-87e7-deb598a770f1"},"vehicle_type_id":"4","last_reported":1729746580,"current_range_meters":23200,"station_id":"ce4bh9p2rcd13ifvqed0","pricing_plan_id":"cebpf4jnsgd1na2vs0mg"},{"bike_id":"27cd006e-aeab-405b-a10b-9b345408717e","system_id":"levelo_inurba_marseille","lat":43.30799,"lon":5.38167,"is_reserved":false,"is_disabled":false,"rental_uris":{"android":"levelo://app?vid=27cd006e-aeab-405b-a10b-9b345408717e","ios":"levelo://app?vid=27cd006e-aeab-405b-a10b-9b345408717e"},"vehicle_type_id":"4","last_reported":1729746580,"current_range_meters":35600,"station_id":"ce4bgt12rcd13ifvqce0","pricing_plan_id":"cebpf4jnsgd1na2vs0mg"},{"bike_id":"edd5650d-ba89-4276-bee8-5e06a65ac5f3","system_id":"levelo_inurba_marseille","lat":43.28478,"lon":5.38414,"is_reserved":false,"is_disabled":false,"rental_uris":{"android":"levelo://app?vid=edd5650d-ba89-4276-bee8-5e06a65ac5f3","ios":"levelo://app?vid=edd5650d-ba89-4276-bee8-5e06a65ac5f3"},"vehicle_type_id":"4","last_reported":1729746580,"current_range_meters":36800,"station_id":"ce4bh512rcd13ifvqe3g","pricing_plan_id":"cebpf4jnsgd1na2vs0mg"},{"bike_id":"365a5e76-e012-4983-b8a9-1a07480bde83","system_id":"levelo_inurba_marseille","lat":43.23193,"lon":5.35542,"is_reserved":false,"is_disabled":false,"rental_uris":{"android":"levelo://app?vid=365a5e76-e012-4983-b8a9-1a07480bde83","ios":"levelo://app?vid=365a5e76-e012-4983-b8a9-1a07480bde83"},"vehicle_type_id":"4","last_reported":1729746580,"current_range_meters":38800,"station_id":"ce4bhu92rcd13ifvqi70","pricing_plan_id":"cebpf4jnsgd1na2vs0mg"},{"bike_id":"351f0561-a3cc-4b60-8dce-97a68727c703","system_id":"levelo_inurba_marseille","lat":43.29038,"lon":5.35926,"is_reserved":false,"is_disabled":false,"rental_uris":{"android":"levelo://app?vid=351f0561-a3cc-4b60-8dce-97a68727c703","ios":"levelo://app?vid=351f0561-a3cc-4b60-8dce-97a68727c703"},"vehicle_type_id":"4","last_reported":1729746580,"current_range_meters":39200,"station_id":"ce4bha92rcd13ifvqeg0","pricing_plan_id":"cebpf4jnsgd1na2vs0mg"},{"bike_id":"5a7f4f3c-e25b-4b1b-990b-6321e3db6a88","system_id":"levelo_inurba_marseille","lat":43.308849,"lon":5.396408,"is_reserved":false,"is_disabled":false,"rental_uris":{"android":"levelo://app?vid=5a7f4f3c-e25b-4b1b-990b-6321e3db6a88","ios":"levelo://app?vid=5a7f4f3c-e25b-4b1b-990b-6321e3db6a88"},"vehicle_type_id":"4","last_reported":1729746580,"current_range_meters":36000,"station_id":"ce4bh012rcd13ifvqcv0","pricing_plan_id":"cebpf4jnsgd1na2vs0mg"},{"bike_id":"35ac2a40-91b5-4d88-8ecc-86db02402171","system_id":"levelo_inurba_marseille","lat":43.31069,"lon":5.38347,"is_reserved":false,"is_disabled":false,"rental_uris":{"android":"levelo://app?vid=35ac2a40-91b5-4d88-8ecc-86db02402171","ios":"levelo://app?vid=35ac2a40-91b5-4d88-8ecc-86db02402171"},"vehicle_type_id":"4","last_reported":1729746580,"current_range_meters":38400,"station_id":"ce4bgv92rcd13ifvqcr0","pricing_plan_id":"cebpf4jnsgd1na2vs0mg"},{"bike_id":"1c2e308d-96b7-4d9e-99f2-7f3cc59b81d7","system_id":"levelo_inurba_marseille","lat":43.29911,"lon":5.37467,"is_reserved":false,"is_disabled":false,"rental_uris":{"android":"levelo://app?vid=1c2e308d-96b7-4d9e-99f2-7f3cc59b81d7","ios":"levelo://app?vid=1c2e308d-96b7-4d9e-99f2-7f3cc59b81d7"},"vehicle_type_id":"4","last_reported":1729746580,"current_range_meters":38800,"station_id":"ce4bgjh2rcd13ifvqbg0","pricing_plan_id":"cebpf4jnsgd1na2vs0mg"},{"bike_id":"f3270ecf-9260-4944-b60c-6b6f810cee5f","system_id":"levelo_inurba_marseille","lat":43.305673,"lon":5.393462,"is_reserved":false,"is_disabled":false,"rental_uris":{"android":"levelo://app?vid=f3270ecf-9260-4944-b60c-6b6f810cee5f","ios":"levelo://app?vid=f3270ecf-9260-4944-b60c-6b6f810cee5f"},"vehicle_type_id":"4","last_reported":1729746580,"current_range_meters":10800,"station_id":"ce4bh0p2rcd13ifvqd80","pricing_plan_id":"cebpf4jnsgd1na2vs0mg"},{"bike_id":"8fe62bce-b87b-4c8f-9b20-51e157e8aae4","system_id":"levelo_inurba_marseille","lat":43.30792,"lon":5.38159,"is_reserved":false,"is_disabled":false,"rental_uris":{"android":"levelo://app?vid=8fe62bce-b87b-4c8f-9b20-51e157e8aae4","ios":"levelo://app?vid=8fe62bce-b87b-4c8f-9b20-51e157e8aae4"},"vehicle_type_id":"4","last_reported":1729746580,"current_range_meters":31200,"station_id":"ce4bgt12rcd13ifvqce0","pricing_plan_id":"cebpf4jnsgd1na2vs0mg"},{"bike_id":"ee44d175-69d2-4d16-8c11-f16b7eb9ac46","system_id":"levelo_inurba_marseille","lat":43.29959,"lon":5.39187,"is_reserved":false,"is_disabled":false,"rental_uris":{"android":"levelo://app?vid=ee44d175-69d2-4d16-8c11-f16b7eb9ac46","ios":"levelo://app?vid=ee44d175-69d2-4d16-8c11-f16b7eb9ac46"},"vehicle_type_id":"4","last_reported":1729746580,"current_range_meters":8800,"station_id":"ce4bghh2rcd13ifvqb60","pricing_plan_id":"cebpf4jnsgd1na2vs0mg"},{"bike_id":"437005f9-d58d-4556-8485-bf7bc9b576c4","system_id":"levelo_inurba_marseille","lat":43.29567,"lon":5.39966,"is_reserved":false,"is_disabled":false,"rental_uris":{"android":"levelo://app?vid=437005f9-d58d-4556-8485-bf7bc9b576c4","ios":"levelo://app?vid=437005f9-d58d-4556-8485-bf7bc9b576c4"},"vehicle_type_id":"4","last_reported":1729746580,"current_range_meters":29600,"station_id":"ce4bh312rcd13ifvqdj0","pricing_plan_id":"cebpf4jnsgd1na2vs0mg"},{"bike_id":"e6c78128-59ad-4f84-baf2-7ef4c7e683ec","system_id":"levelo_inurba_marseille","lat":43.27905,"lon":5.38003,"is_reserved":false,"is_disabled":false,"rental_uris":{"android":"levelo://app?vid=e6c78128-59ad-4f84-baf2-7ef4c7e683ec","ios":"levelo://app?vid=e6c78128-59ad-4f84-baf2-7ef4c7e683ec"},"vehicle_type_id":"4","last_reported":1729746580,"current_range_meters":18000,"station_id":"ce4bhf92rcd13ifvqf50","pricing_plan_id":"cebpf4jnsgd1na2vs0mg"},{"bike_id":"4a638cf6-defc-408e-b127-366c1f15f3fd","system_id":"levelo_inurba_marseille","lat":43.3108,"lon":5.38343,"is_reserved":false,"is_disabled":false,"rental_uris":{"android":"levelo://app?vid=4a638cf6-defc-408e-b127-366c1f15f3fd","ios":"levelo://app?vid=4a638cf6-defc-408e-b127-366c1f15f3fd"},"vehicle_type_id":"4","last_reported":1729746580,"current_range_meters":26000,"station_id":"ce4bgv92rcd13ifvqcr0","pricing_plan_id":"cebpf4jnsgd1na2vs0mg"},{"bike_id":"b6582cc0-ce1b-4fa6-92f3-62cb8dd6c88a","system_id":"levelo_inurba_marseille","lat":43.31364,"lon":5.384996,"is_reserved":false,"is_disabled":false,"rental_uris":{"android":"levelo://app?vid=b6582cc0-ce1b-4fa6-92f3-62cb8dd6c88a","ios":"levelo://app?vid=b6582cc0-ce1b-4fa6-92f3-62cb8dd6c88a"},"vehicle_type_id":"4","last_reported":1729746580,"current_range_meters":38800,"station_id":"ce4bgt92rcd13ifvqcf0","pricing_plan_id":"cebpf4jnsgd1na2vs0mg"},{"bike_id":"b43de801-769c-41cf-9a46-58b74fa34c01","system_id":"levelo_inurba_marseille","lat":43.275269,"lon":5.389859,"is_reserved":false,"is_disabled":false,"rental_uris":{"android":"levelo://app?vid=b43de801-769c-41cf-9a46-58b74fa34c01","ios":"levelo://app?vid=b43de801-769c-41cf-9a46-58b74fa34c01"},"vehicle_type_id":"4","last_reported":1729746580,"current_range_meters":31200,"station_id":"ce4bh3h2rcd13ifvqdn0","pricing_plan_id":"cebpf4jnsgd1na2vs0mg"},