{"last_updated":1728866815,"ttl":60,"version":"2.2","data":{"bikes":[{"bike_id":"2a632a08-3fd9-4642-a9d8-42d817856126","system_id":"levelo_inurba_marseille","lat":43.24388,"lon":5.37058,"is_reserved":false,"is_disabled":false,"rental_uris":{"android":"levelo://app?vid=2a632a08-3fd9-4642-a9d8-42d817856126","ios":"levelo://app?vid=2a632a08-3fd9-4642-a9d8-42d817856126"},"vehicle_type_id":"4","last_reported":1728866815,"current_range_meters":30000,"station_id":"ce4bhhh2rcd13ifvqfk0","pricing_plan_id":"cebpf4jnsgd1na2vs0mg"},{"bike_id":"945d5ebb-6800-44bf-8a24-4d44f5d12d6e","system_id":"levelo_inurba_marseille","lat":43.31076,"lon":5.3835,"is_reserved":false,"is_disabled":false,"rental_uris":{"android":"levelo://app?vid=945d5ebb-6800-44bf-8a24-4d44f5d12d6e","ios":"levelo://app?vid=945d5ebb-6800-44bf-8a24-4d44f5d12d6e"},"vehicle_type_id":"4","last_reported":1728866815,"current_range_meters":17200,"station_id":"ce4bgv92rcd13ifvqcr0","pricing_plan_id":"cebpf4jnsgd1na2vs0mg"},{"bike_id":"65f2e9e8-8927-465e-a2e8-cfabd2b0d4ae","system_id":"levelo_inurba_marseille","lat":43.31543,"lon":5.38027,"is_reserved":false,"is_disabled":false,"rental_uris":{"android":"levelo://app?vid=65f2e9e8-8927-465e-a2e8-cfabd2b0d4ae","ios":"levelo://app?vid=65f2e9e8-8927-465e-a2e8-cfabd2b0d4ae"},"vehicle_type_id":"4","last_reported":1728866815,"current_range_meters":11600,"station_id":"ce4bhsp2rcd13ifvqi50","pricing_plan_id":"cebpf4jnsgd1na2vs0mg"},{"bike_id":"c1f09556-86e4-40bb-943c-8e616c1cf21f","system_id":"levelo_inurba_marseille","lat":43.2841,"lon":5.37513,"is_reserved":false,"is_disabled":false,"rental_uris":{"android":"levelo://app?vid=c1f09556-86e4-40bb-943c-8e616c1cf21f","ios":"levelo://app?vid=c1f09556-86e4-40bb-943c-8e616c1cf21f"},"vehicle_type_id":"4","last_reported":1728866815,"current_range_meters":38800,"station_id":"ce4bh412rcd13ifvqds0","pricing_plan_id":"cebpf4jnsgd1na2vs0mg"},{"bike_id":"c9e415a7-b966-4ae4-91a4-b51e2f841692","system_id":"levelo_inurba_marseille","lat":43.28716,"lon":5.37948,"is_reserved":false,"is_disabled":false,"rental_uris":{"android":"levelo://app?vid=c9e415a7-b966-4ae4-91a4-b51e2f841692","ios":"levelo://app?vid=c9e415a7-b966-4ae4-91a4-b51e2f841692"},"vehicle_type_id":"4","last_reported":1728866815,"current_range_meters":38800,"station_id":"ce4bh9p2rcd13ifvqec0","pricing_plan_id":"cebpf4jnsgd1na2vs0mg"},{"bike_id":"a682328d-e9d6-413c-b006-fa30ccd80289","system_id":"levelo_inurba_marseille","lat":43.27964,"lon":5.38723,"is_reserved":false,"is_disabled":false,"rental_uris":{"android":"levelo://app?vid=a682328d-e9d6-413c-b006-fa30ccd80289","ios":"levelo://app?vid=a682328d-e9d6-413c-b006-fa30ccd80289"},"vehicle_type_id":"4","last_reported":1728866815,"current_range_meters":38800,"station_id":"ce4bhg12rcd13ifvqf80","pricing_plan_id":"cebpf4jnsgd1na2vs0mg"},{"bike_id":"d9b629b0-e23d-4e1d-ab01-060732d693c4","system_id":"levelo_inurba_marseille","lat":43.30007,"lon":5.37386,"is_reserved":false,"is_disabled":false,"rental_uris":{"android":"levelo://app?vid=d9b629b0-e23d-4e1d-ab01-060732d693c4","ios":"levelo://app?vid=d9b629b0-e23d-4e1d-ab01-060732d693c4"},"vehicle_type_id":"4","last_reported":1728866815,"current_range_meters":8400,"station_id":"","pricing_plan_id":"cebpf4jnsgd1na2vs0mg"},{"bike_id":"599c09fe-085f-4c4d-bcb2-98da69515aba","system_id":"levelo_inurba_marseille","lat":43.23065,"lon":5.35488,"is_reserved":false,"is_disabled":false,"rental_uris":{"android":"levelo://app?vid=599c09fe-085f-4c4d-bcb2-98da69515aba","ios":"levelo://app?vid=599c09fe-085f-4c4d-bcb2-98da69515aba"},"vehicle_type_id":"4","last_reported":1728866815,"current_range_meters":38400,"station_id":"cpo3342slgdg3j2ifvpg","pricing_plan_id":"cebpf4jnsgd1na2vs0mg"},{"bike_id":"818fc077-2ec5-4c51-bbb3-d42e9f9e0354","system_id":"levelo_inurba_marseille","lat":43.24668,"lon":5.38156,"is_reserved":false,"is_disabled":false,"rental_uris":{"android":"levelo://app?vid=818fc077-2ec5-4c51-bbb3-d42e9f9e0354","ios":"levelo://app?vid=818fc077-2ec5-4c51-bbb3-d42e9f9e0354"},"vehicle_type_id":"4","last_reported":1728866815,"current_range_meters":38800,"station_id":"ce4bhih2rcd13ifvqfr0","pricing_plan_id":"cebpf4jnsgd1na2vs0mg"},{"bike_id":"8c356e45-275b-4152-bbb5-ff2acd112420","system_id":"levelo_inurba_marseille","lat":43.29567,"lon":5.39973,"is_reserved":false,"is_disabled":false,"rental_uris":{"android":"levelo://app?vid=8c356e45-275b-4152-bbb5-ff2acd112420","ios":"levelo://app?vid=8c356e45-275b-4152-bbb5-ff2acd112420"},"vehicle_type_id":"4","last_reported":1728866815,"current_range_meters":25200,"station_id":"ce4bh312rcd13ifvqdj0","pricing_plan_id":"cebpf4jnsgd1na2vs0mg"},{"bike_id":"2cd9817e-e70d-4d6c-a792-7cadd096c515","system_id":"levelo_inurba_marseille","lat":43.30356,"lon":5.4187,"is_reserved":false,"is_disabled":false,"rental_uris":{"android":"levelo://app?vid=2cd9817e-e70d-4d6c-a792-7cadd096c515","ios":"levelo://app?vid=2cd9817e-e70d-4d6c-a792-7cadd096c515"},"vehicle_type_id":"4","last_reported":1728866815,"current_range_meters":6800,"station_id":"ce4bhop2rcd13ifvqh7g","pricing_plan_id":"cebpf4jnsgd1na2vs0mg"},{"bike_id":"4d05c333-000b-4a5d-8081-e06757d62003","system_id":"levelo_inurba_marseille","lat":43.294461,"lon":5.397473,"is_reserved":false,"is_disabled":false,"rental_uris":{"android":"levelo://app?vid=4d05c333-000b-4a5d-8081-e06757d62003","ios":"levelo://app?vid=4d05c333-000b-4a5d-8081-e06757d62003"},"vehicle_type_id":"4","last_reported":1728866815,"current_range_meters":38400,"station_id":"ce4bh3h2rcd13ifvqdo0","pricing_plan_id":"cebpf4jnsgd1na2vs0mg"},{"bike_id":"a9cb76f9-5ae3-4331-b743-8e238e721f99","system_id":"levelo_inurba_marseille","lat":43.28668,"lon":5.38715,"is_reserved":false,"is_disabled":false,"rental_uris":{"android":"levelo://app?vid=a9cb76f9-5ae3-4331-b743-8e238e721f99","ios":"levelo://app?vid=a9cb76f9-5ae3-4331-b743-8e238e721f99"},"vehicle_type_id":"4","last_reported":1728866815,"current_range_meters":36000,"station_id":"ce4bh492rcd13ifvqdug","pricing_plan_id":"cebpf4jnsgd1na2vs0mg"},{"bike_id":"d5904edc-115e-41fa-8710-b55e98f606fc","system_id":"levelo_inurba_marseille","lat":43.31166,"lon":5.38707,"is_reserved":false,"is_disabled":false,"rental_uris":{"android":"levelo://app?vid=d5904edc-115e-41fa-8710-b55e98f606fc","ios":"levelo://app?vid=d5904edc-115e-41fa-8710-b55e98f606fc"},"vehicle_type_id":"4","last_reported":1728866815,"current_range_meters":34800,"station_id":"ce4bgv12rcd13ifvqcp0","pricing_plan_id":"cebpf4jnsgd1na2vs0mg"},{"bike_id":"2c10af63-08f4-40bf-83a2-1890160187a6","system_id":"levelo_inurba_marseille","lat":43.29891,"lon":5.43651,"is_reserved":false,"is_disabled":false,"rental_uris":{"android":"levelo://app?vid=2c10af63-08f4-40bf-83a2-1890160187a6","ios":"levelo://app?vid=2c10af63-08f4-40bf-83a2-1890160187a6"},"vehicle_type_id":"4","last_reported":1728866815,"current_range_meters":38800,"station_id":"ce4bhpp2rcd13ifvqhfg","pricing_plan_id":"cebpf4jnsgd1na2vs0mg"},{"bike_id":"b696cee9-75d6-4227-beed-cc2ae83fd5f9","system_id":"levelo_inurba_marseille","lat":43.28342,"lon":5.38102,"is_reserved":false,"is_disabled":false,"rental_uris":{"android":"levelo://app?vid=b696cee9-75d6-4227-beed-cc2ae83fd5f9","ios":"levelo://app?vid=b696cee9-75d6-4227-beed-cc2ae83fd5f9"},"vehicle_type_id":"4","last_reported":1728866815,"current_range_meters":34800,"station_id":"ce4bh412rcd13ifvqdr0","pricing_plan_id":"cebpf4jnsgd1na2vs0mg"},{"bike_id":"929ca747-859a-443a-8b86-3ef0f40cf27e","system_id":"levelo_inurba_marseille","lat":43.31168,"lon":5.38708,"is_reserved":false,"is_disabled":false,"rental_uris":{"android":"levelo://app?vid=929ca747-859a-443a-8b86-3ef0f40cf27e","ios":"levelo://app?vid=929ca747-859a-443a-8b86-3ef0f40cf27e"},"vehicle_type_id":"4","last_reported":1728866815,"current_range_meters":38800,"station_id":"ce4bgv12rcd13ifvqcp0","pricing_plan_id":"cebpf4jnsgd1na2vs0mg"},{"bike_id":"948ca269-6f61-4d29-9ead-68c1ae2d86ad","system_id":"levelo_inurba_marseille","lat":43.29277,"lon":5.40109,"is_reserved":false,"is_disabled":false,"rental_uris":{"android":"levelo://app?vid=948ca269-6f61-4d29-9ead-68c1ae2d86ad","ios":"levelo://app?vid=948ca269-6f61-4d29-9ead-68c1ae2d86ad"},"vehicle_type_id":"4","last_reported":1728866815,"current_range_meters":32800,"station_id":"ce4bh312rcd13ifvqdk0","pricing_plan_id":"cebpf4jnsgd1na2vs0mg"},{"bike_id":"c1526f14-0f53-47fd-bc6e-2dc8711b4bf6","system_id":"levelo_inurba_marseille","lat":43.29898,"lon":5.43656,"is_reserved":false,"is_disabled":false,"rental_uris":{"android":"levelo://app?vid=c1526f14-0f53-47fd-bc6e-2dc8711b4bf6","ios":"levelo://app?vid=c1526f14-0f53-47fd-bc6e-2dc8711b4bf6"},"vehicle_type_id":"4","last_reported":1728866815,"current_range_meters":27600,"station_id":"ce4bhpp2rcd13ifvqhfg","pricing_plan_id":"cebpf4jnsgd1na2vs0mg"},{"bike_id":"fff926e7-1806-450c-84b7-f9e767d4ea3e","system_id":"levelo_inurba_marseille","lat":43.28222,"lon":5.39517,"is_reserved":false,"is_disabled":false,"rental_uris":{"android":"levelo://app?vid=fff926e7-1806-450c-84b7-f9e767d4ea3e","ios":"levelo://app?vid=fff926e7-1806-450c-84b7-f9e767d4ea3e"},"vehicle_type_id":"4","last_reported":1728866815,"current_range_meters":9200,"station_id":"","pricing_plan_id":"cebpf4jnsgd1na2vs0mg"},{"bike_id":"1577fecb-cfb2-4506-83a8-2cd8ebbde5be","system_id":"levelo_inurba_marseille","lat":43.29321,"lon":5.37302,"is_reserved":false,"is_disabled":false,"rental_uris":{"android":"levelo://app?vid=1577fecb-cfb2-4506-83a8-2cd8ebbde5be","ios":"levelo://app?vid=1577fecb-cfb2-4506-83a8-2cd8ebbde5be"},"vehicle_type_id":"4","last_reported":1728866815,"current_range_meters":4000,"station_id":"","pricing_plan_id":"cebpf4jnsgd1na2vs0mg"},{"bike_id":"5c21b384-3236-4bcf-9dde-cab1ee0147ba","system_id":"levelo_inurba_marseille","lat":43.30095,"lon":5.39069,"is_reserved":false,"is_disabled":false,"rental_uris":{"android":"levelo://app?vid=5c21b384-3236-4bcf-9dde-cab1ee0147ba","ios":"levelo://app?vid=5c21b384-3236-4bcf-9dde-cab1ee0147ba"},"vehicle_type_id":"4","last_reported":1728866815,"current_range_meters":38800,"station_id":"ce4bh192rcd13ifvqdb0","pricing_plan_id":"cebpf4jnsgd1na2vs0mg"},{"bike_id":"ea469873-c8d6-4792-9df5-faf878c51e27","system_id":"levelo_inurba_marseille","lat":43.32333,"lon":5.40619,"is_reserved":false,"is_disabled":false,"rental_uris":{"android":"levelo://app?vid=ea469873-c8d6-4792-9df5-faf878c51e27","ios":"levelo://app?vid=ea469873-c8d6-4792-9df5-faf878c51e27"},"vehicle_type_id":"4","last_reported":1728866815,"current_range_meters":31200,"station_id":"ce4bhq92rcd13ifvqhjg","pricing_plan_id":"cebpf4jnsgd1na2vs0mg"},{"bike_id":"06966271-aa40-4ae0-8856-e4cdbbdcc3f1","system_id":"levelo_inurba_marseille","lat":43.28665,"lon":5.36361,"is_reserved":false,"is_disabled":false,"rental_uris":{"android":"levelo://app?vid=06966271-aa40-4ae0-8856-e4cdbbdcc3f1","ios":"levelo://app?vid=06966271-aa40-4ae0-8856-e4cdbbdcc3f1"},"vehicle_type_id":"4","last_reported":1728866815,"current_range_meters":38800,"station_id":"ce4bhah2rcd13ifvqej0","pricing_plan_id":"cebpf4jnsgd1na2vs0mg"},{"bike_id":"c4b55267-35ce-45c1-b755-eddb35dda50d","system_id":"levelo_inurba_marseille","lat":43.31538,"lon":5.38023,"is_reserved":false,"is_disabled":false,"rental_uris":{"android":"levelo://app?vid=c4b55267-35ce-45c1-b755-eddb35dda50d","ios":"levelo://app?vid=c4b55267-35ce-45c1-b755-eddb35dda50d"},"vehicle_type_id":"4","last_reported":1728866815,"current_range_meters":27600,"station_id":"ce4bhsp2rcd13ifvqi50","pricing_plan_id":"cebpf4jnsgd1na2vs0mg"},{"bike_id":"8dc0ab94-8aad-4c45-a5f5-61917d32370f","system_id":"levelo_inurba_marseille","lat":43.29894,"lon":5.43657,"is_reserved":false,"is_disabled":false,"rental_uris":{"android":"levelo://app?vid=8dc0ab94-8aad-4c45-a5f5-61917d32370f","ios":"levelo://app?vid=8dc0ab94-8aad-4c45-a5f5-61917d32370f"},"vehicle_type_id":"4","last_reported":1728866815,"current_range_meters":32400,"station_id":"ce4bhpp2rcd13ifvqhfg","pricing_plan_id":"cebpf4jnsgd1na2vs0mg"},{"bike_id":"64f7ad20-be86-4d5d-88c6-762ada53b6b1","system_id":"levelo_inurba_marseille","lat":43.2925,"lon":5.40909,"is_reserved":false,"is_disabled":false,"rental_uris":{"android":"levelo://app?vid=64f7ad20-be86-4d5d-88c6-762ada53b6b1","ios":"levelo://app?vid=64f7ad20-be86-4d5d-88c6-762ada53b6b1"},"vehicle_type_id":"4","last_reported":1728866815,"current_range_meters":36400,"station_id":"ce4bh192rcd13ifvqdc0","pricing_plan_id":"cebpf4jnsgd1na2vs0mg"},{"bike_id":"a78f6ee5-a81d-4473-b5f9-8c4f33e18e6c","system_id":"levelo_inurba_marseille","lat":43.26676,"lon":5.38262,"is_reserved":false,"is_disabled":false,"rental_uris":{"android":"levelo://app?vid=a78f6ee5-a81d-4473-b5f9-8c4f33e18e6c","ios":"levelo://app?vid=a78f6ee5-a81d-4473-b5f9-8c4f33e18e6c"},"vehicle_type_id":"4","last_reported":1728866815,"current_range_meters":28400,"station_id":"ce4bhg92rcd13ifvqf90","pricing_plan_id":"cebpf4jnsgd1na2vs0mg"},{"bike_id":"3e43a9b4-4b0d-44de-97cd-dd18bf9fc04f","system_id":"levelo_inurba_marseille","lat":43.27611,"lon":5.36109,"is_reserved":false,"is_disabled":false,"rental_uris":{"android":"levelo://app?vid=3e43a9b4-4b0d-44de-97cd-dd18bf9fc04f","ios":"levelo://app?vid=3e43a9b4-4b0d-44de-97cd-dd18bf9fc04f"},"vehicle_type_id":"4","last_reported":1728866815,"current_range_meters":38400,"station_id":"ce4bgj92rcd13ifvqbe0","pricing_plan_id":"cebpf4jnsgd1na2vs0mg"},{"bike_id":"bd699a96-7db9-4f39-8575-4ba254036b6c","system_id":"levelo_inurba_marseille","lat":43.26956,"lon":5.38627,"is_reserved":false,"is_disabled":false,"rental_uris":{"android":"levelo://app?vid=bd699a96-7db9-4f39-8575-4ba254036b6c","ios":"levelo://app?vid=bd699a96-7db9-4f39-8575-4ba254036b6c"},"vehicle_type_id":"4","last_reported":1728866815,"current_range_meters":37600,"station_id":"ce4bhh92rcd13ifvqfh0","pricing_plan_id":"cebpf4jnsgd1na2vs0mg"},{"bike_id":"6b2daff3-9851-4dff-9081-e0ec010599e4","system_id":"levelo_inurba_marseille","lat":43.314515,"lon":5.37384,"is_reserved":false,"is_disabled":false,"rental_uris":{"android":"levelo://app?vid=6b2daff3-9851-4dff-9081-e0ec010599e4","ios":"levelo://app?vid=6b2daff3-9851-4dff-9081-e0ec010599e4"},"vehicle_type_id":"4","last_reported":1728866815,"current_range_meters":30400,"station_id":"","pricing_plan_id":"cebpf4jnsgd1na2vs0mg"},{"bike_id":"0bc99fe3-8e58-4273-89db-10eb2b467ab0","system_id":"levelo_inurba_marseille","lat":43.31538,"lon":5.38025,"is_reserved":false,"is_disabled":false,"rental_uris":{"android":"levelo://app?vid=0bc99fe3-8e58-4273-89db-10eb2b467ab0","ios":"levelo://app?vid=0bc99fe3-8e58-4273-89db-10eb2b467ab0"},"vehicle_type_id":"4","last_reported":1728866815,"current_range_meters":19600,"station_id":"ce4bhsp2rcd13ifvqi50","pricing_plan_id":"cebpf4jnsgd1na2vs0mg"},{"bike_id":"3c822ecd-c349-4358-955d-935167de7c4d","system_id":"levelo_inurba_marseille","lat":43.27169,"lon":5.40989,"is_reserved":false,"is_disabled":false,"rental_uris":{"android":"levelo://app?vid=3c822ecd-c349-4358-955d-935167de7c4d","ios":"levelo://app?vid=3c822ecd-c349-4358-955d-935167de7c4d"},"vehicle_type_id":"4","last_reported":1728866815,"current_range_meters":8800,"station_id":"ce4bhl12rcd13ifvqgf0","pricing_plan_id":"cebpf4jnsgd1na2vs0mg"},{"bike_id":"73253a8f-e5dc-4264-99b1-3ab44f156d3b","system_id":"levelo_inurba_marseille","lat":43.284,"lon":5.37508,"is_reserved":false,"is_disabled":false,"rental_uris":{"android":"levelo://app?vid=73253a8f-e5dc-4264-99b1-3ab44f156d3b","ios":"levelo://app?vid=73253a8f-e5dc-4264-99b1-3ab44f156d3b"},"vehicle_type_id":"4","last_reported":1728866815,"current_range_meters":38800,"station_id":"ce4bh412rcd13ifvqds0","pricing_plan_id":"cebpf4jnsgd1na2vs0mg"},{"bike_id":"283029a2-47f6-4c73-912c-fb6c2063d8b3","system_id":"levelo_inurba_marseille","lat":43.31992,"lon":5.3815,"is_reserved":false,"is_disabled":false,"rental_uris":{"android":"levelo://app?vid=283029a2-47f6-4c73-912c-fb6c2063d8b3","ios":"levelo://app?vid=283029a2-47f6-4c73-912c-fb6c2063d8b3"},"vehicle_type_id":"4","last_reported":1728866815,"current_range_meters":30000,"station_id":"ce4bhr12rcd13ifvqhpg","pricing_plan_id":"cebpf4jnsgd1na2vs0mg"},{"bike_id":"5ba8d952-f4f0-4705-94d2-bdc18ff02186","system_id":"levelo_inurba_marseille","lat":43.25484,"lon":5.37651,"is_reserved":false,"is_disabled":false,"rental_uris":{"android":"levelo://app?vid=5ba8d952-f4f0-4705-94d2-bdc18ff02186","ios":"levelo://app?vid=5ba8d952-f4f0-4705-94d2-bdc18ff02186"},"vehicle_type_id":"4","last_reported":1728866815,"current_range_meters":35600,"station_id":"ce4bhh12rcd13ifvqff0","pricing_plan_id":"cebpf4jnsgd1na2vs0mg"},{"bike_id":"e6ea3036-08ca-4b9f-b8bd-4d36434ec46d","system_id":"levelo_inurba_marseille","lat":43.288507,"lon":5.358452,"is_reserved":false,"is_disabled":false,"rental_uris":{"android":"levelo://app?vid=e6ea3036-08ca-4b9f-b8bd-4d36434ec46d","ios":"levelo://app?vid=e6ea3036-08ca-4b9f-b8bd-4d36434ec46d"},"vehicle_type_id":"4","last_reported":1728866815,"current_range_meters":9600,"station_id":"ce4bhb12rcd13ifvqem0","pricing_plan_id":"cebpf4jnsgd1na2vs0mg"},{"bike_id":"2651f8e5-e279-4329-be5c-b2437cbbb1f0","system_id":"levelo_inurba_marseille","lat":43.28612,"lon":5.37062,"is_reserved":false,"is_disabled":false,"rental_uris":{"android":"levelo://app?vid=2651f8e5-e279-4329-be5c-b2437cbbb1f0","ios":"levelo://app?vid=2651f8e5-e279-4329-be5c-b2437cbbb1f0"},"vehicle_type_id":"4","last_reported":1728866815,"current_range_meters":37600,"station_id":"ce4bht12rcd13ifvqi60","pricing_plan_id":"cebpf4jnsgd1na2vs0mg"},{"bike_id":"0b9ac74a-86ac-4709-9bf1-fecee604d340","system_id":"levelo_inurba_marseille","lat":43.3013,"lon":5.39868,"is_reserved":false,"is_disabled":false,"rental_uris":{"android":"levelo://app?vid=0b9ac74a-86ac-4709-9bf1-fecee604d340","ios":"levelo://app?vid=0b9ac74a-86ac-4709-9bf1-fecee604d340"},"vehicle_type_id":"4","last_reported":1728866815,"current_range_meters":38800,"station_id":"ce4bh0h2rcd13ifvqd40","pricing_plan_id":"cebpf4jnsgd1na2vs0mg"},{"bike_id":"500a76a1-1ed1-40ac-a566-15bac915b4f9","system_id":"levelo_inurba_marseille","lat":43.24649,"lon":5.38888,"is_reserved":false,"is_disabled":false,"rental_uris":{"android":"levelo://app?vid=500a76a1-1ed1-40ac-a566-15bac915b4f9","ios":"levelo://app?vid=500a76a1-1ed1-40ac-a566-15bac915b4f9"},"vehicle_type_id":"4","last_reported":1728866815,"current_range_meters":38800,"station_id":"ce4bhg12rcd13ifvqf60","pricing_plan_id":"cebpf4jnsgd1na2vs0mg"},{"bike_id":"891ab079-0c3e-46f5-8417-724a219b3a5e","system_id":"levelo_inurba_marseille","lat":43.29633,"lon":5.40597,"is_reserved":false,"is_disabled":false,"rental_uris":{"android":"levelo://app?vid=891ab079-0c3e-46f5-8417-724a219b3a5e","ios":"levelo://app?vid=891ab079-0c3e-46f5-8417-724a219b3a5e"},"vehicle_type_id":"4","last_reported":1728866815,"current_range_meters":38000,"station_id":"ce4bh0h2rcd13ifvqd60","pricing_plan_id":"cebpf4jnsgd1na2vs0mg"},{"bike_id":"42b41bdf-f13e-487e-92b2-a4e56612951a","system_id":"levelo_inurba_marseille","lat":43.29278,"lon":5.40114,"is_reserved":false,"is_disabled":false,"rental_uris":{"android":"levelo://app?vid=42b41bdf-f13e-487e-92b2-a4e56612951a","ios":"levelo://app?vid=42b41bdf-f13e-487e-92b2-a4e56612951a"},"vehicle_type_id":"4","last_reported":1728866815,"current_range_meters":28000,"station_id":"ce4bh312rcd13ifvqdk0","pricing_plan_id":"cebpf4jnsgd1na2vs0mg"},{"bike_id":"7bfca5b2-1ddd-4e5d-b9fc-19e6379d40a0","system_id":"levelo_inurba_marseille","lat":43.2806,"lon":5.40989,"is_reserved":false,"is_disabled":false,"rental_uris":{"android":"levelo://app?vid=7bfca5b2-1ddd-4e5d-b9fc-19e6379d40a0","ios":"levelo://app?vid=7bfca5b2-1ddd-4e5d-b9fc-19e6379d40a0"},"vehicle_type_id":"4","last_reported":1728866815,"current_range_meters":30000,"station_id":"","pricing_plan_id":"cebpf4jnsgd1na2vs0mg"},{"bike_id":"54920ee3-9da7-4e72-a9a3-5f7b1cdb16bb","system_id":"levelo_inurba_marseille","lat":43.279626,"lon":5.387196,"is_reserved":false,"is_disabled":false,"rental_uris":{"android":"levelo://app?vid=54920ee3-9da7-4e72-a9a3-5f7b1cdb16bb","ios":"levelo://app?vid=54920ee3-9da7-4e72-a9a3-5f7b1cdb16bb"},"vehicle_type_id":"4","last_reported":1728866815,"current_range_meters":38800,"station_id":"ce4bhg12rcd13ifvqf80","pricing_plan_id":"cebpf4jnsgd1na2vs0mg"},{"bike_id":"a9f025de-7fbb-467d-8b40-db2fd10475e7","system_id":"levelo_inurba_marseille","lat":43.28106,"lon":5.37839,"is_reserved":false,"is_disabled":false,"rental_uris":{"android":"levelo://app?vid=a9f025de-7fbb-467d-8b40-db2fd10475e7","ios":"levelo://app?vid=a9f025de-7fbb-467d-8b40-db2fd10475e7"},"vehicle_type_id":"4","last_reported":1728866815,"current_range_meters":30000,"station_id":"ce4bha12rcd13ifvqee0","pricing_plan_id":"cebpf4jnsgd1na2vs0mg"},{"bike_id":"ad512d64-68f7-4b61-ba98-aaa25c0dc543","system_id":"levelo_inurba_marseille","lat":43.29558,"lon":5.42277,"is_reserved":false,"is_disabled":false,"rental_uris":{"android":"levelo://app?vid=ad512d64-68f7-4b61-ba98-aaa25c0dc543","ios":"levelo://app?vid=ad512d64-68f7-4b61-ba98-aaa25c0dc543"},"vehicle_type_id":"4","last_reported":1728866815,"current_range_meters":30000,"station_id":"ce4bhph2rcd13ifvqhdg","pricing_plan_id":"cebpf4jnsgd1na2vs0mg"},{"bike_id":"0c122405-24af-471d-8db9-1a2193ba2be6","system_id":"levelo_inurba_marseille","lat":43.28071,"lon":5.39645,"is_reserved":false,"is_disabled":false,"rental_uris":{"android":"levelo://app?vid=0c122405-24af-471d-8db9-1a2193ba2be6","ios":"levelo://app?vid=0c122405-24af-471d-8db9-1a2193ba2be6"},"vehicle_type_id":"4","last_reported":1728866815,"current_range_meters":26800,"station_id":"ce4bho12rcd13ifvqh2g","pricing_plan_id":"cebpf4jnsgd1na2vs0mg"},{"bike_id":"41a0ce93-8d2a-4b77-8ac8-acd497f8c5c4","system_id":"levelo_inurba_marseille","lat":43.2963,"lon":5.40603,"is_reserved":false,"is_disabled":false,"rental_uris":{"android":"levelo://app?vid=41a0ce93-8d2a-4b77-8ac8-acd497f8c5c4","ios":"levelo://app?vid=41a0ce93-8d2a-4b77-8ac8-acd497f8c5c4"},"vehicle_type_id":"4","last_reported":1728866815,"current_range_meters":37600,"station_id":"ce4bh0h2rcd13ifvqd60","pricing_plan_id":"cebpf4jnsgd1na2vs0mg"},{"bike_id":"87e2071f-e4ff-48d2-acf9-a1b6820399c3","system_id":"levelo_inurba_marseille","lat":43.23066,"lon":5.35482,"is_reserved":false,"is_disabled":false,"rental_uris":{"android":"levelo://app?vid=87e2071f-e4ff-48d2-acf9-a1b6820399c3","ios":"levelo://app?vid=87e2071f-e4ff-48d2-acf9-a1b6820399c3"},"vehicle_type_id":"4","last_reported":1728866815,"current_range_meters":38800,"station_id":"cpo3342slgdg3j2ifvpg","pricing_plan_id":"cebpf4jnsgd1na2vs0mg"},{"bike_id":"124bcadb-0047-4081-821e-eec9c7c733b7","system_id":"levelo_inurba_marseille","lat":43.336131,"lon":5.410225,"is_reserved":false,"is_disabled":false,"rental_uris":{"android":"levelo://app?vid=124bcadb-0047-4081-821e-eec9c7c733b7","ios":"levelo://app?vid=124bcadb-0047-4081-821e-eec9c7c733b7"},"vehicle_type_id":"4","last_reported":1728866815,"current_range_meters":12000,"station_id":"ce4bhqh2rcd13ifvqhmg","pricing_plan_id":"cebpf4jnsgd1na2vs0mg"},{"bike_id":"a98f186f-4978-436b-b0e6-666cbcc8ce94","system_id":"levelo_inurba_marseille","lat":43.2408,"lon":5.37757,"is_reserved":false,"is_disabled":false,"rental_uris":{"android":"levelo://app?vid=a98f186f-4978-436b-b0e6-666cbcc8ce94","ios":"levelo://app?vid=a98f186f-4978-436b-b0e6-666cbcc8ce94"},"vehicle_type_id":"4","last_reported":1728866815,"current_range_meters":38800,"station_id":"ce4bhnp2rcd13ifvqgvg","pricing_plan_id":"cebpf4jnsgd1na2vs0mg"},{"bike_id":"834a2c94-00e6-40af-8a85-f8a19e43e826","system_id":"levelo_inurba_marseille","lat":43.29026,"lon":5.38644,"is_reserved":false,"is_disabled":false,"rental_uris":{"android":"levelo://app?vid=834a2c94-00e6-40af-8a85-f8a19e43e826","ios":"levelo://app?vid=834a2c94-00e6-40af-8a85-f8a19e43e826"},"vehicle_type_id":"4","last_reported":1728866815,"current_range_meters":37600,"station_id":"ce4bh4p2rcd13ifvqe0g","pricing_plan_id":"cebpf4jnsgd1na2vs0mg"},{"bike_id":"4456a4b0-7a03-479c-ba22-41450d791558","system_id":"levelo_inurba_marseille","lat":43.28343,"lon":5.381,"is_reserved":false,"is_disabled":false,"rental_uris":{"android":"levelo://app?vid=4456a4b0-7a03-479c-ba22-41450d791558","ios":"levelo://app?vid=4456a4b0-7a03-479c-ba22-41450d791558"},"vehicle_type_id":"4","last_reported":1728866815,"current_range_meters":39200,"station_id":"ce4bh412rcd13ifvqdr0","pricing_plan_id":"cebpf4jnsgd1na2vs0mg"},{"bike_id":"cb0fa5b9-00ee-48fc-9ffa-599816c760e3","system_id":"levelo_inurba_marseille","lat":43.28104,"lon":5.37845,"is_reserved":false,"is_disabled":false,"rental_uris":{"android":"levelo://app?vid=cb0fa5b9-00ee-48fc-9ffa-599816c760e3","ios":"levelo://app?vid=cb0fa5b9-00ee-48fc-9ffa-599816c760e3"},"vehicle_type_id":"4","last_reported":1728866815,"current_range_meters":38800,"station_id":"ce4bha12rcd13ifvqee0","pricing_plan_id":"cebpf4jnsgd1na2vs0mg"},{"bike_id":"0a9f94b7-fe6d-4de8-b6fd-3225ceae69fc","system_id":"levelo_inurba_marseille","lat":43.28978,"lon":5.37841,"is_reserved":false,"is_disabled":false,"rental_uris":{"android":"levelo://app?vid=0a9f94b7-fe6d-4de8-b6fd-3225ceae69fc","ios":"levelo://app?vid=0a9f94b7-fe6d-4de8-b6fd-3225ceae69fc"},"vehicle_type_id":"4","last_reported":1728866815,"current_range_meters":38800,"station_id":"ce4bh9p2rcd13ifvqed0","pricing_plan_id":"cebpf4jnsgd1na2vs0mg"},{"bike_id":"91126898-d9aa-4637-b3e3-caaa451f390c","system_id":"levelo_inurba_marseille","lat":43.297918,"lon":5.393444,"is_reserved":false,"is_disabled":false,"rental_uris":{"android":"levelo://app?vid=91126898-d9aa-4637-b3e3-caaa451f390c","ios":"levelo://app?vid=91126898-d9aa-4637-b3e3-caaa451f390c"},"vehicle_type_id":"4","last_reported":1728866815,"current_range_meters":39200,"station_id":"chh1huq6cuj3fo74tm60","pricing_plan_id":"cebpf4jnsgd1na2vs0mg"},{"bike_id":"e174b682-e6fc-4131-8da3-c529e452fc64","system_id":"levelo_inurba_marseille","lat":43.28726,"lon":5.36092,"is_reserved":false,"is_disabled":false,"rental_uris":{"android":"levelo://app?vid=e174b682-e6fc-4131-8da3-c529e452fc64","ios":"levelo://app?vid=e174b682-e6fc-4131-8da3-c529e452fc64"},"vehicle_type_id":"4","last_reported":1728866815,"current_range_meters":28800,"station_id":"cki0cbj6b192h4jlfktg","pricing_plan_id":"cebpf4jnsgd1na2vs0mg"},{"bike_id":"0df78cbb-1921-43c2-a640-252f457a08f2","system_id":"levelo_inurba_marseille","lat":43.29872,"lon":5.397294,"is_reserved":false,"is_disabled":false,"rental_uris":{"android":"levelo://app?vid=0df78cbb-1921-43c2-a640-252f457a08f2","ios":"levelo://app?vid=0df78cbb-1921-43c2-a640-252f457a08f2"},"vehicle_type_id":"4","last_reported":1728866815,"current_range_meters":33200,"station_id":"ce4bh0h2rcd13ifvqd50","pricing_plan_id":"cebpf4jnsgd1na2vs0mg"},{"bike_id":"fee72667-3bfa-47c4-a255-39a9d24cb560","system_id":"levelo_inurba_marseille","lat":43.28705,"lon":5.39983,"is_reserved":false,"is_disabled":false,"rental_uris":{"android":"levelo://app?vid=fee72667-3bfa-47c4-a255-39a9d24cb560","ios":"levelo://app?vid=fee72667-3bfa-47c4-a255-39a9d24cb560"},"vehicle_type_id":"4","last_reported":1728866815,"current_range_meters":24400,"station_id":"ce4bho92rcd13ifvqh3g","pricing_plan_id":"cebpf4jnsgd1na2vs0mg"},{"bike_id":"cf060c54-b385-4999-9625-2ef3b6a18227","system_id":"levelo_inurba_marseille","lat":43.31072,"lon":5.38349,"is_reserved":false,"is_disabled":false,"rental_uris":{"android":"levelo://app?vid=cf060c54-b385-4999-9625-2ef3b6a18227","ios":"levelo://app?vid=cf060c54-b385-4999-9625-2ef3b6a18227"},"vehicle_type_id":"4","last_reported":1728866815,"current_range_meters":38400,"station_id":"ce4bgv92rcd13ifvqcr0","pricing_plan_id":"cebpf4jnsgd1na2vs0mg"},{"bike_id":"4defeccc-35af-4aff-98c3-b00eabfdd6fa","system_id":"levelo_inurba_marseille","lat":43.28698,"lon":5.3998,"is_reserved":false,"is_disabled":false,"rental_uris":{"android":"levelo://app?vid=4defeccc-35af-4aff-98c3-b00eabfdd6fa","ios":"levelo://app?vid=4defeccc-35af-4aff-98c3-b00eabfdd6fa"},"vehicle_type_id":"4","last_reported":1728866815,"current_range_meters":38800,"station_id":"ce4bho92rcd13ifvqh3g","pricing_plan_id":"cebpf4jnsgd1na2vs0mg"},{"bike_id":"d77eae0b-a6a0-42e3-91cd-b53b0e53cce8","system_id":"levelo_inurba_marseille","lat":43.25115,"lon":5.4033,"is_reserved":false,"is_disabled":false,"rental_uris":{"android":"levelo://app?vid=d77eae0b-a6a0-42e3-91cd-b53b0e53cce8","ios":"levelo://app?vid=d77eae0b-a6a0-42e3-91cd-b53b0e53cce8"},"vehicle_type_id":"4","last_reported":1728866815,"current_range_meters":22800,"station_id":"ce4bhlh2rcd13ifvqgig","pricing_plan_id":"cebpf4jnsgd1na2vs0mg"},{"bike_id":"a6a1ad57-3b8b-4a52-bbae-221feff412fa","system_id":"levelo_inurba_marseille","lat":43.30352,"lon":5.41883,"is_reserved":false,"is_disabled":false,"rental_uris":{"android":"levelo://app?vid=a6a1ad57-3b8b-4a52-bbae-221feff412fa","ios":"levelo://app?vid=a6a1ad57-3b8b-4a52-bbae-221feff412fa"},"vehicle_type_id":"4","last_reported":1728866815,"current_range_meters":36400,"station_id":"ce4bhop2rcd13ifvqh7g","pricing_plan_id":"cebpf4jnsgd1na2vs0mg"},{"bike_id":"bbd75ed8-8af5-42c1-b9e1-557eb1e2e52e","system_id":"levelo_inurba_marseille","lat":43.28856,"lon":5.35849,"is_reserved":false,"is_disabled":false,"rental_uris":{"android":"levelo://app?vid=bbd75ed8-8af5-42c1-b9e1-557eb1e2e52e","ios":"levelo://app?vid=bbd75ed8-8af5-42c1-b9e1-557eb1e2e52e"},"vehicle_type_id":"4","last_reported":1728866815,"current_range_meters":24400,"station_id":"ce4bhb12rcd13ifvqem0","pricing_plan_id":"cebpf4jnsgd1na2vs0mg"},{"bike_id":"60029347-7ab0-4a9c-9077-5096f4b226a5","system_id":"levelo_inurba_marseille","lat":43.24388,"lon":5.37057,"is_reserved":false,"is_disabled":false,"rental_uris":{"android":"levelo://app?vid=60029347-7ab0-4a9c-9077-5096f4b226a5","ios":"levelo://app?vid=60029347-7ab0-4a9c-9077-5096f4b226a5"},"vehicle_type_id":"4","last_reported":1728866815,"current_range_meters":36400,"station_id":"ce4bhhh2rcd13ifvqfk0","pricing_plan_id":"cebpf4jnsgd1na2vs0mg"},{"bike_id":"c5073ebe-d63b-43ee-89f0-ab1148896c40","system_id":"levelo_inurba_marseille","lat":43.29891,"lon":5.43658,"is_reserved":false,"is_disabled":false,"rental_uris":{"android":"levelo://app?vid=c5073ebe-d63b-43ee-89f0-ab1148896c40","ios":"levelo://app?vid=c5073ebe-d63b-43ee-89f0-ab1148896c40"},"vehicle_type_id":"4","last_reported":1728866815,"current_range_meters":27200,"station_id":"ce4bhpp2rcd13ifvqhfg","pricing_plan_id":"cebpf4jnsgd1na2vs0mg"},{"bike_id":"ecf15818-634e-4bdb-8bc0-0da4886ed2a3","system_id":"levelo_inurba_marseille","lat":43.31762,"lon":5.39017,"is_reserved":false,"is_disabled":false,"rental_uris":{"android":"levelo://app?vid=ecf15818-634e-4bdb-8bc0-0da4886ed2a3","ios":"levelo://app?vid=ecf15818-634e-4bdb-8bc0-0da4886ed2a3"},"vehicle_type_id":"4","last_reported":1728866815,"current_range_meters":34800,"station_id":"ce4bhqp2rcd13ifvqhng","pricing_plan_id":"cebpf4jnsgd1na2vs0mg"},{"bike_id":"598e4b6f-03c6-46a9-8d80-1071980d564a","system_id":"levelo_inurba_marseille","lat":43.28611,"lon":5.35103,"is_reserved":false,"is_disabled":false,"rental_uris":{"android":"levelo://app?vid=598e4b6f-03c6-46a9-8d80-1071980d564a","ios":"levelo://app?vid=598e4b6f-03c6-46a9-8d80-1071980d564a"},"vehicle_type_id":"4","last_reported":1728866815,"current_range_meters":36400,"station_id":"ce4bhch2rcd13ifvqeug","pricing_plan_id":"cebpf4jnsgd1na2vs0mg"},{"bike_id":"df7aad52-8d96-4731-9608-3eed53902e1e","system_id":"levelo_inurba_marseille","lat":43.30945,"lon":5.39036,"is_reserved":false,"is_disabled":false,"rental_uris":{"android":"levelo://app?vid=df7aad52-8d96-4731-9608-3eed53902e1e","ios":"levelo://app?vid=df7aad52-8d96-4731-9608-3eed53902e1e"},"vehicle_type_id":"4","last_reported":1728866815,"current_range_meters":38800,"station_id":"ce4bgup2rcd13ifvqco0","pricing_plan_id":"cebpf4jnsgd1na2vs0mg"},{"bike_id":"f8f3e67a-8052-4faf-bbf5-121ca3de433f","system_id":"levelo_inurba_marseille","lat":43.33602,"lon":5.41018,"is_reserved":false,"is_disabled":false,"rental_uris":{"android":"levelo://app?vid=f8f3e67a-8052-4faf-bbf5-121ca3de433f","ios":"levelo://app?vid=f8f3e67a-8052-4faf-bbf5-121ca3de433f"},"vehicle_type_id":"4","last_reported":1728866815,"current_range_meters":38800,"station_id":"ce4bhqh2rcd13ifvqhmg","pricing_plan_id":"cebpf4jnsgd1na2vs0mg"},{"bike_id":"26ef0f82-778d-44d7-ad89-5daefc08a1a4","system_id":"levelo_inurba_marseille","lat":43.3146,"lon":5.37393,"is_reserved":false,"is_disabled":false,"rental_uris":{"android":"levelo://app?vid=26ef0f82-778d-44d7-ad89-5daefc08a1a4","ios":"levelo://app?vid=26ef0f82-778d-44d7-ad89-5daefc08a1a4"},"vehicle_type_id":"4","last_reported":1728866815,"current_range_meters":18800,"station_id":"","pricing_plan_id":"cebpf4jnsgd1na2vs0mg"},{"bike_id":"bf994896-4e33-4fd2-850e-19f20bc7bb36","system_id":"levelo_inurba_marseille","lat":43.28403,"lon":5.37515,"is_reserved":false,"is_disabled":false,"rental_uris":{"android":"levelo://app?vid=bf994896-4e33-4fd2-850e-19f20bc7bb36","ios":"levelo://app?vid=bf994896-4e33-4fd2-850e-19f20bc7bb36"},"vehicle_type_id":"4","last_reported":1728866815,"current_range_meters":38000,"station_id":"ce4bh412rcd13ifvqds0","pricing_plan_id":"cebpf4jnsgd1na2vs0mg"},{"bike_id":"0ccf2962-031c-4287-9cd7-f5ca10901747","system_id":"levelo_inurba_marseille","lat":43.30879,"lon":5.39639,"is_reserved":false,"is_disabled":false,"rental_uris":{"android":"levelo://app?vid=0ccf2962-031c-4287-9cd7-f5ca10901747","ios":"levelo://app?vid=0ccf2962-031c-4287-9cd7-f5ca10901747"},"vehicle_type_id":"4","last_reported":1728866815,"current_range_meters":38800,"station_id":"ce4bh012rcd13ifvqcv0","pricing_plan_id":"cebpf4jnsgd1na2vs0mg"},{"bike_id":"ad9cb8bf-f56a-4ffa-9b74-a76e830759e6","system_id":"levelo_inurba_marseille","lat":43.2656,"lon":5.37281,"is_reserved":false,"is_disabled":false,"rental_uris":{"android":"levelo://app?vid=ad9cb8bf-f56a-4ffa-9b74-a76e830759e6","ios":"levelo://app?vid=ad9cb8bf-f56a-4ffa-9b74-a76e830759e6"},"vehicle_type_id":"4","last_reported":1728866815,"current_range_meters":38800,"station_id":"ce4bhg12rcd13ifvqf70","pricing_plan_id":"cebpf4jnsgd1na2vs0mg"},{"bike_id":"39096ca6-099c-47eb-911b-3253550b0d73","system_id":"levelo_inurba_marseille","lat":43.23961,"lon":5.36623,"is_reserved":false,"is_disabled":false,"rental_uris":{"android":"levelo://app?vid=39096ca6-099c-47eb-911b-3253550b0d73","ios":"levelo://app?vid=39096ca6-099c-47eb-911b-3253550b0d73"},"vehicle_type_id":"4","last_reported":1728866815,"current_range_meters":38800,"station_id":"ce4bhi12rcd13ifvqfp0","pricing_plan_id":"cebpf4jnsgd1na2vs0mg"},{"bike_id":"64f37d16-8b3a-420d-a466-1dafb235d27a","system_id":"levelo_inurba_marseille","lat":43.25572,"lon":5.38252,"is_reserved":false,"is_disabled":false,"rental_uris":{"android":"levelo://app?vid=64f37d16-8b3a-420d-a466-1dafb235d27a","ios":"levelo://app?vid=64f37d16-8b3a-420d-a466-1dafb235d27a"},"vehicle_type_id":"4","last_reported":1728866815,"current_range_meters":38800,"station_id":"ce4bhih2rcd13ifvqfs0","pricing_plan_id":"cebpf4jnsgd1na2vs0mg"},{"bike_id":"5bd974c5-0032-4e59-8cbe-1cc3b135d8cb","system_id":"levelo_inurba_marseille","lat":43.28731,"lon":5.36084,"is_reserved":false,"is_disabled":false,"rental_uris":{"android":"levelo://app?vid=5bd974c5-0032-4e59-8cbe-1cc3b135d8cb","ios":"levelo://app?vid=5bd974c5-0032-4e59-8cbe-1cc3b135d8cb"},"vehicle_type_id":"4","last_reported":1728866815,"current_range_meters":39200,"station_id":"cki0cbj6b192h4jlfktg","pricing_plan_id":"cebpf4jnsgd1na2vs0mg"},{"bike_id":"25ed2710-8c35-44e6-81fd-8fc7cf6b54a8","system_id":"levelo_inurba_marseille","lat":43.274948,"lon":5.424466,"is_reserved":false,"is_disabled":false,"rental_uris":{"android":"levelo://app?vid=25ed2710-8c35-44e6-81fd-8fc7cf6b54a8","ios":"levelo://app?vid=25ed2710-8c35-44e6-81fd-8fc7cf6b54a8"},"vehicle_type_id":"4","last_reported":1728866815,"current_range_meters":19200,"station_id":"ce4bhn92rcd13ifvqgrg","pricing_plan_id":"cebpf4jnsgd1na2vs0mg"},{"bike_id":"323a384c-f289-42d3-8c5c-46f1d0e5703a","system_id":"levelo_inurba_marseille","lat":43.276202,"lon":5.361017,"is_reserved":false,"is_disabled":false,"rental_uris":{"android":"levelo://app?vid=323a384c-f289-42d3-8c5c-46f1d0e5703a","ios":"levelo://app?vid=323a384c-f289-42d3-8c5c-46f1d0e5703a"},"vehicle_type_id":"4","last_reported":1728866815,"current_range_meters":38800,"station_id":"ce4bgj92rcd13ifvqbe0","pricing_plan_id":"cebpf4jnsgd1na2vs0mg"},{"bike_id":"b9b18d1e-08b0-4d2d-ae4b-c6ff6e5bb0fe","system_id":"levelo_inurba_marseille","lat":43.29648,"lon":5.37261,"is_reserved":false,"is_disabled":false,"rental_uris":{"android":"levelo://app?vid=b9b18d1e-08b0-4d2d-ae4b-c6ff6e5bb0fe","ios":"levelo://app?vid=b9b18d1e-08b0-4d2d-ae4b-c6ff6e5bb0fe"},"vehicle_type_id":"4","last_reported":1728866815,"current_range_meters":14000,"station_id":"ce4bgk12rcd13ifvqbj0","pricing_plan_id":"cebpf4jnsgd1na2vs0mg"},{"bike_id":"3bf45488-58d4-458e-8f71-b90cf5356b98","system_id":"levelo_inurba_marseille","lat":43.30097,"lon":5.39079,"is_reserved":false,"is_disabled":false,"rental_uris":{"android":"levelo://app?vid=3bf45488-58d4-458e-8f71-b90cf5356b98","ios":"levelo://app?vid=3bf45488-58d4-458e-8f71-b90cf5356b98"},"vehicle_type_id":"4","last_reported":1728866815,"current_range_meters":7200,"station_id":"ce4bh192rcd13ifvqdb0","pricing_plan_id":"cebpf4jnsgd1na2vs0mg"},{"bike_id":"ebe61497-827d-4100-82e1-8f59e891dff6","system_id":"levelo_inurba_marseille","lat":43.30935,"lon":5.40141,"is_reserved":false,"is_disabled":false,"rental_uris":{"android":"levelo://app?vid=ebe61497-827d-4100-82e1-8f59e891dff6","ios":"levelo://app?vid=ebe61497-827d-4100-82e1-8f59e891dff6"},"vehicle_type_id":"4","last_reported":1728866815,"current_range_meters":9600,"station_id":"ce4bgvp2rcd13ifvqct0","pricing_plan_id":"cebpf4jnsgd1na2vs0mg"},{"bike_id":"5e1fa4ec-dd91-4c0d-a6ad-05c685570ce8","system_id":"levelo_inurba_marseille","lat":43.30128,"lon":5.39869,"is_reserved":false,"is_disabled":false,"rental_uris":{"android":"levelo://app?vid=5e1fa4ec-dd91-4c0d-a6ad-05c685570ce8","ios":"levelo://app?vid=5e1fa4ec-dd91-4c0d-a6ad-05c685570ce8"},"vehicle_type_id":"4","last_reported":1728866815,"current_range_meters":38800,"station_id":"ce4bh0h2rcd13ifvqd40","pricing_plan_id":"cebpf4jnsgd1na2vs0mg"},{"bike_id":"dd6cb5e2-9372-4e66-8619-df50957a0a9e","system_id":"levelo_inurba_marseille","lat":43.33024,"lon":5.39042,"is_reserved":false,"is_disabled":false,"rental_uris":{"android":"levelo://app?vid=dd6cb5e2-9372-4e66-8619-df50957a0a9e","ios":"levelo://app?vid=dd6cb5e2-9372-4e66-8619-df50957a0a9e"},"vehicle_type_id":"4","last_reported":1728866815,"current_range_meters":27600,"station_id":"ce4bhr92rcd13ifvqhrg","pricing_plan_id":"cebpf4jnsgd1na2vs0mg"},{"bike_id":"e030d32d-cd88-4716-be3d-cd076ae7ab6d","system_id":"levelo_inurba_marseille","lat":43.30244,"lon":5.40054,"is_reserved":false,"is_disabled":false,"rental_uris":{"android":"levelo://app?vid=e030d32d-cd88-4716-be3d-cd076ae7ab6d","ios":"levelo://app?vid=e030d32d-cd88-4716-be3d-cd076ae7ab6d"},"vehicle_type_id":"4","last_reported":1728866815,"current_range_meters":38800,"station_id":"ce4bgvh2rcd13ifvqcs0","pricing_plan_id":"cebpf4jnsgd1na2vs0mg"},{"bike_id":"1149b00b-6f0f-4893-b1a6-c675a52db7c8","system_id":"levelo_inurba_marseille","lat":43.287,"lon":5.39979,"is_reserved":false,"is_disabled":false,"rental_uris":{"android":"levelo://app?vid=1149b00b-6f0f-4893-b1a6-c675a52db7c8","ios":"levelo://app?vid=1149b00b-6f0f-4893-b1a6-c675a52db7c8"},"vehicle_type_id":"4","last_reported":1728866815,"current_range_meters":36000,"station_id":"ce4bho92rcd13ifvqh3g","pricing_plan_id":"cebpf4jnsgd1na2vs0mg"},{"bike_id":"8fd4aec9-afab-4555-a0a5-9f98cd22ef62","system_id":"levelo_inurba_marseille","lat":43.25485,"lon":5.37648,"is_reserved":false,"is_disabled":false,"rental_uris":{"android":"levelo://app?vid=8fd4aec9-afab-4555-a0a5-9f98cd22ef62","ios":"levelo://app?vid=8fd4aec9-afab-4555-a0a5-9f98cd22ef62"},"vehicle_type_id":"4","last_reported":1728866815,"current_range_meters":36800,"station_id":"ce4bhh12rcd13ifvqff0","pricing_plan_id":"cebpf4jnsgd1na2vs0mg"},{"bike_id":"1967c2cd-0a52-4bae-a040-a23f7d771766","system_id":"levelo_inurba_marseille","lat":43.27371,"lon":5.36247,"is_reserved":false,"is_disabled":false,"rental_uris":{"android":"levelo://app?vid=1967c2cd-0a52-4bae-a040-a23f7d771766","ios":"levelo://app?vid=1967c2cd-0a52-4bae-a040-a23f7d771766"},"vehicle_type_id":"4","last_reported":1728866815,"current_range_meters":38800,"station_id":"ce4bhbh2rcd13ifvqeo0","pricing_plan_id":"cebpf4jnsgd1na2vs0mg"},{"bike_id":"9cdc6ad2-0d50-45df-bba7-58a76752ac79","system_id":"levelo_inurba_marseille","lat":43.3032,"lon":5.40444,"is_reserved":false,"is_disabled":false,"rental_uris":{"android":"levelo://app?vid=9cdc6ad2-0d50-45df-bba7-58a76752ac79","ios":"levelo://app?vid=9cdc6ad2-0d50-45df-bba7-58a76752ac79"},"vehicle_type_id":"4","last_reported":1728866815,"current_range_meters":22800,"station_id":"ce4bh012rcd13ifvqd10","pricing_plan_id":"cebpf4jnsgd1na2vs0mg"},{"bike_id":"6a8ea1a9-7346-411d-8642-dcd86b2b51dd","system_id":"levelo_inurba_marseille","lat":43.23188,"lon":5.39983,"is_reserved":false,"is_disabled":false,"rental_uris":{"android":"levelo://app?vid=6a8ea1a9-7346-411d-8642-dcd86b2b51dd","ios":"levelo://app?vid=6a8ea1a9-7346-411d-8642-dcd86b2b51dd"},"vehicle_type_id":"4","last_reported":1728866815,"current_range_meters":38800,"station_id":"ce4bhn12rcd13ifvqgqg","pricing_plan_id":"cebpf4jnsgd1na2vs0mg"},{"bike_id":"64d319f2-164b-4ef6-a30c-055db2ee446a","system_id":"levelo_inurba_marseille","lat":43.24071,"lon":5.37759,"is_reserved":false,"is_disabled":false,"rental_uris":{"android":"levelo://app?vid=64d319f2-164b-4ef6-a30c-055db2ee446a","ios":"levelo://app?vid=64d319f2-164b-4ef6-a30c-055db2ee446a"},"vehicle_type_id":"4","last_reported":1728866815,"current_range_meters":16000,"station_id":"ce4bhnp2rcd13ifvqgvg","pricing_plan_id":"cebpf4jnsgd1na2vs0mg"},{"bike_id":"9d25fe81-d850-4145-8073-459a382e0777","system_id":"levelo_inurba_marseille","lat":43.33607,"lon":5.41024,"is_reserved":false,"is_disabled":false,"rental_uris":{"android":"levelo://app?vid=9d25fe81-d850-4145-8073-459a382e0777","ios":"levelo://app?vid=9d25fe81-d850-4145-8073-459a382e0777"},"vehicle_type_id":"4","last_reported":1728866815,"current_range_meters":22400,"station_id":"ce4bhqh2rcd13ifvqhmg","pricing_plan_id":"cebpf4jnsgd1na2vs0mg"},{"bike_id":"0df1d42c-d961-459e-888c-0d53884bd4cc","system_id":"levelo_inurba_marseille","lat":43.30127,"lon":5.39885,"is_reserved":false,"is_disabled":false,"rental_uris":{"android":"levelo://app?vid=0df1d42c-d961-459e-888c-0d53884bd4cc","ios":"levelo://app?vid=0df1d42c-d961-459e-888c-0d53884bd4cc"},"vehicle_type_id":"4","last_reported":1728866815,"current_range_meters":40000,"station_id":"ce4bh0h2rcd13ifvqd40","pricing_plan_id":"cebpf4jnsgd1na2vs0mg"},{"bike_id":"46114fa6-2086-4a9c-a5be-895ab103a799","system_id":"levelo_inurba_marseille","lat":43.28344,"lon":5.38108,"is_reserved":false,"is_disabled":false,"rental_uris":{"android":"levelo://app?vid=46114fa6-2086-4a9c-a5be-895ab103a799","ios":"levelo://app?vid=46114fa6-2086-4a9c-a5be-895ab103a799"},"vehicle_type_id":"4","last_reported":1728866815,"current_range_meters":32400,"station_id":"ce4bh412rcd13ifvqdr0","pricing_plan_id":"cebpf4jnsgd1na2vs0mg"},{"bike_id":"8a8f8834-af69-4cef-becd-b20226175aba","system_id":"levelo_inurba_marseille","lat":43.27372,"lon":5.36268,"is_reserved":false,"is_disabled":false,"rental_uris":{"android":"levelo://app?vid=8a8f8834-af69-4cef-becd-b20226175aba","ios":"levelo://app?vid=8a8f8834-af69-4cef-becd-b20226175aba"},"vehicle_type_id":"4","last_reported":1728866815,"current_range_meters":38800,"station_id":"ce4bhbh2rcd13ifvqeo0","pricing_plan_id":"cebpf4jnsgd1na2vs0mg"},{"bike_id":"744d7d46-a030-452d-827a-600610e2a098","system_id":"levelo_inurba_marseille","lat":43.23182,"lon":5.39993,"is_reserved":false,"is_disabled":false,"rental_uris":{"android":"levelo://app?vid=744d7d46-a030-452d-827a-600610e2a098","ios":"levelo://app?vid=744d7d46-a030-452d-827a-600610e2a098"},"vehicle_type_id":"4","last_reported":1728866815,"current_range_meters":30800,"station_id":"ce4bhn12rcd13ifvqgqg","pricing_plan_id":"cebpf4jnsgd1na2vs0mg"},{"bike_id":"1f204233-0dd9-4db3-bcfa-45476e0d3504","system_id":"levelo_inurba_marseille","lat":43.29259,"lon":5.38443,"is_reserved":false,"is_disabled":false,"rental_uris":{"android":"levelo://app?vid=1f204233-0dd9-4db3-bcfa-45476e0d3504","ios":"levelo://app?vid=1f204233-0dd9-4db3-bcfa-45476e0d3504"},"vehicle_type_id":"4","last_reported":1728866815,"current_range_meters":37600,"station_id":"ce4bh692rcd13ifvqea0","pricing_plan_id":"cebpf4jnsgd1na2vs0mg"},{"bike_id":"d269f004-6f8f-438a-9017-6d6b6da4f8cd","system_id":"levelo_inurba_marseille","lat":43.28345,"lon":5.38105,"is_reserved":false,"is_disabled":false,"rental_uris":{"android":"levelo://app?vid=d269f004-6f8f-438a-9017-6d6b6da4f8cd","ios":"levelo://app?vid=d269f004-6f8f-438a-9017-6d6b6da4f8cd"},"vehicle_type_id":"4","last_reported":1728866815,"current_range_meters":33200,"station_id":"ce4bh412rcd13ifvqdr0","pricing_plan_id":"cebpf4jnsgd1na2vs0mg"},{"bike_id":"2b9d5ece-2a9d-4b1a-9617-6ea2b2ec85b6","system_id":"levelo_inurba_marseille","lat":43.28105,"lon":5.37842,"is_reserved":false,"is_disabled":false,"rental_uris":{"android":"levelo://app?vid=2b9d5ece-2a9d-4b1a-9617-6ea2b2ec85b6","ios":"levelo://app?vid=2b9d5ece-2a9d-4b1a-9617-6ea2b2ec85b6"},"vehicle_type_id":"4","last_reported":1728866815,"current_range_meters":31200,"station_id":"ce4bha12rcd13ifvqee0","pricing_plan_id":"cebpf4jnsgd1na2vs0mg"},{"bike_id":"d04415fa-8238-4ffd-aa80-a12eb9fac1bf","system_id":"levelo_inurba_marseille","lat":43.23147,"lon":5.43708,"is_reserved":false,"is_disabled":false,"rental_uris":{"android":"levelo://app?vid=d04415fa-8238-4ffd-aa80-a12eb9fac1bf","ios":"levelo://app?vid=d04415fa-8238-4ffd-aa80-a12eb9fac1bf"},"vehicle_type_id":"4","last_reported":1728866815,"current_range_meters":12000,"station_id":"ce4bhmp2rcd13ifvqgog","pricing_plan_id":"cebpf4jnsgd1na2vs0mg"},{"bike_id":"5e5f7a3b-041e-4657-b33d-6d761579747d","system_id":"levelo_inurba_marseille","lat":43.33021,"lon":5.39032,"is_reserved":false,"is_disabled":false,"rental_uris":{"android":"levelo://app?vid=5e5f7a3b-041e-4657-b33d-6d761579747d","ios":"levelo://app?vid=5e5f7a3b-041e-4657-b33d-6d761579747d"},"vehicle_type_id":"4","last_reported":1728866815,"current_range_meters":30400,"station_id":"ce4bhr92rcd13ifvqhrg","pricing_plan_id":"cebpf4jnsgd1na2vs0mg"},{"bike_id":"fecf9cbe-4142-465d-ab58-7f310be8e758","system_id":"levelo_inurba_marseille","lat":43.278348,"lon":5.392137,"is_reserved":false,"is_disabled":false,"rental_uris":{"android":"levelo://app?vid=fecf9cbe-4142-465d-ab58-7f310be8e758","ios":"levelo://app?vid=fecf9cbe-4142-465d-ab58-7f310be8e758"},"vehicle_type_id":"4","last_reported":1728866815,"current_range_meters":38800,"station_id":"ce4bhjp2rcd13ifvqga0","pricing_plan_id":"cebpf4jnsgd1na2vs0mg"},{"bike_id":"a9210685-16f8-49f6-827a-23f537e3f6fa","system_id":"levelo_inurba_marseille","lat":43.28928,"lon":5.38405,"is_reserved":false,"is_disabled":false,"rental_uris":{"android":"levelo://app?vid=a9210685-16f8-49f6-827a-23f537e3f6fa","ios":"levelo://app?vid=a9210685-16f8-49f6-827a-23f537e3f6fa"},"vehicle_type_id":"4","last_reported":1728866815,"current_range_meters":38800,"station_id":"ce4bh612rcd13ifvqe6g","pricing_plan_id":"cebpf4jnsgd1na2vs0mg"},{"bike_id":"b5c582a8-95a1-4e1f-9296-8a8d7fdd00c0","system_id":"levelo_inurba_marseille","lat":43.29283,"lon":5.40121,"is_reserved":false,"is_disabled":false,"rental_uris":{"android":"levelo://app?vid=b5c582a8-95a1-4e1f-9296-8a8d7fdd00c0","ios":"levelo://app?vid=b5c582a8-95a1-4e1f-9296-8a8d7fdd00c0"},"vehicle_type_id":"4","last_reported":1728866815,"current_range_meters":31200,"station_id":"ce4bh312rcd13ifvqdk0","pricing_plan_id":"cebpf4jnsgd1na2vs0mg"},{"bike_id":"0ca1c6d1-73f2-4017-b9d0-94be2bd73ebc","system_id":"levelo_inurba_marseille","lat":43.30132,"lon":5.39856,"is_reserved":false,"is_disabled":false,"rental_uris":{"android":"levelo://app?vid=0ca1c6d1-73f2-4017-b9d0-94be2bd73ebc","ios":"levelo://app?vid=0ca1c6d1-73f2-4017-b9d0-94be2bd73ebc"},"vehicle_type_id":"4","last_reported":1728866815,"current_range_meters":39200,"station_id":"ce4bh0h2rcd13ifvqd40","pricing_plan_id":"cebpf4jnsgd1na2vs0mg"},{"bike_id":"d89c344c-dbd2-431a-800f-ec87cf8b02df","system_id":"levelo_inurba_marseille","lat":43.2844,"lon":5.3919,"is_reserved":false,"is_disabled":false,"rental_uris":{"android":"levelo://app?vid=d89c344c-dbd2-431a-800f-ec87cf8b02df","ios":"levelo://app?vid=d89c344c-dbd2-431a-800f-ec87cf8b02df"},"vehicle_type_id":"4","last_reported":1728866815,"current_range_meters":38800,"station_id":"ce4bhoh2rcd13ifvqh5g","pricing_plan_id":"cebpf4jnsgd1na2vs0mg"},{"bike_id":"66b7a16e-6796-4981-b35e-3f2cc868af25","system_id":"levelo_inurba_marseille","lat":43.3078,"lon":5.37651,"is_reserved":false,"is_disabled":false,"rental_uris":{"android":"levelo://app?vid=66b7a16e-6796-4981-b35e-3f2cc868af25","ios":"levelo://app?vid=66b7a16e-6796-4981-b35e-3f2cc868af25"},"vehicle_type_id":"4","last_reported":1728866815,"current_range_meters":39200,"station_id":"ce4bgv92rcd13ifvqcq0","pricing_plan_id":"cebpf4jnsgd1na2vs0mg"},{"bike_id":"7fba32b1-048b-415b-ad09-eb2b7e21d056","system_id":"levelo_inurba_marseille","lat":43.28568,"lon":5.39498,"is_reserved":false,"is_disabled":false,"rental_uris":{"android":"levelo://app?vid=7fba32b1-048b-415b-ad09-eb2b7e21d056","ios":"levelo://app?vid=7fba32b1-048b-415b-ad09-eb2b7e21d056"},"vehicle_type_id":"4","last_reported":1728866815,"current_range_meters":38800,"station_id":"ce4bh292rcd13ifvqdg0","pricing_plan_id":"cebpf4jnsgd1na2vs0mg"},{"bike_id":"a244d3fe-3831-4f48-8031-daff45febd27","system_id":"levelo_inurba_marseille","lat":43.29862,"lon":5.39733,"is_reserved":false,"is_disabled":false,"rental_uris":{"android":"levelo://app?vid=a244d3fe-3831-4f48-8031-daff45febd27","ios":"levelo://app?vid=a244d3fe-3831-4f48-8031-daff45febd27"},"vehicle_type_id":"4","last_reported":1728866815,"current_range_meters":38800,"station_id":"ce4bh0h2rcd13ifvqd50","pricing_plan_id":"cebpf4jnsgd1na2vs0mg"},{"bike_id":"9502e4b1-6a67-40a1-befa-ba0b1fca05b9","system_id":"levelo_inurba_marseille","lat":43.30424,"lon":5.39748,"is_reserved":false,"is_disabled":false,"rental_uris":{"android":"levelo://app?vid=9502e4b1-6a67-40a1-befa-ba0b1fca05b9","ios":"levelo://app?vid=9502e4b1-6a67-40a1-befa-ba0b1fca05b9"},"vehicle_type_id":"4","last_reported":1728866815,"current_range_meters":38000,"station_id":"ce4bh092rcd13ifvqd20","pricing_plan_id":"cebpf4jnsgd1na2vs0mg"},{"bike_id":"d36a8747-7e1c-419d-b75f-08f0664b79e7","system_id":"levelo_inurba_marseille","lat":43.31169,"lon":5.38705,"is_reserved":false,"is_disabled":false,"rental_uris":{"android":"levelo://app?vid=d36a8747-7e1c-419d-b75f-08f0664b79e7","ios":"levelo://app?vid=d36a8747-7e1c-419d-b75f-08f0664b79e7"},"vehicle_type_id":"4","last_reported":1728866815,"current_range_meters":38800,"station_id":"ce4bgv12rcd13ifvqcp0","pricing_plan_id":"cebpf4jnsgd1na2vs0mg"},{"bike_id":"a8e39a7f-4f5a-4c0d-8f7f-565bc7eaef1d","system_id":"levelo_inurba_marseille","lat":43.25105,"lon":5.40326,"is_reserved":false,"is_disabled":false,"rental_uris":{"android":"levelo://app?vid=a8e39a7f-4f5a-4c0d-8f7f-565bc7eaef1d","ios":"levelo://app?vid=a8e39a7f-4f5a-4c0d-8f7f-565bc7eaef1d"},"vehicle_type_id":"4","last_reported":1728866815,"current_range_meters":33600,"station_id":"ce4bhlh2rcd13ifvqgig","pricing_plan_id":"cebpf4jnsgd1na2vs0mg"},{"bike_id":"b607a881-1656-4ea2-9f9a-59482023e9a5","system_id":"levelo_inurba_marseille","lat":43.31354,"lon":5.36711,"is_reserved":false,"is_disabled":false,"rental_uris":{"android":"levelo://app?vid=b607a881-1656-4ea2-9f9a-59482023e9a5","ios":"levelo://app?vid=b607a881-1656-4ea2-9f9a-59482023e9a5"},"vehicle_type_id":"4","last_reported":1728866815,"current_range_meters":38800,"station_id":"ce4bgr92rcd13ifvqc6g","pricing_plan_id":"cebpf4jnsgd1na2vs0mg"},{"bike_id":"fcd7499d-953e-490c-881b-5e9ac436b014","system_id":"levelo_inurba_marseille","lat":43.29025,"lon":5.38651,"is_reserved":false,"is_disabled":false,"rental_uris":{"android":"levelo://app?vid=fcd7499d-953e-490c-881b-5e9ac436b014","ios":"levelo://app?vid=fcd7499d-953e-490c-881b-5e9ac436b014"},"vehicle_type_id":"4","last_reported":1728866815,"current_range_meters":38800,"station_id":"ce4bh4p2rcd13ifvqe0g","pricing_plan_id":"cebpf4jnsgd1na2vs0mg"},{"bike_id":"85298c67-5ece-4f37-b75f-487ff60fd4eb","system_id":"levelo_inurba_marseille","lat":43.296323,"lon":5.40603,"is_reserved":false,"is_disabled":false,"rental_uris":{"android":"levelo://app?vid=85298c67-5ece-4f37-b75f-487ff60fd4eb","ios":"levelo://app?vid=85298c67-5ece-4f37-b75f-487ff60fd4eb"},"vehicle_type_id":"4","last_reported":1728866815,"current_range_meters":35600,"station_id":"ce4bh0h2rcd13ifvqd60","pricing_plan_id":"cebpf4jnsgd1na2vs0mg"},{"bike_id":"f183b812-4bed-43d2-b33b-389c90156843","system_id":"levelo_inurba_marseille","lat":43.26191,"lon":5.37447,"is_reserved":false,"is_disabled":false,"rental_uris":{"android":"levelo://app?vid=f183b812-4bed-43d2-b33b-389c90156843","ios":"levelo://app?vid=f183b812-4bed-43d2-b33b-389c90156843"},"vehicle_type_id":"4","last_reported":1728866815,"current_range_meters":29600,"station_id":"ce4bhgp2rcd13ifvqfc0","pricing_plan_id":"cebpf4jnsgd1na2vs0mg"},{"bike_id":"c074db94-e0ff-49df-afe2-4cd4fb4d2847","system_id":"levelo_inurba_marseille","lat":43.24176,"lon":5.39735,"is_reserved":false,"is_disabled":false,"rental_uris":{"android":"levelo://app?vid=c074db94-e0ff-49df-afe2-4cd4fb4d2847","ios":"levelo://app?vid=c074db94-e0ff-49df-afe2-4cd4fb4d2847"},"vehicle_type_id":"4","last_reported":1728866815,"current_range_meters":37600,"station_id":"ce4bhn12rcd13ifvqgpg","pricing_plan_id":"cebpf4jnsgd1na2vs0mg"},{"bike_id":"aae57117-c5e8-4ceb-aa6b-b32977d77e4e","system_id":"levelo_inurba_marseille","lat":43.29017,"lon":5.38146,"is_reserved":false,"is_disabled":false,"rental_uris":{"android":"levelo://app?vid=aae57117-c5e8-4ceb-aa6b-b32977d77e4e","ios":"levelo://app?vid=aae57117-c5e8-4ceb-aa6b-b32977d77e4e"},"vehicle_type_id":"4","last_reported":1728866815,"current_range_meters":36800,"station_id":"ce4bh4p2rcd13ifvqe1g","pricing_plan_id":"cebpf4jnsgd1na2vs0mg"},{"bike_id":"5807b78d-00a5-4af6-b7a4-ec73100a9f48","system_id":"levelo_inurba_marseille","lat":43.28415,"lon":5.37529,"is_reserved":false,"is_disabled":false,"rental_uris":{"android":"levelo://app?vid=5807b78d-00a5-4af6-b7a4-ec73100a9f48","ios":"levelo://app?vid=5807b78d-00a5-4af6-b7a4-ec73100a9f48"},"vehicle_type_id":"4","last_reported":1728866815,"current_range_meters":38800,"station_id":"ce4bh412rcd13ifvqds0","pricing_plan_id":"cebpf4jnsgd1na2vs0mg"},{"bike_id":"eccffdca-8ae3-4d1b-8411-c1751546085f","system_id":"levelo_inurba_marseille","lat":43.25858,"lon":5.399,"is_reserved":false,"is_disabled":false,"rental_uris":{"android":"levelo://app?vid=eccffdca-8ae3-4d1b-8411-c1751546085f","ios":"levelo://app?vid=eccffdca-8ae3-4d1b-8411-c1751546085f"},"vehicle_type_id":"4","last_reported":1728866815,"current_range_meters":30000,"station_id":"ce4bhl92rcd13ifvqghg","pricing_plan_id":"cebpf4jnsgd1na2vs0mg"},{"bike_id":"9d671549-67ad-4eb0-ace0-50f59d8a0c79","system_id":"levelo_inurba_marseille","lat":43.31109,"lon":5.38064,"is_reserved":false,"is_disabled":false,"rental_uris":{"android":"levelo://app?vid=9d671549-67ad-4eb0-ace0-50f59d8a0c79","ios":"levelo://app?vid=9d671549-67ad-4eb0-ace0-50f59d8a0c79"},"vehicle_type_id":"4","last_reported":1728866815,"current_range_meters":22000,"station_id":"ce4bgt92rcd13ifvqcf0","pricing_plan_id":"cebpf4jnsgd1na2vs0mg"},{"bike_id":"c1026e34-b13e-4fde-84c6-117e8099f25e","system_id":"levelo_inurba_marseille","lat":43.24665,"lon":5.38168,"is_reserved":false,"is_disabled":false,"rental_uris":{"android":"levelo://app?vid=c1026e34-b13e-4fde-84c6-117e8099f25e","ios":"levelo://app?vid=c1026e34-b13e-4fde-84c6-117e8099f25e"},"vehicle_type_id":"4","last_reported":1728866815,"current_range_meters":38800,"station_id":"ce4bhih2rcd13ifvqfr0","pricing_plan_id":"cebpf4jnsgd1na2vs0mg"},{"bike_id":"5c639a26-5c91-4b8b-9329-66026ae8437d","system_id":"levelo_inurba_marseille","lat":43.24667,"lon":5.38158,"is_reserved":false,"is_disabled":false,"rental_uris":{"android":"levelo://app?vid=5c639a26-5c91-4b8b-9329-66026ae8437d","ios":"levelo://app?vid=5c639a26-5c91-4b8b-9329-66026ae8437d"},"vehicle_type_id":"4","last_reported":1728866815,"current_range_meters":32800,"station_id":"ce4bhih2rcd13ifvqfr0","pricing_plan_id":"cebpf4jnsgd1na2vs0mg"},{"bike_id":"42294f25-08b0-4a91-9f97-9a6b81629dac","system_id":"levelo_inurba_marseille","lat":43.33598,"lon":5.41026,"is_reserved":false,"is_disabled":false,"rental_uris":{"android":"levelo://app?vid=42294f25-08b0-4a91-9f97-9a6b81629dac","ios":"levelo://app?vid=42294f25-08b0-4a91-9f97-9a6b81629dac"},"vehicle_type_id":"4","last_reported":1728866815,"current_range_meters":38000,"station_id":"ce4bhqh2rcd13ifvqhmg","pricing_plan_id":"cebpf4jnsgd1na2vs0mg"},{"bike_id":"a86fbf74-19ff-4050-8f5c-683c9beda81b","system_id":"levelo_inurba_marseille","lat":43.26564,"lon":5.39006,"is_reserved":false,"is_disabled":false,"rental_uris":{"android":"levelo://app?vid=a86fbf74-19ff-4050-8f5c-683c9beda81b","ios":"levelo://app?vid=a86fbf74-19ff-4050-8f5c-683c9beda81b"},"vehicle_type_id":"4","last_reported":1728866815,"current_range_meters":7200,"station_id":"ce4bhe12rcd13ifvqf30","pricing_plan_id":"cebpf4jnsgd1na2vs0mg"},{"bike_id":"a0afc100-26e7-466d-adbf-28ee7d50f779","system_id":"levelo_inurba_marseille","lat":43.3171,"lon":5.43707,"is_reserved":false,"is_disabled":false,"rental_uris":{"android":"levelo://app?vid=a0afc100-26e7-466d-adbf-28ee7d50f779","ios":"levelo://app?vid=a0afc100-26e7-466d-adbf-28ee7d50f779"},"vehicle_type_id":"4","last_reported":1728866815,"current_range_meters":8000,"station_id":"ce4bhp92rcd13ifvqhcg","pricing_plan_id":"cebpf4jnsgd1na2vs0mg"},{"bike_id":"8e8cc0a6-dfb2-4467-bb4b-b5ceae15f52b","system_id":"levelo_inurba_marseille","lat":43.2904,"lon":5.39955,"is_reserved":false,"is_disabled":false,"rental_uris":{"android":"levelo://app?vid=8e8cc0a6-dfb2-4467-bb4b-b5ceae15f52b","ios":"levelo://app?vid=8e8cc0a6-dfb2-4467-bb4b-b5ceae15f52b"},"vehicle_type_id":"4","last_reported":1728866815,"current_range_meters":28000,"station_id":"ce4bh392rcd13ifvqdm0","pricing_plan_id":"cebpf4jnsgd1na2vs0mg"},{"bike_id":"3bd952ba-4c66-4ecf-8603-5efa5ce08dad","system_id":"levelo_inurba_marseille","lat":43.28939,"lon":5.39613,"is_reserved":false,"is_disabled":false,"rental_uris":{"android":"levelo://app?vid=3bd952ba-4c66-4ecf-8603-5efa5ce08dad","ios":"levelo://app?vid=3bd952ba-4c66-4ecf-8603-5efa5ce08dad"},"vehicle_type_id":"4","last_reported":1728866815,"current_range_meters":38800,"station_id":"ce4bh3h2rcd13ifvqdn0","pricing_plan_id":"cebpf4jnsgd1na2vs0mg"},{"bike_id":"99e083d6-0a57-49b9-a4c4-5d347875ba02","system_id":"levelo_inurba_marseille","lat":43.29253,"lon":5.40902,"is_reserved":false,"is_disabled":false,"rental_uris":{"android":"levelo://app?vid=99e083d6-0a57-49b9-a4c4-5d347875ba02","ios":"levelo://app?vid=99e083d6-0a57-49b9-a4c4-5d347875ba02"},"vehicle_type_id":"4","last_reported":1728866815,"current_range_meters":37600,"station_id":"ce4bh192rcd13ifvqdc0","pricing_plan_id":"cebpf4jnsgd1na2vs0mg"},{"bike_id":"0e035532-54f9-4c10-a51d-b0c1f7a05c3f","system_id":"levelo_inurba_marseille","lat":43.25489,"lon":5.3765,"is_reserved":false,"is_disabled":false,"rental_uris":{"android":"levelo://app?vid=0e035532-54f9-4c10-a51d-b0c1f7a05c3f","ios":"levelo://app?vid=0e035532-54f9-4c10-a51d-b0c1f7a05c3f"},"vehicle_type_id":"4","last_reported":1728866815,"current_range_meters":36800,"station_id":"ce4bhh12rcd13ifvqff0","pricing_plan_id":"cebpf4jnsgd1na2vs0mg"},{"bike_id":"ca5e2953-c144-425d-8fb3-8cee63fff18b","system_id":"levelo_inurba_marseille","lat":43.31711,"lon":5.37761,"is_reserved":false,"is_disabled":false,"rental_uris":{"android":"levelo://app?vid=ca5e2953-c144-425d-8fb3-8cee63fff18b","ios":"levelo://app?vid=ca5e2953-c144-425d-8fb3-8cee63fff18b"},"vehicle_type_id":"4","last_reported":1728866815,"current_range_meters":38800,"station_id":"ce4bgth2rcd13ifvqch0","pricing_plan_id":"cebpf4jnsgd1na2vs0mg"},{"bike_id":"b7c37ac6-8b08-4acb-8d86-8cdb738cf50f","system_id":"levelo_inurba_marseille","lat":43.29879,"lon":5.39734,"is_reserved":false,"is_disabled":false,"rental_uris":{"android":"levelo://app?vid=b7c37ac6-8b08-4acb-8d86-8cdb738cf50f","ios":"levelo://app?vid=b7c37ac6-8b08-4acb-8d86-8cdb738cf50f"},"vehicle_type_id":"4","last_reported":1728866815,"current_range_meters":38000,"station_id":"ce4bh0h2rcd13ifvqd50","pricing_plan_id":"cebpf4jnsgd1na2vs0mg"},{"bike_id":"a439e9c1-eb99-42fa-a16e-00182dec1edc","system_id":"levelo_inurba_marseille","lat":43.29041,"lon":5.39959,"is_reserved":false,"is_disabled":false,"rental_uris":{"android":"levelo://app?vid=a439e9c1-eb99-42fa-a16e-00182dec1edc","ios":"levelo://app?vid=a439e9c1-eb99-42fa-a16e-00182dec1edc"},"vehicle_type_id":"4","last_reported":1728866815,"current_range_meters":31200,"station_id":"ce4bh392rcd13ifvqdm0","pricing_plan_id":"cebpf4jnsgd1na2vs0mg"},{"bike_id":"21026577-64eb-4182-9516-fccaa1cfdd4a","system_id":"levelo_inurba_marseille","lat":43.27993,"lon":5.41663,"is_reserved":false,"is_disabled":false,"rental_uris":{"android":"levelo://app?vid=21026577-64eb-4182-9516-fccaa1cfdd4a","ios":"levelo://app?vid=21026577-64eb-4182-9516-fccaa1cfdd4a"},"vehicle_type_id":"4","last_reported":1728866815,"current_range_meters":35600,"station_id":"ce4bho12rcd13ifvqh1g","pricing_plan_id":"cebpf4jnsgd1na2vs0mg"},{"bike_id":"96124732-5d93-4162-958b-d7533f5930fa","system_id":"levelo_inurba_marseille","lat":43.284151,"lon":5.375158,"is_reserved":false,"is_disabled":false,"rental_uris":{"android":"levelo://app?vid=96124732-5d93-4162-958b-d7533f5930fa","ios":"levelo://app?vid=96124732-5d93-4162-958b-d7533f5930fa"},"vehicle_type_id":"4","last_reported":1728866815,"current_range_meters":38800,"station_id":"ce4bh412rcd13ifvqds0","pricing_plan_id":"cebpf4jnsgd1na2vs0mg"},{"bike_id":"42cede74-d141-4d6b-a790-a30a9d0f6f40","system_id":"levelo_inurba_marseille","lat":43.31893,"lon":5.40739,"is_reserved":false,"is_disabled":false,"rental_uris":{"android":"levelo://app?vid=42cede74-d141-4d6b-a790-a30a9d0f6f40","ios":"levelo://app?vid=42cede74-d141-4d6b-a790-a30a9d0f6f40"},"vehicle_type_id":"4","last_reported":1728866815,"current_range_meters":22400,"station_id":"ce4bhq12rcd13ifvqhig","pricing_plan_id":"cebpf4jnsgd1na2vs0mg"},{"bike_id":"e6322a74-b64c-45ce-a025-82a26fc71ab4","system_id":"levelo_inurba_marseille","lat":43.28106,"lon":5.3784,"is_reserved":false,"is_disabled":false,"rental_uris":{"android":"levelo://app?vid=e6322a74-b64c-45ce-a025-82a26fc71ab4","ios":"levelo://app?vid=e6322a74-b64c-45ce-a025-82a26fc71ab4"},"vehicle_type_id":"4","last_reported":1728866815,"current_range_meters":38800,"station_id":"ce4bha12rcd13ifvqee0","pricing_plan_id":"cebpf4jnsgd1na2vs0mg"},{"bike_id":"93e7d826-b708-42fd-bbbe-c36067ca366e","system_id":"levelo_inurba_marseille","lat":43.28035,"lon":5.36956,"is_reserved":false,"is_disabled":false,"rental_uris":{"android":"levelo://app?vid=93e7d826-b708-42fd-bbbe-c36067ca366e","ios":"levelo://app?vid=93e7d826-b708-42fd-bbbe-c36067ca366e"},"vehicle_type_id":"4","last_reported":1728866815,"current_range_meters":38800,"station_id":"ce4bha12rcd13ifvqef0","pricing_plan_id":"cebpf4jnsgd1na2vs0mg"},{"bike_id":"549d6d74-2989-4262-84f7-d0467c6c02f7","system_id":"levelo_inurba_marseille","lat":43.29894,"lon":5.43655,"is_reserved":false,"is_disabled":false,"rental_uris":{"android":"levelo://app?vid=549d6d74-2989-4262-84f7-d0467c6c02f7","ios":"levelo://app?vid=549d6d74-2989-4262-84f7-d0467c6c02f7"},"vehicle_type_id":"4","last_reported":1728866815,"current_range_meters":16400,"station_id":"ce4bhpp2rcd13ifvqhfg","pricing_plan_id":"cebpf4jnsgd1na2vs0mg"},{"bike_id":"6d8a5245-ff62-4f13-95b5-5d2e56cb22e7","system_id":"levelo_inurba_marseille","lat":43.28936,"lon":5.39627,"is_reserved":false,"is_disabled":false,"rental_uris":{"android":"levelo://app?vid=6d8a5245-ff62-4f13-95b5-5d2e56cb22e7","ios":"levelo://app?vid=6d8a5245-ff62-4f13-95b5-5d2e56cb22e7"},"vehicle_type_id":"4","last_reported":1728866815,"current_range_meters":38800,"station_id":"ce4bh3h2rcd13ifvqdn0","pricing_plan_id":"cebpf4jnsgd1na2vs0mg"},{"bike_id":"5968c016-2f05-4a98-96c7-5302957d16f1","system_id":"levelo_inurba_marseille","lat":43.28364,"lon":5.38639,"is_reserved":false,"is_disabled":false,"rental_uris":{"android":"levelo://app?vid=5968c016-2f05-4a98-96c7-5302957d16f1","ios":"levelo://app?vid=5968c016-2f05-4a98-96c7-5302957d16f1"},"vehicle_type_id":"4","last_reported":1728866815,"current_range_meters":30800,"station_id":"ce4bh492rcd13ifvqdvg","pricing_plan_id":"cebpf4jnsgd1na2vs0mg"},{"bike_id":"3af35364-3299-4a79-84c7-18788a95ec55","system_id":"levelo_inurba_marseille","lat":43.30657,"lon":5.40077,"is_reserved":false,"is_disabled":false,"rental_uris":{"android":"levelo://app?vid=3af35364-3299-4a79-84c7-18788a95ec55","ios":"levelo://app?vid=3af35364-3299-4a79-84c7-18788a95ec55"},"vehicle_type_id":"4","last_reported":1728866815,"current_range_meters":16000,"station_id":"ce4bh112rcd13ifvqda0","pricing_plan_id":"cebpf4jnsgd1na2vs0mg"},{"bike_id":"553f1633-cc18-4788-b654-05245888551c","system_id":"levelo_inurba_marseille","lat":43.308836,"lon":5.396296,"is_reserved":false,"is_disabled":false,"rental_uris":{"android":"levelo://app?vid=553f1633-cc18-4788-b654-05245888551c","ios":"levelo://app?vid=553f1633-cc18-4788-b654-05245888551c"},"vehicle_type_id":"4","last_reported":1728866815,"current_range_meters":37600,"station_id":"ce4bh012rcd13ifvqcv0","pricing_plan_id":"cebpf4jnsgd1na2vs0mg"},{"bike_id":"612bee40-5fd9-4445-bc45-3563ce71fa0d","system_id":"levelo_inurba_marseille","lat":43.30424,"lon":5.39755,"is_reserved":false,"is_disabled":false,"rental_uris":{"android":"levelo://app?vid=612bee40-5fd9-4445-bc45-3563ce71fa0d","ios":"levelo://app?vid=612bee40-5fd9-4445-bc45-3563ce71fa0d"},"vehicle_type_id":"4","last_reported":1728866815,"current_range_meters":32400,"station_id":"ce4bh092rcd13ifvqd20","pricing_plan_id":"cebpf4jnsgd1na2vs0mg"},{"bike_id":"402e2b18-2493-4b09-a5dd-0f549fefaf7a","system_id":"levelo_inurba_marseille","lat":43.24165,"lon":5.36399,"is_reserved":false,"is_disabled":false,"rental_uris":{"android":"levelo://app?vid=402e2b18-2493-4b09-a5dd-0f549fefaf7a","ios":"levelo://app?vid=402e2b18-2493-4b09-a5dd-0f549fefaf7a"},"vehicle_type_id":"4","last_reported":1728866815,"current_range_meters":38800,"station_id":"cpo36qri1sfpv3e86is0","pricing_plan_id":"cebpf4jnsgd1na2vs0mg"},{"bike_id":"86f622d8-25af-4828-be66-dd2949a95229","system_id":"levelo_inurba_marseille","lat":43.3133,"lon":5.39699,"is_reserved":false,"is_disabled":false,"rental_uris":{"android":"levelo://app?vid=86f622d8-25af-4828-be66-dd2949a95229","ios":"levelo://app?vid=86f622d8-25af-4828-be66-dd2949a95229"},"vehicle_type_id":"4","last_reported":1728866815,"current_range_meters":37600,"station_id":"ce4bgvp2rcd13ifvqcu0","pricing_plan_id":"cebpf4jnsgd1na2vs0mg"},{"bike_id":"0a2164a9-c536-4d17-bed5-7689dd79835c","system_id":"levelo_inurba_marseille","lat":43.32367,"lon":5.38882,"is_reserved":false,"is_disabled":false,"rental_uris":{"android":"levelo://app?vid=0a2164a9-c536-4d17-bed5-7689dd79835c","ios":"levelo://app?vid=0a2164a9-c536-4d17-bed5-7689dd79835c"},"vehicle_type_id":"4","last_reported":1728866815,"current_range_meters":30800,"station_id":"ce4bhqp2rcd13ifvqhog","pricing_plan_id":"cebpf4jnsgd1na2vs0mg"},{"bike_id":"967813ff-6e07-4ed1-bc4d-c032726590fb","system_id":"levelo_inurba_marseille","lat":43.23192,"lon":5.35551,"is_reserved":false,"is_disabled":false,"rental_uris":{"android":"levelo://app?vid=967813ff-6e07-4ed1-bc4d-c032726590fb","ios":"levelo://app?vid=967813ff-6e07-4ed1-bc4d-c032726590fb"},"vehicle_type_id":"4","last_reported":1728866815,"current_range_meters":6400,"station_id":"ce4bhu92rcd13ifvqi70","pricing_plan_id":"cebpf4jnsgd1na2vs0mg"},{"bike_id":"7563807c-d27a-4161-8a5f-4b0cb3141228","system_id":"levelo_inurba_marseille","lat":43.33729,"lon":5.39186,"is_reserved":false,"is_disabled":false,"rental_uris":{"android":"levelo://app?vid=7563807c-d27a-4161-8a5f-4b0cb3141228","ios":"levelo://app?vid=7563807c-d27a-4161-8a5f-4b0cb3141228"},"vehicle_type_id":"4","last_reported":1728866815,"current_range_meters":38800,"station_id":"ce4bhr92rcd13ifvqhsg","pricing_plan_id":"cebpf4jnsgd1na2vs0mg"},{"bike_id":"5bc9b78b-9615-45c0-a888-79c429dfa74a","system_id":"levelo_inurba_marseille","lat":43.33718,"lon":5.39196,"is_reserved":false,"is_disabled":false,"rental_uris":{"android":"levelo://app?vid=5bc9b78b-9615-45c0-a888-79c429dfa74a","ios":"levelo://app?vid=5bc9b78b-9615-45c0-a888-79c429dfa74a"},"vehicle_type_id":"4","last_reported":1728866815,"current_range_meters":14000,"station_id":"ce4bhr92rcd13ifvqhsg","pricing_plan_id":"cebpf4jnsgd1na2vs0mg"},{"bike_id":"d78c27bf-97c1-420b-82fb-48ca2bea5d28","system_id":"levelo_inurba_marseille","lat":43.261996,"lon":5.379363,"is_reserved":false,"is_disabled":false,"rental_uris":{"android":"levelo://app?vid=d78c27bf-97c1-420b-82fb-48ca2bea5d28","ios":"levelo://app?vid=d78c27bf-97c1-420b-82fb-48ca2bea5d28"},"vehicle_type_id":"4","last_reported":1728866815,"current_range_meters":38800,"station_id":"ce4bhjp2rcd13ifvqg90","pricing_plan_id":"cebpf4jnsgd1na2vs0mg"},{"bike_id":"eab156c8-6264-40e0-bbae-cac6708fe48f","system_id":"levelo_inurba_marseille","lat":43.311701,"lon":5.387104,"is_reserved":false,"is_disabled":false,"rental_uris":{"android":"levelo://app?vid=eab156c8-6264-40e0-bbae-cac6708fe48f","ios":"levelo://app?vid=eab156c8-6264-40e0-bbae-cac6708fe48f"},"vehicle_type_id":"4","last_reported":1728866815,"current_range_meters":24000,"station_id":"ce4bgv12rcd13ifvqcp0","pricing_plan_id":"cebpf4jnsgd1na2vs0mg"},{"bike_id":"7f2d711f-d10c-49f7-a63c-39d3df8ada71","system_id":"levelo_inurba_marseille","lat":43.287,"lon":5.39985,"is_reserved":false,"is_disabled":false,"rental_uris":{"android":"levelo://app?vid=7f2d711f-d10c-49f7-a63c-39d3df8ada71","ios":"levelo://app?vid=7f2d711f-d10c-49f7-a63c-39d3df8ada71"},"vehicle_type_id":"4","last_reported":1728866815,"current_range_meters":30800,"station_id":"ce4bho92rcd13ifvqh3g","pricing_plan_id":"cebpf4jnsgd1na2vs0mg"},{"bike_id":"ea01ec7a-7c0c-4b8e-ac56-3690f2c189a3","system_id":"levelo_inurba_marseille","lat":43.26484,"lon":5.39549,"is_reserved":false,"is_disabled":false,"rental_uris":{"android":"levelo://app?vid=ea01ec7a-7c0c-4b8e-ac56-3690f2c189a3","ios":"levelo://app?vid=ea01ec7a-7c0c-4b8e-ac56-3690f2c189a3"},"vehicle_type_id":"4","last_reported":1728866815,"current_range_meters":36800,"station_id":"ce4bhi12rcd13ifvqfq0","pricing_plan_id":"cebpf4jnsgd1na2vs0mg"},{"bike_id":"9ee0338c-8e52-4972-bdcb-a43223a35eae","system_id":"levelo_inurba_marseille","lat":43.28702,"lon":5.39979,"is_reserved":false,"is_disabled":false,"rental_uris":{"android":"levelo://app?vid=9ee0338c-8e52-4972-bdcb-a43223a35eae","ios":"levelo://app?vid=9ee0338c-8e52-4972-bdcb-a43223a35eae"},"vehicle_type_id":"4","last_reported":1728866815,"current_range_meters":18800,"station_id":"ce4bho92rcd13ifvqh3g","pricing_plan_id":"cebpf4jnsgd1na2vs0mg"},{"bike_id":"24ddde74-3313-452c-a8e1-c554fbc08b52","system_id":"levelo_inurba_marseille","lat":43.2467,"lon":5.38167,"is_reserved":false,"is_disabled":false,"rental_uris":{"android":"levelo://app?vid=24ddde74-3313-452c-a8e1-c554fbc08b52","ios":"levelo://app?vid=24ddde74-3313-452c-a8e1-c554fbc08b52"},"vehicle_type_id":"4","last_reported":1728866815,"current_range_meters":27200,"station_id":"ce4bhih2rcd13ifvqfr0","pricing_plan_id":"cebpf4jnsgd1na2vs0mg"},{"bike_id":"33c8cb8f-4d93-4ca1-b394-19ac08e7af57","system_id":"levelo_inurba_marseille","lat":43.26206,"lon":5.37444,"is_reserved":false,"is_disabled":false,"rental_uris":{"android":"levelo://app?vid=33c8cb8f-4d93-4ca1-b394-19ac08e7af57","ios":"levelo://app?vid=33c8cb8f-4d93-4ca1-b394-19ac08e7af57"},"vehicle_type_id":"4","last_reported":1728866815,"current_range_meters":36400,"station_id":"ce4bhgp2rcd13ifvqfc0","pricing_plan_id":"cebpf4jnsgd1na2vs0mg"},{"bike_id":"45569ff7-7084-4ba3-868c-e6a316b5486d","system_id":"levelo_inurba_marseille","lat":43.29199,"lon":5.39323,"is_reserved":false,"is_disabled":false,"rental_uris":{"android":"levelo://app?vid=45569ff7-7084-4ba3-868c-e6a316b5486d","ios":"levelo://app?vid=45569ff7-7084-4ba3-868c-e6a316b5486d"},"vehicle_type_id":"4","last_reported":1728866815,"current_range_meters":23200,"station_id":"ce4bh192rcd13ifvqdd0","pricing_plan_id":"cebpf4jnsgd1na2vs0mg"},{"bike_id":"c5d29b8a-2a5c-4a22-a426-f50c1802da2a","system_id":"levelo_inurba_marseille","lat":43.31275,"lon":5.40156,"is_reserved":false,"is_disabled":false,"rental_uris":{"android":"levelo://app?vid=c5d29b8a-2a5c-4a22-a426-f50c1802da2a","ios":"levelo://app?vid=c5d29b8a-2a5c-4a22-a426-f50c1802da2a"},"vehicle_type_id":"4","last_reported":1728866815,"current_range_meters":17200,"station_id":"ce4bh092rcd13ifvqd30","pricing_plan_id":"cebpf4jnsgd1na2vs0mg"},{"bike_id":"dbc380d9-1e10-4991-863d-327543c7d752","system_id":"levelo_inurba_marseille","lat":43.29071,"lon":5.37172,"is_reserved":false,"is_disabled":false,"rental_uris":{"android":"levelo://app?vid=dbc380d9-1e10-4991-863d-327543c7d752","ios":"levelo://app?vid=dbc380d9-1e10-4991-863d-327543c7d752"},"vehicle_type_id":"4","last_reported":1728866815,"current_range_meters":36400,"station_id":"ce4bh5p2rcd13ifvqe4g","pricing_plan_id":"cebpf4jnsgd1na2vs0mg"},{"bike_id":"f1d9e268-9ffe-4423-8dde-057e879db42b","system_id":"levelo_inurba_marseille","lat":43.29101,"lon":5.38153,"is_reserved":false,"is_disabled":false,"rental_uris":{"android":"levelo://app?vid=f1d9e268-9ffe-4423-8dde-057e879db42b","ios":"levelo://app?vid=f1d9e268-9ffe-4423-8dde-057e879db42b"},"vehicle_type_id":"4","last_reported":1728866815,"current_range_meters":38800,"station_id":"ce4bh512rcd13ifvqe2g","pricing_plan_id":"cebpf4jnsgd1na2vs0mg"},{"bike_id":"c648c189-2a8f-4bfe-85d2-58960bdf3090","system_id":"levelo_inurba_marseille","lat":43.30457,"lon":5.40187,"is_reserved":false,"is_disabled":false,"rental_uris":{"android":"levelo://app?vid=c648c189-2a8f-4bfe-85d2-58960bdf3090","ios":"levelo://app?vid=c648c189-2a8f-4bfe-85d2-58960bdf3090"},"vehicle_type_id":"4","last_reported":1728866815,"current_range_meters":32000,"station_id":"","pricing_plan_id":"cebpf4jnsgd1na2vs0mg"},{"bike_id":"c3bab586-99ec-41f5-8acb-6e3c3dcab38f","system_id":"levelo_inurba_marseille","lat":43.26555,"lon":5.3729,"is_reserved":false,"is_disabled":false,"rental_uris":{"android":"levelo://app?vid=c3bab586-99ec-41f5-8acb-6e3c3dcab38f","ios":"levelo://app?vid=c3bab586-99ec-41f5-8acb-6e3c3dcab38f"},"vehicle_type_id":"4","last_reported":1728866815,"current_range_meters":38800,"station_id":"ce4bhg12rcd13ifvqf70","pricing_plan_id":"cebpf4jnsgd1na2vs0mg"},{"bike_id":"e2ae7ed0-f443-4ed1-ac34-43cd203969a4","system_id":"levelo_inurba_marseille","lat":43.28342,"lon":5.38101,"is_reserved":false,"is_disabled":false,"rental_uris":{"android":"levelo://app?vid=e2ae7ed0-f443-4ed1-ac34-43cd203969a4","ios":"levelo://app?vid=e2ae7ed0-f443-4ed1-ac34-43cd203969a4"},"vehicle_type_id":"4","last_reported":1728866815,"current_range_meters":32000,"station_id":"ce4bh412rcd13ifvqdr0","pricing_plan_id":"cebpf4jnsgd1na2vs0mg"},{"bike_id":"1ea430a4-6e2e-47e9-b9ca-40864fc5f487","system_id":"levelo_inurba_marseille","lat":43.28937,"lon":5.36627,"is_reserved":false,"is_disabled":false,"rental_uris":{"android":"levelo://app?vid=1ea430a4-6e2e-47e9-b9ca-40864fc5f487","ios":"levelo://app?vid=1ea430a4-6e2e-47e9-b9ca-40864fc5f487"},"vehicle_type_id":"4","last_reported":1728866815,"current_range_meters":17600,"station_id":"ce4bhap2rcd13ifvqek0","pricing_plan_id":"cebpf4jnsgd1na2vs0mg"},{"bike_id":"729b5747-2745-44f4-8e45-767e543cac8a","system_id":"levelo_inurba_marseille","lat":43.33034,"lon":5.38936,"is_reserved":false,"is_disabled":false,"rental_uris":{"android":"levelo://app?vid=729b5747-2745-44f4-8e45-767e543cac8a","ios":"levelo://app?vid=729b5747-2745-44f4-8e45-767e543cac8a"},"vehicle_type_id":"4","last_reported":1728866815,"current_range_meters":36000,"station_id":"","pricing_plan_id":"cebpf4jnsgd1na2vs0mg"},{"bike_id":"09348952-ebbd-496d-877f-54bd3e43b367","system_id":"levelo_inurba_marseille","lat":43.3055,"lon":5.36532,"is_reserved":false,"is_disabled":false,"rental_uris":{"android":"levelo://app?vid=09348952-ebbd-496d-877f-54bd3e43b367","ios":"levelo://app?vid=09348952-ebbd-496d-877f-54bd3e43b367"},"vehicle_type_id":"4","last_reported":1728866815,"current_range_meters":38000,"station_id":"ce4bgs12rcd13ifvqcag","pricing_plan_id":"cebpf4jnsgd1na2vs0mg"},{"bike_id":"6a98afc1-6dae-40c7-a24c-079a1265e2b9","system_id":"levelo_inurba_marseille","lat":43.2681,"lon":5.40273,"is_reserved":false,"is_disabled":false,"rental_uris":{"android":"levelo://app?vid=6a98afc1-6dae-40c7-a24c-079a1265e2b9","ios":"levelo://app?vid=6a98afc1-6dae-40c7-a24c-079a1265e2b9"},"vehicle_type_id":"4","last_reported":1728866815,"current_range_meters":24400,"station_id":"ce501612rcd8frsf0b60","pricing_plan_id":"cebpf4jnsgd1na2vs0mg"},{"bike_id":"3f8b5162-1b26-4522-8372-1604e89ae5b7","system_id":"levelo_inurba_marseille","lat":43.32348,"lon":5.40622,"is_reserved":false,"is_disabled":false,"rental_uris":{"android":"levelo://app?vid=3f8b5162-1b26-4522-8372-1604e89ae5b7","ios":"levelo://app?vid=3f8b5162-1b26-4522-8372-1604e89ae5b7"},"vehicle_type_id":"4","last_reported":1728866815,"current_range_meters":38400,"station_id":"ce4bhq92rcd13ifvqhjg","pricing_plan_id":"cebpf4jnsgd1na2vs0mg"},{"bike_id":"0e5eea78-f6ef-4bab-b0ff-4377428d85df","system_id":"levelo_inurba_marseille","lat":43.25118,"lon":5.40321,"is_reserved":false,"is_disabled":false,"rental_uris":{"android":"levelo://app?vid=0e5eea78-f6ef-4bab-b0ff-4377428d85df","ios":"levelo://app?vid=0e5eea78-f6ef-4bab-b0ff-4377428d85df"},"vehicle_type_id":"4","last_reported":1728866815,"current_range_meters":16000,"station_id":"ce4bhlh2rcd13ifvqgig","pricing_plan_id":"cebpf4jnsgd1na2vs0mg"},{"bike_id":"73950dea-be8e-4ef4-87fe-74130282ab0c","system_id":"levelo_inurba_marseille","lat":43.28456,"lon":5.3589,"is_reserved":false,"is_disabled":false,"rental_uris":{"android":"levelo://app?vid=73950dea-be8e-4ef4-87fe-74130282ab0c","ios":"levelo://app?vid=73950dea-be8e-4ef4-87fe-74130282ab0c"},"vehicle_type_id":"4","last_reported":1728866815,"current_range_meters":37600,"station_id":"ce4bhah2rcd13ifvqei0","pricing_plan_id":"cebpf4jnsgd1na2vs0mg"},{"bike_id":"91f6673b-90a8-411d-99db-7565c73ddd0e","system_id":"levelo_inurba_marseille","lat":43.33024,"lon":5.39029,"is_reserved":false,"is_disabled":false,"rental_uris":{"android":"levelo://app?vid=91f6673b-90a8-411d-99db-7565c73ddd0e","ios":"levelo://app?vid=91f6673b-90a8-411d-99db-7565c73ddd0e"},"vehicle_type_id":"4","last_reported":1728866815,"current_range_meters":39200,"station_id":"ce4bhr92rcd13ifvqhrg","pricing_plan_id":"cebpf4jnsgd1na2vs0mg"},{"bike_id":"62b35810-2788-484a-8c4e-b06cc56a6d95","system_id":"levelo_inurba_marseille","lat":43.2846,"lon":5.35892,"is_reserved":false,"is_disabled":false,"rental_uris":{"android":"levelo://app?vid=62b35810-2788-484a-8c4e-b06cc56a6d95","ios":"levelo://app?vid=62b35810-2788-484a-8c4e-b06cc56a6d95"},"vehicle_type_id":"4","last_reported":1728866815,"current_range_meters":2800,"station_id":"ce4bhah2rcd13ifvqei0","pricing_plan_id":"cebpf4jnsgd1na2vs0mg"},{"bike_id":"fa4869fc-68cf-42b9-a659-324316e1f009","system_id":"levelo_inurba_marseille","lat":43.31114,"lon":5.37767,"is_reserved":false,"is_disabled":false,"rental_uris":{"android":"levelo://app?vid=fa4869fc-68cf-42b9-a659-324316e1f009","ios":"levelo://app?vid=fa4869fc-68cf-42b9-a659-324316e1f009"},"vehicle_type_id":"4","last_reported":1728866815,"current_range_meters":37600,"station_id":"ce4bgt92rcd13ifvqcg0","pricing_plan_id":"cebpf4jnsgd1na2vs0mg"},{"bike_id":"731e188b-6905-450f-bc90-b79536156775","system_id":"levelo_inurba_marseille","lat":43.30947,"lon":5.39022,"is_reserved":false,"is_disabled":false,"rental_uris":{"android":"levelo://app?vid=731e188b-6905-450f-bc90-b79536156775","ios":"levelo://app?vid=731e188b-6905-450f-bc90-b79536156775"},"vehicle_type_id":"4","last_reported":1728866815,"current_range_meters":16400,"station_id":"ce4bgup2rcd13ifvqco0","pricing_plan_id":"cebpf4jnsgd1na2vs0mg"},{"bike_id":"904fffa1-be2e-4a19-ad67-d911fd6a59c1","system_id":"levelo_inurba_marseille","lat":43.27939,"lon":5.41041,"is_reserved":false,"is_disabled":false,"rental_uris":{"android":"levelo://app?vid=904fffa1-be2e-4a19-ad67-d911fd6a59c1","ios":"levelo://app?vid=904fffa1-be2e-4a19-ad67-d911fd6a59c1"},"vehicle_type_id":"4","last_reported":1728866815,"current_range_meters":10000,"station_id":"ce4bhnp2rcd13ifvqh0g","pricing_plan_id":"cebpf4jnsgd1na2vs0mg"},{"bike_id":"716ac847-e15b-45b1-a79e-82530dd35f01","system_id":"levelo_inurba_marseille","lat":43.29446,"lon":5.39746,"is_reserved":false,"is_disabled":false,"rental_uris":{"android":"levelo://app?vid=716ac847-e15b-45b1-a79e-82530dd35f01","ios":"levelo://app?vid=716ac847-e15b-45b1-a79e-82530dd35f01"},"vehicle_type_id":"4","last_reported":1728866815,"current_range_meters":38000,"station_id":"ce4bh3h2rcd13ifvqdo0","pricing_plan_id":"cebpf4jnsgd1na2vs0mg"},{"bike_id":"6f7399da-6330-407f-b021-d53846382c0f","system_id":"levelo_inurba_marseille","lat":43.25001,"lon":5.38928,"is_reserved":false,"is_disabled":false,"rental_uris":{"android":"levelo://app?vid=6f7399da-6330-407f-b021-d53846382c0f","ios":"levelo://app?vid=6f7399da-6330-407f-b021-d53846382c0f"},"vehicle_type_id":"4","last_reported":1728866815,"current_range_meters":37600,"station_id":"ce4bhgp2rcd13ifvqfd0","pricing_plan_id":"cebpf4jnsgd1na2vs0mg"},{"bike_id":"2ab423a0-58a0-4125-b3de-29c6611f5114","system_id":"levelo_inurba_marseille","lat":43.25086,"lon":5.39515,"is_reserved":false,"is_disabled":false,"rental_uris":{"android":"levelo://app?vid=2ab423a0-58a0-4125-b3de-29c6611f5114","ios":"levelo://app?vid=2ab423a0-58a0-4125-b3de-29c6611f5114"},"vehicle_type_id":"4","last_reported":1728866815,"current_range_meters":38800,"station_id":"ce4bhm12rcd13ifvqgkg","pricing_plan_id":"cebpf4jnsgd1na2vs0mg"},{"bike_id":"1f535ebf-e182-4b2e-b9aa-c39959f8ac74","system_id":"levelo_inurba_marseille","lat":43.28943,"lon":5.3963,"is_reserved":false,"is_disabled":false,"rental_uris":{"android":"levelo://app?vid=1f535ebf-e182-4b2e-b9aa-c39959f8ac74","ios":"levelo://app?vid=1f535ebf-e182-4b2e-b9aa-c39959f8ac74"},"vehicle_type_id":"4","last_reported":1728866815,"current_range_meters":38400,"station_id":"ce4bh3h2rcd13ifvqdn0","pricing_plan_id":"cebpf4jnsgd1na2vs0mg"},{"bike_id":"2e8fd83d-f207-42e0-b3df-615bd4818f53","system_id":"levelo_inurba_marseille","lat":43.30893,"lon":5.39633,"is_reserved":false,"is_disabled":false,"rental_uris":{"android":"levelo://app?vid=2e8fd83d-f207-42e0-b3df-615bd4818f53","ios":"levelo://app?vid=2e8fd83d-f207-42e0-b3df-615bd4818f53"},"vehicle_type_id":"4","last_reported":1728866815,"current_range_meters":14800,"station_id":"ce4bh012rcd13ifvqcv0","pricing_plan_id":"cebpf4jnsgd1na2vs0mg"},{"bike_id":"bbabfd98-52fb-43a4-a250-8b3a64c37ca9","system_id":"levelo_inurba_marseille","lat":43.27835,"lon":5.39208,"is_reserved":false,"is_disabled":false,"rental_uris":{"android":"levelo://app?vid=bbabfd98-52fb-43a4-a250-8b3a64c37ca9","ios":"levelo://app?vid=bbabfd98-52fb-43a4-a250-8b3a64c37ca9"},"vehicle_type_id":"4","last_reported":1728866815,"current_range_meters":38000,"station_id":"ce4bhjp2rcd13ifvqga0","pricing_plan_id":"cebpf4jnsgd1na2vs0mg"},{"bike_id":"fbe615cb-75a0-4f17-8fec-ff10713edc0f","system_id":"levelo_inurba_marseille","lat":43.31166,"lon":5.38704,"is_reserved":false,"is_disabled":false,"rental_uris":{"android":"levelo://app?vid=fbe615cb-75a0-4f17-8fec-ff10713edc0f","ios":"levelo://app?vid=fbe615cb-75a0-4f17-8fec-ff10713edc0f"},"vehicle_type_id":"4","last_reported":1728866815,"current_range_meters":14400,"station_id":"ce4bgv12rcd13ifvqcp0","pricing_plan_id":"cebpf4jnsgd1na2vs0mg"},{"bike_id":"699451ba-dba1-4cc7-b931-20482fc283a8","system_id":"levelo_inurba_marseille","lat":43.30643,"lon":5.4008,"is_reserved":false,"is_disabled":false,"rental_uris":{"android":"levelo://app?vid=699451ba-dba1-4cc7-b931-20482fc283a8","ios":"levelo://app?vid=699451ba-dba1-4cc7-b931-20482fc283a8"},"vehicle_type_id":"4","last_reported":1728866815,"current_range_meters":38800,"station_id":"ce4bh112rcd13ifvqda0","pricing_plan_id":"cebpf4jnsgd1na2vs0mg"},{"bike_id":"1b8c6c6d-1fe9-48ef-81fc-2e3864db520f","system_id":"levelo_inurba_marseille","lat":43.29552,"lon":5.4227,"is_reserved":false,"is_disabled":false,"rental_uris":{"android":"levelo://app?vid=1b8c6c6d-1fe9-48ef-81fc-2e3864db520f","ios":"levelo://app?vid=1b8c6c6d-1fe9-48ef-81fc-2e3864db520f"},"vehicle_type_id":"4","last_reported":1728866815,"current_range_meters":34000,"station_id":"ce4bhph2rcd13ifvqhdg","pricing_plan_id":"cebpf4jnsgd1na2vs0mg"},{"bike_id":"ebf0236b-fa4b-4e07-8481-62f6a19cdcff","system_id":"levelo_inurba_marseille","lat":43.30889,"lon":5.39635,"is_reserved":false,"is_disabled":false,"rental_uris":{"android":"levelo://app?vid=ebf0236b-fa4b-4e07-8481-62f6a19cdcff","ios":"levelo://app?vid=ebf0236b-fa4b-4e07-8481-62f6a19cdcff"},"vehicle_type_id":"4","last_reported":1728866815,"current_range_meters":17200,"station_id":"ce4bh012rcd13ifvqcv0","pricing_plan_id":"cebpf4jnsgd1na2vs0mg"},{"bike_id":"7c44ed87-ec8a-40e0-a8d0-8ff43141f698","system_id":"levelo_inurba_marseille","lat":43.29848,"lon":5.36283,"is_reserved":false,"is_disabled":false,"rental_uris":{"android":"levelo://app?vid=7c44ed87-ec8a-40e0-a8d0-8ff43141f698","ios":"levelo://app?vid=7c44ed87-ec8a-40e0-a8d0-8ff43141f698"},"vehicle_type_id":"4","last_reported":1728866815,"current_range_meters":38800,"station_id":"ce4bgpp2rcd13ifvqc3g","pricing_plan_id":"cebpf4jnsgd1na2vs0mg"},{"bike_id":"5d2fb62c-2052-4609-8206-eebdf7b68c71","system_id":"levelo_inurba_marseille","lat":43.30895,"lon":5.37192,"is_reserved":false,"is_disabled":false,"rental_uris":{"android":"levelo://app?vid=5d2fb62c-2052-4609-8206-eebdf7b68c71","ios":"levelo://app?vid=5d2fb62c-2052-4609-8206-eebdf7b68c71"},"vehicle_type_id":"4","last_reported":1728866815,"current_range_meters":38000,"station_id":"ce4bguh2rcd13ifvqckg","pricing_plan_id":"cebpf4jnsgd1na2vs0mg"},{"bike_id":"58821253-536d-48f0-9016-f878c99d9361","system_id":"levelo_inurba_marseille","lat":43.23061,"lon":5.35493,"is_reserved":false,"is_disabled":false,"rental_uris":{"android":"levelo://app?vid=58821253-536d-48f0-9016-f878c99d9361","ios":"levelo://app?vid=58821253-536d-48f0-9016-f878c99d9361"},"vehicle_type_id":"4","last_reported":1728866815,"current_range_meters":38800,"station_id":"cpo3342slgdg3j2ifvpg","pricing_plan_id":"cebpf4jnsgd1na2vs0mg"},{"bike_id":"5c7c9257-6498-40da-aaa0-3d36b8687f71","system_id":"levelo_inurba_marseille","lat":43.28615,"lon":5.35101,"is_reserved":false,"is_disabled":false,"rental_uris":{"android":"levelo://app?vid=5c7c9257-6498-40da-aaa0-3d36b8687f71","ios":"levelo://app?vid=5c7c9257-6498-40da-aaa0-3d36b8687f71"},"vehicle_type_id":"4","last_reported":1728866815,"current_range_meters":38400,"station_id":"ce4bhch2rcd13ifvqeug","pricing_plan_id":"cebpf4jnsgd1na2vs0mg"},{"bike_id":"6079e7aa-0ee6-4d31-aa0e-861f57578c9f","system_id":"levelo_inurba_marseille","lat":43.2894,"lon":5.3641,"is_reserved":false,"is_disabled":false,"rental_uris":{"android":"levelo://app?vid=6079e7aa-0ee6-4d31-aa0e-861f57578c9f","ios":"levelo://app?vid=6079e7aa-0ee6-4d31-aa0e-861f57578c9f"},"vehicle_type_id":"4","last_reported":1728866815,"current_range_meters":38800,"station_id":"ce4bhc92rcd13ifvqetg","pricing_plan_id":"cebpf4jnsgd1na2vs0mg"},{"bike_id":"d7ed9a21-0e85-466b-84e2-bc5a3810ccb9","system_id":"levelo_inurba_marseille","lat":43.28401,"lon":5.37508,"is_reserved":false,"is_disabled":false,"rental_uris":{"android":"levelo://app?vid=d7ed9a21-0e85-466b-84e2-bc5a3810ccb9","ios":"levelo://app?vid=d7ed9a21-0e85-466b-84e2-bc5a3810ccb9"},"vehicle_type_id":"4","last_reported":1728866815,"current_range_meters":6800,"station_id":"ce4bh412rcd13ifvqds0","pricing_plan_id":"cebpf4jnsgd1na2vs0mg"},{"bike_id":"ec2f5956-0bd0-4154-8f53-b28cdc549918","system_id":"levelo_inurba_marseille","lat":43.32366,"lon":5.38886,"is_reserved":false,"is_disabled":false,"rental_uris":{"android":"levelo://app?vid=ec2f5956-0bd0-4154-8f53-b28cdc549918","ios":"levelo://app?vid=ec2f5956-0bd0-4154-8f53-b28cdc549918"},"vehicle_type_id":"4","last_reported":1728866815,"current_range_meters":6400,"station_id":"ce4bhqp2rcd13ifvqhog","pricing_plan_id":"cebpf4jnsgd1na2vs0mg"},{"bike_id":"77ee487e-3d9b-4968-bbfc-de639a95bf41","system_id":"levelo_inurba_marseille","lat":43.32365,"lon":5.38884,"is_reserved":false,"is_disabled":false,"rental_uris":{"android":"levelo://app?vid=77ee487e-3d9b-4968-bbfc-de639a95bf41","ios":"levelo://app?vid=77ee487e-3d9b-4968-bbfc-de639a95bf41"},"vehicle_type_id":"4","last_reported":1728866815,"current_range_meters":16800,"station_id":"ce4bhqp2rcd13ifvqhog","pricing_plan_id":"cebpf4jnsgd1na2vs0mg"},{"bike_id":"89db7c06-9621-4697-8bcc-31fbe066500c","system_id":"levelo_inurba_marseille","lat":43.284618,"lon":5.358902,"is_reserved":false,"is_disabled":false,"rental_uris":{"android":"levelo://app?vid=89db7c06-9621-4697-8bcc-31fbe066500c","ios":"levelo://app?vid=89db7c06-9621-4697-8bcc-31fbe066500c"},"vehicle_type_id":"4","last_reported":1728866815,"current_range_meters":28800,"station_id":"ce4bhah2rcd13ifvqei0","pricing_plan_id":"cebpf4jnsgd1na2vs0mg"},{"bike_id":"a8c2a60d-4f46-48c5-ac57-9a29719e7843","system_id":"levelo_inurba_marseille","lat":43.31174,"lon":5.38713,"is_reserved":false,"is_disabled":false,"rental_uris":{"android":"levelo://app?vid=a8c2a60d-4f46-48c5-ac57-9a29719e7843","ios":"levelo://app?vid=a8c2a60d-4f46-48c5-ac57-9a29719e7843"},"vehicle_type_id":"4","last_reported":1728866815,"current_range_meters":38800,"station_id":"ce4bgv12rcd13ifvqcp0","pricing_plan_id":"cebpf4jnsgd1na2vs0mg"},{"bike_id":"9ee8defc-7efe-408e-a922-86f90c58eea8","system_id":"levelo_inurba_marseille","lat":43.28728,"lon":5.36078,"is_reserved":false,"is_disabled":false,"rental_uris":{"android":"levelo://app?vid=9ee8defc-7efe-408e-a922-86f90c58eea8","ios":"levelo://app?vid=9ee8defc-7efe-408e-a922-86f90c58eea8"},"vehicle_type_id":"4","last_reported":1728866815,"current_range_meters":26800,"station_id":"cki0cbj6b192h4jlfktg","pricing_plan_id":"cebpf4jnsgd1na2vs0mg"},{"bike_id":"c5e1c5f0-4d0d-43b4-a5ce-bda7a5679e5e","system_id":"levelo_inurba_marseille","lat":43.30928,"lon":5.40142,"is_reserved":false,"is_disabled":false,"rental_uris":{"android":"levelo://app?vid=c5e1c5f0-4d0d-43b4-a5ce-bda7a5679e5e","ios":"levelo://app?vid=c5e1c5f0-4d0d-43b4-a5ce-bda7a5679e5e"},"vehicle_type_id":"4","last_reported":1728866815,"current_range_meters":16800,"station_id":"ce4bgvp2rcd13ifvqct0","pricing_plan_id":"cebpf4jnsgd1na2vs0mg"},{"bike_id":"27e30b31-ae65-40a7-9382-c3f316db6b2b","system_id":"levelo_inurba_marseille","lat":43.31071,"lon":5.38358,"is_reserved":false,"is_disabled":false,"rental_uris":{"android":"levelo://app?vid=27e30b31-ae65-40a7-9382-c3f316db6b2b","ios":"levelo://app?vid=27e30b31-ae65-40a7-9382-c3f316db6b2b"},"vehicle_type_id":"4","last_reported":1728866815,"current_range_meters":38000,"station_id":"ce4bgv92rcd13ifvqcr0","pricing_plan_id":"cebpf4jnsgd1na2vs0mg"},{"bike_id":"7c095d3c-604a-4602-b927-64e3a8b70e01","system_id":"levelo_inurba_marseille","lat":43.29032,"lon":5.37567,"is_reserved":false,"is_disabled":false,"rental_uris":{"android":"levelo://app?vid=7c095d3c-604a-4602-b927-64e3a8b70e01","ios":"levelo://app?vid=7c095d3c-604a-4602-b927-64e3a8b70e01"},"vehicle_type_id":"4","last_reported":1728866815,"current_range_meters":33200,"station_id":"ce4bh692rcd13ifvqe90","pricing_plan_id":"cebpf4jnsgd1na2vs0mg"},{"bike_id":"cdde71fa-933f-47ef-8a23-39142a076aea","system_id":"levelo_inurba_marseille","lat":43.29545,"lon":5.42292,"is_reserved":false,"is_disabled":false,"rental_uris":{"android":"levelo://app?vid=cdde71fa-933f-47ef-8a23-39142a076aea","ios":"levelo://app?vid=cdde71fa-933f-47ef-8a23-39142a076aea"},"vehicle_type_id":"4","last_reported":1728866815,"current_range_meters":38400,"station_id":"ce4bhph2rcd13ifvqhdg","pricing_plan_id":"cebpf4jnsgd1na2vs0mg"},{"bike_id":"aae33064-4853-4bd5-9ae9-1d2a4ee45368","system_id":"levelo_inurba_marseille","lat":43.2417,"lon":5.36404,"is_reserved":false,"is_disabled":false,"rental_uris":{"android":"levelo://app?vid=aae33064-4853-4bd5-9ae9-1d2a4ee45368","ios":"levelo://app?vid=aae33064-4853-4bd5-9ae9-1d2a4ee45368"},"vehicle_type_id":"4","last_reported":1728866815,"current_range_meters":33200,"station_id":"cpo36qri1sfpv3e86is0","pricing_plan_id":"cebpf4jnsgd1na2vs0mg"},{"bike_id":"988d83b5-7e1f-43e3-8759-952abfd48737","system_id":"levelo_inurba_marseille","lat":43.3093,"lon":5.40146,"is_reserved":false,"is_disabled":false,"rental_uris":{"android":"levelo://app?vid=988d83b5-7e1f-43e3-8759-952abfd48737","ios":"levelo://app?vid=988d83b5-7e1f-43e3-8759-952abfd48737"},"vehicle_type_id":"4","last_reported":1728866815,"current_range_meters":39200,"station_id":"ce4bgvp2rcd13ifvqct0","pricing_plan_id":"cebpf4jnsgd1na2vs0mg"},{"bike_id":"d7a9f1a0-8b4f-4962-9dea-9a4253d23a81","system_id":"levelo_inurba_marseille","lat":43.31889,"lon":5.40734,"is_reserved":false,"is_disabled":false,"rental_uris":{"android":"levelo://app?vid=d7a9f1a0-8b4f-4962-9dea-9a4253d23a81","ios":"levelo://app?vid=d7a9f1a0-8b4f-4962-9dea-9a4253d23a81"},"vehicle_type_id":"4","last_reported":1728866815,"current_range_meters":38800,"station_id":"ce4bhq12rcd13ifvqhig","pricing_plan_id":"cebpf4jnsgd1na2vs0mg"},{"bike_id":"9d478290-d007-4292-bc2e-170e50b123b0","system_id":"levelo_inurba_marseille","lat":43.28717,"lon":5.37955,"is_reserved":false,"is_disabled":false,"rental_uris":{"android":"levelo://app?vid=9d478290-d007-4292-bc2e-170e50b123b0","ios":"levelo://app?vid=9d478290-d007-4292-bc2e-170e50b123b0"},"vehicle_type_id":"4","last_reported":1728866815,"current_range_meters":38000,"station_id":"ce4bh9p2rcd13ifvqec0","pricing_plan_id":"cebpf4jnsgd1na2vs0mg"},{"bike_id":"38118819-5b41-45b7-b8fe-8a84fcfa5a10","system_id":"levelo_inurba_marseille","lat":43.29033,"lon":5.39962,"is_reserved":false,"is_disabled":false,"rental_uris":{"android":"levelo://app?vid=38118819-5b41-45b7-b8fe-8a84fcfa5a10","ios":"levelo://app?vid=38118819-5b41-45b7-b8fe-8a84fcfa5a10"},"vehicle_type_id":"4","last_reported":1728866815,"current_range_meters":22800,"station_id":"ce4bh392rcd13ifvqdm0","pricing_plan_id":"cebpf4jnsgd1na2vs0mg"},{"bike_id":"a9a55657-ca54-4953-bef8-c35f607fceb6","system_id":"levelo_inurba_marseille","lat":43.27958,"lon":5.38728,"is_reserved":false,"is_disabled":false,"rental_uris":{"android":"levelo://app?vid=a9a55657-ca54-4953-bef8-c35f607fceb6","ios":"levelo://app?vid=a9a55657-ca54-4953-bef8-c35f607fceb6"},"vehicle_type_id":"4","last_reported":1728866815,"current_range_meters":38800,"station_id":"ce4bhg12rcd13ifvqf80","pricing_plan_id":"cebpf4jnsgd1na2vs0mg"},{"bike_id":"80649d64-c5a5-427e-bc60-508b8d595ff1","system_id":"levelo_inurba_marseille","lat":43.31365,"lon":5.38503,"is_reserved":false,"is_disabled":false,"rental_uris":{"android":"levelo://app?vid=80649d64-c5a5-427e-bc60-508b8d595ff1","ios":"levelo://app?vid=80649d64-c5a5-427e-bc60-508b8d595ff1"},"vehicle_type_id":"4","last_reported":1728866815,"current_range_meters":38800,"station_id":"ce4bgt92rcd13ifvqcf0","pricing_plan_id":"cebpf4jnsgd1na2vs0mg"},{"bike_id":"4a4f92e5-f998-4691-a2f2-3b0cd876905e","system_id":"levelo_inurba_marseille","lat":43.27983,"lon":5.3873,"is_reserved":false,"is_disabled":false,"rental_uris":{"android":"levelo://app?vid=4a4f92e5-f998-4691-a2f2-3b0cd876905e","ios":"levelo://app?vid=4a4f92e5-f998-4691-a2f2-3b0cd876905e"},"vehicle_type_id":"4","last_reported":1728866815,"current_range_meters":38400,"station_id":"ce4bhg12rcd13ifvqf80","pricing_plan_id":"cebpf4jnsgd1na2vs0mg"},{"bike_id":"e47b3df2-c3a8-499d-9727-c4403cd0bb22","system_id":"levelo_inurba_marseille","lat":43.31711,"lon":5.437,"is_reserved":false,"is_disabled":false,"rental_uris":{"android":"levelo://app?vid=e47b3df2-c3a8-499d-9727-c4403cd0bb22","ios":"levelo://app?vid=e47b3df2-c3a8-499d-9727-c4403cd0bb22"},"vehicle_type_id":"4","last_reported":1728866815,"current_range_meters":33200,"station_id":"ce4bhp92rcd13ifvqhcg","pricing_plan_id":"cebpf4jnsgd1na2vs0mg"},{"bike_id":"d3b02442-4b91-4e1d-b124-af434bb27174","system_id":"levelo_inurba_marseille","lat":43.30145,"lon":5.37409,"is_reserved":false,"is_disabled":false,"rental_uris":{"android":"levelo://app?vid=d3b02442-4b91-4e1d-b124-af434bb27174","ios":"levelo://app?vid=d3b02442-4b91-4e1d-b124-af434bb27174"},"vehicle_type_id":"4","last_reported":1728866815,"current_range_meters":24000,"station_id":"ce4bgs92rcd13ifvqcc0","pricing_plan_id":"cebpf4jnsgd1na2vs0mg"},{"bike_id":"9ce54f0f-36ec-41d6-ae7b-340cf8637579","system_id":"levelo_inurba_marseille","lat":43.24073,"lon":5.37751,"is_reserved":false,"is_disabled":false,"rental_uris":{"android":"levelo://app?vid=9ce54f0f-36ec-41d6-ae7b-340cf8637579","ios":"levelo://app?vid=9ce54f0f-36ec-41d6-ae7b-340cf8637579"},"vehicle_type_id":"4","last_reported":1728866815,"current_range_meters":38800,"station_id":"ce4bhnp2rcd13ifvqgvg","pricing_plan_id":"cebpf4jnsgd1na2vs0mg"},{"bike_id":"aad69708-28ac-43e6-945e-619f5a7c6bfd","system_id":"levelo_inurba_marseille","lat":43.33781,"lon":5.37443,"is_reserved":false,"is_disabled":false,"rental_uris":{"android":"levelo://app?vid=aad69708-28ac-43e6-945e-619f5a7c6bfd","ios":"levelo://app?vid=aad69708-28ac-43e6-945e-619f5a7c6bfd"},"vehicle_type_id":"4","last_reported":1728866815,"current_range_meters":31200,"station_id":"","pricing_plan_id":"cebpf4jnsgd1na2vs0mg"},{"bike_id":"c4488d3b-ca2c-4e37-8985-12b4c2a93121","system_id":"levelo_inurba_marseille","lat":43.28858,"lon":5.35852,"is_reserved":false,"is_disabled":false,"rental_uris":{"android":"levelo://app?vid=c4488d3b-ca2c-4e37-8985-12b4c2a93121","ios":"levelo://app?vid=c4488d3b-ca2c-4e37-8985-12b4c2a93121"},"vehicle_type_id":"4","last_reported":1728866815,"current_range_meters":33200,"station_id":"ce4bhb12rcd13ifvqem0","pricing_plan_id":"cebpf4jnsgd1na2vs0mg"},{"bike_id":"6c5cf327-7215-4845-991f-adde98526108","system_id":"levelo_inurba_marseille","lat":43.308853,"lon":5.396431,"is_reserved":false,"is_disabled":false,"rental_uris":{"android":"levelo://app?vid=6c5cf327-7215-4845-991f-adde98526108","ios":"levelo://app?vid=6c5cf327-7215-4845-991f-adde98526108"},"vehicle_type_id":"4","last_reported":1728866815,"current_range_meters":36400,"station_id":"ce4bh012rcd13ifvqcv0","pricing_plan_id":"cebpf4jnsgd1na2vs0mg"},{"bike_id":"1434b983-f7f2-4952-9578-3b4de6cb87c7","system_id":"levelo_inurba_marseille","lat":43.28403,"lon":5.37526,"is_reserved":false,"is_disabled":false,"rental_uris":{"android":"levelo://app?vid=1434b983-f7f2-4952-9578-3b4de6cb87c7","ios":"levelo://app?vid=1434b983-f7f2-4952-9578-3b4de6cb87c7"},"vehicle_type_id":"4","last_reported":1728866815,"current_range_meters":26000,"station_id":"ce4bh412rcd13ifvqds0","pricing_plan_id":"cebpf4jnsgd1na2vs0mg"},{"bike_id":"f8dc795d-f753-4afe-8e70-b71292e6574d","system_id":"levelo_inurba_marseille","lat":43.33608,"lon":5.41015,"is_reserved":false,"is_disabled":false,"rental_uris":{"android":"levelo://app?vid=f8dc795d-f753-4afe-8e70-b71292e6574d","ios":"levelo://app?vid=f8dc795d-f753-4afe-8e70-b71292e6574d"},"vehicle_type_id":"4","last_reported":1728866815,"current_range_meters":18800,"station_id":"ce4bhqh2rcd13ifvqhmg","pricing_plan_id":"cebpf4jnsgd1na2vs0mg"},{"bike_id":"92ffd6bd-fff3-48de-962d-2fccf89bc6a0","system_id":"levelo_inurba_marseille","lat":43.301462,"lon":5.380795,"is_reserved":false,"is_disabled":false,"rental_uris":{"android":"levelo://app?vid=92ffd6bd-fff3-48de-962d-2fccf89bc6a0","ios":"levelo://app?vid=92ffd6bd-fff3-48de-962d-2fccf89bc6a0"},"vehicle_type_id":"4","last_reported":1728866815,"current_range_meters":14800,"station_id":"ce4bh412rcd13ifvqdr0","pricing_plan_id":"cebpf4jnsgd1na2vs0mg"},{"bike_id":"1a5f8a4c-aa76-4c8a-b27f-58a87354375b","system_id":"levelo_inurba_marseille","lat":43.31326,"lon":5.39692,"is_reserved":false,"is_disabled":false,"rental_uris":{"android":"levelo://app?vid=1a5f8a4c-aa76-4c8a-b27f-58a87354375b","ios":"levelo://app?vid=1a5f8a4c-aa76-4c8a-b27f-58a87354375b"},"vehicle_type_id":"4","last_reported":1728866815,"current_range_meters":11200,"station_id":"ce4bgvp2rcd13ifvqcu0","pricing_plan_id":"cebpf4jnsgd1na2vs0mg"},