{"last_updated":1753182606,"ttl":60,"version":"2.2","data":{"bikes":[{"bike_id":"f18952d9-de72-4b00-ac50-ca46d1bc16b9","system_id":"levelo_inurba_marseille","lat":43.21192,"lon":5.35079,"is_reserved":false,"is_disabled":false,"rental_uris":{"android":"levelo://app?vid=f18952d9-de72-4b00-ac50-ca46d1bc16b9","ios":"levelo://app?vid=f18952d9-de72-4b00-ac50-ca46d1bc16b9"},"vehicle_type_id":"4","last_reported":1753182606,"current_range_meters":2800,"station_id":"st_cvj6sg6p6f1abm77japg","pricing_plan_id":"cebpf4jnsgd1na2vs0mg"},{"bike_id":"e1f46236-400b-4e4a-8d19-33304575b93c","system_id":"levelo_inurba_marseille","lat":43.22919,"lon":5.35382,"is_reserved":false,"is_disabled":false,"rental_uris":{"android":"levelo://app?vid=e1f46236-400b-4e4a-8d19-33304575b93c","ios":"levelo://app?vid=e1f46236-400b-4e4a-8d19-33304575b93c"},"vehicle_type_id":"4","last_reported":1753182606,"current_range_meters":2800,"station_id":"cpo3532slgdg3j2ikp40","pricing_plan_id":"cebpf4jnsgd1na2vs0mg"},{"bike_id":"433415c1-acea-4306-b3ad-c55437db8988","system_id":"levelo_inurba_marseille","lat":43.29529,"lon":5.38196,"is_reserved":false,"is_disabled":false,"rental_uris":{"android":"levelo://app?vid=433415c1-acea-4306-b3ad-c55437db8988","ios":"levelo://app?vid=433415c1-acea-4306-b3ad-c55437db8988"},"vehicle_type_id":"4","last_reported":1753182606,"current_range_meters":3200,"station_id":"","pricing_plan_id":"cebpf4jnsgd1na2vs0mg"},{"bike_id":"a6de290b-5c15-427b-bc37-8301607e1735","system_id":"levelo_inurba_marseille","lat":43.337725,"lon":5.374294,"is_reserved":false,"is_disabled":false,"rental_uris":{"android":"levelo://app?vid=a6de290b-5c15-427b-bc37-8301607e1735","ios":"levelo://app?vid=a6de290b-5c15-427b-bc37-8301607e1735"},"vehicle_type_id":"4","last_reported":1753182606,"current_range_meters":3200,"station_id":"","pricing_plan_id":"cebpf4jnsgd1na2vs0mg"},{"bike_id":"741c0025-6bb8-4fe2-aa97-6088ae0c462b","system_id":"levelo_inurba_marseille","lat":43.29311,"lon":5.371767,"is_reserved":false,"is_disabled":false,"rental_uris":{"android":"levelo://app?vid=741c0025-6bb8-4fe2-aa97-6088ae0c462b","ios":"levelo://app?vid=741c0025-6bb8-4fe2-aa97-6088ae0c462b"},"vehicle_type_id":"4","last_reported":1753182606,"current_range_meters":3200,"station_id":"ce4bgh92rcd13ifvqb40","pricing_plan_id":"cebpf4jnsgd1na2vs0mg"},{"bike_id":"ebcded52-0a47-4e53-843e-308d4f2a85f5","system_id":"levelo_inurba_marseille","lat":43.30125,"lon":5.39874,"is_reserved":false,"is_disabled":false,"rental_uris":{"android":"levelo://app?vid=ebcded52-0a47-4e53-843e-308d4f2a85f5","ios":"levelo://app?vid=ebcded52-0a47-4e53-843e-308d4f2a85f5"},"vehicle_type_id":"4","last_reported":1753182606,"current_range_meters":3200,"station_id":"ce4bh0h2rcd13ifvqd40","pricing_plan_id":"cebpf4jnsgd1na2vs0mg"},{"bike_id":"7b34edc7-0e31-48ca-b22c-0e27d32cd699","system_id":"levelo_inurba_marseille","lat":43.23191,"lon":5.39995,"is_reserved":false,"is_disabled":false,"rental_uris":{"android":"levelo://app?vid=7b34edc7-0e31-48ca-b22c-0e27d32cd699","ios":"levelo://app?vid=7b34edc7-0e31-48ca-b22c-0e27d32cd699"},"vehicle_type_id":"4","last_reported":1753182606,"current_range_meters":3600,"station_id":"ce4bhn12rcd13ifvqgqg","pricing_plan_id":"cebpf4jnsgd1na2vs0mg"},{"bike_id":"1223dd90-0632-46a9-89b3-e5cd269ab8ce","system_id":"levelo_inurba_marseille","lat":43.305366,"lon":5.384324,"is_reserved":false,"is_disabled":false,"rental_uris":{"android":"levelo://app?vid=1223dd90-0632-46a9-89b3-e5cd269ab8ce","ios":"levelo://app?vid=1223dd90-0632-46a9-89b3-e5cd269ab8ce"},"vehicle_type_id":"4","last_reported":1753182606,"current_range_meters":4000,"station_id":"ce4bgg92rcd13ifvqb30","pricing_plan_id":"cebpf4jnsgd1na2vs0mg"},{"bike_id":"19adc779-f1b1-4963-ac45-c43687ad0869","system_id":"levelo_inurba_marseille","lat":43.32049,"lon":5.41543,"is_reserved":false,"is_disabled":false,"rental_uris":{"android":"levelo://app?vid=19adc779-f1b1-4963-ac45-c43687ad0869","ios":"levelo://app?vid=19adc779-f1b1-4963-ac45-c43687ad0869"},"vehicle_type_id":"4","last_reported":1753182606,"current_range_meters":4800,"station_id":"ce4bhq92rcd13ifvqhkg","pricing_plan_id":"cebpf4jnsgd1na2vs0mg"},{"bike_id":"ecf9d1b6-7f23-44bd-a710-ea43c1808c1f","system_id":"levelo_inurba_marseille","lat":43.31334,"lon":5.397,"is_reserved":false,"is_disabled":false,"rental_uris":{"android":"levelo://app?vid=ecf9d1b6-7f23-44bd-a710-ea43c1808c1f","ios":"levelo://app?vid=ecf9d1b6-7f23-44bd-a710-ea43c1808c1f"},"vehicle_type_id":"4","last_reported":1753182606,"current_range_meters":4800,"station_id":"ce4bgvp2rcd13ifvqcu0","pricing_plan_id":"cebpf4jnsgd1na2vs0mg"},{"bike_id":"7dab5f98-47d8-4f12-ad38-c84303fe395e","system_id":"levelo_inurba_marseille","lat":43.30114,"lon":5.39856,"is_reserved":false,"is_disabled":false,"rental_uris":{"android":"levelo://app?vid=7dab5f98-47d8-4f12-ad38-c84303fe395e","ios":"levelo://app?vid=7dab5f98-47d8-4f12-ad38-c84303fe395e"},"vehicle_type_id":"4","last_reported":1753182606,"current_range_meters":5600,"station_id":"ce4bh0h2rcd13ifvqd40","pricing_plan_id":"cebpf4jnsgd1na2vs0mg"},{"bike_id":"a9f574e7-2223-4a26-b3af-45d0a75241e0","system_id":"levelo_inurba_marseille","lat":43.302316,"lon":5.400787,"is_reserved":false,"is_disabled":false,"rental_uris":{"android":"levelo://app?vid=a9f574e7-2223-4a26-b3af-45d0a75241e0","ios":"levelo://app?vid=a9f574e7-2223-4a26-b3af-45d0a75241e0"},"vehicle_type_id":"4","last_reported":1753182606,"current_range_meters":6400,"station_id":"ce4bgvh2rcd13ifvqcs0","pricing_plan_id":"cebpf4jnsgd1na2vs0mg"},{"bike_id":"8af6e84f-c978-4717-8b30-9141360c3ec1","system_id":"levelo_inurba_marseille","lat":43.3056,"lon":5.37165,"is_reserved":false,"is_disabled":false,"rental_uris":{"android":"levelo://app?vid=8af6e84f-c978-4717-8b30-9141360c3ec1","ios":"levelo://app?vid=8af6e84f-c978-4717-8b30-9141360c3ec1"},"vehicle_type_id":"4","last_reported":1753182606,"current_range_meters":6400,"station_id":"ce4bgqh2rcd13ifvqc4g","pricing_plan_id":"cebpf4jnsgd1na2vs0mg"},{"bike_id":"f4d87573-2948-4089-a195-9ed5f7768a75","system_id":"levelo_inurba_marseille","lat":43.29867,"lon":5.3973,"is_reserved":false,"is_disabled":false,"rental_uris":{"android":"levelo://app?vid=f4d87573-2948-4089-a195-9ed5f7768a75","ios":"levelo://app?vid=f4d87573-2948-4089-a195-9ed5f7768a75"},"vehicle_type_id":"4","last_reported":1753182606,"current_range_meters":6000,"station_id":"ce4bh0h2rcd13ifvqd50","pricing_plan_id":"cebpf4jnsgd1na2vs0mg"},{"bike_id":"9ea01a6a-1305-4ec4-8e38-3ecfc8616775","system_id":"levelo_inurba_marseille","lat":43.30204,"lon":5.39467,"is_reserved":false,"is_disabled":false,"rental_uris":{"android":"levelo://app?vid=9ea01a6a-1305-4ec4-8e38-3ecfc8616775","ios":"levelo://app?vid=9ea01a6a-1305-4ec4-8e38-3ecfc8616775"},"vehicle_type_id":"4","last_reported":1753182606,"current_range_meters":6000,"station_id":"ce4bh0p2rcd13ifvqd70","pricing_plan_id":"cebpf4jnsgd1na2vs0mg"},{"bike_id":"105fe202-b3b0-4948-83be-5af347e52d4d","system_id":"levelo_inurba_marseille","lat":43.27803,"lon":5.35505,"is_reserved":false,"is_disabled":false,"rental_uris":{"android":"levelo://app?vid=105fe202-b3b0-4948-83be-5af347e52d4d","ios":"levelo://app?vid=105fe202-b3b0-4948-83be-5af347e52d4d"},"vehicle_type_id":"4","last_reported":1753182606,"current_range_meters":6800,"station_id":"","pricing_plan_id":"cebpf4jnsgd1na2vs0mg"},{"bike_id":"4a2df460-a009-421f-905c-bc80d933f542","system_id":"levelo_inurba_marseille","lat":43.31219,"lon":5.36857,"is_reserved":false,"is_disabled":false,"rental_uris":{"android":"levelo://app?vid=4a2df460-a009-421f-905c-bc80d933f542","ios":"levelo://app?vid=4a2df460-a009-421f-905c-bc80d933f542"},"vehicle_type_id":"4","last_reported":1753182606,"current_range_meters":6800,"station_id":"ce4bgl92rcd13ifvqbq0","pricing_plan_id":"cebpf4jnsgd1na2vs0mg"},{"bike_id":"093001e7-21e4-405e-b7d3-d9aecbf45db0","system_id":"levelo_inurba_marseille","lat":43.31712,"lon":5.43706,"is_reserved":false,"is_disabled":false,"rental_uris":{"android":"levelo://app?vid=093001e7-21e4-405e-b7d3-d9aecbf45db0","ios":"levelo://app?vid=093001e7-21e4-405e-b7d3-d9aecbf45db0"},"vehicle_type_id":"4","last_reported":1753182606,"current_range_meters":6800,"station_id":"ce4bhp92rcd13ifvqhcg","pricing_plan_id":"cebpf4jnsgd1na2vs0mg"},{"bike_id":"deb08d14-2f6d-447e-a047-122a46faaab3","system_id":"levelo_inurba_marseille","lat":43.29221,"lon":5.36063,"is_reserved":false,"is_disabled":false,"rental_uris":{"android":"levelo://app?vid=deb08d14-2f6d-447e-a047-122a46faaab3","ios":"levelo://app?vid=deb08d14-2f6d-447e-a047-122a46faaab3"},"vehicle_type_id":"4","last_reported":1753182606,"current_range_meters":6800,"station_id":"ce4bhbh2rcd13ifvqeqg","pricing_plan_id":"cebpf4jnsgd1na2vs0mg"},{"bike_id":"d4261792-85e6-4489-97d5-c6bcb3f62e9e","system_id":"levelo_inurba_marseille","lat":43.29898,"lon":5.4367,"is_reserved":false,"is_disabled":false,"rental_uris":{"android":"levelo://app?vid=d4261792-85e6-4489-97d5-c6bcb3f62e9e","ios":"levelo://app?vid=d4261792-85e6-4489-97d5-c6bcb3f62e9e"},"vehicle_type_id":"4","last_reported":1753182606,"current_range_meters":7200,"station_id":"ce4bhpp2rcd13ifvqhfg","pricing_plan_id":"cebpf4jnsgd1na2vs0mg"},{"bike_id":"e093f5d5-5cea-456f-948c-fd505a2c8810","system_id":"levelo_inurba_marseille","lat":43.30888,"lon":5.39656,"is_reserved":false,"is_disabled":false,"rental_uris":{"android":"levelo://app?vid=e093f5d5-5cea-456f-948c-fd505a2c8810","ios":"levelo://app?vid=e093f5d5-5cea-456f-948c-fd505a2c8810"},"vehicle_type_id":"4","last_reported":1753182606,"current_range_meters":8000,"station_id":"ce4bh012rcd13ifvqcv0","pricing_plan_id":"cebpf4jnsgd1na2vs0mg"},{"bike_id":"1d3a7d8c-3438-4b7b-97e8-ecc8275e71a4","system_id":"levelo_inurba_marseille","lat":43.282696,"lon":5.350543,"is_reserved":false,"is_disabled":false,"rental_uris":{"android":"levelo://app?vid=1d3a7d8c-3438-4b7b-97e8-ecc8275e71a4","ios":"levelo://app?vid=1d3a7d8c-3438-4b7b-97e8-ecc8275e71a4"},"vehicle_type_id":"4","last_reported":1753182606,"current_range_meters":8000,"station_id":"ce4bhbp2rcd13ifvqerg","pricing_plan_id":"cebpf4jnsgd1na2vs0mg"},{"bike_id":"95fd5f9a-dcf9-4a45-b946-add1f123216b","system_id":"levelo_inurba_marseille","lat":43.30234,"lon":5.40061,"is_reserved":false,"is_disabled":false,"rental_uris":{"android":"levelo://app?vid=95fd5f9a-dcf9-4a45-b946-add1f123216b","ios":"levelo://app?vid=95fd5f9a-dcf9-4a45-b946-add1f123216b"},"vehicle_type_id":"4","last_reported":1753182606,"current_range_meters":8000,"station_id":"ce4bgvh2rcd13ifvqcs0","pricing_plan_id":"cebpf4jnsgd1na2vs0mg"},{"bike_id":"44be4a2f-b012-43e4-ad0e-4da3c7f705fe","system_id":"levelo_inurba_marseille","lat":43.312261,"lon":5.368591,"is_reserved":false,"is_disabled":false,"rental_uris":{"android":"levelo://app?vid=44be4a2f-b012-43e4-ad0e-4da3c7f705fe","ios":"levelo://app?vid=44be4a2f-b012-43e4-ad0e-4da3c7f705fe"},"vehicle_type_id":"4","last_reported":1753182606,"current_range_meters":8400,"station_id":"ce4bgl92rcd13ifvqbq0","pricing_plan_id":"cebpf4jnsgd1na2vs0mg"},{"bike_id":"72a49f3e-d8e6-4483-bcf5-e3b6e75f469f","system_id":"levelo_inurba_marseille","lat":43.31246,"lon":5.36859,"is_reserved":false,"is_disabled":false,"rental_uris":{"android":"levelo://app?vid=72a49f3e-d8e6-4483-bcf5-e3b6e75f469f","ios":"levelo://app?vid=72a49f3e-d8e6-4483-bcf5-e3b6e75f469f"},"vehicle_type_id":"4","last_reported":1753182606,"current_range_meters":8800,"station_id":"ce4bgl92rcd13ifvqbq0","pricing_plan_id":"cebpf4jnsgd1na2vs0mg"},{"bike_id":"80414f02-f78a-4241-bc51-120eeb6f49e4","system_id":"levelo_inurba_marseille","lat":43.21749,"lon":5.34601,"is_reserved":false,"is_disabled":false,"rental_uris":{"android":"levelo://app?vid=80414f02-f78a-4241-bc51-120eeb6f49e4","ios":"levelo://app?vid=80414f02-f78a-4241-bc51-120eeb6f49e4"},"vehicle_type_id":"4","last_reported":1753182606,"current_range_meters":8800,"station_id":"st_cvj6r9ubvosntc0bgbag","pricing_plan_id":"cebpf4jnsgd1na2vs0mg"},{"bike_id":"695bee27-0090-437f-9f4d-42a99d0aa637","system_id":"levelo_inurba_marseille","lat":43.24051,"lon":5.37751,"is_reserved":false,"is_disabled":false,"rental_uris":{"android":"levelo://app?vid=695bee27-0090-437f-9f4d-42a99d0aa637","ios":"levelo://app?vid=695bee27-0090-437f-9f4d-42a99d0aa637"},"vehicle_type_id":"4","last_reported":1753182606,"current_range_meters":9200,"station_id":"ce4bhnp2rcd13ifvqgvg","pricing_plan_id":"cebpf4jnsgd1na2vs0mg"},{"bike_id":"c262f41f-26c5-4c50-9c1c-6aa84f4bb07e","system_id":"levelo_inurba_marseille","lat":43.28463,"lon":5.35877,"is_reserved":false,"is_disabled":false,"rental_uris":{"android":"levelo://app?vid=c262f41f-26c5-4c50-9c1c-6aa84f4bb07e","ios":"levelo://app?vid=c262f41f-26c5-4c50-9c1c-6aa84f4bb07e"},"vehicle_type_id":"4","last_reported":1753182606,"current_range_meters":8800,"station_id":"ce4bhah2rcd13ifvqei0","pricing_plan_id":"cebpf4jnsgd1na2vs0mg"},{"bike_id":"328e472f-5ae1-4ad9-833e-8bfd84d0df0a","system_id":"levelo_inurba_marseille","lat":43.28006,"lon":5.39914,"is_reserved":false,"is_disabled":false,"rental_uris":{"android":"levelo://app?vid=328e472f-5ae1-4ad9-833e-8bfd84d0df0a","ios":"levelo://app?vid=328e472f-5ae1-4ad9-833e-8bfd84d0df0a"},"vehicle_type_id":"4","last_reported":1753182606,"current_range_meters":9600,"station_id":"","pricing_plan_id":"cebpf4jnsgd1na2vs0mg"},{"bike_id":"19c1ce21-b7f1-403b-8712-41c13a897f62","system_id":"levelo_inurba_marseille","lat":43.30604,"lon":5.37241,"is_reserved":false,"is_disabled":false,"rental_uris":{"android":"levelo://app?vid=19c1ce21-b7f1-403b-8712-41c13a897f62","ios":"levelo://app?vid=19c1ce21-b7f1-403b-8712-41c13a897f62"},"vehicle_type_id":"4","last_reported":1753182606,"current_range_meters":9600,"station_id":"ce4bgqh2rcd13ifvqc4g","pricing_plan_id":"cebpf4jnsgd1na2vs0mg"},{"bike_id":"d485f597-db0c-4d03-a6b7-f0eec45f33b2","system_id":"levelo_inurba_marseille","lat":43.29291,"lon":5.36832,"is_reserved":false,"is_disabled":false,"rental_uris":{"android":"levelo://app?vid=d485f597-db0c-4d03-a6b7-f0eec45f33b2","ios":"levelo://app?vid=d485f597-db0c-4d03-a6b7-f0eec45f33b2"},"vehicle_type_id":"4","last_reported":1753182606,"current_range_meters":9600,"station_id":"ce4bhbp2rcd13ifvqesg","pricing_plan_id":"cebpf4jnsgd1na2vs0mg"},{"bike_id":"91d377a7-95bb-4ca3-8125-b58f782b5e4a","system_id":"levelo_inurba_marseille","lat":43.2175,"lon":5.34599,"is_reserved":false,"is_disabled":false,"rental_uris":{"android":"levelo://app?vid=91d377a7-95bb-4ca3-8125-b58f782b5e4a","ios":"levelo://app?vid=91d377a7-95bb-4ca3-8125-b58f782b5e4a"},"vehicle_type_id":"4","last_reported":1753182606,"current_range_meters":9600,"station_id":"st_cvj6r9ubvosntc0bgbag","pricing_plan_id":"cebpf4jnsgd1na2vs0mg"},{"bike_id":"ac49738a-4d4f-43d3-9c67-46980e61ae95","system_id":"levelo_inurba_marseille","lat":43.31703,"lon":5.37688,"is_reserved":false,"is_disabled":false,"rental_uris":{"android":"levelo://app?vid=ac49738a-4d4f-43d3-9c67-46980e61ae95","ios":"levelo://app?vid=ac49738a-4d4f-43d3-9c67-46980e61ae95"},"vehicle_type_id":"4","last_reported":1753182606,"current_range_meters":9600,"station_id":"ce4bgth2rcd13ifvqch0","pricing_plan_id":"cebpf4jnsgd1na2vs0mg"},{"bike_id":"3117258b-a0b2-4038-960e-7505313a6719","system_id":"levelo_inurba_marseille","lat":43.32099,"lon":5.36777,"is_reserved":false,"is_disabled":false,"rental_uris":{"android":"levelo://app?vid=3117258b-a0b2-4038-960e-7505313a6719","ios":"levelo://app?vid=3117258b-a0b2-4038-960e-7505313a6719"},"vehicle_type_id":"4","last_reported":1753182606,"current_range_meters":10000,"station_id":"ce4bhrh2rcd13ifvqhug","pricing_plan_id":"cebpf4jnsgd1na2vs0mg"},{"bike_id":"91d08a97-f4ec-47ae-aba7-eb40d08db0f5","system_id":"levelo_inurba_marseille","lat":43.21205,"lon":5.35084,"is_reserved":false,"is_disabled":false,"rental_uris":{"android":"levelo://app?vid=91d08a97-f4ec-47ae-aba7-eb40d08db0f5","ios":"levelo://app?vid=91d08a97-f4ec-47ae-aba7-eb40d08db0f5"},"vehicle_type_id":"4","last_reported":1753182606,"current_range_meters":10000,"station_id":"st_cvj6sg6p6f1abm77japg","pricing_plan_id":"cebpf4jnsgd1na2vs0mg"},{"bike_id":"94a26938-2207-4df6-add7-291f2ac5fc77","system_id":"levelo_inurba_marseille","lat":43.26772,"lon":5.39427,"is_reserved":false,"is_disabled":true,"rental_uris":{"android":"levelo://app?vid=94a26938-2207-4df6-add7-291f2ac5fc77","ios":"levelo://app?vid=94a26938-2207-4df6-add7-291f2ac5fc77"},"vehicle_type_id":"4","last_reported":1753182606,"current_range_meters":10800,"station_id":"ce4bhh12rcd13ifvqfg0","pricing_plan_id":"cebpf4jnsgd1na2vs0mg"},{"bike_id":"7e5fe7a4-497e-4e90-a88d-57e20a8113de","system_id":"levelo_inurba_marseille","lat":43.29588,"lon":5.37512,"is_reserved":false,"is_disabled":false,"rental_uris":{"android":"levelo://app?vid=7e5fe7a4-497e-4e90-a88d-57e20a8113de","ios":"levelo://app?vid=7e5fe7a4-497e-4e90-a88d-57e20a8113de"},"vehicle_type_id":"4","last_reported":1753182606,"current_range_meters":10800,"station_id":"ce4bgh92rcd13ifvqb50","pricing_plan_id":"cebpf4jnsgd1na2vs0mg"},{"bike_id":"1acd4a96-372c-4f1e-bcaf-9ab1ad9efb02","system_id":"levelo_inurba_marseille","lat":43.23055,"lon":5.35505,"is_reserved":false,"is_disabled":false,"rental_uris":{"android":"levelo://app?vid=1acd4a96-372c-4f1e-bcaf-9ab1ad9efb02","ios":"levelo://app?vid=1acd4a96-372c-4f1e-bcaf-9ab1ad9efb02"},"vehicle_type_id":"4","last_reported":1753182606,"current_range_meters":10800,"station_id":"cpo3342slgdg3j2ifvpg","pricing_plan_id":"cebpf4jnsgd1na2vs0mg"},{"bike_id":"1c22819b-ef69-41c3-af80-068c7a58af48","system_id":"levelo_inurba_marseille","lat":43.32105,"lon":5.367847,"is_reserved":false,"is_disabled":false,"rental_uris":{"android":"levelo://app?vid=1c22819b-ef69-41c3-af80-068c7a58af48","ios":"levelo://app?vid=1c22819b-ef69-41c3-af80-068c7a58af48"},"vehicle_type_id":"4","last_reported":1753182606,"current_range_meters":10800,"station_id":"ce4bhrh2rcd13ifvqhug","pricing_plan_id":"cebpf4jnsgd1na2vs0mg"},{"bike_id":"65fa994f-3bbb-4172-a25c-10140d98373f","system_id":"levelo_inurba_marseille","lat":43.313315,"lon":5.367142,"is_reserved":false,"is_disabled":false,"rental_uris":{"android":"levelo://app?vid=65fa994f-3bbb-4172-a25c-10140d98373f","ios":"levelo://app?vid=65fa994f-3bbb-4172-a25c-10140d98373f"},"vehicle_type_id":"4","last_reported":1753182606,"current_range_meters":10800,"station_id":"ce4bgr92rcd13ifvqc6g","pricing_plan_id":"cebpf4jnsgd1na2vs0mg"},{"bike_id":"67b86666-4ea2-4522-9021-7082de3e5ae9","system_id":"levelo_inurba_marseille","lat":43.22499,"lon":5.34785,"is_reserved":false,"is_disabled":false,"rental_uris":{"android":"levelo://app?vid=67b86666-4ea2-4522-9021-7082de3e5ae9","ios":"levelo://app?vid=67b86666-4ea2-4522-9021-7082de3e5ae9"},"vehicle_type_id":"4","last_reported":1753182606,"current_range_meters":10800,"station_id":"st_cvj5dfep6f1abm77gieg","pricing_plan_id":"cebpf4jnsgd1na2vs0mg"},{"bike_id":"2dd49e9b-a61d-479e-ab77-1ec42b141213","system_id":"levelo_inurba_marseille","lat":43.25112,"lon":5.4032,"is_reserved":false,"is_disabled":false,"rental_uris":{"android":"levelo://app?vid=2dd49e9b-a61d-479e-ab77-1ec42b141213","ios":"levelo://app?vid=2dd49e9b-a61d-479e-ab77-1ec42b141213"},"vehicle_type_id":"4","last_reported":1753182606,"current_range_meters":11200,"station_id":"ce4bhlh2rcd13ifvqgig","pricing_plan_id":"cebpf4jnsgd1na2vs0mg"},{"bike_id":"6ff88776-35d9-4735-9513-6389c8532af2","system_id":"levelo_inurba_marseille","lat":43.30578,"lon":5.37199,"is_reserved":false,"is_disabled":false,"rental_uris":{"android":"levelo://app?vid=6ff88776-35d9-4735-9513-6389c8532af2","ios":"levelo://app?vid=6ff88776-35d9-4735-9513-6389c8532af2"},"vehicle_type_id":"4","last_reported":1753182606,"current_range_meters":11200,"station_id":"ce4bgqh2rcd13ifvqc4g","pricing_plan_id":"cebpf4jnsgd1na2vs0mg"},{"bike_id":"069e282e-8c06-4179-a2c0-567d2d86de79","system_id":"levelo_inurba_marseille","lat":43.31329,"lon":5.39688,"is_reserved":false,"is_disabled":false,"rental_uris":{"android":"levelo://app?vid=069e282e-8c06-4179-a2c0-567d2d86de79","ios":"levelo://app?vid=069e282e-8c06-4179-a2c0-567d2d86de79"},"vehicle_type_id":"4","last_reported":1753182606,"current_range_meters":11200,"station_id":"ce4bgvp2rcd13ifvqcu0","pricing_plan_id":"cebpf4jnsgd1na2vs0mg"},{"bike_id":"5651f18d-986f-49db-bd50-019af9da611f","system_id":"levelo_inurba_marseille","lat":43.30184,"lon":5.36608,"is_reserved":false,"is_disabled":false,"rental_uris":{"android":"levelo://app?vid=5651f18d-986f-49db-bd50-019af9da611f","ios":"levelo://app?vid=5651f18d-986f-49db-bd50-019af9da611f"},"vehicle_type_id":"4","last_reported":1753182606,"current_range_meters":11200,"station_id":"ce4bgrh2rcd13ifvqc8g","pricing_plan_id":"cebpf4jnsgd1na2vs0mg"},{"bike_id":"234cf7f4-631b-443e-b313-fd03d86b9deb","system_id":"levelo_inurba_marseille","lat":43.29962,"lon":5.38496,"is_reserved":false,"is_disabled":false,"rental_uris":{"android":"levelo://app?vid=234cf7f4-631b-443e-b313-fd03d86b9deb","ios":"levelo://app?vid=234cf7f4-631b-443e-b313-fd03d86b9deb"},"vehicle_type_id":"4","last_reported":1753182606,"current_range_meters":11600,"station_id":"ce4bgj92rcd13ifvqbd0","pricing_plan_id":"cebpf4jnsgd1na2vs0mg"},{"bike_id":"ba2b3a99-8668-4f5d-bab3-0079c47bd454","system_id":"levelo_inurba_marseille","lat":43.32528,"lon":5.41413,"is_reserved":false,"is_disabled":false,"rental_uris":{"android":"levelo://app?vid=ba2b3a99-8668-4f5d-bab3-0079c47bd454","ios":"levelo://app?vid=ba2b3a99-8668-4f5d-bab3-0079c47bd454"},"vehicle_type_id":"4","last_reported":1753182606,"current_range_meters":11600,"station_id":"ce4bhq12rcd13ifvqhhg","pricing_plan_id":"cebpf4jnsgd1na2vs0mg"},{"bike_id":"b62c52b2-2598-4d60-b21c-78470ede2285","system_id":"levelo_inurba_marseille","lat":43.3053,"lon":5.36508,"is_reserved":false,"is_disabled":false,"rental_uris":{"android":"levelo://app?vid=b62c52b2-2598-4d60-b21c-78470ede2285","ios":"levelo://app?vid=b62c52b2-2598-4d60-b21c-78470ede2285"},"vehicle_type_id":"4","last_reported":1753182606,"current_range_meters":12000,"station_id":"ce4bgs12rcd13ifvqcag","pricing_plan_id":"cebpf4jnsgd1na2vs0mg"},{"bike_id":"1eef45c2-ccdc-4d31-8643-6312bbf498a1","system_id":"levelo_inurba_marseille","lat":43.33048,"lon":5.37826,"is_reserved":false,"is_disabled":true,"rental_uris":{"android":"levelo://app?vid=1eef45c2-ccdc-4d31-8643-6312bbf498a1","ios":"levelo://app?vid=1eef45c2-ccdc-4d31-8643-6312bbf498a1"},"vehicle_type_id":"4","last_reported":1753182606,"current_range_meters":12000,"station_id":"","pricing_plan_id":"cebpf4jnsgd1na2vs0mg"},{"bike_id":"8423e589-47bf-47a8-b90f-452fc938c46b","system_id":"levelo_inurba_marseille","lat":43.323576,"lon":5.367513,"is_reserved":false,"is_disabled":false,"rental_uris":{"android":"levelo://app?vid=8423e589-47bf-47a8-b90f-452fc938c46b","ios":"levelo://app?vid=8423e589-47bf-47a8-b90f-452fc938c46b"},"vehicle_type_id":"4","last_reported":1753182606,"current_range_meters":12000,"station_id":"ce4bhsh2rcd13ifvqi2g","pricing_plan_id":"cebpf4jnsgd1na2vs0mg"},{"bike_id":"fb0bd549-e8fc-4767-99bd-b67f7f9a54d0","system_id":"levelo_inurba_marseille","lat":43.31221,"lon":5.36845,"is_reserved":false,"is_disabled":false,"rental_uris":{"android":"levelo://app?vid=fb0bd549-e8fc-4767-99bd-b67f7f9a54d0","ios":"levelo://app?vid=fb0bd549-e8fc-4767-99bd-b67f7f9a54d0"},"vehicle_type_id":"4","last_reported":1753182606,"current_range_meters":12000,"station_id":"ce4bgl92rcd13ifvqbq0","pricing_plan_id":"cebpf4jnsgd1na2vs0mg"},{"bike_id":"9983af6f-cdb9-427e-a0ea-2e6f729bd2d1","system_id":"levelo_inurba_marseille","lat":43.29233,"lon":5.36095,"is_reserved":false,"is_disabled":false,"rental_uris":{"android":"levelo://app?vid=9983af6f-cdb9-427e-a0ea-2e6f729bd2d1","ios":"levelo://app?vid=9983af6f-cdb9-427e-a0ea-2e6f729bd2d1"},"vehicle_type_id":"4","last_reported":1753182606,"current_range_meters":12400,"station_id":"ce4bhbh2rcd13ifvqeqg","pricing_plan_id":"cebpf4jnsgd1na2vs0mg"},{"bike_id":"1728e0fd-7f65-4444-aa55-a99c2db29964","system_id":"levelo_inurba_marseille","lat":43.29225,"lon":5.36079,"is_reserved":false,"is_disabled":false,"rental_uris":{"android":"levelo://app?vid=1728e0fd-7f65-4444-aa55-a99c2db29964","ios":"levelo://app?vid=1728e0fd-7f65-4444-aa55-a99c2db29964"},"vehicle_type_id":"4","last_reported":1753182606,"current_range_meters":12400,"station_id":"ce4bhbh2rcd13ifvqeqg","pricing_plan_id":"cebpf4jnsgd1na2vs0mg"},{"bike_id":"1a402929-11c3-4493-a57b-3d9b58b9cf91","system_id":"levelo_inurba_marseille","lat":43.28417,"lon":5.34991,"is_reserved":false,"is_disabled":false,"rental_uris":{"android":"levelo://app?vid=1a402929-11c3-4493-a57b-3d9b58b9cf91","ios":"levelo://app?vid=1a402929-11c3-4493-a57b-3d9b58b9cf91"},"vehicle_type_id":"4","last_reported":1753182606,"current_range_meters":12800,"station_id":"ce4bhbh2rcd13ifvqepg","pricing_plan_id":"cebpf4jnsgd1na2vs0mg"},{"bike_id":"1e0d62af-fbed-4c52-b71b-d48e62ad5440","system_id":"levelo_inurba_marseille","lat":43.24177,"lon":5.39731,"is_reserved":false,"is_disabled":false,"rental_uris":{"android":"levelo://app?vid=1e0d62af-fbed-4c52-b71b-d48e62ad5440","ios":"levelo://app?vid=1e0d62af-fbed-4c52-b71b-d48e62ad5440"},"vehicle_type_id":"4","last_reported":1753182606,"current_range_meters":12800,"station_id":"ce4bhn12rcd13ifvqgpg","pricing_plan_id":"cebpf4jnsgd1na2vs0mg"},{"bike_id":"7fbebc5a-1015-4a14-a6cc-20c312269ed4","system_id":"levelo_inurba_marseille","lat":43.28395,"lon":5.34981,"is_reserved":false,"is_disabled":false,"rental_uris":{"android":"levelo://app?vid=7fbebc5a-1015-4a14-a6cc-20c312269ed4","ios":"levelo://app?vid=7fbebc5a-1015-4a14-a6cc-20c312269ed4"},"vehicle_type_id":"4","last_reported":1753182606,"current_range_meters":12800,"station_id":"ce4bhbh2rcd13ifvqepg","pricing_plan_id":"cebpf4jnsgd1na2vs0mg"},{"bike_id":"2d6095ea-f882-494d-a187-fa879408181e","system_id":"levelo_inurba_marseille","lat":43.25125,"lon":5.37355,"is_reserved":false,"is_disabled":false,"rental_uris":{"android":"levelo://app?vid=2d6095ea-f882-494d-a187-fa879408181e","ios":"levelo://app?vid=2d6095ea-f882-494d-a187-fa879408181e"},"vehicle_type_id":"4","last_reported":1753182606,"current_range_meters":12800,"station_id":"","pricing_plan_id":"cebpf4jnsgd1na2vs0mg"},{"bike_id":"b8c6a6dc-f852-4194-84d0-5036b1fc4e17","system_id":"levelo_inurba_marseille","lat":43.2925,"lon":5.409,"is_reserved":false,"is_disabled":false,"rental_uris":{"android":"levelo://app?vid=b8c6a6dc-f852-4194-84d0-5036b1fc4e17","ios":"levelo://app?vid=b8c6a6dc-f852-4194-84d0-5036b1fc4e17"},"vehicle_type_id":"4","last_reported":1753182606,"current_range_meters":13600,"station_id":"ce4bh192rcd13ifvqdc0","pricing_plan_id":"cebpf4jnsgd1na2vs0mg"},{"bike_id":"0cb19f5e-6a19-4fc0-9b18-698188d68bf4","system_id":"levelo_inurba_marseille","lat":43.29726,"lon":5.43265,"is_reserved":false,"is_disabled":false,"rental_uris":{"android":"levelo://app?vid=0cb19f5e-6a19-4fc0-9b18-698188d68bf4","ios":"levelo://app?vid=0cb19f5e-6a19-4fc0-9b18-698188d68bf4"},"vehicle_type_id":"4","last_reported":1753182606,"current_range_meters":13600,"station_id":"","pricing_plan_id":"cebpf4jnsgd1na2vs0mg"},{"bike_id":"6940e707-2866-429c-af31-7f2bd9c2bc86","system_id":"levelo_inurba_marseille","lat":43.24165,"lon":5.36401,"is_reserved":false,"is_disabled":false,"rental_uris":{"android":"levelo://app?vid=6940e707-2866-429c-af31-7f2bd9c2bc86","ios":"levelo://app?vid=6940e707-2866-429c-af31-7f2bd9c2bc86"},"vehicle_type_id":"4","last_reported":1753182606,"current_range_meters":13600,"station_id":"cpo36qri1sfpv3e86is0","pricing_plan_id":"cebpf4jnsgd1na2vs0mg"},{"bike_id":"7bbb88d9-7fdd-49a9-b325-4de422bcf44f","system_id":"levelo_inurba_marseille","lat":43.30915,"lon":5.36839,"is_reserved":false,"is_disabled":false,"rental_uris":{"android":"levelo://app?vid=7bbb88d9-7fdd-49a9-b325-4de422bcf44f","ios":"levelo://app?vid=7bbb88d9-7fdd-49a9-b325-4de422bcf44f"},"vehicle_type_id":"4","last_reported":1753182606,"current_range_meters":13600,"station_id":"ce4bgn92rcd13ifvqbvg","pricing_plan_id":"cebpf4jnsgd1na2vs0mg"},{"bike_id":"06f0e7b5-15a0-4c85-a421-381e139dc51e","system_id":"levelo_inurba_marseille","lat":43.29893,"lon":5.43665,"is_reserved":false,"is_disabled":false,"rental_uris":{"android":"levelo://app?vid=06f0e7b5-15a0-4c85-a421-381e139dc51e","ios":"levelo://app?vid=06f0e7b5-15a0-4c85-a421-381e139dc51e"},"vehicle_type_id":"4","last_reported":1753182606,"current_range_meters":14000,"station_id":"ce4bhpp2rcd13ifvqhfg","pricing_plan_id":"cebpf4jnsgd1na2vs0mg"},{"bike_id":"4d2fb385-600a-460f-817d-c81c8838ad28","system_id":"levelo_inurba_marseille","lat":43.32364,"lon":5.36731,"is_reserved":false,"is_disabled":false,"rental_uris":{"android":"levelo://app?vid=4d2fb385-600a-460f-817d-c81c8838ad28","ios":"levelo://app?vid=4d2fb385-600a-460f-817d-c81c8838ad28"},"vehicle_type_id":"4","last_reported":1753182606,"current_range_meters":14000,"station_id":"ce4bhsh2rcd13ifvqi2g","pricing_plan_id":"cebpf4jnsgd1na2vs0mg"},{"bike_id":"416ae426-400a-43b5-b8b1-e2fceb9acf44","system_id":"levelo_inurba_marseille","lat":43.30569,"lon":5.36674,"is_reserved":false,"is_disabled":false,"rental_uris":{"android":"levelo://app?vid=416ae426-400a-43b5-b8b1-e2fceb9acf44","ios":"levelo://app?vid=416ae426-400a-43b5-b8b1-e2fceb9acf44"},"vehicle_type_id":"4","last_reported":1753182606,"current_range_meters":14000,"station_id":"","pricing_plan_id":"cebpf4jnsgd1na2vs0mg"},{"bike_id":"59e6f825-9668-4d59-9baf-f47ddb742e11","system_id":"levelo_inurba_marseille","lat":43.31355,"lon":5.38509,"is_reserved":false,"is_disabled":false,"rental_uris":{"android":"levelo://app?vid=59e6f825-9668-4d59-9baf-f47ddb742e11","ios":"levelo://app?vid=59e6f825-9668-4d59-9baf-f47ddb742e11"},"vehicle_type_id":"4","last_reported":1753182606,"current_range_meters":14000,"station_id":"ce4bgt92rcd13ifvqcf0","pricing_plan_id":"cebpf4jnsgd1na2vs0mg"},{"bike_id":"99d829c3-58cd-4dfe-a587-5d0fe4447522","system_id":"levelo_inurba_marseille","lat":43.32641,"lon":5.40981,"is_reserved":false,"is_disabled":false,"rental_uris":{"android":"levelo://app?vid=99d829c3-58cd-4dfe-a587-5d0fe4447522","ios":"levelo://app?vid=99d829c3-58cd-4dfe-a587-5d0fe4447522"},"vehicle_type_id":"4","last_reported":1753182606,"current_range_meters":14000,"station_id":"ce4bhpp2rcd13ifvqhgg","pricing_plan_id":"cebpf4jnsgd1na2vs0mg"},{"bike_id":"f4647d5e-9ea2-4f15-a604-84b1bbed6272","system_id":"levelo_inurba_marseille","lat":43.29895,"lon":5.43664,"is_reserved":false,"is_disabled":false,"rental_uris":{"android":"levelo://app?vid=f4647d5e-9ea2-4f15-a604-84b1bbed6272","ios":"levelo://app?vid=f4647d5e-9ea2-4f15-a604-84b1bbed6272"},"vehicle_type_id":"4","last_reported":1753182606,"current_range_meters":14400,"station_id":"ce4bhpp2rcd13ifvqhfg","pricing_plan_id":"cebpf4jnsgd1na2vs0mg"},{"bike_id":"ab1970ef-89b5-409e-b573-cb2943b42e78","system_id":"levelo_inurba_marseille","lat":43.28485,"lon":5.38536,"is_reserved":false,"is_disabled":false,"rental_uris":{"android":"levelo://app?vid=ab1970ef-89b5-409e-b573-cb2943b42e78","ios":"levelo://app?vid=ab1970ef-89b5-409e-b573-cb2943b42e78"},"vehicle_type_id":"4","last_reported":1753182606,"current_range_meters":14400,"station_id":"","pricing_plan_id":"cebpf4jnsgd1na2vs0mg"},{"bike_id":"a521607d-1c0a-4b41-a0f1-43c2608320f8","system_id":"levelo_inurba_marseille","lat":43.282203,"lon":5.395113,"is_reserved":false,"is_disabled":false,"rental_uris":{"android":"levelo://app?vid=a521607d-1c0a-4b41-a0f1-43c2608320f8","ios":"levelo://app?vid=a521607d-1c0a-4b41-a0f1-43c2608320f8"},"vehicle_type_id":"4","last_reported":1753182606,"current_range_meters":14400,"station_id":"","pricing_plan_id":"cebpf4jnsgd1na2vs0mg"},{"bike_id":"fdb15df6-aa10-45d6-b148-6ae5c6648e54","system_id":"levelo_inurba_marseille","lat":43.28695,"lon":5.39988,"is_reserved":false,"is_disabled":false,"rental_uris":{"android":"levelo://app?vid=fdb15df6-aa10-45d6-b148-6ae5c6648e54","ios":"levelo://app?vid=fdb15df6-aa10-45d6-b148-6ae5c6648e54"},"vehicle_type_id":"4","last_reported":1753182606,"current_range_meters":14400,"station_id":"ce4bho92rcd13ifvqh3g","pricing_plan_id":"cebpf4jnsgd1na2vs0mg"},{"bike_id":"a92c7a9e-4870-4bfd-a11a-a1c4a3a74e27","system_id":"levelo_inurba_marseille","lat":43.29271,"lon":5.36831,"is_reserved":false,"is_disabled":false,"rental_uris":{"android":"levelo://app?vid=a92c7a9e-4870-4bfd-a11a-a1c4a3a74e27","ios":"levelo://app?vid=a92c7a9e-4870-4bfd-a11a-a1c4a3a74e27"},"vehicle_type_id":"4","last_reported":1753182606,"current_range_meters":14400,"station_id":"ce4bhbp2rcd13ifvqesg","pricing_plan_id":"cebpf4jnsgd1na2vs0mg"},{"bike_id":"94cd5dff-e6f8-423f-a340-9d6b8a3e701b","system_id":"levelo_inurba_marseille","lat":43.25911,"lon":5.40891,"is_reserved":false,"is_disabled":false,"rental_uris":{"android":"levelo://app?vid=94cd5dff-e6f8-423f-a340-9d6b8a3e701b","ios":"levelo://app?vid=94cd5dff-e6f8-423f-a340-9d6b8a3e701b"},"vehicle_type_id":"4","last_reported":1753182606,"current_range_meters":14400,"station_id":"ce4bhm92rcd13ifvqglg","pricing_plan_id":"cebpf4jnsgd1na2vs0mg"},{"bike_id":"96cb4411-ac66-4257-8940-46c937d8a004","system_id":"levelo_inurba_marseille","lat":43.30884,"lon":5.39639,"is_reserved":false,"is_disabled":false,"rental_uris":{"android":"levelo://app?vid=96cb4411-ac66-4257-8940-46c937d8a004","ios":"levelo://app?vid=96cb4411-ac66-4257-8940-46c937d8a004"},"vehicle_type_id":"4","last_reported":1753182606,"current_range_meters":14400,"station_id":"ce4bh012rcd13ifvqcv0","pricing_plan_id":"cebpf4jnsgd1na2vs0mg"},{"bike_id":"042dfc9a-b9f4-4576-bec8-2b64fd4676a6","system_id":"levelo_inurba_marseille","lat":43.30125,"lon":5.39848,"is_reserved":false,"is_disabled":false,"rental_uris":{"android":"levelo://app?vid=042dfc9a-b9f4-4576-bec8-2b64fd4676a6","ios":"levelo://app?vid=042dfc9a-b9f4-4576-bec8-2b64fd4676a6"},"vehicle_type_id":"4","last_reported":1753182606,"current_range_meters":14400,"station_id":"ce4bh0h2rcd13ifvqd40","pricing_plan_id":"cebpf4jnsgd1na2vs0mg"},{"bike_id":"117247f7-a4c7-432a-86ee-400fecf425dc","system_id":"levelo_inurba_marseille","lat":43.30398,"lon":5.42519,"is_reserved":false,"is_disabled":false,"rental_uris":{"android":"levelo://app?vid=117247f7-a4c7-432a-86ee-400fecf425dc","ios":"levelo://app?vid=117247f7-a4c7-432a-86ee-400fecf425dc"},"vehicle_type_id":"4","last_reported":1753182606,"current_range_meters":14800,"station_id":"ce4bhoh2rcd13ifvqh6g","pricing_plan_id":"cebpf4jnsgd1na2vs0mg"},{"bike_id":"8dac2591-db34-4e91-9d14-d77a86bc18d2","system_id":"levelo_inurba_marseille","lat":43.26207,"lon":5.37461,"is_reserved":false,"is_disabled":false,"rental_uris":{"android":"levelo://app?vid=8dac2591-db34-4e91-9d14-d77a86bc18d2","ios":"levelo://app?vid=8dac2591-db34-4e91-9d14-d77a86bc18d2"},"vehicle_type_id":"4","last_reported":1753182606,"current_range_meters":14800,"station_id":"ce4bhgp2rcd13ifvqfc0","pricing_plan_id":"cebpf4jnsgd1na2vs0mg"},{"bike_id":"65cb95b2-1d8c-4d91-b1e3-c15eddc76b39","system_id":"levelo_inurba_marseille","lat":43.24392,"lon":5.3706,"is_reserved":false,"is_disabled":false,"rental_uris":{"android":"levelo://app?vid=65cb95b2-1d8c-4d91-b1e3-c15eddc76b39","ios":"levelo://app?vid=65cb95b2-1d8c-4d91-b1e3-c15eddc76b39"},"vehicle_type_id":"4","last_reported":1753182606,"current_range_meters":14400,"station_id":"ce4bhhh2rcd13ifvqfk0","pricing_plan_id":"cebpf4jnsgd1na2vs0mg"},{"bike_id":"5757d1c1-1a47-4bc1-b4ad-f12008d76d15","system_id":"levelo_inurba_marseille","lat":43.31216,"lon":5.36853,"is_reserved":false,"is_disabled":false,"rental_uris":{"android":"levelo://app?vid=5757d1c1-1a47-4bc1-b4ad-f12008d76d15","ios":"levelo://app?vid=5757d1c1-1a47-4bc1-b4ad-f12008d76d15"},"vehicle_type_id":"4","last_reported":1753182606,"current_range_meters":15200,"station_id":"ce4bgl92rcd13ifvqbq0","pricing_plan_id":"cebpf4jnsgd1na2vs0mg"},{"bike_id":"e9b8c87e-db14-4020-aea2-466c8dbe1c1e","system_id":"levelo_inurba_marseille","lat":43.305475,"lon":5.365452,"is_reserved":false,"is_disabled":false,"rental_uris":{"android":"levelo://app?vid=e9b8c87e-db14-4020-aea2-466c8dbe1c1e","ios":"levelo://app?vid=e9b8c87e-db14-4020-aea2-466c8dbe1c1e"},"vehicle_type_id":"4","last_reported":1753182606,"current_range_meters":15200,"station_id":"ce4bgs12rcd13ifvqcag","pricing_plan_id":"cebpf4jnsgd1na2vs0mg"},{"bike_id":"de4e98c3-82ca-4c88-9379-c8eb99022426","system_id":"levelo_inurba_marseille","lat":43.22918,"lon":5.35391,"is_reserved":false,"is_disabled":false,"rental_uris":{"android":"levelo://app?vid=de4e98c3-82ca-4c88-9379-c8eb99022426","ios":"levelo://app?vid=de4e98c3-82ca-4c88-9379-c8eb99022426"},"vehicle_type_id":"4","last_reported":1753182606,"current_range_meters":15200,"station_id":"cpo3532slgdg3j2ikp40","pricing_plan_id":"cebpf4jnsgd1na2vs0mg"},{"bike_id":"b4c1aa2a-e931-4ce6-8816-30ad77bdd520","system_id":"levelo_inurba_marseille","lat":43.241448,"lon":5.363743,"is_reserved":false,"is_disabled":false,"rental_uris":{"android":"levelo://app?vid=b4c1aa2a-e931-4ce6-8816-30ad77bdd520","ios":"levelo://app?vid=b4c1aa2a-e931-4ce6-8816-30ad77bdd520"},"vehicle_type_id":"4","last_reported":1753182606,"current_range_meters":15200,"station_id":"","pricing_plan_id":"cebpf4jnsgd1na2vs0mg"},{"bike_id":"e0788e94-f1d2-41e4-95a8-5efd04b12161","system_id":"levelo_inurba_marseille","lat":43.31444,"lon":5.37293,"is_reserved":false,"is_disabled":false,"rental_uris":{"android":"levelo://app?vid=e0788e94-f1d2-41e4-95a8-5efd04b12161","ios":"levelo://app?vid=e0788e94-f1d2-41e4-95a8-5efd04b12161"},"vehicle_type_id":"4","last_reported":1753182606,"current_range_meters":15200,"station_id":"ce4bgt12rcd13ifvqcd0","pricing_plan_id":"cebpf4jnsgd1na2vs0mg"},{"bike_id":"b52df7e2-ad75-4d6b-a395-f1eb700f2fd1","system_id":"levelo_inurba_marseille","lat":43.2416,"lon":5.36385,"is_reserved":false,"is_disabled":false,"rental_uris":{"android":"levelo://app?vid=b52df7e2-ad75-4d6b-a395-f1eb700f2fd1","ios":"levelo://app?vid=b52df7e2-ad75-4d6b-a395-f1eb700f2fd1"},"vehicle_type_id":"4","last_reported":1753182606,"current_range_meters":15200,"station_id":"cpo36qri1sfpv3e86is0","pricing_plan_id":"cebpf4jnsgd1na2vs0mg"},{"bike_id":"5826ce63-5cd4-4f5c-a72b-dacceb416df5","system_id":"levelo_inurba_marseille","lat":43.30768,"lon":5.38139,"is_reserved":false,"is_disabled":false,"rental_uris":{"android":"levelo://app?vid=5826ce63-5cd4-4f5c-a72b-dacceb416df5","ios":"levelo://app?vid=5826ce63-5cd4-4f5c-a72b-dacceb416df5"},"vehicle_type_id":"4","last_reported":1753182606,"current_range_meters":16000,"station_id":"ce4bgt12rcd13ifvqce0","pricing_plan_id":"cebpf4jnsgd1na2vs0mg"},{"bike_id":"5c66b9b3-39a2-40fa-997e-6c0f2a93a2db","system_id":"levelo_inurba_marseille","lat":43.28699,"lon":5.39982,"is_reserved":false,"is_disabled":false,"rental_uris":{"android":"levelo://app?vid=5c66b9b3-39a2-40fa-997e-6c0f2a93a2db","ios":"levelo://app?vid=5c66b9b3-39a2-40fa-997e-6c0f2a93a2db"},"vehicle_type_id":"4","last_reported":1753182606,"current_range_meters":16000,"station_id":"ce4bho92rcd13ifvqh3g","pricing_plan_id":"cebpf4jnsgd1na2vs0mg"},{"bike_id":"0252eab3-c3f3-4486-b893-58cb3f957c57","system_id":"levelo_inurba_marseille","lat":43.3171,"lon":5.38489,"is_reserved":false,"is_disabled":false,"rental_uris":{"android":"levelo://app?vid=0252eab3-c3f3-4486-b893-58cb3f957c57","ios":"levelo://app?vid=0252eab3-c3f3-4486-b893-58cb3f957c57"},"vehicle_type_id":"4","last_reported":1753182606,"current_range_meters":16000,"station_id":"","pricing_plan_id":"cebpf4jnsgd1na2vs0mg"},{"bike_id":"7227f2a0-48ac-47a6-aa2d-661ad6a7a763","system_id":"levelo_inurba_marseille","lat":43.29058,"lon":5.3717,"is_reserved":false,"is_disabled":false,"rental_uris":{"android":"levelo://app?vid=7227f2a0-48ac-47a6-aa2d-661ad6a7a763","ios":"levelo://app?vid=7227f2a0-48ac-47a6-aa2d-661ad6a7a763"},"vehicle_type_id":"4","last_reported":1753182606,"current_range_meters":16000,"station_id":"ce4bgh92rcd13ifvqb40","pricing_plan_id":"cebpf4jnsgd1na2vs0mg"},{"bike_id":"02bda465-5730-4d42-a0d1-5ffc89217a3f","system_id":"levelo_inurba_marseille","lat":43.30658,"lon":5.38184,"is_reserved":false,"is_disabled":false,"rental_uris":{"android":"levelo://app?vid=02bda465-5730-4d42-a0d1-5ffc89217a3f","ios":"levelo://app?vid=02bda465-5730-4d42-a0d1-5ffc89217a3f"},"vehicle_type_id":"4","last_reported":1753182606,"current_range_meters":16000,"station_id":"","pricing_plan_id":"cebpf4jnsgd1na2vs0mg"},{"bike_id":"abc5489a-f823-4dc4-b736-76f0b8370bbd","system_id":"levelo_inurba_marseille","lat":43.24165,"lon":5.36428,"is_reserved":false,"is_disabled":false,"rental_uris":{"android":"levelo://app?vid=abc5489a-f823-4dc4-b736-76f0b8370bbd","ios":"levelo://app?vid=abc5489a-f823-4dc4-b736-76f0b8370bbd"},"vehicle_type_id":"4","last_reported":1753182606,"current_range_meters":16000,"station_id":"cpo36qri1sfpv3e86is0","pricing_plan_id":"cebpf4jnsgd1na2vs0mg"},{"bike_id":"668bfa40-7ae0-42dd-a6b6-6631a40f0c0f","system_id":"levelo_inurba_marseille","lat":43.331397,"lon":5.385934,"is_reserved":false,"is_disabled":false,"rental_uris":{"android":"levelo://app?vid=668bfa40-7ae0-42dd-a6b6-6631a40f0c0f","ios":"levelo://app?vid=668bfa40-7ae0-42dd-a6b6-6631a40f0c0f"},"vehicle_type_id":"4","last_reported":1753182606,"current_range_meters":16000,"station_id":"","pricing_plan_id":"cebpf4jnsgd1na2vs0mg"},{"bike_id":"c5445fa5-9221-4e5d-b2bc-b87ec0aac921","system_id":"levelo_inurba_marseille","lat":43.2292,"lon":5.35378,"is_reserved":false,"is_disabled":false,"rental_uris":{"android":"levelo://app?vid=c5445fa5-9221-4e5d-b2bc-b87ec0aac921","ios":"levelo://app?vid=c5445fa5-9221-4e5d-b2bc-b87ec0aac921"},"vehicle_type_id":"4","last_reported":1753182606,"current_range_meters":16000,"station_id":"cpo3532slgdg3j2ikp40","pricing_plan_id":"cebpf4jnsgd1na2vs0mg"},{"bike_id":"1fc8f2dc-0138-45fe-a81a-c24135169eb9","system_id":"levelo_inurba_marseille","lat":43.2582,"lon":5.39438,"is_reserved":false,"is_disabled":false,"rental_uris":{"android":"levelo://app?vid=1fc8f2dc-0138-45fe-a81a-c24135169eb9","ios":"levelo://app?vid=1fc8f2dc-0138-45fe-a81a-c24135169eb9"},"vehicle_type_id":"4","last_reported":1753182606,"current_range_meters":16000,"station_id":"ce4bhih2rcd13ifvqfr0","pricing_plan_id":"cebpf4jnsgd1na2vs0mg"},{"bike_id":"7755cac1-a73f-4ba2-b8d2-5f999eb5e06f","system_id":"levelo_inurba_marseille","lat":43.24069,"lon":5.37717,"is_reserved":false,"is_disabled":false,"rental_uris":{"android":"levelo://app?vid=7755cac1-a73f-4ba2-b8d2-5f999eb5e06f","ios":"levelo://app?vid=7755cac1-a73f-4ba2-b8d2-5f999eb5e06f"},"vehicle_type_id":"4","last_reported":1753182606,"current_range_meters":16000,"station_id":"ce4bhnp2rcd13ifvqgvg","pricing_plan_id":"cebpf4jnsgd1na2vs0mg"},{"bike_id":"6674a68f-a544-4eac-a998-e722e5c230b4","system_id":"levelo_inurba_marseille","lat":43.28701,"lon":5.39995,"is_reserved":false,"is_disabled":false,"rental_uris":{"android":"levelo://app?vid=6674a68f-a544-4eac-a998-e722e5c230b4","ios":"levelo://app?vid=6674a68f-a544-4eac-a998-e722e5c230b4"},"vehicle_type_id":"4","last_reported":1753182606,"current_range_meters":16400,"station_id":"ce4bho92rcd13ifvqh3g","pricing_plan_id":"cebpf4jnsgd1na2vs0mg"},{"bike_id":"2c63e874-b1a9-4c67-b628-c51dba7b1b5d","system_id":"levelo_inurba_marseille","lat":43.30524,"lon":5.36682,"is_reserved":false,"is_disabled":false,"rental_uris":{"android":"levelo://app?vid=2c63e874-b1a9-4c67-b628-c51dba7b1b5d","ios":"levelo://app?vid=2c63e874-b1a9-4c67-b628-c51dba7b1b5d"},"vehicle_type_id":"4","last_reported":1753182606,"current_range_meters":16400,"station_id":"ce4bgrp2rcd13ifvqc9g","pricing_plan_id":"cebpf4jnsgd1na2vs0mg"},{"bike_id":"dd075367-df24-46bb-bd4a-3baa4f425914","system_id":"levelo_inurba_marseille","lat":43.30217,"lon":5.39474,"is_reserved":false,"is_disabled":false,"rental_uris":{"android":"levelo://app?vid=dd075367-df24-46bb-bd4a-3baa4f425914","ios":"levelo://app?vid=dd075367-df24-46bb-bd4a-3baa4f425914"},"vehicle_type_id":"4","last_reported":1753182606,"current_range_meters":16000,"station_id":"ce4bh0p2rcd13ifvqd70","pricing_plan_id":"cebpf4jnsgd1na2vs0mg"},{"bike_id":"68ad25bf-3ce4-4219-aae6-b4b4ca3df214","system_id":"levelo_inurba_marseille","lat":43.22509,"lon":5.34774,"is_reserved":false,"is_disabled":false,"rental_uris":{"android":"levelo://app?vid=68ad25bf-3ce4-4219-aae6-b4b4ca3df214","ios":"levelo://app?vid=68ad25bf-3ce4-4219-aae6-b4b4ca3df214"},"vehicle_type_id":"4","last_reported":1753182606,"current_range_meters":16400,"station_id":"st_cvj5dfep6f1abm77gieg","pricing_plan_id":"cebpf4jnsgd1na2vs0mg"},{"bike_id":"c5f16f95-e4db-47ff-bdaf-88962be7adfb","system_id":"levelo_inurba_marseille","lat":43.2904,"lon":5.38144,"is_reserved":false,"is_disabled":true,"rental_uris":{"android":"levelo://app?vid=c5f16f95-e4db-47ff-bdaf-88962be7adfb","ios":"levelo://app?vid=c5f16f95-e4db-47ff-bdaf-88962be7adfb"},"vehicle_type_id":"4","last_reported":1753182606,"current_range_meters":16400,"station_id":"ce4bh4p2rcd13ifvqe1g","pricing_plan_id":"cebpf4jnsgd1na2vs0mg"},{"bike_id":"2e5ed9f2-4fe8-47eb-91fc-0f6f8088016a","system_id":"levelo_inurba_marseille","lat":43.2501,"lon":5.38917,"is_reserved":false,"is_disabled":false,"rental_uris":{"android":"levelo://app?vid=2e5ed9f2-4fe8-47eb-91fc-0f6f8088016a","ios":"levelo://app?vid=2e5ed9f2-4fe8-47eb-91fc-0f6f8088016a"},"vehicle_type_id":"4","last_reported":1753182606,"current_range_meters":16400,"station_id":"ce4bhgp2rcd13ifvqfd0","pricing_plan_id":"cebpf4jnsgd1na2vs0mg"},{"bike_id":"5153e984-1abc-4d5b-91ef-21249865a3e6","system_id":"levelo_inurba_marseille","lat":43.21209,"lon":5.35082,"is_reserved":false,"is_disabled":false,"rental_uris":{"android":"levelo://app?vid=5153e984-1abc-4d5b-91ef-21249865a3e6","ios":"levelo://app?vid=5153e984-1abc-4d5b-91ef-21249865a3e6"},"vehicle_type_id":"4","last_reported":1753182606,"current_range_meters":16400,"station_id":"st_cvj6sg6p6f1abm77japg","pricing_plan_id":"cebpf4jnsgd1na2vs0mg"},{"bike_id":"5fb1aff5-1a79-4adb-b43c-c192a0e48dd2","system_id":"levelo_inurba_marseille","lat":43.306,"lon":5.37216,"is_reserved":false,"is_disabled":false,"rental_uris":{"android":"levelo://app?vid=5fb1aff5-1a79-4adb-b43c-c192a0e48dd2","ios":"levelo://app?vid=5fb1aff5-1a79-4adb-b43c-c192a0e48dd2"},"vehicle_type_id":"4","last_reported":1753182606,"current_range_meters":16400,"station_id":"ce4bgqh2rcd13ifvqc4g","pricing_plan_id":"cebpf4jnsgd1na2vs0mg"},{"bike_id":"3c7f072f-3158-420f-bc51-68912fc0c6a8","system_id":"levelo_inurba_marseille","lat":43.290276,"lon":5.375526,"is_reserved":false,"is_disabled":true,"rental_uris":{"android":"levelo://app?vid=3c7f072f-3158-420f-bc51-68912fc0c6a8","ios":"levelo://app?vid=3c7f072f-3158-420f-bc51-68912fc0c6a8"},"vehicle_type_id":"4","last_reported":1753182606,"current_range_meters":16400,"station_id":"ce4bh692rcd13ifvqe90","pricing_plan_id":"cebpf4jnsgd1na2vs0mg"},{"bike_id":"6270388c-e1bf-41b4-83eb-3d2f1008ca14","system_id":"levelo_inurba_marseille","lat":43.32732,"lon":5.37745,"is_reserved":false,"is_disabled":false,"rental_uris":{"android":"levelo://app?vid=6270388c-e1bf-41b4-83eb-3d2f1008ca14","ios":"levelo://app?vid=6270388c-e1bf-41b4-83eb-3d2f1008ca14"},"vehicle_type_id":"4","last_reported":1753182606,"current_range_meters":16400,"station_id":"","pricing_plan_id":"cebpf4jnsgd1na2vs0mg"},{"bike_id":"de5426ba-ae67-47a4-bece-c11c7065cd1e","system_id":"levelo_inurba_marseille","lat":43.211966,"lon":5.350798,"is_reserved":false,"is_disabled":false,"rental_uris":{"android":"levelo://app?vid=de5426ba-ae67-47a4-bece-c11c7065cd1e","ios":"levelo://app?vid=de5426ba-ae67-47a4-bece-c11c7065cd1e"},"vehicle_type_id":"4","last_reported":1753182606,"current_range_meters":16400,"station_id":"st_cvj6sg6p6f1abm77japg","pricing_plan_id":"cebpf4jnsgd1na2vs0mg"},{"bike_id":"c7197ba9-6455-4072-b2a3-777ce26a88c8","system_id":"levelo_inurba_marseille","lat":43.27413,"lon":5.39416,"is_reserved":false,"is_disabled":false,"rental_uris":{"android":"levelo://app?vid=c7197ba9-6455-4072-b2a3-777ce26a88c8","ios":"levelo://app?vid=c7197ba9-6455-4072-b2a3-777ce26a88c8"},"vehicle_type_id":"4","last_reported":1753182606,"current_range_meters":16400,"station_id":"ce4bhgp2rcd13ifvqfe0","pricing_plan_id":"cebpf4jnsgd1na2vs0mg"},{"bike_id":"64a2f514-4942-458d-b3fc-7d7fd0dfd1b1","system_id":"levelo_inurba_marseille","lat":43.21199,"lon":5.35079,"is_reserved":false,"is_disabled":false,"rental_uris":{"android":"levelo://app?vid=64a2f514-4942-458d-b3fc-7d7fd0dfd1b1","ios":"levelo://app?vid=64a2f514-4942-458d-b3fc-7d7fd0dfd1b1"},"vehicle_type_id":"4","last_reported":1753182606,"current_range_meters":16400,"station_id":"st_cvj6sg6p6f1abm77japg","pricing_plan_id":"cebpf4jnsgd1na2vs0mg"},{"bike_id":"7436792f-b326-4fd3-8aa7-1ca37c141f45","system_id":"levelo_inurba_marseille","lat":43.23053,"lon":5.35491,"is_reserved":false,"is_disabled":false,"rental_uris":{"android":"levelo://app?vid=7436792f-b326-4fd3-8aa7-1ca37c141f45","ios":"levelo://app?vid=7436792f-b326-4fd3-8aa7-1ca37c141f45"},"vehicle_type_id":"4","last_reported":1753182606,"current_range_meters":16400,"station_id":"cpo3342slgdg3j2ifvpg","pricing_plan_id":"cebpf4jnsgd1na2vs0mg"},{"bike_id":"c50563dc-8d17-4e57-8078-2b88c07b9fe8","system_id":"levelo_inurba_marseille","lat":43.30885,"lon":5.39654,"is_reserved":false,"is_disabled":false,"rental_uris":{"android":"levelo://app?vid=c50563dc-8d17-4e57-8078-2b88c07b9fe8","ios":"levelo://app?vid=c50563dc-8d17-4e57-8078-2b88c07b9fe8"},"vehicle_type_id":"4","last_reported":1753182606,"current_range_meters":16400,"station_id":"ce4bh012rcd13ifvqcv0","pricing_plan_id":"cebpf4jnsgd1na2vs0mg"},{"bike_id":"46a70209-1fce-47a9-ba76-c8817559a2a8","system_id":"levelo_inurba_marseille","lat":43.26184,"lon":5.37461,"is_reserved":false,"is_disabled":false,"rental_uris":{"android":"levelo://app?vid=46a70209-1fce-47a9-ba76-c8817559a2a8","ios":"levelo://app?vid=46a70209-1fce-47a9-ba76-c8817559a2a8"},"vehicle_type_id":"4","last_reported":1753182606,"current_range_meters":16800,"station_id":"ce4bhgp2rcd13ifvqfc0","pricing_plan_id":"cebpf4jnsgd1na2vs0mg"},{"bike_id":"79326a13-cde9-4cb8-becd-ff105cdb3360","system_id":"levelo_inurba_marseille","lat":43.2465,"lon":5.38183,"is_reserved":false,"is_disabled":false,"rental_uris":{"android":"levelo://app?vid=79326a13-cde9-4cb8-becd-ff105cdb3360","ios":"levelo://app?vid=79326a13-cde9-4cb8-becd-ff105cdb3360"},"vehicle_type_id":"4","last_reported":1753182606,"current_range_meters":16800,"station_id":"ce4bhih2rcd13ifvqfr0","pricing_plan_id":"cebpf4jnsgd1na2vs0mg"},{"bike_id":"065ecae4-408e-4701-ae91-75b20387bde6","system_id":"levelo_inurba_marseille","lat":43.25003,"lon":5.38911,"is_reserved":false,"is_disabled":false,"rental_uris":{"android":"levelo://app?vid=065ecae4-408e-4701-ae91-75b20387bde6","ios":"levelo://app?vid=065ecae4-408e-4701-ae91-75b20387bde6"},"vehicle_type_id":"4","last_reported":1753182606,"current_range_meters":16800,"station_id":"ce4bhgp2rcd13ifvqfd0","pricing_plan_id":"cebpf4jnsgd1na2vs0mg"},{"bike_id":"ac4e9fda-4086-43d7-9dc4-afe6942bea08","system_id":"levelo_inurba_marseille","lat":43.230661,"lon":5.354888,"is_reserved":false,"is_disabled":false,"rental_uris":{"android":"levelo://app?vid=ac4e9fda-4086-43d7-9dc4-afe6942bea08","ios":"levelo://app?vid=ac4e9fda-4086-43d7-9dc4-afe6942bea08"},"vehicle_type_id":"4","last_reported":1753182606,"current_range_meters":16800,"station_id":"cpo3342slgdg3j2ifvpg","pricing_plan_id":"cebpf4jnsgd1na2vs0mg"},{"bike_id":"4034af88-45bc-41c2-927f-06184589ab26","system_id":"levelo_inurba_marseille","lat":43.25925,"lon":5.40911,"is_reserved":false,"is_disabled":false,"rental_uris":{"android":"levelo://app?vid=4034af88-45bc-41c2-927f-06184589ab26","ios":"levelo://app?vid=4034af88-45bc-41c2-927f-06184589ab26"},"vehicle_type_id":"4","last_reported":1753182606,"current_range_meters":16800,"station_id":"ce4bhm92rcd13ifvqglg","pricing_plan_id":"cebpf4jnsgd1na2vs0mg"},{"bike_id":"be4977d8-8d5c-4fcc-b2e2-d8c8b8204631","system_id":"levelo_inurba_marseille","lat":43.308011,"lon":5.381501,"is_reserved":false,"is_disabled":false,"rental_uris":{"android":"levelo://app?vid=be4977d8-8d5c-4fcc-b2e2-d8c8b8204631","ios":"levelo://app?vid=be4977d8-8d5c-4fcc-b2e2-d8c8b8204631"},"vehicle_type_id":"4","last_reported":1753182606,"current_range_meters":16800,"station_id":"ce4bgt12rcd13ifvqce0","pricing_plan_id":"cebpf4jnsgd1na2vs0mg"},{"bike_id":"fd678af6-c39f-4009-9cd4-36a5e361e94e","system_id":"levelo_inurba_marseille","lat":43.29161,"lon":5.35797,"is_reserved":false,"is_disabled":false,"rental_uris":{"android":"levelo://app?vid=fd678af6-c39f-4009-9cd4-36a5e361e94e","ios":"levelo://app?vid=fd678af6-c39f-4009-9cd4-36a5e361e94e"},"vehicle_type_id":"4","last_reported":1753182606,"current_range_meters":16800,"station_id":"ce4bhb12rcd13ifvqel0","pricing_plan_id":"cebpf4jnsgd1na2vs0mg"},{"bike_id":"080acd18-9baa-4736-beb6-5e98e18d315c","system_id":"levelo_inurba_marseille","lat":43.2406,"lon":5.37813,"is_reserved":false,"is_disabled":false,"rental_uris":{"android":"levelo://app?vid=080acd18-9baa-4736-beb6-5e98e18d315c","ios":"levelo://app?vid=080acd18-9baa-4736-beb6-5e98e18d315c"},"vehicle_type_id":"4","last_reported":1753182606,"current_range_meters":16800,"station_id":"ce4bhnp2rcd13ifvqgvg","pricing_plan_id":"cebpf4jnsgd1na2vs0mg"},{"bike_id":"dda96cde-9f78-4371-a72f-1d24145c396a","system_id":"levelo_inurba_marseille","lat":43.21206,"lon":5.35086,"is_reserved":false,"is_disabled":false,"rental_uris":{"android":"levelo://app?vid=dda96cde-9f78-4371-a72f-1d24145c396a","ios":"levelo://app?vid=dda96cde-9f78-4371-a72f-1d24145c396a"},"vehicle_type_id":"4","last_reported":1753182606,"current_range_meters":17200,"station_id":"st_cvj6sg6p6f1abm77japg","pricing_plan_id":"cebpf4jnsgd1na2vs0mg"},{"bike_id":"ecb350b6-2179-4728-a240-09a94f1e640a","system_id":"levelo_inurba_marseille","lat":43.30457,"lon":5.37895,"is_reserved":false,"is_disabled":false,"rental_uris":{"android":"levelo://app?vid=ecb350b6-2179-4728-a240-09a94f1e640a","ios":"levelo://app?vid=ecb350b6-2179-4728-a240-09a94f1e640a"},"vehicle_type_id":"4","last_reported":1753182606,"current_range_meters":16800,"station_id":"ce4bgup2rcd13ifvqcn0","pricing_plan_id":"cebpf4jnsgd1na2vs0mg"},{"bike_id":"13db0b13-22ee-419a-9b6c-f8b34890fb46","system_id":"levelo_inurba_marseille","lat":43.30156,"lon":5.38092,"is_reserved":false,"is_disabled":false,"rental_uris":{"android":"levelo://app?vid=13db0b13-22ee-419a-9b6c-f8b34890fb46","ios":"levelo://app?vid=13db0b13-22ee-419a-9b6c-f8b34890fb46"},"vehicle_type_id":"4","last_reported":1753182606,"current_range_meters":17200,"station_id":"ce4bgjp2rcd13ifvqbh0","pricing_plan_id":"cebpf4jnsgd1na2vs0mg"},{"bike_id":"4b209779-1337-48e1-8017-72986ee6ccac","system_id":"levelo_inurba_marseille","lat":43.24183,"lon":5.36476,"is_reserved":false,"is_disabled":false,"rental_uris":{"android":"levelo://app?vid=4b209779-1337-48e1-8017-72986ee6ccac","ios":"levelo://app?vid=4b209779-1337-48e1-8017-72986ee6ccac"},"vehicle_type_id":"4","last_reported":1753182606,"current_range_meters":17200,"station_id":"","pricing_plan_id":"cebpf4jnsgd1na2vs0mg"},{"bike_id":"e730d36a-13f0-49bb-86fb-4a20da2e6767","system_id":"levelo_inurba_marseille","lat":43.241615,"lon":5.364073,"is_reserved":false,"is_disabled":false,"rental_uris":{"android":"levelo://app?vid=e730d36a-13f0-49bb-86fb-4a20da2e6767","ios":"levelo://app?vid=e730d36a-13f0-49bb-86fb-4a20da2e6767"},"vehicle_type_id":"4","last_reported":1753182606,"current_range_meters":17200,"station_id":"cpo36qri1sfpv3e86is0","pricing_plan_id":"cebpf4jnsgd1na2vs0mg"},{"bike_id":"7a3e8286-d23a-436c-a229-6ffa0c627ba2","system_id":"levelo_inurba_marseille","lat":43.21195,"lon":5.3508,"is_reserved":false,"is_disabled":false,"rental_uris":{"android":"levelo://app?vid=7a3e8286-d23a-436c-a229-6ffa0c627ba2","ios":"levelo://app?vid=7a3e8286-d23a-436c-a229-6ffa0c627ba2"},"vehicle_type_id":"4","last_reported":1753182606,"current_range_meters":17200,"station_id":"st_cvj6sg6p6f1abm77japg","pricing_plan_id":"cebpf4jnsgd1na2vs0mg"},{"bike_id":"f5f0974d-e09e-4755-9b0f-58aac1d75005","system_id":"levelo_inurba_marseille","lat":43.306991,"lon":5.438005,"is_reserved":false,"is_disabled":false,"rental_uris":{"android":"levelo://app?vid=f5f0974d-e09e-4755-9b0f-58aac1d75005","ios":"levelo://app?vid=f5f0974d-e09e-4755-9b0f-58aac1d75005"},"vehicle_type_id":"4","last_reported":1753182606,"current_range_meters":17200,"station_id":"ce4bhph2rcd13ifvqheg","pricing_plan_id":"cebpf4jnsgd1na2vs0mg"},{"bike_id":"f904f7ec-0cef-4959-8b66-2da89674cda7","system_id":"levelo_inurba_marseille","lat":43.300856,"lon":5.370343,"is_reserved":false,"is_disabled":false,"rental_uris":{"android":"levelo://app?vid=f904f7ec-0cef-4959-8b66-2da89674cda7","ios":"levelo://app?vid=f904f7ec-0cef-4959-8b66-2da89674cda7"},"vehicle_type_id":"4","last_reported":1753182606,"current_range_meters":17600,"station_id":"ce4bgs12rcd13ifvqcag","pricing_plan_id":"cebpf4jnsgd1na2vs0mg"},{"bike_id":"09ce1f37-5b07-45c4-a76c-7ba0d0176051","system_id":"levelo_inurba_marseille","lat":43.32355,"lon":5.36762,"is_reserved":false,"is_disabled":false,"rental_uris":{"android":"levelo://app?vid=09ce1f37-5b07-45c4-a76c-7ba0d0176051","ios":"levelo://app?vid=09ce1f37-5b07-45c4-a76c-7ba0d0176051"},"vehicle_type_id":"4","last_reported":1753182606,"current_range_meters":17600,"station_id":"ce4bhsh2rcd13ifvqi2g","pricing_plan_id":"cebpf4jnsgd1na2vs0mg"},{"bike_id":"660c0252-7afe-4937-8a14-310a2ec6773e","system_id":"levelo_inurba_marseille","lat":43.28932,"lon":5.36634,"is_reserved":false,"is_disabled":false,"rental_uris":{"android":"levelo://app?vid=660c0252-7afe-4937-8a14-310a2ec6773e","ios":"levelo://app?vid=660c0252-7afe-4937-8a14-310a2ec6773e"},"vehicle_type_id":"4","last_reported":1753182606,"current_range_meters":17600,"station_id":"ce4bhap2rcd13ifvqek0","pricing_plan_id":"cebpf4jnsgd1na2vs0mg"},{"bike_id":"ed9d4dfb-58ad-4427-ac44-2294fb61a557","system_id":"levelo_inurba_marseille","lat":43.29771,"lon":5.37109,"is_reserved":false,"is_disabled":false,"rental_uris":{"android":"levelo://app?vid=ed9d4dfb-58ad-4427-ac44-2294fb61a557","ios":"levelo://app?vid=ed9d4dfb-58ad-4427-ac44-2294fb61a557"},"vehicle_type_id":"4","last_reported":1753182606,"current_range_meters":17200,"station_id":"ce4bgop2rcd13ifvqc1g","pricing_plan_id":"cebpf4jnsgd1na2vs0mg"},{"bike_id":"43e2c1ba-be3c-448f-9ad6-21df8a2b4eb4","system_id":"levelo_inurba_marseille","lat":43.31409,"lon":5.36721,"is_reserved":false,"is_disabled":false,"rental_uris":{"android":"levelo://app?vid=43e2c1ba-be3c-448f-9ad6-21df8a2b4eb4","ios":"levelo://app?vid=43e2c1ba-be3c-448f-9ad6-21df8a2b4eb4"},"vehicle_type_id":"4","last_reported":1753182606,"current_range_meters":17600,"station_id":"","pricing_plan_id":"cebpf4jnsgd1na2vs0mg"},{"bike_id":"972197aa-ddcc-4604-ad23-d4c1cbf067f2","system_id":"levelo_inurba_marseille","lat":43.29596,"lon":5.38099,"is_reserved":false,"is_disabled":false,"rental_uris":{"android":"levelo://app?vid=972197aa-ddcc-4604-ad23-d4c1cbf067f2","ios":"levelo://app?vid=972197aa-ddcc-4604-ad23-d4c1cbf067f2"},"vehicle_type_id":"4","last_reported":1753182606,"current_range_meters":18000,"station_id":"ce4bgl12rcd13ifvqbo0","pricing_plan_id":"cebpf4jnsgd1na2vs0mg"},{"bike_id":"3876af6e-a868-4aa6-afbb-deb3bffdb10a","system_id":"levelo_inurba_marseille","lat":43.22919,"lon":5.35377,"is_reserved":false,"is_disabled":false,"rental_uris":{"android":"levelo://app?vid=3876af6e-a868-4aa6-afbb-deb3bffdb10a","ios":"levelo://app?vid=3876af6e-a868-4aa6-afbb-deb3bffdb10a"},"vehicle_type_id":"4","last_reported":1753182606,"current_range_meters":18000,"station_id":"cpo3532slgdg3j2ikp40","pricing_plan_id":"cebpf4jnsgd1na2vs0mg"},{"bike_id":"81fba013-909e-4f1c-8dc3-8911f0a1441d","system_id":"levelo_inurba_marseille","lat":43.28404,"lon":5.34977,"is_reserved":false,"is_disabled":true,"rental_uris":{"android":"levelo://app?vid=81fba013-909e-4f1c-8dc3-8911f0a1441d","ios":"levelo://app?vid=81fba013-909e-4f1c-8dc3-8911f0a1441d"},"vehicle_type_id":"4","last_reported":1753182606,"current_range_meters":18000,"station_id":"ce4bhbh2rcd13ifvqepg","pricing_plan_id":"cebpf4jnsgd1na2vs0mg"},{"bike_id":"b0397a91-c125-44d1-8053-625dee471570","system_id":"levelo_inurba_marseille","lat":43.29533,"lon":5.38564,"is_reserved":false,"is_disabled":true,"rental_uris":{"android":"levelo://app?vid=b0397a91-c125-44d1-8053-625dee471570","ios":"levelo://app?vid=b0397a91-c125-44d1-8053-625dee471570"},"vehicle_type_id":"4","last_reported":1753182606,"current_range_meters":18000,"station_id":"ce4bgih2rcd13ifvqba0","pricing_plan_id":"cebpf4jnsgd1na2vs0mg"},{"bike_id":"9a484d5d-9a75-4a28-b29d-75e371b4bc63","system_id":"levelo_inurba_marseille","lat":43.30575,"lon":5.36717,"is_reserved":false,"is_disabled":false,"rental_uris":{"android":"levelo://app?vid=9a484d5d-9a75-4a28-b29d-75e371b4bc63","ios":"levelo://app?vid=9a484d5d-9a75-4a28-b29d-75e371b4bc63"},"vehicle_type_id":"4","last_reported":1753182606,"current_range_meters":18000,"station_id":"ce4bgrp2rcd13ifvqc9g","pricing_plan_id":"cebpf4jnsgd1na2vs0mg"},{"bike_id":"04bb8e0c-b1ab-47fd-8929-da5088119fe8","system_id":"levelo_inurba_marseille","lat":43.26571,"lon":5.372879,"is_reserved":false,"is_disabled":false,"rental_uris":{"android":"levelo://app?vid=04bb8e0c-b1ab-47fd-8929-da5088119fe8","ios":"levelo://app?vid=04bb8e0c-b1ab-47fd-8929-da5088119fe8"},"vehicle_type_id":"4","last_reported":1753182606,"current_range_meters":18000,"station_id":"","pricing_plan_id":"cebpf4jnsgd1na2vs0mg"},{"bike_id":"c5882853-b60b-479e-9aec-a46b9b6e8aff","system_id":"levelo_inurba_marseille","lat":43.295317,"lon":5.385396,"is_reserved":false,"is_disabled":false,"rental_uris":{"android":"levelo://app?vid=c5882853-b60b-479e-9aec-a46b9b6e8aff","ios":"levelo://app?vid=c5882853-b60b-479e-9aec-a46b9b6e8aff"},"vehicle_type_id":"4","last_reported":1753182606,"current_range_meters":18000,"station_id":"ce4bgih2rcd13ifvqba0","pricing_plan_id":"cebpf4jnsgd1na2vs0mg"},{"bike_id":"6d23e765-24be-402c-b4de-ff24cb318e32","system_id":"levelo_inurba_marseille","lat":43.22926,"lon":5.35392,"is_reserved":false,"is_disabled":false,"rental_uris":{"android":"levelo://app?vid=6d23e765-24be-402c-b4de-ff24cb318e32","ios":"levelo://app?vid=6d23e765-24be-402c-b4de-ff24cb318e32"},"vehicle_type_id":"4","last_reported":1753182606,"current_range_meters":18800,"station_id":"cpo3532slgdg3j2ikp40","pricing_plan_id":"cebpf4jnsgd1na2vs0mg"},{"bike_id":"ffffbebf-b502-463d-aa88-6205cc33d88d","system_id":"levelo_inurba_marseille","lat":43.280995,"lon":5.378303,"is_reserved":false,"is_disabled":false,"rental_uris":{"android":"levelo://app?vid=ffffbebf-b502-463d-aa88-6205cc33d88d","ios":"levelo://app?vid=ffffbebf-b502-463d-aa88-6205cc33d88d"},"vehicle_type_id":"4","last_reported":1753182606,"current_range_meters":18800,"station_id":"ce4bha12rcd13ifvqee0","pricing_plan_id":"cebpf4jnsgd1na2vs0mg"},{"bike_id":"d3efef1e-0fec-4541-87fb-6df6ecce6f21","system_id":"levelo_inurba_marseille","lat":43.23196,"lon":5.35548,"is_reserved":false,"is_disabled":false,"rental_uris":{"android":"levelo://app?vid=d3efef1e-0fec-4541-87fb-6df6ecce6f21","ios":"levelo://app?vid=d3efef1e-0fec-4541-87fb-6df6ecce6f21"},"vehicle_type_id":"4","last_reported":1753182606,"current_range_meters":18800,"station_id":"ce4bhu92rcd13ifvqi70","pricing_plan_id":"cebpf4jnsgd1na2vs0mg"},{"bike_id":"99e496ea-71ef-4bdb-b20d-08851d51893c","system_id":"levelo_inurba_marseille","lat":43.26569,"lon":5.37307,"is_reserved":false,"is_disabled":false,"rental_uris":{"android":"levelo://app?vid=99e496ea-71ef-4bdb-b20d-08851d51893c","ios":"levelo://app?vid=99e496ea-71ef-4bdb-b20d-08851d51893c"},"vehicle_type_id":"4","last_reported":1753182606,"current_range_meters":18800,"station_id":"ce4bhg12rcd13ifvqf70","pricing_plan_id":"cebpf4jnsgd1na2vs0mg"},{"bike_id":"b0814be2-3228-42a3-8f14-9e3ad3e47b21","system_id":"levelo_inurba_marseille","lat":43.24996,"lon":5.38896,"is_reserved":false,"is_disabled":false,"rental_uris":{"android":"levelo://app?vid=b0814be2-3228-42a3-8f14-9e3ad3e47b21","ios":"levelo://app?vid=b0814be2-3228-42a3-8f14-9e3ad3e47b21"},"vehicle_type_id":"4","last_reported":1753182606,"current_range_meters":18800,"station_id":"ce4bhgp2rcd13ifvqfd0","pricing_plan_id":"cebpf4jnsgd1na2vs0mg"},{"bike_id":"cc0da5a5-cc52-47fc-9193-5422ad7da5db","system_id":"levelo_inurba_marseille","lat":43.25493,"lon":5.37653,"is_reserved":false,"is_disabled":false,"rental_uris":{"android":"levelo://app?vid=cc0da5a5-cc52-47fc-9193-5422ad7da5db","ios":"levelo://app?vid=cc0da5a5-cc52-47fc-9193-5422ad7da5db"},"vehicle_type_id":"4","last_reported":1753182606,"current_range_meters":18000,"station_id":"ce4bhh12rcd13ifvqff0","pricing_plan_id":"cebpf4jnsgd1na2vs0mg"},{"bike_id":"ab2576ba-3498-47f6-959d-8cf2fbd2103d","system_id":"levelo_inurba_marseille","lat":43.28389,"lon":5.37488,"is_reserved":false,"is_disabled":false,"rental_uris":{"android":"levelo://app?vid=ab2576ba-3498-47f6-959d-8cf2fbd2103d","ios":"levelo://app?vid=ab2576ba-3498-47f6-959d-8cf2fbd2103d"},"vehicle_type_id":"4","last_reported":1753182606,"current_range_meters":18800,"station_id":"ce4bh412rcd13ifvqds0","pricing_plan_id":"cebpf4jnsgd1na2vs0mg"},{"bike_id":"e8b1e154-0720-4442-be21-6633972e0c63","system_id":"levelo_inurba_marseille","lat":43.28673,"lon":5.36348,"is_reserved":false,"is_disabled":false,"rental_uris":{"android":"levelo://app?vid=e8b1e154-0720-4442-be21-6633972e0c63","ios":"levelo://app?vid=e8b1e154-0720-4442-be21-6633972e0c63"},"vehicle_type_id":"4","last_reported":1753182606,"current_range_meters":19200,"station_id":"ce4bhah2rcd13ifvqej0","pricing_plan_id":"cebpf4jnsgd1na2vs0mg"},{"bike_id":"5ea1e0b3-e596-45e6-88e9-c65da10bd3b4","system_id":"levelo_inurba_marseille","lat":43.29979,"lon":5.37453,"is_reserved":false,"is_disabled":false,"rental_uris":{"android":"levelo://app?vid=5ea1e0b3-e596-45e6-88e9-c65da10bd3b4","ios":"levelo://app?vid=5ea1e0b3-e596-45e6-88e9-c65da10bd3b4"},"vehicle_type_id":"4","last_reported":1753182606,"current_range_meters":19200,"station_id":"","pricing_plan_id":"cebpf4jnsgd1na2vs0mg"},{"bike_id":"5cd570b3-5ede-4c04-957b-bd2e249463fd","system_id":"levelo_inurba_marseille","lat":43.21196,"lon":5.35073,"is_reserved":false,"is_disabled":false,"rental_uris":{"android":"levelo://app?vid=5cd570b3-5ede-4c04-957b-bd2e249463fd","ios":"levelo://app?vid=5cd570b3-5ede-4c04-957b-bd2e249463fd"},"vehicle_type_id":"4","last_reported":1753182606,"current_range_meters":19200,"station_id":"st_cvj6sg6p6f1abm77japg","pricing_plan_id":"cebpf4jnsgd1na2vs0mg"},{"bike_id":"29b14e23-f4d2-4fd7-9c3b-1f5dde7b2e61","system_id":"levelo_inurba_marseille","lat":43.286103,"lon":5.37066,"is_reserved":false,"is_disabled":true,"rental_uris":{"android":"levelo://app?vid=29b14e23-f4d2-4fd7-9c3b-1f5dde7b2e61","ios":"levelo://app?vid=29b14e23-f4d2-4fd7-9c3b-1f5dde7b2e61"},"vehicle_type_id":"4","last_reported":1753182606,"current_range_meters":19200,"station_id":"ce4bht12rcd13ifvqi60","pricing_plan_id":"cebpf4jnsgd1na2vs0mg"},{"bike_id":"635bef21-86e1-4755-95fc-13fa0e7daa59","system_id":"levelo_inurba_marseille","lat":43.25928,"lon":5.40916,"is_reserved":false,"is_disabled":false,"rental_uris":{"android":"levelo://app?vid=635bef21-86e1-4755-95fc-13fa0e7daa59","ios":"levelo://app?vid=635bef21-86e1-4755-95fc-13fa0e7daa59"},"vehicle_type_id":"4","last_reported":1753182606,"current_range_meters":19200,"station_id":"ce4bhm92rcd13ifvqglg","pricing_plan_id":"cebpf4jnsgd1na2vs0mg"},{"bike_id":"7fa36957-5a95-4cde-a6b4-40c84b0b6c7e","system_id":"levelo_inurba_marseille","lat":43.22931,"lon":5.35376,"is_reserved":false,"is_disabled":false,"rental_uris":{"android":"levelo://app?vid=7fa36957-5a95-4cde-a6b4-40c84b0b6c7e","ios":"levelo://app?vid=7fa36957-5a95-4cde-a6b4-40c84b0b6c7e"},"vehicle_type_id":"4","last_reported":1753182606,"current_range_meters":19200,"station_id":"cpo3532slgdg3j2ikp40","pricing_plan_id":"cebpf4jnsgd1na2vs0mg"},{"bike_id":"8d56d22a-4fd2-4297-b361-13e3bca89ed5","system_id":"levelo_inurba_marseille","lat":43.2707,"lon":5.42278,"is_reserved":false,"is_disabled":false,"rental_uris":{"android":"levelo://app?vid=8d56d22a-4fd2-4297-b361-13e3bca89ed5","ios":"levelo://app?vid=8d56d22a-4fd2-4297-b361-13e3bca89ed5"},"vehicle_type_id":"4","last_reported":1753182606,"current_range_meters":19200,"station_id":"ce4bhk92rcd13ifvqgb0","pricing_plan_id":"cebpf4jnsgd1na2vs0mg"},{"bike_id":"bdd15aa1-db2b-423b-a33a-86a5db3d2c3d","system_id":"levelo_inurba_marseille","lat":43.286133,"lon":5.351086,"is_reserved":false,"is_disabled":false,"rental_uris":{"android":"levelo://app?vid=bdd15aa1-db2b-423b-a33a-86a5db3d2c3d","ios":"levelo://app?vid=bdd15aa1-db2b-423b-a33a-86a5db3d2c3d"},"vehicle_type_id":"4","last_reported":1753182606,"current_range_meters":19600,"station_id":"ce4bhch2rcd13ifvqeug","pricing_plan_id":"cebpf4jnsgd1na2vs0mg"},{"bike_id":"b6c7c97d-b99f-4e19-a0e0-d0f6170ab3cf","system_id":"levelo_inurba_marseille","lat":43.24025,"lon":5.36247,"is_reserved":false,"is_disabled":false,"rental_uris":{"android":"levelo://app?vid=b6c7c97d-b99f-4e19-a0e0-d0f6170ab3cf","ios":"levelo://app?vid=b6c7c97d-b99f-4e19-a0e0-d0f6170ab3cf"},"vehicle_type_id":"4","last_reported":1753182606,"current_range_meters":19600,"station_id":"","pricing_plan_id":"cebpf4jnsgd1na2vs0mg"},{"bike_id":"637884bb-9846-4799-a992-2713ef1b78cd","system_id":"levelo_inurba_marseille","lat":43.29584,"lon":5.36767,"is_reserved":false,"is_disabled":false,"rental_uris":{"android":"levelo://app?vid=637884bb-9846-4799-a992-2713ef1b78cd","ios":"levelo://app?vid=637884bb-9846-4799-a992-2713ef1b78cd"},"vehicle_type_id":"4","last_reported":1753182606,"current_range_meters":19600,"station_id":"ce4bgph2rcd13ifvqc2g","pricing_plan_id":"cebpf4jnsgd1na2vs0mg"},{"bike_id":"005b1758-b217-47ee-b6da-37711cec6e16","system_id":"levelo_inurba_marseille","lat":43.24166,"lon":5.36431,"is_reserved":false,"is_disabled":false,"rental_uris":{"android":"levelo://app?vid=005b1758-b217-47ee-b6da-37711cec6e16","ios":"levelo://app?vid=005b1758-b217-47ee-b6da-37711cec6e16"},"vehicle_type_id":"4","last_reported":1753182606,"current_range_meters":19600,"station_id":"cpo36qri1sfpv3e86is0","pricing_plan_id":"cebpf4jnsgd1na2vs0mg"},{"bike_id":"8e5d6ab4-8b2a-49b6-8f6d-a686738c3d6e","system_id":"levelo_inurba_marseille","lat":43.29277,"lon":5.40117,"is_reserved":false,"is_disabled":false,"rental_uris":{"android":"levelo://app?vid=8e5d6ab4-8b2a-49b6-8f6d-a686738c3d6e","ios":"levelo://app?vid=8e5d6ab4-8b2a-49b6-8f6d-a686738c3d6e"},"vehicle_type_id":"4","last_reported":1753182606,"current_range_meters":19200,"station_id":"ce4bh312rcd13ifvqdk0","pricing_plan_id":"cebpf4jnsgd1na2vs0mg"},{"bike_id":"dc6fc453-9812-4d99-8dd4-5c70596d59ce","system_id":"levelo_inurba_marseille","lat":43.337534,"lon":5.374547,"is_reserved":false,"is_disabled":false,"rental_uris":{"android":"levelo://app?vid=dc6fc453-9812-4d99-8dd4-5c70596d59ce","ios":"levelo://app?vid=dc6fc453-9812-4d99-8dd4-5c70596d59ce"},"vehicle_type_id":"4","last_reported":1753182606,"current_range_meters":19600,"station_id":"","pricing_plan_id":"cebpf4jnsgd1na2vs0mg"},{"bike_id":"dd392818-0d1d-422c-948e-73eb15305ef8","system_id":"levelo_inurba_marseille","lat":43.29244,"lon":5.37622,"is_reserved":false,"is_disabled":false,"rental_uris":{"android":"levelo://app?vid=dd392818-0d1d-422c-948e-73eb15305ef8","ios":"levelo://app?vid=dd392818-0d1d-422c-948e-73eb15305ef8"},"vehicle_type_id":"4","last_reported":1753182606,"current_range_meters":19600,"station_id":"ce4bgi12rcd13ifvqb80","pricing_plan_id":"cebpf4jnsgd1na2vs0mg"},{"bike_id":"16f298a6-1792-4bad-ad88-4f75073062a5","system_id":"levelo_inurba_marseille","lat":43.25815,"lon":5.39418,"is_reserved":false,"is_disabled":false,"rental_uris":{"android":"levelo://app?vid=16f298a6-1792-4bad-ad88-4f75073062a5","ios":"levelo://app?vid=16f298a6-1792-4bad-ad88-4f75073062a5"},"vehicle_type_id":"4","last_reported":1753182606,"current_range_meters":19200,"station_id":"ce4bhip2rcd13ifvqft0","pricing_plan_id":"cebpf4jnsgd1na2vs0mg"},{"bike_id":"14ff57e9-df81-436a-97c8-6f0e1a67e809","system_id":"levelo_inurba_marseille","lat":43.32091,"lon":5.36761,"is_reserved":false,"is_disabled":false,"rental_uris":{"android":"levelo://app?vid=14ff57e9-df81-436a-97c8-6f0e1a67e809","ios":"levelo://app?vid=14ff57e9-df81-436a-97c8-6f0e1a67e809"},"vehicle_type_id":"4","last_reported":1753182606,"current_range_meters":19600,"station_id":"ce4bhrh2rcd13ifvqhug","pricing_plan_id":"cebpf4jnsgd1na2vs0mg"},{"bike_id":"b28a147f-d577-4929-94a5-ddd14fa1da4d","system_id":"levelo_inurba_marseille","lat":43.29881,"lon":5.39726,"is_reserved":false,"is_disabled":false,"rental_uris":{"android":"levelo://app?vid=b28a147f-d577-4929-94a5-ddd14fa1da4d","ios":"levelo://app?vid=b28a147f-d577-4929-94a5-ddd14fa1da4d"},"vehicle_type_id":"4","last_reported":1753182606,"current_range_meters":19600,"station_id":"ce4bh0h2rcd13ifvqd50","pricing_plan_id":"cebpf4jnsgd1na2vs0mg"},{"bike_id":"d1b66b6c-5c88-49db-8207-1a4958377648","system_id":"levelo_inurba_marseille","lat":43.21749,"lon":5.34602,"is_reserved":false,"is_disabled":false,"rental_uris":{"android":"levelo://app?vid=d1b66b6c-5c88-49db-8207-1a4958377648","ios":"levelo://app?vid=d1b66b6c-5c88-49db-8207-1a4958377648"},"vehicle_type_id":"4","last_reported":1753182606,"current_range_meters":19600,"station_id":"st_cvj6r9ubvosntc0bgbag","pricing_plan_id":"cebpf4jnsgd1na2vs0mg"},{"bike_id":"61db9a4a-0ff7-46f3-8e1f-0994dbc8326b","system_id":"levelo_inurba_marseille","lat":43.31843,"lon":5.36818,"is_reserved":false,"is_disabled":false,"rental_uris":{"android":"levelo://app?vid=61db9a4a-0ff7-46f3-8e1f-0994dbc8326b","ios":"levelo://app?vid=61db9a4a-0ff7-46f3-8e1f-0994dbc8326b"},"vehicle_type_id":"4","last_reported":1753182606,"current_range_meters":19600,"station_id":"","pricing_plan_id":"cebpf4jnsgd1na2vs0mg"},{"bike_id":"2e29f8ac-7376-4213-979e-085b4ee40d9c","system_id":"levelo_inurba_marseille","lat":43.25732,"lon":5.41117,"is_reserved":false,"is_disabled":false,"rental_uris":{"android":"levelo://app?vid=2e29f8ac-7376-4213-979e-085b4ee40d9c","ios":"levelo://app?vid=2e29f8ac-7376-4213-979e-085b4ee40d9c"},"vehicle_type_id":"4","last_reported":1753182606,"current_range_meters":20000,"station_id":"ce4bhkp2rcd13ifvqgd0","pricing_plan_id":"cebpf4jnsgd1na2vs0mg"},{"bike_id":"11c9588a-e122-4ee6-991f-f37585087ee9","system_id":"levelo_inurba_marseille","lat":43.30582,"lon":5.36725,"is_reserved":false,"is_disabled":false,"rental_uris":{"android":"levelo://app?vid=11c9588a-e122-4ee6-991f-f37585087ee9","ios":"levelo://app?vid=11c9588a-e122-4ee6-991f-f37585087ee9"},"vehicle_type_id":"4","last_reported":1753182606,"current_range_meters":20000,"station_id":"ce4bgrp2rcd13ifvqc9g","pricing_plan_id":"cebpf4jnsgd1na2vs0mg"},{"bike_id":"4baedf4b-88b8-4b2a-9c18-0b9777edb979","system_id":"levelo_inurba_marseille","lat":43.27065,"lon":5.40254,"is_reserved":false,"is_disabled":false,"rental_uris":{"android":"levelo://app?vid=4baedf4b-88b8-4b2a-9c18-0b9777edb979","ios":"levelo://app?vid=4baedf4b-88b8-4b2a-9c18-0b9777edb979"},"vehicle_type_id":"4","last_reported":1753182606,"current_range_meters":20000,"station_id":"ce4bhk92rcd13ifvqgc0","pricing_plan_id":"cebpf4jnsgd1na2vs0mg"},{"bike_id":"eb39f0d6-2f37-46c1-ab5c-f53ed31350a1","system_id":"levelo_inurba_marseille","lat":43.321,"lon":5.36753,"is_reserved":false,"is_disabled":false,"rental_uris":{"android":"levelo://app?vid=eb39f0d6-2f37-46c1-ab5c-f53ed31350a1","ios":"levelo://app?vid=eb39f0d6-2f37-46c1-ab5c-f53ed31350a1"},"vehicle_type_id":"4","last_reported":1753182606,"current_range_meters":20000,"station_id":"ce4bhrh2rcd13ifvqhug","pricing_plan_id":"cebpf4jnsgd1na2vs0mg"},{"bike_id":"bd4f1efc-fd7e-4535-9eb2-5378f7cd35dd","system_id":"levelo_inurba_marseille","lat":43.26785,"lon":5.39417,"is_reserved":false,"is_disabled":false,"rental_uris":{"android":"levelo://app?vid=bd4f1efc-fd7e-4535-9eb2-5378f7cd35dd","ios":"levelo://app?vid=bd4f1efc-fd7e-4535-9eb2-5378f7cd35dd"},"vehicle_type_id":"4","last_reported":1753182606,"current_range_meters":20400,"station_id":"ce4bhh12rcd13ifvqfg0","pricing_plan_id":"cebpf4jnsgd1na2vs0mg"},{"bike_id":"cf11f61d-83d8-4e56-9503-0282553d7be7","system_id":"levelo_inurba_marseille","lat":43.25941,"lon":5.4091,"is_reserved":false,"is_disabled":false,"rental_uris":{"android":"levelo://app?vid=cf11f61d-83d8-4e56-9503-0282553d7be7","ios":"levelo://app?vid=cf11f61d-83d8-4e56-9503-0282553d7be7"},"vehicle_type_id":"4","last_reported":1753182606,"current_range_meters":20000,"station_id":"ce4bhm92rcd13ifvqglg","pricing_plan_id":"cebpf4jnsgd1na2vs0mg"},{"bike_id":"c4f10c42-444b-440d-a739-b37c12b0c6fa","system_id":"levelo_inurba_marseille","lat":43.276176,"lon":5.361005,"is_reserved":false,"is_disabled":false,"rental_uris":{"android":"levelo://app?vid=c4f10c42-444b-440d-a739-b37c12b0c6fa","ios":"levelo://app?vid=c4f10c42-444b-440d-a739-b37c12b0c6fa"},"vehicle_type_id":"4","last_reported":1753182606,"current_range_meters":20000,"station_id":"","pricing_plan_id":"cebpf4jnsgd1na2vs0mg"},{"bike_id":"fc7d38b7-0f4d-411f-906b-69b8e922e398","system_id":"levelo_inurba_marseille","lat":43.31716,"lon":5.43708,"is_reserved":false,"is_disabled":false,"rental_uris":{"android":"levelo://app?vid=fc7d38b7-0f4d-411f-906b-69b8e922e398","ios":"levelo://app?vid=fc7d38b7-0f4d-411f-906b-69b8e922e398"},"vehicle_type_id":"4","last_reported":1753182606,"current_range_meters":20000,"station_id":"ce4bhp92rcd13ifvqhcg","pricing_plan_id":"cebpf4jnsgd1na2vs0mg"},{"bike_id":"4c33e117-309c-4ff6-93a7-46afa9fe6644","system_id":"levelo_inurba_marseille","lat":43.259334,"lon":5.409106,"is_reserved":false,"is_disabled":false,"rental_uris":{"android":"levelo://app?vid=4c33e117-309c-4ff6-93a7-46afa9fe6644","ios":"levelo://app?vid=4c33e117-309c-4ff6-93a7-46afa9fe6644"},"vehicle_type_id":"4","last_reported":1753182606,"current_range_meters":20000,"station_id":"ce4bhm92rcd13ifvqglg","pricing_plan_id":"cebpf4jnsgd1na2vs0mg"},{"bike_id":"7f07103b-023a-4235-8fad-06c85115af08","system_id":"levelo_inurba_marseille","lat":43.29529,"lon":5.42267,"is_reserved":false,"is_disabled":false,"rental_uris":{"android":"levelo://app?vid=7f07103b-023a-4235-8fad-06c85115af08","ios":"levelo://app?vid=7f07103b-023a-4235-8fad-06c85115af08"},"vehicle_type_id":"4","last_reported":1753182606,"current_range_meters":19600,"station_id":"ce4bhph2rcd13ifvqhdg","pricing_plan_id":"cebpf4jnsgd1na2vs0mg"},{"bike_id":"ff7c318c-5e6b-43ad-b16d-834f6b8b4d96","system_id":"levelo_inurba_marseille","lat":43.32358,"lon":5.36763,"is_reserved":false,"is_disabled":false,"rental_uris":{"android":"levelo://app?vid=ff7c318c-5e6b-43ad-b16d-834f6b8b4d96","ios":"levelo://app?vid=ff7c318c-5e6b-43ad-b16d-834f6b8b4d96"},"vehicle_type_id":"4","last_reported":1753182606,"current_range_meters":20000,"station_id":"ce4bhsh2rcd13ifvqi2g","pricing_plan_id":"cebpf4jnsgd1na2vs0mg"},{"bike_id":"8b8d4c0e-d690-4d9a-a5d9-94827397a054","system_id":"levelo_inurba_marseille","lat":43.286233,"lon":5.374183,"is_reserved":false,"is_disabled":false,"rental_uris":{"android":"levelo://app?vid=8b8d4c0e-d690-4d9a-a5d9-94827397a054","ios":"levelo://app?vid=8b8d4c0e-d690-4d9a-a5d9-94827397a054"},"vehicle_type_id":"4","last_reported":1753182606,"current_range_meters":20000,"station_id":"ce4bh3p2rcd13ifvqdq0","pricing_plan_id":"cebpf4jnsgd1na2vs0mg"},{"bike_id":"2c47db04-15df-4a2a-8459-a941650094eb","system_id":"levelo_inurba_marseille","lat":43.2177,"lon":5.3461,"is_reserved":false,"is_disabled":false,"rental_uris":{"android":"levelo://app?vid=2c47db04-15df-4a2a-8459-a941650094eb","ios":"levelo://app?vid=2c47db04-15df-4a2a-8459-a941650094eb"},"vehicle_type_id":"4","last_reported":1753182606,"current_range_meters":20000,"station_id":"st_cvj6r9ubvosntc0bgbag","pricing_plan_id":"cebpf4jnsgd1na2vs0mg"},{"bike_id":"60b45928-e7a8-45f4-b207-023988da4a55","system_id":"levelo_inurba_marseille","lat":43.23187,"lon":5.39997,"is_reserved":false,"is_disabled":false,"rental_uris":{"android":"levelo://app?vid=60b45928-e7a8-45f4-b207-023988da4a55","ios":"levelo://app?vid=60b45928-e7a8-45f4-b207-023988da4a55"},"vehicle_type_id":"4","last_reported":1753182606,"current_range_meters":20000,"station_id":"ce4bhn12rcd13ifvqgqg","pricing_plan_id":"cebpf4jnsgd1na2vs0mg"},{"bike_id":"95071475-f0ee-47d5-acde-31c438d445db","system_id":"levelo_inurba_marseille","lat":43.2681,"lon":5.3946,"is_reserved":false,"is_disabled":false,"rental_uris":{"android":"levelo://app?vid=95071475-f0ee-47d5-acde-31c438d445db","ios":"levelo://app?vid=95071475-f0ee-47d5-acde-31c438d445db"},"vehicle_type_id":"4","last_reported":1753182606,"current_range_meters":20400,"station_id":"","pricing_plan_id":"cebpf4jnsgd1na2vs0mg"},{"bike_id":"c61420f1-3450-4189-858a-e5c6364dd6c4","system_id":"levelo_inurba_marseille","lat":43.30898,"lon":5.36847,"is_reserved":false,"is_disabled":false,"rental_uris":{"android":"levelo://app?vid=c61420f1-3450-4189-858a-e5c6364dd6c4","ios":"levelo://app?vid=c61420f1-3450-4189-858a-e5c6364dd6c4"},"vehicle_type_id":"4","last_reported":1753182606,"current_range_meters":20000,"station_id":"ce4bgn92rcd13ifvqbvg","pricing_plan_id":"cebpf4jnsgd1na2vs0mg"},{"bike_id":"ec82385f-ea68-46ee-9627-f1c80cc01e6c","system_id":"levelo_inurba_marseille","lat":43.3055,"lon":5.36752,"is_reserved":false,"is_disabled":false,"rental_uris":{"android":"levelo://app?vid=ec82385f-ea68-46ee-9627-f1c80cc01e6c","ios":"levelo://app?vid=ec82385f-ea68-46ee-9627-f1c80cc01e6c"},"vehicle_type_id":"4","last_reported":1753182606,"current_range_meters":20400,"station_id":"ce4bgrp2rcd13ifvqc9g","pricing_plan_id":"cebpf4jnsgd1na2vs0mg"},{"bike_id":"93717ded-abdb-4962-8634-a9b6c5da95f3","system_id":"levelo_inurba_marseille","lat":43.31661,"lon":5.38825,"is_reserved":false,"is_disabled":false,"rental_uris":{"android":"levelo://app?vid=93717ded-abdb-4962-8634-a9b6c5da95f3","ios":"levelo://app?vid=93717ded-abdb-4962-8634-a9b6c5da95f3"},"vehicle_type_id":"4","last_reported":1753182606,"current_range_meters":20400,"station_id":"","pricing_plan_id":"cebpf4jnsgd1na2vs0mg"},{"bike_id":"6c2dab93-e61e-4a12-9c2e-c4f75abf8827","system_id":"levelo_inurba_marseille","lat":43.30533,"lon":5.36694,"is_reserved":false,"is_disabled":false,"rental_uris":{"android":"levelo://app?vid=6c2dab93-e61e-4a12-9c2e-c4f75abf8827","ios":"levelo://app?vid=6c2dab93-e61e-4a12-9c2e-c4f75abf8827"},"vehicle_type_id":"4","last_reported":1753182606,"current_range_meters":20400,"station_id":"ce4bgrp2rcd13ifvqc9g","pricing_plan_id":"cebpf4jnsgd1na2vs0mg"},{"bike_id":"87ff85ae-3559-47d0-9d53-052116c56a7f","system_id":"levelo_inurba_marseille","lat":43.21761,"lon":5.34619,"is_reserved":false,"is_disabled":false,"rental_uris":{"android":"levelo://app?vid=87ff85ae-3559-47d0-9d53-052116c56a7f","ios":"levelo://app?vid=87ff85ae-3559-47d0-9d53-052116c56a7f"},"vehicle_type_id":"4","last_reported":1753182606,"current_range_meters":20400,"station_id":"st_cvj6r9ubvosntc0bgbag","pricing_plan_id":"cebpf4jnsgd1na2vs0mg"},{"bike_id":"aa0726fc-b1ea-4c7d-8ffc-5fa18b42a414","system_id":"levelo_inurba_marseille","lat":43.28613,"lon":5.35108,"is_reserved":false,"is_disabled":false,"rental_uris":{"android":"levelo://app?vid=aa0726fc-b1ea-4c7d-8ffc-5fa18b42a414","ios":"levelo://app?vid=aa0726fc-b1ea-4c7d-8ffc-5fa18b42a414"},"vehicle_type_id":"4","last_reported":1753182606,"current_range_meters":20400,"station_id":"ce4bhch2rcd13ifvqeug","pricing_plan_id":"cebpf4jnsgd1na2vs0mg"},{"bike_id":"2975a10e-052a-4ed4-8afb-b52549159b49","system_id":"levelo_inurba_marseille","lat":43.32893,"lon":5.3748,"is_reserved":false,"is_disabled":false,"rental_uris":{"android":"levelo://app?vid=2975a10e-052a-4ed4-8afb-b52549159b49","ios":"levelo://app?vid=2975a10e-052a-4ed4-8afb-b52549159b49"},"vehicle_type_id":"4","last_reported":1753182606,"current_range_meters":20400,"station_id":"","pricing_plan_id":"cebpf4jnsgd1na2vs0mg"},{"bike_id":"f6546c0f-1b1f-4b2d-a6fd-92e583837130","system_id":"levelo_inurba_marseille","lat":43.305437,"lon":5.367028,"is_reserved":false,"is_disabled":false,"rental_uris":{"android":"levelo://app?vid=f6546c0f-1b1f-4b2d-a6fd-92e583837130","ios":"levelo://app?vid=f6546c0f-1b1f-4b2d-a6fd-92e583837130"},"vehicle_type_id":"4","last_reported":1753182606,"current_range_meters":20400,"station_id":"ce4bgrp2rcd13ifvqc9g","pricing_plan_id":"cebpf4jnsgd1na2vs0mg"},{"bike_id":"6bb55be1-0025-4f79-a2d7-856376db3e92","system_id":"levelo_inurba_marseille","lat":43.30036,"lon":5.380552,"is_reserved":false,"is_disabled":false,"rental_uris":{"android":"levelo://app?vid=6bb55be1-0025-4f79-a2d7-856376db3e92","ios":"levelo://app?vid=6bb55be1-0025-4f79-a2d7-856376db3e92"},"vehicle_type_id":"4","last_reported":1753182606,"current_range_meters":20800,"station_id":"ce4bgjh2rcd13ifvqbg0","pricing_plan_id":"cebpf4jnsgd1na2vs0mg"},{"bike_id":"c5a0dbf1-71dc-4d88-b89a-d9fc6eb048de","system_id":"levelo_inurba_marseille","lat":43.23155,"lon":5.43736,"is_reserved":false,"is_disabled":false,"rental_uris":{"android":"levelo://app?vid=c5a0dbf1-71dc-4d88-b89a-d9fc6eb048de","ios":"levelo://app?vid=c5a0dbf1-71dc-4d88-b89a-d9fc6eb048de"},"vehicle_type_id":"4","last_reported":1753182606,"current_range_meters":20800,"station_id":"ce4bhmp2rcd13ifvqgog","pricing_plan_id":"cebpf4jnsgd1na2vs0mg"},{"bike_id":"8bcf3582-b68c-42f0-8af3-a56991e37b87","system_id":"levelo_inurba_marseille","lat":43.21201,"lon":5.35087,"is_reserved":false,"is_disabled":false,"rental_uris":{"android":"levelo://app?vid=8bcf3582-b68c-42f0-8af3-a56991e37b87","ios":"levelo://app?vid=8bcf3582-b68c-42f0-8af3-a56991e37b87"},"vehicle_type_id":"4","last_reported":1753182606,"current_range_meters":20800,"station_id":"st_cvj6sg6p6f1abm77japg","pricing_plan_id":"cebpf4jnsgd1na2vs0mg"},{"bike_id":"dc9130ac-03a9-4d90-a7cd-b38dc2f18f17","system_id":"levelo_inurba_marseille","lat":43.3089,"lon":5.3966,"is_reserved":false,"is_disabled":false,"rental_uris":{"android":"levelo://app?vid=dc9130ac-03a9-4d90-a7cd-b38dc2f18f17","ios":"levelo://app?vid=dc9130ac-03a9-4d90-a7cd-b38dc2f18f17"},"vehicle_type_id":"4","last_reported":1753182606,"current_range_meters":20400,"station_id":"ce4bh012rcd13ifvqcv0","pricing_plan_id":"cebpf4jnsgd1na2vs0mg"},{"bike_id":"e0e16dbe-230d-4103-a8f5-adf8189611a7","system_id":"levelo_inurba_marseille","lat":43.32669,"lon":5.40994,"is_reserved":false,"is_disabled":false,"rental_uris":{"android":"levelo://app?vid=e0e16dbe-230d-4103-a8f5-adf8189611a7","ios":"levelo://app?vid=e0e16dbe-230d-4103-a8f5-adf8189611a7"},"vehicle_type_id":"4","last_reported":1753182606,"current_range_meters":20800,"station_id":"ce4bhpp2rcd13ifvqhgg","pricing_plan_id":"cebpf4jnsgd1na2vs0mg"},{"bike_id":"a0f434db-7223-4202-9f20-f7d0df8860be","system_id":"levelo_inurba_marseille","lat":43.27057,"lon":5.40269,"is_reserved":false,"is_disabled":false,"rental_uris":{"android":"levelo://app?vid=a0f434db-7223-4202-9f20-f7d0df8860be","ios":"levelo://app?vid=a0f434db-7223-4202-9f20-f7d0df8860be"},"vehicle_type_id":"4","last_reported":1753182606,"current_range_meters":20800,"station_id":"ce4bhk92rcd13ifvqgc0","pricing_plan_id":"cebpf4jnsgd1na2vs0mg"},{"bike_id":"608af552-2c0c-47ee-afc1-325b1d965497","system_id":"levelo_inurba_marseille","lat":43.23186,"lon":5.35559,"is_reserved":false,"is_disabled":false,"rental_uris":{"android":"levelo://app?vid=608af552-2c0c-47ee-afc1-325b1d965497","ios":"levelo://app?vid=608af552-2c0c-47ee-afc1-325b1d965497"},"vehicle_type_id":"4","last_reported":1753182606,"current_range_meters":20800,"station_id":"ce4bhu92rcd13ifvqi70","pricing_plan_id":"cebpf4jnsgd1na2vs0mg"},{"bike_id":"d70b0704-dccd-488f-b57c-42076c60bdc5","system_id":"levelo_inurba_marseille","lat":43.241692,"lon":5.363893,"is_reserved":false,"is_disabled":false,"rental_uris":{"android":"levelo://app?vid=d70b0704-dccd-488f-b57c-42076c60bdc5","ios":"levelo://app?vid=d70b0704-dccd-488f-b57c-42076c60bdc5"},"vehicle_type_id":"4","last_reported":1753182606,"current_range_meters":20800,"station_id":"cpo36qri1sfpv3e86is0","pricing_plan_id":"cebpf4jnsgd1na2vs0mg"},{"bike_id":"5d61b1ff-530d-43ff-9efa-ef3afa0cee92","system_id":"levelo_inurba_marseille","lat":43.212047,"lon":5.35094,"is_reserved":false,"is_disabled":false,"rental_uris":{"android":"levelo://app?vid=5d61b1ff-530d-43ff-9efa-ef3afa0cee92","ios":"levelo://app?vid=5d61b1ff-530d-43ff-9efa-ef3afa0cee92"},"vehicle_type_id":"4","last_reported":1753182606,"current_range_meters":20800,"station_id":"st_cvj6sg6p6f1abm77japg","pricing_plan_id":"cebpf4jnsgd1na2vs0mg"},{"bike_id":"f71084eb-f4f9-4a38-8a43-d9891fd056fc","system_id":"levelo_inurba_marseille","lat":43.25734,"lon":5.4108,"is_reserved":false,"is_disabled":false,"rental_uris":{"android":"levelo://app?vid=f71084eb-f4f9-4a38-8a43-d9891fd056fc","ios":"levelo://app?vid=f71084eb-f4f9-4a38-8a43-d9891fd056fc"},"vehicle_type_id":"4","last_reported":1753182606,"current_range_meters":20800,"station_id":"ce4bhkp2rcd13ifvqgd0","pricing_plan_id":"cebpf4jnsgd1na2vs0mg"},{"bike_id":"4e60112d-0cb6-4d65-b1c1-ae445663dc82","system_id":"levelo_inurba_marseille","lat":43.23197,"lon":5.35563,"is_reserved":false,"is_disabled":false,"rental_uris":{"android":"levelo://app?vid=4e60112d-0cb6-4d65-b1c1-ae445663dc82","ios":"levelo://app?vid=4e60112d-0cb6-4d65-b1c1-ae445663dc82"},"vehicle_type_id":"4","last_reported":1753182606,"current_range_meters":21600,"station_id":"ce4bhu92rcd13ifvqi70","pricing_plan_id":"cebpf4jnsgd1na2vs0mg"},{"bike_id":"34a08318-b2e9-441b-8de4-fa1a4efefe24","system_id":"levelo_inurba_marseille","lat":43.286689,"lon":5.386663,"is_reserved":false,"is_disabled":true,"rental_uris":{"android":"levelo://app?vid=34a08318-b2e9-441b-8de4-fa1a4efefe24","ios":"levelo://app?vid=34a08318-b2e9-441b-8de4-fa1a4efefe24"},"vehicle_type_id":"4","last_reported":1753182606,"current_range_meters":21600,"station_id":"ce4bh492rcd13ifvqdug","pricing_plan_id":"cebpf4jnsgd1na2vs0mg"},{"bike_id":"5d3d50fb-4563-472d-9851-40c589936c62","system_id":"levelo_inurba_marseille","lat":43.28426,"lon":5.35,"is_reserved":false,"is_disabled":false,"rental_uris":{"android":"levelo://app?vid=5d3d50fb-4563-472d-9851-40c589936c62","ios":"levelo://app?vid=5d3d50fb-4563-472d-9851-40c589936c62"},"vehicle_type_id":"4","last_reported":1753182606,"current_range_meters":21600,"station_id":"ce4bhbh2rcd13ifvqepg","pricing_plan_id":"cebpf4jnsgd1na2vs0mg"},{"bike_id":"887294b3-d175-4a22-869a-5bbbdd96c881","system_id":"levelo_inurba_marseille","lat":43.25484,"lon":5.37649,"is_reserved":false,"is_disabled":false,"rental_uris":{"android":"levelo://app?vid=887294b3-d175-4a22-869a-5bbbdd96c881","ios":"levelo://app?vid=887294b3-d175-4a22-869a-5bbbdd96c881"},"vehicle_type_id":"4","last_reported":1753182606,"current_range_meters":21600,"station_id":"ce4bhh12rcd13ifvqff0","pricing_plan_id":"cebpf4jnsgd1na2vs0mg"},{"bike_id":"1ec24719-26ff-46c3-b693-a7aa77e94d47","system_id":"levelo_inurba_marseille","lat":43.28273,"lon":5.35065,"is_reserved":false,"is_disabled":false,"rental_uris":{"android":"levelo://app?vid=1ec24719-26ff-46c3-b693-a7aa77e94d47","ios":"levelo://app?vid=1ec24719-26ff-46c3-b693-a7aa77e94d47"},"vehicle_type_id":"4","last_reported":1753182606,"current_range_meters":21600,"station_id":"ce4bhbp2rcd13ifvqerg","pricing_plan_id":"cebpf4jnsgd1na2vs0mg"},{"bike_id":"e3f895f1-9d9e-4b9d-b0bd-844ebaa97f6f","system_id":"levelo_inurba_marseille","lat":43.31481,"lon":5.37252,"is_reserved":false,"is_disabled":false,"rental_uris":{"android":"levelo://app?vid=e3f895f1-9d9e-4b9d-b0bd-844ebaa97f6f","ios":"levelo://app?vid=e3f895f1-9d9e-4b9d-b0bd-844ebaa97f6f"},"vehicle_type_id":"4","last_reported":1753182606,"current_range_meters":21600,"station_id":"ce4bgt12rcd13ifvqcd0","pricing_plan_id":"cebpf4jnsgd1na2vs0mg"},{"bike_id":"7f78bac7-691e-431c-af2e-97451456a17b","system_id":"levelo_inurba_marseille","lat":43.28622,"lon":5.3511,"is_reserved":false,"is_disabled":false,"rental_uris":{"android":"levelo://app?vid=7f78bac7-691e-431c-af2e-97451456a17b","ios":"levelo://app?vid=7f78bac7-691e-431c-af2e-97451456a17b"},"vehicle_type_id":"4","last_reported":1753182606,"current_range_meters":21600,"station_id":"ce4bhch2rcd13ifvqeug","pricing_plan_id":"cebpf4jnsgd1na2vs0mg"},{"bike_id":"8bafc448-f784-41d3-bf9a-c237892bc6d5","system_id":"levelo_inurba_marseille","lat":43.25584,"lon":5.38232,"is_reserved":false,"is_disabled":false,"rental_uris":{"android":"levelo://app?vid=8bafc448-f784-41d3-bf9a-c237892bc6d5","ios":"levelo://app?vid=8bafc448-f784-41d3-bf9a-c237892bc6d5"},"vehicle_type_id":"4","last_reported":1753182606,"current_range_meters":20800,"station_id":"ce4bhih2rcd13ifvqfs0","pricing_plan_id":"cebpf4jnsgd1na2vs0mg"},{"bike_id":"47b9b5df-a6f8-4ca6-9059-ddcd4dbd859f","system_id":"levelo_inurba_marseille","lat":43.29966,"lon":5.36549,"is_reserved":false,"is_disabled":false,"rental_uris":{"android":"levelo://app?vid=47b9b5df-a6f8-4ca6-9059-ddcd4dbd859f","ios":"levelo://app?vid=47b9b5df-a6f8-4ca6-9059-ddcd4dbd859f"},"vehicle_type_id":"4","last_reported":1753182606,"current_range_meters":21600,"station_id":"ce4bgm92rcd13ifvqbr0","pricing_plan_id":"cebpf4jnsgd1na2vs0mg"},{"bike_id":"fcf79c8c-3c6e-4f22-9cad-a4e181134489","system_id":"levelo_inurba_marseille","lat":43.30542,"lon":5.36714,"is_reserved":false,"is_disabled":false,"rental_uris":{"android":"levelo://app?vid=fcf79c8c-3c6e-4f22-9cad-a4e181134489","ios":"levelo://app?vid=fcf79c8c-3c6e-4f22-9cad-a4e181134489"},"vehicle_type_id":"4","last_reported":1753182606,"current_range_meters":21600,"station_id":"ce4bgrp2rcd13ifvqc9g","pricing_plan_id":"cebpf4jnsgd1na2vs0mg"},{"bike_id":"39de1728-6a8f-448a-8239-4baab59eadd5","system_id":"levelo_inurba_marseille","lat":43.290758,"lon":5.371575,"is_reserved":false,"is_disabled":false,"rental_uris":{"android":"levelo://app?vid=39de1728-6a8f-448a-8239-4baab59eadd5","ios":"levelo://app?vid=39de1728-6a8f-448a-8239-4baab59eadd5"},"vehicle_type_id":"4","last_reported":1753182606,"current_range_meters":21600,"station_id":"ce4bhap2rcd13ifvqek0","pricing_plan_id":"cebpf4jnsgd1na2vs0mg"},{"bike_id":"2dad188f-ff52-4c29-a09a-6fd6d7860ba9","system_id":"levelo_inurba_marseille","lat":43.30591,"lon":5.39353,"is_reserved":false,"is_disabled":false,"rental_uris":{"android":"levelo://app?vid=2dad188f-ff52-4c29-a09a-6fd6d7860ba9","ios":"levelo://app?vid=2dad188f-ff52-4c29-a09a-6fd6d7860ba9"},"vehicle_type_id":"4","last_reported":1753182606,"current_range_meters":21600,"station_id":"ce4bh0p2rcd13ifvqd80","pricing_plan_id":"cebpf4jnsgd1na2vs0mg"},{"bike_id":"ea69fc86-66cd-4fb6-862e-3c62c7c76cde","system_id":"levelo_inurba_marseille","lat":43.24159,"lon":5.36448,"is_reserved":false,"is_disabled":false,"rental_uris":{"android":"levelo://app?vid=ea69fc86-66cd-4fb6-862e-3c62c7c76cde","ios":"levelo://app?vid=ea69fc86-66cd-4fb6-862e-3c62c7c76cde"},"vehicle_type_id":"4","last_reported":1753182606,"current_range_meters":21600,"station_id":"cpo36qri1sfpv3e86is0","pricing_plan_id":"cebpf4jnsgd1na2vs0mg"},{"bike_id":"e870de00-ca35-4299-83ec-f2d979f344c1","system_id":"levelo_inurba_marseille","lat":43.282615,"lon":5.350584,"is_reserved":false,"is_disabled":false,"rental_uris":{"android":"levelo://app?vid=e870de00-ca35-4299-83ec-f2d979f344c1","ios":"levelo://app?vid=e870de00-ca35-4299-83ec-f2d979f344c1"},"vehicle_type_id":"4","last_reported":1753182606,"current_range_meters":21600,"station_id":"ce4bhbp2rcd13ifvqerg","pricing_plan_id":"cebpf4jnsgd1na2vs0mg"},{"bike_id":"5c2188ff-1734-4846-b150-6f703eac995a","system_id":"levelo_inurba_marseille","lat":43.25003,"lon":5.3893,"is_reserved":false,"is_disabled":false,"rental_uris":{"android":"levelo://app?vid=5c2188ff-1734-4846-b150-6f703eac995a","ios":"levelo://app?vid=5c2188ff-1734-4846-b150-6f703eac995a"},"vehicle_type_id":"4","last_reported":1753182606,"current_range_meters":21600,"station_id":"ce4bhgp2rcd13ifvqfd0","pricing_plan_id":"cebpf4jnsgd1na2vs0mg"},{"bike_id":"b071195f-d6fe-41b2-9277-ed74dca0e2ca","system_id":"levelo_inurba_marseille","lat":43.30152,"lon":5.37409,"is_reserved":false,"is_disabled":false,"rental_uris":{"android":"levelo://app?vid=b071195f-d6fe-41b2-9277-ed74dca0e2ca","ios":"levelo://app?vid=b071195f-d6fe-41b2-9277-ed74dca0e2ca"},"vehicle_type_id":"4","last_reported":1753182606,"current_range_meters":21600,"station_id":"ce4bgs92rcd13ifvqcc0","pricing_plan_id":"cebpf4jnsgd1na2vs0mg"},{"bike_id":"78df537a-5498-4f3f-9a62-fda73dbe4731","system_id":"levelo_inurba_marseille","lat":43.2943,"lon":5.39745,"is_reserved":false,"is_disabled":false,"rental_uris":{"android":"levelo://app?vid=78df537a-5498-4f3f-9a62-fda73dbe4731","ios":"levelo://app?vid=78df537a-5498-4f3f-9a62-fda73dbe4731"},"vehicle_type_id":"4","last_reported":1753182606,"current_range_meters":22000,"station_id":"ce4bh3h2rcd13ifvqdo0","pricing_plan_id":"cebpf4jnsgd1na2vs0mg"},{"bike_id":"ff49295d-7780-46f6-b48d-be5a61c0f334","system_id":"levelo_inurba_marseille","lat":43.29169,"lon":5.37174,"is_reserved":false,"is_disabled":false,"rental_uris":{"android":"levelo://app?vid=ff49295d-7780-46f6-b48d-be5a61c0f334","ios":"levelo://app?vid=ff49295d-7780-46f6-b48d-be5a61c0f334"},"vehicle_type_id":"4","last_reported":1753182606,"current_range_meters":24800,"station_id":"ce4bha92rcd13ifvqeh0","pricing_plan_id":"cebpf4jnsgd1na2vs0mg"},{"bike_id":"8a33f080-f633-4c04-9b76-f19fcfcd68ea","system_id":"levelo_inurba_marseille","lat":43.30889,"lon":5.39661,"is_reserved":false,"is_disabled":false,"rental_uris":{"android":"levelo://app?vid=8a33f080-f633-4c04-9b76-f19fcfcd68ea","ios":"levelo://app?vid=8a33f080-f633-4c04-9b76-f19fcfcd68ea"},"vehicle_type_id":"4","last_reported":1753182606,"current_range_meters":21600,"station_id":"ce4bh012rcd13ifvqcv0","pricing_plan_id":"cebpf4jnsgd1na2vs0mg"},{"bike_id":"054a0695-1a7c-4d33-9e52-6083ff9039c1","system_id":"levelo_inurba_marseille","lat":43.24671,"lon":5.38195,"is_reserved":false,"is_disabled":false,"rental_uris":{"android":"levelo://app?vid=054a0695-1a7c-4d33-9e52-6083ff9039c1","ios":"levelo://app?vid=054a0695-1a7c-4d33-9e52-6083ff9039c1"},"vehicle_type_id":"4","last_reported":1753182606,"current_range_meters":22400,"station_id":"ce4bhih2rcd13ifvqfr0","pricing_plan_id":"cebpf4jnsgd1na2vs0mg"},{"bike_id":"a2fc5150-2d2c-4f85-a189-d6d44ff4ee42","system_id":"levelo_inurba_marseille","lat":43.303751,"lon":5.424829,"is_reserved":false,"is_disabled":false,"rental_uris":{"android":"levelo://app?vid=a2fc5150-2d2c-4f85-a189-d6d44ff4ee42","ios":"levelo://app?vid=a2fc5150-2d2c-4f85-a189-d6d44ff4ee42"},"vehicle_type_id":"4","last_reported":1753182606,"current_range_meters":22400,"station_id":"ce4bhoh2rcd13ifvqh6g","pricing_plan_id":"cebpf4jnsgd1na2vs0mg"},{"bike_id":"e93cab78-355f-4a9d-b1d8-d43c0cae8299","system_id":"levelo_inurba_marseille","lat":43.22923,"lon":5.3538,"is_reserved":false,"is_disabled":false,"rental_uris":{"android":"levelo://app?vid=e93cab78-355f-4a9d-b1d8-d43c0cae8299","ios":"levelo://app?vid=e93cab78-355f-4a9d-b1d8-d43c0cae8299"},"vehicle_type_id":"4","last_reported":1753182606,"current_range_meters":22400,"station_id":"cpo3532slgdg3j2ikp40","pricing_plan_id":"cebpf4jnsgd1na2vs0mg"},{"bike_id":"07a3dc92-cd98-4c98-9eb1-f34d75081a05","system_id":"levelo_inurba_marseille","lat":43.28702,"lon":5.37398,"is_reserved":false,"is_disabled":false,"rental_uris":{"android":"levelo://app?vid=07a3dc92-cd98-4c98-9eb1-f34d75081a05","ios":"levelo://app?vid=07a3dc92-cd98-4c98-9eb1-f34d75081a05"},"vehicle_type_id":"4","last_reported":1753182606,"current_range_meters":22400,"station_id":"ce4bh3p2rcd13ifvqdq0","pricing_plan_id":"cebpf4jnsgd1na2vs0mg"},{"bike_id":"a5dcb760-4fd6-4979-9e79-640b05cd29f7","system_id":"levelo_inurba_marseille","lat":43.302758,"lon":5.381938,"is_reserved":false,"is_disabled":false,"rental_uris":{"android":"levelo://app?vid=a5dcb760-4fd6-4979-9e79-640b05cd29f7","ios":"levelo://app?vid=a5dcb760-4fd6-4979-9e79-640b05cd29f7"},"vehicle_type_id":"4","last_reported":1753182606,"current_range_meters":22400,"station_id":"ce4bgh92rcd13ifvqb50","pricing_plan_id":"cebpf4jnsgd1na2vs0mg"},{"bike_id":"5a06512c-6fcf-4e96-b295-c62d5ce91983","system_id":"levelo_inurba_marseille","lat":43.27925,"lon":5.38022,"is_reserved":false,"is_disabled":false,"rental_uris":{"android":"levelo://app?vid=5a06512c-6fcf-4e96-b295-c62d5ce91983","ios":"levelo://app?vid=5a06512c-6fcf-4e96-b295-c62d5ce91983"},"vehicle_type_id":"4","last_reported":1753182606,"current_range_meters":22800,"station_id":"ce4bhf92rcd13ifvqf50","pricing_plan_id":"cebpf4jnsgd1na2vs0mg"},{"bike_id":"d2a9e7b3-2333-471a-b191-43391a3ecb29","system_id":"levelo_inurba_marseille","lat":43.29979,"lon":5.37175,"is_reserved":false,"is_disabled":false,"rental_uris":{"android":"levelo://app?vid=d2a9e7b3-2333-471a-b191-43391a3ecb29","ios":"levelo://app?vid=d2a9e7b3-2333-471a-b191-43391a3ecb29"},