{"last_updated":1687018043,"ttl":30,"version":"2.2","data":{"bikes":[{"bike_id":"203b710d-2757-447a-9117-e8ccf0c3a994","system_id":"levelo_inurba_marseille","lat":43.31341,"lon":5.367098,"is_reserved":false,"is_disabled":false,"rental_uris":{"android":"levelo://app?vid=203b710d-2757-447a-9117-e8ccf0c3a994","ios":"levelo://app?vid=203b710d-2757-447a-9117-e8ccf0c3a994"},"vehicle_type_id":"4","last_reported":1687018044,"current_range_meters":19600,"station_id":"ce4bgr92rcd13ifvqc6g","pricing_plan_id":"free"},{"bike_id":"00027628-3511-43c5-b38d-33997e779709","system_id":"levelo_inurba_marseille","lat":43.312239,"lon":5.368562,"is_reserved":false,"is_disabled":false,"rental_uris":{"android":"levelo://app?vid=00027628-3511-43c5-b38d-33997e779709","ios":"levelo://app?vid=00027628-3511-43c5-b38d-33997e779709"},"vehicle_type_id":"4","last_reported":1687018044,"current_range_meters":28800,"station_id":"ce4bgl92rcd13ifvqbq0","pricing_plan_id":"free"},{"bike_id":"fcd10370-109e-4f08-aa59-e44462e9e4b5","system_id":"levelo_inurba_marseille","lat":43.312239,"lon":5.368562,"is_reserved":false,"is_disabled":false,"rental_uris":{"android":"levelo://app?vid=fcd10370-109e-4f08-aa59-e44462e9e4b5","ios":"levelo://app?vid=fcd10370-109e-4f08-aa59-e44462e9e4b5"},"vehicle_type_id":"4","last_reported":1687018044,"current_range_meters":10400,"station_id":"ce4bgl92rcd13ifvqbq0","pricing_plan_id":"free"},{"bike_id":"9c746439-937e-436d-8c66-cb90c42aae7f","system_id":"levelo_inurba_marseille","lat":43.31478,"lon":5.37408,"is_reserved":false,"is_disabled":false,"rental_uris":{"android":"levelo://app?vid=9c746439-937e-436d-8c66-cb90c42aae7f","ios":"levelo://app?vid=9c746439-937e-436d-8c66-cb90c42aae7f"},"vehicle_type_id":"4","last_reported":1687018044,"current_range_meters":29600,"station_id":"","pricing_plan_id":"free"},{"bike_id":"bfa798af-8507-4ca1-93b2-d8a4b7914be6","system_id":"levelo_inurba_marseille","lat":43.305368,"lon":5.367343,"is_reserved":false,"is_disabled":false,"rental_uris":{"android":"levelo://app?vid=bfa798af-8507-4ca1-93b2-d8a4b7914be6","ios":"levelo://app?vid=bfa798af-8507-4ca1-93b2-d8a4b7914be6"},"vehicle_type_id":"4","last_reported":1687018044,"current_range_meters":1200,"station_id":"ce4bgrp2rcd13ifvqc9g","pricing_plan_id":"free"},{"bike_id":"aeb7ef28-2c75-41d5-8c2b-fa4adb4e6911","system_id":"levelo_inurba_marseille","lat":43.30605,"lon":5.37225,"is_reserved":false,"is_disabled":false,"rental_uris":{"android":"levelo://app?vid=aeb7ef28-2c75-41d5-8c2b-fa4adb4e6911","ios":"levelo://app?vid=aeb7ef28-2c75-41d5-8c2b-fa4adb4e6911"},"vehicle_type_id":"4","last_reported":1687018044,"current_range_meters":21200,"station_id":"ce4bgqh2rcd13ifvqc4g","pricing_plan_id":"free"},{"bike_id":"aa8a243a-9d17-42b4-9cce-69baefa09dc8","system_id":"levelo_inurba_marseille","lat":43.30599,"lon":5.3722,"is_reserved":false,"is_disabled":false,"rental_uris":{"android":"levelo://app?vid=aa8a243a-9d17-42b4-9cce-69baefa09dc8","ios":"levelo://app?vid=aa8a243a-9d17-42b4-9cce-69baefa09dc8"},"vehicle_type_id":"4","last_reported":1687018044,"current_range_meters":0,"station_id":"ce4bgqh2rcd13ifvqc4g","pricing_plan_id":"free"},{"bike_id":"6a086886-710f-4c74-b3a7-10d0aaeed5c1","system_id":"levelo_inurba_marseille","lat":43.305989,"lon":5.37225,"is_reserved":false,"is_disabled":false,"rental_uris":{"android":"levelo://app?vid=6a086886-710f-4c74-b3a7-10d0aaeed5c1","ios":"levelo://app?vid=6a086886-710f-4c74-b3a7-10d0aaeed5c1"},"vehicle_type_id":"4","last_reported":1687018044,"current_range_meters":7600,"station_id":"ce4bgqh2rcd13ifvqc4g","pricing_plan_id":"free"},{"bike_id":"2424216c-0462-4ad0-b127-d0366c91b61c","system_id":"levelo_inurba_marseille","lat":43.31703,"lon":5.37728,"is_reserved":false,"is_disabled":false,"rental_uris":{"android":"levelo://app?vid=2424216c-0462-4ad0-b127-d0366c91b61c","ios":"levelo://app?vid=2424216c-0462-4ad0-b127-d0366c91b61c"},"vehicle_type_id":"4","last_reported":1687018044,"current_range_meters":31200,"station_id":"ce4bgth2rcd13ifvqch0","pricing_plan_id":"free"},{"bike_id":"ae33307b-fcd5-479b-9ae1-9002ed226c6e","system_id":"levelo_inurba_marseille","lat":43.30798,"lon":5.38153,"is_reserved":false,"is_disabled":false,"rental_uris":{"android":"levelo://app?vid=ae33307b-fcd5-479b-9ae1-9002ed226c6e","ios":"levelo://app?vid=ae33307b-fcd5-479b-9ae1-9002ed226c6e"},"vehicle_type_id":"4","last_reported":1687018044,"current_range_meters":9200,"station_id":"ce4bgt12rcd13ifvqce0","pricing_plan_id":"free"},{"bike_id":"43fc693e-f2a9-4aec-8fd9-d094bb02cb70","system_id":"levelo_inurba_marseille","lat":43.304606,"lon":5.379026,"is_reserved":false,"is_disabled":false,"rental_uris":{"android":"levelo://app?vid=43fc693e-f2a9-4aec-8fd9-d094bb02cb70","ios":"levelo://app?vid=43fc693e-f2a9-4aec-8fd9-d094bb02cb70"},"vehicle_type_id":"4","last_reported":1687018044,"current_range_meters":20800,"station_id":"ce4bgup2rcd13ifvqcn0","pricing_plan_id":"free"},{"bike_id":"5003c2fa-8578-4b5b-aee0-bf9c6a52e3f5","system_id":"levelo_inurba_marseille","lat":43.31998,"lon":5.38152,"is_reserved":false,"is_disabled":false,"rental_uris":{"android":"levelo://app?vid=5003c2fa-8578-4b5b-aee0-bf9c6a52e3f5","ios":"levelo://app?vid=5003c2fa-8578-4b5b-aee0-bf9c6a52e3f5"},"vehicle_type_id":"4","last_reported":1687018044,"current_range_meters":0,"station_id":"ce4bhr12rcd13ifvqhpg","pricing_plan_id":"free"},{"bike_id":"330412da-b9eb-49fa-9ba0-9288ee9ddd31","system_id":"levelo_inurba_marseille","lat":43.30047,"lon":5.37512,"is_reserved":false,"is_disabled":false,"rental_uris":{"android":"levelo://app?vid=330412da-b9eb-49fa-9ba0-9288ee9ddd31","ios":"levelo://app?vid=330412da-b9eb-49fa-9ba0-9288ee9ddd31"},"vehicle_type_id":"4","last_reported":1687018044,"current_range_meters":18800,"station_id":"","pricing_plan_id":"free"},{"bike_id":"f2540b04-dd2b-4239-8988-408617033618","system_id":"levelo_inurba_marseille","lat":43.31156,"lon":5.38715,"is_reserved":false,"is_disabled":false,"rental_uris":{"android":"levelo://app?vid=f2540b04-dd2b-4239-8988-408617033618","ios":"levelo://app?vid=f2540b04-dd2b-4239-8988-408617033618"},"vehicle_type_id":"4","last_reported":1687018044,"current_range_meters":19600,"station_id":"ce4bgv12rcd13ifvqcp0","pricing_plan_id":"free"},{"bike_id":"4bf53da7-5b2e-4feb-ad64-d834c27b533d","system_id":"levelo_inurba_marseille","lat":43.32823,"lon":5.3669,"is_reserved":false,"is_disabled":false,"rental_uris":{"android":"levelo://app?vid=4bf53da7-5b2e-4feb-ad64-d834c27b533d","ios":"levelo://app?vid=4bf53da7-5b2e-4feb-ad64-d834c27b533d"},"vehicle_type_id":"4","last_reported":1687018044,"current_range_meters":25600,"station_id":"ce4bhs92rcd13ifvqi0g","pricing_plan_id":"free"},{"bike_id":"6d12bf08-ef93-4cae-ab6e-6233437e9a82","system_id":"levelo_inurba_marseille","lat":43.32824,"lon":5.36668,"is_reserved":false,"is_disabled":false,"rental_uris":{"android":"levelo://app?vid=6d12bf08-ef93-4cae-ab6e-6233437e9a82","ios":"levelo://app?vid=6d12bf08-ef93-4cae-ab6e-6233437e9a82"},"vehicle_type_id":"4","last_reported":1687018044,"current_range_meters":18800,"station_id":"ce4bhs92rcd13ifvqi0g","pricing_plan_id":"free"},{"bike_id":"950915b5-629a-4eab-80e0-866902263e48","system_id":"levelo_inurba_marseille","lat":43.328371,"lon":5.366909,"is_reserved":false,"is_disabled":false,"rental_uris":{"android":"levelo://app?vid=950915b5-629a-4eab-80e0-866902263e48","ios":"levelo://app?vid=950915b5-629a-4eab-80e0-866902263e48"},"vehicle_type_id":"4","last_reported":1687018044,"current_range_meters":2800,"station_id":"ce4bhs92rcd13ifvqi0g","pricing_plan_id":"free"},{"bike_id":"4bb85f49-7f9a-477c-abaa-23a093d581e6","system_id":"levelo_inurba_marseille","lat":43.32829,"lon":5.36669,"is_reserved":false,"is_disabled":false,"rental_uris":{"android":"levelo://app?vid=4bb85f49-7f9a-477c-abaa-23a093d581e6","ios":"levelo://app?vid=4bb85f49-7f9a-477c-abaa-23a093d581e6"},"vehicle_type_id":"4","last_reported":1687018044,"current_range_meters":19600,"station_id":"ce4bhs92rcd13ifvqi0g","pricing_plan_id":"free"},{"bike_id":"fff7b085-c067-46e9-be20-a6a503644ad6","system_id":"levelo_inurba_marseille","lat":43.328371,"lon":5.366909,"is_reserved":false,"is_disabled":false,"rental_uris":{"android":"levelo://app?vid=fff7b085-c067-46e9-be20-a6a503644ad6","ios":"levelo://app?vid=fff7b085-c067-46e9-be20-a6a503644ad6"},"vehicle_type_id":"4","last_reported":1687018044,"current_range_meters":24400,"station_id":"ce4bhs92rcd13ifvqi0g","pricing_plan_id":"free"},{"bike_id":"176f4894-d7fc-460e-aa5d-7c8c1e206dc3","system_id":"levelo_inurba_marseille","lat":43.297163,"lon":5.365866,"is_reserved":false,"is_disabled":false,"rental_uris":{"android":"levelo://app?vid=176f4894-d7fc-460e-aa5d-7c8c1e206dc3","ios":"levelo://app?vid=176f4894-d7fc-460e-aa5d-7c8c1e206dc3"},"vehicle_type_id":"4","last_reported":1687018044,"current_range_meters":15200,"station_id":"ce4bgn12rcd13ifvqbt0","pricing_plan_id":"free"},{"bike_id":"e25bbacf-225c-4f1a-a2b1-8f9c37a7c29f","system_id":"levelo_inurba_marseille","lat":43.29783,"lon":5.37369,"is_reserved":false,"is_disabled":false,"rental_uris":{"android":"levelo://app?vid=e25bbacf-225c-4f1a-a2b1-8f9c37a7c29f","ios":"levelo://app?vid=e25bbacf-225c-4f1a-a2b1-8f9c37a7c29f"},"vehicle_type_id":"4","last_reported":1687018044,"current_range_meters":12000,"station_id":"ce4bgkh2rcd13ifvqbl0","pricing_plan_id":"free"},{"bike_id":"0851357a-94e1-4cf6-ad37-5a7a49d00988","system_id":"levelo_inurba_marseille","lat":43.32838,"lon":5.362,"is_reserved":false,"is_disabled":false,"rental_uris":{"android":"levelo://app?vid=0851357a-94e1-4cf6-ad37-5a7a49d00988","ios":"levelo://app?vid=0851357a-94e1-4cf6-ad37-5a7a49d00988"},"vehicle_type_id":"4","last_reported":1687018044,"current_range_meters":31200,"station_id":"","pricing_plan_id":"free"},{"bike_id":"7eb6c856-0109-4dc4-a79a-a1b8ed9b3cc6","system_id":"levelo_inurba_marseille","lat":43.297794,"lon":5.370888,"is_reserved":false,"is_disabled":false,"rental_uris":{"android":"levelo://app?vid=7eb6c856-0109-4dc4-a79a-a1b8ed9b3cc6","ios":"levelo://app?vid=7eb6c856-0109-4dc4-a79a-a1b8ed9b3cc6"},"vehicle_type_id":"4","last_reported":1687018044,"current_range_meters":7600,"station_id":"ce4bgop2rcd13ifvqc1g","pricing_plan_id":"free"},{"bike_id":"88d0330c-5bb0-4a19-9b65-d4683b42e015","system_id":"levelo_inurba_marseille","lat":43.29683,"lon":5.36046,"is_reserved":false,"is_disabled":false,"rental_uris":{"android":"levelo://app?vid=88d0330c-5bb0-4a19-9b65-d4683b42e015","ios":"levelo://app?vid=88d0330c-5bb0-4a19-9b65-d4683b42e015"},"vehicle_type_id":"4","last_reported":1687018044,"current_range_meters":6000,"station_id":"ce4bgpp2rcd13ifvqc3g","pricing_plan_id":"free"},{"bike_id":"24f41ca5-b432-4feb-a0c8-a15026b97306","system_id":"levelo_inurba_marseille","lat":43.296131,"lon":5.370773,"is_reserved":false,"is_disabled":false,"rental_uris":{"android":"levelo://app?vid=24f41ca5-b432-4feb-a0c8-a15026b97306","ios":"levelo://app?vid=24f41ca5-b432-4feb-a0c8-a15026b97306"},"vehicle_type_id":"4","last_reported":1687018044,"current_range_meters":15600,"station_id":"ce4bgnh2rcd13ifvqc0g","pricing_plan_id":"free"},{"bike_id":"981d3431-4a69-4b35-92f6-185d68d8c64b","system_id":"levelo_inurba_marseille","lat":43.317557,"lon":5.390173,"is_reserved":false,"is_disabled":false,"rental_uris":{"android":"levelo://app?vid=981d3431-4a69-4b35-92f6-185d68d8c64b","ios":"levelo://app?vid=981d3431-4a69-4b35-92f6-185d68d8c64b"},"vehicle_type_id":"4","last_reported":1687018044,"current_range_meters":13200,"station_id":"ce4bhqp2rcd13ifvqhng","pricing_plan_id":"free"},{"bike_id":"593dd0a1-e73b-4f81-947f-ede79229c3fc","system_id":"levelo_inurba_marseille","lat":43.29575,"lon":5.37513,"is_reserved":false,"is_disabled":false,"rental_uris":{"android":"levelo://app?vid=593dd0a1-e73b-4f81-947f-ede79229c3fc","ios":"levelo://app?vid=593dd0a1-e73b-4f81-947f-ede79229c3fc"},"vehicle_type_id":"4","last_reported":1687018044,"current_range_meters":0,"station_id":"ce4bgh92rcd13ifvqb50","pricing_plan_id":"free"},{"bike_id":"250c8a96-8498-4211-b8f3-1b00a8d1fbaf","system_id":"levelo_inurba_marseille","lat":43.296477,"lon":5.37768,"is_reserved":false,"is_disabled":false,"rental_uris":{"android":"levelo://app?vid=250c8a96-8498-4211-b8f3-1b00a8d1fbaf","ios":"levelo://app?vid=250c8a96-8498-4211-b8f3-1b00a8d1fbaf"},"vehicle_type_id":"4","last_reported":1687018044,"current_range_meters":16000,"station_id":"","pricing_plan_id":"free"},{"bike_id":"08014039-be2d-4c51-a378-c54df81a07ba","system_id":"levelo_inurba_marseille","lat":43.295748,"lon":5.37522,"is_reserved":false,"is_disabled":false,"rental_uris":{"android":"levelo://app?vid=08014039-be2d-4c51-a378-c54df81a07ba","ios":"levelo://app?vid=08014039-be2d-4c51-a378-c54df81a07ba"},"vehicle_type_id":"4","last_reported":1687018044,"current_range_meters":3600,"station_id":"ce4bgh92rcd13ifvqb50","pricing_plan_id":"free"},{"bike_id":"eb56f040-d7e3-440c-9d05-82afe187dd21","system_id":"levelo_inurba_marseille","lat":43.299717,"lon":5.384845,"is_reserved":false,"is_disabled":false,"rental_uris":{"android":"levelo://app?vid=eb56f040-d7e3-440c-9d05-82afe187dd21","ios":"levelo://app?vid=eb56f040-d7e3-440c-9d05-82afe187dd21"},"vehicle_type_id":"4","last_reported":1687018044,"current_range_meters":30800,"station_id":"ce4bgj92rcd13ifvqbd0","pricing_plan_id":"free"},{"bike_id":"2c9ad911-25e0-4222-8751-d809dfadd582","system_id":"levelo_inurba_marseille","lat":43.32367,"lon":5.388836,"is_reserved":false,"is_disabled":false,"rental_uris":{"android":"levelo://app?vid=2c9ad911-25e0-4222-8751-d809dfadd582","ios":"levelo://app?vid=2c9ad911-25e0-4222-8751-d809dfadd582"},"vehicle_type_id":"4","last_reported":1687018044,"current_range_meters":25200,"station_id":"ce4bhqp2rcd13ifvqhog","pricing_plan_id":"free"},{"bike_id":"d7a7109e-183d-486b-8598-d73019388730","system_id":"levelo_inurba_marseille","lat":43.29601,"lon":5.381084,"is_reserved":false,"is_disabled":false,"rental_uris":{"android":"levelo://app?vid=d7a7109e-183d-486b-8598-d73019388730","ios":"levelo://app?vid=d7a7109e-183d-486b-8598-d73019388730"},"vehicle_type_id":"4","last_reported":1687018044,"current_range_meters":12800,"station_id":"ce4bgl12rcd13ifvqbo0","pricing_plan_id":"free"},{"bike_id":"207b90f4-4339-4c99-b127-f5dd51bf7282","system_id":"levelo_inurba_marseille","lat":43.293259,"lon":5.371586,"is_reserved":false,"is_disabled":false,"rental_uris":{"android":"levelo://app?vid=207b90f4-4339-4c99-b127-f5dd51bf7282","ios":"levelo://app?vid=207b90f4-4339-4c99-b127-f5dd51bf7282"},"vehicle_type_id":"4","last_reported":1687018044,"current_range_meters":4000,"station_id":"ce4bgh92rcd13ifvqb40","pricing_plan_id":"free"},{"bike_id":"15b664e4-50e9-4f1f-9476-39d64e8a2a9a","system_id":"levelo_inurba_marseille","lat":43.292749,"lon":5.368402,"is_reserved":false,"is_disabled":false,"rental_uris":{"android":"levelo://app?vid=15b664e4-50e9-4f1f-9476-39d64e8a2a9a","ios":"levelo://app?vid=15b664e4-50e9-4f1f-9476-39d64e8a2a9a"},"vehicle_type_id":"4","last_reported":1687018044,"current_range_meters":12800,"station_id":"ce4bhbp2rcd13ifvqesg","pricing_plan_id":"free"},{"bike_id":"19830262-b022-4ec0-a4f2-bb3c52867a0b","system_id":"levelo_inurba_marseille","lat":43.33068,"lon":5.3791,"is_reserved":false,"is_disabled":false,"rental_uris":{"android":"levelo://app?vid=19830262-b022-4ec0-a4f2-bb3c52867a0b","ios":"levelo://app?vid=19830262-b022-4ec0-a4f2-bb3c52867a0b"},"vehicle_type_id":"4","last_reported":1687018044,"current_range_meters":22800,"station_id":"","pricing_plan_id":"free"},{"bike_id":"5237f1ee-e989-401e-a247-03b233aa6f53","system_id":"levelo_inurba_marseille","lat":43.29269,"lon":5.36846,"is_reserved":false,"is_disabled":false,"rental_uris":{"android":"levelo://app?vid=5237f1ee-e989-401e-a247-03b233aa6f53","ios":"levelo://app?vid=5237f1ee-e989-401e-a247-03b233aa6f53"},"vehicle_type_id":"4","last_reported":1687018044,"current_range_meters":7200,"station_id":"ce4bhbp2rcd13ifvqesg","pricing_plan_id":"free"},{"bike_id":"fa80159b-3703-4f12-a7c5-9704faae80d7","system_id":"levelo_inurba_marseille","lat":43.293009,"lon":5.374584,"is_reserved":false,"is_disabled":false,"rental_uris":{"android":"levelo://app?vid=fa80159b-3703-4f12-a7c5-9704faae80d7","ios":"levelo://app?vid=fa80159b-3703-4f12-a7c5-9704faae80d7"},"vehicle_type_id":"4","last_reported":1687018044,"current_range_meters":0,"station_id":"ce4bgi12rcd13ifvqb70","pricing_plan_id":"free"},{"bike_id":"1e4637b8-d4fd-488a-97e8-a7bcb42e022b","system_id":"levelo_inurba_marseille","lat":43.28039,"lon":5.369297,"is_reserved":false,"is_disabled":false,"rental_uris":{"android":"levelo://app?vid=1e4637b8-d4fd-488a-97e8-a7bcb42e022b","ios":"levelo://app?vid=1e4637b8-d4fd-488a-97e8-a7bcb42e022b"},"vehicle_type_id":"4","last_reported":1687018044,"current_range_meters":20800,"station_id":"ce4bha12rcd13ifvqef0","pricing_plan_id":"free"},{"bike_id":"47d607b5-4faa-4cfb-9afe-a12323c134ac","system_id":"levelo_inurba_marseille","lat":43.30308,"lon":5.39214,"is_reserved":false,"is_disabled":false,"rental_uris":{"android":"levelo://app?vid=47d607b5-4faa-4cfb-9afe-a12323c134ac","ios":"levelo://app?vid=47d607b5-4faa-4cfb-9afe-a12323c134ac"},"vehicle_type_id":"4","last_reported":1687018044,"current_range_meters":12000,"station_id":"ce4bgkh2rcd13ifvqbk0","pricing_plan_id":"free"},{"bike_id":"1d59d25b-c92f-48a1-92b5-e27b241332e0","system_id":"levelo_inurba_marseille","lat":43.2936,"lon":5.37835,"is_reserved":false,"is_disabled":false,"rental_uris":{"android":"levelo://app?vid=1d59d25b-c92f-48a1-92b5-e27b241332e0","ios":"levelo://app?vid=1d59d25b-c92f-48a1-92b5-e27b241332e0"},"vehicle_type_id":"4","last_reported":1687018044,"current_range_meters":0,"station_id":"ce4bgjh2rcd13ifvqbf0","pricing_plan_id":"free"},{"bike_id":"70f6b42e-d697-4809-86a0-c2815e068c2f","system_id":"levelo_inurba_marseille","lat":43.30181,"lon":5.39186,"is_reserved":false,"is_disabled":false,"rental_uris":{"android":"levelo://app?vid=70f6b42e-d697-4809-86a0-c2815e068c2f","ios":"levelo://app?vid=70f6b42e-d697-4809-86a0-c2815e068c2f"},"vehicle_type_id":"4","last_reported":1687018044,"current_range_meters":7200,"station_id":"","pricing_plan_id":"free"},{"bike_id":"c9efe8fc-bb84-4499-a4df-e6c7136f8911","system_id":"levelo_inurba_marseille","lat":43.289468,"lon":5.363719,"is_reserved":false,"is_disabled":false,"rental_uris":{"android":"levelo://app?vid=c9efe8fc-bb84-4499-a4df-e6c7136f8911","ios":"levelo://app?vid=c9efe8fc-bb84-4499-a4df-e6c7136f8911"},"vehicle_type_id":"4","last_reported":1687018044,"current_range_meters":0,"station_id":"ce4bhc92rcd13ifvqetg","pricing_plan_id":"free"},{"bike_id":"cc1babcf-f434-4709-91cc-964d40b16111","system_id":"levelo_inurba_marseille","lat":43.289184,"lon":5.366408,"is_reserved":false,"is_disabled":false,"rental_uris":{"android":"levelo://app?vid=cc1babcf-f434-4709-91cc-964d40b16111","ios":"levelo://app?vid=cc1babcf-f434-4709-91cc-964d40b16111"},"vehicle_type_id":"4","last_reported":1687018044,"current_range_meters":18400,"station_id":"ce4bhap2rcd13ifvqek0","pricing_plan_id":"free"},{"bike_id":"38eb09af-7166-42b9-865e-84246929498f","system_id":"levelo_inurba_marseille","lat":43.292642,"lon":5.384254,"is_reserved":false,"is_disabled":false,"rental_uris":{"android":"levelo://app?vid=38eb09af-7166-42b9-865e-84246929498f","ios":"levelo://app?vid=38eb09af-7166-42b9-865e-84246929498f"},"vehicle_type_id":"4","last_reported":1687018044,"current_range_meters":31200,"station_id":"ce4bh692rcd13ifvqea0","pricing_plan_id":"free"},{"bike_id":"46ac3141-c2ca-4977-8cb7-721ce6eefd65","system_id":"levelo_inurba_marseille","lat":43.290104,"lon":5.356111,"is_reserved":false,"is_disabled":false,"rental_uris":{"android":"levelo://app?vid=46ac3141-c2ca-4977-8cb7-721ce6eefd65","ios":"levelo://app?vid=46ac3141-c2ca-4977-8cb7-721ce6eefd65"},"vehicle_type_id":"4","last_reported":1687018044,"current_range_meters":18000,"station_id":"ce4bhb92rcd13ifvqen0","pricing_plan_id":"free"},{"bike_id":"52f66215-37fc-4e82-9f74-f312187db84e","system_id":"levelo_inurba_marseille","lat":43.29005,"lon":5.35616,"is_reserved":false,"is_disabled":false,"rental_uris":{"android":"levelo://app?vid=52f66215-37fc-4e82-9f74-f312187db84e","ios":"levelo://app?vid=52f66215-37fc-4e82-9f74-f312187db84e"},"vehicle_type_id":"4","last_reported":1687018044,"current_range_meters":0,"station_id":"ce4bhb92rcd13ifvqen0","pricing_plan_id":"free"},{"bike_id":"4758abc1-c8ff-49d3-a055-7e82556e8092","system_id":"levelo_inurba_marseille","lat":43.29098,"lon":5.38128,"is_reserved":false,"is_disabled":false,"rental_uris":{"android":"levelo://app?vid=4758abc1-c8ff-49d3-a055-7e82556e8092","ios":"levelo://app?vid=4758abc1-c8ff-49d3-a055-7e82556e8092"},"vehicle_type_id":"4","last_reported":1687018044,"current_range_meters":11200,"station_id":"ce4bh512rcd13ifvqe2g","pricing_plan_id":"free"},{"bike_id":"a0f03a78-2082-4760-9ff7-03508ad411a0","system_id":"levelo_inurba_marseille","lat":43.297815,"lon":5.393548,"is_reserved":false,"is_disabled":false,"rental_uris":{"android":"levelo://app?vid=a0f03a78-2082-4760-9ff7-03508ad411a0","ios":"levelo://app?vid=a0f03a78-2082-4760-9ff7-03508ad411a0"},"vehicle_type_id":"4","last_reported":1687018044,"current_range_meters":8000,"station_id":"chh1huq6cuj3fo74tm60","pricing_plan_id":"free"},{"bike_id":"b9b44b37-7edf-4ab6-8685-17eb58a26dbc","system_id":"levelo_inurba_marseille","lat":43.295169,"lon":5.390426,"is_reserved":false,"is_disabled":false,"rental_uris":{"android":"levelo://app?vid=b9b44b37-7edf-4ab6-8685-17eb58a26dbc","ios":"levelo://app?vid=b9b44b37-7edf-4ab6-8685-17eb58a26dbc"},"vehicle_type_id":"4","last_reported":1687018044,"current_range_meters":29600,"station_id":"ce4bh3p2rcd13ifvqdp0","pricing_plan_id":"free"},{"bike_id":"6627da1e-4aef-4612-b519-c8ba7a01cbdd","system_id":"levelo_inurba_marseille","lat":43.2901,"lon":5.381269,"is_reserved":false,"is_disabled":false,"rental_uris":{"android":"levelo://app?vid=6627da1e-4aef-4612-b519-c8ba7a01cbdd","ios":"levelo://app?vid=6627da1e-4aef-4612-b519-c8ba7a01cbdd"},"vehicle_type_id":"4","last_reported":1687018044,"current_range_meters":15600,"station_id":"ce4bh4p2rcd13ifvqe1g","pricing_plan_id":"free"},{"bike_id":"c0fb8083-e02d-4dec-b1b9-fa095e6c5b75","system_id":"levelo_inurba_marseille","lat":43.337396,"lon":5.374526,"is_reserved":false,"is_disabled":false,"rental_uris":{"android":"levelo://app?vid=c0fb8083-e02d-4dec-b1b9-fa095e6c5b75","ios":"levelo://app?vid=c0fb8083-e02d-4dec-b1b9-fa095e6c5b75"},"vehicle_type_id":"4","last_reported":1687018044,"current_range_meters":0,"station_id":"ce4bhp92rcd13ifvqhag","pricing_plan_id":"free"},{"bike_id":"785d6f3a-66b9-4b0e-94c6-be3b7e7215c9","system_id":"levelo_inurba_marseille","lat":43.309371,"lon":5.401449,"is_reserved":false,"is_disabled":false,"rental_uris":{"android":"levelo://app?vid=785d6f3a-66b9-4b0e-94c6-be3b7e7215c9","ios":"levelo://app?vid=785d6f3a-66b9-4b0e-94c6-be3b7e7215c9"},"vehicle_type_id":"4","last_reported":1687018044,"current_range_meters":0,"station_id":"ce4bgvp2rcd13ifvqct0","pricing_plan_id":"free"},{"bike_id":"41a8749b-6d93-4d1b-8e52-c5f60f65ae7c","system_id":"levelo_inurba_marseille","lat":43.33752,"lon":5.37443,"is_reserved":false,"is_disabled":false,"rental_uris":{"android":"levelo://app?vid=41a8749b-6d93-4d1b-8e52-c5f60f65ae7c","ios":"levelo://app?vid=41a8749b-6d93-4d1b-8e52-c5f60f65ae7c"},"vehicle_type_id":"4","last_reported":1687018044,"current_range_meters":30400,"station_id":"","pricing_plan_id":"free"},{"bike_id":"c63c5847-d679-4e42-a112-b3d3e8643d39","system_id":"levelo_inurba_marseille","lat":43.286591,"lon":5.363346,"is_reserved":false,"is_disabled":false,"rental_uris":{"android":"levelo://app?vid=c63c5847-d679-4e42-a112-b3d3e8643d39","ios":"levelo://app?vid=c63c5847-d679-4e42-a112-b3d3e8643d39"},"vehicle_type_id":"4","last_reported":1687018044,"current_range_meters":8000,"station_id":"ce4bhah2rcd13ifvqej0","pricing_plan_id":"free"},{"bike_id":"07111d68-d651-46ce-aced-ccea5a6418bf","system_id":"levelo_inurba_marseille","lat":43.286591,"lon":5.363346,"is_reserved":false,"is_disabled":false,"rental_uris":{"android":"levelo://app?vid=07111d68-d651-46ce-aced-ccea5a6418bf","ios":"levelo://app?vid=07111d68-d651-46ce-aced-ccea5a6418bf"},"vehicle_type_id":"4","last_reported":1687018044,"current_range_meters":2000,"station_id":"ce4bhah2rcd13ifvqej0","pricing_plan_id":"free"},{"bike_id":"bd0e8dd5-0533-47c2-b2b2-5633d475b6a5","system_id":"levelo_inurba_marseille","lat":43.298681,"lon":5.397225,"is_reserved":false,"is_disabled":false,"rental_uris":{"android":"levelo://app?vid=bd0e8dd5-0533-47c2-b2b2-5633d475b6a5","ios":"levelo://app?vid=bd0e8dd5-0533-47c2-b2b2-5633d475b6a5"},"vehicle_type_id":"4","last_reported":1687018044,"current_range_meters":25200,"station_id":"ce4bh0h2rcd13ifvqd50","pricing_plan_id":"free"},{"bike_id":"2d4d8234-324a-44c7-bd4b-a583b916325e","system_id":"levelo_inurba_marseille","lat":43.295196,"lon":5.39397,"is_reserved":false,"is_disabled":false,"rental_uris":{"android":"levelo://app?vid=2d4d8234-324a-44c7-bd4b-a583b916325e","ios":"levelo://app?vid=2d4d8234-324a-44c7-bd4b-a583b916325e"},"vehicle_type_id":"4","last_reported":1687018044,"current_range_meters":0,"station_id":"ce4bh292rcd13ifvqdf0","pricing_plan_id":"free"},{"bike_id":"d7a1eea3-ee6f-456c-bf64-ae8ce03532b9","system_id":"levelo_inurba_marseille","lat":43.286039,"lon":5.370681,"is_reserved":false,"is_disabled":false,"rental_uris":{"android":"levelo://app?vid=d7a1eea3-ee6f-456c-bf64-ae8ce03532b9","ios":"levelo://app?vid=d7a1eea3-ee6f-456c-bf64-ae8ce03532b9"},"vehicle_type_id":"4","last_reported":1687018044,"current_range_meters":800,"station_id":"ce4bht12rcd13ifvqi60","pricing_plan_id":"free"},{"bike_id":"19b430c5-69f8-4f8e-a70c-584ef2435598","system_id":"levelo_inurba_marseille","lat":43.29195,"lon":5.39325,"is_reserved":false,"is_disabled":false,"rental_uris":{"android":"levelo://app?vid=19b430c5-69f8-4f8e-a70c-584ef2435598","ios":"levelo://app?vid=19b430c5-69f8-4f8e-a70c-584ef2435598"},"vehicle_type_id":"4","last_reported":1687018044,"current_range_meters":18400,"station_id":"","pricing_plan_id":"free"},{"bike_id":"7fc76d55-7ef6-4efb-879c-ef3e17bf05d7","system_id":"levelo_inurba_marseille","lat":43.28456,"lon":5.35863,"is_reserved":false,"is_disabled":false,"rental_uris":{"android":"levelo://app?vid=7fc76d55-7ef6-4efb-879c-ef3e17bf05d7","ios":"levelo://app?vid=7fc76d55-7ef6-4efb-879c-ef3e17bf05d7"},"vehicle_type_id":"4","last_reported":1687018044,"current_range_meters":5600,"station_id":"ce4bhah2rcd13ifvqei0","pricing_plan_id":"free"},{"bike_id":"ed6c2f6a-b02c-430b-b258-abd91a435466","system_id":"levelo_inurba_marseille","lat":43.285856,"lon":5.350771,"is_reserved":false,"is_disabled":false,"rental_uris":{"android":"levelo://app?vid=ed6c2f6a-b02c-430b-b258-abd91a435466","ios":"levelo://app?vid=ed6c2f6a-b02c-430b-b258-abd91a435466"},"vehicle_type_id":"4","last_reported":1687018044,"current_range_meters":10000,"station_id":"ce4bhch2rcd13ifvqeug","pricing_plan_id":"free"},{"bike_id":"d43437dc-2633-488d-9dc6-73ee184f7c9c","system_id":"levelo_inurba_marseille","lat":43.28615,"lon":5.35103,"is_reserved":false,"is_disabled":false,"rental_uris":{"android":"levelo://app?vid=d43437dc-2633-488d-9dc6-73ee184f7c9c","ios":"levelo://app?vid=d43437dc-2633-488d-9dc6-73ee184f7c9c"},"vehicle_type_id":"4","last_reported":1687018044,"current_range_meters":17600,"station_id":"ce4bhch2rcd13ifvqeug","pricing_plan_id":"free"},{"bike_id":"48ac61d3-75b9-4e54-a4b0-9ecdb0f02953","system_id":"levelo_inurba_marseille","lat":43.285848,"lon":5.350787,"is_reserved":false,"is_disabled":false,"rental_uris":{"android":"levelo://app?vid=48ac61d3-75b9-4e54-a4b0-9ecdb0f02953","ios":"levelo://app?vid=48ac61d3-75b9-4e54-a4b0-9ecdb0f02953"},"vehicle_type_id":"4","last_reported":1687018044,"current_range_meters":31200,"station_id":"ce4bhch2rcd13ifvqeug","pricing_plan_id":"free"},{"bike_id":"c7ef2742-fcac-4adf-a96d-f5b28b38b4d8","system_id":"levelo_inurba_marseille","lat":43.29574,"lon":5.39962,"is_reserved":false,"is_disabled":false,"rental_uris":{"android":"levelo://app?vid=c7ef2742-fcac-4adf-a96d-f5b28b38b4d8","ios":"levelo://app?vid=c7ef2742-fcac-4adf-a96d-f5b28b38b4d8"},"vehicle_type_id":"4","last_reported":1687018044,"current_range_meters":12800,"station_id":"ce4bh312rcd13ifvqdj0","pricing_plan_id":"free"},{"bike_id":"aec15cac-74d5-4f6d-af08-e2c183105ec3","system_id":"levelo_inurba_marseille","lat":43.29572,"lon":5.39975,"is_reserved":false,"is_disabled":false,"rental_uris":{"android":"levelo://app?vid=aec15cac-74d5-4f6d-af08-e2c183105ec3","ios":"levelo://app?vid=aec15cac-74d5-4f6d-af08-e2c183105ec3"},"vehicle_type_id":"4","last_reported":1687018044,"current_range_meters":2800,"station_id":"ce4bh312rcd13ifvqdj0","pricing_plan_id":"free"},{"bike_id":"acc256b0-4212-4fdd-85aa-48c2246b3b93","system_id":"levelo_inurba_marseille","lat":43.286595,"lon":5.386795,"is_reserved":false,"is_disabled":false,"rental_uris":{"android":"levelo://app?vid=acc256b0-4212-4fdd-85aa-48c2246b3b93","ios":"levelo://app?vid=acc256b0-4212-4fdd-85aa-48c2246b3b93"},"vehicle_type_id":"4","last_reported":1687018044,"current_range_meters":800,"station_id":"ce4bh492rcd13ifvqdug","pricing_plan_id":"free"},{"bike_id":"43275ef6-770c-4f0e-926c-1c3aecd7abec","system_id":"levelo_inurba_marseille","lat":43.287909,"lon":5.390554,"is_reserved":false,"is_disabled":false,"rental_uris":{"android":"levelo://app?vid=43275ef6-770c-4f0e-926c-1c3aecd7abec","ios":"levelo://app?vid=43275ef6-770c-4f0e-926c-1c3aecd7abec"},"vehicle_type_id":"4","last_reported":1687018044,"current_range_meters":16000,"station_id":"","pricing_plan_id":"free"},{"bike_id":"16e5fedd-6e86-436a-a0a2-72c7cd60a6ea","system_id":"levelo_inurba_marseille","lat":43.323464,"lon":5.406297,"is_reserved":false,"is_disabled":false,"rental_uris":{"android":"levelo://app?vid=16e5fedd-6e86-436a-a0a2-72c7cd60a6ea","ios":"levelo://app?vid=16e5fedd-6e86-436a-a0a2-72c7cd60a6ea"},"vehicle_type_id":"4","last_reported":1687018044,"current_range_meters":29600,"station_id":"ce4bhq92rcd13ifvqhjg","pricing_plan_id":"free"},{"bike_id":"931c3a64-2305-48ae-86de-abbe7338f15d","system_id":"levelo_inurba_marseille","lat":43.284793,"lon":5.384113,"is_reserved":false,"is_disabled":false,"rental_uris":{"android":"levelo://app?vid=931c3a64-2305-48ae-86de-abbe7338f15d","ios":"levelo://app?vid=931c3a64-2305-48ae-86de-abbe7338f15d"},"vehicle_type_id":"4","last_reported":1687018044,"current_range_meters":2800,"station_id":"ce4bh512rcd13ifvqe3g","pricing_plan_id":"free"},{"bike_id":"00b4d942-d645-4a17-a320-9c02b5ecca68","system_id":"levelo_inurba_marseille","lat":43.288501,"lon":5.393087,"is_reserved":false,"is_disabled":false,"rental_uris":{"android":"levelo://app?vid=00b4d942-d645-4a17-a320-9c02b5ecca68","ios":"levelo://app?vid=00b4d942-d645-4a17-a320-9c02b5ecca68"},"vehicle_type_id":"4","last_reported":1687018044,"current_range_meters":25200,"station_id":"ce4bh2p2rcd13ifvqdi0","pricing_plan_id":"free"},{"bike_id":"6c7bd3d2-c1a6-4dbf-99b7-ba8341ad2a16","system_id":"levelo_inurba_marseille","lat":43.284217,"lon":5.349697,"is_reserved":false,"is_disabled":false,"rental_uris":{"android":"levelo://app?vid=6c7bd3d2-c1a6-4dbf-99b7-ba8341ad2a16","ios":"levelo://app?vid=6c7bd3d2-c1a6-4dbf-99b7-ba8341ad2a16"},"vehicle_type_id":"4","last_reported":1687018044,"current_range_meters":2800,"station_id":"ce4bhbh2rcd13ifvqepg","pricing_plan_id":"free"},{"bike_id":"fc0ae0f0-38a5-4666-a778-5595eab63239","system_id":"levelo_inurba_marseille","lat":43.28415,"lon":5.34972,"is_reserved":false,"is_disabled":false,"rental_uris":{"android":"levelo://app?vid=fc0ae0f0-38a5-4666-a778-5595eab63239","ios":"levelo://app?vid=fc0ae0f0-38a5-4666-a778-5595eab63239"},"vehicle_type_id":"4","last_reported":1687018044,"current_range_meters":31200,"station_id":"ce4bhbh2rcd13ifvqepg","pricing_plan_id":"free"},{"bike_id":"0eea47a4-1d0f-43f0-a4a0-8cb4539cd4d8","system_id":"levelo_inurba_marseille","lat":43.282754,"lon":5.350519,"is_reserved":false,"is_disabled":false,"rental_uris":{"android":"levelo://app?vid=0eea47a4-1d0f-43f0-a4a0-8cb4539cd4d8","ios":"levelo://app?vid=0eea47a4-1d0f-43f0-a4a0-8cb4539cd4d8"},"vehicle_type_id":"4","last_reported":1687018044,"current_range_meters":4400,"station_id":"ce4bhbp2rcd13ifvqerg","pricing_plan_id":"free"},{"bike_id":"563febb5-143b-4b09-8579-4c8b53767272","system_id":"levelo_inurba_marseille","lat":43.28039,"lon":5.369297,"is_reserved":false,"is_disabled":false,"rental_uris":{"android":"levelo://app?vid=563febb5-143b-4b09-8579-4c8b53767272","ios":"levelo://app?vid=563febb5-143b-4b09-8579-4c8b53767272"},"vehicle_type_id":"4","last_reported":1687018044,"current_range_meters":18400,"station_id":"ce4bha12rcd13ifvqef0","pricing_plan_id":"free"},{"bike_id":"6ce57273-0a33-4511-94e7-5c2f4872cc57","system_id":"levelo_inurba_marseille","lat":43.28098,"lon":5.3783,"is_reserved":false,"is_disabled":false,"rental_uris":{"android":"levelo://app?vid=6ce57273-0a33-4511-94e7-5c2f4872cc57","ios":"levelo://app?vid=6ce57273-0a33-4511-94e7-5c2f4872cc57"},"vehicle_type_id":"4","last_reported":1687018044,"current_range_meters":20800,"station_id":"ce4bha12rcd13ifvqee0","pricing_plan_id":"free"},{"bike_id":"cefd95e0-1d04-4245-95d0-1f2ca3964bfc","system_id":"levelo_inurba_marseille","lat":43.287154,"lon":5.399979,"is_reserved":false,"is_disabled":false,"rental_uris":{"android":"levelo://app?vid=cefd95e0-1d04-4245-95d0-1f2ca3964bfc","ios":"levelo://app?vid=cefd95e0-1d04-4245-95d0-1f2ca3964bfc"},"vehicle_type_id":"4","last_reported":1687018044,"current_range_meters":3200,"station_id":"ce4bho92rcd13ifvqh3g","pricing_plan_id":"free"},{"bike_id":"5a65623f-5ae0-42d8-8bc6-be3bdb8694b6","system_id":"levelo_inurba_marseille","lat":43.287154,"lon":5.399979,"is_reserved":false,"is_disabled":false,"rental_uris":{"android":"levelo://app?vid=5a65623f-5ae0-42d8-8bc6-be3bdb8694b6","ios":"levelo://app?vid=5a65623f-5ae0-42d8-8bc6-be3bdb8694b6"},"vehicle_type_id":"4","last_reported":1687018044,"current_range_meters":2000,"station_id":"ce4bho92rcd13ifvqh3g","pricing_plan_id":"free"},{"bike_id":"526aa19f-f496-486f-84da-88dcf5f449ce","system_id":"levelo_inurba_marseille","lat":43.287154,"lon":5.399979,"is_reserved":false,"is_disabled":false,"rental_uris":{"android":"levelo://app?vid=526aa19f-f496-486f-84da-88dcf5f449ce","ios":"levelo://app?vid=526aa19f-f496-486f-84da-88dcf5f449ce"},"vehicle_type_id":"4","last_reported":1687018044,"current_range_meters":0,"station_id":"ce4bho92rcd13ifvqh3g","pricing_plan_id":"free"},{"bike_id":"abf548df-b314-4f37-9342-e2dca92fa292","system_id":"levelo_inurba_marseille","lat":43.29959,"lon":5.41314,"is_reserved":false,"is_disabled":false,"rental_uris":{"android":"levelo://app?vid=abf548df-b314-4f37-9342-e2dca92fa292","ios":"levelo://app?vid=abf548df-b314-4f37-9342-e2dca92fa292"},"vehicle_type_id":"4","last_reported":1687018044,"current_range_meters":30400,"station_id":"ce4bhp12rcd13ifvqh9g","pricing_plan_id":"free"},{"bike_id":"41d3c8f1-a503-4b6d-8c09-524d0ed80337","system_id":"levelo_inurba_marseille","lat":43.325233,"lon":5.414318,"is_reserved":false,"is_disabled":false,"rental_uris":{"android":"levelo://app?vid=41d3c8f1-a503-4b6d-8c09-524d0ed80337","ios":"levelo://app?vid=41d3c8f1-a503-4b6d-8c09-524d0ed80337"},"vehicle_type_id":"4","last_reported":1687018044,"current_range_meters":22400,"station_id":"ce4bhq12rcd13ifvqhhg","pricing_plan_id":"free"},{"bike_id":"f5ca13d2-8f65-4967-8a36-204b6352a73b","system_id":"levelo_inurba_marseille","lat":43.27618,"lon":5.361009,"is_reserved":false,"is_disabled":false,"rental_uris":{"android":"levelo://app?vid=f5ca13d2-8f65-4967-8a36-204b6352a73b","ios":"levelo://app?vid=f5ca13d2-8f65-4967-8a36-204b6352a73b"},"vehicle_type_id":"4","last_reported":1687018044,"current_range_meters":24800,"station_id":"ce4bgj92rcd13ifvqbe0","pricing_plan_id":"free"},{"bike_id":"8ff07fc9-fe2b-4124-ad7e-1277671c3e71","system_id":"levelo_inurba_marseille","lat":43.276132,"lon":5.360991,"is_reserved":false,"is_disabled":false,"rental_uris":{"android":"levelo://app?vid=8ff07fc9-fe2b-4124-ad7e-1277671c3e71","ios":"levelo://app?vid=8ff07fc9-fe2b-4124-ad7e-1277671c3e71"},"vehicle_type_id":"4","last_reported":1687018044,"current_range_meters":31200,"station_id":"ce4bgj92rcd13ifvqbe0","pricing_plan_id":"free"},{"bike_id":"aa65dc4f-9f80-4408-ba71-fa722cd9ef98","system_id":"levelo_inurba_marseille","lat":43.27383,"lon":5.36254,"is_reserved":false,"is_disabled":false,"rental_uris":{"android":"levelo://app?vid=aa65dc4f-9f80-4408-ba71-fa722cd9ef98","ios":"levelo://app?vid=aa65dc4f-9f80-4408-ba71-fa722cd9ef98"},"vehicle_type_id":"4","last_reported":1687018044,"current_range_meters":31200,"station_id":"","pricing_plan_id":"free"},{"bike_id":"7f180445-1c86-42a6-8566-4abcf9c3f261","system_id":"levelo_inurba_marseille","lat":43.278399,"lon":5.392139,"is_reserved":false,"is_disabled":false,"rental_uris":{"android":"levelo://app?vid=7f180445-1c86-42a6-8566-4abcf9c3f261","ios":"levelo://app?vid=7f180445-1c86-42a6-8566-4abcf9c3f261"},"vehicle_type_id":"4","last_reported":1687018044,"current_range_meters":6800,"station_id":"ce4bhjp2rcd13ifvqga0","pricing_plan_id":"free"},{"bike_id":"5a8ca264-e612-4624-be95-a229ef2af94f","system_id":"levelo_inurba_marseille","lat":43.273613,"lon":5.362705,"is_reserved":false,"is_disabled":false,"rental_uris":{"android":"levelo://app?vid=5a8ca264-e612-4624-be95-a229ef2af94f","ios":"levelo://app?vid=5a8ca264-e612-4624-be95-a229ef2af94f"},"vehicle_type_id":"4","last_reported":1687018044,"current_range_meters":31200,"station_id":"ce4bhbh2rcd13ifvqeo0","pricing_plan_id":"free"},{"bike_id":"816e08f0-59f3-4d8e-8bf9-c1600c5c88ee","system_id":"levelo_inurba_marseille","lat":43.273613,"lon":5.362705,"is_reserved":false,"is_disabled":false,"rental_uris":{"android":"levelo://app?vid=816e08f0-59f3-4d8e-8bf9-c1600c5c88ee","ios":"levelo://app?vid=816e08f0-59f3-4d8e-8bf9-c1600c5c88ee"},"vehicle_type_id":"4","last_reported":1687018044,"current_range_meters":31200,"station_id":"ce4bhbh2rcd13ifvqeo0","pricing_plan_id":"free"},{"bike_id":"edc33ca2-8909-41b3-9e18-e5c3b6f62754","system_id":"levelo_inurba_marseille","lat":43.273609,"lon":5.362708,"is_reserved":false,"is_disabled":false,"rental_uris":{"android":"levelo://app?vid=edc33ca2-8909-41b3-9e18-e5c3b6f62754","ios":"levelo://app?vid=edc33ca2-8909-41b3-9e18-e5c3b6f62754"},"vehicle_type_id":"4","last_reported":1687018044,"current_range_meters":2000,"station_id":"ce4bhbh2rcd13ifvqeo0","pricing_plan_id":"free"},{"bike_id":"0f34f6a4-d7a7-4bba-a491-1c41e4064964","system_id":"levelo_inurba_marseille","lat":43.273609,"lon":5.362708,"is_reserved":false,"is_disabled":false,"rental_uris":{"android":"levelo://app?vid=0f34f6a4-d7a7-4bba-a491-1c41e4064964","ios":"levelo://app?vid=0f34f6a4-d7a7-4bba-a491-1c41e4064964"},"vehicle_type_id":"4","last_reported":1687018044,"current_range_meters":0,"station_id":"ce4bhbh2rcd13ifvqeo0","pricing_plan_id":"free"},{"bike_id":"4218459d-a986-469d-bd2e-8caf5802a4d1","system_id":"levelo_inurba_marseille","lat":43.273609,"lon":5.362708,"is_reserved":false,"is_disabled":false,"rental_uris":{"android":"levelo://app?vid=4218459d-a986-469d-bd2e-8caf5802a4d1","ios":"levelo://app?vid=4218459d-a986-469d-bd2e-8caf5802a4d1"},"vehicle_type_id":"4","last_reported":1687018044,"current_range_meters":30400,"station_id":"ce4bhbh2rcd13ifvqeo0","pricing_plan_id":"free"},{"bike_id":"fa46bb14-3080-4095-99ad-8f702dfdea64","system_id":"levelo_inurba_marseille","lat":43.273609,"lon":5.362708,"is_reserved":false,"is_disabled":false,"rental_uris":{"android":"levelo://app?vid=fa46bb14-3080-4095-99ad-8f702dfdea64","ios":"levelo://app?vid=fa46bb14-3080-4095-99ad-8f702dfdea64"},"vehicle_type_id":"4","last_reported":1687018044,"current_range_meters":0,"station_id":"ce4bhbh2rcd13ifvqeo0","pricing_plan_id":"free"},{"bike_id":"0dcfd405-beea-460e-8302-715106e639b1","system_id":"levelo_inurba_marseille","lat":43.273609,"lon":5.362708,"is_reserved":false,"is_disabled":false,"rental_uris":{"android":"levelo://app?vid=0dcfd405-beea-460e-8302-715106e639b1","ios":"levelo://app?vid=0dcfd405-beea-460e-8302-715106e639b1"},"vehicle_type_id":"4","last_reported":1687018044,"current_range_meters":5600,"station_id":"ce4bhbh2rcd13ifvqeo0","pricing_plan_id":"free"},{"bike_id":"1ed24a88-d970-46fa-8564-4ee83b78dac4","system_id":"levelo_inurba_marseille","lat":43.317121,"lon":5.423936,"is_reserved":false,"is_disabled":false,"rental_uris":{"android":"levelo://app?vid=1ed24a88-d970-46fa-8564-4ee83b78dac4","ios":"levelo://app?vid=1ed24a88-d970-46fa-8564-4ee83b78dac4"},"vehicle_type_id":"4","last_reported":1687018044,"current_range_meters":6400,"station_id":"ce4bhp92rcd13ifvqhbg","pricing_plan_id":"free"},{"bike_id":"6275aaca-a354-407f-be44-df40f2969d44","system_id":"levelo_inurba_marseille","lat":43.27324,"lon":5.39083,"is_reserved":false,"is_disabled":false,"rental_uris":{"android":"levelo://app?vid=6275aaca-a354-407f-be44-df40f2969d44","ios":"levelo://app?vid=6275aaca-a354-407f-be44-df40f2969d44"},"vehicle_type_id":"4","last_reported":1687018044,"current_range_meters":31200,"station_id":"ce4bhgp2rcd13ifvqfe0","pricing_plan_id":"free"},{"bike_id":"3174fcfc-c4f7-4391-8ffa-0e6e72df8a08","system_id":"levelo_inurba_marseille","lat":43.27312,"lon":5.3907,"is_reserved":false,"is_disabled":false,"rental_uris":{"android":"levelo://app?vid=3174fcfc-c4f7-4391-8ffa-0e6e72df8a08","ios":"levelo://app?vid=3174fcfc-c4f7-4391-8ffa-0e6e72df8a08"},"vehicle_type_id":"4","last_reported":1687018044,"current_range_meters":27600,"station_id":"ce4bhgp2rcd13ifvqfe0","pricing_plan_id":"free"},{"bike_id":"f82c4e0b-ce86-4de4-962b-f266d6ba506e","system_id":"levelo_inurba_marseille","lat":43.27317,"lon":5.39087,"is_reserved":false,"is_disabled":false,"rental_uris":{"android":"levelo://app?vid=f82c4e0b-ce86-4de4-962b-f266d6ba506e","ios":"levelo://app?vid=f82c4e0b-ce86-4de4-962b-f266d6ba506e"},"vehicle_type_id":"4","last_reported":1687018044,"current_range_meters":29200,"station_id":"ce4bhgp2rcd13ifvqfe0","pricing_plan_id":"free"},{"bike_id":"cfba2fbe-9ed5-423f-b411-8d6c38451715","system_id":"levelo_inurba_marseille","lat":43.27313,"lon":5.39086,"is_reserved":false,"is_disabled":false,"rental_uris":{"android":"levelo://app?vid=cfba2fbe-9ed5-423f-b411-8d6c38451715","ios":"levelo://app?vid=cfba2fbe-9ed5-423f-b411-8d6c38451715"},"vehicle_type_id":"4","last_reported":1687018044,"current_range_meters":31200,"station_id":"ce4bhgp2rcd13ifvqfe0","pricing_plan_id":"free"},{"bike_id":"1aebfda3-5abb-411c-87c2-f8168c1151a3","system_id":"levelo_inurba_marseille","lat":43.27305,"lon":5.39081,"is_reserved":false,"is_disabled":false,"rental_uris":{"android":"levelo://app?vid=1aebfda3-5abb-411c-87c2-f8168c1151a3","ios":"levelo://app?vid=1aebfda3-5abb-411c-87c2-f8168c1151a3"},"vehicle_type_id":"4","last_reported":1687018044,"current_range_meters":22800,"station_id":"ce4bhgp2rcd13ifvqfe0","pricing_plan_id":"free"},{"bike_id":"7e790661-24cd-4cc2-8bfe-7219e8835ae7","system_id":"levelo_inurba_marseille","lat":43.304096,"lon":5.425385,"is_reserved":false,"is_disabled":false,"rental_uris":{"android":"levelo://app?vid=7e790661-24cd-4cc2-8bfe-7219e8835ae7","ios":"levelo://app?vid=7e790661-24cd-4cc2-8bfe-7219e8835ae7"},"vehicle_type_id":"4","last_reported":1687018044,"current_range_meters":14000,"station_id":"ce4bhoh2rcd13ifvqh6g","pricing_plan_id":"free"},{"bike_id":"8b29d5d3-cd3d-4d8a-a84b-cd427d5512b6","system_id":"levelo_inurba_marseille","lat":43.30416,"lon":5.42557,"is_reserved":false,"is_disabled":false,"rental_uris":{"android":"levelo://app?vid=8b29d5d3-cd3d-4d8a-a84b-cd427d5512b6","ios":"levelo://app?vid=8b29d5d3-cd3d-4d8a-a84b-cd427d5512b6"},"vehicle_type_id":"4","last_reported":1687018044,"current_range_meters":12400,"station_id":"ce4bhoh2rcd13ifvqh6g","pricing_plan_id":"free"},{"bike_id":"b4c01bd4-6f9c-40a0-9afa-419154457d4e","system_id":"levelo_inurba_marseille","lat":43.295523,"lon":5.422926,"is_reserved":false,"is_disabled":false,"rental_uris":{"android":"levelo://app?vid=b4c01bd4-6f9c-40a0-9afa-419154457d4e","ios":"levelo://app?vid=b4c01bd4-6f9c-40a0-9afa-419154457d4e"},"vehicle_type_id":"4","last_reported":1687018044,"current_range_meters":18800,"station_id":"ce4bhph2rcd13ifvqhdg","pricing_plan_id":"free"},{"bike_id":"7d15a759-6114-4d04-9d3f-55eff25af50a","system_id":"levelo_inurba_marseille","lat":43.272116,"lon":5.391763,"is_reserved":false,"is_disabled":false,"rental_uris":{"android":"levelo://app?vid=7d15a759-6114-4d04-9d3f-55eff25af50a","ios":"levelo://app?vid=7d15a759-6114-4d04-9d3f-55eff25af50a"},"vehicle_type_id":"4","last_reported":1687018044,"current_range_meters":2800,"station_id":"ce4bhhp2rcd13ifvqfm0","pricing_plan_id":"free"},{"bike_id":"60e9412d-3d0c-47e6-a0ca-60617e29fac4","system_id":"levelo_inurba_marseille","lat":43.26947,"lon":5.38621,"is_reserved":false,"is_disabled":false,"rental_uris":{"android":"levelo://app?vid=60e9412d-3d0c-47e6-a0ca-60617e29fac4","ios":"levelo://app?vid=60e9412d-3d0c-47e6-a0ca-60617e29fac4"},"vehicle_type_id":"4","last_reported":1687018044,"current_range_meters":31600,"station_id":"ce4bhh92rcd13ifvqfh0","pricing_plan_id":"free"},{"bike_id":"e0ccc3ca-6376-4fc0-a282-82d5453560ed","system_id":"levelo_inurba_marseille","lat":43.26685,"lon":5.38276,"is_reserved":false,"is_disabled":false,"rental_uris":{"android":"levelo://app?vid=e0ccc3ca-6376-4fc0-a282-82d5453560ed","ios":"levelo://app?vid=e0ccc3ca-6376-4fc0-a282-82d5453560ed"},"vehicle_type_id":"4","last_reported":1687018044,"current_range_meters":2800,"station_id":"ce4bhg92rcd13ifvqf90","pricing_plan_id":"free"},{"bike_id":"1ba77c4e-8291-4883-be0b-8623206c5902","system_id":"levelo_inurba_marseille","lat":43.26683,"lon":5.38271,"is_reserved":false,"is_disabled":false,"rental_uris":{"android":"levelo://app?vid=1ba77c4e-8291-4883-be0b-8623206c5902","ios":"levelo://app?vid=1ba77c4e-8291-4883-be0b-8623206c5902"},"vehicle_type_id":"4","last_reported":1687018044,"current_range_meters":27600,"station_id":"ce4bhg92rcd13ifvqf90","pricing_plan_id":"free"},{"bike_id":"5d95580e-630a-433b-9018-ba8ddee6b7d9","system_id":"levelo_inurba_marseille","lat":43.26682,"lon":5.3827,"is_reserved":false,"is_disabled":false,"rental_uris":{"android":"levelo://app?vid=5d95580e-630a-433b-9018-ba8ddee6b7d9","ios":"levelo://app?vid=5d95580e-630a-433b-9018-ba8ddee6b7d9"},"vehicle_type_id":"4","last_reported":1687018044,"current_range_meters":5200,"station_id":"ce4bhg92rcd13ifvqf90","pricing_plan_id":"free"},{"bike_id":"a40d041c-543d-4715-9137-0befbd042a7f","system_id":"levelo_inurba_marseille","lat":43.26682,"lon":5.3827,"is_reserved":false,"is_disabled":false,"rental_uris":{"android":"levelo://app?vid=a40d041c-543d-4715-9137-0befbd042a7f","ios":"levelo://app?vid=a40d041c-543d-4715-9137-0befbd042a7f"},"vehicle_type_id":"4","last_reported":1687018044,"current_range_meters":17600,"station_id":"ce4bhg92rcd13ifvqf90","pricing_plan_id":"free"},{"bike_id":"80b55d8c-7ac0-4e8b-8f62-d49781de8e9b","system_id":"levelo_inurba_marseille","lat":43.266819,"lon":5.382755,"is_reserved":false,"is_disabled":false,"rental_uris":{"android":"levelo://app?vid=80b55d8c-7ac0-4e8b-8f62-d49781de8e9b","ios":"levelo://app?vid=80b55d8c-7ac0-4e8b-8f62-d49781de8e9b"},"vehicle_type_id":"4","last_reported":1687018044,"current_range_meters":26800,"station_id":"ce4bhg92rcd13ifvqf90","pricing_plan_id":"free"},{"bike_id":"2f065dcb-c530-441e-a1c4-37463df00b7f","system_id":"levelo_inurba_marseille","lat":43.26679,"lon":5.38264,"is_reserved":false,"is_disabled":false,"rental_uris":{"android":"levelo://app?vid=2f065dcb-c530-441e-a1c4-37463df00b7f","ios":"levelo://app?vid=2f065dcb-c530-441e-a1c4-37463df00b7f"},"vehicle_type_id":"4","last_reported":1687018044,"current_range_meters":1600,"station_id":"ce4bhg92rcd13ifvqf90","pricing_plan_id":"free"},{"bike_id":"805dd294-8c9f-4366-bba0-c6bedbd1112d","system_id":"levelo_inurba_marseille","lat":43.26681,"lon":5.382694,"is_reserved":false,"is_disabled":false,"rental_uris":{"android":"levelo://app?vid=805dd294-8c9f-4366-bba0-c6bedbd1112d","ios":"levelo://app?vid=805dd294-8c9f-4366-bba0-c6bedbd1112d"},"vehicle_type_id":"4","last_reported":1687018044,"current_range_meters":18800,"station_id":"ce4bhg92rcd13ifvqf90","pricing_plan_id":"free"},{"bike_id":"3987290e-fd4b-4f2b-81c0-57fca98f9cde","system_id":"levelo_inurba_marseille","lat":43.267966,"lon":5.393976,"is_reserved":false,"is_disabled":false,"rental_uris":{"android":"levelo://app?vid=3987290e-fd4b-4f2b-81c0-57fca98f9cde","ios":"levelo://app?vid=3987290e-fd4b-4f2b-81c0-57fca98f9cde"},"vehicle_type_id":"4","last_reported":1687018044,"current_range_meters":30800,"station_id":"ce4bhh12rcd13ifvqfg0","pricing_plan_id":"free"},{"bike_id":"74a3fba0-b9d9-4145-a09a-3681495b254d","system_id":"levelo_inurba_marseille","lat":43.308051,"lon":5.43527,"is_reserved":false,"is_disabled":false,"rental_uris":{"android":"levelo://app?vid=74a3fba0-b9d9-4145-a09a-3681495b254d","ios":"levelo://app?vid=74a3fba0-b9d9-4145-a09a-3681495b254d"},"vehicle_type_id":"4","last_reported":1687018044,"current_range_meters":30800,"station_id":"ce4bhph2rcd13ifvqheg","pricing_plan_id":"free"},{"bike_id":"d5751d5f-c904-43f6-aba3-df5fc52af7ec","system_id":"levelo_inurba_marseille","lat":43.308051,"lon":5.43527,"is_reserved":false,"is_disabled":false,"rental_uris":{"android":"levelo://app?vid=d5751d5f-c904-43f6-aba3-df5fc52af7ec","ios":"levelo://app?vid=d5751d5f-c904-43f6-aba3-df5fc52af7ec"},"vehicle_type_id":"4","last_reported":1687018044,"current_range_meters":18400,"station_id":"ce4bhph2rcd13ifvqheg","pricing_plan_id":"free"},{"bike_id":"4df596c1-dddd-42b6-9a61-c6166db6ac5a","system_id":"levelo_inurba_marseille","lat":43.2657,"lon":5.39012,"is_reserved":false,"is_disabled":false,"rental_uris":{"android":"levelo://app?vid=4df596c1-dddd-42b6-9a61-c6166db6ac5a","ios":"levelo://app?vid=4df596c1-dddd-42b6-9a61-c6166db6ac5a"},"vehicle_type_id":"4","last_reported":1687018044,"current_range_meters":14400,"station_id":"ce4bhe12rcd13ifvqf30","pricing_plan_id":"free"},{"bike_id":"fdc27c93-2398-4427-969a-d5f9cbf527b1","system_id":"levelo_inurba_marseille","lat":43.26204,"lon":5.37547,"is_reserved":false,"is_disabled":false,"rental_uris":{"android":"levelo://app?vid=fdc27c93-2398-4427-969a-d5f9cbf527b1","ios":"levelo://app?vid=fdc27c93-2398-4427-969a-d5f9cbf527b1"},"vehicle_type_id":"4","last_reported":1687018044,"current_range_meters":17200,"station_id":"","pricing_plan_id":"free"},{"bike_id":"e48bd678-b676-41f9-8018-f7840316a446","system_id":"levelo_inurba_marseille","lat":43.26195,"lon":5.37441,"is_reserved":false,"is_disabled":false,"rental_uris":{"android":"levelo://app?vid=e48bd678-b676-41f9-8018-f7840316a446","ios":"levelo://app?vid=e48bd678-b676-41f9-8018-f7840316a446"},"vehicle_type_id":"4","last_reported":1687018044,"current_range_meters":2800,"station_id":"ce4bhgp2rcd13ifvqfc0","pricing_plan_id":"free"},{"bike_id":"121f7621-6a2c-4063-b941-28063bda325f","system_id":"levelo_inurba_marseille","lat":43.26193,"lon":5.37441,"is_reserved":false,"is_disabled":false,"rental_uris":{"android":"levelo://app?vid=121f7621-6a2c-4063-b941-28063bda325f","ios":"levelo://app?vid=121f7621-6a2c-4063-b941-28063bda325f"},"vehicle_type_id":"4","last_reported":1687018044,"current_range_meters":3600,"station_id":"ce4bhgp2rcd13ifvqfc0","pricing_plan_id":"free"},{"bike_id":"f522bde3-59a4-4b18-ac64-faf803accafb","system_id":"levelo_inurba_marseille","lat":43.26193,"lon":5.37444,"is_reserved":false,"is_disabled":false,"rental_uris":{"android":"levelo://app?vid=f522bde3-59a4-4b18-ac64-faf803accafb","ios":"levelo://app?vid=f522bde3-59a4-4b18-ac64-faf803accafb"},"vehicle_type_id":"4","last_reported":1687018044,"current_range_meters":15600,"station_id":"ce4bhgp2rcd13ifvqfc0","pricing_plan_id":"free"},{"bike_id":"73ec8c4a-6aba-47e0-b901-eb1d2b55951c","system_id":"levelo_inurba_marseille","lat":43.26192,"lon":5.37436,"is_reserved":false,"is_disabled":false,"rental_uris":{"android":"levelo://app?vid=73ec8c4a-6aba-47e0-b901-eb1d2b55951c","ios":"levelo://app?vid=73ec8c4a-6aba-47e0-b901-eb1d2b55951c"},"vehicle_type_id":"4","last_reported":1687018044,"current_range_meters":400,"station_id":"ce4bhgp2rcd13ifvqfc0","pricing_plan_id":"free"},{"bike_id":"e8d5eebe-6714-4a86-a3c9-02738991b6d3","system_id":"levelo_inurba_marseille","lat":43.26192,"lon":5.37445,"is_reserved":false,"is_disabled":false,"rental_uris":{"android":"levelo://app?vid=e8d5eebe-6714-4a86-a3c9-02738991b6d3","ios":"levelo://app?vid=e8d5eebe-6714-4a86-a3c9-02738991b6d3"},"vehicle_type_id":"4","last_reported":1687018044,"current_range_meters":16000,"station_id":"ce4bhgp2rcd13ifvqfc0","pricing_plan_id":"free"},{"bike_id":"fc4f4c0b-ebe1-413f-84fb-d8466be5b411","system_id":"levelo_inurba_marseille","lat":43.26192,"lon":5.37445,"is_reserved":false,"is_disabled":false,"rental_uris":{"android":"levelo://app?vid=fc4f4c0b-ebe1-413f-84fb-d8466be5b411","ios":"levelo://app?vid=fc4f4c0b-ebe1-413f-84fb-d8466be5b411"},"vehicle_type_id":"4","last_reported":1687018044,"current_range_meters":6800,"station_id":"ce4bhgp2rcd13ifvqfc0","pricing_plan_id":"free"},{"bike_id":"366c1c31-ccf7-41db-a0fc-fa72c85b8778","system_id":"levelo_inurba_marseille","lat":43.26191,"lon":5.37435,"is_reserved":false,"is_disabled":false,"rental_uris":{"android":"levelo://app?vid=366c1c31-ccf7-41db-a0fc-fa72c85b8778","ios":"levelo://app?vid=366c1c31-ccf7-41db-a0fc-fa72c85b8778"},"vehicle_type_id":"4","last_reported":1687018044,"current_range_meters":0,"station_id":"ce4bhgp2rcd13ifvqfc0","pricing_plan_id":"free"},{"bike_id":"6e09f408-aa87-45f1-864d-5ba5aee78c1b","system_id":"levelo_inurba_marseille","lat":43.2619,"lon":5.37441,"is_reserved":false,"is_disabled":false,"rental_uris":{"android":"levelo://app?vid=6e09f408-aa87-45f1-864d-5ba5aee78c1b","ios":"levelo://app?vid=6e09f408-aa87-45f1-864d-5ba5aee78c1b"},"vehicle_type_id":"4","last_reported":1687018044,"current_range_meters":14000,"station_id":"ce4bhgp2rcd13ifvqfc0","pricing_plan_id":"free"},{"bike_id":"2c2a662f-d645-4a0d-89bf-13b7bb7ffadc","system_id":"levelo_inurba_marseille","lat":43.2619,"lon":5.37442,"is_reserved":false,"is_disabled":false,"rental_uris":{"android":"levelo://app?vid=2c2a662f-d645-4a0d-89bf-13b7bb7ffadc","ios":"levelo://app?vid=2c2a662f-d645-4a0d-89bf-13b7bb7ffadc"},"vehicle_type_id":"4","last_reported":1687018044,"current_range_meters":6000,"station_id":"ce4bhgp2rcd13ifvqfc0","pricing_plan_id":"free"},{"bike_id":"279b1866-2ac0-4101-af6b-8da34ddbf0a2","system_id":"levelo_inurba_marseille","lat":43.2619,"lon":5.37442,"is_reserved":false,"is_disabled":false,"rental_uris":{"android":"levelo://app?vid=279b1866-2ac0-4101-af6b-8da34ddbf0a2","ios":"levelo://app?vid=279b1866-2ac0-4101-af6b-8da34ddbf0a2"},"vehicle_type_id":"4","last_reported":1687018044,"current_range_meters":6400,"station_id":"ce4bhgp2rcd13ifvqfc0","pricing_plan_id":"free"},{"bike_id":"c1484a3d-fa56-40bf-9212-bc90eac1428c","system_id":"levelo_inurba_marseille","lat":43.2619,"lon":5.37444,"is_reserved":false,"is_disabled":false,"rental_uris":{"android":"levelo://app?vid=c1484a3d-fa56-40bf-9212-bc90eac1428c","ios":"levelo://app?vid=c1484a3d-fa56-40bf-9212-bc90eac1428c"},"vehicle_type_id":"4","last_reported":1687018044,"current_range_meters":4400,"station_id":"ce4bhgp2rcd13ifvqfc0","pricing_plan_id":"free"},{"bike_id":"91c254b4-fef2-4a6b-9246-226657869095","system_id":"levelo_inurba_marseille","lat":43.26187,"lon":5.37442,"is_reserved":false,"is_disabled":false,"rental_uris":{"android":"levelo://app?vid=91c254b4-fef2-4a6b-9246-226657869095","ios":"levelo://app?vid=91c254b4-fef2-4a6b-9246-226657869095"},"vehicle_type_id":"4","last_reported":1687018044,"current_range_meters":6400,"station_id":"ce4bhgp2rcd13ifvqfc0","pricing_plan_id":"free"},{"bike_id":"2e37d1f6-4394-4836-b223-8a6e5f386185","system_id":"levelo_inurba_marseille","lat":43.26187,"lon":5.37443,"is_reserved":false,"is_disabled":false,"rental_uris":{"android":"levelo://app?vid=2e37d1f6-4394-4836-b223-8a6e5f386185","ios":"levelo://app?vid=2e37d1f6-4394-4836-b223-8a6e5f386185"},"vehicle_type_id":"4","last_reported":1687018044,"current_range_meters":20800,"station_id":"ce4bhgp2rcd13ifvqfc0","pricing_plan_id":"free"},{"bike_id":"9022c36e-736a-418e-a7df-008b229d313d","system_id":"levelo_inurba_marseille","lat":43.26187,"lon":5.37444,"is_reserved":false,"is_disabled":false,"rental_uris":{"android":"levelo://app?vid=9022c36e-736a-418e-a7df-008b229d313d","ios":"levelo://app?vid=9022c36e-736a-418e-a7df-008b229d313d"},"vehicle_type_id":"4","last_reported":1687018044,"current_range_meters":17600,"station_id":"ce4bhgp2rcd13ifvqfc0","pricing_plan_id":"free"},{"bike_id":"f6de5261-2ec8-4898-aa4d-9f1956029baf","system_id":"levelo_inurba_marseille","lat":43.26187,"lon":5.37444,"is_reserved":false,"is_disabled":false,"rental_uris":{"android":"levelo://app?vid=f6de5261-2ec8-4898-aa4d-9f1956029baf","ios":"levelo://app?vid=f6de5261-2ec8-4898-aa4d-9f1956029baf"},"vehicle_type_id":"4","last_reported":1687018044,"current_range_meters":14400,"station_id":"ce4bhgp2rcd13ifvqfc0","pricing_plan_id":"free"},{"bike_id":"456aed17-dc28-4b43-a0e7-6faf975bb6c4","system_id":"levelo_inurba_marseille","lat":43.26186,"lon":5.37438,"is_reserved":false,"is_disabled":false,"rental_uris":{"android":"levelo://app?vid=456aed17-dc28-4b43-a0e7-6faf975bb6c4","ios":"levelo://app?vid=456aed17-dc28-4b43-a0e7-6faf975bb6c4"},"vehicle_type_id":"4","last_reported":1687018044,"current_range_meters":12800,"station_id":"ce4bhgp2rcd13ifvqfc0","pricing_plan_id":"free"},{"bike_id":"35e447c0-4464-4ba8-8677-c0e2fa7139ea","system_id":"levelo_inurba_marseille","lat":43.26186,"lon":5.37439,"is_reserved":false,"is_disabled":false,"rental_uris":{"android":"levelo://app?vid=35e447c0-4464-4ba8-8677-c0e2fa7139ea","ios":"levelo://app?vid=35e447c0-4464-4ba8-8677-c0e2fa7139ea"},"vehicle_type_id":"4","last_reported":1687018044,"current_range_meters":22400,"station_id":"ce4bhgp2rcd13ifvqfc0","pricing_plan_id":"free"},{"bike_id":"3700f044-3ff8-4e35-ab86-449587ac7409","system_id":"levelo_inurba_marseille","lat":43.26186,"lon":5.37446,"is_reserved":false,"is_disabled":false,"rental_uris":{"android":"levelo://app?vid=3700f044-3ff8-4e35-ab86-449587ac7409","ios":"levelo://app?vid=3700f044-3ff8-4e35-ab86-449587ac7409"},"vehicle_type_id":"4","last_reported":1687018044,"current_range_meters":20400,"station_id":"ce4bhgp2rcd13ifvqfc0","pricing_plan_id":"free"},{"bike_id":"09cd2180-0339-469d-8573-2f0de71d5c65","system_id":"levelo_inurba_marseille","lat":43.26184,"lon":5.37437,"is_reserved":false,"is_disabled":false,"rental_uris":{"android":"levelo://app?vid=09cd2180-0339-469d-8573-2f0de71d5c65","ios":"levelo://app?vid=09cd2180-0339-469d-8573-2f0de71d5c65"},"vehicle_type_id":"4","last_reported":1687018044,"current_range_meters":23200,"station_id":"ce4bhgp2rcd13ifvqfc0","pricing_plan_id":"free"},{"bike_id":"800c7725-a90d-42ec-9654-cd0832563dbd","system_id":"levelo_inurba_marseille","lat":43.26184,"lon":5.37437,"is_reserved":false,"is_disabled":false,"rental_uris":{"android":"levelo://app?vid=800c7725-a90d-42ec-9654-cd0832563dbd","ios":"levelo://app?vid=800c7725-a90d-42ec-9654-cd0832563dbd"},"vehicle_type_id":"4","last_reported":1687018044,"current_range_meters":0,"station_id":"ce4bhgp2rcd13ifvqfc0","pricing_plan_id":"free"},{"bike_id":"bd2475cb-5aab-4f93-b6d8-6d4eb1098577","system_id":"levelo_inurba_marseille","lat":43.26184,"lon":5.37444,"is_reserved":false,"is_disabled":false,"rental_uris":{"android":"levelo://app?vid=bd2475cb-5aab-4f93-b6d8-6d4eb1098577","ios":"levelo://app?vid=bd2475cb-5aab-4f93-b6d8-6d4eb1098577"},"vehicle_type_id":"4","last_reported":1687018044,"current_range_meters":3200,"station_id":"ce4bhgp2rcd13ifvqfc0","pricing_plan_id":"free"},{"bike_id":"9d9aeb15-d069-470d-8416-952b433ccd31","system_id":"levelo_inurba_marseille","lat":43.26177,"lon":5.37437,"is_reserved":false,"is_disabled":false,"rental_uris":{"android":"levelo://app?vid=9d9aeb15-d069-470d-8416-952b433ccd31","ios":"levelo://app?vid=9d9aeb15-d069-470d-8416-952b433ccd31"},"vehicle_type_id":"4","last_reported":1687018044,"current_range_meters":1200,"station_id":"ce4bhgp2rcd13ifvqfc0","pricing_plan_id":"free"},{"bike_id":"5c2e1f1a-4f2e-449d-bbe7-8a7b3cb59a51","system_id":"levelo_inurba_marseille","lat":43.26211,"lon":5.37923,"is_reserved":false,"is_disabled":false,"rental_uris":{"android":"levelo://app?vid=5c2e1f1a-4f2e-449d-bbe7-8a7b3cb59a51","ios":"levelo://app?vid=5c2e1f1a-4f2e-449d-bbe7-8a7b3cb59a51"},"vehicle_type_id":"4","last_reported":1687018044,"current_range_meters":14000,"station_id":"ce4bhjp2rcd13ifvqg90","pricing_plan_id":"free"},{"bike_id":"b76cc4f0-c162-477e-9775-3c477ba8fe87","system_id":"levelo_inurba_marseille","lat":43.2621,"lon":5.37924,"is_reserved":false,"is_disabled":false,"rental_uris":{"android":"levelo://app?vid=b76cc4f0-c162-477e-9775-3c477ba8fe87","ios":"levelo://app?vid=b76cc4f0-c162-477e-9775-3c477ba8fe87"},"vehicle_type_id":"4","last_reported":1687018044,"current_range_meters":29600,"station_id":"ce4bhjp2rcd13ifvqg90","pricing_plan_id":"free"},{"bike_id":"e002c8e0-d3a4-45be-a015-e49dbcdde71d","system_id":"levelo_inurba_marseille","lat":43.262012,"lon":5.379307,"is_reserved":false,"is_disabled":false,"rental_uris":{"android":"levelo://app?vid=e002c8e0-d3a4-45be-a015-e49dbcdde71d","ios":"levelo://app?vid=e002c8e0-d3a4-45be-a015-e49dbcdde71d"},"vehicle_type_id":"4","last_reported":1687018044,"current_range_meters":30000,"station_id":"ce4bhjp2rcd13ifvqg90","pricing_plan_id":"free"},{"bike_id":"7d384896-0137-4921-acd3-bc3badb3d20e","system_id":"levelo_inurba_marseille","lat":43.262097,"lon":5.379316,"is_reserved":false,"is_disabled":false,"rental_uris":{"android":"levelo://app?vid=7d384896-0137-4921-acd3-bc3badb3d20e","ios":"levelo://app?vid=7d384896-0137-4921-acd3-bc3badb3d20e"},"vehicle_type_id":"4","last_reported":1687018044,"current_range_meters":0,"station_id":"","pricing_plan_id":"free"},{"bike_id":"2d0f0fe2-9dc3-4547-b7a3-e036c026eb7c","system_id":"levelo_inurba_marseille","lat":43.262012,"lon":5.379307,"is_reserved":false,"is_disabled":false,"rental_uris":{"android":"levelo://app?vid=2d0f0fe2-9dc3-4547-b7a3-e036c026eb7c","ios":"levelo://app?vid=2d0f0fe2-9dc3-4547-b7a3-e036c026eb7c"},"vehicle_type_id":"4","last_reported":1687018044,"current_range_meters":15600,"station_id":"ce4bhjp2rcd13ifvqg90","pricing_plan_id":"free"},{"bike_id":"60c9d739-5601-4d3c-8a49-d3d0a470fe73","system_id":"levelo_inurba_marseille","lat":43.26208,"lon":5.37921,"is_reserved":false,"is_disabled":false,"rental_uris":{"android":"levelo://app?vid=60c9d739-5601-4d3c-8a49-d3d0a470fe73","ios":"levelo://app?vid=60c9d739-5601-4d3c-8a49-d3d0a470fe73"},"vehicle_type_id":"4","last_reported":1687018044,"current_range_meters":24800,"station_id":"ce4bhjp2rcd13ifvqg90","pricing_plan_id":"free"},{"bike_id":"faab296f-48d1-46c5-b2d8-73e773fb8dde","system_id":"levelo_inurba_marseille","lat":43.262012,"lon":5.379307,"is_reserved":false,"is_disabled":false,"rental_uris":{"android":"levelo://app?vid=faab296f-48d1-46c5-b2d8-73e773fb8dde","ios":"levelo://app?vid=faab296f-48d1-46c5-b2d8-73e773fb8dde"},"vehicle_type_id":"4","last_reported":1687018044,"current_range_meters":22400,"station_id":"ce4bhjp2rcd13ifvqg90","pricing_plan_id":"free"},{"bike_id":"eb413128-7bf0-4167-8274-b43467d2c299","system_id":"levelo_inurba_marseille","lat":43.26202,"lon":5.379299,"is_reserved":false,"is_disabled":false,"rental_uris":{"android":"levelo://app?vid=eb413128-7bf0-4167-8274-b43467d2c299","ios":"levelo://app?vid=eb413128-7bf0-4167-8274-b43467d2c299"},"vehicle_type_id":"4","last_reported":1687018044,"current_range_meters":0,"station_id":"ce4bhjp2rcd13ifvqg90","pricing_plan_id":"free"},{"bike_id":"ab511131-7c27-4778-8d24-a26196192374","system_id":"levelo_inurba_marseille","lat":43.26207,"lon":5.37926,"is_reserved":false,"is_disabled":false,"rental_uris":{"android":"levelo://app?vid=ab511131-7c27-4778-8d24-a26196192374","ios":"levelo://app?vid=ab511131-7c27-4778-8d24-a26196192374"},"vehicle_type_id":"4","last_reported":1687018044,"current_range_meters":11600,"station_id":"ce4bhjp2rcd13ifvqg90","pricing_plan_id":"free"},{"bike_id":"a0e19f69-ff46-4cd1-a2b9-64ea9a24cf5d","system_id":"levelo_inurba_marseille","lat":43.262012,"lon":5.379307,"is_reserved":false,"is_disabled":false,"rental_uris":{"android":"levelo://app?vid=a0e19f69-ff46-4cd1-a2b9-64ea9a24cf5d","ios":"levelo://app?vid=a0e19f69-ff46-4cd1-a2b9-64ea9a24cf5d"},"vehicle_type_id":"4","last_reported":1687018044,"current_range_meters":11600,"station_id":"ce4bhjp2rcd13ifvqg90","pricing_plan_id":"free"},{"bike_id":"e2dc7dfa-610e-4a4e-97f1-c2c501cba8c1","system_id":"levelo_inurba_marseille","lat":43.26202,"lon":5.379299,"is_reserved":false,"is_disabled":false,"rental_uris":{"android":"levelo://app?vid=e2dc7dfa-610e-4a4e-97f1-c2c501cba8c1","ios":"levelo://app?vid=e2dc7dfa-610e-4a4e-97f1-c2c501cba8c1"},"vehicle_type_id":"4","last_reported":1687018044,"current_range_meters":18000,"station_id":"ce4bhjp2rcd13ifvqg90","pricing_plan_id":"free"},{"bike_id":"7891bf97-4eb1-4cae-8d6e-efdfff2479a5","system_id":"levelo_inurba_marseille","lat":43.26202,"lon":5.379299,"is_reserved":false,"is_disabled":false,"rental_uris":{"android":"levelo://app?vid=7891bf97-4eb1-4cae-8d6e-efdfff2479a5","ios":"levelo://app?vid=7891bf97-4eb1-4cae-8d6e-efdfff2479a5"},"vehicle_type_id":"4","last_reported":1687018044,"current_range_meters":16400,"station_id":"ce4bhjp2rcd13ifvqg90","pricing_plan_id":"free"},{"bike_id":"6f79e5b2-cd04-4e4b-9552-3e65771dce9e","system_id":"levelo_inurba_marseille","lat":43.26206,"lon":5.37923,"is_reserved":false,"is_disabled":false,"rental_uris":{"android":"levelo://app?vid=6f79e5b2-cd04-4e4b-9552-3e65771dce9e","ios":"levelo://app?vid=6f79e5b2-cd04-4e4b-9552-3e65771dce9e"},"vehicle_type_id":"4","last_reported":1687018044,"current_range_meters":18800,"station_id":"ce4bhjp2rcd13ifvqg90","pricing_plan_id":"free"},{"bike_id":"169f9af3-aed2-4fdc-934f-663fee0188f6","system_id":"levelo_inurba_marseille","lat":43.26202,"lon":5.379299,"is_reserved":false,"is_disabled":false,"rental_uris":{"android":"levelo://app?vid=169f9af3-aed2-4fdc-934f-663fee0188f6","ios":"levelo://app?vid=169f9af3-aed2-4fdc-934f-663fee0188f6"},"vehicle_type_id":"4","last_reported":1687018044,"current_range_meters":20400,"station_id":"ce4bhjp2rcd13ifvqg90","pricing_plan_id":"free"},{"bike_id":"345386e5-0aa6-4b66-8386-c8304249d7e8","system_id":"levelo_inurba_marseille","lat":43.262012,"lon":5.379307,"is_reserved":false,"is_disabled":false,"rental_uris":{"android":"levelo://app?vid=345386e5-0aa6-4b66-8386-c8304249d7e8","ios":"levelo://app?vid=345386e5-0aa6-4b66-8386-c8304249d7e8"},"vehicle_type_id":"4","last_reported":1687018044,"current_range_meters":19200,"station_id":"ce4bhjp2rcd13ifvqg90","pricing_plan_id":"free"},{"bike_id":"e12747e2-cb30-40ae-8ccc-5f1f274383f1","system_id":"levelo_inurba_marseille","lat":43.26202,"lon":5.379299,"is_reserved":false,"is_disabled":false,"rental_uris":{"android":"levelo://app?vid=e12747e2-cb30-40ae-8ccc-5f1f274383f1","ios":"levelo://app?vid=e12747e2-cb30-40ae-8ccc-5f1f274383f1"},"vehicle_type_id":"4","last_reported":1687018044,"current_range_meters":13200,"station_id":"ce4bhjp2rcd13ifvqg90","pricing_plan_id":"free"},{"bike_id":"c399ea41-3739-433c-8f2a-ffdd523ae783","system_id":"levelo_inurba_marseille","lat":43.26206,"lon":5.3793,"is_reserved":false,"is_disabled":false,"rental_uris":{"android":"levelo://app?vid=c399ea41-3739-433c-8f2a-ffdd523ae783","ios":"levelo://app?vid=c399ea41-3739-433c-8f2a-ffdd523ae783"},"vehicle_type_id":"4","last_reported":1687018044,"current_range_meters":8400,"station_id":"ce4bhjp2rcd13ifvqg90","pricing_plan_id":"free"},{"bike_id":"7454b8b7-8079-4d3c-8801-ec847d4dd099","system_id":"levelo_inurba_marseille","lat":43.26205,"lon":5.37927,"is_reserved":false,"is_disabled":false,"rental_uris":{"android":"levelo://app?vid=7454b8b7-8079-4d3c-8801-ec847d4dd099","ios":"levelo://app?vid=7454b8b7-8079-4d3c-8801-ec847d4dd099"},"vehicle_type_id":"4","last_reported":1687018044,"current_range_meters":22400,"station_id":"ce4bhjp2rcd13ifvqg90","pricing_plan_id":"free"},{"bike_id":"3bec7a60-c973-48c8-8593-c910ea86f010","system_id":"levelo_inurba_marseille","lat":43.262012,"lon":5.379307,"is_reserved":false,"is_disabled":false,"rental_uris":{"android":"levelo://app?vid=3bec7a60-c973-48c8-8593-c910ea86f010","ios":"levelo://app?vid=3bec7a60-c973-48c8-8593-c910ea86f010"},"vehicle_type_id":"4","last_reported":1687018044,"current_range_meters":4800,"station_id":"ce4bhjp2rcd13ifvqg90","pricing_plan_id":"free"},{"bike_id":"c02d7797-b855-4777-9f2b-f73e85522ec9","system_id":"levelo_inurba_marseille","lat":43.26204,"lon":5.37926,"is_reserved":false,"is_disabled":false,"rental_uris":{"android":"levelo://app?vid=c02d7797-b855-4777-9f2b-f73e85522ec9","ios":"levelo://app?vid=c02d7797-b855-4777-9f2b-f73e85522ec9"},"vehicle_type_id":"4","last_reported":1687018044,"current_range_meters":17200,"station_id":"ce4bhjp2rcd13ifvqg90","pricing_plan_id":"free"},{"bike_id":"a3a5017f-f229-4c95-a65f-5320b6a86295","system_id":"levelo_inurba_marseille","lat":43.262012,"lon":5.379307,"is_reserved":false,"is_disabled":false,"rental_uris":{"android":"levelo://app?vid=a3a5017f-f229-4c95-a65f-5320b6a86295","ios":"levelo://app?vid=a3a5017f-f229-4c95-a65f-5320b6a86295"},"vehicle_type_id":"4","last_reported":1687018044,"current_range_meters":2000,"station_id":"ce4bhjp2rcd13ifvqg90","pricing_plan_id":"free"},{"bike_id":"0f32807b-3989-43d0-8336-df89a6bbc3de","system_id":"levelo_inurba_marseille","lat":43.26204,"lon":5.37929,"is_reserved":false,"is_disabled":false,"rental_uris":{"android":"levelo://app?vid=0f32807b-3989-43d0-8336-df89a6bbc3de","ios":"levelo://app?vid=0f32807b-3989-43d0-8336-df89a6bbc3de"},"vehicle_type_id":"4","last_reported":1687018044,"current_range_meters":21600,"station_id":"ce4bhjp2rcd13ifvqg90","pricing_plan_id":"free"},{"bike_id":"b66ee968-f311-40a9-86d7-6297db3c3882","system_id":"levelo_inurba_marseille","lat":43.26203,"lon":5.37923,"is_reserved":false,"is_disabled":false,"rental_uris":{"android":"levelo://app?vid=b66ee968-f311-40a9-86d7-6297db3c3882","ios":"levelo://app?vid=b66ee968-f311-40a9-86d7-6297db3c3882"},"vehicle_type_id":"4","last_reported":1687018044,"current_range_meters":18400,"station_id":"ce4bhjp2rcd13ifvqg90","pricing_plan_id":"free"},{"bike_id":"105aba82-4d29-4740-ae55-0a1d2d67eac8","system_id":"levelo_inurba_marseille","lat":43.26202,"lon":5.379299,"is_reserved":false,"is_disabled":false,"rental_uris":{"android":"levelo://app?vid=105aba82-4d29-4740-ae55-0a1d2d67eac8","ios":"levelo://app?vid=105aba82-4d29-4740-ae55-0a1d2d67eac8"},"vehicle_type_id":"4","last_reported":1687018044,"current_range_meters":10400,"station_id":"ce4bhjp2rcd13ifvqg90","pricing_plan_id":"free"},{"bike_id":"badef50d-2ca5-49b5-81fd-5c6463b43555","system_id":"levelo_inurba_marseille","lat":43.26203,"lon":5.37928,"is_reserved":false,"is_disabled":false,"rental_uris":{"android":"levelo://app?vid=badef50d-2ca5-49b5-81fd-5c6463b43555","ios":"levelo://app?vid=badef50d-2ca5-49b5-81fd-5c6463b43555"},"vehicle_type_id":"4","last_reported":1687018044,"current_range_meters":8400,"station_id":"ce4bhjp2rcd13ifvqg90","pricing_plan_id":"free"},{"bike_id":"d7292054-79ef-46c8-b12f-5831db458894","system_id":"levelo_inurba_marseille","lat":43.26203,"lon":5.37928,"is_reserved":false,"is_disabled":false,"rental_uris":{"android":"levelo://app?vid=d7292054-79ef-46c8-b12f-5831db458894","ios":"levelo://app?vid=d7292054-79ef-46c8-b12f-5831db458894"},"vehicle_type_id":"4","last_reported":1687018044,"current_range_meters":0,"station_id":"ce4bhjp2rcd13ifvqg90","pricing_plan_id":"free"},{"bike_id":"e8b6fafc-fab8-42a4-8ea0-9b2033819168","system_id":"levelo_inurba_marseille","lat":43.26203,"lon":5.37929,"is_reserved":false,"is_disabled":false,"rental_uris":{"android":"levelo://app?vid=e8b6fafc-fab8-42a4-8ea0-9b2033819168","ios":"levelo://app?vid=e8b6fafc-fab8-42a4-8ea0-9b2033819168"},"vehicle_type_id":"4","last_reported":1687018044,"current_range_meters":6400,"station_id":"ce4bhjp2rcd13ifvqg90","pricing_plan_id":"free"},{"bike_id":"1290350e-c139-492d-bc0a-49bd9a893d1f","system_id":"levelo_inurba_marseille","lat":43.26203,"lon":5.37931,"is_reserved":false,"is_disabled":false,"rental_uris":{"android":"levelo://app?vid=1290350e-c139-492d-bc0a-49bd9a893d1f","ios":"levelo://app?vid=1290350e-c139-492d-bc0a-49bd9a893d1f"},"vehicle_type_id":"4","last_reported":1687018044,"current_range_meters":18800,"station_id":"ce4bhjp2rcd13ifvqg90","pricing_plan_id":"free"},{"bike_id":"5235f36c-90e9-47f4-8a63-79e0921267af","system_id":"levelo_inurba_marseille","lat":43.26202,"lon":5.37925,"is_reserved":false,"is_disabled":false,"rental_uris":{"android":"levelo://app?vid=5235f36c-90e9-47f4-8a63-79e0921267af","ios":"levelo://app?vid=5235f36c-90e9-47f4-8a63-79e0921267af"},"vehicle_type_id":"4","last_reported":1687018044,"current_range_meters":10800,"station_id":"ce4bhjp2rcd13ifvqg90","pricing_plan_id":"free"},{"bike_id":"350b9ea5-6643-4a3a-b826-0bf340ae4c16","system_id":"levelo_inurba_marseille","lat":43.26202,"lon":5.37925,"is_reserved":false,"is_disabled":false,"rental_uris":{"android":"levelo://app?vid=350b9ea5-6643-4a3a-b826-0bf340ae4c16","ios":"levelo://app?vid=350b9ea5-6643-4a3a-b826-0bf340ae4c16"},"vehicle_type_id":"4","last_reported":1687018044,"current_range_meters":21600,"station_id":"ce4bhjp2rcd13ifvqg90","pricing_plan_id":"free"},{"bike_id":"fa11bb5b-8649-4d40-975e-6e9e9ac9a7ee","system_id":"levelo_inurba_marseille","lat":43.26202,"lon":5.37927,"is_reserved":false,"is_disabled":false,"rental_uris":{"android":"levelo://app?vid=fa11bb5b-8649-4d40-975e-6e9e9ac9a7ee","ios":"levelo://app?vid=fa11bb5b-8649-4d40-975e-6e9e9ac9a7ee"},"vehicle_type_id":"4","last_reported":1687018044,"current_range_meters":18800,"station_id":"ce4bhjp2rcd13ifvqg90","pricing_plan_id":"free"},{"bike_id":"4221ef51-b6f7-48eb-89db-3c2c7f768117","system_id":"levelo_inurba_marseille","lat":43.262012,"lon":5.379307,"is_reserved":false,"is_disabled":false,"rental_uris":{"android":"levelo://app?vid=4221ef51-b6f7-48eb-89db-3c2c7f768117","ios":"levelo://app?vid=4221ef51-b6f7-48eb-89db-3c2c7f768117"},"vehicle_type_id":"4","last_reported":1687018044,"current_range_meters":0,"station_id":"ce4bhjp2rcd13ifvqg90","pricing_plan_id":"free"},{"bike_id":"3c5b1740-bc31-4744-acf7-44c3afca5eef","system_id":"levelo_inurba_marseille","lat":43.26202,"lon":5.37931,"is_reserved":false,"is_disabled":false,"rental_uris":{"android":"levelo://app?vid=3c5b1740-bc31-4744-acf7-44c3afca5eef","ios":"levelo://app?vid=3c5b1740-bc31-4744-acf7-44c3afca5eef"},"vehicle_type_id":"4","last_reported":1687018044,"current_range_meters":10400,"station_id":"ce4bhjp2rcd13ifvqg90","pricing_plan_id":"free"},{"bike_id":"7b97506e-ee8f-4885-a673-6a0a3edbcc6e","system_id":"levelo_inurba_marseille","lat":43.26202,"lon":5.379299,"is_reserved":false,"is_disabled":false,"rental_uris":{"android":"levelo://app?vid=7b97506e-ee8f-4885-a673-6a0a3edbcc6e","ios":"levelo://app?vid=7b97506e-ee8f-4885-a673-6a0a3edbcc6e"},"vehicle_type_id":"4","last_reported":1687018044,"current_range_meters":15200,"station_id":"ce4bhjp2rcd13ifvqg90","pricing_plan_id":"free"},{"bike_id":"3ce3f8d5-822f-43c7-b878-d1de4963a2c5","system_id":"levelo_inurba_marseille","lat":43.262,"lon":5.37922,"is_reserved":false,"is_disabled":false,"rental_uris":{"android":"levelo://app?vid=3ce3f8d5-822f-43c7-b878-d1de4963a2c5","ios":"levelo://app?vid=3ce3f8d5-822f-43c7-b878-d1de4963a2c5"},"vehicle_type_id":"4","last_reported":1687018044,"current_range_meters":5600,"station_id":"ce4bhjp2rcd13ifvqg90","pricing_plan_id":"free"},{"bike_id":"703a8786-ddd0-4f61-843e-fadf0bf61061","system_id":"levelo_inurba_marseille","lat":43.26201,"lon":5.3793,"is_reserved":false,"is_disabled":false,"rental_uris":{"android":"levelo://app?vid=703a8786-ddd0-4f61-843e-fadf0bf61061","ios":"levelo://app?vid=703a8786-ddd0-4f61-843e-fadf0bf61061"},"vehicle_type_id":"4","last_reported":1687018044,"current_range_meters":14800,"station_id":"ce4bhjp2rcd13ifvqg90","pricing_plan_id":"free"},{"bike_id":"eb82b6b3-daf9-4f09-bed8-2b784cf070fa","system_id":"levelo_inurba_marseille","lat":43.262012,"lon":5.379307,"is_reserved":false,"is_disabled":false,"rental_uris":{"android":"levelo://app?vid=eb82b6b3-daf9-4f09-bed8-2b784cf070fa","ios":"levelo://app?vid=eb82b6b3-daf9-4f09-bed8-2b784cf070fa"},"vehicle_type_id":"4","last_reported":1687018044,"current_range_meters":6000,"station_id":"ce4bhjp2rcd13ifvqg90","pricing_plan_id":"free"},{"bike_id":"3096f713-b093-493f-9a5b-0467126c255f","system_id":"levelo_inurba_marseille","lat":43.26199,"lon":5.37931,"is_reserved":false,"is_disabled":false,"rental_uris":{"android":"levelo://app?vid=3096f713-b093-493f-9a5b-0467126c255f","ios":"levelo://app?vid=3096f713-b093-493f-9a5b-0467126c255f"},"vehicle_type_id":"4","last_reported":1687018044,"current_range_meters":5200,"station_id":"ce4bhjp2rcd13ifvqg90","pricing_plan_id":"free"},{"bike_id":"f64f9c25-ba0f-4934-8b5e-83e02bbd4828","system_id":"levelo_inurba_marseille","lat":43.26199,"lon":5.37935,"is_reserved":false,"is_disabled":false,"rental_uris":{"android":"levelo://app?vid=f64f9c25-ba0f-4934-8b5e-83e02bbd4828","ios":"levelo://app?vid=f64f9c25-ba0f-4934-8b5e-83e02bbd4828"},"vehicle_type_id":"4","last_reported":1687018044,"current_range_meters":1200,"station_id":"ce4bhjp2rcd13ifvqg90","pricing_plan_id":"free"},{"bike_id":"ab378214-b701-4916-8132-48240331f637","system_id":"levelo_inurba_marseille","lat":43.262012,"lon":5.379307,"is_reserved":false,"is_disabled":false,"rental_uris":{"android":"levelo://app?vid=ab378214-b701-4916-8132-48240331f637","ios":"levelo://app?vid=ab378214-b701-4916-8132-48240331f637"},"vehicle_type_id":"4","last_reported":1687018044,"current_range_meters":12800,"station_id":"ce4bhjp2rcd13ifvqg90","pricing_plan_id":"free"},{"bike_id":"255f1d55-73f2-4691-adc3-2cc7cbe003f7","system_id":"levelo_inurba_marseille","lat":43.262012,"lon":5.379307,"is_reserved":false,"is_disabled":false,"rental_uris":{"android":"levelo://app?vid=255f1d55-73f2-4691-adc3-2cc7cbe003f7","ios":"levelo://app?vid=255f1d55-73f2-4691-adc3-2cc7cbe003f7"},"vehicle_type_id":"4","last_reported":1687018044,"current_range_meters":10800,"station_id":"ce4bhjp2rcd13ifvqg90","pricing_plan_id":"free"},{"bike_id":"6e57d335-6dd5-4de1-9798-f96614239d95","system_id":"levelo_inurba_marseille","lat":43.262012,"lon":5.379307,"is_reserved":false,"is_disabled":false,"rental_uris":{"android":"levelo://app?vid=6e57d335-6dd5-4de1-9798-f96614239d95","ios":"levelo://app?vid=6e57d335-6dd5-4de1-9798-f96614239d95"},"vehicle_type_id":"4","last_reported":1687018044,"current_range_meters":23200,"station_id":"ce4bhjp2rcd13ifvqg90","pricing_plan_id":"free"},{"bike_id":"ac4b4467-1140-46fb-b479-59208d93449c","system_id":"levelo_inurba_marseille","lat":43.271368,"lon":5.40928,"is_reserved":false,"is_disabled":false,"rental_uris":{"android":"levelo://app?vid=ac4b4467-1140-46fb-b479-59208d93449c","ios":"levelo://app?vid=ac4b4467-1140-46fb-b479-59208d93449c"},"vehicle_type_id":"4","last_reported":1687018044,"current_range_meters":4800,"station_id":"ce4bhl12rcd13ifvqgf0","pricing_plan_id":"free"},{"bike_id":"61815ecb-b091-48a9-ad23-13f67bbc74f0","system_id":"levelo_inurba_marseille","lat":43.298768,"lon":5.43643,"is_reserved":false,"is_disabled":false,"rental_uris":{"android":"levelo://app?vid=61815ecb-b091-48a9-ad23-13f67bbc74f0","ios":"levelo://app?vid=61815ecb-b091-48a9-ad23-13f67bbc74f0"},"vehicle_type_id":"4","last_reported":1687018044,"current_range_meters":15200,"station_id":"ce4bhpp2rcd13ifvqhfg","pricing_plan_id":"free"},{"bike_id":"14c9e122-3c23-4a4c-a960-55ef9bf06474","system_id":"levelo_inurba_marseille","lat":43.298768,"lon":5.43643,"is_reserved":false,"is_disabled":false,"rental_uris":{"android":"levelo://app?vid=14c9e122-3c23-4a4c-a960-55ef9bf06474","ios":"levelo://app?vid=14c9e122-3c23-4a4c-a960-55ef9bf06474"},"vehicle_type_id":"4","last_reported":1687018044,"current_range_meters":20800,"station_id":"ce4bhpp2rcd13ifvqhfg","pricing_plan_id":"free"},{"bike_id":"dc217a76-acde-40e0-98d4-1e9a50d71128","system_id":"levelo_inurba_marseille","lat":43.260219,"lon":5.37546,"is_reserved":false,"is_disabled":false,"rental_uris":{"android":"levelo://app?vid=dc217a76-acde-40e0-98d4-1e9a50d71128","ios":"levelo://app?vid=dc217a76-acde-40e0-98d4-1e9a50d71128"},"vehicle_type_id":"4","last_reported":1687018044,"current_range_meters":31200,"station_id":"ce4bhgh2rcd13ifvqfa0","pricing_plan_id":"free"},{"bike_id":"28325d44-afde-46f3-8800-3ac242605390","system_id":"levelo_inurba_marseille","lat":43.260219,"lon":5.37546,"is_reserved":false,"is_disabled":false,"rental_uris":{"android":"levelo://app?vid=28325d44-afde-46f3-8800-3ac242605390","ios":"levelo://app?vid=28325d44-afde-46f3-8800-3ac242605390"},"vehicle_type_id":"4","last_reported":1687018044,"current_range_meters":22000,"station_id":"ce4bhgh2rcd13ifvqfa0","pricing_plan_id":"free"},{"bike_id":"73132d44-ee1d-4012-91fe-526812cd4785","system_id":"levelo_inurba_marseille","lat":43.26066,"lon":5.39393,"is_reserved":false,"is_disabled":false,"rental_uris":{"android":"levelo://app?vid=73132d44-ee1d-4012-91fe-526812cd4785","ios":"levelo://app?vid=73132d44-ee1d-4012-91fe-526812cd4785"},"vehicle_type_id":"4","last_reported":1687018044,"current_range_meters":22400,"station_id":"ce4bhh92rcd13ifvqfj0","pricing_plan_id":"free"},{"bike_id":"a5ef0b4b-5204-4a5a-bacd-8ec1a14be474","system_id":"levelo_inurba_marseille","lat":43.2607,"lon":5.393983,"is_reserved":false,"is_disabled":false,"rental_uris":{"android":"levelo://app?vid=a5ef0b4b-5204-4a5a-bacd-8ec1a14be474","ios":"levelo://app?vid=a5ef0b4b-5204-4a5a-bacd-8ec1a14be474"},"vehicle_type_id":"4","last_reported":1687018044,"current_range_meters":30400,"station_id":"ce4bhh92rcd13ifvqfj0","pricing_plan_id":"free"},{"bike_id":"f6cf65a0-bcc4-43cd-842a-35e40c21df46","system_id":"levelo_inurba_marseille","lat":43.255756,"lon":5.382303,"is_reserved":false,"is_disabled":false,"rental_uris":{"android":"levelo://app?vid=f6cf65a0-bcc4-43cd-842a-35e40c21df46","ios":"levelo://app?vid=f6cf65a0-bcc4-43cd-842a-35e40c21df46"},"vehicle_type_id":"4","last_reported":1687018044,"current_range_meters":17200,"station_id":"ce4bhih2rcd13ifvqfs0","pricing_plan_id":"free"},{"bike_id":"35ee8581-f8b1-4f1b-bfd3-c5be5b98908a","system_id":"levelo_inurba_marseille","lat":43.2558,"lon":5.38238,"is_reserved":false,"is_disabled":false,"rental_uris":{"android":"levelo://app?vid=35ee8581-f8b1-4f1b-bfd3-c5be5b98908a","ios":"levelo://app?vid=35ee8581-f8b1-4f1b-bfd3-c5be5b98908a"},"vehicle_type_id":"4","last_reported":1687018044,"current_range_meters":28800,"station_id":"ce4bhih2rcd13ifvqfs0","pricing_plan_id":"free"},{"bike_id":"223614b4-69db-4922-b10c-f2943538dd14","system_id":"levelo_inurba_marseille","lat":43.255756,"lon":5.382303,"is_reserved":false,"is_disabled":false,"rental_uris":{"android":"levelo://app?vid=223614b4-69db-4922-b10c-f2943538dd14","ios":"levelo://app?vid=223614b4-69db-4922-b10c-f2943538dd14"},"vehicle_type_id":"4","last_reported":1687018044,"current_range_meters":30000,"station_id":"ce4bhih2rcd13ifvqfs0","pricing_plan_id":"free"},{"bike_id":"07cc9fef-edd4-4a21-b448-f3eeb595c5c0","system_id":"levelo_inurba_marseille","lat":43.255756,"lon":5.382303,"is_reserved":false,"is_disabled":false,"rental_uris":{"android":"levelo://app?vid=07cc9fef-edd4-4a21-b448-f3eeb595c5c0","ios":"levelo://app?vid=07cc9fef-edd4-4a21-b448-f3eeb595c5c0"},"vehicle_type_id":"4","last_reported":1687018044,"current_range_meters":4000,"station_id":"ce4bhih2rcd13ifvqfs0","pricing_plan_id":"free"},{"bike_id":"261574c9-ef5a-42d0-9a91-238af813c08c","system_id":"levelo_inurba_marseille","lat":43.255756,"lon":5.382303,"is_reserved":false,"is_disabled":false,"rental_uris":{"android":"levelo://app?vid=261574c9-ef5a-42d0-9a91-238af813c08c","ios":"levelo://app?vid=261574c9-ef5a-42d0-9a91-238af813c08c"},"vehicle_type_id":"4","last_reported":1687018044,"current_range_meters":16800,"station_id":"ce4bhih2rcd13ifvqfs0","pricing_plan_id":"free"},{"bike_id":"eafc13d1-f4fd-4b47-aade-fbfdb6e0bdb6","system_id":"levelo_inurba_marseille","lat":43.255756,"lon":5.382303,"is_reserved":false,"is_disabled":false,"rental_uris":{"android":"levelo://app?vid=eafc13d1-f4fd-4b47-aade-fbfdb6e0bdb6","ios":"levelo://app?vid=eafc13d1-f4fd-4b47-aade-fbfdb6e0bdb6"},"vehicle_type_id":"4","last_reported":1687018044,"current_range_meters":29200,"station_id":"ce4bhih2rcd13ifvqfs0","pricing_plan_id":"free"},{"bike_id":"ae973ab5-f928-423e-af66-98b9ea044290","system_id":"levelo_inurba_marseille","lat":43.25575,"lon":5.38228,"is_reserved":false,"is_disabled":false,"rental_uris":{"android":"levelo://app?vid=ae973ab5-f928-423e-af66-98b9ea044290","ios":"levelo://app?vid=ae973ab5-f928-423e-af66-98b9ea044290"},"vehicle_type_id":"4","last_reported":1687018044,"current_range_meters":7600,"station_id":"ce4bhih2rcd13ifvqfs0","pricing_plan_id":"free"},{"bike_id":"ce9cc4f3-0a9d-47b8-8b34-d95dc82cb87d","system_id":"levelo_inurba_marseille","lat":43.255,"lon":5.37647,"is_reserved":false,"is_disabled":false,"rental_uris":{"android":"levelo://app?vid=ce9cc4f3-0a9d-47b8-8b34-d95dc82cb87d","ios":"levelo://app?vid=ce9cc4f3-0a9d-47b8-8b34-d95dc82cb87d"},"vehicle_type_id":"4","last_reported":1687018044,"current_range_meters":28400,"station_id":"ce4bhh12rcd13ifvqff0","pricing_plan_id":"free"},{"bike_id":"14302488-9eb6-428c-8143-6c5de82787d9","system_id":"levelo_inurba_marseille","lat":43.254945,"lon":5.376454,"is_reserved":false,"is_disabled":false,"rental_uris":{"android":"levelo://app?vid=14302488-9eb6-428c-8143-6c5de82787d9","ios":"levelo://app?vid=14302488-9eb6-428c-8143-6c5de82787d9"},"vehicle_type_id":"4","last_reported":1687018044,"current_range_meters":31200,"station_id":"ce4bhh12rcd13ifvqff0","pricing_plan_id":"free"},{"bike_id":"86a905a3-3c0a-4ae9-a4b6-2eee22cb5b00","system_id":"levelo_inurba_marseille","lat":43.25932,"lon":5.40897,"is_reserved":false,"is_disabled":false,"rental_uris":{"android":"levelo://app?vid=86a905a3-3c0a-4ae9-a4b6-2eee22cb5b00","ios":"levelo://app?vid=86a905a3-3c0a-4ae9-a4b6-2eee22cb5b00"},"vehicle_type_id":"4","last_reported":1687018044,"current_range_meters":4400,"station_id":"","pricing_plan_id":"free"},{"bike_id":"3cfdbd2a-640e-4f3c-bb26-0a5fa742d974","system_id":"levelo_inurba_marseille","lat":43.25935,"lon":5.4091,"is_reserved":false,"is_disabled":false,"rental_uris":{"android":"levelo://app?vid=3cfdbd2a-640e-4f3c-bb26-0a5fa742d974","ios":"levelo://app?vid=3cfdbd2a-640e-4f3c-bb26-0a5fa742d974"},"vehicle_type_id":"4","last_reported":1687018044,"current_range_meters":0,"station_id":"","pricing_plan_id":"free"},{"bike_id":"f44e6d11-6fdb-4946-a083-d97bec6a15f0","system_id":"levelo_inurba_marseille","lat":43.25931,"lon":5.40901,"is_reserved":false,"is_disabled":false,"rental_uris":{"android":"levelo://app?vid=f44e6d11-6fdb-4946-a083-d97bec6a15f0","ios":"levelo://app?vid=f44e6d11-6fdb-4946-a083-d97bec6a15f0"},"vehicle_type_id":"4","last_reported":1687018044,"current_range_meters":14000,"station_id":"","pricing_plan_id":"free"},{"bike_id":"d7e6885a-915f-4840-b812-71547a248711","system_id":"levelo_inurba_marseille","lat":43.25931,"lon":5.40902,"is_reserved":false,"is_disabled":false,"rental_uris":{"android":"levelo://app?vid=d7e6885a-915f-4840-b812-71547a248711","ios":"levelo://app?vid=d7e6885a-915f-4840-b812-71547a248711"},"vehicle_type_id":"4","last_reported":1687018044,"current_range_meters":10400,"station_id":"","pricing_plan_id":"free"},{"bike_id":"380ea018-6d53-423b-b8cb-4a86fff7f762","system_id":"levelo_inurba_marseille","lat":43.25931,"lon":5.40902,"is_reserved":false,"is_disabled":false,"rental_uris":{"android":"levelo://app?vid=380ea018-6d53-423b-b8cb-4a86fff7f762","ios":"levelo://app?vid=380ea018-6d53-423b-b8cb-4a86fff7f762"},"vehicle_type_id":"4","last_reported":1687018044,"current_range_meters":6800,"station_id":"","pricing_plan_id":"free"},{"bike_id":"84e383d7-99e5-4c88-b70a-994ba9ddca7e","system_id":"levelo_inurba_marseille","lat":43.25933,"lon":5.40909,"is_reserved":false,"is_disabled":false,"rental_uris":{"android":"levelo://app?vid=84e383d7-99e5-4c88-b70a-994ba9ddca7e","ios":"levelo://app?vid=84e383d7-99e5-4c88-b70a-994ba9ddca7e"},"vehicle_type_id":"4","last_reported":1687018044,"current_range_meters":14400,"station_id":"","pricing_plan_id":"free"},{"bike_id":"be0e3e3e-eb2d-47ab-82b9-3eea3770476b","system_id":"levelo_inurba_marseille","lat":43.2593,"lon":5.40905,"is_reserved":false,"is_disabled":false,"rental_uris":{"android":"levelo://app?vid=be0e3e3e-eb2d-47ab-82b9-3eea3770476b","ios":"levelo://app?vid=be0e3e3e-eb2d-47ab-82b9-3eea3770476b"},"vehicle_type_id":"4","last_reported":1687018044,"current_range_meters":12000,"station_id":"","pricing_plan_id":"free"},{"bike_id":"646e882c-ff7f-4fec-858a-1be9b834ebd0","system_id":"levelo_inurba_marseille","lat":43.248135,"lon":5.374524,"is_reserved":false,"is_disabled":false,"rental_uris":{"android":"levelo://app?vid=646e882c-ff7f-4fec-858a-1be9b834ebd0","ios":"levelo://app?vid=646e882c-ff7f-4fec-858a-1be9b834ebd0"},"vehicle_type_id":"4","last_reported":1687018044,"current_range_meters":18800,"station_id":"ce4bhgh2rcd13ifvqfb0","pricing_plan_id":"free"},{"bike_id":"d6d1e319-9bc8-4a29-9a52-803f6bc9e4eb","system_id":"levelo_inurba_marseille","lat":43.2481,"lon":5.37458,"is_reserved":false,"is_disabled":false,"rental_uris":{"android":"levelo://app?vid=d6d1e319-9bc8-4a29-9a52-803f6bc9e4eb","ios":"levelo://app?vid=d6d1e319-9bc8-4a29-9a52-803f6bc9e4eb"},"vehicle_type_id":"4","last_reported":1687018044,"current_range_meters":31200,"station_id":"ce4bhgh2rcd13ifvqfb0","pricing_plan_id":"free"},{"bike_id":"2727c301-c467-4526-941b-c2d9b9b4e585","system_id":"levelo_inurba_marseille","lat":43.24802,"lon":5.37448,"is_reserved":false,"is_disabled":false,"rental_uris":{"android":"levelo://app?vid=2727c301-c467-4526-941b-c2d9b9b4e585","ios":"levelo://app?vid=2727c301-c467-4526-941b-c2d9b9b4e585"},"vehicle_type_id":"4","last_reported":1687018044,"current_range_meters":31200,"station_id":"ce4bhgh2rcd13ifvqfb0","pricing_plan_id":"free"},{"bike_id":"e5ac606c-4095-418f-81dd-55b17a96f551","system_id":"levelo_inurba_marseille","lat":43.2479,"lon":5.374457,"is_reserved":false,"is_disabled":false,"rental_uris":{"android":"levelo://app?vid=e5ac606c-4095-418f-81dd-55b17a96f551","ios":"levelo://app?vid=e5ac606c-4095-418f-81dd-55b17a96f551"},"vehicle_type_id":"4","last_reported":1687018044,"current_range_meters":20000,"station_id":"ce4bhgh2rcd13ifvqfb0","pricing_plan_id":"free"},{"bike_id":"4e8a406e-348d-425e-9cab-42a9b1d607f0","system_id":"levelo_inurba_marseille","lat":43.250966,"lon":5.395186,"is_reserved":false,"is_disabled":false,"rental_uris":{"android":"levelo://app?vid=4e8a406e-348d-425e-9cab-42a9b1d607f0","ios":"levelo://app?vid=4e8a406e-348d-425e-9cab-42a9b1d607f0"},"vehicle_type_id":"4","last_reported":1687018044,"current_range_meters":18800,"station_id":"ce4bhm12rcd13ifvqgkg","pricing_plan_id":"free"},{"bike_id":"2989ebd0-3b35-497f-bba3-9d13ed40cf22","system_id":"levelo_inurba_marseille","lat":43.250966,"lon":5.395186,"is_reserved":false,"is_disabled":false,"rental_uris":{"android":"levelo://app?vid=2989ebd0-3b35-497f-bba3-9d13ed40cf22","ios":"levelo://app?vid=2989ebd0-3b35-497f-bba3-9d13ed40cf22"},"vehicle_type_id":"4","last_reported":1687018044,"current_range_meters":31600,"station_id":"ce4bhm12rcd13ifvqgkg","pricing_plan_id":"free"},{"bike_id":"90d6893a-f1b0-4703-883c-6fbf42830f17","system_id":"levelo_inurba_marseille","lat":43.24412,"lon":5.37112,"is_reserved":false,"is_disabled":false,"rental_uris":{"android":"levelo://app?vid=90d6893a-f1b0-4703-883c-6fbf42830f17","ios":"levelo://app?vid=90d6893a-f1b0-4703-883c-6fbf42830f17"},"vehicle_type_id":"4","last_reported":1687018044,"current_range_meters":26400,"station_id":"","pricing_plan_id":"free"},{"bike_id":"05af92fc-07f4-423c-bdb2-cfa717101036","system_id":"levelo_inurba_marseille","lat":43.24391,"lon":5.37062,"is_reserved":false,"is_disabled":false,"rental_uris":{"android":"levelo://app?vid=05af92fc-07f4-423c-bdb2-cfa717101036","ios":"levelo://app?vid=05af92fc-07f4-423c-bdb2-cfa717101036"},"vehicle_type_id":"4","last_reported":1687018044,"current_range_meters":31200,"station_id":"ce4bhhh2rcd13ifvqfk0","pricing_plan_id":"free"},{"bike_id":"1a7e956c-d19f-4e35-bdbd-3811e3b33bf5","system_id":"levelo_inurba_marseille","lat":43.24391,"lon":5.37064,"is_reserved":false,"is_disabled":false,"rental_uris":{"android":"levelo://app?vid=1a7e956c-d19f-4e35-bdbd-3811e3b33bf5","ios":"levelo://app?vid=1a7e956c-d19f-4e35-bdbd-3811e3b33bf5"},"vehicle_type_id":"4","last_reported":1687018044,"current_range_meters":12800,"station_id":"ce4bhhh2rcd13ifvqfk0","pricing_plan_id":"free"},{"bike_id":"e144b14e-36e9-4fc8-b1e0-f9d6d3a69ea4","system_id":"levelo_inurba_marseille","lat":43.2439,"lon":5.37061,"is_reserved":false,"is_disabled":false,"rental_uris":{"android":"levelo://app?vid=e144b14e-36e9-4fc8-b1e0-f9d6d3a69ea4","ios":"levelo://app?vid=e144b14e-36e9-4fc8-b1e0-f9d6d3a69ea4"},"vehicle_type_id":"4","last_reported":1687018044,"current_range_meters":16800,"station_id":"ce4bhhh2rcd13ifvqfk0","pricing_plan_id":"free"},{"bike_id":"c5e2b396-f288-41ae-9b27-2bf66f3564ab","system_id":"levelo_inurba_marseille","lat":43.2439,"lon":5.37062,"is_reserved":false,"is_disabled":false,"rental_uris":{"android":"levelo://app?vid=c5e2b396-f288-41ae-9b27-2bf66f3564ab","ios":"levelo://app?vid=c5e2b396-f288-41ae-9b27-2bf66f3564ab"},"vehicle_type_id":"4","last_reported":1687018044,"current_range_meters":4400,"station_id":"ce4bhhh2rcd13ifvqfk0","pricing_plan_id":"free"},{"bike_id":"383b6790-189d-49ee-9e50-4c3d3cf5fb4d","system_id":"levelo_inurba_marseille","lat":43.2439,"lon":5.37065,"is_reserved":false,"is_disabled":false,"rental_uris":{"android":"levelo://app?vid=383b6790-189d-49ee-9e50-4c3d3cf5fb4d","ios":"levelo://app?vid=383b6790-189d-49ee-9e50-4c3d3cf5fb4d"},"vehicle_type_id":"4","last_reported":1687018044,"current_range_meters":28800,"station_id":"ce4bhhh2rcd13ifvqfk0","pricing_plan_id":"free"},{"bike_id":"fbd99a82-8e31-44f1-b6fa-a93d8fd41e5e","system_id":"levelo_inurba_marseille","lat":43.243884,"lon":5.370736,"is_reserved":false,"is_disabled":false,"rental_uris":{"android":"levelo://app?vid=fbd99a82-8e31-44f1-b6fa-a93d8fd41e5e","ios":"levelo://app?vid=fbd99a82-8e31-44f1-b6fa-a93d8fd41e5e"},"vehicle_type_id":"4","last_reported":1687018044,"current_range_meters":31200,"station_id":"ce4bhhh2rcd13ifvqfk0","pricing_plan_id":"free"},{"bike_id":"0c324126-b9c6-45b1-b83f-baff31df6b8e","system_id":"levelo_inurba_marseille","lat":43.24388,"lon":5.37066,"is_reserved":false,"is_disabled":false,"rental_uris":{"android":"levelo://app?vid=0c324126-b9c6-45b1-b83f-baff31df6b8e","ios":"levelo://app?vid=0c324126-b9c6-45b1-b83f-baff31df6b8e"},"vehicle_type_id":"4","last_reported":1687018044,"current_range_meters":27600,"station_id":"ce4bhhh2rcd13ifvqfk0","pricing_plan_id":"free"},{"bike_id":"d6f3d42d-d6e3-402e-b8c1-ef4248ea81ab","system_id":"levelo_inurba_marseille","lat":43.243884,"lon":5.370736,"is_reserved":false,"is_disabled":false,"rental_uris":{"android":"levelo://app?vid=d6f3d42d-d6e3-402e-b8c1-ef4248ea81ab","ios":"levelo://app?vid=d6f3d42d-d6e3-402e-b8c1-ef4248ea81ab"},"vehicle_type_id":"4","last_reported":1687018044,"current_range_meters":6000,"station_id":"ce4bhhh2rcd13ifvqfk0","pricing_plan_id":"free"},{"bike_id":"51f8d25b-dff0-4e6a-bc2d-fbe575ca039b","system_id":"levelo_inurba_marseille","lat":43.243884,"lon":5.370737,"is_reserved":false,"is_disabled":false,"rental_uris":{"android":"levelo://app?vid=51f8d25b-dff0-4e6a-bc2d-fbe575ca039b","ios":"levelo://app?vid=51f8d25b-dff0-4e6a-bc2d-fbe575ca039b"},"vehicle_type_id":"4","last_reported":1687018044,"current_range_meters":31200,"station_id":"ce4bhhh2rcd13ifvqfk0","pricing_plan_id":"free"},{"bike_id":"a34b67c1-26e0-42e4-9141-c6702ad7d60e","system_id":"levelo_inurba_marseille","lat":43.239588,"lon":5.366238,"is_reserved":false,"is_disabled":false,"rental_uris":{"android":"levelo://app?vid=a34b67c1-26e0-42e4-9141-c6702ad7d60e","ios":"levelo://app?vid=a34b67c1-26e0-42e4-9141-c6702ad7d60e"},"vehicle_type_id":"4","last_reported":1687018044,"current_range_meters":15600,"station_id":"ce4bhi12rcd13ifvqfp0","pricing_plan_id":"free"},{"bike_id":"5c032316-958a-4d37-902b-43c139ea63fa","system_id":"levelo_inurba_marseille","lat":43.239588,"lon":5.366238,"is_reserved":false,"is_disabled":false,"rental_uris":{"android":"levelo://app?vid=5c032316-958a-4d37-902b-43c139ea63fa","ios":"levelo://app?vid=5c032316-958a-4d37-902b-43c139ea63fa"},"vehicle_type_id":"4","last_reported":1687018044,"current_range_meters":31200,"station_id":"ce4bhi12rcd13ifvqfp0","pricing_plan_id":"free"},{"bike_id":"8ca92816-62d0-4b53-9bf7-09e7ecbc2392","system_id":"levelo_inurba_marseille","lat":43.23965,"lon":5.36634,"is_reserved":false,"is_disabled":false,"rental_uris":{"android":"levelo://app?vid=8ca92816-62d0-4b53-9bf7-09e7ecbc2392","ios":"levelo://app?vid=8ca92816-62d0-4b53-9bf7-09e7ecbc2392"},"vehicle_type_id":"4","last_reported":1687018044,"current_range_meters":31200,"station_id":"ce4bhi12rcd13ifvqfp0","pricing_plan_id":"free"},{"bike_id":"ec58265e-affe-42b9-8093-f72a2afceaf9","system_id":"levelo_inurba_marseille","lat":43.239588,"lon":5.366238,"is_reserved":false,"is_disabled":false,"rental_uris":{"android":"levelo://app?vid=ec58265e-affe-42b9-8093-f72a2afceaf9","ios":"levelo://app?vid=ec58265e-affe-42b9-8093-f72a2afceaf9"},"vehicle_type_id":"4","last_reported":1687018044,"current_range_meters":31200,"station_id":"ce4bhi12rcd13ifvqfp0","pricing_plan_id":"free"},{"bike_id":"674c75b4-54ff-4ed9-8567-2abc24f16b66","system_id":"levelo_inurba_marseille","lat":43.23964,"lon":5.36629,"is_reserved":false,"is_disabled":false,"rental_uris":{"android":"levelo://app?vid=674c75b4-54ff-4ed9-8567-2abc24f16b66","ios":"levelo://app?vid=674c75b4-54ff-4ed9-8567-2abc24f16b66"},"vehicle_type_id":"4","last_reported":1687018044,"current_range_meters":18400,"station_id":"ce4bhi12rcd13ifvqfp0","pricing_plan_id":"free"},{"bike_id":"047a2e17-a154-4477-b363-400a56c098a0","system_id":"levelo_inurba_marseille","lat":43.239588,"lon":5.366238,"is_reserved":false,"is_disabled":false,"rental_uris":{"android":"levelo://app?vid=047a2e17-a154-4477-b363-400a56c098a0","ios":"levelo://app?vid=047a2e17-a154-4477-b363-400a56c098a0"},"vehicle_type_id":"4","last_reported":1687018044,"current_range_meters":12000,"station_id":"ce4bhi12rcd13ifvqfp0","pricing_plan_id":"free"},{"bike_id":"b02422fc-3240-460d-9fd2-00d615cfb0b0","system_id":"levelo_inurba_marseille","lat":43.239588,"lon":5.366238,"is_reserved":false,"is_disabled":false,"rental_uris":{"android":"levelo://app?vid=b02422fc-3240-460d-9fd2-00d615cfb0b0","ios":"levelo://app?vid=b02422fc-3240-460d-9fd2-00d615cfb0b0"},"vehicle_type_id":"4","last_reported":1687018044,"current_range_meters":30400,"station_id":"ce4bhi12rcd13ifvqfp0","pricing_plan_id":"free"},{"bike_id":"9f856f3d-f68b-45d9-b6f3-b7408b2571b3","system_id":"levelo_inurba_marseille","lat":43.23961,"lon":5.36622,"is_reserved":false,"is_disabled":false,"rental_uris":{"android":"levelo://app?vid=9f856f3d-f68b-45d9-b6f3-b7408b2571b3","ios":"levelo://app?vid=9f856f3d-f68b-45d9-b6f3-b7408b2571b3"},"vehicle_type_id":"4","last_reported":1687018044,"current_range_meters":20000,"station_id":"ce4bhi12rcd13ifvqfp0","pricing_plan_id":"free"},{"bike_id":"2e4461b3-2a8f-478e-ab11-f7f0246db6e5","system_id":"levelo_inurba_marseille","lat":43.23961,"lon":5.36621,"is_reserved":false,"is_disabled":false,"rental_uris":{"android":"levelo://app?vid=2e4461b3-2a8f-478e-ab11-f7f0246db6e5","ios":"levelo://app?vid=2e4461b3-2a8f-478e-ab11-f7f0246db6e5"},"vehicle_type_id":"4","last_reported":1687018044,"current_range_meters":20400,"station_id":"ce4bhi12rcd13ifvqfp0","pricing_plan_id":"free"},{"bike_id":"dce6fcc3-af34-464e-8e53-cb910686eebc","system_id":"levelo_inurba_marseille","lat":43.2396,"lon":5.36629,"is_reserved":false,"is_disabled":false,"rental_uris":{"android":"levelo://app?vid=dce6fcc3-af34-464e-8e53-cb910686eebc","ios":"levelo://app?vid=dce6fcc3-af34-464e-8e53-cb910686eebc"},"vehicle_type_id":"4","last_reported":1687018044,"current_range_meters":13200,"station_id":"ce4bhi12rcd13ifvqfp0","pricing_plan_id":"free"},