{"last_updated":1731506951,"ttl":60,"version":"2.2","data":{"bikes":[{"bike_id":"7a79a734-8a1a-4504-a7cf-77568a3402bf","system_id":"levelo_inurba_marseille","lat":43.26479,"lon":5.39528,"is_reserved":false,"is_disabled":false,"rental_uris":{"android":"levelo://app?vid=7a79a734-8a1a-4504-a7cf-77568a3402bf","ios":"levelo://app?vid=7a79a734-8a1a-4504-a7cf-77568a3402bf"},"vehicle_type_id":"4","last_reported":1731506951,"current_range_meters":38000,"station_id":"ce4bhi12rcd13ifvqfq0","pricing_plan_id":"cebpf4jnsgd1na2vs0mg"},{"bike_id":"e001af91-5503-4663-b71f-e2e2dcf326ba","system_id":"levelo_inurba_marseille","lat":43.30143,"lon":5.37423,"is_reserved":false,"is_disabled":false,"rental_uris":{"android":"levelo://app?vid=e001af91-5503-4663-b71f-e2e2dcf326ba","ios":"levelo://app?vid=e001af91-5503-4663-b71f-e2e2dcf326ba"},"vehicle_type_id":"4","last_reported":1731506951,"current_range_meters":38800,"station_id":"ce4bgs92rcd13ifvqcc0","pricing_plan_id":"cebpf4jnsgd1na2vs0mg"},{"bike_id":"52c3b47c-4ac8-4b12-96e0-93b36678801c","system_id":"levelo_inurba_marseille","lat":43.30551,"lon":5.36543,"is_reserved":false,"is_disabled":false,"rental_uris":{"android":"levelo://app?vid=52c3b47c-4ac8-4b12-96e0-93b36678801c","ios":"levelo://app?vid=52c3b47c-4ac8-4b12-96e0-93b36678801c"},"vehicle_type_id":"4","last_reported":1731506951,"current_range_meters":38800,"station_id":"ce4bgs12rcd13ifvqcag","pricing_plan_id":"cebpf4jnsgd1na2vs0mg"},{"bike_id":"a8b5795a-f92a-4c99-951c-d3c4edb74e83","system_id":"levelo_inurba_marseille","lat":43.28461,"lon":5.358849,"is_reserved":false,"is_disabled":false,"rental_uris":{"android":"levelo://app?vid=a8b5795a-f92a-4c99-951c-d3c4edb74e83","ios":"levelo://app?vid=a8b5795a-f92a-4c99-951c-d3c4edb74e83"},"vehicle_type_id":"4","last_reported":1731506951,"current_range_meters":38000,"station_id":"ce4bhah2rcd13ifvqei0","pricing_plan_id":"cebpf4jnsgd1na2vs0mg"},{"bike_id":"1e9ac157-5463-44bb-837e-c78547f61d7a","system_id":"levelo_inurba_marseille","lat":43.31489,"lon":5.37308,"is_reserved":false,"is_disabled":false,"rental_uris":{"android":"levelo://app?vid=1e9ac157-5463-44bb-837e-c78547f61d7a","ios":"levelo://app?vid=1e9ac157-5463-44bb-837e-c78547f61d7a"},"vehicle_type_id":"4","last_reported":1731506951,"current_range_meters":38800,"station_id":"ce4bgr92rcd13ifvqc6g","pricing_plan_id":"cebpf4jnsgd1na2vs0mg"},{"bike_id":"a43d4c7d-be56-469a-ad9f-051727983c15","system_id":"levelo_inurba_marseille","lat":43.26958,"lon":5.38634,"is_reserved":false,"is_disabled":false,"rental_uris":{"android":"levelo://app?vid=a43d4c7d-be56-469a-ad9f-051727983c15","ios":"levelo://app?vid=a43d4c7d-be56-469a-ad9f-051727983c15"},"vehicle_type_id":"4","last_reported":1731506951,"current_range_meters":6000,"station_id":"ce4bhh92rcd13ifvqfh0","pricing_plan_id":"cebpf4jnsgd1na2vs0mg"},{"bike_id":"093b143a-ecec-424e-b05a-301513aef236","system_id":"levelo_inurba_marseille","lat":43.25929,"lon":5.4091,"is_reserved":false,"is_disabled":false,"rental_uris":{"android":"levelo://app?vid=093b143a-ecec-424e-b05a-301513aef236","ios":"levelo://app?vid=093b143a-ecec-424e-b05a-301513aef236"},"vehicle_type_id":"4","last_reported":1731506951,"current_range_meters":32800,"station_id":"ce4bhm92rcd13ifvqglg","pricing_plan_id":"cebpf4jnsgd1na2vs0mg"},{"bike_id":"399c0f87-ba73-403a-83bb-0d647df85481","system_id":"levelo_inurba_marseille","lat":43.23154,"lon":5.43704,"is_reserved":false,"is_disabled":false,"rental_uris":{"android":"levelo://app?vid=399c0f87-ba73-403a-83bb-0d647df85481","ios":"levelo://app?vid=399c0f87-ba73-403a-83bb-0d647df85481"},"vehicle_type_id":"4","last_reported":1731506951,"current_range_meters":8800,"station_id":"ce4bhmp2rcd13ifvqgog","pricing_plan_id":"cebpf4jnsgd1na2vs0mg"},{"bike_id":"076142ae-6d4b-43fc-a370-8fb64459f581","system_id":"levelo_inurba_marseille","lat":43.23154,"lon":5.4372,"is_reserved":false,"is_disabled":false,"rental_uris":{"android":"levelo://app?vid=076142ae-6d4b-43fc-a370-8fb64459f581","ios":"levelo://app?vid=076142ae-6d4b-43fc-a370-8fb64459f581"},"vehicle_type_id":"4","last_reported":1731506951,"current_range_meters":4400,"station_id":"ce4bhmp2rcd13ifvqgog","pricing_plan_id":"cebpf4jnsgd1na2vs0mg"},{"bike_id":"a980b2f8-657f-4d46-be70-b64450196b40","system_id":"levelo_inurba_marseille","lat":43.28156,"lon":5.42648,"is_reserved":false,"is_disabled":false,"rental_uris":{"android":"levelo://app?vid=a980b2f8-657f-4d46-be70-b64450196b40","ios":"levelo://app?vid=a980b2f8-657f-4d46-be70-b64450196b40"},"vehicle_type_id":"4","last_reported":1731506951,"current_range_meters":39200,"station_id":"ce4bhnh2rcd13ifvqgug","pricing_plan_id":"cebpf4jnsgd1na2vs0mg"},{"bike_id":"ca573efc-b310-4258-adf2-46821169ec26","system_id":"levelo_inurba_marseille","lat":43.306005,"lon":5.372197,"is_reserved":false,"is_disabled":false,"rental_uris":{"android":"levelo://app?vid=ca573efc-b310-4258-adf2-46821169ec26","ios":"levelo://app?vid=ca573efc-b310-4258-adf2-46821169ec26"},"vehicle_type_id":"4","last_reported":1731506951,"current_range_meters":33200,"station_id":"ce4bgqh2rcd13ifvqc4g","pricing_plan_id":"cebpf4jnsgd1na2vs0mg"},{"bike_id":"40cd8bf0-9fae-4cf2-83d9-fb8fa42dd199","system_id":"levelo_inurba_marseille","lat":43.27367,"lon":5.36253,"is_reserved":false,"is_disabled":false,"rental_uris":{"android":"levelo://app?vid=40cd8bf0-9fae-4cf2-83d9-fb8fa42dd199","ios":"levelo://app?vid=40cd8bf0-9fae-4cf2-83d9-fb8fa42dd199"},"vehicle_type_id":"4","last_reported":1731506951,"current_range_meters":6400,"station_id":"ce4bhbh2rcd13ifvqeo0","pricing_plan_id":"cebpf4jnsgd1na2vs0mg"},{"bike_id":"0b942ed8-fbd0-47eb-aca2-23553ed1cd02","system_id":"levelo_inurba_marseille","lat":43.2679,"lon":5.40274,"is_reserved":false,"is_disabled":false,"rental_uris":{"android":"levelo://app?vid=0b942ed8-fbd0-47eb-aca2-23553ed1cd02","ios":"levelo://app?vid=0b942ed8-fbd0-47eb-aca2-23553ed1cd02"},"vehicle_type_id":"4","last_reported":1731506951,"current_range_meters":19600,"station_id":"ce501612rcd8frsf0b60","pricing_plan_id":"cebpf4jnsgd1na2vs0mg"},{"bike_id":"a886763f-d283-406b-b8e9-d902ada3b8f8","system_id":"levelo_inurba_marseille","lat":43.31702,"lon":5.37754,"is_reserved":false,"is_disabled":false,"rental_uris":{"android":"levelo://app?vid=a886763f-d283-406b-b8e9-d902ada3b8f8","ios":"levelo://app?vid=a886763f-d283-406b-b8e9-d902ada3b8f8"},"vehicle_type_id":"4","last_reported":1731506951,"current_range_meters":37600,"station_id":"ce4bgth2rcd13ifvqch0","pricing_plan_id":"cebpf4jnsgd1na2vs0mg"},{"bike_id":"0ead1c14-4f5e-4fb7-ab63-64189c580c7f","system_id":"levelo_inurba_marseille","lat":43.24388,"lon":5.37062,"is_reserved":false,"is_disabled":false,"rental_uris":{"android":"levelo://app?vid=0ead1c14-4f5e-4fb7-ab63-64189c580c7f","ios":"levelo://app?vid=0ead1c14-4f5e-4fb7-ab63-64189c580c7f"},"vehicle_type_id":"4","last_reported":1731506951,"current_range_meters":30400,"station_id":"ce4bhhh2rcd13ifvqfk0","pricing_plan_id":"cebpf4jnsgd1na2vs0mg"},{"bike_id":"8cbba59c-0c2f-4620-aa92-6963a68c585c","system_id":"levelo_inurba_marseille","lat":43.28265,"lon":5.35064,"is_reserved":false,"is_disabled":false,"rental_uris":{"android":"levelo://app?vid=8cbba59c-0c2f-4620-aa92-6963a68c585c","ios":"levelo://app?vid=8cbba59c-0c2f-4620-aa92-6963a68c585c"},"vehicle_type_id":"4","last_reported":1731506951,"current_range_meters":24800,"station_id":"ce4bhbp2rcd13ifvqerg","pricing_plan_id":"cebpf4jnsgd1na2vs0mg"},{"bike_id":"993a2407-dea1-4de6-b3ec-4b72998a4778","system_id":"levelo_inurba_marseille","lat":43.30143,"lon":5.37412,"is_reserved":false,"is_disabled":false,"rental_uris":{"android":"levelo://app?vid=993a2407-dea1-4de6-b3ec-4b72998a4778","ios":"levelo://app?vid=993a2407-dea1-4de6-b3ec-4b72998a4778"},"vehicle_type_id":"4","last_reported":1731506951,"current_range_meters":38800,"station_id":"ce4bgs92rcd13ifvqcc0","pricing_plan_id":"cebpf4jnsgd1na2vs0mg"},{"bike_id":"efe39616-c38a-4864-86e5-922674b93dfb","system_id":"levelo_inurba_marseille","lat":43.29254,"lon":5.40904,"is_reserved":false,"is_disabled":false,"rental_uris":{"android":"levelo://app?vid=efe39616-c38a-4864-86e5-922674b93dfb","ios":"levelo://app?vid=efe39616-c38a-4864-86e5-922674b93dfb"},"vehicle_type_id":"4","last_reported":1731506951,"current_range_meters":28400,"station_id":"ce4bh192rcd13ifvqdc0","pricing_plan_id":"cebpf4jnsgd1na2vs0mg"},{"bike_id":"55d2d8b2-0246-4eea-b604-9e80591018f2","system_id":"levelo_inurba_marseille","lat":43.2319,"lon":5.39985,"is_reserved":false,"is_disabled":false,"rental_uris":{"android":"levelo://app?vid=55d2d8b2-0246-4eea-b604-9e80591018f2","ios":"levelo://app?vid=55d2d8b2-0246-4eea-b604-9e80591018f2"},"vehicle_type_id":"4","last_reported":1731506951,"current_range_meters":20400,"station_id":"ce4bhn12rcd13ifvqgqg","pricing_plan_id":"cebpf4jnsgd1na2vs0mg"},{"bike_id":"006c2d36-da0a-46e8-bbc3-f99c04e00114","system_id":"levelo_inurba_marseille","lat":43.29584,"lon":5.36742,"is_reserved":false,"is_disabled":false,"rental_uris":{"android":"levelo://app?vid=006c2d36-da0a-46e8-bbc3-f99c04e00114","ios":"levelo://app?vid=006c2d36-da0a-46e8-bbc3-f99c04e00114"},"vehicle_type_id":"4","last_reported":1731506951,"current_range_meters":38800,"station_id":"ce4bgph2rcd13ifvqc2g","pricing_plan_id":"cebpf4jnsgd1na2vs0mg"},{"bike_id":"ffd88a98-cb38-452c-9513-ad1672aebe32","system_id":"levelo_inurba_marseille","lat":43.31355,"lon":5.36705,"is_reserved":false,"is_disabled":false,"rental_uris":{"android":"levelo://app?vid=ffd88a98-cb38-452c-9513-ad1672aebe32","ios":"levelo://app?vid=ffd88a98-cb38-452c-9513-ad1672aebe32"},"vehicle_type_id":"4","last_reported":1731506951,"current_range_meters":40000,"station_id":"ce4bgr92rcd13ifvqc6g","pricing_plan_id":"cebpf4jnsgd1na2vs0mg"},{"bike_id":"2236729d-a34f-4a08-8d6f-c236da01185c","system_id":"levelo_inurba_marseille","lat":43.291,"lon":5.38139,"is_reserved":false,"is_disabled":false,"rental_uris":{"android":"levelo://app?vid=2236729d-a34f-4a08-8d6f-c236da01185c","ios":"levelo://app?vid=2236729d-a34f-4a08-8d6f-c236da01185c"},"vehicle_type_id":"4","last_reported":1731506951,"current_range_meters":25200,"station_id":"ce4bh512rcd13ifvqe2g","pricing_plan_id":"cebpf4jnsgd1na2vs0mg"},{"bike_id":"f6363e46-03ac-4006-92af-66bc53e7a16a","system_id":"levelo_inurba_marseille","lat":43.27428,"lon":5.39414,"is_reserved":false,"is_disabled":false,"rental_uris":{"android":"levelo://app?vid=f6363e46-03ac-4006-92af-66bc53e7a16a","ios":"levelo://app?vid=f6363e46-03ac-4006-92af-66bc53e7a16a"},"vehicle_type_id":"4","last_reported":1731506951,"current_range_meters":35600,"station_id":"ce4bhdp2rcd13ifvqf20","pricing_plan_id":"cebpf4jnsgd1na2vs0mg"},{"bike_id":"34c07d60-61dd-4fb0-bbc8-78714d732c89","system_id":"levelo_inurba_marseille","lat":43.29858,"lon":5.38931,"is_reserved":false,"is_disabled":false,"rental_uris":{"android":"levelo://app?vid=34c07d60-61dd-4fb0-bbc8-78714d732c89","ios":"levelo://app?vid=34c07d60-61dd-4fb0-bbc8-78714d732c89"},"vehicle_type_id":"4","last_reported":1731506951,"current_range_meters":14800,"station_id":"ce4bh392rcd13ifvqdl0","pricing_plan_id":"cebpf4jnsgd1na2vs0mg"},{"bike_id":"5fed6b8a-ae71-4edb-bfe8-406158c432c9","system_id":"levelo_inurba_marseille","lat":43.27999,"lon":5.40012,"is_reserved":false,"is_disabled":false,"rental_uris":{"android":"levelo://app?vid=5fed6b8a-ae71-4edb-bfe8-406158c432c9","ios":"levelo://app?vid=5fed6b8a-ae71-4edb-bfe8-406158c432c9"},"vehicle_type_id":"4","last_reported":1731506951,"current_range_meters":14000,"station_id":"ce4bho92rcd13ifvqh4g","pricing_plan_id":"cebpf4jnsgd1na2vs0mg"},{"bike_id":"c1e2602f-cbc2-4e0c-87f8-4b799b420835","system_id":"levelo_inurba_marseille","lat":43.30139,"lon":5.38767,"is_reserved":false,"is_disabled":false,"rental_uris":{"android":"levelo://app?vid=c1e2602f-cbc2-4e0c-87f8-4b799b420835","ios":"levelo://app?vid=c1e2602f-cbc2-4e0c-87f8-4b799b420835"},"vehicle_type_id":"4","last_reported":1731506951,"current_range_meters":25200,"station_id":"ce4bghh2rcd13ifvqb60","pricing_plan_id":"cebpf4jnsgd1na2vs0mg"},{"bike_id":"4a74f469-1d99-48ee-a8ca-9199898c00a4","system_id":"levelo_inurba_marseille","lat":43.23197,"lon":5.35553,"is_reserved":false,"is_disabled":false,"rental_uris":{"android":"levelo://app?vid=4a74f469-1d99-48ee-a8ca-9199898c00a4","ios":"levelo://app?vid=4a74f469-1d99-48ee-a8ca-9199898c00a4"},"vehicle_type_id":"4","last_reported":1731506951,"current_range_meters":26800,"station_id":"ce4bhu92rcd13ifvqi70","pricing_plan_id":"cebpf4jnsgd1na2vs0mg"},{"bike_id":"b59a3fca-f496-4ca4-9d76-d0f4b2c8fc3f","system_id":"levelo_inurba_marseille","lat":43.30146,"lon":5.37439,"is_reserved":false,"is_disabled":false,"rental_uris":{"android":"levelo://app?vid=b59a3fca-f496-4ca4-9d76-d0f4b2c8fc3f","ios":"levelo://app?vid=b59a3fca-f496-4ca4-9d76-d0f4b2c8fc3f"},"vehicle_type_id":"4","last_reported":1731506951,"current_range_meters":38800,"station_id":"ce4bgs92rcd13ifvqcc0","pricing_plan_id":"cebpf4jnsgd1na2vs0mg"},{"bike_id":"a0dcfb5e-414f-4e7c-adb1-a5b90e68c2f6","system_id":"levelo_inurba_marseille","lat":43.27981,"lon":5.38753,"is_reserved":false,"is_disabled":false,"rental_uris":{"android":"levelo://app?vid=a0dcfb5e-414f-4e7c-adb1-a5b90e68c2f6","ios":"levelo://app?vid=a0dcfb5e-414f-4e7c-adb1-a5b90e68c2f6"},"vehicle_type_id":"4","last_reported":1731506951,"current_range_meters":38800,"station_id":"ce4bhg12rcd13ifvqf80","pricing_plan_id":"cebpf4jnsgd1na2vs0mg"},{"bike_id":"93424700-31a1-4e96-956c-a547b28b31ca","system_id":"levelo_inurba_marseille","lat":43.260312,"lon":5.375473,"is_reserved":false,"is_disabled":false,"rental_uris":{"android":"levelo://app?vid=93424700-31a1-4e96-956c-a547b28b31ca","ios":"levelo://app?vid=93424700-31a1-4e96-956c-a547b28b31ca"},"vehicle_type_id":"4","last_reported":1731506951,"current_range_meters":30000,"station_id":"ce4bhgh2rcd13ifvqfa0","pricing_plan_id":"cebpf4jnsgd1na2vs0mg"},{"bike_id":"99c891c5-0392-4b0e-8176-71c8d3515778","system_id":"levelo_inurba_marseille","lat":43.27556,"lon":5.38427,"is_reserved":false,"is_disabled":false,"rental_uris":{"android":"levelo://app?vid=99c891c5-0392-4b0e-8176-71c8d3515778","ios":"levelo://app?vid=99c891c5-0392-4b0e-8176-71c8d3515778"},"vehicle_type_id":"4","last_reported":1731506951,"current_range_meters":3600,"station_id":"ce4bhh92rcd13ifvqfi0","pricing_plan_id":"cebpf4jnsgd1na2vs0mg"},{"bike_id":"19ee1b86-2544-4033-9fbb-03192224070c","system_id":"levelo_inurba_marseille","lat":43.28141,"lon":5.38318,"is_reserved":false,"is_disabled":false,"rental_uris":{"android":"levelo://app?vid=19ee1b86-2544-4033-9fbb-03192224070c","ios":"levelo://app?vid=19ee1b86-2544-4033-9fbb-03192224070c"},"vehicle_type_id":"4","last_reported":1731506951,"current_range_meters":38800,"station_id":"","pricing_plan_id":"cebpf4jnsgd1na2vs0mg"},{"bike_id":"fd82114e-033a-4907-8338-12d192d0b03c","system_id":"levelo_inurba_marseille","lat":43.28954,"lon":5.37838,"is_reserved":false,"is_disabled":false,"rental_uris":{"android":"levelo://app?vid=fd82114e-033a-4907-8338-12d192d0b03c","ios":"levelo://app?vid=fd82114e-033a-4907-8338-12d192d0b03c"},"vehicle_type_id":"4","last_reported":1731506951,"current_range_meters":28800,"station_id":"ce4bh9p2rcd13ifvqed0","pricing_plan_id":"cebpf4jnsgd1na2vs0mg"},{"bike_id":"4b65e34b-fea2-4791-84b9-55bb33f2833c","system_id":"levelo_inurba_marseille","lat":43.30281,"lon":5.37708,"is_reserved":false,"is_disabled":false,"rental_uris":{"android":"levelo://app?vid=4b65e34b-fea2-4791-84b9-55bb33f2833c","ios":"levelo://app?vid=4b65e34b-fea2-4791-84b9-55bb33f2833c"},"vehicle_type_id":"4","last_reported":1731506951,"current_range_meters":38800,"station_id":"ce4bguh2rcd13ifvqcj0","pricing_plan_id":"cebpf4jnsgd1na2vs0mg"},{"bike_id":"9e177942-182a-4bc6-8e56-1b062cbb5279","system_id":"levelo_inurba_marseille","lat":43.24812,"lon":5.3746,"is_reserved":false,"is_disabled":false,"rental_uris":{"android":"levelo://app?vid=9e177942-182a-4bc6-8e56-1b062cbb5279","ios":"levelo://app?vid=9e177942-182a-4bc6-8e56-1b062cbb5279"},"vehicle_type_id":"4","last_reported":1731506951,"current_range_meters":15200,"station_id":"ce4bhgh2rcd13ifvqfb0","pricing_plan_id":"cebpf4jnsgd1na2vs0mg"},{"bike_id":"54aec427-0486-4e28-b80f-5469fed64ebe","system_id":"levelo_inurba_marseille","lat":43.29624,"lon":5.37147,"is_reserved":false,"is_disabled":false,"rental_uris":{"android":"levelo://app?vid=54aec427-0486-4e28-b80f-5469fed64ebe","ios":"levelo://app?vid=54aec427-0486-4e28-b80f-5469fed64ebe"},"vehicle_type_id":"4","last_reported":1731506951,"current_range_meters":39200,"station_id":"ce4bgnh2rcd13ifvqc0g","pricing_plan_id":"cebpf4jnsgd1na2vs0mg"},{"bike_id":"c3fc68e9-bf17-4053-9295-3cf380161ea1","system_id":"levelo_inurba_marseille","lat":43.28153,"lon":5.42637,"is_reserved":false,"is_disabled":false,"rental_uris":{"android":"levelo://app?vid=c3fc68e9-bf17-4053-9295-3cf380161ea1","ios":"levelo://app?vid=c3fc68e9-bf17-4053-9295-3cf380161ea1"},"vehicle_type_id":"4","last_reported":1731506951,"current_range_meters":11200,"station_id":"ce4bhnh2rcd13ifvqgug","pricing_plan_id":"cebpf4jnsgd1na2vs0mg"},{"bike_id":"03d47774-b3ef-4440-85ba-835eb7f33c88","system_id":"levelo_inurba_marseille","lat":43.31223,"lon":5.36851,"is_reserved":false,"is_disabled":false,"rental_uris":{"android":"levelo://app?vid=03d47774-b3ef-4440-85ba-835eb7f33c88","ios":"levelo://app?vid=03d47774-b3ef-4440-85ba-835eb7f33c88"},"vehicle_type_id":"4","last_reported":1731506951,"current_range_meters":38800,"station_id":"ce4bgl92rcd13ifvqbq0","pricing_plan_id":"cebpf4jnsgd1na2vs0mg"},{"bike_id":"579cfa97-1658-4864-8a9a-8be0b27789cb","system_id":"levelo_inurba_marseille","lat":43.23149,"lon":5.43713,"is_reserved":false,"is_disabled":false,"rental_uris":{"android":"levelo://app?vid=579cfa97-1658-4864-8a9a-8be0b27789cb","ios":"levelo://app?vid=579cfa97-1658-4864-8a9a-8be0b27789cb"},"vehicle_type_id":"4","last_reported":1731506951,"current_range_meters":8000,"station_id":"ce4bhmp2rcd13ifvqgog","pricing_plan_id":"cebpf4jnsgd1na2vs0mg"},{"bike_id":"0b0950da-d429-4d56-a999-e5c58331e3ac","system_id":"levelo_inurba_marseille","lat":43.27971,"lon":5.38742,"is_reserved":false,"is_disabled":false,"rental_uris":{"android":"levelo://app?vid=0b0950da-d429-4d56-a999-e5c58331e3ac","ios":"levelo://app?vid=0b0950da-d429-4d56-a999-e5c58331e3ac"},"vehicle_type_id":"4","last_reported":1731506951,"current_range_meters":34800,"station_id":"ce4bhg12rcd13ifvqf80","pricing_plan_id":"cebpf4jnsgd1na2vs0mg"},{"bike_id":"7d7c161f-e5e3-4ce9-b742-5b96f0044808","system_id":"levelo_inurba_marseille","lat":43.3061,"lon":5.37224,"is_reserved":false,"is_disabled":false,"rental_uris":{"android":"levelo://app?vid=7d7c161f-e5e3-4ce9-b742-5b96f0044808","ios":"levelo://app?vid=7d7c161f-e5e3-4ce9-b742-5b96f0044808"},"vehicle_type_id":"4","last_reported":1731506951,"current_range_meters":25600,"station_id":"ce4bgqh2rcd13ifvqc4g","pricing_plan_id":"cebpf4jnsgd1na2vs0mg"},{"bike_id":"d17b72ac-a182-4a3e-9971-a52875cc6954","system_id":"levelo_inurba_marseille","lat":43.24386,"lon":5.37058,"is_reserved":false,"is_disabled":false,"rental_uris":{"android":"levelo://app?vid=d17b72ac-a182-4a3e-9971-a52875cc6954","ios":"levelo://app?vid=d17b72ac-a182-4a3e-9971-a52875cc6954"},"vehicle_type_id":"4","last_reported":1731506951,"current_range_meters":38000,"station_id":"ce4bhhh2rcd13ifvqfk0","pricing_plan_id":"cebpf4jnsgd1na2vs0mg"},{"bike_id":"7244d173-e3bb-4a22-85fd-d63149c70a3a","system_id":"levelo_inurba_marseille","lat":43.29218,"lon":5.36067,"is_reserved":false,"is_disabled":false,"rental_uris":{"android":"levelo://app?vid=7244d173-e3bb-4a22-85fd-d63149c70a3a","ios":"levelo://app?vid=7244d173-e3bb-4a22-85fd-d63149c70a3a"},"vehicle_type_id":"4","last_reported":1731506951,"current_range_meters":20000,"station_id":"ce4bhbh2rcd13ifvqeqg","pricing_plan_id":"cebpf4jnsgd1na2vs0mg"},{"bike_id":"324deb27-9283-41c9-842e-b35526ba4542","system_id":"levelo_inurba_marseille","lat":43.32542,"lon":5.41432,"is_reserved":false,"is_disabled":false,"rental_uris":{"android":"levelo://app?vid=324deb27-9283-41c9-842e-b35526ba4542","ios":"levelo://app?vid=324deb27-9283-41c9-842e-b35526ba4542"},"vehicle_type_id":"4","last_reported":1731506951,"current_range_meters":5600,"station_id":"ce4bhq12rcd13ifvqhhg","pricing_plan_id":"cebpf4jnsgd1na2vs0mg"},{"bike_id":"69d6674d-aaf5-4fdf-9001-4202a51e5401","system_id":"levelo_inurba_marseille","lat":43.312195,"lon":5.368488,"is_reserved":false,"is_disabled":false,"rental_uris":{"android":"levelo://app?vid=69d6674d-aaf5-4fdf-9001-4202a51e5401","ios":"levelo://app?vid=69d6674d-aaf5-4fdf-9001-4202a51e5401"},"vehicle_type_id":"4","last_reported":1731506951,"current_range_meters":20000,"station_id":"ce4bgl92rcd13ifvqbq0","pricing_plan_id":"cebpf4jnsgd1na2vs0mg"},{"bike_id":"564a4ecb-914b-4473-a63d-241aec0c22bb","system_id":"levelo_inurba_marseille","lat":43.30635,"lon":5.40096,"is_reserved":false,"is_disabled":false,"rental_uris":{"android":"levelo://app?vid=564a4ecb-914b-4473-a63d-241aec0c22bb","ios":"levelo://app?vid=564a4ecb-914b-4473-a63d-241aec0c22bb"},"vehicle_type_id":"4","last_reported":1731506951,"current_range_meters":26800,"station_id":"ce4bh112rcd13ifvqda0","pricing_plan_id":"cebpf4jnsgd1na2vs0mg"},{"bike_id":"56569525-aa58-4f8c-8856-b040be34cee4","system_id":"levelo_inurba_marseille","lat":43.29882,"lon":5.37646,"is_reserved":false,"is_disabled":false,"rental_uris":{"android":"levelo://app?vid=56569525-aa58-4f8c-8856-b040be34cee4","ios":"levelo://app?vid=56569525-aa58-4f8c-8856-b040be34cee4"},"vehicle_type_id":"4","last_reported":1731506951,"current_range_meters":12800,"station_id":"","pricing_plan_id":"cebpf4jnsgd1na2vs0mg"},{"bike_id":"918714b9-6c0d-453e-bc36-98f8b12d754e","system_id":"levelo_inurba_marseille","lat":43.273212,"lon":5.390715,"is_reserved":false,"is_disabled":false,"rental_uris":{"android":"levelo://app?vid=918714b9-6c0d-453e-bc36-98f8b12d754e","ios":"levelo://app?vid=918714b9-6c0d-453e-bc36-98f8b12d754e"},"vehicle_type_id":"4","last_reported":1731506951,"current_range_meters":27600,"station_id":"ce4bhgp2rcd13ifvqfe0","pricing_plan_id":"cebpf4jnsgd1na2vs0mg"},{"bike_id":"2af8261f-0a9f-4413-a86b-35eff50563ad","system_id":"levelo_inurba_marseille","lat":43.24389,"lon":5.37058,"is_reserved":false,"is_disabled":false,"rental_uris":{"android":"levelo://app?vid=2af8261f-0a9f-4413-a86b-35eff50563ad","ios":"levelo://app?vid=2af8261f-0a9f-4413-a86b-35eff50563ad"},"vehicle_type_id":"4","last_reported":1731506951,"current_range_meters":28000,"station_id":"ce4bhhh2rcd13ifvqfk0","pricing_plan_id":"cebpf4jnsgd1na2vs0mg"},{"bike_id":"fd6a8608-4163-4f48-986d-2fc73a405451","system_id":"levelo_inurba_marseille","lat":43.26933,"lon":5.40261,"is_reserved":false,"is_disabled":false,"rental_uris":{"android":"levelo://app?vid=fd6a8608-4163-4f48-986d-2fc73a405451","ios":"levelo://app?vid=fd6a8608-4163-4f48-986d-2fc73a405451"},"vehicle_type_id":"4","last_reported":1731506951,"current_range_meters":12800,"station_id":"cjm6bp8fraef2m0cb0m0","pricing_plan_id":"cebpf4jnsgd1na2vs0mg"},{"bike_id":"d99bff46-e3e0-4c25-9719-3fa3dd9a1a6e","system_id":"levelo_inurba_marseille","lat":43.31414,"lon":5.37445,"is_reserved":false,"is_disabled":false,"rental_uris":{"android":"levelo://app?vid=d99bff46-e3e0-4c25-9719-3fa3dd9a1a6e","ios":"levelo://app?vid=d99bff46-e3e0-4c25-9719-3fa3dd9a1a6e"},"vehicle_type_id":"4","last_reported":1731506951,"current_range_meters":22000,"station_id":"","pricing_plan_id":"cebpf4jnsgd1na2vs0mg"},{"bike_id":"e9bb8950-76de-4c9d-9aff-35253f090ff2","system_id":"levelo_inurba_marseille","lat":43.28124,"lon":5.37848,"is_reserved":false,"is_disabled":false,"rental_uris":{"android":"levelo://app?vid=e9bb8950-76de-4c9d-9aff-35253f090ff2","ios":"levelo://app?vid=e9bb8950-76de-4c9d-9aff-35253f090ff2"},"vehicle_type_id":"4","last_reported":1731506951,"current_range_meters":36000,"station_id":"ce4bha12rcd13ifvqee0","pricing_plan_id":"cebpf4jnsgd1na2vs0mg"},{"bike_id":"65517de8-35f6-4cdf-83a3-74fc36784996","system_id":"levelo_inurba_marseille","lat":43.28265,"lon":5.35091,"is_reserved":false,"is_disabled":false,"rental_uris":{"android":"levelo://app?vid=65517de8-35f6-4cdf-83a3-74fc36784996","ios":"levelo://app?vid=65517de8-35f6-4cdf-83a3-74fc36784996"},"vehicle_type_id":"4","last_reported":1731506951,"current_range_meters":38800,"station_id":"ce4bhbp2rcd13ifvqerg","pricing_plan_id":"cebpf4jnsgd1na2vs0mg"},{"bike_id":"1560ac9d-e8c7-4add-9217-0a0919bf8d5d","system_id":"levelo_inurba_marseille","lat":43.29039,"lon":5.3998,"is_reserved":false,"is_disabled":false,"rental_uris":{"android":"levelo://app?vid=1560ac9d-e8c7-4add-9217-0a0919bf8d5d","ios":"levelo://app?vid=1560ac9d-e8c7-4add-9217-0a0919bf8d5d"},"vehicle_type_id":"4","last_reported":1731506951,"current_range_meters":25200,"station_id":"ce4bh392rcd13ifvqdm0","pricing_plan_id":"cebpf4jnsgd1na2vs0mg"},{"bike_id":"f2d634ca-c25b-490e-854b-5920b9a6c814","system_id":"levelo_inurba_marseille","lat":43.28461,"lon":5.35882,"is_reserved":false,"is_disabled":false,"rental_uris":{"android":"levelo://app?vid=f2d634ca-c25b-490e-854b-5920b9a6c814","ios":"levelo://app?vid=f2d634ca-c25b-490e-854b-5920b9a6c814"},"vehicle_type_id":"4","last_reported":1731506951,"current_range_meters":36400,"station_id":"ce4bhah2rcd13ifvqei0","pricing_plan_id":"cebpf4jnsgd1na2vs0mg"},{"bike_id":"f2c72175-21a5-4cc2-9fb8-2aa62f326733","system_id":"levelo_inurba_marseille","lat":43.25824,"lon":5.394371,"is_reserved":false,"is_disabled":false,"rental_uris":{"android":"levelo://app?vid=f2c72175-21a5-4cc2-9fb8-2aa62f326733","ios":"levelo://app?vid=f2c72175-21a5-4cc2-9fb8-2aa62f326733"},"vehicle_type_id":"4","last_reported":1731506951,"current_range_meters":25200,"station_id":"ce4bhip2rcd13ifvqft0","pricing_plan_id":"cebpf4jnsgd1na2vs0mg"},{"bike_id":"c5e46256-dcfc-4309-83f7-b33c0cdd5d3c","system_id":"levelo_inurba_marseille","lat":43.291923,"lon":5.35811,"is_reserved":false,"is_disabled":false,"rental_uris":{"android":"levelo://app?vid=c5e46256-dcfc-4309-83f7-b33c0cdd5d3c","ios":"levelo://app?vid=c5e46256-dcfc-4309-83f7-b33c0cdd5d3c"},"vehicle_type_id":"4","last_reported":1731506951,"current_range_meters":38400,"station_id":"ce4bhb12rcd13ifvqel0","pricing_plan_id":"cebpf4jnsgd1na2vs0mg"},{"bike_id":"bb4e8f1d-e0e6-4e4b-87aa-f9ec793428e0","system_id":"levelo_inurba_marseille","lat":43.26781,"lon":5.39419,"is_reserved":false,"is_disabled":false,"rental_uris":{"android":"levelo://app?vid=bb4e8f1d-e0e6-4e4b-87aa-f9ec793428e0","ios":"levelo://app?vid=bb4e8f1d-e0e6-4e4b-87aa-f9ec793428e0"},"vehicle_type_id":"4","last_reported":1731506951,"current_range_meters":10800,"station_id":"ce4bhh12rcd13ifvqfg0","pricing_plan_id":"cebpf4jnsgd1na2vs0mg"},{"bike_id":"850edffa-09b1-46e6-93f8-6411289a40f2","system_id":"levelo_inurba_marseille","lat":43.29583,"lon":5.36739,"is_reserved":false,"is_disabled":false,"rental_uris":{"android":"levelo://app?vid=850edffa-09b1-46e6-93f8-6411289a40f2","ios":"levelo://app?vid=850edffa-09b1-46e6-93f8-6411289a40f2"},"vehicle_type_id":"4","last_reported":1731506951,"current_range_meters":34000,"station_id":"ce4bgph2rcd13ifvqc2g","pricing_plan_id":"cebpf4jnsgd1na2vs0mg"},{"bike_id":"6d338959-dac2-4460-a617-8941699747f4","system_id":"levelo_inurba_marseille","lat":43.29262,"lon":5.40915,"is_reserved":false,"is_disabled":false,"rental_uris":{"android":"levelo://app?vid=6d338959-dac2-4460-a617-8941699747f4","ios":"levelo://app?vid=6d338959-dac2-4460-a617-8941699747f4"},"vehicle_type_id":"4","last_reported":1731506951,"current_range_meters":26800,"station_id":"ce4bh192rcd13ifvqdc0","pricing_plan_id":"cebpf4jnsgd1na2vs0mg"},{"bike_id":"d939a8d3-7886-485f-80ff-eaccf3fd8656","system_id":"levelo_inurba_marseille","lat":43.23147,"lon":5.43709,"is_reserved":false,"is_disabled":false,"rental_uris":{"android":"levelo://app?vid=d939a8d3-7886-485f-80ff-eaccf3fd8656","ios":"levelo://app?vid=d939a8d3-7886-485f-80ff-eaccf3fd8656"},"vehicle_type_id":"4","last_reported":1731506951,"current_range_meters":14000,"station_id":"ce4bhmp2rcd13ifvqgog","pricing_plan_id":"cebpf4jnsgd1na2vs0mg"},{"bike_id":"88ae774e-d267-4f88-a7f9-dff2b601d438","system_id":"levelo_inurba_marseille","lat":43.29727,"lon":5.37686,"is_reserved":false,"is_disabled":false,"rental_uris":{"android":"levelo://app?vid=88ae774e-d267-4f88-a7f9-dff2b601d438","ios":"levelo://app?vid=88ae774e-d267-4f88-a7f9-dff2b601d438"},"vehicle_type_id":"4","last_reported":1731506951,"current_range_meters":8400,"station_id":"ce4bgkh2rcd13ifvqbl0","pricing_plan_id":"cebpf4jnsgd1na2vs0mg"},{"bike_id":"7c240009-8c2b-4097-b148-cc3511e71a66","system_id":"levelo_inurba_marseille","lat":43.33023,"lon":5.39038,"is_reserved":false,"is_disabled":false,"rental_uris":{"android":"levelo://app?vid=7c240009-8c2b-4097-b148-cc3511e71a66","ios":"levelo://app?vid=7c240009-8c2b-4097-b148-cc3511e71a66"},"vehicle_type_id":"4","last_reported":1731506951,"current_range_meters":30400,"station_id":"ce4bhr92rcd13ifvqhrg","pricing_plan_id":"cebpf4jnsgd1na2vs0mg"},{"bike_id":"b7eecc90-35b7-408c-a3b1-9c937760ed5b","system_id":"levelo_inurba_marseille","lat":43.29585,"lon":5.36751,"is_reserved":false,"is_disabled":false,"rental_uris":{"android":"levelo://app?vid=b7eecc90-35b7-408c-a3b1-9c937760ed5b","ios":"levelo://app?vid=b7eecc90-35b7-408c-a3b1-9c937760ed5b"},"vehicle_type_id":"4","last_reported":1731506951,"current_range_meters":38800,"station_id":"ce4bgph2rcd13ifvqc2g","pricing_plan_id":"cebpf4jnsgd1na2vs0mg"},{"bike_id":"ad22e2fc-5386-482f-ad87-972d68e3417f","system_id":"levelo_inurba_marseille","lat":43.28969,"lon":5.3784,"is_reserved":false,"is_disabled":false,"rental_uris":{"android":"levelo://app?vid=ad22e2fc-5386-482f-ad87-972d68e3417f","ios":"levelo://app?vid=ad22e2fc-5386-482f-ad87-972d68e3417f"},"vehicle_type_id":"4","last_reported":1731506951,"current_range_meters":38800,"station_id":"cki0cbj6b192h4jlfktg","pricing_plan_id":"cebpf4jnsgd1na2vs0mg"},{"bike_id":"457a2beb-2ecd-42e2-9e64-69d9f250fa87","system_id":"levelo_inurba_marseille","lat":43.267269,"lon":5.382296,"is_reserved":false,"is_disabled":false,"rental_uris":{"android":"levelo://app?vid=457a2beb-2ecd-42e2-9e64-69d9f250fa87","ios":"levelo://app?vid=457a2beb-2ecd-42e2-9e64-69d9f250fa87"},"vehicle_type_id":"4","last_reported":1731506951,"current_range_meters":19200,"station_id":"ce4bhg92rcd13ifvqf90","pricing_plan_id":"cebpf4jnsgd1na2vs0mg"},{"bike_id":"086685c6-dfcd-41f3-b857-1cbda285f6b0","system_id":"levelo_inurba_marseille","lat":43.32025,"lon":5.41575,"is_reserved":false,"is_disabled":false,"rental_uris":{"android":"levelo://app?vid=086685c6-dfcd-41f3-b857-1cbda285f6b0","ios":"levelo://app?vid=086685c6-dfcd-41f3-b857-1cbda285f6b0"},"vehicle_type_id":"4","last_reported":1731506951,"current_range_meters":24000,"station_id":"ce4bhq92rcd13ifvqhkg","pricing_plan_id":"cebpf4jnsgd1na2vs0mg"},{"bike_id":"797e37eb-5aad-404f-98b6-b421690943b7","system_id":"levelo_inurba_marseille","lat":43.27566,"lon":5.38426,"is_reserved":false,"is_disabled":false,"rental_uris":{"android":"levelo://app?vid=797e37eb-5aad-404f-98b6-b421690943b7","ios":"levelo://app?vid=797e37eb-5aad-404f-98b6-b421690943b7"},"vehicle_type_id":"4","last_reported":1731506951,"current_range_meters":38800,"station_id":"ce4bhh92rcd13ifvqfi0","pricing_plan_id":"cebpf4jnsgd1na2vs0mg"},{"bike_id":"97b81691-2045-47d2-92e4-3ef8ac2e11be","system_id":"levelo_inurba_marseille","lat":43.27982,"lon":5.38746,"is_reserved":false,"is_disabled":false,"rental_uris":{"android":"levelo://app?vid=97b81691-2045-47d2-92e4-3ef8ac2e11be","ios":"levelo://app?vid=97b81691-2045-47d2-92e4-3ef8ac2e11be"},"vehicle_type_id":"4","last_reported":1731506951,"current_range_meters":10000,"station_id":"ce4bhg12rcd13ifvqf80","pricing_plan_id":"cebpf4jnsgd1na2vs0mg"},{"bike_id":"b3a79d31-0555-4140-a178-af9b1f1f9b0e","system_id":"levelo_inurba_marseille","lat":43.27172,"lon":5.40996,"is_reserved":false,"is_disabled":false,"rental_uris":{"android":"levelo://app?vid=b3a79d31-0555-4140-a178-af9b1f1f9b0e","ios":"levelo://app?vid=b3a79d31-0555-4140-a178-af9b1f1f9b0e"},"vehicle_type_id":"4","last_reported":1731506951,"current_range_meters":18800,"station_id":"ce4bhl12rcd13ifvqgf0","pricing_plan_id":"cebpf4jnsgd1na2vs0mg"},{"bike_id":"e2672c0c-3323-46ad-9026-0c93f7e7b0e4","system_id":"levelo_inurba_marseille","lat":43.28941,"lon":5.36638,"is_reserved":false,"is_disabled":false,"rental_uris":{"android":"levelo://app?vid=e2672c0c-3323-46ad-9026-0c93f7e7b0e4","ios":"levelo://app?vid=e2672c0c-3323-46ad-9026-0c93f7e7b0e4"},"vehicle_type_id":"4","last_reported":1731506951,"current_range_meters":5600,"station_id":"ce4bhap2rcd13ifvqek0","pricing_plan_id":"cebpf4jnsgd1na2vs0mg"},{"bike_id":"8cc609e8-479a-4066-8b83-23b3fccd49bd","system_id":"levelo_inurba_marseille","lat":43.30478,"lon":5.37908,"is_reserved":false,"is_disabled":false,"rental_uris":{"android":"levelo://app?vid=8cc609e8-479a-4066-8b83-23b3fccd49bd","ios":"levelo://app?vid=8cc609e8-479a-4066-8b83-23b3fccd49bd"},"vehicle_type_id":"4","last_reported":1731506951,"current_range_meters":16800,"station_id":"ce4bgup2rcd13ifvqcn0","pricing_plan_id":"cebpf4jnsgd1na2vs0mg"},{"bike_id":"b83d5a8a-b0a5-42e7-98a3-9c12a5510a4e","system_id":"levelo_inurba_marseille","lat":43.28661,"lon":5.36363,"is_reserved":false,"is_disabled":false,"rental_uris":{"android":"levelo://app?vid=b83d5a8a-b0a5-42e7-98a3-9c12a5510a4e","ios":"levelo://app?vid=b83d5a8a-b0a5-42e7-98a3-9c12a5510a4e"},"vehicle_type_id":"4","last_reported":1731506951,"current_range_meters":36400,"station_id":"ce4bhah2rcd13ifvqej0","pricing_plan_id":"cebpf4jnsgd1na2vs0mg"},{"bike_id":"8963f262-bdcb-43f5-9e37-237198779ba8","system_id":"levelo_inurba_marseille","lat":43.33773,"lon":5.37442,"is_reserved":false,"is_disabled":false,"rental_uris":{"android":"levelo://app?vid=8963f262-bdcb-43f5-9e37-237198779ba8","ios":"levelo://app?vid=8963f262-bdcb-43f5-9e37-237198779ba8"},"vehicle_type_id":"4","last_reported":1731506951,"current_range_meters":38000,"station_id":"","pricing_plan_id":"cebpf4jnsgd1na2vs0mg"},{"bike_id":"9e206ec4-3bc2-4292-bb12-90ccf987d885","system_id":"levelo_inurba_marseille","lat":43.337444,"lon":5.374475,"is_reserved":false,"is_disabled":false,"rental_uris":{"android":"levelo://app?vid=9e206ec4-3bc2-4292-bb12-90ccf987d885","ios":"levelo://app?vid=9e206ec4-3bc2-4292-bb12-90ccf987d885"},"vehicle_type_id":"4","last_reported":1731506951,"current_range_meters":37600,"station_id":"","pricing_plan_id":"cebpf4jnsgd1na2vs0mg"},{"bike_id":"398b47b3-a042-4cec-b1dd-254773a78263","system_id":"levelo_inurba_marseille","lat":43.27411,"lon":5.3895,"is_reserved":false,"is_disabled":false,"rental_uris":{"android":"levelo://app?vid=398b47b3-a042-4cec-b1dd-254773a78263","ios":"levelo://app?vid=398b47b3-a042-4cec-b1dd-254773a78263"},"vehicle_type_id":"4","last_reported":1731506951,"current_range_meters":9200,"station_id":"","pricing_plan_id":"cebpf4jnsgd1na2vs0mg"},{"bike_id":"9748b761-dff6-418f-8a16-173dcf561a0c","system_id":"levelo_inurba_marseille","lat":43.30311,"lon":5.36902,"is_reserved":false,"is_disabled":false,"rental_uris":{"android":"levelo://app?vid=9748b761-dff6-418f-8a16-173dcf561a0c","ios":"levelo://app?vid=9748b761-dff6-418f-8a16-173dcf561a0c"},"vehicle_type_id":"4","last_reported":1731506951,"current_range_meters":18000,"station_id":"ce4bgqh2rcd13ifvqc5g","pricing_plan_id":"cebpf4jnsgd1na2vs0mg"},{"bike_id":"6939daf4-5c26-4f60-9e41-09a4ac31dd26","system_id":"levelo_inurba_marseille","lat":43.28156,"lon":5.42643,"is_reserved":false,"is_disabled":false,"rental_uris":{"android":"levelo://app?vid=6939daf4-5c26-4f60-9e41-09a4ac31dd26","ios":"levelo://app?vid=6939daf4-5c26-4f60-9e41-09a4ac31dd26"},"vehicle_type_id":"4","last_reported":1731506951,"current_range_meters":28000,"station_id":"ce4bhnh2rcd13ifvqgug","pricing_plan_id":"cebpf4jnsgd1na2vs0mg"},{"bike_id":"92e3ad17-17c9-4714-a148-ef9436ad6113","system_id":"levelo_inurba_marseille","lat":43.22933,"lon":5.35383,"is_reserved":false,"is_disabled":false,"rental_uris":{"android":"levelo://app?vid=92e3ad17-17c9-4714-a148-ef9436ad6113","ios":"levelo://app?vid=92e3ad17-17c9-4714-a148-ef9436ad6113"},"vehicle_type_id":"4","last_reported":1731506951,"current_range_meters":38000,"station_id":"cpo3532slgdg3j2ikp40","pricing_plan_id":"cebpf4jnsgd1na2vs0mg"},{"bike_id":"428d5e01-018b-4f17-98a4-ed76b67309c6","system_id":"levelo_inurba_marseille","lat":43.2808,"lon":5.3966,"is_reserved":false,"is_disabled":false,"rental_uris":{"android":"levelo://app?vid=428d5e01-018b-4f17-98a4-ed76b67309c6","ios":"levelo://app?vid=428d5e01-018b-4f17-98a4-ed76b67309c6"},"vehicle_type_id":"4","last_reported":1731506951,"current_range_meters":34000,"station_id":"ce4bho12rcd13ifvqh2g","pricing_plan_id":"cebpf4jnsgd1na2vs0mg"},{"bike_id":"4c2f7722-823a-49bf-85c4-7f13173c82a6","system_id":"levelo_inurba_marseille","lat":43.25003,"lon":5.38922,"is_reserved":false,"is_disabled":false,"rental_uris":{"android":"levelo://app?vid=4c2f7722-823a-49bf-85c4-7f13173c82a6","ios":"levelo://app?vid=4c2f7722-823a-49bf-85c4-7f13173c82a6"},"vehicle_type_id":"4","last_reported":1731506951,"current_range_meters":38800,"station_id":"ce4bhgp2rcd13ifvqfd0","pricing_plan_id":"cebpf4jnsgd1na2vs0mg"},{"bike_id":"e6fb1b65-cc71-44ce-8b46-362912e3d8bb","system_id":"levelo_inurba_marseille","lat":43.297964,"lon":5.381031,"is_reserved":false,"is_disabled":false,"rental_uris":{"android":"levelo://app?vid=e6fb1b65-cc71-44ce-8b46-362912e3d8bb","ios":"levelo://app?vid=e6fb1b65-cc71-44ce-8b46-362912e3d8bb"},"vehicle_type_id":"4","last_reported":1731506951,"current_range_meters":20000,"station_id":"ce4bgip2rcd13ifvqbb0","pricing_plan_id":"cebpf4jnsgd1na2vs0mg"},{"bike_id":"beb7b9bd-a544-4d0c-b0ee-a6204f3f5108","system_id":"levelo_inurba_marseille","lat":43.291962,"lon":5.385193,"is_reserved":false,"is_disabled":false,"rental_uris":{"android":"levelo://app?vid=beb7b9bd-a544-4d0c-b0ee-a6204f3f5108","ios":"levelo://app?vid=beb7b9bd-a544-4d0c-b0ee-a6204f3f5108"},"vehicle_type_id":"4","last_reported":1731506951,"current_range_meters":28400,"station_id":"","pricing_plan_id":"cebpf4jnsgd1na2vs0mg"},{"bike_id":"82f309e6-c4ae-421f-89cb-1d64a8e0ef10","system_id":"levelo_inurba_marseille","lat":43.337444,"lon":5.374475,"is_reserved":false,"is_disabled":false,"rental_uris":{"android":"levelo://app?vid=82f309e6-c4ae-421f-89cb-1d64a8e0ef10","ios":"levelo://app?vid=82f309e6-c4ae-421f-89cb-1d64a8e0ef10"},"vehicle_type_id":"4","last_reported":1731506951,"current_range_meters":36800,"station_id":"","pricing_plan_id":"cebpf4jnsgd1na2vs0mg"},{"bike_id":"d2423466-98bc-4d3a-a5fc-c0d33f6c410d","system_id":"levelo_inurba_marseille","lat":43.337444,"lon":5.374475,"is_reserved":false,"is_disabled":false,"rental_uris":{"android":"levelo://app?vid=d2423466-98bc-4d3a-a5fc-c0d33f6c410d","ios":"levelo://app?vid=d2423466-98bc-4d3a-a5fc-c0d33f6c410d"},"vehicle_type_id":"4","last_reported":1731506951,"current_range_meters":36800,"station_id":"","pricing_plan_id":"cebpf4jnsgd1na2vs0mg"},{"bike_id":"0890ffaf-e489-4ddd-bf1c-e39734690272","system_id":"levelo_inurba_marseille","lat":43.26954,"lon":5.38632,"is_reserved":false,"is_disabled":false,"rental_uris":{"android":"levelo://app?vid=0890ffaf-e489-4ddd-bf1c-e39734690272","ios":"levelo://app?vid=0890ffaf-e489-4ddd-bf1c-e39734690272"},"vehicle_type_id":"4","last_reported":1731506951,"current_range_meters":17200,"station_id":"ce4bhh92rcd13ifvqfh0","pricing_plan_id":"cebpf4jnsgd1na2vs0mg"},{"bike_id":"6e4ab7d2-c1df-4ea4-bb4b-2f5c43ed5717","system_id":"levelo_inurba_marseille","lat":43.33768,"lon":5.37439,"is_reserved":false,"is_disabled":false,"rental_uris":{"android":"levelo://app?vid=6e4ab7d2-c1df-4ea4-bb4b-2f5c43ed5717","ios":"levelo://app?vid=6e4ab7d2-c1df-4ea4-bb4b-2f5c43ed5717"},"vehicle_type_id":"4","last_reported":1731506951,"current_range_meters":36800,"station_id":"","pricing_plan_id":"cebpf4jnsgd1na2vs0mg"},{"bike_id":"b1f50a4e-bf80-417b-be95-adf7b4bc4b3b","system_id":"levelo_inurba_marseille","lat":43.30384,"lon":5.37009,"is_reserved":false,"is_disabled":false,"rental_uris":{"android":"levelo://app?vid=b1f50a4e-bf80-417b-be95-adf7b4bc4b3b","ios":"levelo://app?vid=b1f50a4e-bf80-417b-be95-adf7b4bc4b3b"},"vehicle_type_id":"4","last_reported":1731506951,"current_range_meters":35200,"station_id":"","pricing_plan_id":"cebpf4jnsgd1na2vs0mg"},{"bike_id":"263742b9-e7f6-4e92-90b4-249dc62cb355","system_id":"levelo_inurba_marseille","lat":43.30539,"lon":5.38434,"is_reserved":false,"is_disabled":false,"rental_uris":{"android":"levelo://app?vid=263742b9-e7f6-4e92-90b4-249dc62cb355","ios":"levelo://app?vid=263742b9-e7f6-4e92-90b4-249dc62cb355"},"vehicle_type_id":"4","last_reported":1731506951,"current_range_meters":26000,"station_id":"ce4bgg92rcd13ifvqb30","pricing_plan_id":"cebpf4jnsgd1na2vs0mg"},{"bike_id":"b21a66d0-df6b-40a8-b1cb-ced0b035854a","system_id":"levelo_inurba_marseille","lat":43.32493,"lon":5.36561,"is_reserved":false,"is_disabled":false,"rental_uris":{"android":"levelo://app?vid=b21a66d0-df6b-40a8-b1cb-ced0b035854a","ios":"levelo://app?vid=b21a66d0-df6b-40a8-b1cb-ced0b035854a"},"vehicle_type_id":"4","last_reported":1731506951,"current_range_meters":38800,"station_id":"ce4bhs12rcd13ifvqhvg","pricing_plan_id":"cebpf4jnsgd1na2vs0mg"},{"bike_id":"2ea7aff9-03cc-4def-b7e3-6baa11e2bed4","system_id":"levelo_inurba_marseille","lat":43.2315,"lon":5.43745,"is_reserved":false,"is_disabled":false,"rental_uris":{"android":"levelo://app?vid=2ea7aff9-03cc-4def-b7e3-6baa11e2bed4","ios":"levelo://app?vid=2ea7aff9-03cc-4def-b7e3-6baa11e2bed4"},"vehicle_type_id":"4","last_reported":1731506951,"current_range_meters":38800,"station_id":"ce4bhmp2rcd13ifvqgog","pricing_plan_id":"cebpf4jnsgd1na2vs0mg"},{"bike_id":"ee328f03-4b84-4cc1-ad18-450a4fdc92d9","system_id":"levelo_inurba_marseille","lat":43.25084,"lon":5.39528,"is_reserved":false,"is_disabled":false,"rental_uris":{"android":"levelo://app?vid=ee328f03-4b84-4cc1-ad18-450a4fdc92d9","ios":"levelo://app?vid=ee328f03-4b84-4cc1-ad18-450a4fdc92d9"},"vehicle_type_id":"4","last_reported":1731506951,"current_range_meters":9600,"station_id":"ce4bhm12rcd13ifvqgkg","pricing_plan_id":"cebpf4jnsgd1na2vs0mg"},{"bike_id":"85718261-3746-4a85-9f1e-84adac851f6a","system_id":"levelo_inurba_marseille","lat":43.2603,"lon":5.37548,"is_reserved":false,"is_disabled":false,"rental_uris":{"android":"levelo://app?vid=85718261-3746-4a85-9f1e-84adac851f6a","ios":"levelo://app?vid=85718261-3746-4a85-9f1e-84adac851f6a"},"vehicle_type_id":"4","last_reported":1731506951,"current_range_meters":39200,"station_id":"ce4bhgh2rcd13ifvqfa0","pricing_plan_id":"cebpf4jnsgd1na2vs0mg"},{"bike_id":"ef619835-b1e8-429c-acd3-2d17a3e7828b","system_id":"levelo_inurba_marseille","lat":43.31084,"lon":5.42429,"is_reserved":false,"is_disabled":false,"rental_uris":{"android":"levelo://app?vid=ef619835-b1e8-429c-acd3-2d17a3e7828b","ios":"levelo://app?vid=ef619835-b1e8-429c-acd3-2d17a3e7828b"},"vehicle_type_id":"4","last_reported":1731506951,"current_range_meters":27600,"station_id":"ce4bhp92rcd13ifvqhag","pricing_plan_id":"cebpf4jnsgd1na2vs0mg"},{"bike_id":"c9d041c0-acec-4cf4-bba2-e01a92441368","system_id":"levelo_inurba_marseille","lat":43.337444,"lon":5.374475,"is_reserved":false,"is_disabled":false,"rental_uris":{"android":"levelo://app?vid=c9d041c0-acec-4cf4-bba2-e01a92441368","ios":"levelo://app?vid=c9d041c0-acec-4cf4-bba2-e01a92441368"},"vehicle_type_id":"4","last_reported":1731506951,"current_range_meters":35600,"station_id":"","pricing_plan_id":"cebpf4jnsgd1na2vs0mg"},{"bike_id":"7b2d5184-4765-4619-a436-973a78d49b46","system_id":"levelo_inurba_marseille","lat":43.31225,"lon":5.36866,"is_reserved":false,"is_disabled":false,"rental_uris":{"android":"levelo://app?vid=7b2d5184-4765-4619-a436-973a78d49b46","ios":"levelo://app?vid=7b2d5184-4765-4619-a436-973a78d49b46"},"vehicle_type_id":"4","last_reported":1731506951,"current_range_meters":37600,"station_id":"ce4bgl92rcd13ifvqbq0","pricing_plan_id":"cebpf4jnsgd1na2vs0mg"},{"bike_id":"a91d32a5-2c71-4220-874b-4c323b6b2da3","system_id":"levelo_inurba_marseille","lat":43.29881,"lon":5.39737,"is_reserved":false,"is_disabled":false,"rental_uris":{"android":"levelo://app?vid=a91d32a5-2c71-4220-874b-4c323b6b2da3","ios":"levelo://app?vid=a91d32a5-2c71-4220-874b-4c323b6b2da3"},"vehicle_type_id":"4","last_reported":1731506951,"current_range_meters":27200,"station_id":"ce4bh0h2rcd13ifvqd50","pricing_plan_id":"cebpf4jnsgd1na2vs0mg"},{"bike_id":"158757d0-f89c-452d-9746-6ab2aad19887","system_id":"levelo_inurba_marseille","lat":43.31231,"lon":5.36858,"is_reserved":false,"is_disabled":false,"rental_uris":{"android":"levelo://app?vid=158757d0-f89c-452d-9746-6ab2aad19887","ios":"levelo://app?vid=158757d0-f89c-452d-9746-6ab2aad19887"},"vehicle_type_id":"4","last_reported":1731506951,"current_range_meters":36400,"station_id":"ce4bgl92rcd13ifvqbq0","pricing_plan_id":"cebpf4jnsgd1na2vs0mg"},{"bike_id":"d78c4a7b-fb5e-45ab-9599-262fbefa386a","system_id":"levelo_inurba_marseille","lat":43.29917,"lon":5.37464,"is_reserved":false,"is_disabled":false,"rental_uris":{"android":"levelo://app?vid=d78c4a7b-fb5e-45ab-9599-262fbefa386a","ios":"levelo://app?vid=d78c4a7b-fb5e-45ab-9599-262fbefa386a"},"vehicle_type_id":"4","last_reported":1731506951,"current_range_meters":16000,"station_id":"ce4bgjh2rcd13ifvqbg0","pricing_plan_id":"cebpf4jnsgd1na2vs0mg"},{"bike_id":"a259dc59-abd0-4ca1-8047-e50dcef22e3e","system_id":"levelo_inurba_marseille","lat":43.337444,"lon":5.374475,"is_reserved":false,"is_disabled":false,"rental_uris":{"android":"levelo://app?vid=a259dc59-abd0-4ca1-8047-e50dcef22e3e","ios":"levelo://app?vid=a259dc59-abd0-4ca1-8047-e50dcef22e3e"},"vehicle_type_id":"4","last_reported":1731506951,"current_range_meters":36800,"station_id":"","pricing_plan_id":"cebpf4jnsgd1na2vs0mg"},{"bike_id":"504e927a-6c30-4423-8b2f-5b2053c453bb","system_id":"levelo_inurba_marseille","lat":43.27969,"lon":5.38732,"is_reserved":false,"is_disabled":false,"rental_uris":{"android":"levelo://app?vid=504e927a-6c30-4423-8b2f-5b2053c453bb","ios":"levelo://app?vid=504e927a-6c30-4423-8b2f-5b2053c453bb"},"vehicle_type_id":"4","last_reported":1731506951,"current_range_meters":20800,"station_id":"ce4bhg12rcd13ifvqf80","pricing_plan_id":"cebpf4jnsgd1na2vs0mg"},{"bike_id":"03e264db-81ed-49ba-9887-a542cc2c5d6a","system_id":"levelo_inurba_marseille","lat":43.2315,"lon":5.43718,"is_reserved":false,"is_disabled":false,"rental_uris":{"android":"levelo://app?vid=03e264db-81ed-49ba-9887-a542cc2c5d6a","ios":"levelo://app?vid=03e264db-81ed-49ba-9887-a542cc2c5d6a"},"vehicle_type_id":"4","last_reported":1731506951,"current_range_meters":16400,"station_id":"ce4bhmp2rcd13ifvqgog","pricing_plan_id":"cebpf4jnsgd1na2vs0mg"},{"bike_id":"7e53f637-ca6b-4e6d-84c5-e17cf8c4c536","system_id":"levelo_inurba_marseille","lat":43.26792,"lon":5.39415,"is_reserved":false,"is_disabled":false,"rental_uris":{"android":"levelo://app?vid=7e53f637-ca6b-4e6d-84c5-e17cf8c4c536","ios":"levelo://app?vid=7e53f637-ca6b-4e6d-84c5-e17cf8c4c536"},"vehicle_type_id":"4","last_reported":1731506951,"current_range_meters":38400,"station_id":"ce4bhh12rcd13ifvqfg0","pricing_plan_id":"cebpf4jnsgd1na2vs0mg"},{"bike_id":"abbb7060-9599-4d0f-8fcd-606beaa8ce7c","system_id":"levelo_inurba_marseille","lat":43.265779,"lon":5.390367,"is_reserved":false,"is_disabled":false,"rental_uris":{"android":"levelo://app?vid=abbb7060-9599-4d0f-8fcd-606beaa8ce7c","ios":"levelo://app?vid=abbb7060-9599-4d0f-8fcd-606beaa8ce7c"},"vehicle_type_id":"4","last_reported":1731506951,"current_range_meters":4400,"station_id":"ce4bhk92rcd13ifvqgb0","pricing_plan_id":"cebpf4jnsgd1na2vs0mg"},{"bike_id":"02b15d04-ca73-4935-b33a-cff630866949","system_id":"levelo_inurba_marseille","lat":43.29778,"lon":5.39353,"is_reserved":false,"is_disabled":false,"rental_uris":{"android":"levelo://app?vid=02b15d04-ca73-4935-b33a-cff630866949","ios":"levelo://app?vid=02b15d04-ca73-4935-b33a-cff630866949"},"vehicle_type_id":"4","last_reported":1731506951,"current_range_meters":18000,"station_id":"chh1huq6cuj3fo74tm60","pricing_plan_id":"cebpf4jnsgd1na2vs0mg"},{"bike_id":"92a7a4b8-71a2-4d89-a912-8ce23346a0d1","system_id":"levelo_inurba_marseille","lat":43.29899,"lon":5.43671,"is_reserved":false,"is_disabled":false,"rental_uris":{"android":"levelo://app?vid=92a7a4b8-71a2-4d89-a912-8ce23346a0d1","ios":"levelo://app?vid=92a7a4b8-71a2-4d89-a912-8ce23346a0d1"},"vehicle_type_id":"4","last_reported":1731506951,"current_range_meters":6000,"station_id":"ce4bhpp2rcd13ifvqhfg","pricing_plan_id":"cebpf4jnsgd1na2vs0mg"},{"bike_id":"6beff130-26f9-4b61-a3e4-8f5583a6106d","system_id":"levelo_inurba_marseille","lat":43.29734,"lon":5.37682,"is_reserved":false,"is_disabled":false,"rental_uris":{"android":"levelo://app?vid=6beff130-26f9-4b61-a3e4-8f5583a6106d","ios":"levelo://app?vid=6beff130-26f9-4b61-a3e4-8f5583a6106d"},"vehicle_type_id":"4","last_reported":1731506951,"current_range_meters":36400,"station_id":"ce4bgkh2rcd13ifvqbl0","pricing_plan_id":"cebpf4jnsgd1na2vs0mg"},{"bike_id":"b978470e-9a55-400c-ab7e-35a5d26deb82","system_id":"levelo_inurba_marseille","lat":43.27363,"lon":5.36242,"is_reserved":false,"is_disabled":false,"rental_uris":{"android":"levelo://app?vid=b978470e-9a55-400c-ab7e-35a5d26deb82","ios":"levelo://app?vid=b978470e-9a55-400c-ab7e-35a5d26deb82"},"vehicle_type_id":"4","last_reported":1731506951,"current_range_meters":11600,"station_id":"ce4bhbh2rcd13ifvqeo0","pricing_plan_id":"cebpf4jnsgd1na2vs0mg"},{"bike_id":"be88b65f-758c-41ae-bbef-9b7f5093def9","system_id":"levelo_inurba_marseille","lat":43.28413,"lon":5.34999,"is_reserved":false,"is_disabled":false,"rental_uris":{"android":"levelo://app?vid=be88b65f-758c-41ae-bbef-9b7f5093def9","ios":"levelo://app?vid=be88b65f-758c-41ae-bbef-9b7f5093def9"},"vehicle_type_id":"4","last_reported":1731506951,"current_range_meters":38000,"station_id":"ce4bhbh2rcd13ifvqepg","pricing_plan_id":"cebpf4jnsgd1na2vs0mg"},{"bike_id":"5bc8a2cc-e5b1-4065-a734-e2ab36656fe9","system_id":"levelo_inurba_marseille","lat":43.29904,"lon":5.37481,"is_reserved":false,"is_disabled":false,"rental_uris":{"android":"levelo://app?vid=5bc8a2cc-e5b1-4065-a734-e2ab36656fe9","ios":"levelo://app?vid=5bc8a2cc-e5b1-4065-a734-e2ab36656fe9"},"vehicle_type_id":"4","last_reported":1731506951,"current_range_meters":27200,"station_id":"ce4bgjh2rcd13ifvqbg0","pricing_plan_id":"cebpf4jnsgd1na2vs0mg"},{"bike_id":"47fdd3bf-4cb5-4eed-812e-3770c79fd243","system_id":"levelo_inurba_marseille","lat":43.3211,"lon":5.36788,"is_reserved":false,"is_disabled":false,"rental_uris":{"android":"levelo://app?vid=47fdd3bf-4cb5-4eed-812e-3770c79fd243","ios":"levelo://app?vid=47fdd3bf-4cb5-4eed-812e-3770c79fd243"},"vehicle_type_id":"4","last_reported":1731506951,"current_range_meters":13600,"station_id":"ce4bhrh2rcd13ifvqhug","pricing_plan_id":"cebpf4jnsgd1na2vs0mg"},{"bike_id":"155b9178-1bdd-4ed2-a22e-73069bac022b","system_id":"levelo_inurba_marseille","lat":43.29015,"lon":5.38132,"is_reserved":false,"is_disabled":false,"rental_uris":{"android":"levelo://app?vid=155b9178-1bdd-4ed2-a22e-73069bac022b","ios":"levelo://app?vid=155b9178-1bdd-4ed2-a22e-73069bac022b"},"vehicle_type_id":"4","last_reported":1731506951,"current_range_meters":26800,"station_id":"ce4bh4p2rcd13ifvqe1g","pricing_plan_id":"cebpf4jnsgd1na2vs0mg"},{"bike_id":"c8c00bea-b9aa-46f6-9c4d-bdaf1ad10eb3","system_id":"levelo_inurba_marseille","lat":43.291672,"lon":5.371521,"is_reserved":false,"is_disabled":false,"rental_uris":{"android":"levelo://app?vid=c8c00bea-b9aa-46f6-9c4d-bdaf1ad10eb3","ios":"levelo://app?vid=c8c00bea-b9aa-46f6-9c4d-bdaf1ad10eb3"},"vehicle_type_id":"4","last_reported":1731506951,"current_range_meters":12000,"station_id":"ce4bh192rcd13ifvqdb0","pricing_plan_id":"cebpf4jnsgd1na2vs0mg"},{"bike_id":"68f5de20-238b-41c3-a6c0-54ac841a57ea","system_id":"levelo_inurba_marseille","lat":43.32119,"lon":5.36775,"is_reserved":false,"is_disabled":false,"rental_uris":{"android":"levelo://app?vid=68f5de20-238b-41c3-a6c0-54ac841a57ea","ios":"levelo://app?vid=68f5de20-238b-41c3-a6c0-54ac841a57ea"},"vehicle_type_id":"4","last_reported":1731506951,"current_range_meters":39200,"station_id":"ce4bhrh2rcd13ifvqhug","pricing_plan_id":"cebpf4jnsgd1na2vs0mg"},{"bike_id":"6eadb700-eb79-4e32-8e5e-8742cee0b920","system_id":"levelo_inurba_marseille","lat":43.28855,"lon":5.39318,"is_reserved":false,"is_disabled":false,"rental_uris":{"android":"levelo://app?vid=6eadb700-eb79-4e32-8e5e-8742cee0b920","ios":"levelo://app?vid=6eadb700-eb79-4e32-8e5e-8742cee0b920"},"vehicle_type_id":"4","last_reported":1731506951,"current_range_meters":4800,"station_id":"ce4bh2p2rcd13ifvqdi0","pricing_plan_id":"cebpf4jnsgd1na2vs0mg"},{"bike_id":"06380225-2059-4a1b-ab66-74996d31bff2","system_id":"levelo_inurba_marseille","lat":43.31356,"lon":5.367105,"is_reserved":false,"is_disabled":false,"rental_uris":{"android":"levelo://app?vid=06380225-2059-4a1b-ab66-74996d31bff2","ios":"levelo://app?vid=06380225-2059-4a1b-ab66-74996d31bff2"},"vehicle_type_id":"4","last_reported":1731506951,"current_range_meters":13600,"station_id":"ce4bgr92rcd13ifvqc6g","pricing_plan_id":"cebpf4jnsgd1na2vs0mg"},{"bike_id":"009685b5-854f-4672-b1dc-56173b7f3206","system_id":"levelo_inurba_marseille","lat":43.3091,"lon":5.36843,"is_reserved":false,"is_disabled":false,"rental_uris":{"android":"levelo://app?vid=009685b5-854f-4672-b1dc-56173b7f3206","ios":"levelo://app?vid=009685b5-854f-4672-b1dc-56173b7f3206"},"vehicle_type_id":"4","last_reported":1731506951,"current_range_meters":23200,"station_id":"ce4bgn92rcd13ifvqbvg","pricing_plan_id":"cebpf4jnsgd1na2vs0mg"},{"bike_id":"1120182f-9596-45a6-ba56-35505811b5ea","system_id":"levelo_inurba_marseille","lat":43.2315,"lon":5.43724,"is_reserved":false,"is_disabled":false,"rental_uris":{"android":"levelo://app?vid=1120182f-9596-45a6-ba56-35505811b5ea","ios":"levelo://app?vid=1120182f-9596-45a6-ba56-35505811b5ea"},"vehicle_type_id":"4","last_reported":1731506951,"current_range_meters":30400,"station_id":"ce4bhmp2rcd13ifvqgog","pricing_plan_id":"cebpf4jnsgd1na2vs0mg"},{"bike_id":"bd905f31-cfc9-44e9-aea9-10bc82628865","system_id":"levelo_inurba_marseille","lat":43.25723,"lon":5.41106,"is_reserved":false,"is_disabled":false,"rental_uris":{"android":"levelo://app?vid=bd905f31-cfc9-44e9-aea9-10bc82628865","ios":"levelo://app?vid=bd905f31-cfc9-44e9-aea9-10bc82628865"},"vehicle_type_id":"4","last_reported":1731506951,"current_range_meters":38400,"station_id":"ce4bhkp2rcd13ifvqgd0","pricing_plan_id":"cebpf4jnsgd1na2vs0mg"},{"bike_id":"fa283a3b-8401-4add-8893-520051fa8f3e","system_id":"levelo_inurba_marseille","lat":43.28925,"lon":5.3839,"is_reserved":false,"is_disabled":false,"rental_uris":{"android":"levelo://app?vid=fa283a3b-8401-4add-8893-520051fa8f3e","ios":"levelo://app?vid=fa283a3b-8401-4add-8893-520051fa8f3e"},"vehicle_type_id":"4","last_reported":1731506951,"current_range_meters":27200,"station_id":"ce4bh612rcd13ifvqe6g","pricing_plan_id":"cebpf4jnsgd1na2vs0mg"},{"bike_id":"3d053875-99c6-4339-a531-c436eb5e6e17","system_id":"levelo_inurba_marseille","lat":43.29706,"lon":5.37686,"is_reserved":false,"is_disabled":false,"rental_uris":{"android":"levelo://app?vid=3d053875-99c6-4339-a531-c436eb5e6e17","ios":"levelo://app?vid=3d053875-99c6-4339-a531-c436eb5e6e17"},"vehicle_type_id":"4","last_reported":1731506951,"current_range_meters":24800,"station_id":"ce4bgkh2rcd13ifvqbl0","pricing_plan_id":"cebpf4jnsgd1na2vs0mg"},{"bike_id":"5b41e762-1614-46f6-92e6-bba5e7d3cb79","system_id":"levelo_inurba_marseille","lat":43.28464,"lon":5.35885,"is_reserved":false,"is_disabled":false,"rental_uris":{"android":"levelo://app?vid=5b41e762-1614-46f6-92e6-bba5e7d3cb79","ios":"levelo://app?vid=5b41e762-1614-46f6-92e6-bba5e7d3cb79"},"vehicle_type_id":"4","last_reported":1731506951,"current_range_meters":12800,"station_id":"ce4bhah2rcd13ifvqei0","pricing_plan_id":"cebpf4jnsgd1na2vs0mg"},{"bike_id":"f30ff5cf-3d38-4f86-bb4f-c254e8a50795","system_id":"levelo_inurba_marseille","lat":43.29602,"lon":5.37737,"is_reserved":false,"is_disabled":false,"rental_uris":{"android":"levelo://app?vid=f30ff5cf-3d38-4f86-bb4f-c254e8a50795","ios":"levelo://app?vid=f30ff5cf-3d38-4f86-bb4f-c254e8a50795"},"vehicle_type_id":"4","last_reported":1731506951,"current_range_meters":11600,"station_id":"ce4bgnh2rcd13ifvqc0g","pricing_plan_id":"cebpf4jnsgd1na2vs0mg"},{"bike_id":"70e78c93-084e-4ab7-a814-465f1ec8a7f0","system_id":"levelo_inurba_marseille","lat":43.23153,"lon":5.43708,"is_reserved":false,"is_disabled":false,"rental_uris":{"android":"levelo://app?vid=70e78c93-084e-4ab7-a814-465f1ec8a7f0","ios":"levelo://app?vid=70e78c93-084e-4ab7-a814-465f1ec8a7f0"},"vehicle_type_id":"4","last_reported":1731506951,"current_range_meters":28400,"station_id":"ce4bhmp2rcd13ifvqgog","pricing_plan_id":"cebpf4jnsgd1na2vs0mg"},{"bike_id":"3c914925-6ba8-419c-a2ef-ee0abfde80e1","system_id":"levelo_inurba_marseille","lat":43.29625,"lon":5.40593,"is_reserved":false,"is_disabled":false,"rental_uris":{"android":"levelo://app?vid=3c914925-6ba8-419c-a2ef-ee0abfde80e1","ios":"levelo://app?vid=3c914925-6ba8-419c-a2ef-ee0abfde80e1"},"vehicle_type_id":"4","last_reported":1731506951,"current_range_meters":38400,"station_id":"ce4bh0h2rcd13ifvqd60","pricing_plan_id":"cebpf4jnsgd1na2vs0mg"},{"bike_id":"f75744f1-85a8-482a-a973-3775be4720e6","system_id":"levelo_inurba_marseille","lat":43.295166,"lon":5.39035,"is_reserved":false,"is_disabled":false,"rental_uris":{"android":"levelo://app?vid=f75744f1-85a8-482a-a973-3775be4720e6","ios":"levelo://app?vid=f75744f1-85a8-482a-a973-3775be4720e6"},"vehicle_type_id":"4","last_reported":1731506951,"current_range_meters":31200,"station_id":"ce4bh3p2rcd13ifvqdp0","pricing_plan_id":"cebpf4jnsgd1na2vs0mg"},{"bike_id":"d27ed9a8-09e7-43aa-b832-cabfe3079afc","system_id":"levelo_inurba_marseille","lat":43.284688,"lon":5.38437,"is_reserved":false,"is_disabled":false,"rental_uris":{"android":"levelo://app?vid=d27ed9a8-09e7-43aa-b832-cabfe3079afc","ios":"levelo://app?vid=d27ed9a8-09e7-43aa-b832-cabfe3079afc"},"vehicle_type_id":"4","last_reported":1731506951,"current_range_meters":35200,"station_id":"ce4bhkp2rcd13ifvqgd0","pricing_plan_id":"cebpf4jnsgd1na2vs0mg"},{"bike_id":"7c9b8995-ac96-4708-b4eb-b4b17631b9d8","system_id":"levelo_inurba_marseille","lat":43.337444,"lon":5.374475,"is_reserved":false,"is_disabled":false,"rental_uris":{"android":"levelo://app?vid=7c9b8995-ac96-4708-b4eb-b4b17631b9d8","ios":"levelo://app?vid=7c9b8995-ac96-4708-b4eb-b4b17631b9d8"},"vehicle_type_id":"4","last_reported":1731506951,"current_range_meters":37600,"station_id":"","pricing_plan_id":"cebpf4jnsgd1na2vs0mg"},{"bike_id":"58e12413-d879-4dff-a084-333be006c499","system_id":"levelo_inurba_marseille","lat":43.29556,"lon":5.42291,"is_reserved":false,"is_disabled":false,"rental_uris":{"android":"levelo://app?vid=58e12413-d879-4dff-a084-333be006c499","ios":"levelo://app?vid=58e12413-d879-4dff-a084-333be006c499"},"vehicle_type_id":"4","last_reported":1731506951,"current_range_meters":30000,"station_id":"ce4bhph2rcd13ifvqhdg","pricing_plan_id":"cebpf4jnsgd1na2vs0mg"},{"bike_id":"3d721f3c-3bf9-4fc9-9daa-920f867cb38e","system_id":"levelo_inurba_marseille","lat":43.29913,"lon":5.37477,"is_reserved":false,"is_disabled":false,"rental_uris":{"android":"levelo://app?vid=3d721f3c-3bf9-4fc9-9daa-920f867cb38e","ios":"levelo://app?vid=3d721f3c-3bf9-4fc9-9daa-920f867cb38e"},"vehicle_type_id":"4","last_reported":1731506951,"current_range_meters":19200,"station_id":"ce4bgjh2rcd13ifvqbg0","pricing_plan_id":"cebpf4jnsgd1na2vs0mg"},{"bike_id":"7f54565b-bbcd-4529-9842-e551b281e311","system_id":"levelo_inurba_marseille","lat":43.29854,"lon":5.36286,"is_reserved":false,"is_disabled":false,"rental_uris":{"android":"levelo://app?vid=7f54565b-bbcd-4529-9842-e551b281e311","ios":"levelo://app?vid=7f54565b-bbcd-4529-9842-e551b281e311"},"vehicle_type_id":"4","last_reported":1731506951,"current_range_meters":5600,"station_id":"ce4bgpp2rcd13ifvqc3g","pricing_plan_id":"cebpf4jnsgd1na2vs0mg"},{"bike_id":"d228d7ea-b8cf-40e2-b961-04de5d4b7beb","system_id":"levelo_inurba_marseille","lat":43.3091,"lon":5.36858,"is_reserved":false,"is_disabled":false,"rental_uris":{"android":"levelo://app?vid=d228d7ea-b8cf-40e2-b961-04de5d4b7beb","ios":"levelo://app?vid=d228d7ea-b8cf-40e2-b961-04de5d4b7beb"},"vehicle_type_id":"4","last_reported":1731506951,"current_range_meters":30400,"station_id":"ce4bgn92rcd13ifvqbvg","pricing_plan_id":"cebpf4jnsgd1na2vs0mg"},{"bike_id":"3b64b994-1238-40ab-a63e-7bc2f25c5df9","system_id":"levelo_inurba_marseille","lat":43.23183,"lon":5.39986,"is_reserved":false,"is_disabled":false,"rental_uris":{"android":"levelo://app?vid=3b64b994-1238-40ab-a63e-7bc2f25c5df9","ios":"levelo://app?vid=3b64b994-1238-40ab-a63e-7bc2f25c5df9"},"vehicle_type_id":"4","last_reported":1731506951,"current_range_meters":36000,"station_id":"ce4bhn12rcd13ifvqgqg","pricing_plan_id":"cebpf4jnsgd1na2vs0mg"},{"bike_id":"6a74bd13-2f0d-4293-a500-24db67983d5b","system_id":"levelo_inurba_marseille","lat":43.23065,"lon":5.35489,"is_reserved":false,"is_disabled":false,"rental_uris":{"android":"levelo://app?vid=6a74bd13-2f0d-4293-a500-24db67983d5b","ios":"levelo://app?vid=6a74bd13-2f0d-4293-a500-24db67983d5b"},"vehicle_type_id":"4","last_reported":1731506951,"current_range_meters":36800,"station_id":"cpo3342slgdg3j2ifvpg","pricing_plan_id":"cebpf4jnsgd1na2vs0mg"},{"bike_id":"62b0f0a6-ae12-4b10-bfe0-2b5f4e12ee76","system_id":"levelo_inurba_marseille","lat":43.269994,"lon":5.402737,"is_reserved":false,"is_disabled":false,"rental_uris":{"android":"levelo://app?vid=62b0f0a6-ae12-4b10-bfe0-2b5f4e12ee76","ios":"levelo://app?vid=62b0f0a6-ae12-4b10-bfe0-2b5f4e12ee76"},"vehicle_type_id":"4","last_reported":1731506951,"current_range_meters":35600,"station_id":"cjm6bp8fraef2m0cb0m0","pricing_plan_id":"cebpf4jnsgd1na2vs0mg"},{"bike_id":"3547cf2b-0c07-4559-b36e-6c606a50778e","system_id":"levelo_inurba_marseille","lat":43.30537,"lon":5.36555,"is_reserved":false,"is_disabled":false,"rental_uris":{"android":"levelo://app?vid=3547cf2b-0c07-4559-b36e-6c606a50778e","ios":"levelo://app?vid=3547cf2b-0c07-4559-b36e-6c606a50778e"},"vehicle_type_id":"4","last_reported":1731506951,"current_range_meters":9200,"station_id":"ce4bgs12rcd13ifvqcag","pricing_plan_id":"cebpf4jnsgd1na2vs0mg"},{"bike_id":"ddf51a43-0fff-4948-ad10-6f7a6747dc95","system_id":"levelo_inurba_marseille","lat":43.26934,"lon":5.40258,"is_reserved":false,"is_disabled":false,"rental_uris":{"android":"levelo://app?vid=ddf51a43-0fff-4948-ad10-6f7a6747dc95","ios":"levelo://app?vid=ddf51a43-0fff-4948-ad10-6f7a6747dc95"},"vehicle_type_id":"4","last_reported":1731506951,"current_range_meters":38000,"station_id":"cjm6bp8fraef2m0cb0m0","pricing_plan_id":"cebpf4jnsgd1na2vs0mg"},{"bike_id":"36dc5571-e145-4154-ace5-317dada570db","system_id":"levelo_inurba_marseille","lat":43.28919,"lon":5.38404,"is_reserved":false,"is_disabled":false,"rental_uris":{"android":"levelo://app?vid=36dc5571-e145-4154-ace5-317dada570db","ios":"levelo://app?vid=36dc5571-e145-4154-ace5-317dada570db"},"vehicle_type_id":"4","last_reported":1731506951,"current_range_meters":38800,"station_id":"ce4bh612rcd13ifvqe6g","pricing_plan_id":"cebpf4jnsgd1na2vs0mg"},{"bike_id":"ddc82b0c-0ad3-46a1-9406-831ffe816536","system_id":"levelo_inurba_marseille","lat":43.28595,"lon":5.37062,"is_reserved":false,"is_disabled":false,"rental_uris":{"android":"levelo://app?vid=ddc82b0c-0ad3-46a1-9406-831ffe816536","ios":"levelo://app?vid=ddc82b0c-0ad3-46a1-9406-831ffe816536"},"vehicle_type_id":"4","last_reported":1731506951,"current_range_meters":12400,"station_id":"ce4bht12rcd13ifvqi60","pricing_plan_id":"cebpf4jnsgd1na2vs0mg"},{"bike_id":"2f36df47-0531-4f2c-a511-ea2dc06d29cf","system_id":"levelo_inurba_marseille","lat":43.22927,"lon":5.35374,"is_reserved":false,"is_disabled":false,"rental_uris":{"android":"levelo://app?vid=2f36df47-0531-4f2c-a511-ea2dc06d29cf","ios":"levelo://app?vid=2f36df47-0531-4f2c-a511-ea2dc06d29cf"},"vehicle_type_id":"4","last_reported":1731506951,"current_range_meters":12400,"station_id":"cpo3532slgdg3j2ikp40","pricing_plan_id":"cebpf4jnsgd1na2vs0mg"},{"bike_id":"71737ebd-943e-4b6e-b30e-d60a09cc57ca","system_id":"levelo_inurba_marseille","lat":43.30913,"lon":5.3685,"is_reserved":false,"is_disabled":false,"rental_uris":{"android":"levelo://app?vid=71737ebd-943e-4b6e-b30e-d60a09cc57ca","ios":"levelo://app?vid=71737ebd-943e-4b6e-b30e-d60a09cc57ca"},"vehicle_type_id":"4","last_reported":1731506951,"current_range_meters":16000,"station_id":"ce4bgn92rcd13ifvqbvg","pricing_plan_id":"cebpf4jnsgd1na2vs0mg"},{"bike_id":"8b23c43b-b7e3-4c7c-a8a8-d715b9a7b32c","system_id":"levelo_inurba_marseille","lat":43.25744,"lon":5.410835,"is_reserved":false,"is_disabled":false,"rental_uris":{"android":"levelo://app?vid=8b23c43b-b7e3-4c7c-a8a8-d715b9a7b32c","ios":"levelo://app?vid=8b23c43b-b7e3-4c7c-a8a8-d715b9a7b32c"},"vehicle_type_id":"4","last_reported":1731506951,"current_range_meters":38000,"station_id":"ce4bhkp2rcd13ifvqgd0","pricing_plan_id":"cebpf4jnsgd1na2vs0mg"},{"bike_id":"8c9b3aad-9091-47ea-aa6b-0fbca0f0777e","system_id":"levelo_inurba_marseille","lat":43.30591,"lon":5.37225,"is_reserved":false,"is_disabled":false,"rental_uris":{"android":"levelo://app?vid=8c9b3aad-9091-47ea-aa6b-0fbca0f0777e","ios":"levelo://app?vid=8c9b3aad-9091-47ea-aa6b-0fbca0f0777e"},"vehicle_type_id":"4","last_reported":1731506951,"current_range_meters":27600,"station_id":"ce4bgqh2rcd13ifvqc4g","pricing_plan_id":"cebpf4jnsgd1na2vs0mg"},{"bike_id":"9d21ff4a-d516-4d71-a226-ead22ace12fd","system_id":"levelo_inurba_marseille","lat":43.25936,"lon":5.40904,"is_reserved":false,"is_disabled":false,"rental_uris":{"android":"levelo://app?vid=9d21ff4a-d516-4d71-a226-ead22ace12fd","ios":"levelo://app?vid=9d21ff4a-d516-4d71-a226-ead22ace12fd"},"vehicle_type_id":"4","last_reported":1731506951,"current_range_meters":18000,"station_id":"ce4bhm92rcd13ifvqglg","pricing_plan_id":"cebpf4jnsgd1na2vs0mg"},{"bike_id":"13809418-7185-4c02-b339-0543a9c63d70","system_id":"levelo_inurba_marseille","lat":43.28853,"lon":5.3585,"is_reserved":false,"is_disabled":false,"rental_uris":{"android":"levelo://app?vid=13809418-7185-4c02-b339-0543a9c63d70","ios":"levelo://app?vid=13809418-7185-4c02-b339-0543a9c63d70"},"vehicle_type_id":"4","last_reported":1731506951,"current_range_meters":18000,"station_id":"ce4bhb12rcd13ifvqem0","pricing_plan_id":"cebpf4jnsgd1na2vs0mg"},{"bike_id":"a5119688-4c54-4f92-81ad-ea94e6890a60","system_id":"levelo_inurba_marseille","lat":43.28792,"lon":5.39155,"is_reserved":false,"is_disabled":false,"rental_uris":{"android":"levelo://app?vid=a5119688-4c54-4f92-81ad-ea94e6890a60","ios":"levelo://app?vid=a5119688-4c54-4f92-81ad-ea94e6890a60"},"vehicle_type_id":"4","last_reported":1731506951,"current_range_meters":6800,"station_id":"ce4bh3h2rcd13ifvqdn0","pricing_plan_id":"cebpf4jnsgd1na2vs0mg"},{"bike_id":"361ec082-1f58-4095-9807-ba7649e19cf0","system_id":"levelo_inurba_marseille","lat":43.29567,"lon":5.37523,"is_reserved":false,"is_disabled":false,"rental_uris":{"android":"levelo://app?vid=361ec082-1f58-4095-9807-ba7649e19cf0","ios":"levelo://app?vid=361ec082-1f58-4095-9807-ba7649e19cf0"},"vehicle_type_id":"4","last_reported":1731506951,"current_range_meters":19200,"station_id":"ce4bgh92rcd13ifvqb50","pricing_plan_id":"cebpf4jnsgd1na2vs0mg"},{"bike_id":"fd6b4aba-e0f8-4b82-88ad-f83a1c6aa333","system_id":"levelo_inurba_marseille","lat":43.30094,"lon":5.39068,"is_reserved":false,"is_disabled":false,"rental_uris":{"android":"levelo://app?vid=fd6b4aba-e0f8-4b82-88ad-f83a1c6aa333","ios":"levelo://app?vid=fd6b4aba-e0f8-4b82-88ad-f83a1c6aa333"},"vehicle_type_id":"4","last_reported":1731506951,"current_range_meters":3200,"station_id":"ce4bh192rcd13ifvqdb0","pricing_plan_id":"cebpf4jnsgd1na2vs0mg"},{"bike_id":"ad32aaa2-12d5-422b-ae94-ecd75d029618","system_id":"levelo_inurba_marseille","lat":43.30533,"lon":5.36566,"is_reserved":false,"is_disabled":false,"rental_uris":{"android":"levelo://app?vid=ad32aaa2-12d5-422b-ae94-ecd75d029618","ios":"levelo://app?vid=ad32aaa2-12d5-422b-ae94-ecd75d029618"},"vehicle_type_id":"4","last_reported":1731506951,"current_range_meters":24000,"station_id":"ce4bgs12rcd13ifvqcag","pricing_plan_id":"cebpf4jnsgd1na2vs0mg"},{"bike_id":"9028c6d8-acb1-446d-b4a2-3f5649334051","system_id":"levelo_inurba_marseille","lat":43.302824,"lon":5.377105,"is_reserved":false,"is_disabled":false,"rental_uris":{"android":"levelo://app?vid=9028c6d8-acb1-446d-b4a2-3f5649334051","ios":"levelo://app?vid=9028c6d8-acb1-446d-b4a2-3f5649334051"},"vehicle_type_id":"4","last_reported":1731506951,"current_range_meters":36800,"station_id":"ce4bgt12rcd13ifvqcd0","pricing_plan_id":"cebpf4jnsgd1na2vs0mg"},{"bike_id":"459a5777-57d4-4613-900e-258d8697c41c","system_id":"levelo_inurba_marseille","lat":43.28463,"lon":5.3589,"is_reserved":false,"is_disabled":false,"rental_uris":{"android":"levelo://app?vid=459a5777-57d4-4613-900e-258d8697c41c","ios":"levelo://app?vid=459a5777-57d4-4613-900e-258d8697c41c"},"vehicle_type_id":"4","last_reported":1731506951,"current_range_meters":38800,"station_id":"ce4bhah2rcd13ifvqei0","pricing_plan_id":"cebpf4jnsgd1na2vs0mg"},{"bike_id":"a72eefa6-c556-4e58-944d-cc38931f8799","system_id":"levelo_inurba_marseille","lat":43.31355,"lon":5.36701,"is_reserved":false,"is_disabled":false,"rental_uris":{"android":"levelo://app?vid=a72eefa6-c556-4e58-944d-cc38931f8799","ios":"levelo://app?vid=a72eefa6-c556-4e58-944d-cc38931f8799"},"vehicle_type_id":"4","last_reported":1731506951,"current_range_meters":20800,"station_id":"ce4bgr92rcd13ifvqc6g","pricing_plan_id":"cebpf4jnsgd1na2vs0mg"},{"bike_id":"df938ef1-68b1-45e0-a834-89f4cd6ed995","system_id":"levelo_inurba_marseille","lat":43.25862,"lon":5.39897,"is_reserved":false,"is_disabled":false,"rental_uris":{"android":"levelo://app?vid=df938ef1-68b1-45e0-a834-89f4cd6ed995","ios":"levelo://app?vid=df938ef1-68b1-45e0-a834-89f4cd6ed995"},"vehicle_type_id":"4","last_reported":1731506951,"current_range_meters":22800,"station_id":"ce4bhl92rcd13ifvqghg","pricing_plan_id":"cebpf4jnsgd1na2vs0mg"},{"bike_id":"876d09ce-2269-4e21-a6c5-815dc7639960","system_id":"levelo_inurba_marseille","lat":43.30547,"lon":5.36541,"is_reserved":false,"is_disabled":false,"rental_uris":{"android":"levelo://app?vid=876d09ce-2269-4e21-a6c5-815dc7639960","ios":"levelo://app?vid=876d09ce-2269-4e21-a6c5-815dc7639960"},"vehicle_type_id":"4","last_reported":1731506951,"current_range_meters":38800,"station_id":"ce4bgs12rcd13ifvqcag","pricing_plan_id":"cebpf4jnsgd1na2vs0mg"},{"bike_id":"02f758d3-0812-4c74-a62e-ebd38a822b80","system_id":"levelo_inurba_marseille","lat":43.305359,"lon":5.367299,"is_reserved":false,"is_disabled":false,"rental_uris":{"android":"levelo://app?vid=02f758d3-0812-4c74-a62e-ebd38a822b80","ios":"levelo://app?vid=02f758d3-0812-4c74-a62e-ebd38a822b80"},"vehicle_type_id":"4","last_reported":1731506951,"current_range_meters":6400,"station_id":"ce4bgrp2rcd13ifvqc9g","pricing_plan_id":"cebpf4jnsgd1na2vs0mg"},{"bike_id":"7891995d-7c39-4fa5-ab0a-02ee601a522d","system_id":"levelo_inurba_marseille","lat":43.32295,"lon":5.38264,"is_reserved":false,"is_disabled":false,"rental_uris":{"android":"levelo://app?vid=7891995d-7c39-4fa5-ab0a-02ee601a522d","ios":"levelo://app?vid=7891995d-7c39-4fa5-ab0a-02ee601a522d"},"vehicle_type_id":"4","last_reported":1731506951,"current_range_meters":38800,"station_id":"ce4bhr12rcd13ifvqhqg","pricing_plan_id":"cebpf4jnsgd1na2vs0mg"},{"bike_id":"c40202ab-327f-4526-92d6-c55414a75cd5","system_id":"levelo_inurba_marseille","lat":43.314864,"lon":5.373219,"is_reserved":false,"is_disabled":false,"rental_uris":{"android":"levelo://app?vid=c40202ab-327f-4526-92d6-c55414a75cd5","ios":"levelo://app?vid=c40202ab-327f-4526-92d6-c55414a75cd5"},"vehicle_type_id":"4","last_reported":1731506951,"current_range_meters":38800,"station_id":"ce4bgt12rcd13ifvqcd0","pricing_plan_id":"cebpf4jnsgd1na2vs0mg"},{"bike_id":"2792eb33-4eb3-44c2-980c-522c2c8588b3","system_id":"levelo_inurba_marseille","lat":43.23148,"lon":5.43724,"is_reserved":false,"is_disabled":false,"rental_uris":{"android":"levelo://app?vid=2792eb33-4eb3-44c2-980c-522c2c8588b3","ios":"levelo://app?vid=2792eb33-4eb3-44c2-980c-522c2c8588b3"},"vehicle_type_id":"4","last_reported":1731506951,"current_range_meters":18000,"station_id":"ce4bhmp2rcd13ifvqgog","pricing_plan_id":"cebpf4jnsgd1na2vs0mg"},{"bike_id":"2c36ea40-4162-4c45-b002-b901c117fc08","system_id":"levelo_inurba_marseille","lat":43.28606,"lon":5.35104,"is_reserved":false,"is_disabled":false,"rental_uris":{"android":"levelo://app?vid=2c36ea40-4162-4c45-b002-b901c117fc08","ios":"levelo://app?vid=2c36ea40-4162-4c45-b002-b901c117fc08"},"vehicle_type_id":"4","last_reported":1731506951,"current_range_meters":38800,"station_id":"ce4bhch2rcd13ifvqeug","pricing_plan_id":"cebpf4jnsgd1na2vs0mg"},{"bike_id":"c5fb8d78-194a-4adb-8999-14199ad223bd","system_id":"levelo_inurba_marseille","lat":43.29222,"lon":5.36071,"is_reserved":false,"is_disabled":false,"rental_uris":{"android":"levelo://app?vid=c5fb8d78-194a-4adb-8999-14199ad223bd","ios":"levelo://app?vid=c5fb8d78-194a-4adb-8999-14199ad223bd"},"vehicle_type_id":"4","last_reported":1731506951,"current_range_meters":23200,"station_id":"ce4bhbh2rcd13ifvqeqg","pricing_plan_id":"cebpf4jnsgd1na2vs0mg"},{"bike_id":"ef64163f-5bc1-4988-9c95-855e4b6b89df","system_id":"levelo_inurba_marseille","lat":43.29574,"lon":5.37503,"is_reserved":false,"is_disabled":false,"rental_uris":{"android":"levelo://app?vid=ef64163f-5bc1-4988-9c95-855e4b6b89df","ios":"levelo://app?vid=ef64163f-5bc1-4988-9c95-855e4b6b89df"},"vehicle_type_id":"4","last_reported":1731506951,"current_range_meters":28800,"station_id":"ce4bgh92rcd13ifvqb50","pricing_plan_id":"cebpf4jnsgd1na2vs0mg"},{"bike_id":"aa199c9a-6bce-468e-87e6-87a79f6ad67c","system_id":"levelo_inurba_marseille","lat":43.28353,"lon":5.38646,"is_reserved":false,"is_disabled":false,"rental_uris":{"android":"levelo://app?vid=aa199c9a-6bce-468e-87e6-87a79f6ad67c","ios":"levelo://app?vid=aa199c9a-6bce-468e-87e6-87a79f6ad67c"},"vehicle_type_id":"4","last_reported":1731506951,"current_range_meters":39200,"station_id":"ce4bh492rcd13ifvqdvg","pricing_plan_id":"cebpf4jnsgd1na2vs0mg"},{"bike_id":"1311c692-6e9d-4afb-b7b0-20686564fe7a","system_id":"levelo_inurba_marseille","lat":43.337444,"lon":5.374475,"is_reserved":false,"is_disabled":false,"rental_uris":{"android":"levelo://app?vid=1311c692-6e9d-4afb-b7b0-20686564fe7a","ios":"levelo://app?vid=1311c692-6e9d-4afb-b7b0-20686564fe7a"},"vehicle_type_id":"4","last_reported":1731506951,"current_range_meters":36800,"station_id":"","pricing_plan_id":"cebpf4jnsgd1na2vs0mg"},{"bike_id":"888d78ec-114f-4c17-9c14-c82bca33a261","system_id":"levelo_inurba_marseille","lat":43.30605,"lon":5.37225,"is_reserved":false,"is_disabled":false,"rental_uris":{"android":"levelo://app?vid=888d78ec-114f-4c17-9c14-c82bca33a261","ios":"levelo://app?vid=888d78ec-114f-4c17-9c14-c82bca33a261"},"vehicle_type_id":"4","last_reported":1731506951,"current_range_meters":39200,"station_id":"ce4bgqh2rcd13ifvqc4g","pricing_plan_id":"cebpf4jnsgd1na2vs0mg"},{"bike_id":"cdded734-492e-49e1-938d-ad91292233c0","system_id":"levelo_inurba_marseille","lat":43.29021,"lon":5.38143,"is_reserved":false,"is_disabled":false,"rental_uris":{"android":"levelo://app?vid=cdded734-492e-49e1-938d-ad91292233c0","ios":"levelo://app?vid=cdded734-492e-49e1-938d-ad91292233c0"},"vehicle_type_id":"4","last_reported":1731506951,"current_range_meters":6400,"station_id":"ce4bh4p2rcd13ifvqe1g","pricing_plan_id":"cebpf4jnsgd1na2vs0mg"},{"bike_id":"f0651157-9eca-46a0-ad19-39fecd06616b","system_id":"levelo_inurba_marseille","lat":43.24065,"lon":5.37765,"is_reserved":false,"is_disabled":false,"rental_uris":{"android":"levelo://app?vid=f0651157-9eca-46a0-ad19-39fecd06616b","ios":"levelo://app?vid=f0651157-9eca-46a0-ad19-39fecd06616b"},"vehicle_type_id":"4","last_reported":1731506951,"current_range_meters":6800,"station_id":"ce4bhnp2rcd13ifvqgvg","pricing_plan_id":"cebpf4jnsgd1na2vs0mg"},{"bike_id":"5427ec44-65b5-4156-9be1-ec87130aec0f","system_id":"levelo_inurba_marseille","lat":43.33758,"lon":5.37446,"is_reserved":false,"is_disabled":false,"rental_uris":{"android":"levelo://app?vid=5427ec44-65b5-4156-9be1-ec87130aec0f","ios":"levelo://app?vid=5427ec44-65b5-4156-9be1-ec87130aec0f"},"vehicle_type_id":"4","last_reported":1731506951,"current_range_meters":24800,"station_id":"","pricing_plan_id":"cebpf4jnsgd1na2vs0mg"},{"bike_id":"f76e50df-64c1-4e65-95d1-95856d9f8417","system_id":"levelo_inurba_marseille","lat":43.28608,"lon":5.37061,"is_reserved":false,"is_disabled":false,"rental_uris":{"android":"levelo://app?vid=f76e50df-64c1-4e65-95d1-95856d9f8417","ios":"levelo://app?vid=f76e50df-64c1-4e65-95d1-95856d9f8417"},"vehicle_type_id":"4","last_reported":1731506951,"current_range_meters":21600,"station_id":"ce4bht12rcd13ifvqi60","pricing_plan_id":"cebpf4jnsgd1na2vs0mg"},{"bike_id":"082e9e38-ed1e-4cc1-a3df-a88469374fe0","system_id":"levelo_inurba_marseille","lat":43.31227,"lon":5.36862,"is_reserved":false,"is_disabled":false,"rental_uris":{"android":"levelo://app?vid=082e9e38-ed1e-4cc1-a3df-a88469374fe0","ios":"levelo://app?vid=082e9e38-ed1e-4cc1-a3df-a88469374fe0"},"vehicle_type_id":"4","last_reported":1731506951,"current_range_meters":24000,"station_id":"ce4bgl92rcd13ifvqbq0","pricing_plan_id":"cebpf4jnsgd1na2vs0mg"},{"bike_id":"876741b3-360a-4ea8-a072-e61ecc49f8fa","system_id":"levelo_inurba_marseille","lat":43.29192,"lon":5.35804,"is_reserved":false,"is_disabled":false,"rental_uris":{"android":"levelo://app?vid=876741b3-360a-4ea8-a072-e61ecc49f8fa","ios":"levelo://app?vid=876741b3-360a-4ea8-a072-e61ecc49f8fa"},"vehicle_type_id":"4","last_reported":1731506951,"current_range_meters":10000,"station_id":"ce4bhb12rcd13ifvqel0","pricing_plan_id":"cebpf4jnsgd1na2vs0mg"},{"bike_id":"0ad5e6fe-b95a-4876-8f68-60609992d57c","system_id":"levelo_inurba_marseille","lat":43.30208,"lon":5.39471,"is_reserved":false,"is_disabled":false,"rental_uris":{"android":"levelo://app?vid=0ad5e6fe-b95a-4876-8f68-60609992d57c","ios":"levelo://app?vid=0ad5e6fe-b95a-4876-8f68-60609992d57c"},"vehicle_type_id":"4","last_reported":1731506951,"current_range_meters":13600,"station_id":"ce4bh0p2rcd13ifvqd70","pricing_plan_id":"cebpf4jnsgd1na2vs0mg"},{"bike_id":"0b8fefad-d5ba-45d2-bf64-8057b6df9b84","system_id":"levelo_inurba_marseille","lat":43.30214,"lon":5.39469,"is_reserved":false,"is_disabled":false,"rental_uris":{"android":"levelo://app?vid=0b8fefad-d5ba-45d2-bf64-8057b6df9b84","ios":"levelo://app?vid=0b8fefad-d5ba-45d2-bf64-8057b6df9b84"},"vehicle_type_id":"4","last_reported":1731506951,"current_range_meters":24000,"station_id":"ce4bh0p2rcd13ifvqd70","pricing_plan_id":"cebpf4jnsgd1na2vs0mg"},{"bike_id":"54cfc117-56c6-44e6-8bf6-07d650494fae","system_id":"levelo_inurba_marseille","lat":43.30549,"lon":5.36555,"is_reserved":false,"is_disabled":false,"rental_uris":{"android":"levelo://app?vid=54cfc117-56c6-44e6-8bf6-07d650494fae","ios":"levelo://app?vid=54cfc117-56c6-44e6-8bf6-07d650494fae"},"vehicle_type_id":"4","last_reported":1731506951,"current_range_meters":36800,"station_id":"ce4bgs12rcd13ifvqcag","pricing_plan_id":"cebpf4jnsgd1na2vs0mg"},{"bike_id":"6073c7d0-0bf0-467c-bfcb-abf6e2cb73b3","system_id":"levelo_inurba_marseille","lat":43.31018,"lon":5.40087,"is_reserved":false,"is_disabled":false,"rental_uris":{"android":"levelo://app?vid=6073c7d0-0bf0-467c-bfcb-abf6e2cb73b3","ios":"levelo://app?vid=6073c7d0-0bf0-467c-bfcb-abf6e2cb73b3"},"vehicle_type_id":"4","last_reported":1731506951,"current_range_meters":32400,"station_id":"ce4bgkh2rcd13ifvqbl0","pricing_plan_id":"cebpf4jnsgd1na2vs0mg"},{"bike_id":"b88bfcd1-c9ed-449f-b814-da1e1d7bb8d4","system_id":"levelo_inurba_marseille","lat":43.29,"lon":5.35608,"is_reserved":false,"is_disabled":false,"rental_uris":{"android":"levelo://app?vid=b88bfcd1-c9ed-449f-b814-da1e1d7bb8d4","ios":"levelo://app?vid=b88bfcd1-c9ed-449f-b814-da1e1d7bb8d4"},"vehicle_type_id":"4","last_reported":1731506951,"current_range_meters":27600,"station_id":"ce4bhb92rcd13ifvqen0","pricing_plan_id":"cebpf4jnsgd1na2vs0mg"},{"bike_id":"824aa58f-57cc-49d3-b625-099c257bc04e","system_id":"levelo_inurba_marseille","lat":43.24181,"lon":5.39725,"is_reserved":false,"is_disabled":false,"rental_uris":{"android":"levelo://app?vid=824aa58f-57cc-49d3-b625-099c257bc04e","ios":"levelo://app?vid=824aa58f-57cc-49d3-b625-099c257bc04e"},"vehicle_type_id":"4","last_reported":1731506951,"current_range_meters":38800,"station_id":"ce4bhn12rcd13ifvqgpg","pricing_plan_id":"cebpf4jnsgd1na2vs0mg"},{"bike_id":"4e234532-5550-4cbc-b9e4-50d8fc493926","system_id":"levelo_inurba_marseille","lat":43.31226,"lon":5.36867,"is_reserved":false,"is_disabled":false,"rental_uris":{"android":"levelo://app?vid=4e234532-5550-4cbc-b9e4-50d8fc493926","ios":"levelo://app?vid=4e234532-5550-4cbc-b9e4-50d8fc493926"},"vehicle_type_id":"4","last_reported":1731506951,"current_range_meters":30800,"station_id":"ce4bgl92rcd13ifvqbq0","pricing_plan_id":"cebpf4jnsgd1na2vs0mg"},{"bike_id":"a8e7bc15-df4b-4c8a-8171-d8d51586c834","system_id":"levelo_inurba_marseille","lat":43.337444,"lon":5.374475,"is_reserved":false,"is_disabled":false,"rental_uris":{"android":"levelo://app?vid=a8e7bc15-df4b-4c8a-8171-d8d51586c834","ios":"levelo://app?vid=a8e7bc15-df4b-4c8a-8171-d8d51586c834"},"vehicle_type_id":"4","last_reported":1731506951,"current_range_meters":32000,"station_id":"","pricing_plan_id":"cebpf4jnsgd1na2vs0mg"},{"bike_id":"f0abe83c-1ca0-4f24-ba88-e8bb79771a56","system_id":"levelo_inurba_marseille","lat":43.30933,"lon":5.40149,"is_reserved":false,"is_disabled":false,"rental_uris":{"android":"levelo://app?vid=f0abe83c-1ca0-4f24-ba88-e8bb79771a56","ios":"levelo://app?vid=f0abe83c-1ca0-4f24-ba88-e8bb79771a56"},"vehicle_type_id":"4","last_reported":1731506951,"current_range_meters":36400,"station_id":"ce4bgvp2rcd13ifvqct0","pricing_plan_id":"cebpf4jnsgd1na2vs0mg"},{"bike_id":"15fcc91a-3807-4f6c-9623-302142a45e30","system_id":"levelo_inurba_marseille","lat":43.23061,"lon":5.35489,"is_reserved":false,"is_disabled":false,"rental_uris":{"android":"levelo://app?vid=15fcc91a-3807-4f6c-9623-302142a45e30","ios":"levelo://app?vid=15fcc91a-3807-4f6c-9623-302142a45e30"},"vehicle_type_id":"4","last_reported":1731506951,"current_range_meters":24400,"station_id":"cpo3342slgdg3j2ifvpg","pricing_plan_id":"cebpf4jnsgd1na2vs0mg"},{"bike_id":"c168313f-47de-48be-a64e-6c769e16adba","system_id":"levelo_inurba_marseille","lat":43.30654,"lon":5.3819,"is_reserved":false,"is_disabled":false,"rental_uris":{"android":"levelo://app?vid=c168313f-47de-48be-a64e-6c769e16adba","ios":"levelo://app?vid=c168313f-47de-48be-a64e-6c769e16adba"},"vehicle_type_id":"4","last_reported":1731506951,"current_range_meters":19200,"station_id":"","pricing_plan_id":"cebpf4jnsgd1na2vs0mg"},{"bike_id":"b9b9ca99-abc1-4d74-b34d-2422c7c3d10f","system_id":"levelo_inurba_marseille","lat":43.3236,"lon":5.36752,"is_reserved":false,"is_disabled":false,"rental_uris":{"android":"levelo://app?vid=b9b9ca99-abc1-4d74-b34d-2422c7c3d10f","ios":"levelo://app?vid=b9b9ca99-abc1-4d74-b34d-2422c7c3d10f"},"vehicle_type_id":"4","last_reported":1731506951,"current_range_meters":32000,"station_id":"ce4bhsh2rcd13ifvqi2g","pricing_plan_id":"cebpf4jnsgd1na2vs0mg"},{"bike_id":"9a34b0bb-6fcd-4aad-9cde-d962fd484638","system_id":"levelo_inurba_marseille","lat":43.28967,"lon":5.37839,"is_reserved":false,"is_disabled":false,"rental_uris":{"android":"levelo://app?vid=9a34b0bb-6fcd-4aad-9cde-d962fd484638","ios":"levelo://app?vid=9a34b0bb-6fcd-4aad-9cde-d962fd484638"},"vehicle_type_id":"4","last_reported":1731506951,"current_range_meters":38000,"station_id":"ce4bh9p2rcd13ifvqed0","pricing_plan_id":"cebpf4jnsgd1na2vs0mg"},{"bike_id":"aeb9eafa-ef5b-4950-84eb-6ee40c9e3b2a","system_id":"levelo_inurba_marseille","lat":43.32535,"lon":5.4146,"is_reserved":false,"is_disabled":false,"rental_uris":{"android":"levelo://app?vid=aeb9eafa-ef5b-4950-84eb-6ee40c9e3b2a","ios":"levelo://app?vid=aeb9eafa-ef5b-4950-84eb-6ee40c9e3b2a"},"vehicle_type_id":"4","last_reported":1731506951,"current_range_meters":33200,"station_id":"ce4bhq12rcd13ifvqhhg","pricing_plan_id":"cebpf4jnsgd1na2vs0mg"},{"bike_id":"1b6aedf9-aa79-4e62-b4b6-0d4304a12219","system_id":"levelo_inurba_marseille","lat":43.312297,"lon":5.368533,"is_reserved":false,"is_disabled":false,"rental_uris":{"android":"levelo://app?vid=1b6aedf9-aa79-4e62-b4b6-0d4304a12219","ios":"levelo://app?vid=1b6aedf9-aa79-4e62-b4b6-0d4304a12219"},"vehicle_type_id":"4","last_reported":1731506951,"current_range_meters":16800,"station_id":"ce4bgl92rcd13ifvqbq0","pricing_plan_id":"cebpf4jnsgd1na2vs0mg"},{"bike_id":"27227666-be7d-4f0d-b6ab-7d496af6f3eb","system_id":"levelo_inurba_marseille","lat":43.2963,"lon":5.40596,"is_reserved":false,"is_disabled":false,"rental_uris":{"android":"levelo://app?vid=27227666-be7d-4f0d-b6ab-7d496af6f3eb","ios":"levelo://app?vid=27227666-be7d-4f0d-b6ab-7d496af6f3eb"},"vehicle_type_id":"4","last_reported":1731506951,"current_range_meters":37600,"station_id":"","pricing_plan_id":"cebpf4jnsgd1na2vs0mg"},{"bike_id":"4353d161-c2bf-47ab-8ab2-d982995abc25","system_id":"levelo_inurba_marseille","lat":43.337444,"lon":5.374475,"is_reserved":false,"is_disabled":false,"rental_uris":{"android":"levelo://app?vid=4353d161-c2bf-47ab-8ab2-d982995abc25","ios":"levelo://app?vid=4353d161-c2bf-47ab-8ab2-d982995abc25"},"vehicle_type_id":"4","last_reported":1731506951,"current_range_meters":34000,"station_id":"ce4bh0h2rcd13ifvqd60","pricing_plan_id":"cebpf4jnsgd1na2vs0mg"},{"bike_id":"cbe255ba-ffa9-4d66-9083-202667af0802","system_id":"levelo_inurba_marseille","lat":43.28999,"lon":5.35602,"is_reserved":false,"is_disabled":false,"rental_uris":{"android":"levelo://app?vid=cbe255ba-ffa9-4d66-9083-202667af0802","ios":"levelo://app?vid=cbe255ba-ffa9-4d66-9083-202667af0802"},"vehicle_type_id":"4","last_reported":1731506951,"current_range_meters":32000,"station_id":"ce4bhb92rcd13ifvqen0","pricing_plan_id":"cebpf4jnsgd1na2vs0mg"},{"bike_id":"95454206-7925-46b9-81b9-9a382ad30b7b","system_id":"levelo_inurba_marseille","lat":43.26805,"lon":5.40267,"is_reserved":false,"is_disabled":false,"rental_uris":{"android":"levelo://app?vid=95454206-7925-46b9-81b9-9a382ad30b7b","ios":"levelo://app?vid=95454206-7925-46b9-81b9-9a382ad30b7b"},"vehicle_type_id":"4","last_reported":1731506951,"current_range_meters":14400,"station_id":"ce501612rcd8frsf0b60","pricing_plan_id":"cebpf4jnsgd1na2vs0mg"},{"bike_id":"21809597-df4b-4bb7-ac3d-1537178d4615","system_id":"levelo_inurba_marseille","lat":43.25866,"lon":5.39898,"is_reserved":false,"is_disabled":false,"rental_uris":{"android":"levelo://app?vid=21809597-df4b-4bb7-ac3d-1537178d4615","ios":"levelo://app?vid=21809597-df4b-4bb7-ac3d-1537178d4615"},"vehicle_type_id":"4","last_reported":1731506951,"current_range_meters":27200,"station_id":"ce4bhl92rcd13ifvqghg","pricing_plan_id":"cebpf4jnsgd1na2vs0mg"},{"bike_id":"46c0c645-e47f-4b6a-86b9-41094fca7c0c","system_id":"levelo_inurba_marseille","lat":43.27369,"lon":5.36256,"is_reserved":false,"is_disabled":false,"rental_uris":{"android":"levelo://app?vid=46c0c645-e47f-4b6a-86b9-41094fca7c0c","ios":"levelo://app?vid=46c0c645-e47f-4b6a-86b9-41094fca7c0c"},"vehicle_type_id":"4","last_reported":1731506951,"current_range_meters":27600,"station_id":"ce4bhbh2rcd13ifvqeo0","pricing_plan_id":"cebpf4jnsgd1na2vs0mg"},{"bike_id":"4354016a-c94f-434b-8ee5-26dac21d946a","system_id":"levelo_inurba_marseille","lat":43.31221,"lon":5.36866,"is_reserved":false,"is_disabled":false,"rental_uris":{"android":"levelo://app?vid=4354016a-c94f-434b-8ee5-26dac21d946a","ios":"levelo://app?vid=4354016a-c94f-434b-8ee5-26dac21d946a"},"vehicle_type_id":"4","last_reported":1731506951,"current_range_meters":18800,"station_id":"ce4bgl92rcd13ifvqbq0","pricing_plan_id":"cebpf4jnsgd1na2vs0mg"},{"bike_id":"393ff6c7-7552-4f92-bd81-94646eef9b6f","system_id":"levelo_inurba_marseille","lat":43.2919,"lon":5.35804,"is_reserved":false,"is_disabled":false,"rental_uris":{"android":"levelo://app?vid=393ff6c7-7552-4f92-bd81-94646eef9b6f","ios":"levelo://app?vid=393ff6c7-7552-4f92-bd81-94646eef9b6f"},"vehicle_type_id":"4","last_reported":1731506951,"current_range_meters":20000,"station_id":"ce4bhb12rcd13ifvqel0","pricing_plan_id":"cebpf4jnsgd1na2vs0mg"},{"bike_id":"1b2a1b74-2085-4edd-9c4f-6b4ddf38eb93","system_id":"levelo_inurba_marseille","lat":43.282593,"lon":5.350668,"is_reserved":false,"is_disabled":false,"rental_uris":{"android":"levelo://app?vid=1b2a1b74-2085-4edd-9c4f-6b4ddf38eb93","ios":"levelo://app?vid=1b2a1b74-2085-4edd-9c4f-6b4ddf38eb93"},"vehicle_type_id":"4","last_reported":1731506951,"current_range_meters":9200,"station_id":"ce4bhbp2rcd13ifvqerg","pricing_plan_id":"cebpf4jnsgd1na2vs0mg"},{"bike_id":"b55fe61e-e2db-4c8d-940b-61d116c0d2b9","system_id":"levelo_inurba_marseille","lat":43.29195,"lon":5.3581,"is_reserved":false,"is_disabled":false,"rental_uris":{"android":"levelo://app?vid=b55fe61e-e2db-4c8d-940b-61d116c0d2b9","ios":"levelo://app?vid=b55fe61e-e2db-4c8d-940b-61d116c0d2b9"},"vehicle_type_id":"4","last_reported":1731506951,"current_range_meters":30000,"station_id":"ce4bhb12rcd13ifvqel0","pricing_plan_id":"cebpf4jnsgd1na2vs0mg"},{"bike_id":"f4d8166f-f4e3-4a2d-b9dd-76615fe6c7b8","system_id":"levelo_inurba_marseille","lat":43.29911,"lon":5.37465,"is_reserved":false,"is_disabled":false,"rental_uris":{"android":"levelo://app?vid=f4d8166f-f4e3-4a2d-b9dd-76615fe6c7b8","ios":"levelo://app?vid=f4d8166f-f4e3-4a2d-b9dd-76615fe6c7b8"},"vehicle_type_id":"4","last_reported":1731506951,"current_range_meters":33600,"station_id":"ce4bgjh2rcd13ifvqbg0","pricing_plan_id":"cebpf4jnsgd1na2vs0mg"},{"bike_id":"cee5d31b-0596-439f-b07d-32e6185e5707","system_id":"levelo_inurba_marseille","lat":43.30463,"lon":5.37906,"is_reserved":false,"is_disabled":false,"rental_uris":{"android":"levelo://app?vid=cee5d31b-0596-439f-b07d-32e6185e5707","ios":"levelo://app?vid=cee5d31b-0596-439f-b07d-32e6185e5707"},"vehicle_type_id":"4","last_reported":1731506951,"current_range_meters":20400,"station_id":"ce4bgup2rcd13ifvqcn0","pricing_plan_id":"cebpf4jnsgd1na2vs0mg"},{"bike_id":"b8c92280-68e5-467e-be8e-3b548602896f","system_id":"levelo_inurba_marseille","lat":43.29624,"lon":5.37717,"is_reserved":false,"is_disabled":false,"rental_uris":{"android":"levelo://app?vid=b8c92280-68e5-467e-be8e-3b548602896f","ios":"levelo://app?vid=b8c92280-68e5-467e-be8e-3b548602896f"},"vehicle_type_id":"4","last_reported":1731506951,"current_range_meters":37600,"station_id":"ce4bgi92rcd13ifvqb90","pricing_plan_id":"cebpf4jnsgd1na2vs0mg"},{"bike_id":"5d1f4316-b04e-4ffe-949b-df676969a7da","system_id":"levelo_inurba_marseille","lat":43.27376,"lon":5.3626,"is_reserved":false,"is_disabled":false,"rental_uris":{"android":"levelo://app?vid=5d1f4316-b04e-4ffe-949b-df676969a7da","ios":"levelo://app?vid=5d1f4316-b04e-4ffe-949b-df676969a7da"},"vehicle_type_id":"4","last_reported":1731506951,"current_range_meters":38800,"station_id":"ce4bhbh2rcd13ifvqeo0","pricing_plan_id":"cebpf4jnsgd1na2vs0mg"},{"bike_id":"b448c76e-6a85-4e4e-8af8-7d9249501502","system_id":"levelo_inurba_marseille","lat":43.337444,"lon":5.374475,"is_reserved":false,"is_disabled":false,"rental_uris":{"android":"levelo://app?vid=b448c76e-6a85-4e4e-8af8-7d9249501502","ios":"levelo://app?vid=b448c76e-6a85-4e4e-8af8-7d9249501502"},"vehicle_type_id":"4","last_reported":1731506951,"current_range_meters":36800,"station_id":"","pricing_plan_id":"cebpf4jnsgd1na2vs0mg"},{"bike_id":"aac6894c-cd35-49e9-9f01-f9e8d8484c59","system_id":"levelo_inurba_marseille","lat":43.22929,"lon":5.35375,"is_reserved":false,"is_disabled":false,"rental_uris":{"android":"levelo://app?vid=aac6894c-cd35-49e9-9f01-f9e8d8484c59","ios":"levelo://app?vid=aac6894c-cd35-49e9-9f01-f9e8d8484c59"},"vehicle_type_id":"4","last_reported":1731506951,"current_range_meters":37600,"station_id":"cpo3532slgdg3j2ikp40","pricing_plan_id":"cebpf4jnsgd1na2vs0mg"},{"bike_id":"44d7451e-0437-4d1a-b99c-b00b9e04de5e","system_id":"levelo_inurba_marseille","lat":43.23233,"lon":5.355932,"is_reserved":false,"is_disabled":false,"rental_uris":{"android":"levelo://app?vid=44d7451e-0437-4d1a-b99c-b00b9e04de5e","ios":"levelo://app?vid=44d7451e-0437-4d1a-b99c-b00b9e04de5e"},"vehicle_type_id":"4","last_reported":1731506951,"current_range_meters":27600,"station_id":"","pricing_plan_id":"cebpf4jnsgd1na2vs0mg"},{"bike_id":"bd242193-93e0-478c-97b8-f1cd0d1bbc8c","system_id":"levelo_inurba_marseille","lat":43.33023,"lon":5.39043,"is_reserved":false,"is_disabled":false,"rental_uris":{"android":"levelo://app?vid=bd242193-93e0-478c-97b8-f1cd0d1bbc8c","ios":"levelo://app?vid=bd242193-93e0-478c-97b8-f1cd0d1bbc8c"},"vehicle_type_id":"4","last_reported":1731506951,"current_range_meters":19200,"station_id":"ce4bhr92rcd13ifvqhrg","pricing_plan_id":"cebpf4jnsgd1na2vs0mg"},{"bike_id":"b5d6029f-50ec-42f4-bcab-ed3765d36fe4","system_id":"levelo_inurba_marseille","lat":43.29566,"lon":5.39975,"is_reserved":false,"is_disabled":false,"rental_uris":{"android":"levelo://app?vid=b5d6029f-50ec-42f4-bcab-ed3765d36fe4","ios":"levelo://app?vid=b5d6029f-50ec-42f4-bcab-ed3765d36fe4"},"vehicle_type_id":"4","last_reported":1731506951,"current_range_meters":2800,"station_id":"ce4bh312rcd13ifvqdj0","pricing_plan_id":"cebpf4jnsgd1na2vs0mg"},{"bike_id":"f0489de5-a90b-461a-8c64-9d51c8eb827c","system_id":"levelo_inurba_marseille","lat":43.27999,"lon":5.41664,"is_reserved":false,"is_disabled":false,"rental_uris":{"android":"levelo://app?vid=f0489de5-a90b-461a-8c64-9d51c8eb827c","ios":"levelo://app?vid=f0489de5-a90b-461a-8c64-9d51c8eb827c"},"vehicle_type_id":"4","last_reported":1731506951,"current_range_meters":16400,"station_id":"ce4bho12rcd13ifvqh1g","pricing_plan_id":"cebpf4jnsgd1na2vs0mg"},{"bike_id":"dd71a3f1-81d2-493d-ae7d-c35e7416e4af","system_id":"levelo_inurba_marseille","lat":43.33023,"lon":5.39037,"is_reserved":false,"is_disabled":false,"rental_uris":{"android":"levelo://app?vid=dd71a3f1-81d2-493d-ae7d-c35e7416e4af","ios":"levelo://app?vid=dd71a3f1-81d2-493d-ae7d-c35e7416e4af"},"vehicle_type_id":"4","last_reported":1731506951,"current_range_meters":30800,"station_id":"ce4bhr92rcd13ifvqhrg","pricing_plan_id":"cebpf4jnsgd1na2vs0mg"},{"bike_id":"cf878d88-2a20-40d9-b888-fda86668627c","system_id":"levelo_inurba_marseille","lat":43.31353,"lon":5.36715,"is_reserved":false,"is_disabled":false,"rental_uris":{"android":"levelo://app?vid=cf878d88-2a20-40d9-b888-fda86668627c","ios":"levelo://app?vid=cf878d88-2a20-40d9-b888-fda86668627c"},"vehicle_type_id":"4","last_reported":1731506951,"current_range_meters":38800,"station_id":"ce4bgr92rcd13ifvqc6g","pricing_plan_id":"cebpf4jnsgd1na2vs0mg"},{"bike_id":"77611f2f-2c01-4fba-b80c-54ce6a5eeb56","system_id":"levelo_inurba_marseille","lat":43.24168,"lon":5.36401,"is_reserved":false,"is_disabled":false,"rental_uris":{"android":"levelo://app?vid=77611f2f-2c01-4fba-b80c-54ce6a5eeb56","ios":"levelo://app?vid=77611f2f-2c01-4fba-b80c-54ce6a5eeb56"},"vehicle_type_id":"4","last_reported":1731506951,"current_range_meters":36400,"station_id":"cpo36qri1sfpv3e86is0","pricing_plan_id":"cebpf4jnsgd1na2vs0mg"},{"bike_id":"f9179646-ca5d-4909-9d2d-af9f8310b605","system_id":"levelo_inurba_marseille","lat":43.24167,"lon":5.36396,"is_reserved":false,"is_disabled":false,"rental_uris":{"android":"levelo://app?vid=f9179646-ca5d-4909-9d2d-af9f8310b605","ios":"levelo://app?vid=f9179646-ca5d-4909-9d2d-af9f8310b605"},"vehicle_type_id":"4","last_reported":1731506951,"current_range_meters":29600,"station_id":"cpo36qri1sfpv3e86is0","pricing_plan_id":"cebpf4jnsgd1na2vs0mg"},{"bike_id":"4018447b-2886-4c23-942b-201819b3bc28","system_id":"levelo_inurba_marseille","lat":43.337444,"lon":5.374475,"is_reserved":false,"is_disabled":false,"rental_uris":{"android":"levelo://app?vid=4018447b-2886-4c23-942b-201819b3bc28","ios":"levelo://app?vid=4018447b-2886-4c23-942b-201819b3bc28"},"vehicle_type_id":"4","last_reported":1731506951,"current_range_meters":37600,"station_id":"","pricing_plan_id":"cebpf4jnsgd1na2vs0mg"},{"bike_id":"82177570-77c8-45db-bec7-ab2b10dc4402","system_id":"levelo_inurba_marseille","lat":43.25085,"lon":5.39521,"is_reserved":false,"is_disabled":false,"rental_uris":{"android":"levelo://app?vid=82177570-77c8-45db-bec7-ab2b10dc4402","ios":"levelo://app?vid=82177570-77c8-45db-bec7-ab2b10dc4402"},"vehicle_type_id":"4","last_reported":1731506951,"current_range_meters":28800,"station_id":"ce4bhm12rcd13ifvqgkg","pricing_plan_id":"cebpf4jnsgd1na2vs0mg"},{"bike_id":"8f4d92ae-0222-4237-978d-920ba49e7c8f","system_id":"levelo_inurba_marseille","lat":43.2319,"lon":5.35555,"is_reserved":false,"is_disabled":false,"rental_uris":{"android":"levelo://app?vid=8f4d92ae-0222-4237-978d-920ba49e7c8f","ios":"levelo://app?vid=8f4d92ae-0222-4237-978d-920ba49e7c8f"},"vehicle_type_id":"4","last_reported":1731506951,"current_range_meters":38400,"station_id":"ce4bhu92rcd13ifvqi70","pricing_plan_id":"cebpf4jnsgd1na2vs0mg"},{"bike_id":"7154be83-79ca-4fca-96aa-093f8c691220","system_id":"levelo_inurba_marseille","lat":43.28704,"lon":5.39985,"is_reserved":false,"is_disabled":false,"rental_uris":{"android":"levelo://app?vid=7154be83-79ca-4fca-96aa-093f8c691220","ios":"levelo://app?vid=7154be83-79ca-4fca-96aa-093f8c691220"},"vehicle_type_id":"4","last_reported":1731506951,"current_range_meters":3600,"station_id":"ce4bho92rcd13ifvqh3g","pricing_plan_id":"cebpf4jnsgd1na2vs0mg"},{"bike_id":"69b02fdd-f0e5-44a7-9b8c-007018621578","system_id":"levelo_inurba_marseille","lat":43.23961,"lon":5.36617,"is_reserved":false,"is_disabled":false,"rental_uris":{"android":"levelo://app?vid=69b02fdd-f0e5-44a7-9b8c-007018621578","ios":"levelo://app?vid=69b02fdd-f0e5-44a7-9b8c-007018621578"},"vehicle_type_id":"4","last_reported":1731506951,"current_range_meters":38400,"station_id":"ce4bhi12rcd13ifvqfp0","pricing_plan_id":"cebpf4jnsgd1na2vs0mg"},{"bike_id":"5437c5a5-94da-405f-b040-a3e6b93fcbfc","system_id":"levelo_inurba_marseille","lat":43.28448,"lon":5.39179,"is_reserved":false,"is_disabled":false,"rental_uris":{"android":"levelo://app?vid=5437c5a5-94da-405f-b040-a3e6b93fcbfc","ios":"levelo://app?vid=5437c5a5-94da-405f-b040-a3e6b93fcbfc"},"vehicle_type_id":"4","last_reported":1731506951,"current_range_meters":38800,"station_id":"ce4bhoh2rcd13ifvqh5g","pricing_plan_id":"cebpf4jnsgd1na2vs0mg"},{"bike_id":"8ff3daf9-97e9-480f-95f9-4d1d61792a54","system_id":"levelo_inurba_marseille","lat":43.33758,"lon":5.37471,"is_reserved":false,"is_disabled":false,"rental_uris":{"android":"levelo://app?vid=8ff3daf9-97e9-480f-95f9-4d1d61792a54","ios":"levelo://app?vid=8ff3daf9-97e9-480f-95f9-4d1d61792a54"},"vehicle_type_id":"4","last_reported":1731506951,"current_range_meters":35200,"station_id":"","pricing_plan_id":"cebpf4jnsgd1na2vs0mg"},{"bike_id":"a9e19ab1-de7f-4a4d-9b4e-587fcb557062","system_id":"levelo_inurba_marseille","lat":43.26026,"lon":5.37548,"is_reserved":false,"is_disabled":false,"rental_uris":{"android":"levelo://app?vid=a9e19ab1-de7f-4a4d-9b4e-587fcb557062","ios":"levelo://app?vid=a9e19ab1-de7f-4a4d-9b4e-587fcb557062"},"vehicle_type_id":"4","last_reported":1731506951,"current_range_meters":38800,"station_id":"ce4bhgh2rcd13ifvqfa0","pricing_plan_id":"cebpf4jnsgd1na2vs0mg"},{"bike_id":"ddd15fcf-da4b-4639-bbe7-c9127fb5befc","system_id":"levelo_inurba_marseille","lat":43.30972,"lon":5.40302,"is_reserved":false,"is_disabled":false,"rental_uris":{"android":"levelo://app?vid=ddd15fcf-da4b-4639-bbe7-c9127fb5befc","ios":"levelo://app?vid=ddd15fcf-da4b-4639-bbe7-c9127fb5befc"},"vehicle_type_id":"4","last_reported":1731506951,"current_range_meters":34800,"station_id":"","pricing_plan_id":"cebpf4jnsgd1na2vs0mg"},{"bike_id":"59200dd8-c41e-4783-a22d-a6f9853f9721","system_id":"levelo_inurba_marseille","lat":43.30592,"lon":5.37234,"is_reserved":false,"is_disabled":false,"rental_uris":{"android":"levelo://app?vid=59200dd8-c41e-4783-a22d-a6f9853f9721","ios":"levelo://app?vid=59200dd8-c41e-4783-a22d-a6f9853f9721"},"vehicle_type_id":"4","last_reported":1731506951,"current_range_meters":19200,"station_id":"ce4bgqh2rcd13ifvqc4g","pricing_plan_id":"cebpf4jnsgd1na2vs0mg"},{"bike_id":"c724814d-4c72-4f93-a05e-8d49f020b3c3","system_id":"levelo_inurba_marseille","lat":43.28932,"lon":5.3664,"is_reserved":false,"is_disabled":false,"rental_uris":{"android":"levelo://app?vid=c724814d-4c72-4f93-a05e-8d49f020b3c3","ios":"levelo://app?vid=c724814d-4c72-4f93-a05e-8d49f020b3c3"},