{"last_updated":1690477539,"ttl":30,"version":"2.2","data":{"bikes":[{"bike_id":"05b63f5b-fc3c-4f9f-b43a-ec576e93a9ce","system_id":"levelo_inurba_marseille","lat":43.312239,"lon":5.368562,"is_reserved":false,"is_disabled":false,"rental_uris":{"android":"levelo://app?vid=05b63f5b-fc3c-4f9f-b43a-ec576e93a9ce","ios":"levelo://app?vid=05b63f5b-fc3c-4f9f-b43a-ec576e93a9ce"},"vehicle_type_id":"4","last_reported":1690477541,"current_range_meters":17200,"station_id":"ce4bgl92rcd13ifvqbq0","pricing_plan_id":"free"},{"bike_id":"e63b1125-295c-44eb-b72c-fc3945365bb0","system_id":"levelo_inurba_marseille","lat":43.312239,"lon":5.368562,"is_reserved":false,"is_disabled":false,"rental_uris":{"android":"levelo://app?vid=e63b1125-295c-44eb-b72c-fc3945365bb0","ios":"levelo://app?vid=e63b1125-295c-44eb-b72c-fc3945365bb0"},"vehicle_type_id":"4","last_reported":1690477541,"current_range_meters":25200,"station_id":"ce4bgl92rcd13ifvqbq0","pricing_plan_id":"free"},{"bike_id":"efffa7df-a225-4e7b-9f47-9ca2c3736bda","system_id":"levelo_inurba_marseille","lat":43.312239,"lon":5.368562,"is_reserved":false,"is_disabled":false,"rental_uris":{"android":"levelo://app?vid=efffa7df-a225-4e7b-9f47-9ca2c3736bda","ios":"levelo://app?vid=efffa7df-a225-4e7b-9f47-9ca2c3736bda"},"vehicle_type_id":"4","last_reported":1690477541,"current_range_meters":12800,"station_id":"ce4bgl92rcd13ifvqbq0","pricing_plan_id":"free"},{"bike_id":"e526d4e2-849c-44ae-a0d7-5572a62df909","system_id":"levelo_inurba_marseille","lat":43.312239,"lon":5.368562,"is_reserved":false,"is_disabled":false,"rental_uris":{"android":"levelo://app?vid=e526d4e2-849c-44ae-a0d7-5572a62df909","ios":"levelo://app?vid=e526d4e2-849c-44ae-a0d7-5572a62df909"},"vehicle_type_id":"4","last_reported":1690477541,"current_range_meters":31200,"station_id":"ce4bgl92rcd13ifvqbq0","pricing_plan_id":"free"},{"bike_id":"377390bd-37c1-4b80-b5c0-51977ecba667","system_id":"levelo_inurba_marseille","lat":43.314811,"lon":5.373103,"is_reserved":false,"is_disabled":false,"rental_uris":{"android":"levelo://app?vid=377390bd-37c1-4b80-b5c0-51977ecba667","ios":"levelo://app?vid=377390bd-37c1-4b80-b5c0-51977ecba667"},"vehicle_type_id":"4","last_reported":1690477541,"current_range_meters":7200,"station_id":"ce4bgt12rcd13ifvqcd0","pricing_plan_id":"free"},{"bike_id":"86cf9da6-d348-492f-b011-6e9aaa1b1391","system_id":"levelo_inurba_marseille","lat":43.31498,"lon":5.37308,"is_reserved":false,"is_disabled":false,"rental_uris":{"android":"levelo://app?vid=86cf9da6-d348-492f-b011-6e9aaa1b1391","ios":"levelo://app?vid=86cf9da6-d348-492f-b011-6e9aaa1b1391"},"vehicle_type_id":"4","last_reported":1690477541,"current_range_meters":25600,"station_id":"ce4bgt12rcd13ifvqcd0","pricing_plan_id":"free"},{"bike_id":"f56ae1c4-29ef-4e22-9459-77ea82e027b7","system_id":"levelo_inurba_marseille","lat":43.31488,"lon":5.37315,"is_reserved":false,"is_disabled":false,"rental_uris":{"android":"levelo://app?vid=f56ae1c4-29ef-4e22-9459-77ea82e027b7","ios":"levelo://app?vid=f56ae1c4-29ef-4e22-9459-77ea82e027b7"},"vehicle_type_id":"4","last_reported":1690477541,"current_range_meters":25200,"station_id":"ce4bgt12rcd13ifvqcd0","pricing_plan_id":"free"},{"bike_id":"308d0599-b4e9-4f7e-962f-b692cb5cdee9","system_id":"levelo_inurba_marseille","lat":43.309039,"lon":5.371797,"is_reserved":false,"is_disabled":false,"rental_uris":{"android":"levelo://app?vid=308d0599-b4e9-4f7e-962f-b692cb5cdee9","ios":"levelo://app?vid=308d0599-b4e9-4f7e-962f-b692cb5cdee9"},"vehicle_type_id":"4","last_reported":1690477541,"current_range_meters":1600,"station_id":"ce4bguh2rcd13ifvqckg","pricing_plan_id":"free"},{"bike_id":"aaa33084-cd26-4a77-a977-76c854077d63","system_id":"levelo_inurba_marseille","lat":43.309039,"lon":5.371797,"is_reserved":false,"is_disabled":false,"rental_uris":{"android":"levelo://app?vid=aaa33084-cd26-4a77-a977-76c854077d63","ios":"levelo://app?vid=aaa33084-cd26-4a77-a977-76c854077d63"},"vehicle_type_id":"4","last_reported":1690477541,"current_range_meters":12800,"station_id":"ce4bguh2rcd13ifvqckg","pricing_plan_id":"free"},{"bike_id":"06113828-4aa5-4bca-9ef4-21a00059e1c7","system_id":"levelo_inurba_marseille","lat":43.30879,"lon":5.37206,"is_reserved":false,"is_disabled":false,"rental_uris":{"android":"levelo://app?vid=06113828-4aa5-4bca-9ef4-21a00059e1c7","ios":"levelo://app?vid=06113828-4aa5-4bca-9ef4-21a00059e1c7"},"vehicle_type_id":"4","last_reported":1690477541,"current_range_meters":16800,"station_id":"","pricing_plan_id":"free"},{"bike_id":"737e36f8-b3bd-4e07-8acd-81d5a4bc85a0","system_id":"levelo_inurba_marseille","lat":43.30697,"lon":5.3655,"is_reserved":false,"is_disabled":false,"rental_uris":{"android":"levelo://app?vid=737e36f8-b3bd-4e07-8acd-81d5a4bc85a0","ios":"levelo://app?vid=737e36f8-b3bd-4e07-8acd-81d5a4bc85a0"},"vehicle_type_id":"4","last_reported":1690477541,"current_range_meters":12400,"station_id":"","pricing_plan_id":"free"},{"bike_id":"49eaf5b4-dd6a-4a55-9b68-f24c8e231ff3","system_id":"levelo_inurba_marseille","lat":43.305706,"lon":5.365654,"is_reserved":false,"is_disabled":false,"rental_uris":{"android":"levelo://app?vid=49eaf5b4-dd6a-4a55-9b68-f24c8e231ff3","ios":"levelo://app?vid=49eaf5b4-dd6a-4a55-9b68-f24c8e231ff3"},"vehicle_type_id":"4","last_reported":1690477541,"current_range_meters":5600,"station_id":"ce4bgs12rcd13ifvqcag","pricing_plan_id":"free"},{"bike_id":"4c733bc0-3b7b-471b-88a8-fc2142037cb8","system_id":"levelo_inurba_marseille","lat":43.305706,"lon":5.365654,"is_reserved":false,"is_disabled":false,"rental_uris":{"android":"levelo://app?vid=4c733bc0-3b7b-471b-88a8-fc2142037cb8","ios":"levelo://app?vid=4c733bc0-3b7b-471b-88a8-fc2142037cb8"},"vehicle_type_id":"4","last_reported":1690477541,"current_range_meters":21600,"station_id":"ce4bgs12rcd13ifvqcag","pricing_plan_id":"free"},{"bike_id":"e76f42b5-1be7-4104-ab1b-9eb091b52bd2","system_id":"levelo_inurba_marseille","lat":43.305989,"lon":5.37225,"is_reserved":false,"is_disabled":false,"rental_uris":{"android":"levelo://app?vid=e76f42b5-1be7-4104-ab1b-9eb091b52bd2","ios":"levelo://app?vid=e76f42b5-1be7-4104-ab1b-9eb091b52bd2"},"vehicle_type_id":"4","last_reported":1690477541,"current_range_meters":24000,"station_id":"ce4bgqh2rcd13ifvqc4g","pricing_plan_id":"free"},{"bike_id":"82717b2a-a8c6-4833-b5b6-7bcd45d9bbe0","system_id":"levelo_inurba_marseille","lat":43.311125,"lon":5.377624,"is_reserved":false,"is_disabled":false,"rental_uris":{"android":"levelo://app?vid=82717b2a-a8c6-4833-b5b6-7bcd45d9bbe0","ios":"levelo://app?vid=82717b2a-a8c6-4833-b5b6-7bcd45d9bbe0"},"vehicle_type_id":"4","last_reported":1690477541,"current_range_meters":21200,"station_id":"ce4bgt92rcd13ifvqcg0","pricing_plan_id":"free"},{"bike_id":"2f5f1106-3e56-44e9-a5dc-814294b85a3d","system_id":"levelo_inurba_marseille","lat":43.311131,"lon":5.377651,"is_reserved":false,"is_disabled":false,"rental_uris":{"android":"levelo://app?vid=2f5f1106-3e56-44e9-a5dc-814294b85a3d","ios":"levelo://app?vid=2f5f1106-3e56-44e9-a5dc-814294b85a3d"},"vehicle_type_id":"4","last_reported":1690477541,"current_range_meters":22800,"station_id":"ce4bgt92rcd13ifvqcg0","pricing_plan_id":"free"},{"bike_id":"66d01546-b08b-4ed8-a195-048b11cd6b16","system_id":"levelo_inurba_marseille","lat":43.311125,"lon":5.377624,"is_reserved":false,"is_disabled":false,"rental_uris":{"android":"levelo://app?vid=66d01546-b08b-4ed8-a195-048b11cd6b16","ios":"levelo://app?vid=66d01546-b08b-4ed8-a195-048b11cd6b16"},"vehicle_type_id":"4","last_reported":1690477541,"current_range_meters":19600,"station_id":"ce4bgt92rcd13ifvqcg0","pricing_plan_id":"free"},{"bike_id":"6a63dc16-dcd0-4e47-a221-2503d3ddc7d3","system_id":"levelo_inurba_marseille","lat":43.311125,"lon":5.377624,"is_reserved":false,"is_disabled":false,"rental_uris":{"android":"levelo://app?vid=6a63dc16-dcd0-4e47-a221-2503d3ddc7d3","ios":"levelo://app?vid=6a63dc16-dcd0-4e47-a221-2503d3ddc7d3"},"vehicle_type_id":"4","last_reported":1690477541,"current_range_meters":30400,"station_id":"ce4bgt92rcd13ifvqcg0","pricing_plan_id":"free"},{"bike_id":"5beba453-9cc9-45f0-8f98-0e8615e6423a","system_id":"levelo_inurba_marseille","lat":43.30791,"lon":5.37652,"is_reserved":false,"is_disabled":false,"rental_uris":{"android":"levelo://app?vid=5beba453-9cc9-45f0-8f98-0e8615e6423a","ios":"levelo://app?vid=5beba453-9cc9-45f0-8f98-0e8615e6423a"},"vehicle_type_id":"4","last_reported":1690477541,"current_range_meters":6400,"station_id":"ce4bgv92rcd13ifvqcq0","pricing_plan_id":"free"},{"bike_id":"787637a1-5fec-4694-b5bb-cd293e6cf8c5","system_id":"levelo_inurba_marseille","lat":43.30789,"lon":5.37653,"is_reserved":false,"is_disabled":false,"rental_uris":{"android":"levelo://app?vid=787637a1-5fec-4694-b5bb-cd293e6cf8c5","ios":"levelo://app?vid=787637a1-5fec-4694-b5bb-cd293e6cf8c5"},"vehicle_type_id":"4","last_reported":1690477541,"current_range_meters":23200,"station_id":"ce4bgv92rcd13ifvqcq0","pricing_plan_id":"free"},{"bike_id":"1a0f20fc-6aa6-45bb-923c-2c851266a59c","system_id":"levelo_inurba_marseille","lat":43.3078,"lon":5.37645,"is_reserved":false,"is_disabled":false,"rental_uris":{"android":"levelo://app?vid=1a0f20fc-6aa6-45bb-923c-2c851266a59c","ios":"levelo://app?vid=1a0f20fc-6aa6-45bb-923c-2c851266a59c"},"vehicle_type_id":"4","last_reported":1690477541,"current_range_meters":6000,"station_id":"ce4bgv92rcd13ifvqcq0","pricing_plan_id":"free"},{"bike_id":"3601c672-6142-453f-b718-ff0de50828d4","system_id":"levelo_inurba_marseille","lat":43.317075,"lon":5.377367,"is_reserved":false,"is_disabled":false,"rental_uris":{"android":"levelo://app?vid=3601c672-6142-453f-b718-ff0de50828d4","ios":"levelo://app?vid=3601c672-6142-453f-b718-ff0de50828d4"},"vehicle_type_id":"4","last_reported":1690477541,"current_range_meters":20000,"station_id":"ce4bgth2rcd13ifvqch0","pricing_plan_id":"free"},{"bike_id":"6bc369f5-6da9-4ef5-a152-12f11b99da4b","system_id":"levelo_inurba_marseille","lat":43.31899,"lon":5.37879,"is_reserved":false,"is_disabled":false,"rental_uris":{"android":"levelo://app?vid=6bc369f5-6da9-4ef5-a152-12f11b99da4b","ios":"levelo://app?vid=6bc369f5-6da9-4ef5-a152-12f11b99da4b"},"vehicle_type_id":"4","last_reported":1690477541,"current_range_meters":23600,"station_id":"","pricing_plan_id":"free"},{"bike_id":"ffc57332-b388-4ff2-8e3a-b6aeb0874ef9","system_id":"levelo_inurba_marseille","lat":43.313571,"lon":5.384829,"is_reserved":false,"is_disabled":false,"rental_uris":{"android":"levelo://app?vid=ffc57332-b388-4ff2-8e3a-b6aeb0874ef9","ios":"levelo://app?vid=ffc57332-b388-4ff2-8e3a-b6aeb0874ef9"},"vehicle_type_id":"4","last_reported":1690477541,"current_range_meters":2400,"station_id":"ce4bgt92rcd13ifvqcf0","pricing_plan_id":"free"},{"bike_id":"1b409bb7-3051-46bb-94c1-8fdfad641e69","system_id":"levelo_inurba_marseille","lat":43.30551,"lon":5.38428,"is_reserved":false,"is_disabled":false,"rental_uris":{"android":"levelo://app?vid=1b409bb7-3051-46bb-94c1-8fdfad641e69","ios":"levelo://app?vid=1b409bb7-3051-46bb-94c1-8fdfad641e69"},"vehicle_type_id":"4","last_reported":1690477541,"current_range_meters":18400,"station_id":"ce4bgg92rcd13ifvqb30","pricing_plan_id":"free"},{"bike_id":"657471a3-4821-4511-87fc-b4ac6031de0d","system_id":"levelo_inurba_marseille","lat":43.299243,"lon":5.37481,"is_reserved":false,"is_disabled":false,"rental_uris":{"android":"levelo://app?vid=657471a3-4821-4511-87fc-b4ac6031de0d","ios":"levelo://app?vid=657471a3-4821-4511-87fc-b4ac6031de0d"},"vehicle_type_id":"4","last_reported":1690477541,"current_range_meters":27200,"station_id":"ce4bgjh2rcd13ifvqbg0","pricing_plan_id":"free"},{"bike_id":"d7282c71-8b99-4fbb-9bd1-169ec1261026","system_id":"levelo_inurba_marseille","lat":43.311722,"lon":5.387247,"is_reserved":false,"is_disabled":false,"rental_uris":{"android":"levelo://app?vid=d7282c71-8b99-4fbb-9bd1-169ec1261026","ios":"levelo://app?vid=d7282c71-8b99-4fbb-9bd1-169ec1261026"},"vehicle_type_id":"4","last_reported":1690477541,"current_range_meters":1200,"station_id":"ce4bgv12rcd13ifvqcp0","pricing_plan_id":"free"},{"bike_id":"ee154133-c400-47c2-81cc-8b32097b4f78","system_id":"levelo_inurba_marseille","lat":43.311722,"lon":5.387247,"is_reserved":false,"is_disabled":false,"rental_uris":{"android":"levelo://app?vid=ee154133-c400-47c2-81cc-8b32097b4f78","ios":"levelo://app?vid=ee154133-c400-47c2-81cc-8b32097b4f78"},"vehicle_type_id":"4","last_reported":1690477541,"current_range_meters":19200,"station_id":"ce4bgv12rcd13ifvqcp0","pricing_plan_id":"free"},{"bike_id":"9615c956-ab99-416b-88c4-2542cf685f0e","system_id":"levelo_inurba_marseille","lat":43.311722,"lon":5.387247,"is_reserved":false,"is_disabled":false,"rental_uris":{"android":"levelo://app?vid=9615c956-ab99-416b-88c4-2542cf685f0e","ios":"levelo://app?vid=9615c956-ab99-416b-88c4-2542cf685f0e"},"vehicle_type_id":"4","last_reported":1690477541,"current_range_meters":20400,"station_id":"ce4bgv12rcd13ifvqcp0","pricing_plan_id":"free"},{"bike_id":"069d925e-5adc-4e47-8259-6431151b1658","system_id":"levelo_inurba_marseille","lat":43.311722,"lon":5.387247,"is_reserved":false,"is_disabled":false,"rental_uris":{"android":"levelo://app?vid=069d925e-5adc-4e47-8259-6431151b1658","ios":"levelo://app?vid=069d925e-5adc-4e47-8259-6431151b1658"},"vehicle_type_id":"4","last_reported":1690477541,"current_range_meters":25200,"station_id":"ce4bgv12rcd13ifvqcp0","pricing_plan_id":"free"},{"bike_id":"e67eae39-3927-46a7-9d00-a7281dd33627","system_id":"levelo_inurba_marseille","lat":43.311722,"lon":5.387247,"is_reserved":false,"is_disabled":false,"rental_uris":{"android":"levelo://app?vid=e67eae39-3927-46a7-9d00-a7281dd33627","ios":"levelo://app?vid=e67eae39-3927-46a7-9d00-a7281dd33627"},"vehicle_type_id":"4","last_reported":1690477541,"current_range_meters":23200,"station_id":"ce4bgv12rcd13ifvqcp0","pricing_plan_id":"free"},{"bike_id":"c199e87d-fca8-4019-8383-785368a14ed2","system_id":"levelo_inurba_marseille","lat":43.311722,"lon":5.387247,"is_reserved":false,"is_disabled":false,"rental_uris":{"android":"levelo://app?vid=c199e87d-fca8-4019-8383-785368a14ed2","ios":"levelo://app?vid=c199e87d-fca8-4019-8383-785368a14ed2"},"vehicle_type_id":"4","last_reported":1690477541,"current_range_meters":22800,"station_id":"ce4bgv12rcd13ifvqcp0","pricing_plan_id":"free"},{"bike_id":"dd789220-e7b5-42c1-b9dc-dc4243148021","system_id":"levelo_inurba_marseille","lat":43.297163,"lon":5.365866,"is_reserved":false,"is_disabled":false,"rental_uris":{"android":"levelo://app?vid=dd789220-e7b5-42c1-b9dc-dc4243148021","ios":"levelo://app?vid=dd789220-e7b5-42c1-b9dc-dc4243148021"},"vehicle_type_id":"4","last_reported":1690477541,"current_range_meters":31200,"station_id":"ce4bgn12rcd13ifvqbt0","pricing_plan_id":"free"},{"bike_id":"2f4b42df-a3df-4439-a001-cfde16dcbf2c","system_id":"levelo_inurba_marseille","lat":43.32829,"lon":5.36685,"is_reserved":false,"is_disabled":false,"rental_uris":{"android":"levelo://app?vid=2f4b42df-a3df-4439-a001-cfde16dcbf2c","ios":"levelo://app?vid=2f4b42df-a3df-4439-a001-cfde16dcbf2c"},"vehicle_type_id":"4","last_reported":1690477541,"current_range_meters":29600,"station_id":"ce4bhs92rcd13ifvqi0g","pricing_plan_id":"free"},{"bike_id":"1ddfe248-918b-4110-9c81-ca8a913d4717","system_id":"levelo_inurba_marseille","lat":43.32829,"lon":5.36676,"is_reserved":false,"is_disabled":false,"rental_uris":{"android":"levelo://app?vid=1ddfe248-918b-4110-9c81-ca8a913d4717","ios":"levelo://app?vid=1ddfe248-918b-4110-9c81-ca8a913d4717"},"vehicle_type_id":"4","last_reported":1690477541,"current_range_meters":25600,"station_id":"ce4bhs92rcd13ifvqi0g","pricing_plan_id":"free"},{"bike_id":"c8f6d41a-c553-4562-98a9-85488af92a6a","system_id":"levelo_inurba_marseille","lat":43.3283,"lon":5.36682,"is_reserved":false,"is_disabled":false,"rental_uris":{"android":"levelo://app?vid=c8f6d41a-c553-4562-98a9-85488af92a6a","ios":"levelo://app?vid=c8f6d41a-c553-4562-98a9-85488af92a6a"},"vehicle_type_id":"4","last_reported":1690477541,"current_range_meters":28400,"station_id":"ce4bhs92rcd13ifvqi0g","pricing_plan_id":"free"},{"bike_id":"4d1edb0c-2931-4e40-b5d3-304c14847680","system_id":"levelo_inurba_marseille","lat":43.32833,"lon":5.36683,"is_reserved":false,"is_disabled":false,"rental_uris":{"android":"levelo://app?vid=4d1edb0c-2931-4e40-b5d3-304c14847680","ios":"levelo://app?vid=4d1edb0c-2931-4e40-b5d3-304c14847680"},"vehicle_type_id":"4","last_reported":1690477541,"current_range_meters":17600,"station_id":"ce4bhs92rcd13ifvqi0g","pricing_plan_id":"free"},{"bike_id":"2bbd79c2-353b-4118-91fc-2efd54ae6c44","system_id":"levelo_inurba_marseille","lat":43.328371,"lon":5.366909,"is_reserved":false,"is_disabled":false,"rental_uris":{"android":"levelo://app?vid=2bbd79c2-353b-4118-91fc-2efd54ae6c44","ios":"levelo://app?vid=2bbd79c2-353b-4118-91fc-2efd54ae6c44"},"vehicle_type_id":"4","last_reported":1690477541,"current_range_meters":28800,"station_id":"ce4bhs92rcd13ifvqi0g","pricing_plan_id":"free"},{"bike_id":"5c735875-dde5-4084-b0d2-809261704a86","system_id":"levelo_inurba_marseille","lat":43.32837,"lon":5.36686,"is_reserved":false,"is_disabled":false,"rental_uris":{"android":"levelo://app?vid=5c735875-dde5-4084-b0d2-809261704a86","ios":"levelo://app?vid=5c735875-dde5-4084-b0d2-809261704a86"},"vehicle_type_id":"4","last_reported":1690477541,"current_range_meters":14400,"station_id":"ce4bhs92rcd13ifvqi0g","pricing_plan_id":"free"},{"bike_id":"26b75aa8-86db-4e42-9729-4e8116cb1dbc","system_id":"levelo_inurba_marseille","lat":43.297163,"lon":5.365866,"is_reserved":false,"is_disabled":false,"rental_uris":{"android":"levelo://app?vid=26b75aa8-86db-4e42-9729-4e8116cb1dbc","ios":"levelo://app?vid=26b75aa8-86db-4e42-9729-4e8116cb1dbc"},"vehicle_type_id":"4","last_reported":1690477541,"current_range_meters":18400,"station_id":"ce4bgn12rcd13ifvqbt0","pricing_plan_id":"free"},{"bike_id":"1568c2e4-9ac5-4adf-a507-2fe370691422","system_id":"levelo_inurba_marseille","lat":43.296129,"lon":5.370777,"is_reserved":false,"is_disabled":false,"rental_uris":{"android":"levelo://app?vid=1568c2e4-9ac5-4adf-a507-2fe370691422","ios":"levelo://app?vid=1568c2e4-9ac5-4adf-a507-2fe370691422"},"vehicle_type_id":"4","last_reported":1690477541,"current_range_meters":10000,"station_id":"ce4bgnh2rcd13ifvqc0g","pricing_plan_id":"free"},{"bike_id":"b4b1cc78-38fb-4f52-a84e-fa40c4caa3e6","system_id":"levelo_inurba_marseille","lat":43.29573,"lon":5.367355,"is_reserved":false,"is_disabled":false,"rental_uris":{"android":"levelo://app?vid=b4b1cc78-38fb-4f52-a84e-fa40c4caa3e6","ios":"levelo://app?vid=b4b1cc78-38fb-4f52-a84e-fa40c4caa3e6"},"vehicle_type_id":"4","last_reported":1690477541,"current_range_meters":10000,"station_id":"ce4bgph2rcd13ifvqc2g","pricing_plan_id":"free"},{"bike_id":"be3ac29d-12a4-4229-afd0-e12f49567890","system_id":"levelo_inurba_marseille","lat":43.297138,"lon":5.37688,"is_reserved":false,"is_disabled":false,"rental_uris":{"android":"levelo://app?vid=be3ac29d-12a4-4229-afd0-e12f49567890","ios":"levelo://app?vid=be3ac29d-12a4-4229-afd0-e12f49567890"},"vehicle_type_id":"4","last_reported":1690477541,"current_range_meters":0,"station_id":"ce4bgkh2rcd13ifvqbl0","pricing_plan_id":"free"},{"bike_id":"38ebf770-63c6-4245-9cb8-0ed592491e1e","system_id":"levelo_inurba_marseille","lat":43.309589,"lon":5.390258,"is_reserved":false,"is_disabled":false,"rental_uris":{"android":"levelo://app?vid=38ebf770-63c6-4245-9cb8-0ed592491e1e","ios":"levelo://app?vid=38ebf770-63c6-4245-9cb8-0ed592491e1e"},"vehicle_type_id":"4","last_reported":1690477541,"current_range_meters":21600,"station_id":"ce4bgup2rcd13ifvqco0","pricing_plan_id":"free"},{"bike_id":"aa647361-8d98-4e95-84ac-ac69ecb35986","system_id":"levelo_inurba_marseille","lat":43.309589,"lon":5.390258,"is_reserved":false,"is_disabled":false,"rental_uris":{"android":"levelo://app?vid=aa647361-8d98-4e95-84ac-ac69ecb35986","ios":"levelo://app?vid=aa647361-8d98-4e95-84ac-ac69ecb35986"},"vehicle_type_id":"4","last_reported":1690477541,"current_range_meters":25600,"station_id":"ce4bgup2rcd13ifvqco0","pricing_plan_id":"free"},{"bike_id":"80996baf-8597-4552-b66a-a0139bedf903","system_id":"levelo_inurba_marseille","lat":43.309502,"lon":5.390365,"is_reserved":false,"is_disabled":false,"rental_uris":{"android":"levelo://app?vid=80996baf-8597-4552-b66a-a0139bedf903","ios":"levelo://app?vid=80996baf-8597-4552-b66a-a0139bedf903"},"vehicle_type_id":"4","last_reported":1690477541,"current_range_meters":9600,"station_id":"","pricing_plan_id":"free"},{"bike_id":"f0b1921d-8fc5-42f6-8214-26455e772ce5","system_id":"levelo_inurba_marseille","lat":43.309589,"lon":5.390258,"is_reserved":false,"is_disabled":false,"rental_uris":{"android":"levelo://app?vid=f0b1921d-8fc5-42f6-8214-26455e772ce5","ios":"levelo://app?vid=f0b1921d-8fc5-42f6-8214-26455e772ce5"},"vehicle_type_id":"4","last_reported":1690477541,"current_range_meters":28800,"station_id":"ce4bgup2rcd13ifvqco0","pricing_plan_id":"free"},{"bike_id":"7f7cef6e-fd24-4769-b301-e369ff8ba1c5","system_id":"levelo_inurba_marseille","lat":43.317557,"lon":5.390173,"is_reserved":false,"is_disabled":false,"rental_uris":{"android":"levelo://app?vid=7f7cef6e-fd24-4769-b301-e369ff8ba1c5","ios":"levelo://app?vid=7f7cef6e-fd24-4769-b301-e369ff8ba1c5"},"vehicle_type_id":"4","last_reported":1690477541,"current_range_meters":30400,"station_id":"ce4bhqp2rcd13ifvqhng","pricing_plan_id":"free"},{"bike_id":"33ae7d49-162c-4566-82bc-1b4c9e1c338e","system_id":"levelo_inurba_marseille","lat":43.317557,"lon":5.390173,"is_reserved":false,"is_disabled":false,"rental_uris":{"android":"levelo://app?vid=33ae7d49-162c-4566-82bc-1b4c9e1c338e","ios":"levelo://app?vid=33ae7d49-162c-4566-82bc-1b4c9e1c338e"},"vehicle_type_id":"4","last_reported":1690477541,"current_range_meters":21200,"station_id":"ce4bhqp2rcd13ifvqhng","pricing_plan_id":"free"},{"bike_id":"3acfc948-35eb-4026-940a-a95c80cf42c1","system_id":"levelo_inurba_marseille","lat":43.29576,"lon":5.37505,"is_reserved":false,"is_disabled":false,"rental_uris":{"android":"levelo://app?vid=3acfc948-35eb-4026-940a-a95c80cf42c1","ios":"levelo://app?vid=3acfc948-35eb-4026-940a-a95c80cf42c1"},"vehicle_type_id":"4","last_reported":1690477541,"current_range_meters":30800,"station_id":"ce4bgh92rcd13ifvqb50","pricing_plan_id":"free"},{"bike_id":"6c4516a8-ee24-4c99-aac6-bb6bdeaac3f8","system_id":"levelo_inurba_marseille","lat":43.29576,"lon":5.37509,"is_reserved":false,"is_disabled":false,"rental_uris":{"android":"levelo://app?vid=6c4516a8-ee24-4c99-aac6-bb6bdeaac3f8","ios":"levelo://app?vid=6c4516a8-ee24-4c99-aac6-bb6bdeaac3f8"},"vehicle_type_id":"4","last_reported":1690477541,"current_range_meters":24400,"station_id":"ce4bgh92rcd13ifvqb50","pricing_plan_id":"free"},{"bike_id":"8680de1a-0c8f-403a-8db3-a9fd0ea2004c","system_id":"levelo_inurba_marseille","lat":43.304274,"lon":5.388873,"is_reserved":false,"is_disabled":false,"rental_uris":{"android":"levelo://app?vid=8680de1a-0c8f-403a-8db3-a9fd0ea2004c","ios":"levelo://app?vid=8680de1a-0c8f-403a-8db3-a9fd0ea2004c"},"vehicle_type_id":"4","last_reported":1690477541,"current_range_meters":13200,"station_id":"ce4bgk12rcd13ifvqbi0","pricing_plan_id":"free"},{"bike_id":"dc8cd540-cdd9-4980-bceb-39cbccd697d5","system_id":"levelo_inurba_marseille","lat":43.304274,"lon":5.388873,"is_reserved":false,"is_disabled":false,"rental_uris":{"android":"levelo://app?vid=dc8cd540-cdd9-4980-bceb-39cbccd697d5","ios":"levelo://app?vid=dc8cd540-cdd9-4980-bceb-39cbccd697d5"},"vehicle_type_id":"4","last_reported":1690477541,"current_range_meters":22000,"station_id":"ce4bgk12rcd13ifvqbi0","pricing_plan_id":"free"},{"bike_id":"57619a1d-c400-4d5c-a82b-152e19237e86","system_id":"levelo_inurba_marseille","lat":43.304274,"lon":5.388873,"is_reserved":false,"is_disabled":false,"rental_uris":{"android":"levelo://app?vid=57619a1d-c400-4d5c-a82b-152e19237e86","ios":"levelo://app?vid=57619a1d-c400-4d5c-a82b-152e19237e86"},"vehicle_type_id":"4","last_reported":1690477541,"current_range_meters":800,"station_id":"ce4bgk12rcd13ifvqbi0","pricing_plan_id":"free"},{"bike_id":"3027eee3-9f87-4272-9d22-6a568f767576","system_id":"levelo_inurba_marseille","lat":43.304274,"lon":5.388873,"is_reserved":false,"is_disabled":false,"rental_uris":{"android":"levelo://app?vid=3027eee3-9f87-4272-9d22-6a568f767576","ios":"levelo://app?vid=3027eee3-9f87-4272-9d22-6a568f767576"},"vehicle_type_id":"4","last_reported":1690477541,"current_range_meters":7600,"station_id":"ce4bgk12rcd13ifvqbi0","pricing_plan_id":"free"},{"bike_id":"6814eaee-193a-4a62-8d1e-cf5b916e1275","system_id":"levelo_inurba_marseille","lat":43.304274,"lon":5.388873,"is_reserved":false,"is_disabled":false,"rental_uris":{"android":"levelo://app?vid=6814eaee-193a-4a62-8d1e-cf5b916e1275","ios":"levelo://app?vid=6814eaee-193a-4a62-8d1e-cf5b916e1275"},"vehicle_type_id":"4","last_reported":1690477541,"current_range_meters":15200,"station_id":"ce4bgk12rcd13ifvqbi0","pricing_plan_id":"free"},{"bike_id":"098b82c8-7c9c-47b5-a2e5-9febe0165917","system_id":"levelo_inurba_marseille","lat":43.299707,"lon":5.384859,"is_reserved":false,"is_disabled":false,"rental_uris":{"android":"levelo://app?vid=098b82c8-7c9c-47b5-a2e5-9febe0165917","ios":"levelo://app?vid=098b82c8-7c9c-47b5-a2e5-9febe0165917"},"vehicle_type_id":"4","last_reported":1690477541,"current_range_meters":14400,"station_id":"ce4bgj92rcd13ifvqbd0","pricing_plan_id":"free"},{"bike_id":"b0ad2680-0f72-4941-9edc-12f89f12d0f6","system_id":"levelo_inurba_marseille","lat":43.29973,"lon":5.384841,"is_reserved":false,"is_disabled":false,"rental_uris":{"android":"levelo://app?vid=b0ad2680-0f72-4941-9edc-12f89f12d0f6","ios":"levelo://app?vid=b0ad2680-0f72-4941-9edc-12f89f12d0f6"},"vehicle_type_id":"4","last_reported":1690477541,"current_range_meters":25200,"station_id":"ce4bgj92rcd13ifvqbd0","pricing_plan_id":"free"},{"bike_id":"a852acc6-7584-42c6-a5ab-3e439b55d85a","system_id":"levelo_inurba_marseille","lat":43.299717,"lon":5.384845,"is_reserved":false,"is_disabled":false,"rental_uris":{"android":"levelo://app?vid=a852acc6-7584-42c6-a5ab-3e439b55d85a","ios":"levelo://app?vid=a852acc6-7584-42c6-a5ab-3e439b55d85a"},"vehicle_type_id":"4","last_reported":1690477541,"current_range_meters":14800,"station_id":"ce4bgj92rcd13ifvqbd0","pricing_plan_id":"free"},{"bike_id":"2896e4ba-28bb-41b9-aacb-c5c08a481bef","system_id":"levelo_inurba_marseille","lat":43.299707,"lon":5.384859,"is_reserved":false,"is_disabled":false,"rental_uris":{"android":"levelo://app?vid=2896e4ba-28bb-41b9-aacb-c5c08a481bef","ios":"levelo://app?vid=2896e4ba-28bb-41b9-aacb-c5c08a481bef"},"vehicle_type_id":"4","last_reported":1690477541,"current_range_meters":8000,"station_id":"ce4bgj92rcd13ifvqbd0","pricing_plan_id":"free"},{"bike_id":"35271d95-c494-40dd-8da7-2203a22c9da1","system_id":"levelo_inurba_marseille","lat":43.32367,"lon":5.388836,"is_reserved":false,"is_disabled":false,"rental_uris":{"android":"levelo://app?vid=35271d95-c494-40dd-8da7-2203a22c9da1","ios":"levelo://app?vid=35271d95-c494-40dd-8da7-2203a22c9da1"},"vehicle_type_id":"4","last_reported":1690477541,"current_range_meters":28800,"station_id":"ce4bhqp2rcd13ifvqhog","pricing_plan_id":"free"},{"bike_id":"891b7811-82bc-4d9d-86a0-8954d423b097","system_id":"levelo_inurba_marseille","lat":43.32364,"lon":5.38897,"is_reserved":false,"is_disabled":false,"rental_uris":{"android":"levelo://app?vid=891b7811-82bc-4d9d-86a0-8954d423b097","ios":"levelo://app?vid=891b7811-82bc-4d9d-86a0-8954d423b097"},"vehicle_type_id":"4","last_reported":1690477541,"current_range_meters":30000,"station_id":"ce4bhqp2rcd13ifvqhog","pricing_plan_id":"free"},{"bike_id":"8cb10aff-5b12-4429-89af-bc8f5ed79456","system_id":"levelo_inurba_marseille","lat":43.32364,"lon":5.38899,"is_reserved":false,"is_disabled":false,"rental_uris":{"android":"levelo://app?vid=8cb10aff-5b12-4429-89af-bc8f5ed79456","ios":"levelo://app?vid=8cb10aff-5b12-4429-89af-bc8f5ed79456"},"vehicle_type_id":"4","last_reported":1690477541,"current_range_meters":26000,"station_id":"ce4bhqp2rcd13ifvqhog","pricing_plan_id":"free"},{"bike_id":"43535d55-3922-4988-8dbb-8d82cf3d3e8f","system_id":"levelo_inurba_marseille","lat":43.292749,"lon":5.368402,"is_reserved":false,"is_disabled":false,"rental_uris":{"android":"levelo://app?vid=43535d55-3922-4988-8dbb-8d82cf3d3e8f","ios":"levelo://app?vid=43535d55-3922-4988-8dbb-8d82cf3d3e8f"},"vehicle_type_id":"4","last_reported":1690477541,"current_range_meters":0,"station_id":"ce4bhbp2rcd13ifvqesg","pricing_plan_id":"free"},{"bike_id":"1bd11686-7a52-4b3e-a6bb-574d683211d8","system_id":"levelo_inurba_marseille","lat":43.293009,"lon":5.374584,"is_reserved":false,"is_disabled":false,"rental_uris":{"android":"levelo://app?vid=1bd11686-7a52-4b3e-a6bb-574d683211d8","ios":"levelo://app?vid=1bd11686-7a52-4b3e-a6bb-574d683211d8"},"vehicle_type_id":"4","last_reported":1690477541,"current_range_meters":22800,"station_id":"ce4bgi12rcd13ifvqb70","pricing_plan_id":"free"},{"bike_id":"231a4be4-e982-4079-af27-c3d577513074","system_id":"levelo_inurba_marseille","lat":43.29271,"lon":5.35987,"is_reserved":false,"is_disabled":false,"rental_uris":{"android":"levelo://app?vid=231a4be4-e982-4079-af27-c3d577513074","ios":"levelo://app?vid=231a4be4-e982-4079-af27-c3d577513074"},"vehicle_type_id":"4","last_reported":1690477541,"current_range_meters":23200,"station_id":"","pricing_plan_id":"free"},{"bike_id":"4efd22a2-2d9a-44d1-b354-e243e30f9377","system_id":"levelo_inurba_marseille","lat":43.302992,"lon":5.392136,"is_reserved":false,"is_disabled":false,"rental_uris":{"android":"levelo://app?vid=4efd22a2-2d9a-44d1-b354-e243e30f9377","ios":"levelo://app?vid=4efd22a2-2d9a-44d1-b354-e243e30f9377"},"vehicle_type_id":"4","last_reported":1690477541,"current_range_meters":1200,"station_id":"ce4bgkh2rcd13ifvqbk0","pricing_plan_id":"free"},{"bike_id":"4d835193-ad33-46a7-9b09-75c644c67af8","system_id":"levelo_inurba_marseille","lat":43.292311,"lon":5.360731,"is_reserved":false,"is_disabled":false,"rental_uris":{"android":"levelo://app?vid=4d835193-ad33-46a7-9b09-75c644c67af8","ios":"levelo://app?vid=4d835193-ad33-46a7-9b09-75c644c67af8"},"vehicle_type_id":"4","last_reported":1690477541,"current_range_meters":7200,"station_id":"ce4bhbh2rcd13ifvqeqg","pricing_plan_id":"free"},{"bike_id":"db28e87e-5463-43f4-84a5-bbb098f6881a","system_id":"levelo_inurba_marseille","lat":43.29202,"lon":5.35795,"is_reserved":false,"is_disabled":false,"rental_uris":{"android":"levelo://app?vid=db28e87e-5463-43f4-84a5-bbb098f6881a","ios":"levelo://app?vid=db28e87e-5463-43f4-84a5-bbb098f6881a"},"vehicle_type_id":"4","last_reported":1690477541,"current_range_meters":26400,"station_id":"ce4bhb12rcd13ifvqel0","pricing_plan_id":"free"},{"bike_id":"c3973621-b512-4c1a-91f3-14398812eff8","system_id":"levelo_inurba_marseille","lat":43.29198,"lon":5.35798,"is_reserved":false,"is_disabled":false,"rental_uris":{"android":"levelo://app?vid=c3973621-b512-4c1a-91f3-14398812eff8","ios":"levelo://app?vid=c3973621-b512-4c1a-91f3-14398812eff8"},"vehicle_type_id":"4","last_reported":1690477541,"current_range_meters":4800,"station_id":"ce4bhb12rcd13ifvqel0","pricing_plan_id":"free"},{"bike_id":"9b7a0723-ff96-42b4-924a-a9a624f8f95f","system_id":"levelo_inurba_marseille","lat":43.29195,"lon":5.35801,"is_reserved":false,"is_disabled":false,"rental_uris":{"android":"levelo://app?vid=9b7a0723-ff96-42b4-924a-a9a624f8f95f","ios":"levelo://app?vid=9b7a0723-ff96-42b4-924a-a9a624f8f95f"},"vehicle_type_id":"4","last_reported":1690477541,"current_range_meters":20000,"station_id":"ce4bhb12rcd13ifvqel0","pricing_plan_id":"free"},{"bike_id":"b55664cd-abc6-41cd-a556-589f1c63f26f","system_id":"levelo_inurba_marseille","lat":43.29195,"lon":5.35799,"is_reserved":false,"is_disabled":false,"rental_uris":{"android":"levelo://app?vid=b55664cd-abc6-41cd-a556-589f1c63f26f","ios":"levelo://app?vid=b55664cd-abc6-41cd-a556-589f1c63f26f"},"vehicle_type_id":"4","last_reported":1690477541,"current_range_meters":5600,"station_id":"ce4bhb12rcd13ifvqel0","pricing_plan_id":"free"},{"bike_id":"b9b7d258-c1ac-4323-9297-87825b4c485a","system_id":"levelo_inurba_marseille","lat":43.309038,"lon":5.396546,"is_reserved":false,"is_disabled":false,"rental_uris":{"android":"levelo://app?vid=b9b7d258-c1ac-4323-9297-87825b4c485a","ios":"levelo://app?vid=b9b7d258-c1ac-4323-9297-87825b4c485a"},"vehicle_type_id":"4","last_reported":1690477541,"current_range_meters":31200,"station_id":"ce4bh012rcd13ifvqcv0","pricing_plan_id":"free"},{"bike_id":"af1acc2e-b4e0-4e3c-88b6-74eae6ec4e60","system_id":"levelo_inurba_marseille","lat":43.31327,"lon":5.39691,"is_reserved":false,"is_disabled":false,"rental_uris":{"android":"levelo://app?vid=af1acc2e-b4e0-4e3c-88b6-74eae6ec4e60","ios":"levelo://app?vid=af1acc2e-b4e0-4e3c-88b6-74eae6ec4e60"},"vehicle_type_id":"4","last_reported":1690477541,"current_range_meters":16800,"station_id":"ce4bgvp2rcd13ifvqcu0","pricing_plan_id":"free"},{"bike_id":"0909cd4d-9c5e-4628-a6b5-8957ff9fb860","system_id":"levelo_inurba_marseille","lat":43.309038,"lon":5.396546,"is_reserved":false,"is_disabled":false,"rental_uris":{"android":"levelo://app?vid=0909cd4d-9c5e-4628-a6b5-8957ff9fb860","ios":"levelo://app?vid=0909cd4d-9c5e-4628-a6b5-8957ff9fb860"},"vehicle_type_id":"4","last_reported":1690477541,"current_range_meters":12400,"station_id":"ce4bh012rcd13ifvqcv0","pricing_plan_id":"free"},{"bike_id":"6e5b9653-91b1-44ec-b51f-6164d6ef37b1","system_id":"levelo_inurba_marseille","lat":43.309038,"lon":5.396546,"is_reserved":false,"is_disabled":false,"rental_uris":{"android":"levelo://app?vid=6e5b9653-91b1-44ec-b51f-6164d6ef37b1","ios":"levelo://app?vid=6e5b9653-91b1-44ec-b51f-6164d6ef37b1"},"vehicle_type_id":"4","last_reported":1690477541,"current_range_meters":13600,"station_id":"ce4bh012rcd13ifvqcv0","pricing_plan_id":"free"},{"bike_id":"16dddf58-6475-4644-8818-a5cb70a78026","system_id":"levelo_inurba_marseille","lat":43.31324,"lon":5.39702,"is_reserved":false,"is_disabled":false,"rental_uris":{"android":"levelo://app?vid=16dddf58-6475-4644-8818-a5cb70a78026","ios":"levelo://app?vid=16dddf58-6475-4644-8818-a5cb70a78026"},"vehicle_type_id":"4","last_reported":1690477541,"current_range_meters":27200,"station_id":"ce4bgvp2rcd13ifvqcu0","pricing_plan_id":"free"},{"bike_id":"e1c6f4e9-ac83-468d-babf-420a6b6f9817","system_id":"levelo_inurba_marseille","lat":43.309038,"lon":5.396546,"is_reserved":false,"is_disabled":false,"rental_uris":{"android":"levelo://app?vid=e1c6f4e9-ac83-468d-babf-420a6b6f9817","ios":"levelo://app?vid=e1c6f4e9-ac83-468d-babf-420a6b6f9817"},"vehicle_type_id":"4","last_reported":1690477541,"current_range_meters":24800,"station_id":"ce4bh012rcd13ifvqcv0","pricing_plan_id":"free"},{"bike_id":"16808e15-aca5-4d13-b5b2-413dea04d2ad","system_id":"levelo_inurba_marseille","lat":43.29529,"lon":5.385581,"is_reserved":false,"is_disabled":false,"rental_uris":{"android":"levelo://app?vid=16808e15-aca5-4d13-b5b2-413dea04d2ad","ios":"levelo://app?vid=16808e15-aca5-4d13-b5b2-413dea04d2ad"},"vehicle_type_id":"4","last_reported":1690477541,"current_range_meters":26400,"station_id":"ce4bgih2rcd13ifvqba0","pricing_plan_id":"free"},{"bike_id":"5b0f1f29-9f57-49d0-bfe9-8c1afb0931e1","system_id":"levelo_inurba_marseille","lat":43.29529,"lon":5.385581,"is_reserved":false,"is_disabled":false,"rental_uris":{"android":"levelo://app?vid=5b0f1f29-9f57-49d0-bfe9-8c1afb0931e1","ios":"levelo://app?vid=5b0f1f29-9f57-49d0-bfe9-8c1afb0931e1"},"vehicle_type_id":"4","last_reported":1690477541,"current_range_meters":28000,"station_id":"ce4bgih2rcd13ifvqba0","pricing_plan_id":"free"},{"bike_id":"0f4bd3f2-ab3a-4714-bbff-92429ac1cf05","system_id":"levelo_inurba_marseille","lat":43.29533,"lon":5.38545,"is_reserved":false,"is_disabled":false,"rental_uris":{"android":"levelo://app?vid=0f4bd3f2-ab3a-4714-bbff-92429ac1cf05","ios":"levelo://app?vid=0f4bd3f2-ab3a-4714-bbff-92429ac1cf05"},"vehicle_type_id":"4","last_reported":1690477541,"current_range_meters":13200,"station_id":"ce4bgih2rcd13ifvqba0","pricing_plan_id":"free"},{"bike_id":"19db133c-dcf2-45f3-823e-0372aa9231b3","system_id":"levelo_inurba_marseille","lat":43.29529,"lon":5.385581,"is_reserved":false,"is_disabled":false,"rental_uris":{"android":"levelo://app?vid=19db133c-dcf2-45f3-823e-0372aa9231b3","ios":"levelo://app?vid=19db133c-dcf2-45f3-823e-0372aa9231b3"},"vehicle_type_id":"4","last_reported":1690477541,"current_range_meters":17600,"station_id":"ce4bgih2rcd13ifvqba0","pricing_plan_id":"free"},{"bike_id":"e2312e8f-27fd-4c4c-86c2-01eaf62f24c4","system_id":"levelo_inurba_marseille","lat":43.29535,"lon":5.38555,"is_reserved":false,"is_disabled":false,"rental_uris":{"android":"levelo://app?vid=e2312e8f-27fd-4c4c-86c2-01eaf62f24c4","ios":"levelo://app?vid=e2312e8f-27fd-4c4c-86c2-01eaf62f24c4"},"vehicle_type_id":"4","last_reported":1690477541,"current_range_meters":23600,"station_id":"ce4bgih2rcd13ifvqba0","pricing_plan_id":"free"},{"bike_id":"397c8f54-5a4c-45f7-9d40-fc761d49240b","system_id":"levelo_inurba_marseille","lat":43.295325,"lon":5.385599,"is_reserved":false,"is_disabled":false,"rental_uris":{"android":"levelo://app?vid=397c8f54-5a4c-45f7-9d40-fc761d49240b","ios":"levelo://app?vid=397c8f54-5a4c-45f7-9d40-fc761d49240b"},"vehicle_type_id":"4","last_reported":1690477541,"current_range_meters":8800,"station_id":"ce4bgih2rcd13ifvqba0","pricing_plan_id":"free"},{"bike_id":"e337f213-f6c6-4be5-9ec4-791cc32ed66e","system_id":"levelo_inurba_marseille","lat":43.302008,"lon":5.394694,"is_reserved":false,"is_disabled":false,"rental_uris":{"android":"levelo://app?vid=e337f213-f6c6-4be5-9ec4-791cc32ed66e","ios":"levelo://app?vid=e337f213-f6c6-4be5-9ec4-791cc32ed66e"},"vehicle_type_id":"4","last_reported":1690477541,"current_range_meters":24800,"station_id":"ce4bh0p2rcd13ifvqd70","pricing_plan_id":"free"},{"bike_id":"ed2c0e1d-0c50-48dd-bb83-8fc618630251","system_id":"levelo_inurba_marseille","lat":43.290624,"lon":5.359245,"is_reserved":false,"is_disabled":false,"rental_uris":{"android":"levelo://app?vid=ed2c0e1d-0c50-48dd-bb83-8fc618630251","ios":"levelo://app?vid=ed2c0e1d-0c50-48dd-bb83-8fc618630251"},"vehicle_type_id":"4","last_reported":1690477541,"current_range_meters":15600,"station_id":"ce4bha92rcd13ifvqeg0","pricing_plan_id":"free"},{"bike_id":"f0fa4aec-f16d-4edb-9839-91bc1abc05bd","system_id":"levelo_inurba_marseille","lat":43.290631,"lon":5.359244,"is_reserved":false,"is_disabled":false,"rental_uris":{"android":"levelo://app?vid=f0fa4aec-f16d-4edb-9839-91bc1abc05bd","ios":"levelo://app?vid=f0fa4aec-f16d-4edb-9839-91bc1abc05bd"},"vehicle_type_id":"4","last_reported":1690477541,"current_range_meters":25200,"station_id":"ce4bha92rcd13ifvqeg0","pricing_plan_id":"free"},{"bike_id":"05fb517a-0827-49c0-8059-bd4e004c0e08","system_id":"levelo_inurba_marseille","lat":43.290631,"lon":5.359244,"is_reserved":false,"is_disabled":false,"rental_uris":{"android":"levelo://app?vid=05fb517a-0827-49c0-8059-bd4e004c0e08","ios":"levelo://app?vid=05fb517a-0827-49c0-8059-bd4e004c0e08"},"vehicle_type_id":"4","last_reported":1690477541,"current_range_meters":13200,"station_id":"ce4bha92rcd13ifvqeg0","pricing_plan_id":"free"},{"bike_id":"e82da96f-d757-4777-bb21-f0a15d59bbdd","system_id":"levelo_inurba_marseille","lat":43.294153,"lon":5.386305,"is_reserved":false,"is_disabled":false,"rental_uris":{"android":"levelo://app?vid=e82da96f-d757-4777-bb21-f0a15d59bbdd","ios":"levelo://app?vid=e82da96f-d757-4777-bb21-f0a15d59bbdd"},"vehicle_type_id":"4","last_reported":1690477541,"current_range_meters":30000,"station_id":"ce4bh2h2rcd13ifvqdh0","pricing_plan_id":"free"},{"bike_id":"bd94c771-8e6b-4663-b7ac-1638df63118f","system_id":"levelo_inurba_marseille","lat":43.294153,"lon":5.386305,"is_reserved":false,"is_disabled":false,"rental_uris":{"android":"levelo://app?vid=bd94c771-8e6b-4663-b7ac-1638df63118f","ios":"levelo://app?vid=bd94c771-8e6b-4663-b7ac-1638df63118f"},"vehicle_type_id":"4","last_reported":1690477541,"current_range_meters":3600,"station_id":"ce4bh2h2rcd13ifvqdh0","pricing_plan_id":"free"},{"bike_id":"e7e0e244-f460-44b6-9b24-6205f9e89771","system_id":"levelo_inurba_marseille","lat":43.294162,"lon":5.386292,"is_reserved":false,"is_disabled":false,"rental_uris":{"android":"levelo://app?vid=e7e0e244-f460-44b6-9b24-6205f9e89771","ios":"levelo://app?vid=e7e0e244-f460-44b6-9b24-6205f9e89771"},"vehicle_type_id":"4","last_reported":1690477541,"current_range_meters":3600,"station_id":"ce4bh2h2rcd13ifvqdh0","pricing_plan_id":"free"},{"bike_id":"1f62ca59-4d3e-41c5-95df-ea936ba105d3","system_id":"levelo_inurba_marseille","lat":43.294162,"lon":5.386292,"is_reserved":false,"is_disabled":false,"rental_uris":{"android":"levelo://app?vid=1f62ca59-4d3e-41c5-95df-ea936ba105d3","ios":"levelo://app?vid=1f62ca59-4d3e-41c5-95df-ea936ba105d3"},"vehicle_type_id":"4","last_reported":1690477541,"current_range_meters":17600,"station_id":"ce4bh2h2rcd13ifvqdh0","pricing_plan_id":"free"},{"bike_id":"a98893b4-db3b-40d0-a900-172711ee4c58","system_id":"levelo_inurba_marseille","lat":43.289468,"lon":5.363719,"is_reserved":false,"is_disabled":false,"rental_uris":{"android":"levelo://app?vid=a98893b4-db3b-40d0-a900-172711ee4c58","ios":"levelo://app?vid=a98893b4-db3b-40d0-a900-172711ee4c58"},"vehicle_type_id":"4","last_reported":1690477541,"current_range_meters":20400,"station_id":"ce4bhc92rcd13ifvqetg","pricing_plan_id":"free"},{"bike_id":"4f306cb4-22af-4a17-9492-c06edfff298b","system_id":"levelo_inurba_marseille","lat":43.289468,"lon":5.363719,"is_reserved":false,"is_disabled":false,"rental_uris":{"android":"levelo://app?vid=4f306cb4-22af-4a17-9492-c06edfff298b","ios":"levelo://app?vid=4f306cb4-22af-4a17-9492-c06edfff298b"},"vehicle_type_id":"4","last_reported":1690477541,"current_range_meters":2000,"station_id":"ce4bhc92rcd13ifvqetg","pricing_plan_id":"free"},{"bike_id":"13acaa2c-c44e-499f-8804-666700f802ac","system_id":"levelo_inurba_marseille","lat":43.289468,"lon":5.363719,"is_reserved":false,"is_disabled":false,"rental_uris":{"android":"levelo://app?vid=13acaa2c-c44e-499f-8804-666700f802ac","ios":"levelo://app?vid=13acaa2c-c44e-499f-8804-666700f802ac"},"vehicle_type_id":"4","last_reported":1690477541,"current_range_meters":31200,"station_id":"ce4bhc92rcd13ifvqetg","pricing_plan_id":"free"},{"bike_id":"1ac16db6-5408-4b33-9b96-857ead7374da","system_id":"levelo_inurba_marseille","lat":43.28935,"lon":5.36388,"is_reserved":false,"is_disabled":false,"rental_uris":{"android":"levelo://app?vid=1ac16db6-5408-4b33-9b96-857ead7374da","ios":"levelo://app?vid=1ac16db6-5408-4b33-9b96-857ead7374da"},"vehicle_type_id":"4","last_reported":1690477541,"current_range_meters":28400,"station_id":"ce4bhc92rcd13ifvqetg","pricing_plan_id":"free"},{"bike_id":"3056989a-5f30-4d96-bd7b-a426598657b9","system_id":"levelo_inurba_marseille","lat":43.28932,"lon":5.36406,"is_reserved":false,"is_disabled":false,"rental_uris":{"android":"levelo://app?vid=3056989a-5f30-4d96-bd7b-a426598657b9","ios":"levelo://app?vid=3056989a-5f30-4d96-bd7b-a426598657b9"},"vehicle_type_id":"4","last_reported":1690477541,"current_range_meters":24000,"station_id":"ce4bhc92rcd13ifvqetg","pricing_plan_id":"free"},{"bike_id":"3930ae3e-0964-42a5-b5ae-f4efe7e6a746","system_id":"levelo_inurba_marseille","lat":43.304274,"lon":5.397513,"is_reserved":false,"is_disabled":false,"rental_uris":{"android":"levelo://app?vid=3930ae3e-0964-42a5-b5ae-f4efe7e6a746","ios":"levelo://app?vid=3930ae3e-0964-42a5-b5ae-f4efe7e6a746"},"vehicle_type_id":"4","last_reported":1690477541,"current_range_meters":24800,"station_id":"ce4bh092rcd13ifvqd20","pricing_plan_id":"free"},{"bike_id":"1032df60-bf44-488b-8714-b1725aad4771","system_id":"levelo_inurba_marseille","lat":43.29269,"lon":5.38434,"is_reserved":false,"is_disabled":false,"rental_uris":{"android":"levelo://app?vid=1032df60-bf44-488b-8714-b1725aad4771","ios":"levelo://app?vid=1032df60-bf44-488b-8714-b1725aad4771"},"vehicle_type_id":"4","last_reported":1690477541,"current_range_meters":30000,"station_id":"ce4bh692rcd13ifvqea0","pricing_plan_id":"free"},{"bike_id":"3c3f847a-cfde-406b-a735-898c3b21df9b","system_id":"levelo_inurba_marseille","lat":43.304296,"lon":5.397513,"is_reserved":false,"is_disabled":false,"rental_uris":{"android":"levelo://app?vid=3c3f847a-cfde-406b-a735-898c3b21df9b","ios":"levelo://app?vid=3c3f847a-cfde-406b-a735-898c3b21df9b"},"vehicle_type_id":"4","last_reported":1690477541,"current_range_meters":24400,"station_id":"ce4bh092rcd13ifvqd20","pricing_plan_id":"free"},{"bike_id":"b528eeb9-bc6b-4d03-8839-5e2cc94aa5a3","system_id":"levelo_inurba_marseille","lat":43.292642,"lon":5.384254,"is_reserved":false,"is_disabled":false,"rental_uris":{"android":"levelo://app?vid=b528eeb9-bc6b-4d03-8839-5e2cc94aa5a3","ios":"levelo://app?vid=b528eeb9-bc6b-4d03-8839-5e2cc94aa5a3"},"vehicle_type_id":"4","last_reported":1690477541,"current_range_meters":20400,"station_id":"ce4bh692rcd13ifvqea0","pricing_plan_id":"free"},{"bike_id":"c8826345-9ab6-489d-8c4b-bcaf1b141411","system_id":"levelo_inurba_marseille","lat":43.292642,"lon":5.384254,"is_reserved":false,"is_disabled":false,"rental_uris":{"android":"levelo://app?vid=c8826345-9ab6-489d-8c4b-bcaf1b141411","ios":"levelo://app?vid=c8826345-9ab6-489d-8c4b-bcaf1b141411"},"vehicle_type_id":"4","last_reported":1690477541,"current_range_meters":8400,"station_id":"ce4bh692rcd13ifvqea0","pricing_plan_id":"free"},{"bike_id":"b9a047aa-94fe-400d-8aaa-574c06fcdeba","system_id":"levelo_inurba_marseille","lat":43.29265,"lon":5.38439,"is_reserved":false,"is_disabled":false,"rental_uris":{"android":"levelo://app?vid=b9a047aa-94fe-400d-8aaa-574c06fcdeba","ios":"levelo://app?vid=b9a047aa-94fe-400d-8aaa-574c06fcdeba"},"vehicle_type_id":"4","last_reported":1690477541,"current_range_meters":4400,"station_id":"ce4bh692rcd13ifvqea0","pricing_plan_id":"free"},{"bike_id":"2a948c26-5329-4c34-ab61-922c7619d7f3","system_id":"levelo_inurba_marseille","lat":43.292642,"lon":5.384254,"is_reserved":false,"is_disabled":false,"rental_uris":{"android":"levelo://app?vid=2a948c26-5329-4c34-ab61-922c7619d7f3","ios":"levelo://app?vid=2a948c26-5329-4c34-ab61-922c7619d7f3"},"vehicle_type_id":"4","last_reported":1690477541,"current_range_meters":15600,"station_id":"ce4bh692rcd13ifvqea0","pricing_plan_id":"free"},{"bike_id":"f7a043f6-7f66-45c1-9ba3-bd7ce59554ba","system_id":"levelo_inurba_marseille","lat":43.292642,"lon":5.384254,"is_reserved":false,"is_disabled":false,"rental_uris":{"android":"levelo://app?vid=f7a043f6-7f66-45c1-9ba3-bd7ce59554ba","ios":"levelo://app?vid=f7a043f6-7f66-45c1-9ba3-bd7ce59554ba"},"vehicle_type_id":"4","last_reported":1690477541,"current_range_meters":26800,"station_id":"ce4bh692rcd13ifvqea0","pricing_plan_id":"free"},{"bike_id":"2086dfe5-d752-4426-9807-6acb2dc00168","system_id":"levelo_inurba_marseille","lat":43.292642,"lon":5.384254,"is_reserved":false,"is_disabled":false,"rental_uris":{"android":"levelo://app?vid=2086dfe5-d752-4426-9807-6acb2dc00168","ios":"levelo://app?vid=2086dfe5-d752-4426-9807-6acb2dc00168"},"vehicle_type_id":"4","last_reported":1690477541,"current_range_meters":0,"station_id":"ce4bh692rcd13ifvqea0","pricing_plan_id":"free"},{"bike_id":"a52e44ba-56df-4034-a66c-68f346610a93","system_id":"levelo_inurba_marseille","lat":43.292642,"lon":5.384254,"is_reserved":false,"is_disabled":false,"rental_uris":{"android":"levelo://app?vid=a52e44ba-56df-4034-a66c-68f346610a93","ios":"levelo://app?vid=a52e44ba-56df-4034-a66c-68f346610a93"},"vehicle_type_id":"4","last_reported":1690477541,"current_range_meters":14400,"station_id":"ce4bh692rcd13ifvqea0","pricing_plan_id":"free"},{"bike_id":"e64f7185-9a6e-4425-8998-0959b4121792","system_id":"levelo_inurba_marseille","lat":43.29268,"lon":5.38457,"is_reserved":false,"is_disabled":false,"rental_uris":{"android":"levelo://app?vid=e64f7185-9a6e-4425-8998-0959b4121792","ios":"levelo://app?vid=e64f7185-9a6e-4425-8998-0959b4121792"},"vehicle_type_id":"4","last_reported":1690477541,"current_range_meters":4400,"station_id":"ce4bh692rcd13ifvqea0","pricing_plan_id":"free"},{"bike_id":"7c3477b0-5bf7-4c94-a26b-5ed6b5e3ea66","system_id":"levelo_inurba_marseille","lat":43.29254,"lon":5.38443,"is_reserved":false,"is_disabled":false,"rental_uris":{"android":"levelo://app?vid=7c3477b0-5bf7-4c94-a26b-5ed6b5e3ea66","ios":"levelo://app?vid=7c3477b0-5bf7-4c94-a26b-5ed6b5e3ea66"},"vehicle_type_id":"4","last_reported":1690477541,"current_range_meters":21600,"station_id":"ce4bh692rcd13ifvqea0","pricing_plan_id":"free"},{"bike_id":"ac4a8192-665e-4cfd-9c85-6aca3ef71f12","system_id":"levelo_inurba_marseille","lat":43.292642,"lon":5.384254,"is_reserved":false,"is_disabled":false,"rental_uris":{"android":"levelo://app?vid=ac4a8192-665e-4cfd-9c85-6aca3ef71f12","ios":"levelo://app?vid=ac4a8192-665e-4cfd-9c85-6aca3ef71f12"},"vehicle_type_id":"4","last_reported":1690477541,"current_range_meters":0,"station_id":"ce4bh692rcd13ifvqea0","pricing_plan_id":"free"},{"bike_id":"e3864eaf-c340-421b-9a6c-8ae3ba98b2de","system_id":"levelo_inurba_marseille","lat":43.33043,"lon":5.38917,"is_reserved":false,"is_disabled":false,"rental_uris":{"android":"levelo://app?vid=e3864eaf-c340-421b-9a6c-8ae3ba98b2de","ios":"levelo://app?vid=e3864eaf-c340-421b-9a6c-8ae3ba98b2de"},"vehicle_type_id":"4","last_reported":1690477541,"current_range_meters":13600,"station_id":"ce4bhr92rcd13ifvqhrg","pricing_plan_id":"free"},{"bike_id":"198a91cd-f90e-44b9-b124-d15f43d9259d","system_id":"levelo_inurba_marseille","lat":43.3304,"lon":5.38922,"is_reserved":false,"is_disabled":false,"rental_uris":{"android":"levelo://app?vid=198a91cd-f90e-44b9-b124-d15f43d9259d","ios":"levelo://app?vid=198a91cd-f90e-44b9-b124-d15f43d9259d"},"vehicle_type_id":"4","last_reported":1690477541,"current_range_meters":22000,"station_id":"ce4bhr92rcd13ifvqhrg","pricing_plan_id":"free"},{"bike_id":"8a582a15-1732-4a39-8e18-6468c2289444","system_id":"levelo_inurba_marseille","lat":43.29005,"lon":5.35626,"is_reserved":false,"is_disabled":false,"rental_uris":{"android":"levelo://app?vid=8a582a15-1732-4a39-8e18-6468c2289444","ios":"levelo://app?vid=8a582a15-1732-4a39-8e18-6468c2289444"},"vehicle_type_id":"4","last_reported":1690477541,"current_range_meters":29600,"station_id":"ce4bhb92rcd13ifvqen0","pricing_plan_id":"free"},{"bike_id":"82087fa7-45ea-4904-8467-939c0b4fa50c","system_id":"levelo_inurba_marseille","lat":43.3304,"lon":5.38923,"is_reserved":false,"is_disabled":false,"rental_uris":{"android":"levelo://app?vid=82087fa7-45ea-4904-8467-939c0b4fa50c","ios":"levelo://app?vid=82087fa7-45ea-4904-8467-939c0b4fa50c"},"vehicle_type_id":"4","last_reported":1690477541,"current_range_meters":12400,"station_id":"ce4bhr92rcd13ifvqhrg","pricing_plan_id":"free"},{"bike_id":"a846516f-cf51-4ac4-8674-44addcbde20b","system_id":"levelo_inurba_marseille","lat":43.330442,"lon":5.389148,"is_reserved":false,"is_disabled":false,"rental_uris":{"android":"levelo://app?vid=a846516f-cf51-4ac4-8674-44addcbde20b","ios":"levelo://app?vid=a846516f-cf51-4ac4-8674-44addcbde20b"},"vehicle_type_id":"4","last_reported":1690477541,"current_range_meters":31200,"station_id":"ce4bhr92rcd13ifvqhrg","pricing_plan_id":"free"},{"bike_id":"3de86ded-9b62-4349-a0ea-9d49e3d4b71c","system_id":"levelo_inurba_marseille","lat":43.33043,"lon":5.38921,"is_reserved":false,"is_disabled":false,"rental_uris":{"android":"levelo://app?vid=3de86ded-9b62-4349-a0ea-9d49e3d4b71c","ios":"levelo://app?vid=3de86ded-9b62-4349-a0ea-9d49e3d4b71c"},"vehicle_type_id":"4","last_reported":1690477541,"current_range_meters":11200,"station_id":"ce4bhr92rcd13ifvqhrg","pricing_plan_id":"free"},{"bike_id":"91fec792-a5a5-4820-af7d-3c6be3109af2","system_id":"levelo_inurba_marseille","lat":43.290104,"lon":5.356111,"is_reserved":false,"is_disabled":false,"rental_uris":{"android":"levelo://app?vid=91fec792-a5a5-4820-af7d-3c6be3109af2","ios":"levelo://app?vid=91fec792-a5a5-4820-af7d-3c6be3109af2"},"vehicle_type_id":"4","last_reported":1690477541,"current_range_meters":31600,"station_id":"ce4bhb92rcd13ifvqen0","pricing_plan_id":"free"},{"bike_id":"91968ac7-8a8f-40b0-b07b-8508661b31de","system_id":"levelo_inurba_marseille","lat":43.33044,"lon":5.38921,"is_reserved":false,"is_disabled":false,"rental_uris":{"android":"levelo://app?vid=91968ac7-8a8f-40b0-b07b-8508661b31de","ios":"levelo://app?vid=91968ac7-8a8f-40b0-b07b-8508661b31de"},"vehicle_type_id":"4","last_reported":1690477541,"current_range_meters":25200,"station_id":"ce4bhr92rcd13ifvqhrg","pricing_plan_id":"free"},{"bike_id":"2c914af5-3f76-4c26-ae2e-a98cca55902c","system_id":"levelo_inurba_marseille","lat":43.33043,"lon":5.38924,"is_reserved":false,"is_disabled":false,"rental_uris":{"android":"levelo://app?vid=2c914af5-3f76-4c26-ae2e-a98cca55902c","ios":"levelo://app?vid=2c914af5-3f76-4c26-ae2e-a98cca55902c"},"vehicle_type_id":"4","last_reported":1690477541,"current_range_meters":16800,"station_id":"ce4bhr92rcd13ifvqhrg","pricing_plan_id":"free"},{"bike_id":"48f4480d-1248-4d0e-ae97-e7ca6f9de1a2","system_id":"levelo_inurba_marseille","lat":43.290031,"lon":5.356213,"is_reserved":false,"is_disabled":false,"rental_uris":{"android":"levelo://app?vid=48f4480d-1248-4d0e-ae97-e7ca6f9de1a2","ios":"levelo://app?vid=48f4480d-1248-4d0e-ae97-e7ca6f9de1a2"},"vehicle_type_id":"4","last_reported":1690477541,"current_range_meters":30400,"station_id":"ce4bhb92rcd13ifvqen0","pricing_plan_id":"free"},{"bike_id":"c0fd68c3-5def-472f-a1fe-734f386be7d1","system_id":"levelo_inurba_marseille","lat":43.290104,"lon":5.356111,"is_reserved":false,"is_disabled":false,"rental_uris":{"android":"levelo://app?vid=c0fd68c3-5def-472f-a1fe-734f386be7d1","ios":"levelo://app?vid=c0fd68c3-5def-472f-a1fe-734f386be7d1"},"vehicle_type_id":"4","last_reported":1690477541,"current_range_meters":14000,"station_id":"ce4bhb92rcd13ifvqen0","pricing_plan_id":"free"},{"bike_id":"7bd7c4fb-8298-49f8-8694-04c5f7399cd0","system_id":"levelo_inurba_marseille","lat":43.290104,"lon":5.356111,"is_reserved":false,"is_disabled":false,"rental_uris":{"android":"levelo://app?vid=7bd7c4fb-8298-49f8-8694-04c5f7399cd0","ios":"levelo://app?vid=7bd7c4fb-8298-49f8-8694-04c5f7399cd0"},"vehicle_type_id":"4","last_reported":1690477541,"current_range_meters":19200,"station_id":"ce4bhb92rcd13ifvqen0","pricing_plan_id":"free"},{"bike_id":"766cd11b-923c-4640-ae67-2dfbbb18b931","system_id":"levelo_inurba_marseille","lat":43.330442,"lon":5.389148,"is_reserved":false,"is_disabled":false,"rental_uris":{"android":"levelo://app?vid=766cd11b-923c-4640-ae67-2dfbbb18b931","ios":"levelo://app?vid=766cd11b-923c-4640-ae67-2dfbbb18b931"},"vehicle_type_id":"4","last_reported":1690477541,"current_range_meters":18800,"station_id":"ce4bhr92rcd13ifvqhrg","pricing_plan_id":"free"},{"bike_id":"ce9f2bcb-5b9e-488e-8169-585bcb1cff8b","system_id":"levelo_inurba_marseille","lat":43.33041,"lon":5.38931,"is_reserved":false,"is_disabled":false,"rental_uris":{"android":"levelo://app?vid=ce9f2bcb-5b9e-488e-8169-585bcb1cff8b","ios":"levelo://app?vid=ce9f2bcb-5b9e-488e-8169-585bcb1cff8b"},"vehicle_type_id":"4","last_reported":1690477541,"current_range_meters":13600,"station_id":"ce4bhr92rcd13ifvqhrg","pricing_plan_id":"free"},{"bike_id":"390d8486-87a7-46cd-a27f-3bd44c98582b","system_id":"levelo_inurba_marseille","lat":43.290995,"lon":5.381361,"is_reserved":false,"is_disabled":false,"rental_uris":{"android":"levelo://app?vid=390d8486-87a7-46cd-a27f-3bd44c98582b","ios":"levelo://app?vid=390d8486-87a7-46cd-a27f-3bd44c98582b"},"vehicle_type_id":"4","last_reported":1690477541,"current_range_meters":12000,"station_id":"ce4bh512rcd13ifvqe2g","pricing_plan_id":"free"},{"bike_id":"86c35661-e520-4c22-a1f0-3ccbb464931f","system_id":"levelo_inurba_marseille","lat":43.28856,"lon":5.358371,"is_reserved":false,"is_disabled":false,"rental_uris":{"android":"levelo://app?vid=86c35661-e520-4c22-a1f0-3ccbb464931f","ios":"levelo://app?vid=86c35661-e520-4c22-a1f0-3ccbb464931f"},"vehicle_type_id":"4","last_reported":1690477541,"current_range_meters":14400,"station_id":"ce4bhb12rcd13ifvqem0","pricing_plan_id":"free"},{"bike_id":"1decd955-d844-4084-ae44-2c6d18b575e6","system_id":"levelo_inurba_marseille","lat":43.309371,"lon":5.401449,"is_reserved":false,"is_disabled":false,"rental_uris":{"android":"levelo://app?vid=1decd955-d844-4084-ae44-2c6d18b575e6","ios":"levelo://app?vid=1decd955-d844-4084-ae44-2c6d18b575e6"},"vehicle_type_id":"4","last_reported":1690477541,"current_range_meters":18000,"station_id":"ce4bgvp2rcd13ifvqct0","pricing_plan_id":"free"},{"bike_id":"d01026d9-0b24-4901-892b-d85f4f77c50b","system_id":"levelo_inurba_marseille","lat":43.312609,"lon":5.401662,"is_reserved":false,"is_disabled":false,"rental_uris":{"android":"levelo://app?vid=d01026d9-0b24-4901-892b-d85f4f77c50b","ios":"levelo://app?vid=d01026d9-0b24-4901-892b-d85f4f77c50b"},"vehicle_type_id":"4","last_reported":1690477541,"current_range_meters":12400,"station_id":"ce4bh092rcd13ifvqd30","pricing_plan_id":"free"},{"bike_id":"ef1da1e2-5921-4027-b467-89edeeed0b0a","system_id":"levelo_inurba_marseille","lat":43.309366,"lon":5.401394,"is_reserved":false,"is_disabled":false,"rental_uris":{"android":"levelo://app?vid=ef1da1e2-5921-4027-b467-89edeeed0b0a","ios":"levelo://app?vid=ef1da1e2-5921-4027-b467-89edeeed0b0a"},"vehicle_type_id":"4","last_reported":1690477541,"current_range_meters":8800,"station_id":"","pricing_plan_id":"free"},{"bike_id":"a4a6159e-b0ee-4919-889c-44a22398f421","system_id":"levelo_inurba_marseille","lat":43.306565,"lon":5.400669,"is_reserved":false,"is_disabled":false,"rental_uris":{"android":"levelo://app?vid=a4a6159e-b0ee-4919-889c-44a22398f421","ios":"levelo://app?vid=a4a6159e-b0ee-4919-889c-44a22398f421"},"vehicle_type_id":"4","last_reported":1690477541,"current_range_meters":17600,"station_id":"ce4bh112rcd13ifvqda0","pricing_plan_id":"free"},{"bike_id":"8dc3dbd9-398f-4803-bada-569737a8b68b","system_id":"levelo_inurba_marseille","lat":43.309371,"lon":5.401449,"is_reserved":false,"is_disabled":false,"rental_uris":{"android":"levelo://app?vid=8dc3dbd9-398f-4803-bada-569737a8b68b","ios":"levelo://app?vid=8dc3dbd9-398f-4803-bada-569737a8b68b"},"vehicle_type_id":"4","last_reported":1690477541,"current_range_meters":24000,"station_id":"ce4bgvp2rcd13ifvqct0","pricing_plan_id":"free"},{"bike_id":"f79be861-1246-4d64-b6f7-0c0508aad5ec","system_id":"levelo_inurba_marseille","lat":43.306412,"lon":5.401035,"is_reserved":false,"is_disabled":false,"rental_uris":{"android":"levelo://app?vid=f79be861-1246-4d64-b6f7-0c0508aad5ec","ios":"levelo://app?vid=f79be861-1246-4d64-b6f7-0c0508aad5ec"},"vehicle_type_id":"4","last_reported":1690477541,"current_range_meters":800,"station_id":"ce4bh112rcd13ifvqda0","pricing_plan_id":"free"},{"bike_id":"9f120159-de13-4694-9216-9dc32678e820","system_id":"levelo_inurba_marseille","lat":43.30937,"lon":5.40147,"is_reserved":false,"is_disabled":false,"rental_uris":{"android":"levelo://app?vid=9f120159-de13-4694-9216-9dc32678e820","ios":"levelo://app?vid=9f120159-de13-4694-9216-9dc32678e820"},"vehicle_type_id":"4","last_reported":1690477541,"current_range_meters":24000,"station_id":"ce4bgvp2rcd13ifvqct0","pricing_plan_id":"free"},{"bike_id":"800fc388-57a1-42c9-81cd-46ad6a07518f","system_id":"levelo_inurba_marseille","lat":43.31268,"lon":5.40179,"is_reserved":false,"is_disabled":false,"rental_uris":{"android":"levelo://app?vid=800fc388-57a1-42c9-81cd-46ad6a07518f","ios":"levelo://app?vid=800fc388-57a1-42c9-81cd-46ad6a07518f"},"vehicle_type_id":"4","last_reported":1690477541,"current_range_meters":0,"station_id":"ce4bh092rcd13ifvqd30","pricing_plan_id":"free"},{"bike_id":"47c01790-5be0-4e2a-b05c-5bde178b3321","system_id":"levelo_inurba_marseille","lat":43.3064,"lon":5.40082,"is_reserved":false,"is_disabled":false,"rental_uris":{"android":"levelo://app?vid=47c01790-5be0-4e2a-b05c-5bde178b3321","ios":"levelo://app?vid=47c01790-5be0-4e2a-b05c-5bde178b3321"},"vehicle_type_id":"4","last_reported":1690477541,"current_range_meters":31200,"station_id":"ce4bh112rcd13ifvqda0","pricing_plan_id":"free"},{"bike_id":"6ae4a943-d13f-4bd0-89d2-f88f64b3ff79","system_id":"levelo_inurba_marseille","lat":43.30648,"lon":5.40099,"is_reserved":false,"is_disabled":false,"rental_uris":{"android":"levelo://app?vid=6ae4a943-d13f-4bd0-89d2-f88f64b3ff79","ios":"levelo://app?vid=6ae4a943-d13f-4bd0-89d2-f88f64b3ff79"},"vehicle_type_id":"4","last_reported":1690477541,"current_range_meters":16000,"station_id":"ce4bh112rcd13ifvqda0","pricing_plan_id":"free"},{"bike_id":"3c8afac5-ce7b-405a-b9f1-92a69f4a5fa0","system_id":"levelo_inurba_marseille","lat":43.30638,"lon":5.401054,"is_reserved":false,"is_disabled":false,"rental_uris":{"android":"levelo://app?vid=3c8afac5-ce7b-405a-b9f1-92a69f4a5fa0","ios":"levelo://app?vid=3c8afac5-ce7b-405a-b9f1-92a69f4a5fa0"},"vehicle_type_id":"4","last_reported":1690477541,"current_range_meters":27200,"station_id":"","pricing_plan_id":"free"},{"bike_id":"eb6a362b-16a5-43c4-98c7-9efb9feec5de","system_id":"levelo_inurba_marseille","lat":43.30639,"lon":5.401084,"is_reserved":false,"is_disabled":false,"rental_uris":{"android":"levelo://app?vid=eb6a362b-16a5-43c4-98c7-9efb9feec5de","ios":"levelo://app?vid=eb6a362b-16a5-43c4-98c7-9efb9feec5de"},"vehicle_type_id":"4","last_reported":1690477541,"current_range_meters":29600,"station_id":"ce4bh112rcd13ifvqda0","pricing_plan_id":"free"},{"bike_id":"8aa999ca-3ca5-452b-a524-d60c6122a840","system_id":"levelo_inurba_marseille","lat":43.301117,"lon":5.398795,"is_reserved":false,"is_disabled":false,"rental_uris":{"android":"levelo://app?vid=8aa999ca-3ca5-452b-a524-d60c6122a840","ios":"levelo://app?vid=8aa999ca-3ca5-452b-a524-d60c6122a840"},"vehicle_type_id":"4","last_reported":1690477541,"current_range_meters":8400,"station_id":"ce4bh0h2rcd13ifvqd40","pricing_plan_id":"free"},{"bike_id":"6797c499-6c77-4400-af56-357ea45989d8","system_id":"levelo_inurba_marseille","lat":43.306395,"lon":5.401136,"is_reserved":false,"is_disabled":false,"rental_uris":{"android":"levelo://app?vid=6797c499-6c77-4400-af56-357ea45989d8","ios":"levelo://app?vid=6797c499-6c77-4400-af56-357ea45989d8"},"vehicle_type_id":"4","last_reported":1690477541,"current_range_meters":31200,"station_id":"ce4bh112rcd13ifvqda0","pricing_plan_id":"free"},{"bike_id":"6fbc122b-007c-4755-a8c0-9d45194b757d","system_id":"levelo_inurba_marseille","lat":43.306399,"lon":5.401153,"is_reserved":false,"is_disabled":false,"rental_uris":{"android":"levelo://app?vid=6fbc122b-007c-4755-a8c0-9d45194b757d","ios":"levelo://app?vid=6fbc122b-007c-4755-a8c0-9d45194b757d"},"vehicle_type_id":"4","last_reported":1690477541,"current_range_meters":2800,"station_id":"ce4bh112rcd13ifvqda0","pricing_plan_id":"free"},{"bike_id":"a75d2ef2-f681-4862-a542-2077bb7b5d2b","system_id":"levelo_inurba_marseille","lat":43.30139,"lon":5.39881,"is_reserved":false,"is_disabled":false,"rental_uris":{"android":"levelo://app?vid=a75d2ef2-f681-4862-a542-2077bb7b5d2b","ios":"levelo://app?vid=a75d2ef2-f681-4862-a542-2077bb7b5d2b"},"vehicle_type_id":"4","last_reported":1690477541,"current_range_meters":13600,"station_id":"ce4bh0h2rcd13ifvqd40","pricing_plan_id":"free"},{"bike_id":"658d77a9-8e6a-4020-9205-f7aa194bbb2f","system_id":"levelo_inurba_marseille","lat":43.290336,"lon":5.386425,"is_reserved":false,"is_disabled":false,"rental_uris":{"android":"levelo://app?vid=658d77a9-8e6a-4020-9205-f7aa194bbb2f","ios":"levelo://app?vid=658d77a9-8e6a-4020-9205-f7aa194bbb2f"},"vehicle_type_id":"4","last_reported":1690477541,"current_range_meters":9200,"station_id":"ce4bh4p2rcd13ifvqe0g","pricing_plan_id":"free"},{"bike_id":"0ff151df-2a05-4f87-a66c-9922f3a4f395","system_id":"levelo_inurba_marseille","lat":43.298681,"lon":5.397225,"is_reserved":false,"is_disabled":false,"rental_uris":{"android":"levelo://app?vid=0ff151df-2a05-4f87-a66c-9922f3a4f395","ios":"levelo://app?vid=0ff151df-2a05-4f87-a66c-9922f3a4f395"},"vehicle_type_id":"4","last_reported":1690477541,"current_range_meters":22800,"station_id":"ce4bh0h2rcd13ifvqd50","pricing_plan_id":"free"},{"bike_id":"72c6e5fc-446f-4d04-a411-272b7706513e","system_id":"levelo_inurba_marseille","lat":43.286664,"lon":5.363459,"is_reserved":false,"is_disabled":false,"rental_uris":{"android":"levelo://app?vid=72c6e5fc-446f-4d04-a411-272b7706513e","ios":"levelo://app?vid=72c6e5fc-446f-4d04-a411-272b7706513e"},"vehicle_type_id":"4","last_reported":1690477541,"current_range_meters":6400,"station_id":"","pricing_plan_id":"free"},{"bike_id":"da05bb0f-9925-4a9a-bf30-5975c4b7ebd0","system_id":"levelo_inurba_marseille","lat":43.298681,"lon":5.397225,"is_reserved":false,"is_disabled":false,"rental_uris":{"android":"levelo://app?vid=da05bb0f-9925-4a9a-bf30-5975c4b7ebd0","ios":"levelo://app?vid=da05bb0f-9925-4a9a-bf30-5975c4b7ebd0"},"vehicle_type_id":"4","last_reported":1690477541,"current_range_meters":7200,"station_id":"ce4bh0h2rcd13ifvqd50","pricing_plan_id":"free"},{"bike_id":"6a2f81a6-1ee6-4650-ac13-24c33bf0fbb2","system_id":"levelo_inurba_marseille","lat":43.298681,"lon":5.397225,"is_reserved":false,"is_disabled":false,"rental_uris":{"android":"levelo://app?vid=6a2f81a6-1ee6-4650-ac13-24c33bf0fbb2","ios":"levelo://app?vid=6a2f81a6-1ee6-4650-ac13-24c33bf0fbb2"},"vehicle_type_id":"4","last_reported":1690477541,"current_range_meters":22400,"station_id":"ce4bh0h2rcd13ifvqd50","pricing_plan_id":"free"},{"bike_id":"d62949fa-a49b-46a5-9b6d-0053d794202f","system_id":"levelo_inurba_marseille","lat":43.298681,"lon":5.397225,"is_reserved":false,"is_disabled":false,"rental_uris":{"android":"levelo://app?vid=d62949fa-a49b-46a5-9b6d-0053d794202f","ios":"levelo://app?vid=d62949fa-a49b-46a5-9b6d-0053d794202f"},"vehicle_type_id":"4","last_reported":1690477541,"current_range_meters":19600,"station_id":"ce4bh0h2rcd13ifvqd50","pricing_plan_id":"free"},{"bike_id":"83b359df-d257-4bd0-8a58-56026e2f0a9d","system_id":"levelo_inurba_marseille","lat":43.287,"lon":5.37388,"is_reserved":false,"is_disabled":false,"rental_uris":{"android":"levelo://app?vid=83b359df-d257-4bd0-8a58-56026e2f0a9d","ios":"levelo://app?vid=83b359df-d257-4bd0-8a58-56026e2f0a9d"},"vehicle_type_id":"4","last_reported":1690477541,"current_range_meters":17600,"station_id":"ce4bh3p2rcd13ifvqdq0","pricing_plan_id":"free"},{"bike_id":"75199276-b705-4ad7-b6a9-49aeaa84628a","system_id":"levelo_inurba_marseille","lat":43.286591,"lon":5.363346,"is_reserved":false,"is_disabled":false,"rental_uris":{"android":"levelo://app?vid=75199276-b705-4ad7-b6a9-49aeaa84628a","ios":"levelo://app?vid=75199276-b705-4ad7-b6a9-49aeaa84628a"},"vehicle_type_id":"4","last_reported":1690477541,"current_range_meters":31600,"station_id":"ce4bhah2rcd13ifvqej0","pricing_plan_id":"free"},{"bike_id":"50501217-9d9c-41dd-9cb3-a6eb038205b1","system_id":"levelo_inurba_marseille","lat":43.287,"lon":5.37394,"is_reserved":false,"is_disabled":false,"rental_uris":{"android":"levelo://app?vid=50501217-9d9c-41dd-9cb3-a6eb038205b1","ios":"levelo://app?vid=50501217-9d9c-41dd-9cb3-a6eb038205b1"},"vehicle_type_id":"4","last_reported":1690477541,"current_range_meters":24400,"station_id":"ce4bh3p2rcd13ifvqdq0","pricing_plan_id":"free"},{"bike_id":"7de5e295-61e8-4501-a432-d14093319769","system_id":"levelo_inurba_marseille","lat":43.286593,"lon":5.363346,"is_reserved":false,"is_disabled":false,"rental_uris":{"android":"levelo://app?vid=7de5e295-61e8-4501-a432-d14093319769","ios":"levelo://app?vid=7de5e295-61e8-4501-a432-d14093319769"},"vehicle_type_id":"4","last_reported":1690477541,"current_range_meters":26000,"station_id":"ce4bhah2rcd13ifvqej0","pricing_plan_id":"free"},{"bike_id":"c7fe8540-c430-4dc4-a137-ff0f5edb43c1","system_id":"levelo_inurba_marseille","lat":43.286593,"lon":5.363346,"is_reserved":false,"is_disabled":false,"rental_uris":{"android":"levelo://app?vid=c7fe8540-c430-4dc4-a137-ff0f5edb43c1","ios":"levelo://app?vid=c7fe8540-c430-4dc4-a137-ff0f5edb43c1"},"vehicle_type_id":"4","last_reported":1690477541,"current_range_meters":16800,"station_id":"ce4bhah2rcd13ifvqej0","pricing_plan_id":"free"},{"bike_id":"b455de11-1783-49ce-9757-b18c85769647","system_id":"levelo_inurba_marseille","lat":43.295194,"lon":5.39397,"is_reserved":false,"is_disabled":false,"rental_uris":{"android":"levelo://app?vid=b455de11-1783-49ce-9757-b18c85769647","ios":"levelo://app?vid=b455de11-1783-49ce-9757-b18c85769647"},"vehicle_type_id":"4","last_reported":1690477541,"current_range_meters":2400,"station_id":"ce4bh292rcd13ifvqdf0","pricing_plan_id":"free"},{"bike_id":"665c10cc-421d-465a-9912-7af31da45cbf","system_id":"levelo_inurba_marseille","lat":43.29517,"lon":5.39399,"is_reserved":false,"is_disabled":false,"rental_uris":{"android":"levelo://app?vid=665c10cc-421d-465a-9912-7af31da45cbf","ios":"levelo://app?vid=665c10cc-421d-465a-9912-7af31da45cbf"},"vehicle_type_id":"4","last_reported":1690477541,"current_range_meters":14800,"station_id":"","pricing_plan_id":"free"},{"bike_id":"b0c130ec-39aa-4b3f-8b62-e1277750003a","system_id":"levelo_inurba_marseille","lat":43.295194,"lon":5.39397,"is_reserved":false,"is_disabled":false,"rental_uris":{"android":"levelo://app?vid=b0c130ec-39aa-4b3f-8b62-e1277750003a","ios":"levelo://app?vid=b0c130ec-39aa-4b3f-8b62-e1277750003a"},"vehicle_type_id":"4","last_reported":1690477541,"current_range_meters":8400,"station_id":"ce4bh292rcd13ifvqdf0","pricing_plan_id":"free"},{"bike_id":"04448119-3247-4e3c-85e5-d74febdca6ba","system_id":"levelo_inurba_marseille","lat":43.295194,"lon":5.39397,"is_reserved":false,"is_disabled":false,"rental_uris":{"android":"levelo://app?vid=04448119-3247-4e3c-85e5-d74febdca6ba","ios":"levelo://app?vid=04448119-3247-4e3c-85e5-d74febdca6ba"},"vehicle_type_id":"4","last_reported":1690477541,"current_range_meters":26000,"station_id":"ce4bh292rcd13ifvqdf0","pricing_plan_id":"free"},{"bike_id":"dab728be-c399-4736-b149-b2f9cff38789","system_id":"levelo_inurba_marseille","lat":43.302759,"lon":5.400793,"is_reserved":false,"is_disabled":false,"rental_uris":{"android":"levelo://app?vid=dab728be-c399-4736-b149-b2f9cff38789","ios":"levelo://app?vid=dab728be-c399-4736-b149-b2f9cff38789"},"vehicle_type_id":"4","last_reported":1690477541,"current_range_meters":26000,"station_id":"ce4bgvh2rcd13ifvqcs0","pricing_plan_id":"free"},{"bike_id":"9228ca5b-abb7-4d24-bc8e-dd3469bf4092","system_id":"levelo_inurba_marseille","lat":43.30243,"lon":5.40057,"is_reserved":false,"is_disabled":false,"rental_uris":{"android":"levelo://app?vid=9228ca5b-abb7-4d24-bc8e-dd3469bf4092","ios":"levelo://app?vid=9228ca5b-abb7-4d24-bc8e-dd3469bf4092"},"vehicle_type_id":"4","last_reported":1690477541,"current_range_meters":4000,"station_id":"","pricing_plan_id":"free"},{"bike_id":"f1cce63a-92d2-414c-be1c-90d37cf3eac4","system_id":"levelo_inurba_marseille","lat":43.290336,"lon":5.386425,"is_reserved":false,"is_disabled":false,"rental_uris":{"android":"levelo://app?vid=f1cce63a-92d2-414c-be1c-90d37cf3eac4","ios":"levelo://app?vid=f1cce63a-92d2-414c-be1c-90d37cf3eac4"},"vehicle_type_id":"4","last_reported":1690477541,"current_range_meters":19200,"station_id":"ce4bh4p2rcd13ifvqe0g","pricing_plan_id":"free"},{"bike_id":"d34b67c9-a679-470c-a8b0-9df665a9aa73","system_id":"levelo_inurba_marseille","lat":43.286039,"lon":5.370679,"is_reserved":false,"is_disabled":false,"rental_uris":{"android":"levelo://app?vid=d34b67c9-a679-470c-a8b0-9df665a9aa73","ios":"levelo://app?vid=d34b67c9-a679-470c-a8b0-9df665a9aa73"},"vehicle_type_id":"4","last_reported":1690477541,"current_range_meters":24800,"station_id":"ce4bht12rcd13ifvqi60","pricing_plan_id":"free"},{"bike_id":"2a7f0f6e-8293-42c7-a9e1-c67d12cdc345","system_id":"levelo_inurba_marseille","lat":43.28611,"lon":5.37063,"is_reserved":false,"is_disabled":false,"rental_uris":{"android":"levelo://app?vid=2a7f0f6e-8293-42c7-a9e1-c67d12cdc345","ios":"levelo://app?vid=2a7f0f6e-8293-42c7-a9e1-c67d12cdc345"},"vehicle_type_id":"4","last_reported":1690477541,"current_range_meters":24400,"station_id":"ce4bht12rcd13ifvqi60","pricing_plan_id":"free"},{"bike_id":"4f3b8c94-8be8-41d6-8319-dba2f6615c57","system_id":"levelo_inurba_marseille","lat":43.286039,"lon":5.370681,"is_reserved":false,"is_disabled":false,"rental_uris":{"android":"levelo://app?vid=4f3b8c94-8be8-41d6-8319-dba2f6615c57","ios":"levelo://app?vid=4f3b8c94-8be8-41d6-8319-dba2f6615c57"},"vehicle_type_id":"4","last_reported":1690477541,"current_range_meters":17200,"station_id":"ce4bht12rcd13ifvqi60","pricing_plan_id":"free"},{"bike_id":"fdbd85af-fa8a-4b6f-9429-47c53bb40c9d","system_id":"levelo_inurba_marseille","lat":43.286039,"lon":5.370681,"is_reserved":false,"is_disabled":false,"rental_uris":{"android":"levelo://app?vid=fdbd85af-fa8a-4b6f-9429-47c53bb40c9d","ios":"levelo://app?vid=fdbd85af-fa8a-4b6f-9429-47c53bb40c9d"},"vehicle_type_id":"4","last_reported":1690477541,"current_range_meters":5600,"station_id":"ce4bht12rcd13ifvqi60","pricing_plan_id":"free"},{"bike_id":"aa6b5648-5cb5-4222-abcb-a25e4de66823","system_id":"levelo_inurba_marseille","lat":43.28605,"lon":5.37067,"is_reserved":false,"is_disabled":false,"rental_uris":{"android":"levelo://app?vid=aa6b5648-5cb5-4222-abcb-a25e4de66823","ios":"levelo://app?vid=aa6b5648-5cb5-4222-abcb-a25e4de66823"},"vehicle_type_id":"4","last_reported":1690477541,"current_range_meters":26000,"station_id":"ce4bht12rcd13ifvqi60","pricing_plan_id":"free"},{"bike_id":"fb92814a-c9cc-4331-b7ce-89f942020fed","system_id":"levelo_inurba_marseille","lat":43.28723,"lon":5.37933,"is_reserved":false,"is_disabled":false,"rental_uris":{"android":"levelo://app?vid=fb92814a-c9cc-4331-b7ce-89f942020fed","ios":"levelo://app?vid=fb92814a-c9cc-4331-b7ce-89f942020fed"},"vehicle_type_id":"4","last_reported":1690477541,"current_range_meters":19200,"station_id":"","pricing_plan_id":"free"},{"bike_id":"7589a71d-ae0b-49f9-87d5-b317cf1b4656","system_id":"levelo_inurba_marseille","lat":43.31651,"lon":5.40435,"is_reserved":false,"is_disabled":false,"rental_uris":{"android":"levelo://app?vid=7589a71d-ae0b-49f9-87d5-b317cf1b4656","ios":"levelo://app?vid=7589a71d-ae0b-49f9-87d5-b317cf1b4656"},"vehicle_type_id":"4","last_reported":1690477541,"current_range_meters":18000,"station_id":"ce4bh012rcd13ifvqd00","pricing_plan_id":"free"},{"bike_id":"96b3d50d-4c45-4887-bbf0-20b52955af20","system_id":"levelo_inurba_marseille","lat":43.291994,"lon":5.392907,"is_reserved":false,"is_disabled":false,"rental_uris":{"android":"levelo://app?vid=96b3d50d-4c45-4887-bbf0-20b52955af20","ios":"levelo://app?vid=96b3d50d-4c45-4887-bbf0-20b52955af20"},"vehicle_type_id":"4","last_reported":1690477541,"current_range_meters":30400,"station_id":"ce4bh192rcd13ifvqdd0","pricing_plan_id":"free"},{"bike_id":"2c1ae7dc-86e4-4b7c-9dc0-c825334835e0","system_id":"levelo_inurba_marseille","lat":43.284538,"lon":5.358657,"is_reserved":false,"is_disabled":false,"rental_uris":{"android":"levelo://app?vid=2c1ae7dc-86e4-4b7c-9dc0-c825334835e0","ios":"levelo://app?vid=2c1ae7dc-86e4-4b7c-9dc0-c825334835e0"},"vehicle_type_id":"4","last_reported":1690477541,"current_range_meters":14000,"station_id":"ce4bhah2rcd13ifvqei0","pricing_plan_id":"free"},{"bike_id":"27d13b57-1fcc-4977-a894-5400133fdb3b","system_id":"levelo_inurba_marseille","lat":43.284538,"lon":5.358657,"is_reserved":false,"is_disabled":false,"rental_uris":{"android":"levelo://app?vid=27d13b57-1fcc-4977-a894-5400133fdb3b","ios":"levelo://app?vid=27d13b57-1fcc-4977-a894-5400133fdb3b"},"vehicle_type_id":"4","last_reported":1690477541,"current_range_meters":10800,"station_id":"ce4bhah2rcd13ifvqei0","pricing_plan_id":"free"},{"bike_id":"d349f50d-c2d2-4500-9629-91d9e0e366de","system_id":"levelo_inurba_marseille","lat":43.28618,"lon":5.35105,"is_reserved":false,"is_disabled":false,"rental_uris":{"android":"levelo://app?vid=d349f50d-c2d2-4500-9629-91d9e0e366de","ios":"levelo://app?vid=d349f50d-c2d2-4500-9629-91d9e0e366de"},"vehicle_type_id":"4","last_reported":1690477541,"current_range_meters":22800,"station_id":"ce4bhch2rcd13ifvqeug","pricing_plan_id":"free"},{"bike_id":"8a9bd529-d0e0-4f9a-a506-c904b1f1e5ac","system_id":"levelo_inurba_marseille","lat":43.286171,"lon":5.351027,"is_reserved":false,"is_disabled":false,"rental_uris":{"android":"levelo://app?vid=8a9bd529-d0e0-4f9a-a506-c904b1f1e5ac","ios":"levelo://app?vid=8a9bd529-d0e0-4f9a-a506-c904b1f1e5ac"},"vehicle_type_id":"4","last_reported":1690477541,"current_range_meters":19200,"station_id":"ce4bhch2rcd13ifvqeug","pricing_plan_id":"free"},{"bike_id":"d7374f7e-2ddd-4f78-917c-54ac5dd7554a","system_id":"levelo_inurba_marseille","lat":43.28616,"lon":5.35101,"is_reserved":false,"is_disabled":false,"rental_uris":{"android":"levelo://app?vid=d7374f7e-2ddd-4f78-917c-54ac5dd7554a","ios":"levelo://app?vid=d7374f7e-2ddd-4f78-917c-54ac5dd7554a"},"vehicle_type_id":"4","last_reported":1690477541,"current_range_meters":25600,"station_id":"ce4bhch2rcd13ifvqeug","pricing_plan_id":"free"},{"bike_id":"a8c051c8-4e0c-4cb7-8da7-065eedb1eb91","system_id":"levelo_inurba_marseille","lat":43.28612,"lon":5.35109,"is_reserved":false,"is_disabled":false,"rental_uris":{"android":"levelo://app?vid=a8c051c8-4e0c-4cb7-8da7-065eedb1eb91","ios":"levelo://app?vid=a8c051c8-4e0c-4cb7-8da7-065eedb1eb91"},"vehicle_type_id":"4","last_reported":1690477541,"current_range_meters":6800,"station_id":"ce4bhch2rcd13ifvqeug","pricing_plan_id":"free"},{"bike_id":"339cdf6e-a9e5-43b9-bd00-6a4c805a5e3c","system_id":"levelo_inurba_marseille","lat":43.28612,"lon":5.35099,"is_reserved":false,"is_disabled":false,"rental_uris":{"android":"levelo://app?vid=339cdf6e-a9e5-43b9-bd00-6a4c805a5e3c","ios":"levelo://app?vid=339cdf6e-a9e5-43b9-bd00-6a4c805a5e3c"},"vehicle_type_id":"4","last_reported":1690477541,"current_range_meters":31200,"station_id":"ce4bhch2rcd13ifvqeug","pricing_plan_id":"free"},{"bike_id":"e639db23-05f7-4ce7-bc7d-9ba2be6163f8","system_id":"levelo_inurba_marseille","lat":43.28429,"lon":5.37509,"is_reserved":false,"is_disabled":false,"rental_uris":{"android":"levelo://app?vid=e639db23-05f7-4ce7-bc7d-9ba2be6163f8","ios":"levelo://app?vid=e639db23-05f7-4ce7-bc7d-9ba2be6163f8"},"vehicle_type_id":"4","last_reported":1690477541,"current_range_meters":21600,"station_id":"ce4bh412rcd13ifvqds0","pricing_plan_id":"free"},{"bike_id":"f8c8ff3a-6fd5-4cb2-8c20-4f40dd4137c3","system_id":"levelo_inurba_marseille","lat":43.28406,"lon":5.37524,"is_reserved":false,"is_disabled":false,"rental_uris":{"android":"levelo://app?vid=f8c8ff3a-6fd5-4cb2-8c20-4f40dd4137c3","ios":"levelo://app?vid=f8c8ff3a-6fd5-4cb2-8c20-4f40dd4137c3"},"vehicle_type_id":"4","last_reported":1690477541,"current_range_meters":29600,"station_id":"ce4bh412rcd13ifvqds0","pricing_plan_id":"free"},{"bike_id":"52e57301-ce0a-45d9-9d6d-0027a149c670","system_id":"levelo_inurba_marseille","lat":43.295713,"lon":5.399639,"is_reserved":false,"is_disabled":false,"rental_uris":{"android":"levelo://app?vid=52e57301-ce0a-45d9-9d6d-0027a149c670","ios":"levelo://app?vid=52e57301-ce0a-45d9-9d6d-0027a149c670"},"vehicle_type_id":"4","last_reported":1690477541,"current_range_meters":31200,"station_id":"ce4bh312rcd13ifvqdj0","pricing_plan_id":"free"},{"bike_id":"8940d814-69a7-4058-89cd-355f478b977c","system_id":"levelo_inurba_marseille","lat":43.295713,"lon":5.399639,"is_reserved":false,"is_disabled":false,"rental_uris":{"android":"levelo://app?vid=8940d814-69a7-4058-89cd-355f478b977c","ios":"levelo://app?vid=8940d814-69a7-4058-89cd-355f478b977c"},"vehicle_type_id":"4","last_reported":1690477541,"current_range_meters":25200,"station_id":"ce4bh312rcd13ifvqdj0","pricing_plan_id":"free"},{"bike_id":"309ef4c6-8422-437f-81ef-42df28ff1da5","system_id":"levelo_inurba_marseille","lat":43.295713,"lon":5.399639,"is_reserved":false,"is_disabled":false,"rental_uris":{"android":"levelo://app?vid=309ef4c6-8422-437f-81ef-42df28ff1da5","ios":"levelo://app?vid=309ef4c6-8422-437f-81ef-42df28ff1da5"},"vehicle_type_id":"4","last_reported":1690477541,"current_range_meters":31200,"station_id":"ce4bh312rcd13ifvqdj0","pricing_plan_id":"free"},{"bike_id":"36d6f225-2837-4b8f-a98d-8578f2117a1b","system_id":"levelo_inurba_marseille","lat":43.28399,"lon":5.37521,"is_reserved":false,"is_disabled":false,"rental_uris":{"android":"levelo://app?vid=36d6f225-2837-4b8f-a98d-8578f2117a1b","ios":"levelo://app?vid=36d6f225-2837-4b8f-a98d-8578f2117a1b"},"vehicle_type_id":"4","last_reported":1690477541,"current_range_meters":10800,"station_id":"","pricing_plan_id":"free"},{"bike_id":"0a407db7-c57b-4b5e-bfab-80db5b2216b2","system_id":"levelo_inurba_marseille","lat":43.295713,"lon":5.399639,"is_reserved":false,"is_disabled":false,"rental_uris":{"android":"levelo://app?vid=0a407db7-c57b-4b5e-bfab-80db5b2216b2","ios":"levelo://app?vid=0a407db7-c57b-4b5e-bfab-80db5b2216b2"},"vehicle_type_id":"4","last_reported":1690477541,"current_range_meters":21200,"station_id":"ce4bh312rcd13ifvqdj0","pricing_plan_id":"free"},{"bike_id":"5a84961b-43f6-48ca-9ca2-8512e9156ccd","system_id":"levelo_inurba_marseille","lat":43.31884,"lon":5.40738,"is_reserved":false,"is_disabled":false,"rental_uris":{"android":"levelo://app?vid=5a84961b-43f6-48ca-9ca2-8512e9156ccd","ios":"levelo://app?vid=5a84961b-43f6-48ca-9ca2-8512e9156ccd"},"vehicle_type_id":"4","last_reported":1690477541,"current_range_meters":800,"station_id":"ce4bhq12rcd13ifvqhig","pricing_plan_id":"free"},{"bike_id":"c0a6afb9-1692-4a39-8810-166ee5e6984c","system_id":"levelo_inurba_marseille","lat":43.31887,"lon":5.40742,"is_reserved":false,"is_disabled":false,"rental_uris":{"android":"levelo://app?vid=c0a6afb9-1692-4a39-8810-166ee5e6984c","ios":"levelo://app?vid=c0a6afb9-1692-4a39-8810-166ee5e6984c"},"vehicle_type_id":"4","last_reported":1690477541,"current_range_meters":21600,"station_id":"ce4bhq12rcd13ifvqhig","pricing_plan_id":"free"},{"bike_id":"c0c8e2fd-0464-4388-9acf-19c0edc181ad","system_id":"levelo_inurba_marseille","lat":43.31892,"lon":5.40742,"is_reserved":false,"is_disabled":false,"rental_uris":{"android":"levelo://app?vid=c0c8e2fd-0464-4388-9acf-19c0edc181ad","ios":"levelo://app?vid=c0c8e2fd-0464-4388-9acf-19c0edc181ad"},"vehicle_type_id":"4","last_reported":1690477541,"current_range_meters":31200,"station_id":"ce4bhq12rcd13ifvqhig","pricing_plan_id":"free"},{"bike_id":"7e209f61-3c45-427c-ae4d-e4269e2dda66","system_id":"levelo_inurba_marseille","lat":43.33716,"lon":5.39171,"is_reserved":false,"is_disabled":false,"rental_uris":{"android":"levelo://app?vid=7e209f61-3c45-427c-ae4d-e4269e2dda66","ios":"levelo://app?vid=7e209f61-3c45-427c-ae4d-e4269e2dda66"},"vehicle_type_id":"4","last_reported":1690477541,"current_range_meters":23600,"station_id":"ce4bhr92rcd13ifvqhsg","pricing_plan_id":"free"},{"bike_id":"838a4aae-6542-4395-bd1f-0c01c6ad5d93","system_id":"levelo_inurba_marseille","lat":43.33723,"lon":5.39176,"is_reserved":false,"is_disabled":false,"rental_uris":{"android":"levelo://app?vid=838a4aae-6542-4395-bd1f-0c01c6ad5d93","ios":"levelo://app?vid=838a4aae-6542-4395-bd1f-0c01c6ad5d93"},"vehicle_type_id":"4","last_reported":1690477541,"current_range_meters":16800,"station_id":"ce4bhr92rcd13ifvqhsg","pricing_plan_id":"free"},{"bike_id":"bfba1d51-c352-4de8-b042-a36245d6322f","system_id":"levelo_inurba_marseille","lat":43.33722,"lon":5.39179,"is_reserved":false,"is_disabled":false,"rental_uris":{"android":"levelo://app?vid=bfba1d51-c352-4de8-b042-a36245d6322f","ios":"levelo://app?vid=bfba1d51-c352-4de8-b042-a36245d6322f"},"vehicle_type_id":"4","last_reported":1690477541,"current_range_meters":30400,"station_id":"ce4bhr92rcd13ifvqhsg","pricing_plan_id":"free"},{"bike_id":"196b3f00-7f14-43ae-bd6a-23f143c9bc08","system_id":"levelo_inurba_marseille","lat":43.33721,"lon":5.39181,"is_reserved":false,"is_disabled":false,"rental_uris":{"android":"levelo://app?vid=196b3f00-7f14-43ae-bd6a-23f143c9bc08","ios":"levelo://app?vid=196b3f00-7f14-43ae-bd6a-23f143c9bc08"},"vehicle_type_id":"4","last_reported":1690477541,"current_range_meters":15600,"station_id":"ce4bhr92rcd13ifvqhsg","pricing_plan_id":"free"},{"bike_id":"ee2e399c-5d81-4618-b3b6-2e52257eac7c","system_id":"levelo_inurba_marseille","lat":43.337168,"lon":5.391825,"is_reserved":false,"is_disabled":false,"rental_uris":{"android":"levelo://app?vid=ee2e399c-5d81-4618-b3b6-2e52257eac7c","ios":"levelo://app?vid=ee2e399c-5d81-4618-b3b6-2e52257eac7c"},"vehicle_type_id":"4","last_reported":1690477541,"current_range_meters":30800,"station_id":"ce4bhr92rcd13ifvqhsg","pricing_plan_id":"free"},{"bike_id":"82eea2a7-ee61-4e0b-9974-6f0dcf4765a9","system_id":"levelo_inurba_marseille","lat":43.323464,"lon":5.406297,"is_reserved":false,"is_disabled":false,"rental_uris":{"android":"levelo://app?vid=82eea2a7-ee61-4e0b-9974-6f0dcf4765a9","ios":"levelo://app?vid=82eea2a7-ee61-4e0b-9974-6f0dcf4765a9"},"vehicle_type_id":"4","last_reported":1690477541,"current_range_meters":31200,"station_id":"ce4bhq92rcd13ifvqhjg","pricing_plan_id":"free"},{"bike_id":"b4201f45-72fc-4952-aba8-c29b26b5cb66","system_id":"levelo_inurba_marseille","lat":43.337168,"lon":5.391825,"is_reserved":false,"is_disabled":false,"rental_uris":{"android":"levelo://app?vid=b4201f45-72fc-4952-aba8-c29b26b5cb66","ios":"levelo://app?vid=b4201f45-72fc-4952-aba8-c29b26b5cb66"},"vehicle_type_id":"4","last_reported":1690477541,"current_range_meters":30400,"station_id":"ce4bhr92rcd13ifvqhsg","pricing_plan_id":"free"},{"bike_id":"a2c1a841-d1f9-400b-92eb-b47f93c74a3b","system_id":"levelo_inurba_marseille","lat":43.33726,"lon":5.39181,"is_reserved":false,"is_disabled":false,"rental_uris":{"android":"levelo://app?vid=a2c1a841-d1f9-400b-92eb-b47f93c74a3b","ios":"levelo://app?vid=a2c1a841-d1f9-400b-92eb-b47f93c74a3b"},"vehicle_type_id":"4","last_reported":1690477541,"current_range_meters":28400,"station_id":"ce4bhr92rcd13ifvqhsg","pricing_plan_id":"free"},{"bike_id":"fa201935-bc88-4796-b35e-043bd94a47de","system_id":"levelo_inurba_marseille","lat":43.33728,"lon":5.39178,"is_reserved":false,"is_disabled":false,"rental_uris":{"android":"levelo://app?vid=fa201935-bc88-4796-b35e-043bd94a47de","ios":"levelo://app?vid=fa201935-bc88-4796-b35e-043bd94a47de"},"vehicle_type_id":"4","last_reported":1690477541,"current_range_meters":30400,"station_id":"ce4bhr92rcd13ifvqhsg","pricing_plan_id":"free"},{"bike_id":"cc3eab38-9c21-4228-b321-5f66510d7666","system_id":"levelo_inurba_marseille","lat":43.323464,"lon":5.406297,"is_reserved":false,"is_disabled":false,"rental_uris":{"android":"levelo://app?vid=cc3eab38-9c21-4228-b321-5f66510d7666","ios":"levelo://app?vid=cc3eab38-9c21-4228-b321-5f66510d7666"},"vehicle_type_id":"4","last_reported":1690477541,"current_range_meters":31200,"station_id":"ce4bhq92rcd13ifvqhjg","pricing_plan_id":"free"},{"bike_id":"f2197b32-1790-4499-9acb-48b384ecc478","system_id":"levelo_inurba_marseille","lat":43.337168,"lon":5.391825,"is_reserved":false,"is_disabled":false,"rental_uris":{"android":"levelo://app?vid=f2197b32-1790-4499-9acb-48b384ecc478","ios":"levelo://app?vid=f2197b32-1790-4499-9acb-48b384ecc478"},"vehicle_type_id":"4","last_reported":1690477541,"current_range_meters":29600,"station_id":"ce4bhr92rcd13ifvqhsg","pricing_plan_id":"free"},{"bike_id":"07355913-3475-48df-8d84-3e45dbf0e07b","system_id":"levelo_inurba_marseille","lat":43.33729,"lon":5.39183,"is_reserved":false,"is_disabled":false,"rental_uris":{"android":"levelo://app?vid=07355913-3475-48df-8d84-3e45dbf0e07b","ios":"levelo://app?vid=07355913-3475-48df-8d84-3e45dbf0e07b"},"vehicle_type_id":"4","last_reported":1690477541,"current_range_meters":29200,"station_id":"ce4bhr92rcd13ifvqhsg","pricing_plan_id":"free"},{"bike_id":"1856c755-8b17-40bc-9f60-4a1c7e127976","system_id":"levelo_inurba_marseille","lat":43.323464,"lon":5.406297,"is_reserved":false,"is_disabled":false,"rental_uris":{"android":"levelo://app?vid=1856c755-8b17-40bc-9f60-4a1c7e127976","ios":"levelo://app?vid=1856c755-8b17-40bc-9f60-4a1c7e127976"},"vehicle_type_id":"4","last_reported":1690477541,"current_range_meters":31200,"station_id":"ce4bhq92rcd13ifvqhjg","pricing_plan_id":"free"},{"bike_id":"1e22156b-0610-4d20-af4a-7bf771b4fee0","system_id":"levelo_inurba_marseille","lat":43.323464,"lon":5.406297,"is_reserved":false,"is_disabled":false,"rental_uris":{"android":"levelo://app?vid=1e22156b-0610-4d20-af4a-7bf771b4fee0","ios":"levelo://app?vid=1e22156b-0610-4d20-af4a-7bf771b4fee0"},"vehicle_type_id":"4","last_reported":1690477541,"current_range_meters":29600,"station_id":"ce4bhq92rcd13ifvqhjg","pricing_plan_id":"free"},{"bike_id":"d45a77f8-67b7-4bff-8714-54b9974536f4","system_id":"levelo_inurba_marseille","lat":43.284787,"lon":5.384116,"is_reserved":false,"is_disabled":false,"rental_uris":{"android":"levelo://app?vid=d45a77f8-67b7-4bff-8714-54b9974536f4","ios":"levelo://app?vid=d45a77f8-67b7-4bff-8714-54b9974536f4"},"vehicle_type_id":"4","last_reported":1690477541,"current_range_meters":3600,"station_id":"ce4bh512rcd13ifvqe3g","pricing_plan_id":"free"},{"bike_id":"62685dac-fced-4476-9af3-d0de92615c48","system_id":"levelo_inurba_marseille","lat":43.29801,"lon":5.40414,"is_reserved":false,"is_disabled":false,"rental_uris":{"android":"levelo://app?vid=62685dac-fced-4476-9af3-d0de92615c48","ios":"levelo://app?vid=62685dac-fced-4476-9af3-d0de92615c48"},"vehicle_type_id":"4","last_reported":1690477541,"current_range_meters":26800,"station_id":"","pricing_plan_id":"free"},{"bike_id":"864331c4-3b34-46f7-a2ff-0ef43377efed","system_id":"levelo_inurba_marseille","lat":43.29749,"lon":5.4039,"is_reserved":false,"is_disabled":false,"rental_uris":{"android":"levelo://app?vid=864331c4-3b34-46f7-a2ff-0ef43377efed","ios":"levelo://app?vid=864331c4-3b34-46f7-a2ff-0ef43377efed"},"vehicle_type_id":"4","last_reported":1690477541,"current_range_meters":7600,"station_id":"","pricing_plan_id":"free"},{"bike_id":"9413f83f-df18-4e08-91d1-94121b1295b5","system_id":"levelo_inurba_marseille","lat":43.28432,"lon":5.3499,"is_reserved":false,"is_disabled":false,"rental_uris":{"android":"levelo://app?vid=9413f83f-df18-4e08-91d1-94121b1295b5","ios":"levelo://app?vid=9413f83f-df18-4e08-91d1-94121b1295b5"},"vehicle_type_id":"4","last_reported":1690477541,"current_range_meters":19600,"station_id":"ce4bhbh2rcd13ifvqepg","pricing_plan_id":"free"},{"bike_id":"6bd0a873-a837-424a-a16e-71bbd9bc5739","system_id":"levelo_inurba_marseille","lat":43.284219,"lon":5.3497,"is_reserved":false,"is_disabled":false,"rental_uris":{"android":"levelo://app?vid=6bd0a873-a837-424a-a16e-71bbd9bc5739","ios":"levelo://app?vid=6bd0a873-a837-424a-a16e-71bbd9bc5739"},"vehicle_type_id":"4","last_reported":1690477541,"current_range_meters":31600,"station_id":"ce4bhbh2rcd13ifvqepg","pricing_plan_id":"free"},{"bike_id":"31525f12-9353-4c7f-863a-3a3c06186121","system_id":"levelo_inurba_marseille","lat":43.284219,"lon":5.3497,"is_reserved":false,"is_disabled":false,"rental_uris":{"android":"levelo://app?vid=31525f12-9353-4c7f-863a-3a3c06186121","ios":"levelo://app?vid=31525f12-9353-4c7f-863a-3a3c06186121"},"vehicle_type_id":"4","last_reported":1690477541,"current_range_meters":23600,"station_id":"ce4bhbh2rcd13ifvqepg","pricing_plan_id":"free"},{"bike_id":"780ecd19-14c4-47b9-a3e4-2dc2f1be4001","system_id":"levelo_inurba_marseille","lat":43.284219,"lon":5.3497,"is_reserved":false,"is_disabled":false,"rental_uris":{"android":"levelo://app?vid=780ecd19-14c4-47b9-a3e4-2dc2f1be4001","ios":"levelo://app?vid=780ecd19-14c4-47b9-a3e4-2dc2f1be4001"},"vehicle_type_id":"4","last_reported":1690477541,"current_range_meters":32000,"station_id":"ce4bhbh2rcd13ifvqepg","pricing_plan_id":"free"},{"bike_id":"0855e5de-1522-4c16-bc75-4e52f8d90636","system_id":"levelo_inurba_marseille","lat":43.284219,"lon":5.3497,"is_reserved":false,"is_disabled":false,"rental_uris":{"android":"levelo://app?vid=0855e5de-1522-4c16-bc75-4e52f8d90636","ios":"levelo://app?vid=0855e5de-1522-4c16-bc75-4e52f8d90636"},"vehicle_type_id":"4","last_reported":1690477541,"current_range_meters":23200,"station_id":"ce4bhbh2rcd13ifvqepg","pricing_plan_id":"free"},{"bike_id":"bb2dd584-905a-4d3f-9564-c8bf083c8370","system_id":"levelo_inurba_marseille","lat":43.28427,"lon":5.34994,"is_reserved":false,"is_disabled":false,"rental_uris":{"android":"levelo://app?vid=bb2dd584-905a-4d3f-9564-c8bf083c8370","ios":"levelo://app?vid=bb2dd584-905a-4d3f-9564-c8bf083c8370"},"vehicle_type_id":"4","last_reported":1690477541,"current_range_meters":29600,"station_id":"ce4bhbh2rcd13ifvqepg","pricing_plan_id":"free"},{"bike_id":"d36ef8ef-f002-4a40-bf77-581bc57a09f1","system_id":"levelo_inurba_marseille","lat":43.284219,"lon":5.3497,"is_reserved":false,"is_disabled":false,"rental_uris":{"android":"levelo://app?vid=d36ef8ef-f002-4a40-bf77-581bc57a09f1","ios":"levelo://app?vid=d36ef8ef-f002-4a40-bf77-581bc57a09f1"},"vehicle_type_id":"4","last_reported":1690477541,"current_range_meters":31600,"station_id":"ce4bhbh2rcd13ifvqepg","pricing_plan_id":"free"},{"bike_id":"5141be95-64ad-4c5e-9e88-2b061d060e6e","system_id":"levelo_inurba_marseille","lat":43.284219,"lon":5.3497,"is_reserved":false,"is_disabled":false,"rental_uris":{"android":"levelo://app?vid=5141be95-64ad-4c5e-9e88-2b061d060e6e","ios":"levelo://app?vid=5141be95-64ad-4c5e-9e88-2b061d060e6e"},"vehicle_type_id":"4","last_reported":1690477541,"current_range_meters":23200,"station_id":"ce4bhbh2rcd13ifvqepg","pricing_plan_id":"free"},{"bike_id":"5e862a7b-d187-4a44-a42f-8c099b7409a5","system_id":"levelo_inurba_marseille","lat":43.284217,"lon":5.349697,"is_reserved":false,"is_disabled":false,"rental_uris":{"android":"levelo://app?vid=5e862a7b-d187-4a44-a42f-8c099b7409a5","ios":"levelo://app?vid=5e862a7b-d187-4a44-a42f-8c099b7409a5"},"vehicle_type_id":"4","last_reported":1690477541,"current_range_meters":31200,"station_id":"ce4bhbh2rcd13ifvqepg","pricing_plan_id":"free"},{"bike_id":"38610f2e-6d70-4b62-9a40-6791c046e211","system_id":"levelo_inurba_marseille","lat":43.284219,"lon":5.3497,"is_reserved":false,"is_disabled":false,"rental_uris":{"android":"levelo://app?vid=38610f2e-6d70-4b62-9a40-6791c046e211","ios":"levelo://app?vid=38610f2e-6d70-4b62-9a40-6791c046e211"},"vehicle_type_id":"4","last_reported":1690477541,"current_range_meters":28800,"station_id":"ce4bhbh2rcd13ifvqepg","pricing_plan_id":"free"},{"bike_id":"8bc00dfd-88eb-4f40-b9fb-a1d912e5a420","system_id":"levelo_inurba_marseille","lat":43.284217,"lon":5.349697,"is_reserved":false,"is_disabled":false,"rental_uris":{"android":"levelo://app?vid=8bc00dfd-88eb-4f40-b9fb-a1d912e5a420","ios":"levelo://app?vid=8bc00dfd-88eb-4f40-b9fb-a1d912e5a420"},"vehicle_type_id":"4","last_reported":1690477541,"current_range_meters":31600,"station_id":"ce4bhbh2rcd13ifvqepg","pricing_plan_id":"free"},{"bike_id":"8e583082-70b4-49b4-ad80-64b2c40d3628","system_id":"levelo_inurba_marseille","lat":43.28426,"lon":5.3499,"is_reserved":false,"is_disabled":false,"rental_uris":{"android":"levelo://app?vid=8e583082-70b4-49b4-ad80-64b2c40d3628","ios":"levelo://app?vid=8e583082-70b4-49b4-ad80-64b2c40d3628"},"vehicle_type_id":"4","last_reported":1690477541,"current_range_meters":28000,"station_id":"ce4bhbh2rcd13ifvqepg","pricing_plan_id":"free"},{"bike_id":"f3b2972a-66ef-4a5f-86c0-b8541894ed72","system_id":"levelo_inurba_marseille","lat":43.284219,"lon":5.3497,"is_reserved":false,"is_disabled":false,"rental_uris":{"android":"levelo://app?vid=f3b2972a-66ef-4a5f-86c0-b8541894ed72","ios":"levelo://app?vid=f3b2972a-66ef-4a5f-86c0-b8541894ed72"},"vehicle_type_id":"4","last_reported":1690477541,"current_range_meters":21200,"station_id":"ce4bhbh2rcd13ifvqepg","pricing_plan_id":"free"},{"bike_id":"06a8df85-6417-408b-acaa-89171825ad5f","system_id":"levelo_inurba_marseille","lat":43.28422,"lon":5.35,"is_reserved":false,"is_disabled":false,"rental_uris":{"android":"levelo://app?vid=06a8df85-6417-408b-acaa-89171825ad5f","ios":"levelo://app?vid=06a8df85-6417-408b-acaa-89171825ad5f"},"vehicle_type_id":"4","last_reported":1690477541,"current_range_meters":5200,"station_id":"ce4bhbh2rcd13ifvqepg","pricing_plan_id":"free"},{"bike_id":"5a3bbe80-28d3-44c5-aee8-78cbf021a0e6","system_id":"levelo_inurba_marseille","lat":43.284219,"lon":5.3497,"is_reserved":false,"is_disabled":false,"rental_uris":{"android":"levelo://app?vid=5a3bbe80-28d3-44c5-aee8-78cbf021a0e6","ios":"levelo://app?vid=5a3bbe80-28d3-44c5-aee8-78cbf021a0e6"},"vehicle_type_id":"4","last_reported":1690477541,"current_range_meters":14000,"station_id":"ce4bhbh2rcd13ifvqepg","pricing_plan_id":"free"},{"bike_id":"87fce8ad-2cf5-4a39-9607-8d9b5de15cc0","system_id":"levelo_inurba_marseille","lat":43.284217,"lon":5.349697,"is_reserved":false,"is_disabled":false,"rental_uris":{"android":"levelo://app?vid=87fce8ad-2cf5-4a39-9607-8d9b5de15cc0","ios":"levelo://app?vid=87fce8ad-2cf5-4a39-9607-8d9b5de15cc0"},"vehicle_type_id":"4","last_reported":1690477541,"current_range_meters":31600,"station_id":"ce4bhbh2rcd13ifvqepg","pricing_plan_id":"free"},{"bike_id":"b8069eea-3e23-4386-88c0-807491d6d531","system_id":"levelo_inurba_marseille","lat":43.284217,"lon":5.349697,"is_reserved":false,"is_disabled":false,"rental_uris":{"android":"levelo://app?vid=b8069eea-3e23-4386-88c0-807491d6d531","ios":"levelo://app?vid=b8069eea-3e23-4386-88c0-807491d6d531"},"vehicle_type_id":"4","last_reported":1690477541,"current_range_meters":19200,"station_id":"ce4bhbh2rcd13ifvqepg","pricing_plan_id":"free"},{"bike_id":"3b7e7192-93c3-4071-a161-96fb617c7c67","system_id":"levelo_inurba_marseille","lat":43.284217,"lon":5.349697,"is_reserved":false,"is_disabled":false,"rental_uris":{"android":"levelo://app?vid=3b7e7192-93c3-4071-a161-96fb617c7c67","ios":"levelo://app?vid=3b7e7192-93c3-4071-a161-96fb617c7c67"},"vehicle_type_id":"4","last_reported":1690477541,"current_range_meters":23600,"station_id":"ce4bhbh2rcd13ifvqepg","pricing_plan_id":"free"},{"bike_id":"21823bac-9975-45ab-bb49-b1e2eb42dbe4","system_id":"levelo_inurba_marseille","lat":43.284217,"lon":5.349697,"is_reserved":false,"is_disabled":false,"rental_uris":{"android":"levelo://app?vid=21823bac-9975-45ab-bb49-b1e2eb42dbe4","ios":"levelo://app?vid=21823bac-9975-45ab-bb49-b1e2eb42dbe4"},"vehicle_type_id":"4","last_reported":1690477541,"current_range_meters":20000,"station_id":"ce4bhbh2rcd13ifvqepg","pricing_plan_id":"free"},{"bike_id":"67177917-3938-4b49-bc9a-7f575e69541e","system_id":"levelo_inurba_marseille","lat":43.284217,"lon":5.349697,"is_reserved":false,"is_disabled":false,"rental_uris":{"android":"levelo://app?vid=67177917-3938-4b49-bc9a-7f575e69541e","ios":"levelo://app?vid=67177917-3938-4b49-bc9a-7f575e69541e"},"vehicle_type_id":"4","last_reported":1690477541,"current_range_meters":31200,"station_id":"ce4bhbh2rcd13ifvqepg","pricing_plan_id":"free"},{"bike_id":"72eb6618-c9a8-485a-8581-97ee4f938749","system_id":"levelo_inurba_marseille","lat":43.284217,"lon":5.349697,"is_reserved":false,"is_disabled":false,"rental_uris":{"android":"levelo://app?vid=72eb6618-c9a8-485a-8581-97ee4f938749","ios":"levelo://app?vid=72eb6618-c9a8-485a-8581-97ee4f938749"},"vehicle_type_id":"4","last_reported":1690477541,"current_range_meters":16000,"station_id":"ce4bhbh2rcd13ifvqepg","pricing_plan_id":"free"},{"bike_id":"23ca0172-d76b-4afc-b79a-d4629a4189c7","system_id":"levelo_inurba_marseille","lat":43.284219,"lon":5.3497,"is_reserved":false,"is_disabled":false,"rental_uris":{"android":"levelo://app?vid=23ca0172-d76b-4afc-b79a-d4629a4189c7","ios":"levelo://app?vid=23ca0172-d76b-4afc-b79a-d4629a4189c7"},"vehicle_type_id":"4","last_reported":1690477541,"current_range_meters":6400,"station_id":"ce4bhbh2rcd13ifvqepg","pricing_plan_id":"free"},{"bike_id":"20ddbd41-13af-4e43-90e6-31f710baf595","system_id":"levelo_inurba_marseille","lat":43.284217,"lon":5.349697,"is_reserved":false,"is_disabled":false,"rental_uris":{"android":"levelo://app?vid=20ddbd41-13af-4e43-90e6-31f710baf595","ios":"levelo://app?vid=20ddbd41-13af-4e43-90e6-31f710baf595"},"vehicle_type_id":"4","last_reported":1690477541,"current_range_meters":21200,"station_id":"ce4bhbh2rcd13ifvqepg","pricing_plan_id":"free"},{"bike_id":"d814444e-2db9-42a3-9b5e-4c7863564547","system_id":"levelo_inurba_marseille","lat":43.28422,"lon":5.34982,"is_reserved":false,"is_disabled":false,"rental_uris":{"android":"levelo://app?vid=d814444e-2db9-42a3-9b5e-4c7863564547","ios":"levelo://app?vid=d814444e-2db9-42a3-9b5e-4c7863564547"},"vehicle_type_id":"4","last_reported":1690477541,"current_range_meters":13600,"station_id":"ce4bhbh2rcd13ifvqepg","pricing_plan_id":"free"},{"bike_id":"6b92fd6b-b098-4aa9-a45e-cfc6b4bf464b","system_id":"levelo_inurba_marseille","lat":43.284219,"lon":5.3497,"is_reserved":false,"is_disabled":false,"rental_uris":{"android":"levelo://app?vid=6b92fd6b-b098-4aa9-a45e-cfc6b4bf464b","ios":"levelo://app?vid=6b92fd6b-b098-4aa9-a45e-cfc6b4bf464b"},