{"last_updated":1745694410,"ttl":60,"version":"2.2","data":{"bikes":[{"bike_id":"f04eedf7-4b60-4c7d-8552-095292c8d967","system_id":"levelo_inurba_marseille","lat":43.26554,"lon":5.37288,"is_reserved":false,"is_disabled":false,"rental_uris":{"android":"levelo://app?vid=f04eedf7-4b60-4c7d-8552-095292c8d967","ios":"levelo://app?vid=f04eedf7-4b60-4c7d-8552-095292c8d967"},"vehicle_type_id":"4","last_reported":1745694410,"current_range_meters":2800,"station_id":"ce4bhg12rcd13ifvqf70","pricing_plan_id":"cebpf4jnsgd1na2vs0mg"},{"bike_id":"8f1f84a8-8b3e-4367-aaae-24597a10a4b0","system_id":"levelo_inurba_marseille","lat":43.26793,"lon":5.42698,"is_reserved":false,"is_disabled":false,"rental_uris":{"android":"levelo://app?vid=8f1f84a8-8b3e-4367-aaae-24597a10a4b0","ios":"levelo://app?vid=8f1f84a8-8b3e-4367-aaae-24597a10a4b0"},"vehicle_type_id":"4","last_reported":1745694410,"current_range_meters":2800,"station_id":"","pricing_plan_id":"cebpf4jnsgd1na2vs0mg"},{"bike_id":"8c3b4516-1414-4ff6-8e0a-4ad0a2484709","system_id":"levelo_inurba_marseille","lat":43.31357,"lon":5.38495,"is_reserved":false,"is_disabled":false,"rental_uris":{"android":"levelo://app?vid=8c3b4516-1414-4ff6-8e0a-4ad0a2484709","ios":"levelo://app?vid=8c3b4516-1414-4ff6-8e0a-4ad0a2484709"},"vehicle_type_id":"4","last_reported":1745694410,"current_range_meters":3200,"station_id":"ce4bgt92rcd13ifvqcf0","pricing_plan_id":"cebpf4jnsgd1na2vs0mg"},{"bike_id":"9de69f74-e703-4f11-ac28-aea62c2bad49","system_id":"levelo_inurba_marseille","lat":43.30955,"lon":5.39022,"is_reserved":false,"is_disabled":true,"rental_uris":{"android":"levelo://app?vid=9de69f74-e703-4f11-ac28-aea62c2bad49","ios":"levelo://app?vid=9de69f74-e703-4f11-ac28-aea62c2bad49"},"vehicle_type_id":"4","last_reported":1745694410,"current_range_meters":3200,"station_id":"ce4bgup2rcd13ifvqco0","pricing_plan_id":"cebpf4jnsgd1na2vs0mg"},{"bike_id":"76b6c4b0-2522-4a4b-ae33-5b6599a6a770","system_id":"levelo_inurba_marseille","lat":43.25868,"lon":5.39893,"is_reserved":false,"is_disabled":false,"rental_uris":{"android":"levelo://app?vid=76b6c4b0-2522-4a4b-ae33-5b6599a6a770","ios":"levelo://app?vid=76b6c4b0-2522-4a4b-ae33-5b6599a6a770"},"vehicle_type_id":"4","last_reported":1745694410,"current_range_meters":3200,"station_id":"ce4bhl92rcd13ifvqghg","pricing_plan_id":"cebpf4jnsgd1na2vs0mg"},{"bike_id":"9d695ebf-2227-48d6-9e07-c4274f7eb642","system_id":"levelo_inurba_marseille","lat":43.30943,"lon":5.39036,"is_reserved":false,"is_disabled":false,"rental_uris":{"android":"levelo://app?vid=9d695ebf-2227-48d6-9e07-c4274f7eb642","ios":"levelo://app?vid=9d695ebf-2227-48d6-9e07-c4274f7eb642"},"vehicle_type_id":"4","last_reported":1745694410,"current_range_meters":3200,"station_id":"ce4bgup2rcd13ifvqco0","pricing_plan_id":"cebpf4jnsgd1na2vs0mg"},{"bike_id":"4e7fa7b4-9dc4-4dbc-8757-9e9222105b4f","system_id":"levelo_inurba_marseille","lat":43.24817,"lon":5.37449,"is_reserved":false,"is_disabled":false,"rental_uris":{"android":"levelo://app?vid=4e7fa7b4-9dc4-4dbc-8757-9e9222105b4f","ios":"levelo://app?vid=4e7fa7b4-9dc4-4dbc-8757-9e9222105b4f"},"vehicle_type_id":"4","last_reported":1745694410,"current_range_meters":3200,"station_id":"ce4bhgh2rcd13ifvqfb0","pricing_plan_id":"cebpf4jnsgd1na2vs0mg"},{"bike_id":"6af368e6-3d74-4ed7-954d-3d3269498ed0","system_id":"levelo_inurba_marseille","lat":43.3014,"lon":5.3988,"is_reserved":false,"is_disabled":false,"rental_uris":{"android":"levelo://app?vid=6af368e6-3d74-4ed7-954d-3d3269498ed0","ios":"levelo://app?vid=6af368e6-3d74-4ed7-954d-3d3269498ed0"},"vehicle_type_id":"4","last_reported":1745694410,"current_range_meters":3200,"station_id":"ce4bh0h2rcd13ifvqd40","pricing_plan_id":"cebpf4jnsgd1na2vs0mg"},{"bike_id":"894983da-55ef-4bff-87ff-939a4641fa35","system_id":"levelo_inurba_marseille","lat":43.305908,"lon":5.393668,"is_reserved":false,"is_disabled":false,"rental_uris":{"android":"levelo://app?vid=894983da-55ef-4bff-87ff-939a4641fa35","ios":"levelo://app?vid=894983da-55ef-4bff-87ff-939a4641fa35"},"vehicle_type_id":"4","last_reported":1745694410,"current_range_meters":3600,"station_id":"ce4bh0p2rcd13ifvqd80","pricing_plan_id":"cebpf4jnsgd1na2vs0mg"},{"bike_id":"327fa908-fafe-40ae-b97e-12862a152f1f","system_id":"levelo_inurba_marseille","lat":43.276261,"lon":5.393123,"is_reserved":false,"is_disabled":false,"rental_uris":{"android":"levelo://app?vid=327fa908-fafe-40ae-b97e-12862a152f1f","ios":"levelo://app?vid=327fa908-fafe-40ae-b97e-12862a152f1f"},"vehicle_type_id":"4","last_reported":1745694410,"current_range_meters":4000,"station_id":"","pricing_plan_id":"cebpf4jnsgd1na2vs0mg"},{"bike_id":"aca4a498-4a9f-4408-aedb-b86cd2716c20","system_id":"levelo_inurba_marseille","lat":43.3314,"lon":5.38637,"is_reserved":false,"is_disabled":false,"rental_uris":{"android":"levelo://app?vid=aca4a498-4a9f-4408-aedb-b86cd2716c20","ios":"levelo://app?vid=aca4a498-4a9f-4408-aedb-b86cd2716c20"},"vehicle_type_id":"4","last_reported":1745694410,"current_range_meters":4000,"station_id":"","pricing_plan_id":"cebpf4jnsgd1na2vs0mg"},{"bike_id":"144232dc-fbfe-4f72-aba3-3450a87576a4","system_id":"levelo_inurba_marseille","lat":43.29821,"lon":5.38547,"is_reserved":false,"is_disabled":false,"rental_uris":{"android":"levelo://app?vid=144232dc-fbfe-4f72-aba3-3450a87576a4","ios":"levelo://app?vid=144232dc-fbfe-4f72-aba3-3450a87576a4"},"vehicle_type_id":"4","last_reported":1745694410,"current_range_meters":4000,"station_id":"","pricing_plan_id":"cebpf4jnsgd1na2vs0mg"},{"bike_id":"a84dda67-2771-448f-9f2c-69a47019d774","system_id":"levelo_inurba_marseille","lat":43.33609,"lon":5.41002,"is_reserved":false,"is_disabled":true,"rental_uris":{"android":"levelo://app?vid=a84dda67-2771-448f-9f2c-69a47019d774","ios":"levelo://app?vid=a84dda67-2771-448f-9f2c-69a47019d774"},"vehicle_type_id":"4","last_reported":1745694410,"current_range_meters":4000,"station_id":"ce4bhqh2rcd13ifvqhmg","pricing_plan_id":"cebpf4jnsgd1na2vs0mg"},{"bike_id":"a40e7d38-0ca8-4e06-93a3-6acdac8dfcc0","system_id":"levelo_inurba_marseille","lat":43.26197,"lon":5.37484,"is_reserved":false,"is_disabled":false,"rental_uris":{"android":"levelo://app?vid=a40e7d38-0ca8-4e06-93a3-6acdac8dfcc0","ios":"levelo://app?vid=a40e7d38-0ca8-4e06-93a3-6acdac8dfcc0"},"vehicle_type_id":"4","last_reported":1745694410,"current_range_meters":4000,"station_id":"ce4bhgp2rcd13ifvqfc0","pricing_plan_id":"cebpf4jnsgd1na2vs0mg"},{"bike_id":"09b7d107-5c3f-4eaa-a687-e54cb67b6f0d","system_id":"levelo_inurba_marseille","lat":43.302595,"lon":5.400685,"is_reserved":false,"is_disabled":false,"rental_uris":{"android":"levelo://app?vid=09b7d107-5c3f-4eaa-a687-e54cb67b6f0d","ios":"levelo://app?vid=09b7d107-5c3f-4eaa-a687-e54cb67b6f0d"},"vehicle_type_id":"4","last_reported":1745694410,"current_range_meters":4000,"station_id":"ce4bgvh2rcd13ifvqcs0","pricing_plan_id":"cebpf4jnsgd1na2vs0mg"},{"bike_id":"7c5a2cf2-e143-4e16-9491-1be3a53acda0","system_id":"levelo_inurba_marseille","lat":43.295135,"lon":5.375093,"is_reserved":false,"is_disabled":false,"rental_uris":{"android":"levelo://app?vid=7c5a2cf2-e143-4e16-9491-1be3a53acda0","ios":"levelo://app?vid=7c5a2cf2-e143-4e16-9491-1be3a53acda0"},"vehicle_type_id":"4","last_reported":1745694410,"current_range_meters":4000,"station_id":"ce4bgkp2rcd13ifvqbmg","pricing_plan_id":"cebpf4jnsgd1na2vs0mg"},{"bike_id":"a4965ea3-3a39-47e5-9322-9bed9256158f","system_id":"levelo_inurba_marseille","lat":43.287231,"lon":5.381826,"is_reserved":false,"is_disabled":false,"rental_uris":{"android":"levelo://app?vid=a4965ea3-3a39-47e5-9322-9bed9256158f","ios":"levelo://app?vid=a4965ea3-3a39-47e5-9322-9bed9256158f"},"vehicle_type_id":"4","last_reported":1745694410,"current_range_meters":4000,"station_id":"ce4bgqh2rcd13ifvqc4g","pricing_plan_id":"cebpf4jnsgd1na2vs0mg"},{"bike_id":"6d0a61fc-518d-48e6-b383-0cc8c0395f0a","system_id":"levelo_inurba_marseille","lat":43.24172,"lon":5.36376,"is_reserved":false,"is_disabled":false,"rental_uris":{"android":"levelo://app?vid=6d0a61fc-518d-48e6-b383-0cc8c0395f0a","ios":"levelo://app?vid=6d0a61fc-518d-48e6-b383-0cc8c0395f0a"},"vehicle_type_id":"4","last_reported":1745694410,"current_range_meters":4400,"station_id":"cpo36qri1sfpv3e86is0","pricing_plan_id":"cebpf4jnsgd1na2vs0mg"},{"bike_id":"1746265e-27ad-4913-8a06-b6dc5372d844","system_id":"levelo_inurba_marseille","lat":43.25958,"lon":5.37497,"is_reserved":false,"is_disabled":false,"rental_uris":{"android":"levelo://app?vid=1746265e-27ad-4913-8a06-b6dc5372d844","ios":"levelo://app?vid=1746265e-27ad-4913-8a06-b6dc5372d844"},"vehicle_type_id":"4","last_reported":1745694410,"current_range_meters":4400,"station_id":"","pricing_plan_id":"cebpf4jnsgd1na2vs0mg"},{"bike_id":"99e97fd7-aace-4d24-902f-75bec463fa3c","system_id":"levelo_inurba_marseille","lat":43.26204,"lon":5.37446,"is_reserved":false,"is_disabled":false,"rental_uris":{"android":"levelo://app?vid=99e97fd7-aace-4d24-902f-75bec463fa3c","ios":"levelo://app?vid=99e97fd7-aace-4d24-902f-75bec463fa3c"},"vehicle_type_id":"4","last_reported":1745694410,"current_range_meters":4400,"station_id":"ce4bhgp2rcd13ifvqfc0","pricing_plan_id":"cebpf4jnsgd1na2vs0mg"},{"bike_id":"d8aece02-4c74-4f4f-8124-59105027f298","system_id":"levelo_inurba_marseille","lat":43.3149,"lon":5.37309,"is_reserved":false,"is_disabled":false,"rental_uris":{"android":"levelo://app?vid=d8aece02-4c74-4f4f-8124-59105027f298","ios":"levelo://app?vid=d8aece02-4c74-4f4f-8124-59105027f298"},"vehicle_type_id":"4","last_reported":1745694410,"current_range_meters":4000,"station_id":"ce4bgt12rcd13ifvqcd0","pricing_plan_id":"cebpf4jnsgd1na2vs0mg"},{"bike_id":"6672c147-623c-4a24-8051-ebcfb72313aa","system_id":"levelo_inurba_marseille","lat":43.31115,"lon":5.37776,"is_reserved":false,"is_disabled":false,"rental_uris":{"android":"levelo://app?vid=6672c147-623c-4a24-8051-ebcfb72313aa","ios":"levelo://app?vid=6672c147-623c-4a24-8051-ebcfb72313aa"},"vehicle_type_id":"4","last_reported":1745694410,"current_range_meters":4400,"station_id":"ce4bgt92rcd13ifvqcg0","pricing_plan_id":"cebpf4jnsgd1na2vs0mg"},{"bike_id":"382dd6f5-11d2-4a3e-a527-74ec363a944c","system_id":"levelo_inurba_marseille","lat":43.2798,"lon":5.38744,"is_reserved":false,"is_disabled":false,"rental_uris":{"android":"levelo://app?vid=382dd6f5-11d2-4a3e-a527-74ec363a944c","ios":"levelo://app?vid=382dd6f5-11d2-4a3e-a527-74ec363a944c"},"vehicle_type_id":"4","last_reported":1745694410,"current_range_meters":4400,"station_id":"ce4bhg12rcd13ifvqf80","pricing_plan_id":"cebpf4jnsgd1na2vs0mg"},{"bike_id":"60cec3a0-4328-4616-976c-9b564090d64a","system_id":"levelo_inurba_marseille","lat":43.26939,"lon":5.40256,"is_reserved":false,"is_disabled":false,"rental_uris":{"android":"levelo://app?vid=60cec3a0-4328-4616-976c-9b564090d64a","ios":"levelo://app?vid=60cec3a0-4328-4616-976c-9b564090d64a"},"vehicle_type_id":"4","last_reported":1745694410,"current_range_meters":4400,"station_id":"cjm6bp8fraef2m0cb0m0","pricing_plan_id":"cebpf4jnsgd1na2vs0mg"},{"bike_id":"ed4ee8c6-297c-49ae-9493-32045abf00c0","system_id":"levelo_inurba_marseille","lat":43.27918,"lon":5.39576,"is_reserved":false,"is_disabled":false,"rental_uris":{"android":"levelo://app?vid=ed4ee8c6-297c-49ae-9493-32045abf00c0","ios":"levelo://app?vid=ed4ee8c6-297c-49ae-9493-32045abf00c0"},"vehicle_type_id":"4","last_reported":1745694410,"current_range_meters":4400,"station_id":"ce4bhf92rcd13ifvqf40","pricing_plan_id":"cebpf4jnsgd1na2vs0mg"},{"bike_id":"eaf025ec-3ee8-4684-a228-5103847cf3ac","system_id":"levelo_inurba_marseille","lat":43.27611,"lon":5.36105,"is_reserved":false,"is_disabled":false,"rental_uris":{"android":"levelo://app?vid=eaf025ec-3ee8-4684-a228-5103847cf3ac","ios":"levelo://app?vid=eaf025ec-3ee8-4684-a228-5103847cf3ac"},"vehicle_type_id":"4","last_reported":1745694410,"current_range_meters":4400,"station_id":"ce4bgj92rcd13ifvqbe0","pricing_plan_id":"cebpf4jnsgd1na2vs0mg"},{"bike_id":"29e436ca-6f7d-42ee-94c7-987fdae41c2b","system_id":"levelo_inurba_marseille","lat":43.26209,"lon":5.37435,"is_reserved":false,"is_disabled":false,"rental_uris":{"android":"levelo://app?vid=29e436ca-6f7d-42ee-94c7-987fdae41c2b","ios":"levelo://app?vid=29e436ca-6f7d-42ee-94c7-987fdae41c2b"},"vehicle_type_id":"4","last_reported":1745694410,"current_range_meters":4400,"station_id":"ce4bhgp2rcd13ifvqfc0","pricing_plan_id":"cebpf4jnsgd1na2vs0mg"},{"bike_id":"80264dbf-2a0b-4182-9e46-e37c668ca436","system_id":"levelo_inurba_marseille","lat":43.3082,"lon":5.39199,"is_reserved":false,"is_disabled":false,"rental_uris":{"android":"levelo://app?vid=80264dbf-2a0b-4182-9e46-e37c668ca436","ios":"levelo://app?vid=80264dbf-2a0b-4182-9e46-e37c668ca436"},"vehicle_type_id":"4","last_reported":1745694410,"current_range_meters":4800,"station_id":"","pricing_plan_id":"cebpf4jnsgd1na2vs0mg"},{"bike_id":"2ed3acad-be2b-47bc-bb16-dd14b09ebd94","system_id":"levelo_inurba_marseille","lat":43.24552,"lon":5.39526,"is_reserved":false,"is_disabled":false,"rental_uris":{"android":"levelo://app?vid=2ed3acad-be2b-47bc-bb16-dd14b09ebd94","ios":"levelo://app?vid=2ed3acad-be2b-47bc-bb16-dd14b09ebd94"},"vehicle_type_id":"4","last_reported":1745694410,"current_range_meters":4800,"station_id":"ce4bhlp2rcd13ifvqgjg","pricing_plan_id":"cebpf4jnsgd1na2vs0mg"},{"bike_id":"8e1b7f9c-15cd-4196-9a56-b8c9c867228b","system_id":"levelo_inurba_marseille","lat":43.26218,"lon":5.37426,"is_reserved":false,"is_disabled":false,"rental_uris":{"android":"levelo://app?vid=8e1b7f9c-15cd-4196-9a56-b8c9c867228b","ios":"levelo://app?vid=8e1b7f9c-15cd-4196-9a56-b8c9c867228b"},"vehicle_type_id":"4","last_reported":1745694410,"current_range_meters":4800,"station_id":"ce4bhgp2rcd13ifvqfc0","pricing_plan_id":"cebpf4jnsgd1na2vs0mg"},{"bike_id":"ae1f32bd-dea3-4e8c-80dc-64ad55573aeb","system_id":"levelo_inurba_marseille","lat":43.30358,"lon":5.42371,"is_reserved":false,"is_disabled":false,"rental_uris":{"android":"levelo://app?vid=ae1f32bd-dea3-4e8c-80dc-64ad55573aeb","ios":"levelo://app?vid=ae1f32bd-dea3-4e8c-80dc-64ad55573aeb"},"vehicle_type_id":"4","last_reported":1745694410,"current_range_meters":4800,"station_id":"","pricing_plan_id":"cebpf4jnsgd1na2vs0mg"},{"bike_id":"126954ad-ad69-4584-ab99-631544f9db8a","system_id":"levelo_inurba_marseille","lat":43.25492,"lon":5.37646,"is_reserved":false,"is_disabled":false,"rental_uris":{"android":"levelo://app?vid=126954ad-ad69-4584-ab99-631544f9db8a","ios":"levelo://app?vid=126954ad-ad69-4584-ab99-631544f9db8a"},"vehicle_type_id":"4","last_reported":1745694410,"current_range_meters":4800,"station_id":"ce4bhh12rcd13ifvqff0","pricing_plan_id":"cebpf4jnsgd1na2vs0mg"},{"bike_id":"72ae67fc-0ff5-41d0-b65d-20a1832707ac","system_id":"levelo_inurba_marseille","lat":43.24805,"lon":5.37454,"is_reserved":false,"is_disabled":false,"rental_uris":{"android":"levelo://app?vid=72ae67fc-0ff5-41d0-b65d-20a1832707ac","ios":"levelo://app?vid=72ae67fc-0ff5-41d0-b65d-20a1832707ac"},"vehicle_type_id":"4","last_reported":1745694410,"current_range_meters":4800,"station_id":"ce4bhgh2rcd13ifvqfb0","pricing_plan_id":"cebpf4jnsgd1na2vs0mg"},{"bike_id":"2c4690b7-17cf-4937-86a4-423e9fd34a61","system_id":"levelo_inurba_marseille","lat":43.26224,"lon":5.40451,"is_reserved":false,"is_disabled":false,"rental_uris":{"android":"levelo://app?vid=2c4690b7-17cf-4937-86a4-423e9fd34a61","ios":"levelo://app?vid=2c4690b7-17cf-4937-86a4-423e9fd34a61"},"vehicle_type_id":"4","last_reported":1745694410,"current_range_meters":4800,"station_id":"ce4bhmh2rcd13ifvqgmg","pricing_plan_id":"cebpf4jnsgd1na2vs0mg"},{"bike_id":"2cc64c0a-8650-4764-a6b5-3df9655e8e55","system_id":"levelo_inurba_marseille","lat":43.28095,"lon":5.35638,"is_reserved":false,"is_disabled":false,"rental_uris":{"android":"levelo://app?vid=2cc64c0a-8650-4764-a6b5-3df9655e8e55","ios":"levelo://app?vid=2cc64c0a-8650-4764-a6b5-3df9655e8e55"},"vehicle_type_id":"4","last_reported":1745694410,"current_range_meters":5600,"station_id":"","pricing_plan_id":"cebpf4jnsgd1na2vs0mg"},{"bike_id":"13d1d719-cfa9-4637-98eb-150b326351bc","system_id":"levelo_inurba_marseille","lat":43.31074,"lon":5.38342,"is_reserved":false,"is_disabled":false,"rental_uris":{"android":"levelo://app?vid=13d1d719-cfa9-4637-98eb-150b326351bc","ios":"levelo://app?vid=13d1d719-cfa9-4637-98eb-150b326351bc"},"vehicle_type_id":"4","last_reported":1745694410,"current_range_meters":5600,"station_id":"ce4bgv92rcd13ifvqcr0","pricing_plan_id":"cebpf4jnsgd1na2vs0mg"},{"bike_id":"fcddd32a-71f9-41b4-a1cc-f32582f63a00","system_id":"levelo_inurba_marseille","lat":43.30809,"lon":5.3763,"is_reserved":false,"is_disabled":false,"rental_uris":{"android":"levelo://app?vid=fcddd32a-71f9-41b4-a1cc-f32582f63a00","ios":"levelo://app?vid=fcddd32a-71f9-41b4-a1cc-f32582f63a00"},"vehicle_type_id":"4","last_reported":1745694410,"current_range_meters":5600,"station_id":"","pricing_plan_id":"cebpf4jnsgd1na2vs0mg"},{"bike_id":"6d91a8dc-ba91-4e59-90e6-05e9199e8291","system_id":"levelo_inurba_marseille","lat":43.26232,"lon":5.40454,"is_reserved":false,"is_disabled":false,"rental_uris":{"android":"levelo://app?vid=6d91a8dc-ba91-4e59-90e6-05e9199e8291","ios":"levelo://app?vid=6d91a8dc-ba91-4e59-90e6-05e9199e8291"},"vehicle_type_id":"4","last_reported":1745694410,"current_range_meters":5600,"station_id":"ce4bhmh2rcd13ifvqgmg","pricing_plan_id":"cebpf4jnsgd1na2vs0mg"},{"bike_id":"74bf1832-a389-491d-9cf1-c0544e13bc20","system_id":"levelo_inurba_marseille","lat":43.27504,"lon":5.42444,"is_reserved":false,"is_disabled":false,"rental_uris":{"android":"levelo://app?vid=74bf1832-a389-491d-9cf1-c0544e13bc20","ios":"levelo://app?vid=74bf1832-a389-491d-9cf1-c0544e13bc20"},"vehicle_type_id":"4","last_reported":1745694410,"current_range_meters":6000,"station_id":"ce4bhn92rcd13ifvqgrg","pricing_plan_id":"cebpf4jnsgd1na2vs0mg"},{"bike_id":"6c275dc0-b70a-418e-b5e4-23ec9392b7d3","system_id":"levelo_inurba_marseille","lat":43.25821,"lon":5.3944,"is_reserved":false,"is_disabled":false,"rental_uris":{"android":"levelo://app?vid=6c275dc0-b70a-418e-b5e4-23ec9392b7d3","ios":"levelo://app?vid=6c275dc0-b70a-418e-b5e4-23ec9392b7d3"},"vehicle_type_id":"4","last_reported":1745694410,"current_range_meters":6000,"station_id":"ce4bhip2rcd13ifvqft0","pricing_plan_id":"cebpf4jnsgd1na2vs0mg"},{"bike_id":"d1ff7e34-d25d-4063-9648-2bd4db47424f","system_id":"levelo_inurba_marseille","lat":43.32455,"lon":5.39145,"is_reserved":false,"is_disabled":false,"rental_uris":{"android":"levelo://app?vid=d1ff7e34-d25d-4063-9648-2bd4db47424f","ios":"levelo://app?vid=d1ff7e34-d25d-4063-9648-2bd4db47424f"},"vehicle_type_id":"4","last_reported":1745694410,"current_range_meters":6000,"station_id":"","pricing_plan_id":"cebpf4jnsgd1na2vs0mg"},{"bike_id":"85cf4e7d-97c4-43d0-a77d-04ca2207c941","system_id":"levelo_inurba_marseille","lat":43.22939,"lon":5.35381,"is_reserved":false,"is_disabled":false,"rental_uris":{"android":"levelo://app?vid=85cf4e7d-97c4-43d0-a77d-04ca2207c941","ios":"levelo://app?vid=85cf4e7d-97c4-43d0-a77d-04ca2207c941"},"vehicle_type_id":"4","last_reported":1745694410,"current_range_meters":6400,"station_id":"cpo3532slgdg3j2ikp40","pricing_plan_id":"cebpf4jnsgd1na2vs0mg"},{"bike_id":"956f8ab1-d722-4913-8409-0ad2d4f7b830","system_id":"levelo_inurba_marseille","lat":43.2928,"lon":5.40114,"is_reserved":false,"is_disabled":false,"rental_uris":{"android":"levelo://app?vid=956f8ab1-d722-4913-8409-0ad2d4f7b830","ios":"levelo://app?vid=956f8ab1-d722-4913-8409-0ad2d4f7b830"},"vehicle_type_id":"4","last_reported":1745694410,"current_range_meters":6400,"station_id":"ce4bh312rcd13ifvqdk0","pricing_plan_id":"cebpf4jnsgd1na2vs0mg"},{"bike_id":"3dc66694-b835-44fb-83e7-e11f4ee83194","system_id":"levelo_inurba_marseille","lat":43.30144,"lon":5.38774,"is_reserved":false,"is_disabled":false,"rental_uris":{"android":"levelo://app?vid=3dc66694-b835-44fb-83e7-e11f4ee83194","ios":"levelo://app?vid=3dc66694-b835-44fb-83e7-e11f4ee83194"},"vehicle_type_id":"4","last_reported":1745694410,"current_range_meters":6400,"station_id":"ce4bghh2rcd13ifvqb60","pricing_plan_id":"cebpf4jnsgd1na2vs0mg"},{"bike_id":"6c7e6c34-f235-478d-a1d8-e7aceb123573","system_id":"levelo_inurba_marseille","lat":43.30462,"lon":5.37909,"is_reserved":false,"is_disabled":false,"rental_uris":{"android":"levelo://app?vid=6c7e6c34-f235-478d-a1d8-e7aceb123573","ios":"levelo://app?vid=6c7e6c34-f235-478d-a1d8-e7aceb123573"},"vehicle_type_id":"4","last_reported":1745694410,"current_range_meters":6400,"station_id":"ce4bgup2rcd13ifvqcn0","pricing_plan_id":"cebpf4jnsgd1na2vs0mg"},{"bike_id":"b5cb0666-3185-4b03-bc8d-eaf0e54c8093","system_id":"levelo_inurba_marseille","lat":43.25493,"lon":5.3764,"is_reserved":false,"is_disabled":false,"rental_uris":{"android":"levelo://app?vid=b5cb0666-3185-4b03-bc8d-eaf0e54c8093","ios":"levelo://app?vid=b5cb0666-3185-4b03-bc8d-eaf0e54c8093"},"vehicle_type_id":"4","last_reported":1745694410,"current_range_meters":6400,"station_id":"ce4bhh12rcd13ifvqff0","pricing_plan_id":"cebpf4jnsgd1na2vs0mg"},{"bike_id":"85d7837f-3a5f-451b-b61b-364402ab5efa","system_id":"levelo_inurba_marseille","lat":43.29528,"lon":5.37506,"is_reserved":false,"is_disabled":false,"rental_uris":{"android":"levelo://app?vid=85d7837f-3a5f-451b-b61b-364402ab5efa","ios":"levelo://app?vid=85d7837f-3a5f-451b-b61b-364402ab5efa"},"vehicle_type_id":"4","last_reported":1745694410,"current_range_meters":6400,"station_id":"ce4bgkp2rcd13ifvqbmg","pricing_plan_id":"cebpf4jnsgd1na2vs0mg"},{"bike_id":"422b5989-c8b6-43aa-b2b9-3bfeb2e1ddc0","system_id":"levelo_inurba_marseille","lat":43.24789,"lon":5.41186,"is_reserved":false,"is_disabled":false,"rental_uris":{"android":"levelo://app?vid=422b5989-c8b6-43aa-b2b9-3bfeb2e1ddc0","ios":"levelo://app?vid=422b5989-c8b6-43aa-b2b9-3bfeb2e1ddc0"},"vehicle_type_id":"4","last_reported":1745694410,"current_range_meters":6800,"station_id":"","pricing_plan_id":"cebpf4jnsgd1na2vs0mg"},{"bike_id":"f62a4552-ec40-438e-82bf-49608a81162e","system_id":"levelo_inurba_marseille","lat":43.23962,"lon":5.36639,"is_reserved":false,"is_disabled":false,"rental_uris":{"android":"levelo://app?vid=f62a4552-ec40-438e-82bf-49608a81162e","ios":"levelo://app?vid=f62a4552-ec40-438e-82bf-49608a81162e"},"vehicle_type_id":"4","last_reported":1745694410,"current_range_meters":6800,"station_id":"ce4bhi12rcd13ifvqfp0","pricing_plan_id":"cebpf4jnsgd1na2vs0mg"},{"bike_id":"acf23f16-7032-4478-af39-9d00ddafbb50","system_id":"levelo_inurba_marseille","lat":43.32289,"lon":5.38283,"is_reserved":false,"is_disabled":false,"rental_uris":{"android":"levelo://app?vid=acf23f16-7032-4478-af39-9d00ddafbb50","ios":"levelo://app?vid=acf23f16-7032-4478-af39-9d00ddafbb50"},"vehicle_type_id":"4","last_reported":1745694410,"current_range_meters":6400,"station_id":"ce4bhr12rcd13ifvqhqg","pricing_plan_id":"cebpf4jnsgd1na2vs0mg"},{"bike_id":"d04dca55-a708-4181-b695-2de3ae731a61","system_id":"levelo_inurba_marseille","lat":43.24182,"lon":5.39733,"is_reserved":false,"is_disabled":false,"rental_uris":{"android":"levelo://app?vid=d04dca55-a708-4181-b695-2de3ae731a61","ios":"levelo://app?vid=d04dca55-a708-4181-b695-2de3ae731a61"},"vehicle_type_id":"4","last_reported":1745694410,"current_range_meters":6800,"station_id":"ce4bhn12rcd13ifvqgpg","pricing_plan_id":"cebpf4jnsgd1na2vs0mg"},{"bike_id":"1754d887-e16c-49a7-bf55-1fd134ac4747","system_id":"levelo_inurba_marseille","lat":43.27677,"lon":5.38916,"is_reserved":false,"is_disabled":false,"rental_uris":{"android":"levelo://app?vid=1754d887-e16c-49a7-bf55-1fd134ac4747","ios":"levelo://app?vid=1754d887-e16c-49a7-bf55-1fd134ac4747"},"vehicle_type_id":"4","last_reported":1745694410,"current_range_meters":6800,"station_id":"ce4bhi12rcd13ifvqfo0","pricing_plan_id":"cebpf4jnsgd1na2vs0mg"},{"bike_id":"e99e6315-2751-4329-ad7b-f9d19f8ec3ef","system_id":"levelo_inurba_marseille","lat":43.28156,"lon":5.42639,"is_reserved":false,"is_disabled":false,"rental_uris":{"android":"levelo://app?vid=e99e6315-2751-4329-ad7b-f9d19f8ec3ef","ios":"levelo://app?vid=e99e6315-2751-4329-ad7b-f9d19f8ec3ef"},"vehicle_type_id":"4","last_reported":1745694410,"current_range_meters":6800,"station_id":"ce4bhnh2rcd13ifvqgug","pricing_plan_id":"cebpf4jnsgd1na2vs0mg"},{"bike_id":"984bf66f-a065-42ee-8d13-4bd1973781ff","system_id":"levelo_inurba_marseille","lat":43.29572,"lon":5.39979,"is_reserved":false,"is_disabled":false,"rental_uris":{"android":"levelo://app?vid=984bf66f-a065-42ee-8d13-4bd1973781ff","ios":"levelo://app?vid=984bf66f-a065-42ee-8d13-4bd1973781ff"},"vehicle_type_id":"4","last_reported":1745694410,"current_range_meters":6400,"station_id":"ce4bh312rcd13ifvqdj0","pricing_plan_id":"cebpf4jnsgd1na2vs0mg"},{"bike_id":"8e694d7d-e639-480e-8787-1b3982d5e165","system_id":"levelo_inurba_marseille","lat":43.24804,"lon":5.37455,"is_reserved":false,"is_disabled":false,"rental_uris":{"android":"levelo://app?vid=8e694d7d-e639-480e-8787-1b3982d5e165","ios":"levelo://app?vid=8e694d7d-e639-480e-8787-1b3982d5e165"},"vehicle_type_id":"4","last_reported":1745694410,"current_range_meters":6800,"station_id":"ce4bhgh2rcd13ifvqfb0","pricing_plan_id":"cebpf4jnsgd1na2vs0mg"},{"bike_id":"75e95e4f-d3d7-4c6d-8eb7-ea7969e66638","system_id":"levelo_inurba_marseille","lat":43.32353,"lon":5.36707,"is_reserved":false,"is_disabled":false,"rental_uris":{"android":"levelo://app?vid=75e95e4f-d3d7-4c6d-8eb7-ea7969e66638","ios":"levelo://app?vid=75e95e4f-d3d7-4c6d-8eb7-ea7969e66638"},"vehicle_type_id":"4","last_reported":1745694410,"current_range_meters":7200,"station_id":"","pricing_plan_id":"cebpf4jnsgd1na2vs0mg"},{"bike_id":"60b1eee1-a708-4713-b7ab-b11119d225cb","system_id":"levelo_inurba_marseille","lat":43.27674,"lon":5.38868,"is_reserved":false,"is_disabled":false,"rental_uris":{"android":"levelo://app?vid=60b1eee1-a708-4713-b7ab-b11119d225cb","ios":"levelo://app?vid=60b1eee1-a708-4713-b7ab-b11119d225cb"},"vehicle_type_id":"4","last_reported":1745694410,"current_range_meters":7200,"station_id":"ce4bhi12rcd13ifvqfo0","pricing_plan_id":"cebpf4jnsgd1na2vs0mg"},{"bike_id":"554fe001-fd7c-4ce9-8b9f-fe24a3da343a","system_id":"levelo_inurba_marseille","lat":43.23193,"lon":5.35591,"is_reserved":false,"is_disabled":false,"rental_uris":{"android":"levelo://app?vid=554fe001-fd7c-4ce9-8b9f-fe24a3da343a","ios":"levelo://app?vid=554fe001-fd7c-4ce9-8b9f-fe24a3da343a"},"vehicle_type_id":"4","last_reported":1745694410,"current_range_meters":7200,"station_id":"ce4bhu92rcd13ifvqi70","pricing_plan_id":"cebpf4jnsgd1na2vs0mg"},{"bike_id":"745f0ad1-b4f2-405e-b957-d4c68884b920","system_id":"levelo_inurba_marseille","lat":43.21204,"lon":5.35067,"is_reserved":false,"is_disabled":false,"rental_uris":{"android":"levelo://app?vid=745f0ad1-b4f2-405e-b957-d4c68884b920","ios":"levelo://app?vid=745f0ad1-b4f2-405e-b957-d4c68884b920"},"vehicle_type_id":"4","last_reported":1745694410,"current_range_meters":7200,"station_id":"st_cvj6sg6p6f1abm77japg","pricing_plan_id":"cebpf4jnsgd1na2vs0mg"},{"bike_id":"dad8af86-1e80-4f85-871e-45a043509b5a","system_id":"levelo_inurba_marseille","lat":43.32292,"lon":5.38265,"is_reserved":false,"is_disabled":false,"rental_uris":{"android":"levelo://app?vid=dad8af86-1e80-4f85-871e-45a043509b5a","ios":"levelo://app?vid=dad8af86-1e80-4f85-871e-45a043509b5a"},"vehicle_type_id":"4","last_reported":1745694410,"current_range_meters":7200,"station_id":"ce4bhr12rcd13ifvqhqg","pricing_plan_id":"cebpf4jnsgd1na2vs0mg"},{"bike_id":"1633ed64-e423-42e4-93c5-471c5c6b4f37","system_id":"levelo_inurba_marseille","lat":43.26067,"lon":5.39381,"is_reserved":false,"is_disabled":false,"rental_uris":{"android":"levelo://app?vid=1633ed64-e423-42e4-93c5-471c5c6b4f37","ios":"levelo://app?vid=1633ed64-e423-42e4-93c5-471c5c6b4f37"},"vehicle_type_id":"4","last_reported":1745694410,"current_range_meters":7200,"station_id":"ce4bhh92rcd13ifvqfj0","pricing_plan_id":"cebpf4jnsgd1na2vs0mg"},{"bike_id":"98234df2-0309-4215-9ce6-3af7f1c867a9","system_id":"levelo_inurba_marseille","lat":43.27915,"lon":5.39579,"is_reserved":false,"is_disabled":false,"rental_uris":{"android":"levelo://app?vid=98234df2-0309-4215-9ce6-3af7f1c867a9","ios":"levelo://app?vid=98234df2-0309-4215-9ce6-3af7f1c867a9"},"vehicle_type_id":"4","last_reported":1745694410,"current_range_meters":7200,"station_id":"ce4bhf92rcd13ifvqf40","pricing_plan_id":"cebpf4jnsgd1na2vs0mg"},{"bike_id":"2a44dd0f-f41d-403a-a655-f2144854b0da","system_id":"levelo_inurba_marseille","lat":43.24384,"lon":5.3706,"is_reserved":false,"is_disabled":false,"rental_uris":{"android":"levelo://app?vid=2a44dd0f-f41d-403a-a655-f2144854b0da","ios":"levelo://app?vid=2a44dd0f-f41d-403a-a655-f2144854b0da"},"vehicle_type_id":"4","last_reported":1745694410,"current_range_meters":7200,"station_id":"ce4bhhh2rcd13ifvqfk0","pricing_plan_id":"cebpf4jnsgd1na2vs0mg"},{"bike_id":"2743111f-6f05-405a-b992-7e5d8fae8924","system_id":"levelo_inurba_marseille","lat":43.22939,"lon":5.35384,"is_reserved":false,"is_disabled":false,"rental_uris":{"android":"levelo://app?vid=2743111f-6f05-405a-b992-7e5d8fae8924","ios":"levelo://app?vid=2743111f-6f05-405a-b992-7e5d8fae8924"},"vehicle_type_id":"4","last_reported":1745694410,"current_range_meters":7200,"station_id":"cpo3532slgdg3j2ikp40","pricing_plan_id":"cebpf4jnsgd1na2vs0mg"},{"bike_id":"18ae1d78-8d9e-4697-bc48-a39d36035c1d","system_id":"levelo_inurba_marseille","lat":43.23972,"lon":5.36608,"is_reserved":false,"is_disabled":false,"rental_uris":{"android":"levelo://app?vid=18ae1d78-8d9e-4697-bc48-a39d36035c1d","ios":"levelo://app?vid=18ae1d78-8d9e-4697-bc48-a39d36035c1d"},"vehicle_type_id":"4","last_reported":1745694410,"current_range_meters":7200,"station_id":"ce4bhi12rcd13ifvqfp0","pricing_plan_id":"cebpf4jnsgd1na2vs0mg"},{"bike_id":"82bed0b0-42cc-420d-ac25-18ba6aed922c","system_id":"levelo_inurba_marseille","lat":43.27326,"lon":5.39073,"is_reserved":false,"is_disabled":false,"rental_uris":{"android":"levelo://app?vid=82bed0b0-42cc-420d-ac25-18ba6aed922c","ios":"levelo://app?vid=82bed0b0-42cc-420d-ac25-18ba6aed922c"},"vehicle_type_id":"4","last_reported":1745694410,"current_range_meters":7200,"station_id":"ce4bhgp2rcd13ifvqfe0","pricing_plan_id":"cebpf4jnsgd1na2vs0mg"},{"bike_id":"3ec823f4-782d-4179-988e-546c4539463f","system_id":"levelo_inurba_marseille","lat":43.29312,"lon":5.40148,"is_reserved":false,"is_disabled":true,"rental_uris":{"android":"levelo://app?vid=3ec823f4-782d-4179-988e-546c4539463f","ios":"levelo://app?vid=3ec823f4-782d-4179-988e-546c4539463f"},"vehicle_type_id":"4","last_reported":1745694410,"current_range_meters":8000,"station_id":"ce4bh312rcd13ifvqdk0","pricing_plan_id":"cebpf4jnsgd1na2vs0mg"},{"bike_id":"e3b08fef-0d07-41c5-83c1-e2b2fccfefb7","system_id":"levelo_inurba_marseille","lat":43.28065,"lon":5.39656,"is_reserved":false,"is_disabled":false,"rental_uris":{"android":"levelo://app?vid=e3b08fef-0d07-41c5-83c1-e2b2fccfefb7","ios":"levelo://app?vid=e3b08fef-0d07-41c5-83c1-e2b2fccfefb7"},"vehicle_type_id":"4","last_reported":1745694410,"current_range_meters":8000,"station_id":"ce4bho12rcd13ifvqh2g","pricing_plan_id":"cebpf4jnsgd1na2vs0mg"},{"bike_id":"3d6e580c-d6b9-4057-93e8-5273b0013f90","system_id":"levelo_inurba_marseille","lat":43.2583,"lon":5.39401,"is_reserved":false,"is_disabled":false,"rental_uris":{"android":"levelo://app?vid=3d6e580c-d6b9-4057-93e8-5273b0013f90","ios":"levelo://app?vid=3d6e580c-d6b9-4057-93e8-5273b0013f90"},"vehicle_type_id":"4","last_reported":1745694410,"current_range_meters":8000,"station_id":"ce4bhip2rcd13ifvqft0","pricing_plan_id":"cebpf4jnsgd1na2vs0mg"},{"bike_id":"3fb10e7d-00e1-476c-a14f-2837b73331eb","system_id":"levelo_inurba_marseille","lat":43.26189,"lon":5.37461,"is_reserved":false,"is_disabled":false,"rental_uris":{"android":"levelo://app?vid=3fb10e7d-00e1-476c-a14f-2837b73331eb","ios":"levelo://app?vid=3fb10e7d-00e1-476c-a14f-2837b73331eb"},"vehicle_type_id":"4","last_reported":1745694410,"current_range_meters":8000,"station_id":"ce4bhgp2rcd13ifvqfc0","pricing_plan_id":"cebpf4jnsgd1na2vs0mg"},{"bike_id":"51376682-930e-45ed-90e0-b53d931ddc33","system_id":"levelo_inurba_marseille","lat":43.27495,"lon":5.42449,"is_reserved":false,"is_disabled":false,"rental_uris":{"android":"levelo://app?vid=51376682-930e-45ed-90e0-b53d931ddc33","ios":"levelo://app?vid=51376682-930e-45ed-90e0-b53d931ddc33"},"vehicle_type_id":"4","last_reported":1745694410,"current_range_meters":8000,"station_id":"ce4bhn92rcd13ifvqgrg","pricing_plan_id":"cebpf4jnsgd1na2vs0mg"},{"bike_id":"185a4f95-9bdf-4142-a88a-4aac6e444392","system_id":"levelo_inurba_marseille","lat":43.30944,"lon":5.39036,"is_reserved":false,"is_disabled":false,"rental_uris":{"android":"levelo://app?vid=185a4f95-9bdf-4142-a88a-4aac6e444392","ios":"levelo://app?vid=185a4f95-9bdf-4142-a88a-4aac6e444392"},"vehicle_type_id":"4","last_reported":1745694410,"current_range_meters":8400,"station_id":"ce4bgup2rcd13ifvqco0","pricing_plan_id":"cebpf4jnsgd1na2vs0mg"},{"bike_id":"b25d821f-85f0-4e36-bfe6-db46d00f9763","system_id":"levelo_inurba_marseille","lat":43.29548,"lon":5.42252,"is_reserved":false,"is_disabled":false,"rental_uris":{"android":"levelo://app?vid=b25d821f-85f0-4e36-bfe6-db46d00f9763","ios":"levelo://app?vid=b25d821f-85f0-4e36-bfe6-db46d00f9763"},"vehicle_type_id":"4","last_reported":1745694410,"current_range_meters":8400,"station_id":"ce4bhph2rcd13ifvqhdg","pricing_plan_id":"cebpf4jnsgd1na2vs0mg"},{"bike_id":"879441dc-e1bc-4f0b-a0bc-3db2c9242198","system_id":"levelo_inurba_marseille","lat":43.276216,"lon":5.361079,"is_reserved":false,"is_disabled":false,"rental_uris":{"android":"levelo://app?vid=879441dc-e1bc-4f0b-a0bc-3db2c9242198","ios":"levelo://app?vid=879441dc-e1bc-4f0b-a0bc-3db2c9242198"},"vehicle_type_id":"4","last_reported":1745694410,"current_range_meters":8400,"station_id":"ce4bh192rcd13ifvqdd0","pricing_plan_id":"cebpf4jnsgd1na2vs0mg"},{"bike_id":"6104de1b-83a6-4912-bfa1-49d35364e6af","system_id":"levelo_inurba_marseille","lat":43.23962,"lon":5.3664,"is_reserved":false,"is_disabled":false,"rental_uris":{"android":"levelo://app?vid=6104de1b-83a6-4912-bfa1-49d35364e6af","ios":"levelo://app?vid=6104de1b-83a6-4912-bfa1-49d35364e6af"},"vehicle_type_id":"4","last_reported":1745694410,"current_range_meters":8400,"station_id":"ce4bhi12rcd13ifvqfp0","pricing_plan_id":"cebpf4jnsgd1na2vs0mg"},{"bike_id":"53094921-ea74-4215-bdf0-9e1c0cdded85","system_id":"levelo_inurba_marseille","lat":43.310695,"lon":5.383455,"is_reserved":false,"is_disabled":false,"rental_uris":{"android":"levelo://app?vid=53094921-ea74-4215-bdf0-9e1c0cdded85","ios":"levelo://app?vid=53094921-ea74-4215-bdf0-9e1c0cdded85"},"vehicle_type_id":"4","last_reported":1745694410,"current_range_meters":8400,"station_id":"ce4bgv92rcd13ifvqcr0","pricing_plan_id":"cebpf4jnsgd1na2vs0mg"},{"bike_id":"c53bc830-0a68-438e-a5d2-e046cc273bef","system_id":"levelo_inurba_marseille","lat":43.310707,"lon":5.383497,"is_reserved":false,"is_disabled":false,"rental_uris":{"android":"levelo://app?vid=c53bc830-0a68-438e-a5d2-e046cc273bef","ios":"levelo://app?vid=c53bc830-0a68-438e-a5d2-e046cc273bef"},"vehicle_type_id":"4","last_reported":1745694410,"current_range_meters":8800,"station_id":"ce4bgv92rcd13ifvqcr0","pricing_plan_id":"cebpf4jnsgd1na2vs0mg"},{"bike_id":"63501481-6dd9-40c5-b7a9-d35c1ced381b","system_id":"levelo_inurba_marseille","lat":43.31071,"lon":5.38348,"is_reserved":false,"is_disabled":false,"rental_uris":{"android":"levelo://app?vid=63501481-6dd9-40c5-b7a9-d35c1ced381b","ios":"levelo://app?vid=63501481-6dd9-40c5-b7a9-d35c1ced381b"},"vehicle_type_id":"4","last_reported":1745694410,"current_range_meters":8800,"station_id":"ce4bgv92rcd13ifvqcr0","pricing_plan_id":"cebpf4jnsgd1na2vs0mg"},{"bike_id":"84de9c1d-4ee7-4ffa-865a-f2d564ed8bea","system_id":"levelo_inurba_marseille","lat":43.24802,"lon":5.37444,"is_reserved":false,"is_disabled":false,"rental_uris":{"android":"levelo://app?vid=84de9c1d-4ee7-4ffa-865a-f2d564ed8bea","ios":"levelo://app?vid=84de9c1d-4ee7-4ffa-865a-f2d564ed8bea"},"vehicle_type_id":"4","last_reported":1745694410,"current_range_meters":8800,"station_id":"ce4bhgh2rcd13ifvqfb0","pricing_plan_id":"cebpf4jnsgd1na2vs0mg"},{"bike_id":"3f485f12-ccbf-4cc6-bfee-26b7c2709069","system_id":"levelo_inurba_marseille","lat":43.281734,"lon":5.49062,"is_reserved":false,"is_disabled":false,"rental_uris":{"android":"levelo://app?vid=3f485f12-ccbf-4cc6-bfee-26b7c2709069","ios":"levelo://app?vid=3f485f12-ccbf-4cc6-bfee-26b7c2709069"},"vehicle_type_id":"4","last_reported":1745694410,"current_range_meters":8800,"station_id":"","pricing_plan_id":"cebpf4jnsgd1na2vs0mg"},{"bike_id":"89492624-d1e1-448d-adb5-6a6b6e403af5","system_id":"levelo_inurba_marseille","lat":43.22932,"lon":5.35367,"is_reserved":false,"is_disabled":false,"rental_uris":{"android":"levelo://app?vid=89492624-d1e1-448d-adb5-6a6b6e403af5","ios":"levelo://app?vid=89492624-d1e1-448d-adb5-6a6b6e403af5"},"vehicle_type_id":"4","last_reported":1745694410,"current_range_meters":9200,"station_id":"cpo3532slgdg3j2ikp40","pricing_plan_id":"cebpf4jnsgd1na2vs0mg"},{"bike_id":"c886bc95-a9f4-4b08-af93-286cc6dbd1ea","system_id":"levelo_inurba_marseille","lat":43.2419,"lon":5.36371,"is_reserved":false,"is_disabled":false,"rental_uris":{"android":"levelo://app?vid=c886bc95-a9f4-4b08-af93-286cc6dbd1ea","ios":"levelo://app?vid=c886bc95-a9f4-4b08-af93-286cc6dbd1ea"},"vehicle_type_id":"4","last_reported":1745694410,"current_range_meters":9200,"station_id":"cpo36qri1sfpv3e86is0","pricing_plan_id":"cebpf4jnsgd1na2vs0mg"},{"bike_id":"31e96f35-0ab5-4247-82c2-2f567a76ca69","system_id":"levelo_inurba_marseille","lat":43.30254,"lon":5.40082,"is_reserved":false,"is_disabled":false,"rental_uris":{"android":"levelo://app?vid=31e96f35-0ab5-4247-82c2-2f567a76ca69","ios":"levelo://app?vid=31e96f35-0ab5-4247-82c2-2f567a76ca69"},"vehicle_type_id":"4","last_reported":1745694410,"current_range_meters":9200,"station_id":"ce4bgvh2rcd13ifvqcs0","pricing_plan_id":"cebpf4jnsgd1na2vs0mg"},{"bike_id":"dd1f484e-afbc-4327-914e-ee2f4d84e475","system_id":"levelo_inurba_marseille","lat":43.27378,"lon":5.3625,"is_reserved":false,"is_disabled":false,"rental_uris":{"android":"levelo://app?vid=dd1f484e-afbc-4327-914e-ee2f4d84e475","ios":"levelo://app?vid=dd1f484e-afbc-4327-914e-ee2f4d84e475"},"vehicle_type_id":"4","last_reported":1745694410,"current_range_meters":9200,"station_id":"ce4bhbh2rcd13ifvqeo0","pricing_plan_id":"cebpf4jnsgd1na2vs0mg"},{"bike_id":"28cd785a-8204-4799-aba9-b5be1f5c8846","system_id":"levelo_inurba_marseille","lat":43.29311,"lon":5.3718,"is_reserved":false,"is_disabled":false,"rental_uris":{"android":"levelo://app?vid=28cd785a-8204-4799-aba9-b5be1f5c8846","ios":"levelo://app?vid=28cd785a-8204-4799-aba9-b5be1f5c8846"},"vehicle_type_id":"4","last_reported":1745694410,"current_range_meters":9600,"station_id":"ce4bgh92rcd13ifvqb40","pricing_plan_id":"cebpf4jnsgd1na2vs0mg"},{"bike_id":"9dd63bc2-4374-4129-b0b8-af93776b7f7c","system_id":"levelo_inurba_marseille","lat":43.32292,"lon":5.3827,"is_reserved":false,"is_disabled":false,"rental_uris":{"android":"levelo://app?vid=9dd63bc2-4374-4129-b0b8-af93776b7f7c","ios":"levelo://app?vid=9dd63bc2-4374-4129-b0b8-af93776b7f7c"},"vehicle_type_id":"4","last_reported":1745694410,"current_range_meters":9600,"station_id":"ce4bhr12rcd13ifvqhqg","pricing_plan_id":"cebpf4jnsgd1na2vs0mg"},{"bike_id":"593cd7ac-aa9d-42a5-a8ef-16993a159c73","system_id":"levelo_inurba_marseille","lat":43.30935,"lon":5.40139,"is_reserved":false,"is_disabled":false,"rental_uris":{"android":"levelo://app?vid=593cd7ac-aa9d-42a5-a8ef-16993a159c73","ios":"levelo://app?vid=593cd7ac-aa9d-42a5-a8ef-16993a159c73"},"vehicle_type_id":"4","last_reported":1745694410,"current_range_meters":9600,"station_id":"ce4bgvp2rcd13ifvqct0","pricing_plan_id":"cebpf4jnsgd1na2vs0mg"},{"bike_id":"0a20c176-84ce-406c-b816-a20786a5492e","system_id":"levelo_inurba_marseille","lat":43.31696,"lon":5.37797,"is_reserved":false,"is_disabled":false,"rental_uris":{"android":"levelo://app?vid=0a20c176-84ce-406c-b816-a20786a5492e","ios":"levelo://app?vid=0a20c176-84ce-406c-b816-a20786a5492e"},"vehicle_type_id":"4","last_reported":1745694410,"current_range_meters":9600,"station_id":"","pricing_plan_id":"cebpf4jnsgd1na2vs0mg"},{"bike_id":"ae8ec39f-bce8-495c-bfdf-47830ccbceb4","system_id":"levelo_inurba_marseille","lat":43.31357,"lon":5.38479,"is_reserved":false,"is_disabled":false,"rental_uris":{"android":"levelo://app?vid=ae8ec39f-bce8-495c-bfdf-47830ccbceb4","ios":"levelo://app?vid=ae8ec39f-bce8-495c-bfdf-47830ccbceb4"},"vehicle_type_id":"4","last_reported":1745694410,"current_range_meters":10000,"station_id":"ce4bgt92rcd13ifvqcf0","pricing_plan_id":"cebpf4jnsgd1na2vs0mg"},{"bike_id":"50f0df4f-edd0-40f0-a55b-338717bd490d","system_id":"levelo_inurba_marseille","lat":43.2654,"lon":5.39045,"is_reserved":false,"is_disabled":false,"rental_uris":{"android":"levelo://app?vid=50f0df4f-edd0-40f0-a55b-338717bd490d","ios":"levelo://app?vid=50f0df4f-edd0-40f0-a55b-338717bd490d"},"vehicle_type_id":"4","last_reported":1745694410,"current_range_meters":10000,"station_id":"ce4bhe12rcd13ifvqf30","pricing_plan_id":"cebpf4jnsgd1na2vs0mg"},{"bike_id":"042a36cf-a68c-4f02-8fbe-a3d4f36fa492","system_id":"levelo_inurba_marseille","lat":43.21205,"lon":5.35056,"is_reserved":false,"is_disabled":false,"rental_uris":{"android":"levelo://app?vid=042a36cf-a68c-4f02-8fbe-a3d4f36fa492","ios":"levelo://app?vid=042a36cf-a68c-4f02-8fbe-a3d4f36fa492"},"vehicle_type_id":"4","last_reported":1745694410,"current_range_meters":10000,"station_id":"st_cvj6sg6p6f1abm77japg","pricing_plan_id":"cebpf4jnsgd1na2vs0mg"},{"bike_id":"157d19ba-b001-4fcd-9cf4-95c149cfffb0","system_id":"levelo_inurba_marseille","lat":43.2923,"lon":5.36067,"is_reserved":false,"is_disabled":false,"rental_uris":{"android":"levelo://app?vid=157d19ba-b001-4fcd-9cf4-95c149cfffb0","ios":"levelo://app?vid=157d19ba-b001-4fcd-9cf4-95c149cfffb0"},"vehicle_type_id":"4","last_reported":1745694410,"current_range_meters":10000,"station_id":"ce4bhbh2rcd13ifvqeqg","pricing_plan_id":"cebpf4jnsgd1na2vs0mg"},{"bike_id":"5e6f617f-9775-48cd-a2eb-2b1af96f70ab","system_id":"levelo_inurba_marseille","lat":43.25499,"lon":5.37638,"is_reserved":false,"is_disabled":false,"rental_uris":{"android":"levelo://app?vid=5e6f617f-9775-48cd-a2eb-2b1af96f70ab","ios":"levelo://app?vid=5e6f617f-9775-48cd-a2eb-2b1af96f70ab"},"vehicle_type_id":"4","last_reported":1745694410,"current_range_meters":10000,"station_id":"ce4bhh12rcd13ifvqff0","pricing_plan_id":"cebpf4jnsgd1na2vs0mg"},{"bike_id":"dc563db4-3d66-4cb2-8ddd-0654d51c02b6","system_id":"levelo_inurba_marseille","lat":43.29529,"lon":5.38541,"is_reserved":false,"is_disabled":false,"rental_uris":{"android":"levelo://app?vid=dc563db4-3d66-4cb2-8ddd-0654d51c02b6","ios":"levelo://app?vid=dc563db4-3d66-4cb2-8ddd-0654d51c02b6"},"vehicle_type_id":"4","last_reported":1745694410,"current_range_meters":10000,"station_id":"ce4bgih2rcd13ifvqba0","pricing_plan_id":"cebpf4jnsgd1na2vs0mg"},{"bike_id":"418ddde9-ea0b-40cc-9094-9d4e59dafe8e","system_id":"levelo_inurba_marseille","lat":43.29599,"lon":5.38096,"is_reserved":false,"is_disabled":false,"rental_uris":{"android":"levelo://app?vid=418ddde9-ea0b-40cc-9094-9d4e59dafe8e","ios":"levelo://app?vid=418ddde9-ea0b-40cc-9094-9d4e59dafe8e"},"vehicle_type_id":"4","last_reported":1745694410,"current_range_meters":10000,"station_id":"ce4bgl12rcd13ifvqbo0","pricing_plan_id":"cebpf4jnsgd1na2vs0mg"},{"bike_id":"cd1957b4-b5bc-4401-b8b4-e20829e73b8b","system_id":"levelo_inurba_marseille","lat":43.28152,"lon":5.42631,"is_reserved":false,"is_disabled":false,"rental_uris":{"android":"levelo://app?vid=cd1957b4-b5bc-4401-b8b4-e20829e73b8b","ios":"levelo://app?vid=cd1957b4-b5bc-4401-b8b4-e20829e73b8b"},"vehicle_type_id":"4","last_reported":1745694410,"current_range_meters":10000,"station_id":"ce4bhnh2rcd13ifvqgug","pricing_plan_id":"cebpf4jnsgd1na2vs0mg"},{"bike_id":"a113ca61-1b57-4edd-88e3-7045d50c6844","system_id":"levelo_inurba_marseille","lat":43.25501,"lon":5.3765,"is_reserved":false,"is_disabled":false,"rental_uris":{"android":"levelo://app?vid=a113ca61-1b57-4edd-88e3-7045d50c6844","ios":"levelo://app?vid=a113ca61-1b57-4edd-88e3-7045d50c6844"},"vehicle_type_id":"4","last_reported":1745694410,"current_range_meters":9600,"station_id":"ce4bhh12rcd13ifvqff0","pricing_plan_id":"cebpf4jnsgd1na2vs0mg"},{"bike_id":"ae2f8384-ab79-4241-aa7f-a13b45da22ce","system_id":"levelo_inurba_marseille","lat":43.2622,"lon":5.37429,"is_reserved":false,"is_disabled":false,"rental_uris":{"android":"levelo://app?vid=ae2f8384-ab79-4241-aa7f-a13b45da22ce","ios":"levelo://app?vid=ae2f8384-ab79-4241-aa7f-a13b45da22ce"},"vehicle_type_id":"4","last_reported":1745694410,"current_range_meters":10000,"station_id":"ce4bhgp2rcd13ifvqfc0","pricing_plan_id":"cebpf4jnsgd1na2vs0mg"},{"bike_id":"df29ae0d-5f43-42b9-a019-7b206e205cfe","system_id":"levelo_inurba_marseille","lat":43.24667,"lon":5.3817,"is_reserved":false,"is_disabled":false,"rental_uris":{"android":"levelo://app?vid=df29ae0d-5f43-42b9-a019-7b206e205cfe","ios":"levelo://app?vid=df29ae0d-5f43-42b9-a019-7b206e205cfe"},"vehicle_type_id":"4","last_reported":1745694410,"current_range_meters":10000,"station_id":"ce4bhih2rcd13ifvqfr0","pricing_plan_id":"cebpf4jnsgd1na2vs0mg"},{"bike_id":"6d7cc870-ccfd-4f48-96fb-e8c1f82a64cc","system_id":"levelo_inurba_marseille","lat":43.29759,"lon":5.37141,"is_reserved":false,"is_disabled":true,"rental_uris":{"android":"levelo://app?vid=6d7cc870-ccfd-4f48-96fb-e8c1f82a64cc","ios":"levelo://app?vid=6d7cc870-ccfd-4f48-96fb-e8c1f82a64cc"},"vehicle_type_id":"4","last_reported":1745694410,"current_range_meters":10800,"station_id":"ce4bgop2rcd13ifvqc1g","pricing_plan_id":"cebpf4jnsgd1na2vs0mg"},{"bike_id":"6e3579d9-292f-46ee-a812-23e3ed2512ca","system_id":"levelo_inurba_marseille","lat":43.33079,"lon":5.42803,"is_reserved":false,"is_disabled":true,"rental_uris":{"android":"levelo://app?vid=6e3579d9-292f-46ee-a812-23e3ed2512ca","ios":"levelo://app?vid=6e3579d9-292f-46ee-a812-23e3ed2512ca"},"vehicle_type_id":"4","last_reported":1745694410,"current_range_meters":10800,"station_id":"","pricing_plan_id":"cebpf4jnsgd1na2vs0mg"},{"bike_id":"aa7dd23a-c50c-4359-a4fa-3d29c4576751","system_id":"levelo_inurba_marseille","lat":43.24185,"lon":5.36357,"is_reserved":false,"is_disabled":false,"rental_uris":{"android":"levelo://app?vid=aa7dd23a-c50c-4359-a4fa-3d29c4576751","ios":"levelo://app?vid=aa7dd23a-c50c-4359-a4fa-3d29c4576751"},"vehicle_type_id":"4","last_reported":1745694410,"current_range_meters":10800,"station_id":"cpo36qri1sfpv3e86is0","pricing_plan_id":"cebpf4jnsgd1na2vs0mg"},{"bike_id":"934407bd-61ff-4748-bf7f-f7ee7098c88e","system_id":"levelo_inurba_marseille","lat":43.27558,"lon":5.38428,"is_reserved":false,"is_disabled":false,"rental_uris":{"android":"levelo://app?vid=934407bd-61ff-4748-bf7f-f7ee7098c88e","ios":"levelo://app?vid=934407bd-61ff-4748-bf7f-f7ee7098c88e"},"vehicle_type_id":"4","last_reported":1745694410,"current_range_meters":10800,"station_id":"ce4bhh92rcd13ifvqfi0","pricing_plan_id":"cebpf4jnsgd1na2vs0mg"},{"bike_id":"0429adbf-9996-4670-ae2d-bff8481dfd8d","system_id":"levelo_inurba_marseille","lat":43.30962,"lon":5.39062,"is_reserved":false,"is_disabled":false,"rental_uris":{"android":"levelo://app?vid=0429adbf-9996-4670-ae2d-bff8481dfd8d","ios":"levelo://app?vid=0429adbf-9996-4670-ae2d-bff8481dfd8d"},"vehicle_type_id":"4","last_reported":1745694410,"current_range_meters":10800,"station_id":"ce4bgup2rcd13ifvqco0","pricing_plan_id":"cebpf4jnsgd1na2vs0mg"},{"bike_id":"0cce7ea2-3151-4739-8e52-340c11e5c4e0","system_id":"levelo_inurba_marseille","lat":43.24671,"lon":5.38143,"is_reserved":false,"is_disabled":false,"rental_uris":{"android":"levelo://app?vid=0cce7ea2-3151-4739-8e52-340c11e5c4e0","ios":"levelo://app?vid=0cce7ea2-3151-4739-8e52-340c11e5c4e0"},"vehicle_type_id":"4","last_reported":1745694410,"current_range_meters":11200,"station_id":"ce4bhih2rcd13ifvqfr0","pricing_plan_id":"cebpf4jnsgd1na2vs0mg"},{"bike_id":"e9c97bfd-8564-4c9f-890a-cedefcef98b7","system_id":"levelo_inurba_marseille","lat":43.29436,"lon":5.38607,"is_reserved":false,"is_disabled":false,"rental_uris":{"android":"levelo://app?vid=e9c97bfd-8564-4c9f-890a-cedefcef98b7","ios":"levelo://app?vid=e9c97bfd-8564-4c9f-890a-cedefcef98b7"},"vehicle_type_id":"4","last_reported":1745694410,"current_range_meters":11200,"station_id":"ce4bh2h2rcd13ifvqdh0","pricing_plan_id":"cebpf4jnsgd1na2vs0mg"},{"bike_id":"46ff4bff-4f24-468c-b5f8-bbf958e109d4","system_id":"levelo_inurba_marseille","lat":43.27626,"lon":5.36116,"is_reserved":false,"is_disabled":false,"rental_uris":{"android":"levelo://app?vid=46ff4bff-4f24-468c-b5f8-bbf958e109d4","ios":"levelo://app?vid=46ff4bff-4f24-468c-b5f8-bbf958e109d4"},"vehicle_type_id":"4","last_reported":1745694410,"current_range_meters":11200,"station_id":"ce4bgj92rcd13ifvqbe0","pricing_plan_id":"cebpf4jnsgd1na2vs0mg"},{"bike_id":"185eb69e-f1e0-4fdf-b9d1-c4b06cb60e9c","system_id":"levelo_inurba_marseille","lat":43.30951,"lon":5.39037,"is_reserved":false,"is_disabled":false,"rental_uris":{"android":"levelo://app?vid=185eb69e-f1e0-4fdf-b9d1-c4b06cb60e9c","ios":"levelo://app?vid=185eb69e-f1e0-4fdf-b9d1-c4b06cb60e9c"},"vehicle_type_id":"4","last_reported":1745694410,"current_range_meters":11200,"station_id":"ce4bgup2rcd13ifvqco0","pricing_plan_id":"cebpf4jnsgd1na2vs0mg"},{"bike_id":"f27da374-9e50-4a19-91e6-ce49c1fabe57","system_id":"levelo_inurba_marseille","lat":43.29263,"lon":5.38404,"is_reserved":false,"is_disabled":false,"rental_uris":{"android":"levelo://app?vid=f27da374-9e50-4a19-91e6-ce49c1fabe57","ios":"levelo://app?vid=f27da374-9e50-4a19-91e6-ce49c1fabe57"},"vehicle_type_id":"4","last_reported":1745694410,"current_range_meters":11200,"station_id":"ce4bh692rcd13ifvqea0","pricing_plan_id":"cebpf4jnsgd1na2vs0mg"},{"bike_id":"5c70625e-b7a7-4cd3-908d-83cbe9ad8827","system_id":"levelo_inurba_marseille","lat":43.27179,"lon":5.40985,"is_reserved":false,"is_disabled":false,"rental_uris":{"android":"levelo://app?vid=5c70625e-b7a7-4cd3-908d-83cbe9ad8827","ios":"levelo://app?vid=5c70625e-b7a7-4cd3-908d-83cbe9ad8827"},"vehicle_type_id":"4","last_reported":1745694410,"current_range_meters":11600,"station_id":"ce4bhl12rcd13ifvqgf0","pricing_plan_id":"cebpf4jnsgd1na2vs0mg"},{"bike_id":"a3f9342b-8d8e-469c-a75f-d0b9118a4fc1","system_id":"levelo_inurba_marseille","lat":43.265673,"lon":5.373342,"is_reserved":false,"is_disabled":false,"rental_uris":{"android":"levelo://app?vid=a3f9342b-8d8e-469c-a75f-d0b9118a4fc1","ios":"levelo://app?vid=a3f9342b-8d8e-469c-a75f-d0b9118a4fc1"},"vehicle_type_id":"4","last_reported":1745694410,"current_range_meters":11600,"station_id":"ce4bhg12rcd13ifvqf70","pricing_plan_id":"cebpf4jnsgd1na2vs0mg"},{"bike_id":"3f8e74df-4b8a-4fe8-9f20-4fbe47605119","system_id":"levelo_inurba_marseille","lat":43.29037,"lon":5.37562,"is_reserved":false,"is_disabled":true,"rental_uris":{"android":"levelo://app?vid=3f8e74df-4b8a-4fe8-9f20-4fbe47605119","ios":"levelo://app?vid=3f8e74df-4b8a-4fe8-9f20-4fbe47605119"},"vehicle_type_id":"4","last_reported":1745694410,"current_range_meters":11600,"station_id":"ce4bh692rcd13ifvqe90","pricing_plan_id":"cebpf4jnsgd1na2vs0mg"},{"bike_id":"6f635f61-f189-4d60-b1b2-5d191ec3c939","system_id":"levelo_inurba_marseille","lat":43.255,"lon":5.37651,"is_reserved":false,"is_disabled":false,"rental_uris":{"android":"levelo://app?vid=6f635f61-f189-4d60-b1b2-5d191ec3c939","ios":"levelo://app?vid=6f635f61-f189-4d60-b1b2-5d191ec3c939"},"vehicle_type_id":"4","last_reported":1745694410,"current_range_meters":11600,"station_id":"ce4bhh12rcd13ifvqff0","pricing_plan_id":"cebpf4jnsgd1na2vs0mg"},{"bike_id":"a862ce7c-7d1c-401c-8329-c4644ede2ed8","system_id":"levelo_inurba_marseille","lat":43.26559,"lon":5.37283,"is_reserved":false,"is_disabled":false,"rental_uris":{"android":"levelo://app?vid=a862ce7c-7d1c-401c-8329-c4644ede2ed8","ios":"levelo://app?vid=a862ce7c-7d1c-401c-8329-c4644ede2ed8"},"vehicle_type_id":"4","last_reported":1745694410,"current_range_meters":11600,"station_id":"ce4bhg12rcd13ifvqf70","pricing_plan_id":"cebpf4jnsgd1na2vs0mg"},{"bike_id":"4e09e2f3-6329-4563-9a1f-79c5001029cb","system_id":"levelo_inurba_marseille","lat":43.32365,"lon":5.38884,"is_reserved":false,"is_disabled":false,"rental_uris":{"android":"levelo://app?vid=4e09e2f3-6329-4563-9a1f-79c5001029cb","ios":"levelo://app?vid=4e09e2f3-6329-4563-9a1f-79c5001029cb"},"vehicle_type_id":"4","last_reported":1745694410,"current_range_meters":11600,"station_id":"ce4bhqp2rcd13ifvqhog","pricing_plan_id":"cebpf4jnsgd1na2vs0mg"},{"bike_id":"ef5c66eb-54ae-4324-98e7-dc0993a1623e","system_id":"levelo_inurba_marseille","lat":43.24178,"lon":5.39732,"is_reserved":false,"is_disabled":false,"rental_uris":{"android":"levelo://app?vid=ef5c66eb-54ae-4324-98e7-dc0993a1623e","ios":"levelo://app?vid=ef5c66eb-54ae-4324-98e7-dc0993a1623e"},"vehicle_type_id":"4","last_reported":1745694410,"current_range_meters":11600,"station_id":"ce4bhn12rcd13ifvqgpg","pricing_plan_id":"cebpf4jnsgd1na2vs0mg"},{"bike_id":"76c1002d-666d-4042-b1d0-4e61c5c51ee8","system_id":"levelo_inurba_marseille","lat":43.27559,"lon":5.38434,"is_reserved":false,"is_disabled":false,"rental_uris":{"android":"levelo://app?vid=76c1002d-666d-4042-b1d0-4e61c5c51ee8","ios":"levelo://app?vid=76c1002d-666d-4042-b1d0-4e61c5c51ee8"},"vehicle_type_id":"4","last_reported":1745694410,"current_range_meters":12000,"station_id":"ce4bhh92rcd13ifvqfi0","pricing_plan_id":"cebpf4jnsgd1na2vs0mg"},{"bike_id":"40e4ce47-c620-4346-9adf-fea985824d08","system_id":"levelo_inurba_marseille","lat":43.25496,"lon":5.37652,"is_reserved":false,"is_disabled":false,"rental_uris":{"android":"levelo://app?vid=40e4ce47-c620-4346-9adf-fea985824d08","ios":"levelo://app?vid=40e4ce47-c620-4346-9adf-fea985824d08"},"vehicle_type_id":"4","last_reported":1745694410,"current_range_meters":12000,"station_id":"ce4bhh12rcd13ifvqff0","pricing_plan_id":"cebpf4jnsgd1na2vs0mg"},{"bike_id":"6bf9e7bc-221a-4971-ba29-e9b1c6520f39","system_id":"levelo_inurba_marseille","lat":43.25505,"lon":5.37631,"is_reserved":false,"is_disabled":false,"rental_uris":{"android":"levelo://app?vid=6bf9e7bc-221a-4971-ba29-e9b1c6520f39","ios":"levelo://app?vid=6bf9e7bc-221a-4971-ba29-e9b1c6520f39"},"vehicle_type_id":"4","last_reported":1745694410,"current_range_meters":12000,"station_id":"ce4bhh12rcd13ifvqff0","pricing_plan_id":"cebpf4jnsgd1na2vs0mg"},{"bike_id":"38ad6ce0-1ba0-4d0f-a84b-b857ec47c739","system_id":"levelo_inurba_marseille","lat":43.31164,"lon":5.42799,"is_reserved":false,"is_disabled":true,"rental_uris":{"android":"levelo://app?vid=38ad6ce0-1ba0-4d0f-a84b-b857ec47c739","ios":"levelo://app?vid=38ad6ce0-1ba0-4d0f-a84b-b857ec47c739"},"vehicle_type_id":"4","last_reported":1745694410,"current_range_meters":12400,"station_id":"","pricing_plan_id":"cebpf4jnsgd1na2vs0mg"},{"bike_id":"d82a67e7-f707-484a-8447-4b8e6b05e93f","system_id":"levelo_inurba_marseille","lat":43.29008,"lon":5.38148,"is_reserved":false,"is_disabled":false,"rental_uris":{"android":"levelo://app?vid=d82a67e7-f707-484a-8447-4b8e6b05e93f","ios":"levelo://app?vid=d82a67e7-f707-484a-8447-4b8e6b05e93f"},"vehicle_type_id":"4","last_reported":1745694410,"current_range_meters":12000,"station_id":"ce4bh4p2rcd13ifvqe1g","pricing_plan_id":"cebpf4jnsgd1na2vs0mg"},{"bike_id":"b270bb1c-219b-4c5b-9744-333326d60bcf","system_id":"levelo_inurba_marseille","lat":43.30639,"lon":5.40083,"is_reserved":false,"is_disabled":false,"rental_uris":{"android":"levelo://app?vid=b270bb1c-219b-4c5b-9744-333326d60bcf","ios":"levelo://app?vid=b270bb1c-219b-4c5b-9744-333326d60bcf"},"vehicle_type_id":"4","last_reported":1745694410,"current_range_meters":12400,"station_id":"ce4bh112rcd13ifvqda0","pricing_plan_id":"cebpf4jnsgd1na2vs0mg"},{"bike_id":"d19e44ca-f9b2-4607-bd44-20a301257f94","system_id":"levelo_inurba_marseille","lat":43.313694,"lon":5.384976,"is_reserved":false,"is_disabled":false,"rental_uris":{"android":"levelo://app?vid=d19e44ca-f9b2-4607-bd44-20a301257f94","ios":"levelo://app?vid=d19e44ca-f9b2-4607-bd44-20a301257f94"},"vehicle_type_id":"4","last_reported":1745694410,"current_range_meters":12400,"station_id":"ce4bgt92rcd13ifvqcf0","pricing_plan_id":"cebpf4jnsgd1na2vs0mg"},{"bike_id":"82cfd596-db1e-49a7-9310-9a91e088dace","system_id":"levelo_inurba_marseille","lat":43.23963,"lon":5.36629,"is_reserved":false,"is_disabled":false,"rental_uris":{"android":"levelo://app?vid=82cfd596-db1e-49a7-9310-9a91e088dace","ios":"levelo://app?vid=82cfd596-db1e-49a7-9310-9a91e088dace"},"vehicle_type_id":"4","last_reported":1745694410,"current_range_meters":12400,"station_id":"ce4bhi12rcd13ifvqfp0","pricing_plan_id":"cebpf4jnsgd1na2vs0mg"},{"bike_id":"56b523c5-8a8b-486f-a0f0-6f77b6036fbf","system_id":"levelo_inurba_marseille","lat":43.30942,"lon":5.39038,"is_reserved":false,"is_disabled":false,"rental_uris":{"android":"levelo://app?vid=56b523c5-8a8b-486f-a0f0-6f77b6036fbf","ios":"levelo://app?vid=56b523c5-8a8b-486f-a0f0-6f77b6036fbf"},"vehicle_type_id":"4","last_reported":1745694410,"current_range_meters":12400,"station_id":"ce4bgup2rcd13ifvqco0","pricing_plan_id":"cebpf4jnsgd1na2vs0mg"},{"bike_id":"bf207ab8-dfef-451d-b918-01c7db48a5d8","system_id":"levelo_inurba_marseille","lat":43.30947,"lon":5.39038,"is_reserved":false,"is_disabled":false,"rental_uris":{"android":"levelo://app?vid=bf207ab8-dfef-451d-b918-01c7db48a5d8","ios":"levelo://app?vid=bf207ab8-dfef-451d-b918-01c7db48a5d8"},"vehicle_type_id":"4","last_reported":1745694410,"current_range_meters":12400,"station_id":"ce4bgup2rcd13ifvqco0","pricing_plan_id":"cebpf4jnsgd1na2vs0mg"},{"bike_id":"736ee7d5-708e-48bd-8281-35bb85d0bc7d","system_id":"levelo_inurba_marseille","lat":43.29016,"lon":5.35615,"is_reserved":false,"is_disabled":true,"rental_uris":{"android":"levelo://app?vid=736ee7d5-708e-48bd-8281-35bb85d0bc7d","ios":"levelo://app?vid=736ee7d5-708e-48bd-8281-35bb85d0bc7d"},"vehicle_type_id":"4","last_reported":1745694410,"current_range_meters":12400,"station_id":"ce4bhb92rcd13ifvqen0","pricing_plan_id":"cebpf4jnsgd1na2vs0mg"},{"bike_id":"c01fcc95-95ae-4e71-b345-61871d8af98d","system_id":"levelo_inurba_marseille","lat":43.26049,"lon":5.37559,"is_reserved":false,"is_disabled":false,"rental_uris":{"android":"levelo://app?vid=c01fcc95-95ae-4e71-b345-61871d8af98d","ios":"levelo://app?vid=c01fcc95-95ae-4e71-b345-61871d8af98d"},"vehicle_type_id":"4","last_reported":1745694410,"current_range_meters":12400,"station_id":"ce4bhgh2rcd13ifvqfa0","pricing_plan_id":"cebpf4jnsgd1na2vs0mg"},{"bike_id":"a65c04c4-dde7-4cf7-acfb-5fe2c1f889fd","system_id":"levelo_inurba_marseille","lat":43.26239,"lon":5.40434,"is_reserved":false,"is_disabled":false,"rental_uris":{"android":"levelo://app?vid=a65c04c4-dde7-4cf7-acfb-5fe2c1f889fd","ios":"levelo://app?vid=a65c04c4-dde7-4cf7-acfb-5fe2c1f889fd"},"vehicle_type_id":"4","last_reported":1745694410,"current_range_meters":12800,"station_id":"ce4bhmh2rcd13ifvqgmg","pricing_plan_id":"cebpf4jnsgd1na2vs0mg"},{"bike_id":"7518cf42-9f06-451a-a31d-70478f66183e","system_id":"levelo_inurba_marseille","lat":43.2927,"lon":5.3685,"is_reserved":false,"is_disabled":false,"rental_uris":{"android":"levelo://app?vid=7518cf42-9f06-451a-a31d-70478f66183e","ios":"levelo://app?vid=7518cf42-9f06-451a-a31d-70478f66183e"},"vehicle_type_id":"4","last_reported":1745694410,"current_range_meters":12800,"station_id":"ce4bhbp2rcd13ifvqesg","pricing_plan_id":"cebpf4jnsgd1na2vs0mg"},{"bike_id":"2fac31c9-ecd4-4c07-9ea5-ab959ac9f813","system_id":"levelo_inurba_marseille","lat":43.24694,"lon":5.38169,"is_reserved":false,"is_disabled":true,"rental_uris":{"android":"levelo://app?vid=2fac31c9-ecd4-4c07-9ea5-ab959ac9f813","ios":"levelo://app?vid=2fac31c9-ecd4-4c07-9ea5-ab959ac9f813"},"vehicle_type_id":"4","last_reported":1745694410,"current_range_meters":12800,"station_id":"ce4bhih2rcd13ifvqfr0","pricing_plan_id":"cebpf4jnsgd1na2vs0mg"},{"bike_id":"5f3d5806-c19e-42fa-84ee-a0ad44fd0ca7","system_id":"levelo_inurba_marseille","lat":43.28717,"lon":5.37945,"is_reserved":false,"is_disabled":false,"rental_uris":{"android":"levelo://app?vid=5f3d5806-c19e-42fa-84ee-a0ad44fd0ca7","ios":"levelo://app?vid=5f3d5806-c19e-42fa-84ee-a0ad44fd0ca7"},"vehicle_type_id":"4","last_reported":1745694410,"current_range_meters":12800,"station_id":"ce4bh9p2rcd13ifvqec0","pricing_plan_id":"cebpf4jnsgd1na2vs0mg"},{"bike_id":"871ff321-985e-4ae5-a5b8-8d608bdff128","system_id":"levelo_inurba_marseille","lat":43.30962,"lon":5.39038,"is_reserved":false,"is_disabled":false,"rental_uris":{"android":"levelo://app?vid=871ff321-985e-4ae5-a5b8-8d608bdff128","ios":"levelo://app?vid=871ff321-985e-4ae5-a5b8-8d608bdff128"},"vehicle_type_id":"4","last_reported":1745694410,"current_range_meters":13600,"station_id":"ce4bgup2rcd13ifvqco0","pricing_plan_id":"cebpf4jnsgd1na2vs0mg"},{"bike_id":"67f51ad9-32bb-4e81-a4c4-835a63bb33ca","system_id":"levelo_inurba_marseille","lat":43.30933,"lon":5.40143,"is_reserved":false,"is_disabled":false,"rental_uris":{"android":"levelo://app?vid=67f51ad9-32bb-4e81-a4c4-835a63bb33ca","ios":"levelo://app?vid=67f51ad9-32bb-4e81-a4c4-835a63bb33ca"},"vehicle_type_id":"4","last_reported":1745694410,"current_range_meters":13600,"station_id":"ce4bgvp2rcd13ifvqct0","pricing_plan_id":"cebpf4jnsgd1na2vs0mg"},{"bike_id":"3ee52dd6-ee76-4da1-bbf0-da3ef76cb155","system_id":"levelo_inurba_marseille","lat":43.34655,"lon":5.3473,"is_reserved":false,"is_disabled":false,"rental_uris":{"android":"levelo://app?vid=3ee52dd6-ee76-4da1-bbf0-da3ef76cb155","ios":"levelo://app?vid=3ee52dd6-ee76-4da1-bbf0-da3ef76cb155"},"vehicle_type_id":"4","last_reported":1745694410,"current_range_meters":13600,"station_id":"","pricing_plan_id":"cebpf4jnsgd1na2vs0mg"},{"bike_id":"3fc37f40-548e-4dc3-a2fd-d71fbe1f9b5b","system_id":"levelo_inurba_marseille","lat":43.320594,"lon":5.414788,"is_reserved":false,"is_disabled":false,"rental_uris":{"android":"levelo://app?vid=3fc37f40-548e-4dc3-a2fd-d71fbe1f9b5b","ios":"levelo://app?vid=3fc37f40-548e-4dc3-a2fd-d71fbe1f9b5b"},"vehicle_type_id":"4","last_reported":1745694410,"current_range_meters":13600,"station_id":"ce4bgh92rcd13ifvqb40","pricing_plan_id":"cebpf4jnsgd1na2vs0mg"},{"bike_id":"517e4554-cb25-47de-bdd3-aba15a92f6c7","system_id":"levelo_inurba_marseille","lat":43.29933,"lon":5.36554,"is_reserved":false,"is_disabled":false,"rental_uris":{"android":"levelo://app?vid=517e4554-cb25-47de-bdd3-aba15a92f6c7","ios":"levelo://app?vid=517e4554-cb25-47de-bdd3-aba15a92f6c7"},"vehicle_type_id":"4","last_reported":1745694410,"current_range_meters":13600,"station_id":"ce4bgm92rcd13ifvqbr0","pricing_plan_id":"cebpf4jnsgd1na2vs0mg"},{"bike_id":"461522ed-5935-44bf-a121-df6a341ecaf8","system_id":"levelo_inurba_marseille","lat":43.24075,"lon":5.37761,"is_reserved":false,"is_disabled":false,"rental_uris":{"android":"levelo://app?vid=461522ed-5935-44bf-a121-df6a341ecaf8","ios":"levelo://app?vid=461522ed-5935-44bf-a121-df6a341ecaf8"},"vehicle_type_id":"4","last_reported":1745694410,"current_range_meters":14000,"station_id":"ce4bhnp2rcd13ifvqgvg","pricing_plan_id":"cebpf4jnsgd1na2vs0mg"},{"bike_id":"dd3031e0-5272-497e-a41c-be7750e07327","system_id":"levelo_inurba_marseille","lat":43.30049,"lon":5.40216,"is_reserved":false,"is_disabled":false,"rental_uris":{"android":"levelo://app?vid=dd3031e0-5272-497e-a41c-be7750e07327","ios":"levelo://app?vid=dd3031e0-5272-497e-a41c-be7750e07327"},"vehicle_type_id":"4","last_reported":1745694410,"current_range_meters":14000,"station_id":"","pricing_plan_id":"cebpf4jnsgd1na2vs0mg"},{"bike_id":"e0c71cba-c6a3-4efe-8b3a-5afbc1b4d441","system_id":"levelo_inurba_marseille","lat":43.29254,"lon":5.38437,"is_reserved":false,"is_disabled":false,"rental_uris":{"android":"levelo://app?vid=e0c71cba-c6a3-4efe-8b3a-5afbc1b4d441","ios":"levelo://app?vid=e0c71cba-c6a3-4efe-8b3a-5afbc1b4d441"},"vehicle_type_id":"4","last_reported":1745694410,"current_range_meters":14000,"station_id":"ce4bh692rcd13ifvqea0","pricing_plan_id":"cebpf4jnsgd1na2vs0mg"},{"bike_id":"efe7d138-7111-44db-aab3-a4db3d0eba8e","system_id":"levelo_inurba_marseille","lat":43.24617,"lon":5.38071,"is_reserved":false,"is_disabled":false,"rental_uris":{"android":"levelo://app?vid=efe7d138-7111-44db-aab3-a4db3d0eba8e","ios":"levelo://app?vid=efe7d138-7111-44db-aab3-a4db3d0eba8e"},"vehicle_type_id":"4","last_reported":1745694410,"current_range_meters":13600,"station_id":"ce4bhnp2rcd13ifvqgvg","pricing_plan_id":"cebpf4jnsgd1na2vs0mg"},{"bike_id":"fdcaf338-d3e1-44ab-b996-4fd6eba29359","system_id":"levelo_inurba_marseille","lat":43.30957,"lon":5.39031,"is_reserved":false,"is_disabled":false,"rental_uris":{"android":"levelo://app?vid=fdcaf338-d3e1-44ab-b996-4fd6eba29359","ios":"levelo://app?vid=fdcaf338-d3e1-44ab-b996-4fd6eba29359"},"vehicle_type_id":"4","last_reported":1745694410,"current_range_meters":14000,"station_id":"ce4bgup2rcd13ifvqco0","pricing_plan_id":"cebpf4jnsgd1na2vs0mg"},{"bike_id":"cc451a9b-2103-4f70-9e38-222a3f72b606","system_id":"levelo_inurba_marseille","lat":43.30946,"lon":5.39032,"is_reserved":false,"is_disabled":false,"rental_uris":{"android":"levelo://app?vid=cc451a9b-2103-4f70-9e38-222a3f72b606","ios":"levelo://app?vid=cc451a9b-2103-4f70-9e38-222a3f72b606"},"vehicle_type_id":"4","last_reported":1745694410,"current_range_meters":14400,"station_id":"ce4bgup2rcd13ifvqco0","pricing_plan_id":"cebpf4jnsgd1na2vs0mg"},{"bike_id":"43751646-eeca-4626-9212-b13c8f362b11","system_id":"levelo_inurba_marseille","lat":43.31078,"lon":5.38359,"is_reserved":false,"is_disabled":false,"rental_uris":{"android":"levelo://app?vid=43751646-eeca-4626-9212-b13c8f362b11","ios":"levelo://app?vid=43751646-eeca-4626-9212-b13c8f362b11"},"vehicle_type_id":"4","last_reported":1745694410,"current_range_meters":14400,"station_id":"ce4bgv92rcd13ifvqcr0","pricing_plan_id":"cebpf4jnsgd1na2vs0mg"},{"bike_id":"178b7628-2da6-41f8-bbc0-d1db2fd3b809","system_id":"levelo_inurba_marseille","lat":43.29034,"lon":5.3865,"is_reserved":false,"is_disabled":false,"rental_uris":{"android":"levelo://app?vid=178b7628-2da6-41f8-bbc0-d1db2fd3b809","ios":"levelo://app?vid=178b7628-2da6-41f8-bbc0-d1db2fd3b809"},"vehicle_type_id":"4","last_reported":1745694410,"current_range_meters":14400,"station_id":"ce4bh4p2rcd13ifvqe0g","pricing_plan_id":"cebpf4jnsgd1na2vs0mg"},{"bike_id":"c9048e8d-8d8a-43e5-8002-715082eeeea8","system_id":"levelo_inurba_marseille","lat":43.29531,"lon":5.38544,"is_reserved":false,"is_disabled":false,"rental_uris":{"android":"levelo://app?vid=c9048e8d-8d8a-43e5-8002-715082eeeea8","ios":"levelo://app?vid=c9048e8d-8d8a-43e5-8002-715082eeeea8"},"vehicle_type_id":"4","last_reported":1745694410,"current_range_meters":14400,"station_id":"ce4bgih2rcd13ifvqba0","pricing_plan_id":"cebpf4jnsgd1na2vs0mg"},{"bike_id":"dde7d6dc-8238-4466-ad53-a23d1b94b3c5","system_id":"levelo_inurba_marseille","lat":43.278076,"lon":5.4071,"is_reserved":false,"is_disabled":false,"rental_uris":{"android":"levelo://app?vid=dde7d6dc-8238-4466-ad53-a23d1b94b3c5","ios":"levelo://app?vid=dde7d6dc-8238-4466-ad53-a23d1b94b3c5"},"vehicle_type_id":"4","last_reported":1745694410,"current_range_meters":14800,"station_id":"ce4bhnh2rcd13ifvqgtg","pricing_plan_id":"cebpf4jnsgd1na2vs0mg"},{"bike_id":"1cd3a1a6-b3e4-45c8-b250-82fce74e3d94","system_id":"levelo_inurba_marseille","lat":43.28075,"lon":5.39662,"is_reserved":false,"is_disabled":false,"rental_uris":{"android":"levelo://app?vid=1cd3a1a6-b3e4-45c8-b250-82fce74e3d94","ios":"levelo://app?vid=1cd3a1a6-b3e4-45c8-b250-82fce74e3d94"},"vehicle_type_id":"4","last_reported":1745694410,"current_range_meters":14800,"station_id":"ce4bho12rcd13ifvqh2g","pricing_plan_id":"cebpf4jnsgd1na2vs0mg"},{"bike_id":"8ceb83a1-dfe6-49f1-89c8-ea92a6799553","system_id":"levelo_inurba_marseille","lat":43.30941,"lon":5.39035,"is_reserved":false,"is_disabled":false,"rental_uris":{"android":"levelo://app?vid=8ceb83a1-dfe6-49f1-89c8-ea92a6799553","ios":"levelo://app?vid=8ceb83a1-dfe6-49f1-89c8-ea92a6799553"},"vehicle_type_id":"4","last_reported":1745694410,"current_range_meters":15200,"station_id":"ce4bgup2rcd13ifvqco0","pricing_plan_id":"cebpf4jnsgd1na2vs0mg"},{"bike_id":"0053b840-de47-4900-98aa-cc8575176b05","system_id":"levelo_inurba_marseille","lat":43.24174,"lon":5.36394,"is_reserved":false,"is_disabled":true,"rental_uris":{"android":"levelo://app?vid=0053b840-de47-4900-98aa-cc8575176b05","ios":"levelo://app?vid=0053b840-de47-4900-98aa-cc8575176b05"},"vehicle_type_id":"4","last_reported":1745694410,"current_range_meters":15200,"station_id":"cpo36qri1sfpv3e86is0","pricing_plan_id":"cebpf4jnsgd1na2vs0mg"},{"bike_id":"356b76a1-af1a-4bef-951e-98e5b057a721","system_id":"levelo_inurba_marseille","lat":43.29264,"lon":5.38436,"is_reserved":false,"is_disabled":true,"rental_uris":{"android":"levelo://app?vid=356b76a1-af1a-4bef-951e-98e5b057a721","ios":"levelo://app?vid=356b76a1-af1a-4bef-951e-98e5b057a721"},"vehicle_type_id":"4","last_reported":1745694410,"current_range_meters":15200,"station_id":"ce4bh692rcd13ifvqea0","pricing_plan_id":"cebpf4jnsgd1na2vs0mg"},{"bike_id":"0ab6801c-0243-4fc0-bbf6-8366cb37d105","system_id":"levelo_inurba_marseille","lat":43.30951,"lon":5.3903,"is_reserved":false,"is_disabled":false,"rental_uris":{"android":"levelo://app?vid=0ab6801c-0243-4fc0-bbf6-8366cb37d105","ios":"levelo://app?vid=0ab6801c-0243-4fc0-bbf6-8366cb37d105"},"vehicle_type_id":"4","last_reported":1745694410,"current_range_meters":15200,"station_id":"ce4bgup2rcd13ifvqco0","pricing_plan_id":"cebpf4jnsgd1na2vs0mg"},{"bike_id":"8deff03f-019e-433e-a0b4-b283c3c02910","system_id":"levelo_inurba_marseille","lat":43.29418,"lon":5.38628,"is_reserved":false,"is_disabled":false,"rental_uris":{"android":"levelo://app?vid=8deff03f-019e-433e-a0b4-b283c3c02910","ios":"levelo://app?vid=8deff03f-019e-433e-a0b4-b283c3c02910"},"vehicle_type_id":"4","last_reported":1745694410,"current_range_meters":14800,"station_id":"ce4bh2h2rcd13ifvqdh0","pricing_plan_id":"cebpf4jnsgd1na2vs0mg"},{"bike_id":"00f8bf4b-edcc-44ea-9f9a-126717db4173","system_id":"levelo_inurba_marseille","lat":43.292616,"lon":5.384195,"is_reserved":false,"is_disabled":false,"rental_uris":{"android":"levelo://app?vid=00f8bf4b-edcc-44ea-9f9a-126717db4173","ios":"levelo://app?vid=00f8bf4b-edcc-44ea-9f9a-126717db4173"},"vehicle_type_id":"4","last_reported":1745694410,"current_range_meters":15200,"station_id":"ce4bh692rcd13ifvqea0","pricing_plan_id":"cebpf4jnsgd1na2vs0mg"},{"bike_id":"ce16ba53-08fd-43a4-921e-255de32f1451","system_id":"levelo_inurba_marseille","lat":43.27995,"lon":5.41659,"is_reserved":false,"is_disabled":false,"rental_uris":{"android":"levelo://app?vid=ce16ba53-08fd-43a4-921e-255de32f1451","ios":"levelo://app?vid=ce16ba53-08fd-43a4-921e-255de32f1451"},"vehicle_type_id":"4","last_reported":1745694410,"current_range_meters":15200,"station_id":"ce4bho12rcd13ifvqh1g","pricing_plan_id":"cebpf4jnsgd1na2vs0mg"},{"bike_id":"30288cb7-e849-4b02-8ab1-96deccfd974f","system_id":"levelo_inurba_marseille","lat":43.23964,"lon":5.36631,"is_reserved":false,"is_disabled":false,"rental_uris":{"android":"levelo://app?vid=30288cb7-e849-4b02-8ab1-96deccfd974f","ios":"levelo://app?vid=30288cb7-e849-4b02-8ab1-96deccfd974f"},"vehicle_type_id":"4","last_reported":1745694410,"current_range_meters":16000,"station_id":"ce4bhi12rcd13ifvqfp0","pricing_plan_id":"cebpf4jnsgd1na2vs0mg"},{"bike_id":"3b452837-a0d1-48c9-81ce-eecdd90d03aa","system_id":"levelo_inurba_marseille","lat":43.29261,"lon":5.3844,"is_reserved":false,"is_disabled":false,"rental_uris":{"android":"levelo://app?vid=3b452837-a0d1-48c9-81ce-eecdd90d03aa","ios":"levelo://app?vid=3b452837-a0d1-48c9-81ce-eecdd90d03aa"},"vehicle_type_id":"4","last_reported":1745694410,"current_range_meters":16000,"station_id":"ce4bh692rcd13ifvqea0","pricing_plan_id":"cebpf4jnsgd1na2vs0mg"},{"bike_id":"ae1d96a0-b0a2-41e1-be14-e78907f9338a","system_id":"levelo_inurba_marseille","lat":43.29532,"lon":5.39385,"is_reserved":false,"is_disabled":true,"rental_uris":{"android":"levelo://app?vid=ae1d96a0-b0a2-41e1-be14-e78907f9338a","ios":"levelo://app?vid=ae1d96a0-b0a2-41e1-be14-e78907f9338a"},"vehicle_type_id":"4","last_reported":1745694410,"current_range_meters":16000,"station_id":"ce4bh292rcd13ifvqdf0","pricing_plan_id":"cebpf4jnsgd1na2vs0mg"},{"bike_id":"af4a97e0-dded-4da0-9eba-7bcd01c44383","system_id":"levelo_inurba_marseille","lat":43.30303,"lon":5.39196,"is_reserved":false,"is_disabled":true,"rental_uris":{"android":"levelo://app?vid=af4a97e0-dded-4da0-9eba-7bcd01c44383","ios":"levelo://app?vid=af4a97e0-dded-4da0-9eba-7bcd01c44383"},"vehicle_type_id":"4","last_reported":1745694410,"current_range_meters":16000,"station_id":"ce4bgkh2rcd13ifvqbk0","pricing_plan_id":"cebpf4jnsgd1na2vs0mg"},{"bike_id":"91474842-32bf-45c2-856a-80fd91d22aa5","system_id":"levelo_inurba_marseille","lat":43.21182,"lon":5.35072,"is_reserved":false,"is_disabled":false,"rental_uris":{"android":"levelo://app?vid=91474842-32bf-45c2-856a-80fd91d22aa5","ios":"levelo://app?vid=91474842-32bf-45c2-856a-80fd91d22aa5"},"vehicle_type_id":"4","last_reported":1745694410,"current_range_meters":16000,"station_id":"st_cvj6sg6p6f1abm77japg","pricing_plan_id":"cebpf4jnsgd1na2vs0mg"},{"bike_id":"6dd38e6c-5f30-4308-a82b-af1909537ba9","system_id":"levelo_inurba_marseille","lat":43.27614,"lon":5.36104,"is_reserved":false,"is_disabled":false,"rental_uris":{"android":"levelo://app?vid=6dd38e6c-5f30-4308-a82b-af1909537ba9","ios":"levelo://app?vid=6dd38e6c-5f30-4308-a82b-af1909537ba9"},"vehicle_type_id":"4","last_reported":1745694410,"current_range_meters":16000,"station_id":"ce4bgj92rcd13ifvqbe0","pricing_plan_id":"cebpf4jnsgd1na2vs0mg"},{"bike_id":"74ae57cb-755f-4b48-b2ce-f802b1af5e6d","system_id":"levelo_inurba_marseille","lat":43.29527,"lon":5.39041,"is_reserved":false,"is_disabled":false,"rental_uris":{"android":"levelo://app?vid=74ae57cb-755f-4b48-b2ce-f802b1af5e6d","ios":"levelo://app?vid=74ae57cb-755f-4b48-b2ce-f802b1af5e6d"},"vehicle_type_id":"4","last_reported":1745694410,"current_range_meters":16400,"station_id":"ce4bh3p2rcd13ifvqdp0","pricing_plan_id":"cebpf4jnsgd1na2vs0mg"},{"bike_id":"788417a3-b970-4027-b820-5ee1e09b4fab","system_id":"levelo_inurba_marseille","lat":43.2656,"lon":5.37281,"is_reserved":false,"is_disabled":false,"rental_uris":{"android":"levelo://app?vid=788417a3-b970-4027-b820-5ee1e09b4fab","ios":"levelo://app?vid=788417a3-b970-4027-b820-5ee1e09b4fab"},"vehicle_type_id":"4","last_reported":1745694410,"current_range_meters":16400,"station_id":"ce4bhg12rcd13ifvqf70","pricing_plan_id":"cebpf4jnsgd1na2vs0mg"},{"bike_id":"a08e6535-7d97-4f82-b424-5e6daf2d2362","system_id":"levelo_inurba_marseille","lat":43.29527,"lon":5.39399,"is_reserved":false,"is_disabled":true,"rental_uris":{"android":"levelo://app?vid=a08e6535-7d97-4f82-b424-5e6daf2d2362","ios":"levelo://app?vid=a08e6535-7d97-4f82-b424-5e6daf2d2362"},"vehicle_type_id":"4","last_reported":1745694410,"current_range_meters":16400,"station_id":"ce4bh292rcd13ifvqdf0","pricing_plan_id":"cebpf4jnsgd1na2vs0mg"},{"bike_id":"47859ae8-4157-419a-a068-4625ada059ba","system_id":"levelo_inurba_marseille","lat":43.26225,"lon":5.40459,"is_reserved":false,"is_disabled":false,"rental_uris":{"android":"levelo://app?vid=47859ae8-4157-419a-a068-4625ada059ba","ios":"levelo://app?vid=47859ae8-4157-419a-a068-4625ada059ba"},"vehicle_type_id":"4","last_reported":1745694410,"current_range_meters":16400,"station_id":"ce4bhmh2rcd13ifvqgmg","pricing_plan_id":"cebpf4jnsgd1na2vs0mg"},{"bike_id":"ff4e78f4-e049-4594-b32f-c44eeec02a7d","system_id":"levelo_inurba_marseille","lat":43.26196,"lon":5.37449,"is_reserved":false,"is_disabled":false,"rental_uris":{"android":"levelo://app?vid=ff4e78f4-e049-4594-b32f-c44eeec02a7d","ios":"levelo://app?vid=ff4e78f4-e049-4594-b32f-c44eeec02a7d"},"vehicle_type_id":"4","last_reported":1745694410,"current_range_meters":16400,"station_id":"ce4bhgp2rcd13ifvqfc0","pricing_plan_id":"cebpf4jnsgd1na2vs0mg"},{"bike_id":"cd50f895-07c6-4733-8ebb-9997b97b7662","system_id":"levelo_inurba_marseille","lat":43.29413,"lon":5.38644,"is_reserved":false,"is_disabled":false,"rental_uris":{"android":"levelo://app?vid=cd50f895-07c6-4733-8ebb-9997b97b7662","ios":"levelo://app?vid=cd50f895-07c6-4733-8ebb-9997b97b7662"},"vehicle_type_id":"4","last_reported":1745694410,"current_range_meters":16400,"station_id":"ce4bh2h2rcd13ifvqdh0","pricing_plan_id":"cebpf4jnsgd1na2vs0mg"},{"bike_id":"ba855121-da96-430f-97ba-6b78ccb57ca3","system_id":"levelo_inurba_marseille","lat":43.29245,"lon":5.38421,"is_reserved":false,"is_disabled":false,"rental_uris":{"android":"levelo://app?vid=ba855121-da96-430f-97ba-6b78ccb57ca3","ios":"levelo://app?vid=ba855121-da96-430f-97ba-6b78ccb57ca3"},"vehicle_type_id":"4","last_reported":1745694410,"current_range_meters":16400,"station_id":"ce4bh692rcd13ifvqea0","pricing_plan_id":"cebpf4jnsgd1na2vs0mg"},{"bike_id":"dcc90d79-f3b3-4dd0-9605-2ca39129cdf5","system_id":"levelo_inurba_marseille","lat":43.30643,"lon":5.40095,"is_reserved":false,"is_disabled":false,"rental_uris":{"android":"levelo://app?vid=dcc90d79-f3b3-4dd0-9605-2ca39129cdf5","ios":"levelo://app?vid=dcc90d79-f3b3-4dd0-9605-2ca39129cdf5"},"vehicle_type_id":"4","last_reported":1745694410,"current_range_meters":16800,"station_id":"ce4bh112rcd13ifvqda0","pricing_plan_id":"cebpf4jnsgd1na2vs0mg"},{"bike_id":"8a8b3113-1b29-4eb8-aeb2-995a941e7c57","system_id":"levelo_inurba_marseille","lat":43.29532,"lon":5.38544,"is_reserved":false,"is_disabled":false,"rental_uris":{"android":"levelo://app?vid=8a8b3113-1b29-4eb8-aeb2-995a941e7c57","ios":"levelo://app?vid=8a8b3113-1b29-4eb8-aeb2-995a941e7c57"},"vehicle_type_id":"4","last_reported":1745694410,"current_range_meters":16800,"station_id":"ce4bgih2rcd13ifvqba0","pricing_plan_id":"cebpf4jnsgd1na2vs0mg"},{"bike_id":"41f345a9-75d9-4676-b56c-6e8ef96547ca","system_id":"levelo_inurba_marseille","lat":43.240751,"lon":5.377445,"is_reserved":false,"is_disabled":false,"rental_uris":{"android":"levelo://app?vid=41f345a9-75d9-4676-b56c-6e8ef96547ca","ios":"levelo://app?vid=41f345a9-75d9-4676-b56c-6e8ef96547ca"},"vehicle_type_id":"4","last_reported":1745694410,"current_range_meters":16800,"station_id":"ce4bhnp2rcd13ifvqgvg","pricing_plan_id":"cebpf4jnsgd1na2vs0mg"},{"bike_id":"60e04129-c87a-452a-b2b1-f37a8909fe55","system_id":"levelo_inurba_marseille","lat":43.26808,"lon":5.40271,"is_reserved":false,"is_disabled":false,"rental_uris":{"android":"levelo://app?vid=60e04129-c87a-452a-b2b1-f37a8909fe55","ios":"levelo://app?vid=60e04129-c87a-452a-b2b1-f37a8909fe55"},"vehicle_type_id":"4","last_reported":1745694410,"current_range_meters":16800,"station_id":"ce501612rcd8frsf0b60","pricing_plan_id":"cebpf4jnsgd1na2vs0mg"},{"bike_id":"f4caef9c-cdcd-4ac4-a02f-d01f6023a9f5","system_id":"levelo_inurba_marseille","lat":43.27829,"lon":5.39212,"is_reserved":false,"is_disabled":false,"rental_uris":{"android":"levelo://app?vid=f4caef9c-cdcd-4ac4-a02f-d01f6023a9f5","ios":"levelo://app?vid=f4caef9c-cdcd-4ac4-a02f-d01f6023a9f5"},"vehicle_type_id":"4","last_reported":1745694410,"current_range_meters":16800,"station_id":"ce4bhjp2rcd13ifvqga0","pricing_plan_id":"cebpf4jnsgd1na2vs0mg"},{"bike_id":"afd33670-82f7-4c5c-9029-2dc1c34e85e4","system_id":"levelo_inurba_marseille","lat":43.28753,"lon":5.39677,"is_reserved":false,"is_disabled":false,"rental_uris":{"android":"levelo://app?vid=afd33670-82f7-4c5c-9029-2dc1c34e85e4","ios":"levelo://app?vid=afd33670-82f7-4c5c-9029-2dc1c34e85e4"},"vehicle_type_id":"4","last_reported":1745694410,"current_range_meters":16800,"station_id":"","pricing_plan_id":"cebpf4jnsgd1na2vs0mg"},{"bike_id":"ab45b360-e77a-40ef-a87a-9833d5a24017","system_id":"levelo_inurba_marseille","lat":43.29572,"lon":5.37521,"is_reserved":false,"is_disabled":false,"rental_uris":{"android":"levelo://app?vid=ab45b360-e77a-40ef-a87a-9833d5a24017","ios":"levelo://app?vid=ab45b360-e77a-40ef-a87a-9833d5a24017"},"vehicle_type_id":"4","last_reported":1745694410,"current_range_meters":16800,"station_id":"ce4bgh92rcd13ifvqb50","pricing_plan_id":"cebpf4jnsgd1na2vs0mg"},{"bike_id":"560f12bb-1614-4d7c-b78e-ccf5bdec9ea6","system_id":"levelo_inurba_marseille","lat":43.28448,"lon":5.35882,"is_reserved":false,"is_disabled":true,"rental_uris":{"android":"levelo://app?vid=560f12bb-1614-4d7c-b78e-ccf5bdec9ea6","ios":"levelo://app?vid=560f12bb-1614-4d7c-b78e-ccf5bdec9ea6"},"vehicle_type_id":"4","last_reported":1745694410,"current_range_meters":16800,"station_id":"ce4bhah2rcd13ifvqei0","pricing_plan_id":"cebpf4jnsgd1na2vs0mg"},{"bike_id":"f3828880-0c82-47cd-96cd-054293c6eb3b","system_id":"levelo_inurba_marseille","lat":43.30434,"lon":5.39734,"is_reserved":false,"is_disabled":false,"rental_uris":{"android":"levelo://app?vid=f3828880-0c82-47cd-96cd-054293c6eb3b","ios":"levelo://app?vid=f3828880-0c82-47cd-96cd-054293c6eb3b"},"vehicle_type_id":"4","last_reported":1745694410,"current_range_meters":16800,"station_id":"ce4bh092rcd13ifvqd20","pricing_plan_id":"cebpf4jnsgd1na2vs0mg"},{"bike_id":"df4070e3-4f59-4a51-95c6-c4e23705b8e8","system_id":"levelo_inurba_marseille","lat":43.30947,"lon":5.39041,"is_reserved":false,"is_disabled":false,"rental_uris":{"android":"levelo://app?vid=df4070e3-4f59-4a51-95c6-c4e23705b8e8","ios":"levelo://app?vid=df4070e3-4f59-4a51-95c6-c4e23705b8e8"},"vehicle_type_id":"4","last_reported":1745694410,"current_range_meters":17200,"station_id":"ce4bgup2rcd13ifvqco0","pricing_plan_id":"cebpf4jnsgd1na2vs0mg"},{"bike_id":"6ae31842-b668-4a45-830d-bbe2e2b087a7","system_id":"levelo_inurba_marseille","lat":43.29004,"lon":5.35614,"is_reserved":false,"is_disabled":false,"rental_uris":{"android":"levelo://app?vid=6ae31842-b668-4a45-830d-bbe2e2b087a7","ios":"levelo://app?vid=6ae31842-b668-4a45-830d-bbe2e2b087a7"},"vehicle_type_id":"4","last_reported":1745694410,"current_range_meters":16800,"station_id":"ce4bhb92rcd13ifvqen0","pricing_plan_id":"cebpf4jnsgd1na2vs0mg"},{"bike_id":"4e289b1e-53cd-40ae-8189-83fe37f05f4f","system_id":"levelo_inurba_marseille","lat":43.26211,"lon":5.37445,"is_reserved":false,"is_disabled":false,"rental_uris":{"android":"levelo://app?vid=4e289b1e-53cd-40ae-8189-83fe37f05f4f","ios":"levelo://app?vid=4e289b1e-53cd-40ae-8189-83fe37f05f4f"},"vehicle_type_id":"4","last_reported":1745694410,"current_range_meters":17200,"station_id":"ce4bhgp2rcd13ifvqfc0","pricing_plan_id":"cebpf4jnsgd1na2vs0mg"},{"bike_id":"766bea89-cc74-4194-8585-daf130bef95b","system_id":"levelo_inurba_marseille","lat":43.24085,"lon":5.37751,"is_reserved":false,"is_disabled":false,"rental_uris":{"android":"levelo://app?vid=766bea89-cc74-4194-8585-daf130bef95b","ios":"levelo://app?vid=766bea89-cc74-4194-8585-daf130bef95b"},"vehicle_type_id":"4","last_reported":1745694410,"current_range_meters":17200,"station_id":"ce4bhnp2rcd13ifvqgvg","pricing_plan_id":"cebpf4jnsgd1na2vs0mg"},{"bike_id":"38a5787a-3504-47ba-8cd1-5eec7c840ad4","system_id":"levelo_inurba_marseille","lat":43.309488,"lon":5.390469,"is_reserved":false,"is_disabled":false,"rental_uris":{"android":"levelo://app?vid=38a5787a-3504-47ba-8cd1-5eec7c840ad4","ios":"levelo://app?vid=38a5787a-3504-47ba-8cd1-5eec7c840ad4"},"vehicle_type_id":"4","last_reported":1745694410,"current_range_meters":17200,"station_id":"ce4bgup2rcd13ifvqco0","pricing_plan_id":"cebpf4jnsgd1na2vs0mg"},{"bike_id":"23931e92-aae4-49d3-a6ec-7e28158d6b03","system_id":"levelo_inurba_marseille","lat":43.29166,"lon":5.37162,"is_reserved":false,"is_disabled":false,"rental_uris":{"android":"levelo://app?vid=23931e92-aae4-49d3-a6ec-7e28158d6b03","ios":"levelo://app?vid=23931e92-aae4-49d3-a6ec-7e28158d6b03"},"vehicle_type_id":"4","last_reported":1745694410,"current_range_meters":17200,"station_id":"ce4bha92rcd13ifvqeh0","pricing_plan_id":"cebpf4jnsgd1na2vs0mg"},{"bike_id":"7e2b76e3-d232-46a0-aa1c-1e9764e2ef3e","system_id":"levelo_inurba_marseille","lat":43.29713,"lon":5.37697,"is_reserved":false,"is_disabled":false,"rental_uris":{"android":"levelo://app?vid=7e2b76e3-d232-46a0-aa1c-1e9764e2ef3e","ios":"levelo://app?vid=7e2b76e3-d232-46a0-aa1c-1e9764e2ef3e"},"vehicle_type_id":"4","last_reported":1745694410,"current_range_meters":17200,"station_id":"ce4bgkh2rcd13ifvqbl0","pricing_plan_id":"cebpf4jnsgd1na2vs0mg"},{"bike_id":"e289e8fb-7f4f-4a24-91cd-241de9351d47","system_id":"levelo_inurba_marseille","lat":43.30937,"lon":5.39061,"is_reserved":false,"is_disabled":false,"rental_uris":{"android":"levelo://app?vid=e289e8fb-7f4f-4a24-91cd-241de9351d47","ios":"levelo://app?vid=e289e8fb-7f4f-4a24-91cd-241de9351d47"},"vehicle_type_id":"4","last_reported":1745694410,"current_range_meters":17200,"station_id":"ce4bgup2rcd13ifvqco0","pricing_plan_id":"cebpf4jnsgd1na2vs0mg"},{"bike_id":"47a0db4d-b8a0-40f6-9d41-04d50875ecf3","system_id":"levelo_inurba_marseille","lat":43.26547,"lon":5.37321,"is_reserved":false,"is_disabled":false,"rental_uris":{"android":"levelo://app?vid=47a0db4d-b8a0-40f6-9d41-04d50875ecf3","ios":"levelo://app?vid=47a0db4d-b8a0-40f6-9d41-04d50875ecf3"},"vehicle_type_id":"4","last_reported":1745694410,"current_range_meters":17600,"station_id":"ce4bhg12rcd13ifvqf70","pricing_plan_id":"cebpf4jnsgd1na2vs0mg"},{"bike_id":"90fe4748-ab0c-4dba-94a2-953fc418e35b","system_id":"levelo_inurba_marseille","lat":43.29706,"lon":5.36618,"is_reserved":false,"is_disabled":false,"rental_uris":{"android":"levelo://app?vid=90fe4748-ab0c-4dba-94a2-953fc418e35b","ios":"levelo://app?vid=90fe4748-ab0c-4dba-94a2-953fc418e35b"},"vehicle_type_id":"4","last_reported":1745694410,"current_range_meters":17200,"station_id":"ce4bgn12rcd13ifvqbt0","pricing_plan_id":"cebpf4jnsgd1na2vs0mg"},{"bike_id":"b237a1c5-28fa-4419-b9e9-d44742aa9e40","system_id":"levelo_inurba_marseille","lat":43.30802,"lon":5.38159,"is_reserved":false,"is_disabled":false,"rental_uris":{"android":"levelo://app?vid=b237a1c5-28fa-4419-b9e9-d44742aa9e40","ios":"levelo://app?vid=b237a1c5-28fa-4419-b9e9-d44742aa9e40"},"vehicle_type_id":"4","last_reported":1745694410,"current_range_meters":17600,"station_id":"ce4bgt12rcd13ifvqce0","pricing_plan_id":"cebpf4jnsgd1na2vs0mg"},{"bike_id":"b091ee82-375e-4cb3-a7f4-f60085c1008e","system_id":"levelo_inurba_marseille","lat":43.29415,"lon":5.38627,"is_reserved":false,"is_disabled":false,"rental_uris":{"android":"levelo://app?vid=b091ee82-375e-4cb3-a7f4-f60085c1008e","ios":"levelo://app?vid=b091ee82-375e-4cb3-a7f4-f60085c1008e"},"vehicle_type_id":"4","last_reported":1745694410,"current_range_meters":18000,"station_id":"ce4bh2h2rcd13ifvqdh0","pricing_plan_id":"cebpf4jnsgd1na2vs0mg"},{"bike_id":"cf0d47bd-81d3-4c57-82db-02956e138e59","system_id":"levelo_inurba_marseille","lat":43.32365,"lon":5.38867,"is_reserved":false,"is_disabled":false,"rental_uris":{"android":"levelo://app?vid=cf0d47bd-81d3-4c57-82db-02956e138e59","ios":"levelo://app?vid=cf0d47bd-81d3-4c57-82db-02956e138e59"},"vehicle_type_id":"4","last_reported":1745694410,"current_range_meters":18000,"station_id":"ce4bhqp2rcd13ifvqhog","pricing_plan_id":"cebpf4jnsgd1na2vs0mg"},{"bike_id":"57ebd52c-bbc8-4a4d-8d80-2da8f6250dbd","system_id":"levelo_inurba_marseille","lat":43.27875,"lon":5.40715,"is_reserved":false,"is_disabled":true,"rental_uris":{"android":"levelo://app?vid=57ebd52c-bbc8-4a4d-8d80-2da8f6250dbd","ios":"levelo://app?vid=57ebd52c-bbc8-4a4d-8d80-2da8f6250dbd"},"vehicle_type_id":"4","last_reported":1745694410,"current_range_meters":18000,"station_id":"ce4bhnh2rcd13ifvqgtg","pricing_plan_id":"cebpf4jnsgd1na2vs0mg"},{"bike_id":"64e35a3c-d137-4d85-9ced-cad98886db93","system_id":"levelo_inurba_marseille","lat":43.29307,"lon":5.37166,"is_reserved":false,"is_disabled":false,"rental_uris":{"android":"levelo://app?vid=64e35a3c-d137-4d85-9ced-cad98886db93","ios":"levelo://app?vid=64e35a3c-d137-4d85-9ced-cad98886db93"},"vehicle_type_id":"4","last_reported":1745694410,"current_range_meters":18000,"station_id":"ce4bgh92rcd13ifvqb40","pricing_plan_id":"cebpf4jnsgd1na2vs0mg"},{"bike_id":"dfc383dc-343b-438e-9a76-740f9df1fe81","system_id":"levelo_inurba_marseille","lat":43.30381,"lon":5.42367,"is_reserved":false,"is_disabled":false,"rental_uris":{"android":"levelo://app?vid=dfc383dc-343b-438e-9a76-740f9df1fe81","ios":"levelo://app?vid=dfc383dc-343b-438e-9a76-740f9df1fe81"},"vehicle_type_id":"4","last_reported":1745694410,"current_range_meters":18000,"station_id":"","pricing_plan_id":"cebpf4jnsgd1na2vs0mg"},{"bike_id":"4046a82f-66e8-4b55-bd0a-356edea772d8","system_id":"levelo_inurba_marseille","lat":43.29489,"lon":5.37441,"is_reserved":false,"is_disabled":false,"rental_uris":{"android":"levelo://app?vid=4046a82f-66e8-4b55-bd0a-356edea772d8","ios":"levelo://app?vid=4046a82f-66e8-4b55-bd0a-356edea772d8"},"vehicle_type_id":"4","last_reported":1745694410,"current_range_meters":18800,"station_id":"","pricing_plan_id":"cebpf4jnsgd1na2vs0mg"},{"bike_id":"18bb3dd5-5cbe-443a-90b6-1cbb99ab54d5","system_id":"levelo_inurba_marseille","lat":43.29267,"lon":5.38434,"is_reserved":false,"is_disabled":false,"rental_uris":{"android":"levelo://app?vid=18bb3dd5-5cbe-443a-90b6-1cbb99ab54d5","ios":"levelo://app?vid=18bb3dd5-5cbe-443a-90b6-1cbb99ab54d5"},"vehicle_type_id":"4","last_reported":1745694410,"current_range_meters":18800,"station_id":"ce4bh692rcd13ifvqea0","pricing_plan_id":"cebpf4jnsgd1na2vs0mg"},{"bike_id":"0d777af5-4166-475a-a6b9-6a0197032592","system_id":"levelo_inurba_marseille","lat":43.23251,"lon":5.35223,"is_reserved":false,"is_disabled":false,"rental_uris":{"android":"levelo://app?vid=0d777af5-4166-475a-a6b9-6a0197032592","ios":"levelo://app?vid=0d777af5-4166-475a-a6b9-6a0197032592"},"vehicle_type_id":"4","last_reported":1745694410,"current_range_meters":18800,"station_id":"","pricing_plan_id":"cebpf4jnsgd1na2vs0mg"},{"bike_id":"c70bf62d-abf5-4fbf-aa0a-e2b0664b0e17","system_id":"levelo_inurba_marseille","lat":43.28072,"lon":5.39642,"is_reserved":false,"is_disabled":false,"rental_uris":{"android":"levelo://app?vid=c70bf62d-abf5-4fbf-aa0a-e2b0664b0e17","ios":"levelo://app?vid=c70bf62d-abf5-4fbf-aa0a-e2b0664b0e17"},"vehicle_type_id":"4","last_reported":1745694410,"current_range_meters":18800,"station_id":"ce4bho12rcd13ifvqh2g","pricing_plan_id":"cebpf4jnsgd1na2vs0mg"},{"bike_id":"1632a51b-4f8d-46ef-976e-a0fda3d23b5f","system_id":"levelo_inurba_marseille","lat":43.29521,"lon":5.38549,"is_reserved":false,"is_disabled":false,"rental_uris":{"android":"levelo://app?vid=1632a51b-4f8d-46ef-976e-a0fda3d23b5f","ios":"levelo://app?vid=1632a51b-4f8d-46ef-976e-a0fda3d23b5f"},"vehicle_type_id":"4","last_reported":1745694410,"current_range_meters":18800,"station_id":"ce4bgih2rcd13ifvqba0","pricing_plan_id":"cebpf4jnsgd1na2vs0mg"},{"bike_id":"7093fcd7-af63-4c17-8ca4-d04a9de17049","system_id":"levelo_inurba_marseille","lat":43.21746,"lon":5.34606,"is_reserved":false,"is_disabled":false,"rental_uris":{"android":"levelo://app?vid=7093fcd7-af63-4c17-8ca4-d04a9de17049","ios":"levelo://app?vid=7093fcd7-af63-4c17-8ca4-d04a9de17049"},"vehicle_type_id":"4","last_reported":1745694410,"current_range_meters":18800,"station_id":"","pricing_plan_id":"cebpf4jnsgd1na2vs0mg"},{"bike_id":"819dd2dd-36bb-47c9-b308-1a7fc1811ada","system_id":"levelo_inurba_marseille","lat":43.297998,"lon":5.380801,"is_reserved":false,"is_disabled":false,"rental_uris":{"android":"levelo://app?vid=819dd2dd-36bb-47c9-b308-1a7fc1811ada","ios":"levelo://app?vid=819dd2dd-36bb-47c9-b308-1a7fc1811ada"},"vehicle_type_id":"4","last_reported":1745694410,"current_range_meters":18800,"station_id":"ce4bhgh2rcd13ifvqfb0","pricing_plan_id":"cebpf4jnsgd1na2vs0mg"},{"bike_id":"79fed3c8-9a85-4f45-8955-0676ed125ab0","system_id":"levelo_inurba_marseille","lat":43.29273,"lon":5.36843,"is_reserved":false,"is_disabled":false,"rental_uris":{"android":"levelo://app?vid=79fed3c8-9a85-4f45-8955-0676ed125ab0","ios":"levelo://app?vid=79fed3c8-9a85-4f45-8955-0676ed125ab0"},"vehicle_type_id":"4","last_reported":1745694410,"current_range_meters":18800,"station_id":"ce4bhbp2rcd13ifvqesg","pricing_plan_id":"cebpf4jnsgd1na2vs0mg"},{"bike_id":"ced9933d-8b10-4c97-8329-fdea1a467d3b","system_id":"levelo_inurba_marseille","lat":43.29277,"lon":5.38418,"is_reserved":false,"is_disabled":false,"rental_uris":{"android":"levelo://app?vid=ced9933d-8b10-4c97-8329-fdea1a467d3b","ios":"levelo://app?vid=ced9933d-8b10-4c97-8329-fdea1a467d3b"},"vehicle_type_id":"4","last_reported":1745694410,"current_range_meters":18800,"station_id":"ce4bh692rcd13ifvqea0","pricing_plan_id":"cebpf4jnsgd1na2vs0mg"},{"bike_id":"389fa13e-9fb8-4551-94cc-3437e858ed36","system_id":"levelo_inurba_marseille","lat":43.24167,"lon":5.36394,"is_reserved":false,"is_disabled":false,"rental_uris":{"android":"levelo://app?vid=389fa13e-9fb8-4551-94cc-3437e858ed36","ios":"levelo://app?vid=389fa13e-9fb8-4551-94cc-3437e858ed36"},"vehicle_type_id":"4","last_reported":1745694410,"current_range_meters":18800,"station_id":"cpo36qri1sfpv3e86is0","pricing_plan_id":"cebpf4jnsgd1na2vs0mg"},{"bike_id":"3ad35c25-d89f-4ea6-848b-393a00786d79","system_id":"levelo_inurba_marseille","lat":43.29886,"lon":5.42075,"is_reserved":false,"is_disabled":false,"rental_uris":{"android":"levelo://app?vid=3ad35c25-d89f-4ea6-848b-393a00786d79","ios":"levelo://app?vid=3ad35c25-d89f-4ea6-848b-393a00786d79"},"vehicle_type_id":"4","last_reported":1745694410,"current_range_meters":18800,"station_id":"","pricing_plan_id":"cebpf4jnsgd1na2vs0mg"},{"bike_id":"1567957b-a54b-4241-b5da-797a4283cb5b","system_id":"levelo_inurba_marseille","lat":43.283556,"lon":5.386433,"is_reserved":false,"is_disabled":false,"rental_uris":{"android":"levelo://app?vid=1567957b-a54b-4241-b5da-797a4283cb5b","ios":"levelo://app?vid=1567957b-a54b-4241-b5da-797a4283cb5b"},"vehicle_type_id":"4","last_reported":1745694410,"current_range_meters":18800,"station_id":"ce4bh492rcd13ifvqdvg","pricing_plan_id":"cebpf4jnsgd1na2vs0mg"},{"bike_id":"b330c3b4-8203-49c9-a4bf-5485d09a1d2d","system_id":"levelo_inurba_marseille","lat":43.30201,"lon":5.39464,"is_reserved":false,"is_disabled":true,"rental_uris":{"android":"levelo://app?vid=b330c3b4-8203-49c9-a4bf-5485d09a1d2d","ios":"levelo://app?vid=b330c3b4-8203-49c9-a4bf-5485d09a1d2d"},"vehicle_type_id":"4","last_reported":1745694410,"current_range_meters":18800,"station_id":"ce4bh0p2rcd13ifvqd70","pricing_plan_id":"cebpf4jnsgd1na2vs0mg"},{"bike_id":"99be1414-58ff-4752-826b-d0dcc4401711","system_id":"levelo_inurba_marseille","lat":43.2481,"lon":5.37461,"is_reserved":false,"is_disabled":true,"rental_uris":{"android":"levelo://app?vid=99be1414-58ff-4752-826b-d0dcc4401711","ios":"levelo://app?vid=99be1414-58ff-4752-826b-d0dcc4401711"},"vehicle_type_id":"4","last_reported":1745694410,"current_range_meters":18800,"station_id":"ce4bhgh2rcd13ifvqfb0","pricing_plan_id":"cebpf4jnsgd1na2vs0mg"},{"bike_id":"6152668f-6423-4fa0-ab8d-8bcb99b89efa","system_id":"levelo_inurba_marseille","lat":43.294168,"lon":5.38625,"is_reserved":false,"is_disabled":false,"rental_uris":{"android":"levelo://app?vid=6152668f-6423-4fa0-ab8d-8bcb99b89efa","ios":"levelo://app?vid=6152668f-6423-4fa0-ab8d-8bcb99b89efa"},"vehicle_type_id":"4","last_reported":1745694410,"current_range_meters":19200,"station_id":"ce4bh2h2rcd13ifvqdh0","pricing_plan_id":"cebpf4jnsgd1na2vs0mg"},{"bike_id":"732e8600-fef4-438f-88f6-771fab925da9","system_id":"levelo_inurba_marseille","lat":43.32109,"lon":5.36769,"is_reserved":false,"is_disabled":false,"rental_uris":{"android":"levelo://app?vid=732e8600-fef4-438f-88f6-771fab925da9","ios":"levelo://app?vid=732e8600-fef4-438f-88f6-771fab925da9"},"vehicle_type_id":"4","last_reported":1745694410,"current_range_meters":19200,"station_id":"ce4bhrh2rcd13ifvqhug","pricing_plan_id":"cebpf4jnsgd1na2vs0mg"},{"bike_id":"226012da-a4ff-4396-8e95-84a79b0c50a1","system_id":"levelo_inurba_marseille","lat":43.24673,"lon":5.38147,"is_reserved":false,"is_disabled":false,"rental_uris":{"android":"levelo://app?vid=226012da-a4ff-4396-8e95-84a79b0c50a1","ios":"levelo://app?vid=226012da-a4ff-4396-8e95-84a79b0c50a1"},"vehicle_type_id":"4","last_reported":1745694410,"current_range_meters":19200,"station_id":"ce4bhih2rcd13ifvqfr0","pricing_plan_id":"cebpf4jnsgd1na2vs0mg"},{"bike_id":"63e87da0-f421-4d44-9460-33172dc0267c","system_id":"levelo_inurba_marseille","lat":43.32532,"lon":5.41448,"is_reserved":false,"is_disabled":false,"rental_uris":{"android":"levelo://app?vid=63e87da0-f421-4d44-9460-33172dc0267c","ios":"levelo://app?vid=63e87da0-f421-4d44-9460-33172dc0267c"},"vehicle_type_id":"4","last_reported":1745694410,"current_range_meters":19200,"station_id":"ce4bhq12rcd13ifvqhhg","pricing_plan_id":"cebpf4jnsgd1na2vs0mg"},{"bike_id":"3d934169-6946-46cc-87a4-ce5d03b77075","system_id":"levelo_inurba_marseille","lat":43.21739,"lon":5.34589,"is_reserved":false,"is_disabled":false,"rental_uris":{"android":"levelo://app?vid=3d934169-6946-46cc-87a4-ce5d03b77075","ios":"levelo://app?vid=3d934169-6946-46cc-87a4-ce5d03b77075"},"vehicle_type_id":"4","last_reported":1745694410,"current_range_meters":19200,"station_id":"","pricing_plan_id":"cebpf4jnsgd1na2vs0mg"},{"bike_id":"070b2277-cab6-48b6-b16b-a17b0378b9b8","system_id":"levelo_inurba_marseille","lat":43.30462,"lon":5.37904,"is_reserved":false,"is_disabled":false,"rental_uris":{"android":"levelo://app?vid=070b2277-cab6-48b6-b16b-a17b0378b9b8","ios":"levelo://app?vid=070b2277-cab6-48b6-b16b-a17b0378b9b8"},"vehicle_type_id":"4","last_reported":1745694410,"current_range_meters":19200,"station_id":"ce4bgup2rcd13ifvqcn0","pricing_plan_id":"cebpf4jnsgd1na2vs0mg"},{"bike_id":"0431e966-cbc8-479f-bde6-89740295b410","system_id":"levelo_inurba_marseille","lat":43.303191,"lon":5.404454,"is_reserved":false,"is_disabled":false,"rental_uris":{"android":"levelo://app?vid=0431e966-cbc8-479f-bde6-89740295b410","ios":"levelo://app?vid=0431e966-cbc8-479f-bde6-89740295b410"},"vehicle_type_id":"4","last_reported":1745694410,"current_range_meters":19200,"station_id":"ce4bh312rcd13ifvqdj0","pricing_plan_id":"cebpf4jnsgd1na2vs0mg"},{"bike_id":"26061ae2-fdaf-499b-8450-bfdb95715349","system_id":"levelo_inurba_marseille","lat":43.311729,"lon":5.387208,"is_reserved":false,"is_disabled":false,"rental_uris":{"android":"levelo://app?vid=26061ae2-fdaf-499b-8450-bfdb95715349","ios":"levelo://app?vid=26061ae2-fdaf-499b-8450-bfdb95715349"},"vehicle_type_id":"4","last_reported":1745694410,"current_range_meters":19200,"station_id":"ce4bgj92rcd13ifvqbd0","pricing_plan_id":"cebpf4jnsgd1na2vs0mg"},{"bike_id":"edb7787a-c68b-4c3c-a204-0dcc8d513b0d","system_id":"levelo_inurba_marseille","lat":43.24661,"lon":5.3816,"is_reserved":false,"is_disabled":false,"rental_uris":{"android":"levelo://app?vid=edb7787a-c68b-4c3c-a204-0dcc8d513b0d","ios":"levelo://app?vid=edb7787a-c68b-4c3c-a204-0dcc8d513b0d"},"vehicle_type_id":"4","last_reported":1745694410,"current_range_meters":19600,"station_id":"ce4bhih2rcd13ifvqfr0","pricing_plan_id":"cebpf4jnsgd1na2vs0mg"},{"bike_id":"a4bf52fb-6d4e-4119-b378-66aa0be39bcf","system_id":"levelo_inurba_marseille","lat":43.290047,"lon":5.356358,"is_reserved":false,"is_disabled":false,"rental_uris":{"android":"levelo://app?vid=a4bf52fb-6d4e-4119-b378-66aa0be39bcf","ios":"levelo://app?vid=a4bf52fb-6d4e-4119-b378-66aa0be39bcf"},"vehicle_type_id":"4","last_reported":1745694410,"current_range_meters":19200,"station_id":"ce4bgn12rcd13ifvqbt0","pricing_plan_id":"cebpf4jnsgd1na2vs0mg"},{"bike_id":"f5181ff8-3bea-459d-9bd7-848090e8ed24","system_id":"levelo_inurba_marseille","lat":43.26563,"lon":5.37282,"is_reserved":false,"is_disabled":false,"rental_uris":{"android":"levelo://app?vid=f5181ff8-3bea-459d-9bd7-848090e8ed24","ios":"levelo://app?vid=f5181ff8-3bea-459d-9bd7-848090e8ed24"},"vehicle_type_id":"4","last_reported":1745694410,"current_range_meters":19600,"station_id":"ce4bhg12rcd13ifvqf70","pricing_plan_id":"cebpf4jnsgd1na2vs0mg"},{"bike_id":"d701b0a8-906c-404c-ba7d-4b8d47c546c5","system_id":"levelo_inurba_marseille","lat":43.290162,"lon":5.38123,"is_reserved":false,"is_disabled":false,"rental_uris":{"android":"levelo://app?vid=d701b0a8-906c-404c-ba7d-4b8d47c546c5","ios":"levelo://app?vid=d701b0a8-906c-404c-ba7d-4b8d47c546c5"},"vehicle_type_id":"4","last_reported":1745694410,"current_range_meters":19200,"station_id":"ce4bh4p2rcd13ifvqe1g","pricing_plan_id":"cebpf4jnsgd1na2vs0mg"},{"bike_id":"831a6a93-0e0a-4385-a7b6-6cfc5ae3cb35","system_id":"levelo_inurba_marseille","lat":43.30963,"lon":5.39066,"is_reserved":false,"is_disabled":false,"rental_uris":{"android":"levelo://app?vid=831a6a93-0e0a-4385-a7b6-6cfc5ae3cb35","ios":"levelo://app?vid=831a6a93-0e0a-4385-a7b6-6cfc5ae3cb35"},