{"last_updated":1727190565,"ttl":60,"version":"2.2","data":{"bikes":[{"bike_id":"4b15e613-cff0-423f-8d70-2473a04ba404","system_id":"levelo_inurba_marseille","lat":43.24183,"lon":5.39725,"is_reserved":false,"is_disabled":false,"rental_uris":{"android":"levelo://app?vid=4b15e613-cff0-423f-8d70-2473a04ba404","ios":"levelo://app?vid=4b15e613-cff0-423f-8d70-2473a04ba404"},"vehicle_type_id":"4","last_reported":1727190565,"current_range_meters":25200,"station_id":"ce4bhn12rcd13ifvqgpg","pricing_plan_id":"cebpf4jnsgd1na2vs0mg"},{"bike_id":"08a24628-1519-4136-870a-4099c894c537","system_id":"levelo_inurba_marseille","lat":43.24388,"lon":5.37055,"is_reserved":false,"is_disabled":false,"rental_uris":{"android":"levelo://app?vid=08a24628-1519-4136-870a-4099c894c537","ios":"levelo://app?vid=08a24628-1519-4136-870a-4099c894c537"},"vehicle_type_id":"4","last_reported":1727190565,"current_range_meters":36800,"station_id":"ce4bhhh2rcd13ifvqfk0","pricing_plan_id":"cebpf4jnsgd1na2vs0mg"},{"bike_id":"7072a3dc-1c19-415e-a844-c22ee684cab5","system_id":"levelo_inurba_marseille","lat":43.27073,"lon":5.42276,"is_reserved":false,"is_disabled":false,"rental_uris":{"android":"levelo://app?vid=7072a3dc-1c19-415e-a844-c22ee684cab5","ios":"levelo://app?vid=7072a3dc-1c19-415e-a844-c22ee684cab5"},"vehicle_type_id":"4","last_reported":1727190565,"current_range_meters":19200,"station_id":"ce4bhk92rcd13ifvqgb0","pricing_plan_id":"cebpf4jnsgd1na2vs0mg"},{"bike_id":"9a7a417f-021d-4e88-bae1-29eb07d5a678","system_id":"levelo_inurba_marseille","lat":43.28445,"lon":5.39206,"is_reserved":false,"is_disabled":false,"rental_uris":{"android":"levelo://app?vid=9a7a417f-021d-4e88-bae1-29eb07d5a678","ios":"levelo://app?vid=9a7a417f-021d-4e88-bae1-29eb07d5a678"},"vehicle_type_id":"4","last_reported":1727190565,"current_range_meters":30800,"station_id":"ce4bhoh2rcd13ifvqh5g","pricing_plan_id":"cebpf4jnsgd1na2vs0mg"},{"bike_id":"c6274dea-4d64-4afb-9655-251f555df2a8","system_id":"levelo_inurba_marseille","lat":43.28266,"lon":5.35064,"is_reserved":false,"is_disabled":false,"rental_uris":{"android":"levelo://app?vid=c6274dea-4d64-4afb-9655-251f555df2a8","ios":"levelo://app?vid=c6274dea-4d64-4afb-9655-251f555df2a8"},"vehicle_type_id":"4","last_reported":1727190565,"current_range_meters":12400,"station_id":"ce4bhbp2rcd13ifvqerg","pricing_plan_id":"cebpf4jnsgd1na2vs0mg"},{"bike_id":"5d3d257f-bb51-4bce-a465-c8d6a178e971","system_id":"levelo_inurba_marseille","lat":43.32658,"lon":5.40979,"is_reserved":false,"is_disabled":false,"rental_uris":{"android":"levelo://app?vid=5d3d257f-bb51-4bce-a465-c8d6a178e971","ios":"levelo://app?vid=5d3d257f-bb51-4bce-a465-c8d6a178e971"},"vehicle_type_id":"4","last_reported":1727190565,"current_range_meters":36400,"station_id":"ce4bhpp2rcd13ifvqhgg","pricing_plan_id":"cebpf4jnsgd1na2vs0mg"},{"bike_id":"ea769b1a-f9ed-4f21-a469-f28ce54209bf","system_id":"levelo_inurba_marseille","lat":43.27991,"lon":5.41652,"is_reserved":false,"is_disabled":false,"rental_uris":{"android":"levelo://app?vid=ea769b1a-f9ed-4f21-a469-f28ce54209bf","ios":"levelo://app?vid=ea769b1a-f9ed-4f21-a469-f28ce54209bf"},"vehicle_type_id":"4","last_reported":1727190565,"current_range_meters":20800,"station_id":"ce4bho12rcd13ifvqh1g","pricing_plan_id":"cebpf4jnsgd1na2vs0mg"},{"bike_id":"5d14f4ff-3e35-4dda-8316-4a6efc94e92f","system_id":"levelo_inurba_marseille","lat":43.29012,"lon":5.38135,"is_reserved":false,"is_disabled":false,"rental_uris":{"android":"levelo://app?vid=5d14f4ff-3e35-4dda-8316-4a6efc94e92f","ios":"levelo://app?vid=5d14f4ff-3e35-4dda-8316-4a6efc94e92f"},"vehicle_type_id":"4","last_reported":1727190565,"current_range_meters":16000,"station_id":"ce4bh4p2rcd13ifvqe1g","pricing_plan_id":"cebpf4jnsgd1na2vs0mg"},{"bike_id":"cec702f9-6429-493f-a263-782f4419d3a6","system_id":"levelo_inurba_marseille","lat":43.2587,"lon":5.39902,"is_reserved":false,"is_disabled":false,"rental_uris":{"android":"levelo://app?vid=cec702f9-6429-493f-a263-782f4419d3a6","ios":"levelo://app?vid=cec702f9-6429-493f-a263-782f4419d3a6"},"vehicle_type_id":"4","last_reported":1727190565,"current_range_meters":28400,"station_id":"ce4bhl92rcd13ifvqghg","pricing_plan_id":"cebpf4jnsgd1na2vs0mg"},{"bike_id":"3715b5b0-61f0-4917-b99b-047313c97632","system_id":"levelo_inurba_marseille","lat":43.30312,"lon":5.39202,"is_reserved":false,"is_disabled":false,"rental_uris":{"android":"levelo://app?vid=3715b5b0-61f0-4917-b99b-047313c97632","ios":"levelo://app?vid=3715b5b0-61f0-4917-b99b-047313c97632"},"vehicle_type_id":"4","last_reported":1727190565,"current_range_meters":31200,"station_id":"ce4bgkh2rcd13ifvqbk0","pricing_plan_id":"cebpf4jnsgd1na2vs0mg"},{"bike_id":"ed62c3b9-63d0-4c8c-b710-8b5113de19f7","system_id":"levelo_inurba_marseille","lat":43.28939,"lon":5.36398,"is_reserved":false,"is_disabled":false,"rental_uris":{"android":"levelo://app?vid=ed62c3b9-63d0-4c8c-b710-8b5113de19f7","ios":"levelo://app?vid=ed62c3b9-63d0-4c8c-b710-8b5113de19f7"},"vehicle_type_id":"4","last_reported":1727190565,"current_range_meters":7200,"station_id":"ce4bhc92rcd13ifvqetg","pricing_plan_id":"cebpf4jnsgd1na2vs0mg"},{"bike_id":"3f374e11-d3df-44e2-be7e-d567e0af5e87","system_id":"levelo_inurba_marseille","lat":43.32285,"lon":5.38279,"is_reserved":false,"is_disabled":false,"rental_uris":{"android":"levelo://app?vid=3f374e11-d3df-44e2-be7e-d567e0af5e87","ios":"levelo://app?vid=3f374e11-d3df-44e2-be7e-d567e0af5e87"},"vehicle_type_id":"4","last_reported":1727190565,"current_range_meters":13600,"station_id":"ce4bhr12rcd13ifvqhqg","pricing_plan_id":"cebpf4jnsgd1na2vs0mg"},{"bike_id":"9c03e0f0-96c4-48fe-a0c9-2ff39af48c29","system_id":"levelo_inurba_marseille","lat":43.31994,"lon":5.3816,"is_reserved":false,"is_disabled":false,"rental_uris":{"android":"levelo://app?vid=9c03e0f0-96c4-48fe-a0c9-2ff39af48c29","ios":"levelo://app?vid=9c03e0f0-96c4-48fe-a0c9-2ff39af48c29"},"vehicle_type_id":"4","last_reported":1727190565,"current_range_meters":25600,"station_id":"ce4bhr12rcd13ifvqhpg","pricing_plan_id":"cebpf4jnsgd1na2vs0mg"},{"bike_id":"07b06a02-850b-462d-b445-8b6fd98a1e30","system_id":"levelo_inurba_marseille","lat":43.269397,"lon":5.402652,"is_reserved":false,"is_disabled":false,"rental_uris":{"android":"levelo://app?vid=07b06a02-850b-462d-b445-8b6fd98a1e30","ios":"levelo://app?vid=07b06a02-850b-462d-b445-8b6fd98a1e30"},"vehicle_type_id":"4","last_reported":1727190565,"current_range_meters":32400,"station_id":"ce4bhg12rcd13ifvqf80","pricing_plan_id":"cebpf4jnsgd1na2vs0mg"},{"bike_id":"2ec5f482-ef2f-4ef8-b42f-3ca6cf554387","system_id":"levelo_inurba_marseille","lat":43.31326,"lon":5.39699,"is_reserved":false,"is_disabled":false,"rental_uris":{"android":"levelo://app?vid=2ec5f482-ef2f-4ef8-b42f-3ca6cf554387","ios":"levelo://app?vid=2ec5f482-ef2f-4ef8-b42f-3ca6cf554387"},"vehicle_type_id":"4","last_reported":1727190565,"current_range_meters":38800,"station_id":"ce4bgvp2rcd13ifvqcu0","pricing_plan_id":"cebpf4jnsgd1na2vs0mg"},{"bike_id":"7737b815-6daf-41f0-8354-4b28ba75917f","system_id":"levelo_inurba_marseille","lat":43.30205,"lon":5.39821,"is_reserved":false,"is_disabled":false,"rental_uris":{"android":"levelo://app?vid=7737b815-6daf-41f0-8354-4b28ba75917f","ios":"levelo://app?vid=7737b815-6daf-41f0-8354-4b28ba75917f"},"vehicle_type_id":"4","last_reported":1727190565,"current_range_meters":22800,"station_id":"ce4bgvp2rcd13ifvqct0","pricing_plan_id":"cebpf4jnsgd1na2vs0mg"},{"bike_id":"6af05b22-7037-4454-861c-3b90a9d37c6e","system_id":"levelo_inurba_marseille","lat":43.23155,"lon":5.43705,"is_reserved":false,"is_disabled":false,"rental_uris":{"android":"levelo://app?vid=6af05b22-7037-4454-861c-3b90a9d37c6e","ios":"levelo://app?vid=6af05b22-7037-4454-861c-3b90a9d37c6e"},"vehicle_type_id":"4","last_reported":1727190565,"current_range_meters":20000,"station_id":"ce4bhmp2rcd13ifvqgog","pricing_plan_id":"cebpf4jnsgd1na2vs0mg"},{"bike_id":"1e1266c3-3a12-4684-8789-a841eafca9eb","system_id":"levelo_inurba_marseille","lat":43.29971,"lon":5.37182,"is_reserved":false,"is_disabled":false,"rental_uris":{"android":"levelo://app?vid=1e1266c3-3a12-4684-8789-a841eafca9eb","ios":"levelo://app?vid=1e1266c3-3a12-4684-8789-a841eafca9eb"},"vehicle_type_id":"4","last_reported":1727190565,"current_range_meters":20000,"station_id":"ce4bgr92rcd13ifvqc7g","pricing_plan_id":"cebpf4jnsgd1na2vs0mg"},{"bike_id":"6c617c7e-2fae-48c4-80a1-8c792733edce","system_id":"levelo_inurba_marseille","lat":43.24656,"lon":5.38171,"is_reserved":false,"is_disabled":false,"rental_uris":{"android":"levelo://app?vid=6c617c7e-2fae-48c4-80a1-8c792733edce","ios":"levelo://app?vid=6c617c7e-2fae-48c4-80a1-8c792733edce"},"vehicle_type_id":"4","last_reported":1727190565,"current_range_meters":38000,"station_id":"ce4bhih2rcd13ifvqfr0","pricing_plan_id":"cebpf4jnsgd1na2vs0mg"},{"bike_id":"d4af3188-051f-4a7d-a203-31b3728fca1e","system_id":"levelo_inurba_marseille","lat":43.27068,"lon":5.42275,"is_reserved":false,"is_disabled":false,"rental_uris":{"android":"levelo://app?vid=d4af3188-051f-4a7d-a203-31b3728fca1e","ios":"levelo://app?vid=d4af3188-051f-4a7d-a203-31b3728fca1e"},"vehicle_type_id":"4","last_reported":1727190565,"current_range_meters":36400,"station_id":"ce4bhk92rcd13ifvqgb0","pricing_plan_id":"cebpf4jnsgd1na2vs0mg"},{"bike_id":"7bd0e063-2b14-482a-9a8d-55fb680ce732","system_id":"levelo_inurba_marseille","lat":43.26682,"lon":5.38273,"is_reserved":false,"is_disabled":false,"rental_uris":{"android":"levelo://app?vid=7bd0e063-2b14-482a-9a8d-55fb680ce732","ios":"levelo://app?vid=7bd0e063-2b14-482a-9a8d-55fb680ce732"},"vehicle_type_id":"4","last_reported":1727190565,"current_range_meters":36000,"station_id":"ce4bhg92rcd13ifvqf90","pricing_plan_id":"cebpf4jnsgd1na2vs0mg"},{"bike_id":"f8c704cc-636c-4268-80af-5309e4b09904","system_id":"levelo_inurba_marseille","lat":43.24184,"lon":5.39711,"is_reserved":false,"is_disabled":false,"rental_uris":{"android":"levelo://app?vid=f8c704cc-636c-4268-80af-5309e4b09904","ios":"levelo://app?vid=f8c704cc-636c-4268-80af-5309e4b09904"},"vehicle_type_id":"4","last_reported":1727190565,"current_range_meters":36800,"station_id":"ce4bhn12rcd13ifvqgpg","pricing_plan_id":"cebpf4jnsgd1na2vs0mg"},{"bike_id":"c106d7d4-05d2-447e-b173-8cc4a0392e72","system_id":"levelo_inurba_marseille","lat":43.290079,"lon":5.35617,"is_reserved":false,"is_disabled":false,"rental_uris":{"android":"levelo://app?vid=c106d7d4-05d2-447e-b173-8cc4a0392e72","ios":"levelo://app?vid=c106d7d4-05d2-447e-b173-8cc4a0392e72"},"vehicle_type_id":"4","last_reported":1727190565,"current_range_meters":15200,"station_id":"ce4bhb92rcd13ifvqen0","pricing_plan_id":"cebpf4jnsgd1na2vs0mg"},{"bike_id":"4b6cc228-d3e6-44a3-bee8-b0056aed30bf","system_id":"levelo_inurba_marseille","lat":43.2315,"lon":5.43708,"is_reserved":false,"is_disabled":false,"rental_uris":{"android":"levelo://app?vid=4b6cc228-d3e6-44a3-bee8-b0056aed30bf","ios":"levelo://app?vid=4b6cc228-d3e6-44a3-bee8-b0056aed30bf"},"vehicle_type_id":"4","last_reported":1727190565,"current_range_meters":40000,"station_id":"ce4bhmp2rcd13ifvqgog","pricing_plan_id":"cebpf4jnsgd1na2vs0mg"},{"bike_id":"7f8cb1de-9d96-4425-a08c-f2ac49d498a1","system_id":"levelo_inurba_marseille","lat":43.24183,"lon":5.39721,"is_reserved":false,"is_disabled":false,"rental_uris":{"android":"levelo://app?vid=7f8cb1de-9d96-4425-a08c-f2ac49d498a1","ios":"levelo://app?vid=7f8cb1de-9d96-4425-a08c-f2ac49d498a1"},"vehicle_type_id":"4","last_reported":1727190565,"current_range_meters":6000,"station_id":"ce4bhn12rcd13ifvqgpg","pricing_plan_id":"cebpf4jnsgd1na2vs0mg"},{"bike_id":"2b53c05c-7e74-451c-9f0a-5f217febdc56","system_id":"levelo_inurba_marseille","lat":43.30146,"lon":5.3769,"is_reserved":false,"is_disabled":false,"rental_uris":{"android":"levelo://app?vid=2b53c05c-7e74-451c-9f0a-5f217febdc56","ios":"levelo://app?vid=2b53c05c-7e74-451c-9f0a-5f217febdc56"},"vehicle_type_id":"4","last_reported":1727190565,"current_range_meters":8000,"station_id":"","pricing_plan_id":"cebpf4jnsgd1na2vs0mg"},{"bike_id":"7a8458d5-44ac-4f2e-abef-3f01eb31f7ca","system_id":"levelo_inurba_marseille","lat":43.337444,"lon":5.374475,"is_reserved":false,"is_disabled":false,"rental_uris":{"android":"levelo://app?vid=7a8458d5-44ac-4f2e-abef-3f01eb31f7ca","ios":"levelo://app?vid=7a8458d5-44ac-4f2e-abef-3f01eb31f7ca"},"vehicle_type_id":"4","last_reported":1727190565,"current_range_meters":29600,"station_id":"","pricing_plan_id":"cebpf4jnsgd1na2vs0mg"},{"bike_id":"f9e46078-231e-4825-9276-825aff2ebf18","system_id":"levelo_inurba_marseille","lat":43.3043,"lon":5.39749,"is_reserved":false,"is_disabled":false,"rental_uris":{"android":"levelo://app?vid=f9e46078-231e-4825-9276-825aff2ebf18","ios":"levelo://app?vid=f9e46078-231e-4825-9276-825aff2ebf18"},"vehicle_type_id":"4","last_reported":1727190565,"current_range_meters":35200,"station_id":"ce4bh092rcd13ifvqd20","pricing_plan_id":"cebpf4jnsgd1na2vs0mg"},{"bike_id":"32a74555-c137-425b-9923-45dade128ff8","system_id":"levelo_inurba_marseille","lat":43.29702,"lon":5.37296,"is_reserved":false,"is_disabled":false,"rental_uris":{"android":"levelo://app?vid=32a74555-c137-425b-9923-45dade128ff8","ios":"levelo://app?vid=32a74555-c137-425b-9923-45dade128ff8"},"vehicle_type_id":"4","last_reported":1727190565,"current_range_meters":37600,"station_id":"ce4bgk12rcd13ifvqbj0","pricing_plan_id":"cebpf4jnsgd1na2vs0mg"},{"bike_id":"c9b5ec6f-9235-414f-8086-a847b21c71d9","system_id":"levelo_inurba_marseille","lat":43.31995,"lon":5.38161,"is_reserved":false,"is_disabled":false,"rental_uris":{"android":"levelo://app?vid=c9b5ec6f-9235-414f-8086-a847b21c71d9","ios":"levelo://app?vid=c9b5ec6f-9235-414f-8086-a847b21c71d9"},"vehicle_type_id":"4","last_reported":1727190565,"current_range_meters":28400,"station_id":"ce4bhr12rcd13ifvqhpg","pricing_plan_id":"cebpf4jnsgd1na2vs0mg"},{"bike_id":"52c997c6-dd4a-4a8c-bbcf-dbeed832e0a2","system_id":"levelo_inurba_marseille","lat":43.32657,"lon":5.40994,"is_reserved":false,"is_disabled":false,"rental_uris":{"android":"levelo://app?vid=52c997c6-dd4a-4a8c-bbcf-dbeed832e0a2","ios":"levelo://app?vid=52c997c6-dd4a-4a8c-bbcf-dbeed832e0a2"},"vehicle_type_id":"4","last_reported":1727190565,"current_range_meters":38000,"station_id":"ce4bhpp2rcd13ifvqhgg","pricing_plan_id":"cebpf4jnsgd1na2vs0mg"},{"bike_id":"15638358-8ac5-4cf3-b54b-2e666ef4aef2","system_id":"levelo_inurba_marseille","lat":43.29306,"lon":5.3746,"is_reserved":false,"is_disabled":false,"rental_uris":{"android":"levelo://app?vid=15638358-8ac5-4cf3-b54b-2e666ef4aef2","ios":"levelo://app?vid=15638358-8ac5-4cf3-b54b-2e666ef4aef2"},"vehicle_type_id":"4","last_reported":1727190565,"current_range_meters":18000,"station_id":"ce4bgi12rcd13ifvqb70","pricing_plan_id":"cebpf4jnsgd1na2vs0mg"},{"bike_id":"9afba549-751e-4f70-baed-99a39431061a","system_id":"levelo_inurba_marseille","lat":43.26558,"lon":5.37282,"is_reserved":false,"is_disabled":false,"rental_uris":{"android":"levelo://app?vid=9afba549-751e-4f70-baed-99a39431061a","ios":"levelo://app?vid=9afba549-751e-4f70-baed-99a39431061a"},"vehicle_type_id":"4","last_reported":1727190565,"current_range_meters":33200,"station_id":"ce4bhg12rcd13ifvqf70","pricing_plan_id":"cebpf4jnsgd1na2vs0mg"},{"bike_id":"2bb34e6d-f037-4009-aa61-80dd39e322b7","system_id":"levelo_inurba_marseille","lat":43.31281,"lon":5.40172,"is_reserved":false,"is_disabled":false,"rental_uris":{"android":"levelo://app?vid=2bb34e6d-f037-4009-aa61-80dd39e322b7","ios":"levelo://app?vid=2bb34e6d-f037-4009-aa61-80dd39e322b7"},"vehicle_type_id":"4","last_reported":1727190565,"current_range_meters":36000,"station_id":"ce4bh092rcd13ifvqd30","pricing_plan_id":"cebpf4jnsgd1na2vs0mg"},{"bike_id":"5ea508ad-7f44-47f0-963b-02431124691b","system_id":"levelo_inurba_marseille","lat":43.26498,"lon":5.39547,"is_reserved":false,"is_disabled":false,"rental_uris":{"android":"levelo://app?vid=5ea508ad-7f44-47f0-963b-02431124691b","ios":"levelo://app?vid=5ea508ad-7f44-47f0-963b-02431124691b"},"vehicle_type_id":"4","last_reported":1727190565,"current_range_meters":17600,"station_id":"ce4bhi12rcd13ifvqfq0","pricing_plan_id":"cebpf4jnsgd1na2vs0mg"},{"bike_id":"3f96fb20-2ca0-4b49-bea8-f99f0ae125a0","system_id":"levelo_inurba_marseille","lat":43.29792,"lon":5.39336,"is_reserved":false,"is_disabled":false,"rental_uris":{"android":"levelo://app?vid=3f96fb20-2ca0-4b49-bea8-f99f0ae125a0","ios":"levelo://app?vid=3f96fb20-2ca0-4b49-bea8-f99f0ae125a0"},"vehicle_type_id":"4","last_reported":1727190565,"current_range_meters":27600,"station_id":"chh1huq6cuj3fo74tm60","pricing_plan_id":"cebpf4jnsgd1na2vs0mg"},{"bike_id":"0187dbe4-866c-4031-9cbb-94cdd92f6a82","system_id":"levelo_inurba_marseille","lat":43.29258,"lon":5.36662,"is_reserved":false,"is_disabled":false,"rental_uris":{"android":"levelo://app?vid=0187dbe4-866c-4031-9cbb-94cdd92f6a82","ios":"levelo://app?vid=0187dbe4-866c-4031-9cbb-94cdd92f6a82"},"vehicle_type_id":"4","last_reported":1727190565,"current_range_meters":4000,"station_id":"","pricing_plan_id":"cebpf4jnsgd1na2vs0mg"},{"bike_id":"ed575cc0-4db6-40eb-914b-c33b99f8d558","system_id":"levelo_inurba_marseille","lat":43.30926,"lon":5.40143,"is_reserved":false,"is_disabled":false,"rental_uris":{"android":"levelo://app?vid=ed575cc0-4db6-40eb-914b-c33b99f8d558","ios":"levelo://app?vid=ed575cc0-4db6-40eb-914b-c33b99f8d558"},"vehicle_type_id":"4","last_reported":1727190565,"current_range_meters":26000,"station_id":"ce4bgvp2rcd13ifvqct0","pricing_plan_id":"cebpf4jnsgd1na2vs0mg"},{"bike_id":"b811b24d-2f0a-4a2b-8efb-7db47a788038","system_id":"levelo_inurba_marseille","lat":43.30428,"lon":5.36523,"is_reserved":false,"is_disabled":false,"rental_uris":{"android":"levelo://app?vid=b811b24d-2f0a-4a2b-8efb-7db47a788038","ios":"levelo://app?vid=b811b24d-2f0a-4a2b-8efb-7db47a788038"},"vehicle_type_id":"4","last_reported":1727190565,"current_range_meters":25600,"station_id":"","pricing_plan_id":"cebpf4jnsgd1na2vs0mg"},{"bike_id":"2c742757-1037-49c1-a40b-aaa3db277d9e","system_id":"levelo_inurba_marseille","lat":43.2602,"lon":5.37597,"is_reserved":false,"is_disabled":false,"rental_uris":{"android":"levelo://app?vid=2c742757-1037-49c1-a40b-aaa3db277d9e","ios":"levelo://app?vid=2c742757-1037-49c1-a40b-aaa3db277d9e"},"vehicle_type_id":"4","last_reported":1727190565,"current_range_meters":2000,"station_id":"ce4bhgh2rcd13ifvqfa0","pricing_plan_id":"cebpf4jnsgd1na2vs0mg"},{"bike_id":"cefb6643-fc89-4b04-b95f-6cff2759399c","system_id":"levelo_inurba_marseille","lat":43.32291,"lon":5.38287,"is_reserved":false,"is_disabled":false,"rental_uris":{"android":"levelo://app?vid=cefb6643-fc89-4b04-b95f-6cff2759399c","ios":"levelo://app?vid=cefb6643-fc89-4b04-b95f-6cff2759399c"},"vehicle_type_id":"4","last_reported":1727190565,"current_range_meters":28000,"station_id":"ce4bhr12rcd13ifvqhqg","pricing_plan_id":"cebpf4jnsgd1na2vs0mg"},{"bike_id":"44a8a61c-997b-400e-8a2b-961413edaa1d","system_id":"levelo_inurba_marseille","lat":43.29852,"lon":5.36274,"is_reserved":false,"is_disabled":false,"rental_uris":{"android":"levelo://app?vid=44a8a61c-997b-400e-8a2b-961413edaa1d","ios":"levelo://app?vid=44a8a61c-997b-400e-8a2b-961413edaa1d"},"vehicle_type_id":"4","last_reported":1727190565,"current_range_meters":38800,"station_id":"ce4bgpp2rcd13ifvqc3g","pricing_plan_id":"cebpf4jnsgd1na2vs0mg"},{"bike_id":"93a0f687-caa9-4864-9cee-ae16a897e6f9","system_id":"levelo_inurba_marseille","lat":43.25874,"lon":5.39897,"is_reserved":false,"is_disabled":false,"rental_uris":{"android":"levelo://app?vid=93a0f687-caa9-4864-9cee-ae16a897e6f9","ios":"levelo://app?vid=93a0f687-caa9-4864-9cee-ae16a897e6f9"},"vehicle_type_id":"4","last_reported":1727190565,"current_range_meters":38800,"station_id":"ce4bhl92rcd13ifvqghg","pricing_plan_id":"cebpf4jnsgd1na2vs0mg"},{"bike_id":"0bee5a77-db9e-4e51-8e05-715a9d68c8c0","system_id":"levelo_inurba_marseille","lat":43.28264,"lon":5.35058,"is_reserved":false,"is_disabled":false,"rental_uris":{"android":"levelo://app?vid=0bee5a77-db9e-4e51-8e05-715a9d68c8c0","ios":"levelo://app?vid=0bee5a77-db9e-4e51-8e05-715a9d68c8c0"},"vehicle_type_id":"4","last_reported":1727190565,"current_range_meters":26800,"station_id":"ce4bhbp2rcd13ifvqerg","pricing_plan_id":"cebpf4jnsgd1na2vs0mg"},{"bike_id":"da22e4d4-13b9-43c6-ae1c-b6e9ea7cfba5","system_id":"levelo_inurba_marseille","lat":43.29962,"lon":5.41315,"is_reserved":false,"is_disabled":false,"rental_uris":{"android":"levelo://app?vid=da22e4d4-13b9-43c6-ae1c-b6e9ea7cfba5","ios":"levelo://app?vid=da22e4d4-13b9-43c6-ae1c-b6e9ea7cfba5"},"vehicle_type_id":"4","last_reported":1727190565,"current_range_meters":38400,"station_id":"ce4bhp12rcd13ifvqh9g","pricing_plan_id":"cebpf4jnsgd1na2vs0mg"},{"bike_id":"2da24b92-3734-492c-9a6c-8b09da92c194","system_id":"levelo_inurba_marseille","lat":43.337444,"lon":5.374475,"is_reserved":false,"is_disabled":false,"rental_uris":{"android":"levelo://app?vid=2da24b92-3734-492c-9a6c-8b09da92c194","ios":"levelo://app?vid=2da24b92-3734-492c-9a6c-8b09da92c194"},"vehicle_type_id":"4","last_reported":1727190565,"current_range_meters":25600,"station_id":"","pricing_plan_id":"cebpf4jnsgd1na2vs0mg"},{"bike_id":"498e2d2f-35e4-4dec-a279-8e488f0277bb","system_id":"levelo_inurba_marseille","lat":43.28271,"lon":5.35059,"is_reserved":false,"is_disabled":false,"rental_uris":{"android":"levelo://app?vid=498e2d2f-35e4-4dec-a279-8e488f0277bb","ios":"levelo://app?vid=498e2d2f-35e4-4dec-a279-8e488f0277bb"},"vehicle_type_id":"4","last_reported":1727190565,"current_range_meters":16800,"station_id":"ce4bhbp2rcd13ifvqerg","pricing_plan_id":"cebpf4jnsgd1na2vs0mg"},{"bike_id":"375f3f37-02a6-4d0a-a1bc-424a7b6ca1fb","system_id":"levelo_inurba_marseille","lat":43.3132,"lon":5.39692,"is_reserved":false,"is_disabled":false,"rental_uris":{"android":"levelo://app?vid=375f3f37-02a6-4d0a-a1bc-424a7b6ca1fb","ios":"levelo://app?vid=375f3f37-02a6-4d0a-a1bc-424a7b6ca1fb"},"vehicle_type_id":"4","last_reported":1727190565,"current_range_meters":21600,"station_id":"ce4bgvp2rcd13ifvqcu0","pricing_plan_id":"cebpf4jnsgd1na2vs0mg"},{"bike_id":"877b309b-970d-49e8-ac04-4e4026111da5","system_id":"levelo_inurba_marseille","lat":43.29621,"lon":5.37172,"is_reserved":false,"is_disabled":false,"rental_uris":{"android":"levelo://app?vid=877b309b-970d-49e8-ac04-4e4026111da5","ios":"levelo://app?vid=877b309b-970d-49e8-ac04-4e4026111da5"},"vehicle_type_id":"4","last_reported":1727190565,"current_range_meters":18000,"station_id":"ce4bgnh2rcd13ifvqc0g","pricing_plan_id":"cebpf4jnsgd1na2vs0mg"},{"bike_id":"37b0d8d0-c4f1-4cc9-b2aa-a2ae7067f0b7","system_id":"levelo_inurba_marseille","lat":43.297995,"lon":5.404033,"is_reserved":false,"is_disabled":false,"rental_uris":{"android":"levelo://app?vid=37b0d8d0-c4f1-4cc9-b2aa-a2ae7067f0b7","ios":"levelo://app?vid=37b0d8d0-c4f1-4cc9-b2aa-a2ae7067f0b7"},"vehicle_type_id":"4","last_reported":1727190565,"current_range_meters":19200,"station_id":"ce4bh112rcd13ifvqd90","pricing_plan_id":"cebpf4jnsgd1na2vs0mg"},{"bike_id":"9976fe30-514e-4aee-92b7-bf09f923dac5","system_id":"levelo_inurba_marseille","lat":43.28455,"lon":5.35889,"is_reserved":false,"is_disabled":false,"rental_uris":{"android":"levelo://app?vid=9976fe30-514e-4aee-92b7-bf09f923dac5","ios":"levelo://app?vid=9976fe30-514e-4aee-92b7-bf09f923dac5"},"vehicle_type_id":"4","last_reported":1727190565,"current_range_meters":25600,"station_id":"ce4bhah2rcd13ifvqei0","pricing_plan_id":"cebpf4jnsgd1na2vs0mg"},{"bike_id":"c00cbaf3-673a-41dc-aefd-e91c0d90b257","system_id":"levelo_inurba_marseille","lat":43.23063,"lon":5.35493,"is_reserved":false,"is_disabled":false,"rental_uris":{"android":"levelo://app?vid=c00cbaf3-673a-41dc-aefd-e91c0d90b257","ios":"levelo://app?vid=c00cbaf3-673a-41dc-aefd-e91c0d90b257"},"vehicle_type_id":"4","last_reported":1727190565,"current_range_meters":28000,"station_id":"cpo3342slgdg3j2ifvpg","pricing_plan_id":"cebpf4jnsgd1na2vs0mg"},{"bike_id":"2b0e3830-c6ac-4eab-b483-639687b24116","system_id":"levelo_inurba_marseille","lat":43.31188,"lon":5.38708,"is_reserved":false,"is_disabled":false,"rental_uris":{"android":"levelo://app?vid=2b0e3830-c6ac-4eab-b483-639687b24116","ios":"levelo://app?vid=2b0e3830-c6ac-4eab-b483-639687b24116"},"vehicle_type_id":"4","last_reported":1727190565,"current_range_meters":2000,"station_id":"ce4bgv12rcd13ifvqcp0","pricing_plan_id":"cebpf4jnsgd1na2vs0mg"},{"bike_id":"e5e215a1-de80-41d9-bae9-f347408e9dd4","system_id":"levelo_inurba_marseille","lat":43.29966,"lon":5.3849,"is_reserved":false,"is_disabled":false,"rental_uris":{"android":"levelo://app?vid=e5e215a1-de80-41d9-bae9-f347408e9dd4","ios":"levelo://app?vid=e5e215a1-de80-41d9-bae9-f347408e9dd4"},"vehicle_type_id":"4","last_reported":1727190565,"current_range_meters":36400,"station_id":"ce4bgj92rcd13ifvqbd0","pricing_plan_id":"cebpf4jnsgd1na2vs0mg"},{"bike_id":"ecb70881-b110-48a8-b751-24b4690d4031","system_id":"levelo_inurba_marseille","lat":43.23186,"lon":5.39982,"is_reserved":false,"is_disabled":false,"rental_uris":{"android":"levelo://app?vid=ecb70881-b110-48a8-b751-24b4690d4031","ios":"levelo://app?vid=ecb70881-b110-48a8-b751-24b4690d4031"},"vehicle_type_id":"4","last_reported":1727190565,"current_range_meters":11200,"station_id":"ce4bhn12rcd13ifvqgqg","pricing_plan_id":"cebpf4jnsgd1na2vs0mg"},{"bike_id":"25bd7405-be80-4a77-a761-8a1efed52652","system_id":"levelo_inurba_marseille","lat":43.29896,"lon":5.43658,"is_reserved":false,"is_disabled":false,"rental_uris":{"android":"levelo://app?vid=25bd7405-be80-4a77-a761-8a1efed52652","ios":"levelo://app?vid=25bd7405-be80-4a77-a761-8a1efed52652"},"vehicle_type_id":"4","last_reported":1727190565,"current_range_meters":24400,"station_id":"ce4bhpp2rcd13ifvqhfg","pricing_plan_id":"cebpf4jnsgd1na2vs0mg"},{"bike_id":"b1388129-2fcf-40b2-ba78-79178caee2b0","system_id":"levelo_inurba_marseille","lat":43.25088,"lon":5.39525,"is_reserved":false,"is_disabled":false,"rental_uris":{"android":"levelo://app?vid=b1388129-2fcf-40b2-ba78-79178caee2b0","ios":"levelo://app?vid=b1388129-2fcf-40b2-ba78-79178caee2b0"},"vehicle_type_id":"4","last_reported":1727190565,"current_range_meters":12000,"station_id":"ce4bhm12rcd13ifvqgkg","pricing_plan_id":"cebpf4jnsgd1na2vs0mg"},{"bike_id":"21b7ebac-6b43-49f0-a4b7-22b83b7014aa","system_id":"levelo_inurba_marseille","lat":43.28157,"lon":5.42642,"is_reserved":false,"is_disabled":false,"rental_uris":{"android":"levelo://app?vid=21b7ebac-6b43-49f0-a4b7-22b83b7014aa","ios":"levelo://app?vid=21b7ebac-6b43-49f0-a4b7-22b83b7014aa"},"vehicle_type_id":"4","last_reported":1727190565,"current_range_meters":25600,"station_id":"ce4bhnh2rcd13ifvqgug","pricing_plan_id":"cebpf4jnsgd1na2vs0mg"},{"bike_id":"162ee78d-83e3-4081-92bd-328649d7b4ba","system_id":"levelo_inurba_marseille","lat":43.31758,"lon":5.39012,"is_reserved":false,"is_disabled":false,"rental_uris":{"android":"levelo://app?vid=162ee78d-83e3-4081-92bd-328649d7b4ba","ios":"levelo://app?vid=162ee78d-83e3-4081-92bd-328649d7b4ba"},"vehicle_type_id":"4","last_reported":1727190565,"current_range_meters":12000,"station_id":"ce4bhqp2rcd13ifvqhng","pricing_plan_id":"cebpf4jnsgd1na2vs0mg"},{"bike_id":"589e44a5-6f27-40f9-9044-51060020ce52","system_id":"levelo_inurba_marseille","lat":43.2953,"lon":5.38531,"is_reserved":false,"is_disabled":false,"rental_uris":{"android":"levelo://app?vid=589e44a5-6f27-40f9-9044-51060020ce52","ios":"levelo://app?vid=589e44a5-6f27-40f9-9044-51060020ce52"},"vehicle_type_id":"4","last_reported":1727190565,"current_range_meters":30000,"station_id":"ce4bgih2rcd13ifvqba0","pricing_plan_id":"cebpf4jnsgd1na2vs0mg"},{"bike_id":"eea2cd5a-ea70-49e4-b38f-c464fb6c5cc3","system_id":"levelo_inurba_marseille","lat":43.337444,"lon":5.374475,"is_reserved":false,"is_disabled":false,"rental_uris":{"android":"levelo://app?vid=eea2cd5a-ea70-49e4-b38f-c464fb6c5cc3","ios":"levelo://app?vid=eea2cd5a-ea70-49e4-b38f-c464fb6c5cc3"},"vehicle_type_id":"4","last_reported":1727190565,"current_range_meters":34000,"station_id":"","pricing_plan_id":"cebpf4jnsgd1na2vs0mg"},{"bike_id":"56ca6ae0-f5c2-4073-bc76-be3067eed049","system_id":"levelo_inurba_marseille","lat":43.29558,"lon":5.4228,"is_reserved":false,"is_disabled":false,"rental_uris":{"android":"levelo://app?vid=56ca6ae0-f5c2-4073-bc76-be3067eed049","ios":"levelo://app?vid=56ca6ae0-f5c2-4073-bc76-be3067eed049"},"vehicle_type_id":"4","last_reported":1727190565,"current_range_meters":16800,"station_id":"ce4bhph2rcd13ifvqhdg","pricing_plan_id":"cebpf4jnsgd1na2vs0mg"},{"bike_id":"f79f6770-1d02-4bb1-af7d-dc198a85141c","system_id":"levelo_inurba_marseille","lat":43.31279,"lon":5.40168,"is_reserved":false,"is_disabled":false,"rental_uris":{"android":"levelo://app?vid=f79f6770-1d02-4bb1-af7d-dc198a85141c","ios":"levelo://app?vid=f79f6770-1d02-4bb1-af7d-dc198a85141c"},"vehicle_type_id":"4","last_reported":1727190565,"current_range_meters":18000,"station_id":"ce4bh092rcd13ifvqd30","pricing_plan_id":"cebpf4jnsgd1na2vs0mg"},{"bike_id":"f28b0708-b33c-4eba-9cec-88144f3bb200","system_id":"levelo_inurba_marseille","lat":43.30312,"lon":5.36889,"is_reserved":false,"is_disabled":false,"rental_uris":{"android":"levelo://app?vid=f28b0708-b33c-4eba-9cec-88144f3bb200","ios":"levelo://app?vid=f28b0708-b33c-4eba-9cec-88144f3bb200"},"vehicle_type_id":"4","last_reported":1727190565,"current_range_meters":23200,"station_id":"ce4bgqh2rcd13ifvqc5g","pricing_plan_id":"cebpf4jnsgd1na2vs0mg"},{"bike_id":"487537f2-89c2-4030-a61c-a25bc2c893bb","system_id":"levelo_inurba_marseille","lat":43.23189,"lon":5.39983,"is_reserved":false,"is_disabled":false,"rental_uris":{"android":"levelo://app?vid=487537f2-89c2-4030-a61c-a25bc2c893bb","ios":"levelo://app?vid=487537f2-89c2-4030-a61c-a25bc2c893bb"},"vehicle_type_id":"4","last_reported":1727190565,"current_range_meters":24000,"station_id":"ce4bhn12rcd13ifvqgqg","pricing_plan_id":"cebpf4jnsgd1na2vs0mg"},{"bike_id":"0b9d2f85-5596-4bf5-b686-e5a22a680ada","system_id":"levelo_inurba_marseille","lat":43.27809,"lon":5.40716,"is_reserved":false,"is_disabled":false,"rental_uris":{"android":"levelo://app?vid=0b9d2f85-5596-4bf5-b686-e5a22a680ada","ios":"levelo://app?vid=0b9d2f85-5596-4bf5-b686-e5a22a680ada"},"vehicle_type_id":"4","last_reported":1727190565,"current_range_meters":20800,"station_id":"ce4bhnh2rcd13ifvqgtg","pricing_plan_id":"cebpf4jnsgd1na2vs0mg"},{"bike_id":"22d68f7e-fc43-4754-93aa-ca369a12207a","system_id":"levelo_inurba_marseille","lat":43.28936,"lon":5.36642,"is_reserved":false,"is_disabled":false,"rental_uris":{"android":"levelo://app?vid=22d68f7e-fc43-4754-93aa-ca369a12207a","ios":"levelo://app?vid=22d68f7e-fc43-4754-93aa-ca369a12207a"},"vehicle_type_id":"4","last_reported":1727190565,"current_range_meters":21600,"station_id":"ce4bhap2rcd13ifvqek0","pricing_plan_id":"cebpf4jnsgd1na2vs0mg"},{"bike_id":"127ad052-b06c-436d-b7c9-c4d04199fbe5","system_id":"levelo_inurba_marseille","lat":43.30351,"lon":5.41869,"is_reserved":false,"is_disabled":false,"rental_uris":{"android":"levelo://app?vid=127ad052-b06c-436d-b7c9-c4d04199fbe5","ios":"levelo://app?vid=127ad052-b06c-436d-b7c9-c4d04199fbe5"},"vehicle_type_id":"4","last_reported":1727190565,"current_range_meters":38800,"station_id":"ce4bhop2rcd13ifvqh7g","pricing_plan_id":"cebpf4jnsgd1na2vs0mg"},{"bike_id":"495c8f04-baa0-4d04-b6e9-fa5581cfae30","system_id":"levelo_inurba_marseille","lat":43.30155,"lon":5.38079,"is_reserved":false,"is_disabled":false,"rental_uris":{"android":"levelo://app?vid=495c8f04-baa0-4d04-b6e9-fa5581cfae30","ios":"levelo://app?vid=495c8f04-baa0-4d04-b6e9-fa5581cfae30"},"vehicle_type_id":"4","last_reported":1727190565,"current_range_meters":38400,"station_id":"ce4bgjp2rcd13ifvqbh0","pricing_plan_id":"cebpf4jnsgd1na2vs0mg"},{"bike_id":"eddb48b5-49ab-404d-931b-52787f8a52cb","system_id":"levelo_inurba_marseille","lat":43.30135,"lon":5.38784,"is_reserved":false,"is_disabled":false,"rental_uris":{"android":"levelo://app?vid=eddb48b5-49ab-404d-931b-52787f8a52cb","ios":"levelo://app?vid=eddb48b5-49ab-404d-931b-52787f8a52cb"},"vehicle_type_id":"4","last_reported":1727190565,"current_range_meters":7200,"station_id":"ce4bghh2rcd13ifvqb60","pricing_plan_id":"cebpf4jnsgd1na2vs0mg"},{"bike_id":"3383b101-4048-4ebd-ba67-7e9b9aafc9f9","system_id":"levelo_inurba_marseille","lat":43.24393,"lon":5.3707,"is_reserved":false,"is_disabled":false,"rental_uris":{"android":"levelo://app?vid=3383b101-4048-4ebd-ba67-7e9b9aafc9f9","ios":"levelo://app?vid=3383b101-4048-4ebd-ba67-7e9b9aafc9f9"},"vehicle_type_id":"4","last_reported":1727190565,"current_range_meters":30800,"station_id":"ce4bhhh2rcd13ifvqfk0","pricing_plan_id":"cebpf4jnsgd1na2vs0mg"},{"bike_id":"fe2a8b5b-02c9-49e7-b987-ff3973d2d81a","system_id":"levelo_inurba_marseille","lat":43.29639,"lon":5.40591,"is_reserved":false,"is_disabled":false,"rental_uris":{"android":"levelo://app?vid=fe2a8b5b-02c9-49e7-b987-ff3973d2d81a","ios":"levelo://app?vid=fe2a8b5b-02c9-49e7-b987-ff3973d2d81a"},"vehicle_type_id":"4","last_reported":1727190565,"current_range_meters":6000,"station_id":"ce4bh0h2rcd13ifvqd60","pricing_plan_id":"cebpf4jnsgd1na2vs0mg"},{"bike_id":"a394d1ba-e26e-48f8-bc5d-4d4377f61300","system_id":"levelo_inurba_marseille","lat":43.26793,"lon":5.39406,"is_reserved":false,"is_disabled":false,"rental_uris":{"android":"levelo://app?vid=a394d1ba-e26e-48f8-bc5d-4d4377f61300","ios":"levelo://app?vid=a394d1ba-e26e-48f8-bc5d-4d4377f61300"},"vehicle_type_id":"4","last_reported":1727190565,"current_range_meters":24800,"station_id":"ce4bhh12rcd13ifvqfg0","pricing_plan_id":"cebpf4jnsgd1na2vs0mg"},{"bike_id":"e95990f4-b737-4286-a429-73b07676a55b","system_id":"levelo_inurba_marseille","lat":43.296246,"lon":5.377239,"is_reserved":false,"is_disabled":false,"rental_uris":{"android":"levelo://app?vid=e95990f4-b737-4286-a429-73b07676a55b","ios":"levelo://app?vid=e95990f4-b737-4286-a429-73b07676a55b"},"vehicle_type_id":"4","last_reported":1727190565,"current_range_meters":36000,"station_id":"ce4bgi92rcd13ifvqb90","pricing_plan_id":"cebpf4jnsgd1na2vs0mg"},{"bike_id":"4309eb30-9809-477e-8a15-07847ff8c7c7","system_id":"levelo_inurba_marseille","lat":43.288422,"lon":5.357795,"is_reserved":false,"is_disabled":false,"rental_uris":{"android":"levelo://app?vid=4309eb30-9809-477e-8a15-07847ff8c7c7","ios":"levelo://app?vid=4309eb30-9809-477e-8a15-07847ff8c7c7"},"vehicle_type_id":"4","last_reported":1727190565,"current_range_meters":24000,"station_id":"ce4bhb12rcd13ifvqem0","pricing_plan_id":"cebpf4jnsgd1na2vs0mg"},{"bike_id":"139d234d-ddfb-43fb-86bf-cc1c5284edbd","system_id":"levelo_inurba_marseille","lat":43.254845,"lon":5.376327,"is_reserved":false,"is_disabled":false,"rental_uris":{"android":"levelo://app?vid=139d234d-ddfb-43fb-86bf-cc1c5284edbd","ios":"levelo://app?vid=139d234d-ddfb-43fb-86bf-cc1c5284edbd"},"vehicle_type_id":"4","last_reported":1727190565,"current_range_meters":10800,"station_id":"ce4bhh12rcd13ifvqff0","pricing_plan_id":"cebpf4jnsgd1na2vs0mg"},{"bike_id":"865a2133-418b-4a60-8695-05152647b9a6","system_id":"levelo_inurba_marseille","lat":43.25757,"lon":5.39972,"is_reserved":false,"is_disabled":false,"rental_uris":{"android":"levelo://app?vid=865a2133-418b-4a60-8695-05152647b9a6","ios":"levelo://app?vid=865a2133-418b-4a60-8695-05152647b9a6"},"vehicle_type_id":"4","last_reported":1727190565,"current_range_meters":11600,"station_id":"","pricing_plan_id":"cebpf4jnsgd1na2vs0mg"},{"bike_id":"c764a449-ceb0-435b-aa0e-4e55405dabbe","system_id":"levelo_inurba_marseille","lat":43.26034,"lon":5.37551,"is_reserved":false,"is_disabled":false,"rental_uris":{"android":"levelo://app?vid=c764a449-ceb0-435b-aa0e-4e55405dabbe","ios":"levelo://app?vid=c764a449-ceb0-435b-aa0e-4e55405dabbe"},"vehicle_type_id":"4","last_reported":1727190565,"current_range_meters":4800,"station_id":"ce4bhgh2rcd13ifvqfa0","pricing_plan_id":"cebpf4jnsgd1na2vs0mg"},{"bike_id":"05f30884-935f-4711-8dcc-d2615c99d435","system_id":"levelo_inurba_marseille","lat":43.2799,"lon":5.41663,"is_reserved":false,"is_disabled":false,"rental_uris":{"android":"levelo://app?vid=05f30884-935f-4711-8dcc-d2615c99d435","ios":"levelo://app?vid=05f30884-935f-4711-8dcc-d2615c99d435"},"vehicle_type_id":"4","last_reported":1727190565,"current_range_meters":25600,"station_id":"ce4bho12rcd13ifvqh1g","pricing_plan_id":"cebpf4jnsgd1na2vs0mg"},{"bike_id":"9009eea9-7535-494b-a2ab-d02356423606","system_id":"levelo_inurba_marseille","lat":43.31071,"lon":5.38358,"is_reserved":false,"is_disabled":false,"rental_uris":{"android":"levelo://app?vid=9009eea9-7535-494b-a2ab-d02356423606","ios":"levelo://app?vid=9009eea9-7535-494b-a2ab-d02356423606"},"vehicle_type_id":"4","last_reported":1727190565,"current_range_meters":25200,"station_id":"ce4bgv92rcd13ifvqcr0","pricing_plan_id":"cebpf4jnsgd1na2vs0mg"},{"bike_id":"7a907bd8-a31c-44f5-ae26-4d359cad6743","system_id":"levelo_inurba_marseille","lat":43.23061,"lon":5.35489,"is_reserved":false,"is_disabled":false,"rental_uris":{"android":"levelo://app?vid=7a907bd8-a31c-44f5-ae26-4d359cad6743","ios":"levelo://app?vid=7a907bd8-a31c-44f5-ae26-4d359cad6743"},"vehicle_type_id":"4","last_reported":1727190565,"current_range_meters":8400,"station_id":"cpo3342slgdg3j2ifvpg","pricing_plan_id":"cebpf4jnsgd1na2vs0mg"},{"bike_id":"40ced7d8-d947-4602-b785-b792922bf0f2","system_id":"levelo_inurba_marseille","lat":43.32045,"lon":5.41567,"is_reserved":false,"is_disabled":false,"rental_uris":{"android":"levelo://app?vid=40ced7d8-d947-4602-b785-b792922bf0f2","ios":"levelo://app?vid=40ced7d8-d947-4602-b785-b792922bf0f2"},"vehicle_type_id":"4","last_reported":1727190565,"current_range_meters":38800,"station_id":"ce4bhq92rcd13ifvqhkg","pricing_plan_id":"cebpf4jnsgd1na2vs0mg"},{"bike_id":"dea46c51-2be6-4cf3-a304-43a94d48ddb1","system_id":"levelo_inurba_marseille","lat":43.30545,"lon":5.36526,"is_reserved":false,"is_disabled":false,"rental_uris":{"android":"levelo://app?vid=dea46c51-2be6-4cf3-a304-43a94d48ddb1","ios":"levelo://app?vid=dea46c51-2be6-4cf3-a304-43a94d48ddb1"},"vehicle_type_id":"4","last_reported":1727190565,"current_range_meters":30400,"station_id":"ce4bgs12rcd13ifvqcag","pricing_plan_id":"cebpf4jnsgd1na2vs0mg"},{"bike_id":"64b3b6e3-66c4-4b1d-8c42-d6491d5794dc","system_id":"levelo_inurba_marseille","lat":43.23962,"lon":5.3663,"is_reserved":false,"is_disabled":false,"rental_uris":{"android":"levelo://app?vid=64b3b6e3-66c4-4b1d-8c42-d6491d5794dc","ios":"levelo://app?vid=64b3b6e3-66c4-4b1d-8c42-d6491d5794dc"},"vehicle_type_id":"4","last_reported":1727190565,"current_range_meters":8800,"station_id":"ce4bhi12rcd13ifvqfp0","pricing_plan_id":"cebpf4jnsgd1na2vs0mg"},{"bike_id":"fbc95224-d687-45eb-9f3f-b4804878b96f","system_id":"levelo_inurba_marseille","lat":43.3133,"lon":5.39698,"is_reserved":false,"is_disabled":false,"rental_uris":{"android":"levelo://app?vid=fbc95224-d687-45eb-9f3f-b4804878b96f","ios":"levelo://app?vid=fbc95224-d687-45eb-9f3f-b4804878b96f"},"vehicle_type_id":"4","last_reported":1727190565,"current_range_meters":38800,"station_id":"ce4bgvp2rcd13ifvqcu0","pricing_plan_id":"cebpf4jnsgd1na2vs0mg"},{"bike_id":"4c779503-a561-488a-8f86-cfd0425cf36c","system_id":"levelo_inurba_marseille","lat":43.29278,"lon":5.36847,"is_reserved":false,"is_disabled":false,"rental_uris":{"android":"levelo://app?vid=4c779503-a561-488a-8f86-cfd0425cf36c","ios":"levelo://app?vid=4c779503-a561-488a-8f86-cfd0425cf36c"},"vehicle_type_id":"4","last_reported":1727190565,"current_range_meters":18800,"station_id":"ce4bhbp2rcd13ifvqesg","pricing_plan_id":"cebpf4jnsgd1na2vs0mg"},{"bike_id":"c10ded16-2633-45b4-a0aa-9045f639688e","system_id":"levelo_inurba_marseille","lat":43.294037,"lon":5.374243,"is_reserved":false,"is_disabled":false,"rental_uris":{"android":"levelo://app?vid=c10ded16-2633-45b4-a0aa-9045f639688e","ios":"levelo://app?vid=c10ded16-2633-45b4-a0aa-9045f639688e"},"vehicle_type_id":"4","last_reported":1727190565,"current_range_meters":8400,"station_id":"ce4bgi12rcd13ifvqb70","pricing_plan_id":"cebpf4jnsgd1na2vs0mg"},{"bike_id":"ea69aef4-7c35-44e5-a093-697e2eb4c639","system_id":"levelo_inurba_marseille","lat":43.28077,"lon":5.39658,"is_reserved":false,"is_disabled":false,"rental_uris":{"android":"levelo://app?vid=ea69aef4-7c35-44e5-a093-697e2eb4c639","ios":"levelo://app?vid=ea69aef4-7c35-44e5-a093-697e2eb4c639"},"vehicle_type_id":"4","last_reported":1727190565,"current_range_meters":12400,"station_id":"ce4bho12rcd13ifvqh2g","pricing_plan_id":"cebpf4jnsgd1na2vs0mg"},{"bike_id":"3c15c450-5fe0-40ad-b20f-7849a287269b","system_id":"levelo_inurba_marseille","lat":43.30556,"lon":5.36527,"is_reserved":false,"is_disabled":false,"rental_uris":{"android":"levelo://app?vid=3c15c450-5fe0-40ad-b20f-7849a287269b","ios":"levelo://app?vid=3c15c450-5fe0-40ad-b20f-7849a287269b"},"vehicle_type_id":"4","last_reported":1727190565,"current_range_meters":38000,"station_id":"ce4bgs12rcd13ifvqcag","pricing_plan_id":"cebpf4jnsgd1na2vs0mg"},{"bike_id":"f6131289-2ee3-454f-8b89-a746a1806b55","system_id":"levelo_inurba_marseille","lat":43.30129,"lon":5.39864,"is_reserved":false,"is_disabled":false,"rental_uris":{"android":"levelo://app?vid=f6131289-2ee3-454f-8b89-a746a1806b55","ios":"levelo://app?vid=f6131289-2ee3-454f-8b89-a746a1806b55"},"vehicle_type_id":"4","last_reported":1727190565,"current_range_meters":26800,"station_id":"ce4bh0h2rcd13ifvqd40","pricing_plan_id":"cebpf4jnsgd1na2vs0mg"},{"bike_id":"e69440f2-e494-4458-9eb6-38a5ac621260","system_id":"levelo_inurba_marseille","lat":43.30645,"lon":5.40104,"is_reserved":false,"is_disabled":false,"rental_uris":{"android":"levelo://app?vid=e69440f2-e494-4458-9eb6-38a5ac621260","ios":"levelo://app?vid=e69440f2-e494-4458-9eb6-38a5ac621260"},"vehicle_type_id":"4","last_reported":1727190565,"current_range_meters":11600,"station_id":"ce4bh112rcd13ifvqda0","pricing_plan_id":"cebpf4jnsgd1na2vs0mg"},{"bike_id":"fb519243-5eaa-4225-ad39-c400cb824487","system_id":"levelo_inurba_marseille","lat":43.30415,"lon":5.41279,"is_reserved":false,"is_disabled":false,"rental_uris":{"android":"levelo://app?vid=fb519243-5eaa-4225-ad39-c400cb824487","ios":"levelo://app?vid=fb519243-5eaa-4225-ad39-c400cb824487"},"vehicle_type_id":"4","last_reported":1727190565,"current_range_meters":6800,"station_id":"ce4bhop2rcd13ifvqh8g","pricing_plan_id":"cebpf4jnsgd1na2vs0mg"},{"bike_id":"06138e05-a18e-4a99-9c79-38670e01d35d","system_id":"levelo_inurba_marseille","lat":43.28617,"lon":5.35102,"is_reserved":false,"is_disabled":false,"rental_uris":{"android":"levelo://app?vid=06138e05-a18e-4a99-9c79-38670e01d35d","ios":"levelo://app?vid=06138e05-a18e-4a99-9c79-38670e01d35d"},"vehicle_type_id":"4","last_reported":1727190565,"current_range_meters":30800,"station_id":"ce4bhch2rcd13ifvqeug","pricing_plan_id":"cebpf4jnsgd1na2vs0mg"},{"bike_id":"7aa5dbb8-9989-4696-97fd-30ce98d04be0","system_id":"levelo_inurba_marseille","lat":43.246692,"lon":5.38164,"is_reserved":false,"is_disabled":false,"rental_uris":{"android":"levelo://app?vid=7aa5dbb8-9989-4696-97fd-30ce98d04be0","ios":"levelo://app?vid=7aa5dbb8-9989-4696-97fd-30ce98d04be0"},"vehicle_type_id":"4","last_reported":1727190565,"current_range_meters":28000,"station_id":"ce4bhih2rcd13ifvqfr0","pricing_plan_id":"cebpf4jnsgd1na2vs0mg"},{"bike_id":"ebec7cd5-5fed-46ce-abdb-3cd659f607ac","system_id":"levelo_inurba_marseille","lat":43.2955,"lon":5.42283,"is_reserved":false,"is_disabled":false,"rental_uris":{"android":"levelo://app?vid=ebec7cd5-5fed-46ce-abdb-3cd659f607ac","ios":"levelo://app?vid=ebec7cd5-5fed-46ce-abdb-3cd659f607ac"},"vehicle_type_id":"4","last_reported":1727190565,"current_range_meters":37600,"station_id":"ce4bhph2rcd13ifvqhdg","pricing_plan_id":"cebpf4jnsgd1na2vs0mg"},{"bike_id":"ca3edcd3-705c-48af-80a7-ed285389a603","system_id":"levelo_inurba_marseille","lat":43.25952,"lon":5.3883,"is_reserved":false,"is_disabled":false,"rental_uris":{"android":"levelo://app?vid=ca3edcd3-705c-48af-80a7-ed285389a603","ios":"levelo://app?vid=ca3edcd3-705c-48af-80a7-ed285389a603"},"vehicle_type_id":"4","last_reported":1727190565,"current_range_meters":20400,"station_id":"ce4bhbp2rcd13ifvqerg","pricing_plan_id":"cebpf4jnsgd1na2vs0mg"},{"bike_id":"071befd9-f402-4543-9b0c-47aedc783ff3","system_id":"levelo_inurba_marseille","lat":43.309134,"lon":5.368521,"is_reserved":false,"is_disabled":false,"rental_uris":{"android":"levelo://app?vid=071befd9-f402-4543-9b0c-47aedc783ff3","ios":"levelo://app?vid=071befd9-f402-4543-9b0c-47aedc783ff3"},"vehicle_type_id":"4","last_reported":1727190565,"current_range_meters":33600,"station_id":"ce4bgn92rcd13ifvqbvg","pricing_plan_id":"cebpf4jnsgd1na2vs0mg"},{"bike_id":"6d6065cc-15d1-48a2-aa33-8bac2101b02a","system_id":"levelo_inurba_marseille","lat":43.22928,"lon":5.35383,"is_reserved":false,"is_disabled":false,"rental_uris":{"android":"levelo://app?vid=6d6065cc-15d1-48a2-aa33-8bac2101b02a","ios":"levelo://app?vid=6d6065cc-15d1-48a2-aa33-8bac2101b02a"},"vehicle_type_id":"4","last_reported":1727190565,"current_range_meters":25600,"station_id":"cpo3532slgdg3j2ikp40","pricing_plan_id":"cebpf4jnsgd1na2vs0mg"},{"bike_id":"df5b38d2-64cb-4df0-856f-ea9bd22c082c","system_id":"levelo_inurba_marseille","lat":43.23192,"lon":5.35551,"is_reserved":false,"is_disabled":false,"rental_uris":{"android":"levelo://app?vid=df5b38d2-64cb-4df0-856f-ea9bd22c082c","ios":"levelo://app?vid=df5b38d2-64cb-4df0-856f-ea9bd22c082c"},"vehicle_type_id":"4","last_reported":1727190565,"current_range_meters":11600,"station_id":"ce4bhu92rcd13ifvqi70","pricing_plan_id":"cebpf4jnsgd1na2vs0mg"},{"bike_id":"9e3ee06d-3564-4a83-8e76-1a0dde5d6fae","system_id":"levelo_inurba_marseille","lat":43.30881,"lon":5.39669,"is_reserved":false,"is_disabled":false,"rental_uris":{"android":"levelo://app?vid=9e3ee06d-3564-4a83-8e76-1a0dde5d6fae","ios":"levelo://app?vid=9e3ee06d-3564-4a83-8e76-1a0dde5d6fae"},"vehicle_type_id":"4","last_reported":1727190565,"current_range_meters":8800,"station_id":"ce4bh012rcd13ifvqcv0","pricing_plan_id":"cebpf4jnsgd1na2vs0mg"},{"bike_id":"7fd87d5a-b6f5-4205-8f14-3ca2b9fadd9c","system_id":"levelo_inurba_marseille","lat":43.29015,"lon":5.38134,"is_reserved":false,"is_disabled":false,"rental_uris":{"android":"levelo://app?vid=7fd87d5a-b6f5-4205-8f14-3ca2b9fadd9c","ios":"levelo://app?vid=7fd87d5a-b6f5-4205-8f14-3ca2b9fadd9c"},"vehicle_type_id":"4","last_reported":1727190565,"current_range_meters":13600,"station_id":"ce4bh4p2rcd13ifvqe1g","pricing_plan_id":"cebpf4jnsgd1na2vs0mg"},{"bike_id":"9149e649-38da-4baf-b02d-05142c492db8","system_id":"levelo_inurba_marseille","lat":43.29031,"lon":5.37568,"is_reserved":false,"is_disabled":false,"rental_uris":{"android":"levelo://app?vid=9149e649-38da-4baf-b02d-05142c492db8","ios":"levelo://app?vid=9149e649-38da-4baf-b02d-05142c492db8"},"vehicle_type_id":"4","last_reported":1727190565,"current_range_meters":25200,"station_id":"ce4bh692rcd13ifvqe90","pricing_plan_id":"cebpf4jnsgd1na2vs0mg"},{"bike_id":"17b1cd1a-7803-4ca9-91f3-73c4fa44f09e","system_id":"levelo_inurba_marseille","lat":43.29556,"lon":5.42283,"is_reserved":false,"is_disabled":false,"rental_uris":{"android":"levelo://app?vid=17b1cd1a-7803-4ca9-91f3-73c4fa44f09e","ios":"levelo://app?vid=17b1cd1a-7803-4ca9-91f3-73c4fa44f09e"},"vehicle_type_id":"4","last_reported":1727190565,"current_range_meters":8000,"station_id":"ce4bhph2rcd13ifvqhdg","pricing_plan_id":"cebpf4jnsgd1na2vs0mg"},{"bike_id":"32a1def7-0101-4bf8-bbba-956ba5d85886","system_id":"levelo_inurba_marseille","lat":43.2694,"lon":5.40258,"is_reserved":false,"is_disabled":false,"rental_uris":{"android":"levelo://app?vid=32a1def7-0101-4bf8-bbba-956ba5d85886","ios":"levelo://app?vid=32a1def7-0101-4bf8-bbba-956ba5d85886"},"vehicle_type_id":"4","last_reported":1727190565,"current_range_meters":3200,"station_id":"cjm6bp8fraef2m0cb0m0","pricing_plan_id":"cebpf4jnsgd1na2vs0mg"},{"bike_id":"f8684ded-482a-44d6-97bf-a3ce8ec0cbf5","system_id":"levelo_inurba_marseille","lat":43.258606,"lon":5.399056,"is_reserved":false,"is_disabled":false,"rental_uris":{"android":"levelo://app?vid=f8684ded-482a-44d6-97bf-a3ce8ec0cbf5","ios":"levelo://app?vid=f8684ded-482a-44d6-97bf-a3ce8ec0cbf5"},"vehicle_type_id":"4","last_reported":1727190565,"current_range_meters":28400,"station_id":"ce4bhl92rcd13ifvqghg","pricing_plan_id":"cebpf4jnsgd1na2vs0mg"},{"bike_id":"107a4b57-c86c-4129-a8ca-a54e48696f6c","system_id":"levelo_inurba_marseille","lat":43.30311,"lon":5.36897,"is_reserved":false,"is_disabled":false,"rental_uris":{"android":"levelo://app?vid=107a4b57-c86c-4129-a8ca-a54e48696f6c","ios":"levelo://app?vid=107a4b57-c86c-4129-a8ca-a54e48696f6c"},"vehicle_type_id":"4","last_reported":1727190565,"current_range_meters":24400,"station_id":"ce4bgqh2rcd13ifvqc5g","pricing_plan_id":"cebpf4jnsgd1na2vs0mg"},{"bike_id":"1f0dd38e-c748-4dc2-ac46-d553c3ea171d","system_id":"levelo_inurba_marseille","lat":43.25088,"lon":5.39526,"is_reserved":false,"is_disabled":false,"rental_uris":{"android":"levelo://app?vid=1f0dd38e-c748-4dc2-ac46-d553c3ea171d","ios":"levelo://app?vid=1f0dd38e-c748-4dc2-ac46-d553c3ea171d"},"vehicle_type_id":"4","last_reported":1727190565,"current_range_meters":26000,"station_id":"ce4bhm12rcd13ifvqgkg","pricing_plan_id":"cebpf4jnsgd1na2vs0mg"},{"bike_id":"63a16492-fc08-4919-93e5-db0aa1a3c3fe","system_id":"levelo_inurba_marseille","lat":43.25582,"lon":5.38234,"is_reserved":false,"is_disabled":false,"rental_uris":{"android":"levelo://app?vid=63a16492-fc08-4919-93e5-db0aa1a3c3fe","ios":"levelo://app?vid=63a16492-fc08-4919-93e5-db0aa1a3c3fe"},"vehicle_type_id":"4","last_reported":1727190565,"current_range_meters":37600,"station_id":"ce4bhih2rcd13ifvqfs0","pricing_plan_id":"cebpf4jnsgd1na2vs0mg"},{"bike_id":"a29b5496-50ea-4ca3-8ca2-3f9f007db4dd","system_id":"levelo_inurba_marseille","lat":43.30151,"lon":5.38085,"is_reserved":false,"is_disabled":false,"rental_uris":{"android":"levelo://app?vid=a29b5496-50ea-4ca3-8ca2-3f9f007db4dd","ios":"levelo://app?vid=a29b5496-50ea-4ca3-8ca2-3f9f007db4dd"},"vehicle_type_id":"4","last_reported":1727190565,"current_range_meters":30400,"station_id":"ce4bgjp2rcd13ifvqbh0","pricing_plan_id":"cebpf4jnsgd1na2vs0mg"},{"bike_id":"2652168f-a89f-4318-80bc-418337999205","system_id":"levelo_inurba_marseille","lat":43.29719,"lon":5.37698,"is_reserved":false,"is_disabled":false,"rental_uris":{"android":"levelo://app?vid=2652168f-a89f-4318-80bc-418337999205","ios":"levelo://app?vid=2652168f-a89f-4318-80bc-418337999205"},"vehicle_type_id":"4","last_reported":1727190565,"current_range_meters":16400,"station_id":"ce4bgkh2rcd13ifvqbl0","pricing_plan_id":"cebpf4jnsgd1na2vs0mg"},{"bike_id":"f5b1128c-7029-4130-89ca-a009ee88473a","system_id":"levelo_inurba_marseille","lat":43.24658,"lon":5.38172,"is_reserved":false,"is_disabled":false,"rental_uris":{"android":"levelo://app?vid=f5b1128c-7029-4130-89ca-a009ee88473a","ios":"levelo://app?vid=f5b1128c-7029-4130-89ca-a009ee88473a"},"vehicle_type_id":"4","last_reported":1727190565,"current_range_meters":8000,"station_id":"ce4bhih2rcd13ifvqfr0","pricing_plan_id":"cebpf4jnsgd1na2vs0mg"},{"bike_id":"f4e96a3e-15e2-4703-b7a3-cd02307a1a96","system_id":"levelo_inurba_marseille","lat":43.24646,"lon":5.38891,"is_reserved":false,"is_disabled":false,"rental_uris":{"android":"levelo://app?vid=f4e96a3e-15e2-4703-b7a3-cd02307a1a96","ios":"levelo://app?vid=f4e96a3e-15e2-4703-b7a3-cd02307a1a96"},"vehicle_type_id":"4","last_reported":1727190565,"current_range_meters":36000,"station_id":"ce4bhg12rcd13ifvqf60","pricing_plan_id":"cebpf4jnsgd1na2vs0mg"},{"bike_id":"b1f73128-5271-43d8-af34-94e10e3b804a","system_id":"levelo_inurba_marseille","lat":43.33023,"lon":5.39042,"is_reserved":false,"is_disabled":false,"rental_uris":{"android":"levelo://app?vid=b1f73128-5271-43d8-af34-94e10e3b804a","ios":"levelo://app?vid=b1f73128-5271-43d8-af34-94e10e3b804a"},"vehicle_type_id":"4","last_reported":1727190565,"current_range_meters":39200,"station_id":"ce4bhr92rcd13ifvqhrg","pricing_plan_id":"cebpf4jnsgd1na2vs0mg"},{"bike_id":"5c5826a8-fc52-400f-b32d-c12186de8d4c","system_id":"levelo_inurba_marseille","lat":43.239717,"lon":5.36629,"is_reserved":false,"is_disabled":false,"rental_uris":{"android":"levelo://app?vid=5c5826a8-fc52-400f-b32d-c12186de8d4c","ios":"levelo://app?vid=5c5826a8-fc52-400f-b32d-c12186de8d4c"},"vehicle_type_id":"4","last_reported":1727190565,"current_range_meters":35200,"station_id":"ce4bhi12rcd13ifvqfp0","pricing_plan_id":"cebpf4jnsgd1na2vs0mg"},{"bike_id":"e1161fb6-04f8-49d2-bfcb-45a6908c7773","system_id":"levelo_inurba_marseille","lat":43.27178,"lon":5.40992,"is_reserved":false,"is_disabled":false,"rental_uris":{"android":"levelo://app?vid=e1161fb6-04f8-49d2-bfcb-45a6908c7773","ios":"levelo://app?vid=e1161fb6-04f8-49d2-bfcb-45a6908c7773"},"vehicle_type_id":"4","last_reported":1727190565,"current_range_meters":19200,"station_id":"ce4bhl12rcd13ifvqgf0","pricing_plan_id":"cebpf4jnsgd1na2vs0mg"},{"bike_id":"36d66b97-13f2-4893-957a-4b0b0b06caab","system_id":"levelo_inurba_marseille","lat":43.29269,"lon":5.38442,"is_reserved":false,"is_disabled":false,"rental_uris":{"android":"levelo://app?vid=36d66b97-13f2-4893-957a-4b0b0b06caab","ios":"levelo://app?vid=36d66b97-13f2-4893-957a-4b0b0b06caab"},"vehicle_type_id":"4","last_reported":1727190565,"current_range_meters":22000,"station_id":"ce4bh692rcd13ifvqea0","pricing_plan_id":"cebpf4jnsgd1na2vs0mg"},{"bike_id":"de6aeb03-afe1-457c-b86f-2479e71a3bd2","system_id":"levelo_inurba_marseille","lat":43.29304,"lon":5.37178,"is_reserved":false,"is_disabled":false,"rental_uris":{"android":"levelo://app?vid=de6aeb03-afe1-457c-b86f-2479e71a3bd2","ios":"levelo://app?vid=de6aeb03-afe1-457c-b86f-2479e71a3bd2"},"vehicle_type_id":"4","last_reported":1727190565,"current_range_meters":28800,"station_id":"ce4bgh92rcd13ifvqb40","pricing_plan_id":"cebpf4jnsgd1na2vs0mg"},{"bike_id":"4b770073-7726-4e78-b34f-a257261dc7d3","system_id":"levelo_inurba_marseille","lat":43.295567,"lon":5.422776,"is_reserved":false,"is_disabled":false,"rental_uris":{"android":"levelo://app?vid=4b770073-7726-4e78-b34f-a257261dc7d3","ios":"levelo://app?vid=4b770073-7726-4e78-b34f-a257261dc7d3"},"vehicle_type_id":"4","last_reported":1727190565,"current_range_meters":28000,"station_id":"ce4bhph2rcd13ifvqhdg","pricing_plan_id":"cebpf4jnsgd1na2vs0mg"},{"bike_id":"1166f6b1-5b87-4bc1-b21d-c61655b2fee0","system_id":"levelo_inurba_marseille","lat":43.29445,"lon":5.3806,"is_reserved":false,"is_disabled":false,"rental_uris":{"android":"levelo://app?vid=1166f6b1-5b87-4bc1-b21d-c61655b2fee0","ios":"levelo://app?vid=1166f6b1-5b87-4bc1-b21d-c61655b2fee0"},"vehicle_type_id":"4","last_reported":1727190565,"current_range_meters":37600,"station_id":"","pricing_plan_id":"cebpf4jnsgd1na2vs0mg"},{"bike_id":"8b7edb62-2e5c-4a59-859f-d02ad5debeeb","system_id":"levelo_inurba_marseille","lat":43.24464,"lon":5.39611,"is_reserved":false,"is_disabled":false,"rental_uris":{"android":"levelo://app?vid=8b7edb62-2e5c-4a59-859f-d02ad5debeeb","ios":"levelo://app?vid=8b7edb62-2e5c-4a59-859f-d02ad5debeeb"},"vehicle_type_id":"4","last_reported":1727190565,"current_range_meters":5600,"station_id":"ce4bhlp2rcd13ifvqgjg","pricing_plan_id":"cebpf4jnsgd1na2vs0mg"},{"bike_id":"b9927a7a-6a68-4fdd-a9cf-21f3191cee64","system_id":"levelo_inurba_marseille","lat":43.281119,"lon":5.37833,"is_reserved":false,"is_disabled":false,"rental_uris":{"android":"levelo://app?vid=b9927a7a-6a68-4fdd-a9cf-21f3191cee64","ios":"levelo://app?vid=b9927a7a-6a68-4fdd-a9cf-21f3191cee64"},"vehicle_type_id":"4","last_reported":1727190565,"current_range_meters":39200,"station_id":"ce4bha12rcd13ifvqee0","pricing_plan_id":"cebpf4jnsgd1na2vs0mg"},{"bike_id":"4925a583-1cb9-4187-be52-f1f37a846c7f","system_id":"levelo_inurba_marseille","lat":43.30413,"lon":5.4129,"is_reserved":false,"is_disabled":false,"rental_uris":{"android":"levelo://app?vid=4925a583-1cb9-4187-be52-f1f37a846c7f","ios":"levelo://app?vid=4925a583-1cb9-4187-be52-f1f37a846c7f"},"vehicle_type_id":"4","last_reported":1727190565,"current_range_meters":20400,"station_id":"ce4bhop2rcd13ifvqh8g","pricing_plan_id":"cebpf4jnsgd1na2vs0mg"},{"bike_id":"49d80325-faab-4d79-8ece-643304efb99e","system_id":"levelo_inurba_marseille","lat":43.26682,"lon":5.38267,"is_reserved":false,"is_disabled":false,"rental_uris":{"android":"levelo://app?vid=49d80325-faab-4d79-8ece-643304efb99e","ios":"levelo://app?vid=49d80325-faab-4d79-8ece-643304efb99e"},"vehicle_type_id":"4","last_reported":1727190565,"current_range_meters":37600,"station_id":"ce4bhg92rcd13ifvqf90","pricing_plan_id":"cebpf4jnsgd1na2vs0mg"},{"bike_id":"e59b0fcb-9ec1-4e05-a6bd-12eb54ed61ec","system_id":"levelo_inurba_marseille","lat":43.2668,"lon":5.38263,"is_reserved":false,"is_disabled":false,"rental_uris":{"android":"levelo://app?vid=e59b0fcb-9ec1-4e05-a6bd-12eb54ed61ec","ios":"levelo://app?vid=e59b0fcb-9ec1-4e05-a6bd-12eb54ed61ec"},"vehicle_type_id":"4","last_reported":1727190565,"current_range_meters":34000,"station_id":"ce4bhg92rcd13ifvqf90","pricing_plan_id":"cebpf4jnsgd1na2vs0mg"},{"bike_id":"48557990-4eb5-4fa2-b998-12748800b44a","system_id":"levelo_inurba_marseille","lat":43.27066,"lon":5.4227,"is_reserved":false,"is_disabled":false,"rental_uris":{"android":"levelo://app?vid=48557990-4eb5-4fa2-b998-12748800b44a","ios":"levelo://app?vid=48557990-4eb5-4fa2-b998-12748800b44a"},"vehicle_type_id":"4","last_reported":1727190565,"current_range_meters":32800,"station_id":"ce4bhk92rcd13ifvqgb0","pricing_plan_id":"cebpf4jnsgd1na2vs0mg"},{"bike_id":"2c567e6d-9516-43a8-a805-6a796053112e","system_id":"levelo_inurba_marseille","lat":43.32483,"lon":5.36556,"is_reserved":false,"is_disabled":false,"rental_uris":{"android":"levelo://app?vid=2c567e6d-9516-43a8-a805-6a796053112e","ios":"levelo://app?vid=2c567e6d-9516-43a8-a805-6a796053112e"},"vehicle_type_id":"4","last_reported":1727190565,"current_range_meters":39200,"station_id":"ce4bhs12rcd13ifvqhvg","pricing_plan_id":"cebpf4jnsgd1na2vs0mg"},{"bike_id":"688cc873-1db1-4979-96a3-aaed234a17cb","system_id":"levelo_inurba_marseille","lat":43.27165,"lon":5.38599,"is_reserved":false,"is_disabled":false,"rental_uris":{"android":"levelo://app?vid=688cc873-1db1-4979-96a3-aaed234a17cb","ios":"levelo://app?vid=688cc873-1db1-4979-96a3-aaed234a17cb"},"vehicle_type_id":"4","last_reported":1727190565,"current_range_meters":6800,"station_id":"ce4bhgp2rcd13ifvqfe0","pricing_plan_id":"cebpf4jnsgd1na2vs0mg"},{"bike_id":"17701005-77c3-4e4f-a0b4-b2ece630517d","system_id":"levelo_inurba_marseille","lat":43.23956,"lon":5.36633,"is_reserved":false,"is_disabled":false,"rental_uris":{"android":"levelo://app?vid=17701005-77c3-4e4f-a0b4-b2ece630517d","ios":"levelo://app?vid=17701005-77c3-4e4f-a0b4-b2ece630517d"},"vehicle_type_id":"4","last_reported":1727190565,"current_range_meters":38800,"station_id":"ce4bhi12rcd13ifvqfp0","pricing_plan_id":"cebpf4jnsgd1na2vs0mg"},{"bike_id":"4555ca34-67c7-4b8e-a295-4471cd230d16","system_id":"levelo_inurba_marseille","lat":43.2861,"lon":5.37072,"is_reserved":false,"is_disabled":false,"rental_uris":{"android":"levelo://app?vid=4555ca34-67c7-4b8e-a295-4471cd230d16","ios":"levelo://app?vid=4555ca34-67c7-4b8e-a295-4471cd230d16"},"vehicle_type_id":"4","last_reported":1727190565,"current_range_meters":30400,"station_id":"ce4bht12rcd13ifvqi60","pricing_plan_id":"cebpf4jnsgd1na2vs0mg"},{"bike_id":"b9e75180-8e16-4551-88f1-0d10049bb530","system_id":"levelo_inurba_marseille","lat":43.30645,"lon":5.40077,"is_reserved":false,"is_disabled":false,"rental_uris":{"android":"levelo://app?vid=b9e75180-8e16-4551-88f1-0d10049bb530","ios":"levelo://app?vid=b9e75180-8e16-4551-88f1-0d10049bb530"},"vehicle_type_id":"4","last_reported":1727190565,"current_range_meters":18000,"station_id":"ce4bh112rcd13ifvqda0","pricing_plan_id":"cebpf4jnsgd1na2vs0mg"},{"bike_id":"50551bd9-bf0a-461e-819a-ef9d3f202ba9","system_id":"levelo_inurba_marseille","lat":43.269148,"lon":5.388764,"is_reserved":false,"is_disabled":false,"rental_uris":{"android":"levelo://app?vid=50551bd9-bf0a-461e-819a-ef9d3f202ba9","ios":"levelo://app?vid=50551bd9-bf0a-461e-819a-ef9d3f202ba9"},"vehicle_type_id":"4","last_reported":1727190565,"current_range_meters":3200,"station_id":"ce4bhhh2rcd13ifvqfl0","pricing_plan_id":"cebpf4jnsgd1na2vs0mg"},{"bike_id":"3266d9f3-3ab8-4049-9e3e-02ede188f323","system_id":"levelo_inurba_marseille","lat":43.26202,"lon":5.37937,"is_reserved":false,"is_disabled":false,"rental_uris":{"android":"levelo://app?vid=3266d9f3-3ab8-4049-9e3e-02ede188f323","ios":"levelo://app?vid=3266d9f3-3ab8-4049-9e3e-02ede188f323"},"vehicle_type_id":"4","last_reported":1727190565,"current_range_meters":31200,"station_id":"ce4bhjp2rcd13ifvqg90","pricing_plan_id":"cebpf4jnsgd1na2vs0mg"},{"bike_id":"5fd6c086-4bc5-46ac-b27c-c6e94e1937c0","system_id":"levelo_inurba_marseille","lat":43.283628,"lon":5.381026,"is_reserved":false,"is_disabled":false,"rental_uris":{"android":"levelo://app?vid=5fd6c086-4bc5-46ac-b27c-c6e94e1937c0","ios":"levelo://app?vid=5fd6c086-4bc5-46ac-b27c-c6e94e1937c0"},"vehicle_type_id":"4","last_reported":1727190565,"current_range_meters":6400,"station_id":"ce4bhgp2rcd13ifvqfe0","pricing_plan_id":"cebpf4jnsgd1na2vs0mg"},{"bike_id":"63ac3f3b-affc-4ed0-ad00-6c7dc2e92a73","system_id":"levelo_inurba_marseille","lat":43.30538,"lon":5.36702,"is_reserved":false,"is_disabled":false,"rental_uris":{"android":"levelo://app?vid=63ac3f3b-affc-4ed0-ad00-6c7dc2e92a73","ios":"levelo://app?vid=63ac3f3b-affc-4ed0-ad00-6c7dc2e92a73"},"vehicle_type_id":"4","last_reported":1727190565,"current_range_meters":19600,"station_id":"ce4bgrp2rcd13ifvqc9g","pricing_plan_id":"cebpf4jnsgd1na2vs0mg"},{"bike_id":"6a766751-75e3-4a4e-88b3-eac33df530ab","system_id":"levelo_inurba_marseille","lat":43.29095,"lon":5.38146,"is_reserved":false,"is_disabled":false,"rental_uris":{"android":"levelo://app?vid=6a766751-75e3-4a4e-88b3-eac33df530ab","ios":"levelo://app?vid=6a766751-75e3-4a4e-88b3-eac33df530ab"},"vehicle_type_id":"4","last_reported":1727190565,"current_range_meters":17200,"station_id":"ce4bh512rcd13ifvqe2g","pricing_plan_id":"cebpf4jnsgd1na2vs0mg"},{"bike_id":"9c9ca807-4aec-4fb8-b059-05bbfa044a01","system_id":"levelo_inurba_marseille","lat":43.30636,"lon":5.40078,"is_reserved":false,"is_disabled":false,"rental_uris":{"android":"levelo://app?vid=9c9ca807-4aec-4fb8-b059-05bbfa044a01","ios":"levelo://app?vid=9c9ca807-4aec-4fb8-b059-05bbfa044a01"},"vehicle_type_id":"4","last_reported":1727190565,"current_range_meters":38800,"station_id":"ce4bh112rcd13ifvqda0","pricing_plan_id":"cebpf4jnsgd1na2vs0mg"},{"bike_id":"df0d4290-f832-431a-b27b-800c56eeffa4","system_id":"levelo_inurba_marseille","lat":43.290188,"lon":5.381292,"is_reserved":false,"is_disabled":false,"rental_uris":{"android":"levelo://app?vid=df0d4290-f832-431a-b27b-800c56eeffa4","ios":"levelo://app?vid=df0d4290-f832-431a-b27b-800c56eeffa4"},"vehicle_type_id":"4","last_reported":1727190565,"current_range_meters":31200,"station_id":"ce4bgi12rcd13ifvqb70","pricing_plan_id":"cebpf4jnsgd1na2vs0mg"},{"bike_id":"87bc3c3a-5b0d-4d32-b107-ce17692bf59d","system_id":"levelo_inurba_marseille","lat":43.2315,"lon":5.43705,"is_reserved":false,"is_disabled":false,"rental_uris":{"android":"levelo://app?vid=87bc3c3a-5b0d-4d32-b107-ce17692bf59d","ios":"levelo://app?vid=87bc3c3a-5b0d-4d32-b107-ce17692bf59d"},"vehicle_type_id":"4","last_reported":1727190565,"current_range_meters":2800,"station_id":"ce4bhmp2rcd13ifvqgog","pricing_plan_id":"cebpf4jnsgd1na2vs0mg"},{"bike_id":"5135e5ac-cb27-4e9a-b5d1-3fd501329b73","system_id":"levelo_inurba_marseille","lat":43.261627,"lon":5.387517,"is_reserved":false,"is_disabled":false,"rental_uris":{"android":"levelo://app?vid=5135e5ac-cb27-4e9a-b5d1-3fd501329b73","ios":"levelo://app?vid=5135e5ac-cb27-4e9a-b5d1-3fd501329b73"},"vehicle_type_id":"4","last_reported":1727190565,"current_range_meters":17600,"station_id":"ce4bhh92rcd13ifvqfj0","pricing_plan_id":"cebpf4jnsgd1na2vs0mg"},{"bike_id":"a7bca3df-0344-4204-86d7-b742d4769839","system_id":"levelo_inurba_marseille","lat":43.30863,"lon":5.3685,"is_reserved":false,"is_disabled":false,"rental_uris":{"android":"levelo://app?vid=a7bca3df-0344-4204-86d7-b742d4769839","ios":"levelo://app?vid=a7bca3df-0344-4204-86d7-b742d4769839"},"vehicle_type_id":"4","last_reported":1727190565,"current_range_meters":32800,"station_id":"ce4bgn92rcd13ifvqbvg","pricing_plan_id":"cebpf4jnsgd1na2vs0mg"},{"bike_id":"fe7a402e-e2a8-457b-bf0d-fc33ee334ae9","system_id":"levelo_inurba_marseille","lat":43.28265,"lon":5.35083,"is_reserved":false,"is_disabled":false,"rental_uris":{"android":"levelo://app?vid=fe7a402e-e2a8-457b-bf0d-fc33ee334ae9","ios":"levelo://app?vid=fe7a402e-e2a8-457b-bf0d-fc33ee334ae9"},"vehicle_type_id":"4","last_reported":1727190565,"current_range_meters":18000,"station_id":"ce4bhbp2rcd13ifvqerg","pricing_plan_id":"cebpf4jnsgd1na2vs0mg"},{"bike_id":"b251cda7-8d96-4def-955a-1f85de22d14b","system_id":"levelo_inurba_marseille","lat":43.28473,"lon":5.35904,"is_reserved":false,"is_disabled":false,"rental_uris":{"android":"levelo://app?vid=b251cda7-8d96-4def-955a-1f85de22d14b","ios":"levelo://app?vid=b251cda7-8d96-4def-955a-1f85de22d14b"},"vehicle_type_id":"4","last_reported":1727190565,"current_range_meters":11600,"station_id":"ce4bhah2rcd13ifvqei0","pricing_plan_id":"cebpf4jnsgd1na2vs0mg"},{"bike_id":"7d572b1d-ed04-4e62-b6a9-94008b2c6cfe","system_id":"levelo_inurba_marseille","lat":43.31489,"lon":5.37312,"is_reserved":false,"is_disabled":false,"rental_uris":{"android":"levelo://app?vid=7d572b1d-ed04-4e62-b6a9-94008b2c6cfe","ios":"levelo://app?vid=7d572b1d-ed04-4e62-b6a9-94008b2c6cfe"},"vehicle_type_id":"4","last_reported":1727190565,"current_range_meters":11600,"station_id":"ce4bgt12rcd13ifvqcd0","pricing_plan_id":"cebpf4jnsgd1na2vs0mg"},{"bike_id":"ff8b75fe-c6bb-40ec-acfd-279536dacf5c","system_id":"levelo_inurba_marseille","lat":43.265519,"lon":5.373519,"is_reserved":false,"is_disabled":false,"rental_uris":{"android":"levelo://app?vid=ff8b75fe-c6bb-40ec-acfd-279536dacf5c","ios":"levelo://app?vid=ff8b75fe-c6bb-40ec-acfd-279536dacf5c"},"vehicle_type_id":"4","last_reported":1727190565,"current_range_meters":22400,"station_id":"ce4bhg12rcd13ifvqf70","pricing_plan_id":"cebpf4jnsgd1na2vs0mg"},{"bike_id":"14bb3ee1-8dcf-4ea8-bda7-4684bef163ee","system_id":"levelo_inurba_marseille","lat":43.3176,"lon":5.39019,"is_reserved":false,"is_disabled":false,"rental_uris":{"android":"levelo://app?vid=14bb3ee1-8dcf-4ea8-bda7-4684bef163ee","ios":"levelo://app?vid=14bb3ee1-8dcf-4ea8-bda7-4684bef163ee"},"vehicle_type_id":"4","last_reported":1727190565,"current_range_meters":30400,"station_id":"ce4bhqp2rcd13ifvqhng","pricing_plan_id":"cebpf4jnsgd1na2vs0mg"},{"bike_id":"7c6ec264-7013-498d-b486-94611ea4274a","system_id":"levelo_inurba_marseille","lat":43.264955,"lon":5.395418,"is_reserved":false,"is_disabled":false,"rental_uris":{"android":"levelo://app?vid=7c6ec264-7013-498d-b486-94611ea4274a","ios":"levelo://app?vid=7c6ec264-7013-498d-b486-94611ea4274a"},"vehicle_type_id":"4","last_reported":1727190565,"current_range_meters":19600,"station_id":"ce4bhi12rcd13ifvqfq0","pricing_plan_id":"cebpf4jnsgd1na2vs0mg"},{"bike_id":"337d797f-5bad-4e42-a3a9-741eceae0aa0","system_id":"levelo_inurba_marseille","lat":43.33716,"lon":5.39178,"is_reserved":false,"is_disabled":false,"rental_uris":{"android":"levelo://app?vid=337d797f-5bad-4e42-a3a9-741eceae0aa0","ios":"levelo://app?vid=337d797f-5bad-4e42-a3a9-741eceae0aa0"},"vehicle_type_id":"4","last_reported":1727190565,"current_range_meters":36400,"station_id":"ce4bhr92rcd13ifvqhsg","pricing_plan_id":"cebpf4jnsgd1na2vs0mg"},{"bike_id":"3e788c36-7678-4178-b456-9fae8d0210ca","system_id":"levelo_inurba_marseille","lat":43.30147,"lon":5.38789,"is_reserved":false,"is_disabled":false,"rental_uris":{"android":"levelo://app?vid=3e788c36-7678-4178-b456-9fae8d0210ca","ios":"levelo://app?vid=3e788c36-7678-4178-b456-9fae8d0210ca"},"vehicle_type_id":"4","last_reported":1727190565,"current_range_meters":35600,"station_id":"ce4bghh2rcd13ifvqb60","pricing_plan_id":"cebpf4jnsgd1na2vs0mg"},{"bike_id":"3f4d344c-b245-492d-8f22-936208613aa4","system_id":"levelo_inurba_marseille","lat":43.291,"lon":5.38114,"is_reserved":false,"is_disabled":false,"rental_uris":{"android":"levelo://app?vid=3f4d344c-b245-492d-8f22-936208613aa4","ios":"levelo://app?vid=3f4d344c-b245-492d-8f22-936208613aa4"},"vehicle_type_id":"4","last_reported":1727190565,"current_range_meters":3200,"station_id":"ce4bh512rcd13ifvqe2g","pricing_plan_id":"cebpf4jnsgd1na2vs0mg"},{"bike_id":"d0705f61-dd28-4e4d-b46f-139fda646b8a","system_id":"levelo_inurba_marseille","lat":43.27819,"lon":5.4012,"is_reserved":false,"is_disabled":false,"rental_uris":{"android":"levelo://app?vid=d0705f61-dd28-4e4d-b46f-139fda646b8a","ios":"levelo://app?vid=d0705f61-dd28-4e4d-b46f-139fda646b8a"},"vehicle_type_id":"4","last_reported":1727190565,"current_range_meters":14800,"station_id":"ce4bh8p2rcd13ifvqeb0","pricing_plan_id":"cebpf4jnsgd1na2vs0mg"},{"bike_id":"4a4bfd88-bdfc-4802-b3a8-e798e4274727","system_id":"levelo_inurba_marseille","lat":43.32291,"lon":5.3827,"is_reserved":false,"is_disabled":false,"rental_uris":{"android":"levelo://app?vid=4a4bfd88-bdfc-4802-b3a8-e798e4274727","ios":"levelo://app?vid=4a4bfd88-bdfc-4802-b3a8-e798e4274727"},"vehicle_type_id":"4","last_reported":1727190565,"current_range_meters":32800,"station_id":"ce4bhr12rcd13ifvqhqg","pricing_plan_id":"cebpf4jnsgd1na2vs0mg"},{"bike_id":"18da4ebd-d367-4c55-b156-dabc68113dce","system_id":"levelo_inurba_marseille","lat":43.25863,"lon":5.39906,"is_reserved":false,"is_disabled":false,"rental_uris":{"android":"levelo://app?vid=18da4ebd-d367-4c55-b156-dabc68113dce","ios":"levelo://app?vid=18da4ebd-d367-4c55-b156-dabc68113dce"},"vehicle_type_id":"4","last_reported":1727190565,"current_range_meters":25200,"station_id":"ce4bhl92rcd13ifvqghg","pricing_plan_id":"cebpf4jnsgd1na2vs0mg"},{"bike_id":"b267d978-ffff-4360-b8b7-a941162356a7","system_id":"levelo_inurba_marseille","lat":43.29785,"lon":5.39332,"is_reserved":false,"is_disabled":false,"rental_uris":{"android":"levelo://app?vid=b267d978-ffff-4360-b8b7-a941162356a7","ios":"levelo://app?vid=b267d978-ffff-4360-b8b7-a941162356a7"},"vehicle_type_id":"4","last_reported":1727190565,"current_range_meters":24800,"station_id":"chh1huq6cuj3fo74tm60","pricing_plan_id":"cebpf4jnsgd1na2vs0mg"},{"bike_id":"0a4aca30-1284-4227-8736-ce6adc959572","system_id":"levelo_inurba_marseille","lat":43.32477,"lon":5.36561,"is_reserved":false,"is_disabled":false,"rental_uris":{"android":"levelo://app?vid=0a4aca30-1284-4227-8736-ce6adc959572","ios":"levelo://app?vid=0a4aca30-1284-4227-8736-ce6adc959572"},"vehicle_type_id":"4","last_reported":1727190565,"current_range_meters":38800,"station_id":"ce4bhs12rcd13ifvqhvg","pricing_plan_id":"cebpf4jnsgd1na2vs0mg"},{"bike_id":"78c9fbae-a517-464c-b731-5a53c1656251","system_id":"levelo_inurba_marseille","lat":43.32483,"lon":5.36565,"is_reserved":false,"is_disabled":false,"rental_uris":{"android":"levelo://app?vid=78c9fbae-a517-464c-b731-5a53c1656251","ios":"levelo://app?vid=78c9fbae-a517-464c-b731-5a53c1656251"},"vehicle_type_id":"4","last_reported":1727190565,"current_range_meters":38800,"station_id":"ce4bhs12rcd13ifvqhvg","pricing_plan_id":"cebpf4jnsgd1na2vs0mg"},{"bike_id":"80c09bcd-f591-4f57-827d-58dd1b44e8f1","system_id":"levelo_inurba_marseille","lat":43.23958,"lon":5.36649,"is_reserved":false,"is_disabled":false,"rental_uris":{"android":"levelo://app?vid=80c09bcd-f591-4f57-827d-58dd1b44e8f1","ios":"levelo://app?vid=80c09bcd-f591-4f57-827d-58dd1b44e8f1"},"vehicle_type_id":"4","last_reported":1727190565,"current_range_meters":38800,"station_id":"ce4bhi12rcd13ifvqfp0","pricing_plan_id":"cebpf4jnsgd1na2vs0mg"},{"bike_id":"6dfa07ec-669c-4759-8def-2365753c4f86","system_id":"levelo_inurba_marseille","lat":43.29035,"lon":5.38104,"is_reserved":false,"is_disabled":false,"rental_uris":{"android":"levelo://app?vid=6dfa07ec-669c-4759-8def-2365753c4f86","ios":"levelo://app?vid=6dfa07ec-669c-4759-8def-2365753c4f86"},"vehicle_type_id":"4","last_reported":1727190565,"current_range_meters":12400,"station_id":"ce4bh4p2rcd13ifvqe1g","pricing_plan_id":"cebpf4jnsgd1na2vs0mg"},{"bike_id":"f57a687d-6e59-440f-a32c-db5cd432a50f","system_id":"levelo_inurba_marseille","lat":43.27069,"lon":5.42275,"is_reserved":false,"is_disabled":false,"rental_uris":{"android":"levelo://app?vid=f57a687d-6e59-440f-a32c-db5cd432a50f","ios":"levelo://app?vid=f57a687d-6e59-440f-a32c-db5cd432a50f"},"vehicle_type_id":"4","last_reported":1727190565,"current_range_meters":15200,"station_id":"ce4bhk92rcd13ifvqgb0","pricing_plan_id":"cebpf4jnsgd1na2vs0mg"},{"bike_id":"c1914418-929f-4475-a940-125a7adb7c5e","system_id":"levelo_inurba_marseille","lat":43.33729,"lon":5.39187,"is_reserved":false,"is_disabled":false,"rental_uris":{"android":"levelo://app?vid=c1914418-929f-4475-a940-125a7adb7c5e","ios":"levelo://app?vid=c1914418-929f-4475-a940-125a7adb7c5e"},"vehicle_type_id":"4","last_reported":1727190565,"current_range_meters":30800,"station_id":"ce4bhr92rcd13ifvqhsg","pricing_plan_id":"cebpf4jnsgd1na2vs0mg"},{"bike_id":"ede37da0-431f-462e-af97-45c71435ab2a","system_id":"levelo_inurba_marseille","lat":43.24184,"lon":5.39713,"is_reserved":false,"is_disabled":false,"rental_uris":{"android":"levelo://app?vid=ede37da0-431f-462e-af97-45c71435ab2a","ios":"levelo://app?vid=ede37da0-431f-462e-af97-45c71435ab2a"},"vehicle_type_id":"4","last_reported":1727190565,"current_range_meters":25600,"station_id":"ce4bhn12rcd13ifvqgpg","pricing_plan_id":"cebpf4jnsgd1na2vs0mg"},{"bike_id":"3c5abc47-ec0e-4fb1-9d63-a70ffbf47084","system_id":"levelo_inurba_marseille","lat":43.26684,"lon":5.38264,"is_reserved":false,"is_disabled":false,"rental_uris":{"android":"levelo://app?vid=3c5abc47-ec0e-4fb1-9d63-a70ffbf47084","ios":"levelo://app?vid=3c5abc47-ec0e-4fb1-9d63-a70ffbf47084"},"vehicle_type_id":"4","last_reported":1727190565,"current_range_meters":12800,"station_id":"ce4bhg92rcd13ifvqf90","pricing_plan_id":"cebpf4jnsgd1na2vs0mg"},{"bike_id":"1db65e2b-94e5-4f7f-ab3d-67cd47b609b6","system_id":"levelo_inurba_marseille","lat":43.26211,"lon":5.37934,"is_reserved":false,"is_disabled":false,"rental_uris":{"android":"levelo://app?vid=1db65e2b-94e5-4f7f-ab3d-67cd47b609b6","ios":"levelo://app?vid=1db65e2b-94e5-4f7f-ab3d-67cd47b609b6"},"vehicle_type_id":"4","last_reported":1727190565,"current_range_meters":16000,"station_id":"ce4bhjp2rcd13ifvqg90","pricing_plan_id":"cebpf4jnsgd1na2vs0mg"},{"bike_id":"9559b53b-c56e-48cd-8fc6-433930529f8d","system_id":"levelo_inurba_marseille","lat":43.27915,"lon":5.39577,"is_reserved":false,"is_disabled":false,"rental_uris":{"android":"levelo://app?vid=9559b53b-c56e-48cd-8fc6-433930529f8d","ios":"levelo://app?vid=9559b53b-c56e-48cd-8fc6-433930529f8d"},"vehicle_type_id":"4","last_reported":1727190565,"current_range_meters":29600,"station_id":"ce4bhf92rcd13ifvqf40","pricing_plan_id":"cebpf4jnsgd1na2vs0mg"},{"bike_id":"19b29eaa-fc59-4c92-b80c-b69e78c26612","system_id":"levelo_inurba_marseille","lat":43.29895,"lon":5.43674,"is_reserved":false,"is_disabled":false,"rental_uris":{"android":"levelo://app?vid=19b29eaa-fc59-4c92-b80c-b69e78c26612","ios":"levelo://app?vid=19b29eaa-fc59-4c92-b80c-b69e78c26612"},"vehicle_type_id":"4","last_reported":1727190565,"current_range_meters":24400,"station_id":"ce4bhpp2rcd13ifvqhfg","pricing_plan_id":"cebpf4jnsgd1na2vs0mg"},{"bike_id":"b1453d4d-1cc1-4e6c-a5cf-87a70cda5c92","system_id":"levelo_inurba_marseille","lat":43.31224,"lon":5.36856,"is_reserved":false,"is_disabled":false,"rental_uris":{"android":"levelo://app?vid=b1453d4d-1cc1-4e6c-a5cf-87a70cda5c92","ios":"levelo://app?vid=b1453d4d-1cc1-4e6c-a5cf-87a70cda5c92"},"vehicle_type_id":"4","last_reported":1727190565,"current_range_meters":8800,"station_id":"ce4bgl92rcd13ifvqbq0","pricing_plan_id":"cebpf4jnsgd1na2vs0mg"},{"bike_id":"6c1a0788-5ce8-43cb-8a92-deb020775856","system_id":"levelo_inurba_marseille","lat":43.30555,"lon":5.36699,"is_reserved":false,"is_disabled":false,"rental_uris":{"android":"levelo://app?vid=6c1a0788-5ce8-43cb-8a92-deb020775856","ios":"levelo://app?vid=6c1a0788-5ce8-43cb-8a92-deb020775856"},"vehicle_type_id":"4","last_reported":1727190565,"current_range_meters":16400,"station_id":"ce4bgrp2rcd13ifvqc9g","pricing_plan_id":"cebpf4jnsgd1na2vs0mg"},{"bike_id":"9a6cf666-3ed7-4d3d-afb8-56b0230a4d6b","system_id":"levelo_inurba_marseille","lat":43.28001,"lon":5.41669,"is_reserved":false,"is_disabled":false,"rental_uris":{"android":"levelo://app?vid=9a6cf666-3ed7-4d3d-afb8-56b0230a4d6b","ios":"levelo://app?vid=9a6cf666-3ed7-4d3d-afb8-56b0230a4d6b"},"vehicle_type_id":"4","last_reported":1727190565,"current_range_meters":22400,"station_id":"ce4bho12rcd13ifvqh1g","pricing_plan_id":"cebpf4jnsgd1na2vs0mg"},{"bike_id":"94b7041a-5c24-4375-8179-1e0eb4b13407","system_id":"levelo_inurba_marseille","lat":43.30313,"lon":5.3691,"is_reserved":false,"is_disabled":false,"rental_uris":{"android":"levelo://app?vid=94b7041a-5c24-4375-8179-1e0eb4b13407","ios":"levelo://app?vid=94b7041a-5c24-4375-8179-1e0eb4b13407"},"vehicle_type_id":"4","last_reported":1727190565,"current_range_meters":38800,"station_id":"ce4bgqh2rcd13ifvqc5g","pricing_plan_id":"cebpf4jnsgd1na2vs0mg"},{"bike_id":"0de51797-09d9-4217-b985-2ff43fddf45f","system_id":"levelo_inurba_marseille","lat":43.23965,"lon":5.3663,"is_reserved":false,"is_disabled":false,"rental_uris":{"android":"levelo://app?vid=0de51797-09d9-4217-b985-2ff43fddf45f","ios":"levelo://app?vid=0de51797-09d9-4217-b985-2ff43fddf45f"},"vehicle_type_id":"4","last_reported":1727190565,"current_range_meters":32000,"station_id":"ce4bhi12rcd13ifvqfp0","pricing_plan_id":"cebpf4jnsgd1na2vs0mg"},{"bike_id":"70df401c-fd80-471b-818d-8c4957e23ad2","system_id":"levelo_inurba_marseille","lat":43.299622,"lon":5.413332,"is_reserved":false,"is_disabled":false,"rental_uris":{"android":"levelo://app?vid=70df401c-fd80-471b-818d-8c4957e23ad2","ios":"levelo://app?vid=70df401c-fd80-471b-818d-8c4957e23ad2"},"vehicle_type_id":"4","last_reported":1727190565,"current_range_meters":28000,"station_id":"ce4bhp12rcd13ifvqh9g","pricing_plan_id":"cebpf4jnsgd1na2vs0mg"},{"bike_id":"ff016e0c-2cdc-44ec-95de-a79f6f1789c9","system_id":"levelo_inurba_marseille","lat":43.29419,"lon":5.38631,"is_reserved":false,"is_disabled":false,"rental_uris":{"android":"levelo://app?vid=ff016e0c-2cdc-44ec-95de-a79f6f1789c9","ios":"levelo://app?vid=ff016e0c-2cdc-44ec-95de-a79f6f1789c9"},"vehicle_type_id":"4","last_reported":1727190565,"current_range_meters":38400,"station_id":"ce4bh2h2rcd13ifvqdh0","pricing_plan_id":"cebpf4jnsgd1na2vs0mg"},{"bike_id":"f1f1804a-1114-4be8-b67f-ab89d2c6af44","system_id":"levelo_inurba_marseille","lat":43.24546,"lon":5.41152,"is_reserved":false,"is_disabled":false,"rental_uris":{"android":"levelo://app?vid=f1f1804a-1114-4be8-b67f-ab89d2c6af44","ios":"levelo://app?vid=f1f1804a-1114-4be8-b67f-ab89d2c6af44"},"vehicle_type_id":"4","last_reported":1727190565,"current_range_meters":17600,"station_id":"","pricing_plan_id":"cebpf4jnsgd1na2vs0mg"},{"bike_id":"6ddafbe1-16f1-463a-be44-0bef68acf23b","system_id":"levelo_inurba_marseille","lat":43.27187,"lon":5.40989,"is_reserved":false,"is_disabled":false,"rental_uris":{"android":"levelo://app?vid=6ddafbe1-16f1-463a-be44-0bef68acf23b","ios":"levelo://app?vid=6ddafbe1-16f1-463a-be44-0bef68acf23b"},"vehicle_type_id":"4","last_reported":1727190565,"current_range_meters":30800,"station_id":"ce4bhl12rcd13ifvqgf0","pricing_plan_id":"cebpf4jnsgd1na2vs0mg"},{"bike_id":"0dceb80e-cc74-432a-a585-5e09cd42fff6","system_id":"levelo_inurba_marseille","lat":43.30315,"lon":5.36885,"is_reserved":false,"is_disabled":false,"rental_uris":{"android":"levelo://app?vid=0dceb80e-cc74-432a-a585-5e09cd42fff6","ios":"levelo://app?vid=0dceb80e-cc74-432a-a585-5e09cd42fff6"},"vehicle_type_id":"4","last_reported":1727190565,"current_range_meters":6000,"station_id":"ce4bgqh2rcd13ifvqc5g","pricing_plan_id":"cebpf4jnsgd1na2vs0mg"},{"bike_id":"46dea0f5-a648-48a8-b04c-77964c04bfe7","system_id":"levelo_inurba_marseille","lat":43.28437,"lon":5.39193,"is_reserved":false,"is_disabled":false,"rental_uris":{"android":"levelo://app?vid=46dea0f5-a648-48a8-b04c-77964c04bfe7","ios":"levelo://app?vid=46dea0f5-a648-48a8-b04c-77964c04bfe7"},"vehicle_type_id":"4","last_reported":1727190565,"current_range_meters":38800,"station_id":"ce4bhoh2rcd13ifvqh5g","pricing_plan_id":"cebpf4jnsgd1na2vs0mg"},{"bike_id":"a6f79e27-53dd-472b-a971-f9aca07c6b5f","system_id":"levelo_inurba_marseille","lat":43.25491,"lon":5.37658,"is_reserved":false,"is_disabled":false,"rental_uris":{"android":"levelo://app?vid=a6f79e27-53dd-472b-a971-f9aca07c6b5f","ios":"levelo://app?vid=a6f79e27-53dd-472b-a971-f9aca07c6b5f"},"vehicle_type_id":"4","last_reported":1727190565,"current_range_meters":4000,"station_id":"ce4bhh12rcd13ifvqff0","pricing_plan_id":"cebpf4jnsgd1na2vs0mg"},{"bike_id":"0a756c34-9088-48af-8ff5-3e1e2e9a3e79","system_id":"levelo_inurba_marseille","lat":43.23189,"lon":5.39973,"is_reserved":false,"is_disabled":false,"rental_uris":{"android":"levelo://app?vid=0a756c34-9088-48af-8ff5-3e1e2e9a3e79","ios":"levelo://app?vid=0a756c34-9088-48af-8ff5-3e1e2e9a3e79"},"vehicle_type_id":"4","last_reported":1727190565,"current_range_meters":35600,"station_id":"ce4bhn12rcd13ifvqgqg","pricing_plan_id":"cebpf4jnsgd1na2vs0mg"},{"bike_id":"1f01f32a-32af-470f-bc92-2ca12eb47a5c","system_id":"levelo_inurba_marseille","lat":43.30906,"lon":5.36859,"is_reserved":false,"is_disabled":false,"rental_uris":{"android":"levelo://app?vid=1f01f32a-32af-470f-bc92-2ca12eb47a5c","ios":"levelo://app?vid=1f01f32a-32af-470f-bc92-2ca12eb47a5c"},"vehicle_type_id":"4","last_reported":1727190565,"current_range_meters":36800,"station_id":"ce4bgn92rcd13ifvqbvg","pricing_plan_id":"cebpf4jnsgd1na2vs0mg"},{"bike_id":"abd79631-760d-4023-987e-3837b36f0e53","system_id":"levelo_inurba_marseille","lat":43.30419,"lon":5.41278,"is_reserved":false,"is_disabled":false,"rental_uris":{"android":"levelo://app?vid=abd79631-760d-4023-987e-3837b36f0e53","ios":"levelo://app?vid=abd79631-760d-4023-987e-3837b36f0e53"},"vehicle_type_id":"4","last_reported":1727190565,"current_range_meters":31200,"station_id":"ce4bhop2rcd13ifvqh8g","pricing_plan_id":"cebpf4jnsgd1na2vs0mg"},{"bike_id":"621f88e3-3c96-4dae-b04e-648da3b888d4","system_id":"levelo_inurba_marseille","lat":43.30648,"lon":5.40089,"is_reserved":false,"is_disabled":false,"rental_uris":{"android":"levelo://app?vid=621f88e3-3c96-4dae-b04e-648da3b888d4","ios":"levelo://app?vid=621f88e3-3c96-4dae-b04e-648da3b888d4"},"vehicle_type_id":"4","last_reported":1727190565,"current_range_meters":38800,"station_id":"ce4bh112rcd13ifvqda0","pricing_plan_id":"cebpf4jnsgd1na2vs0mg"},{"bike_id":"56917559-0e01-43dc-934a-93b5dc2e1377","system_id":"levelo_inurba_marseille","lat":43.28378,"lon":5.38637,"is_reserved":false,"is_disabled":false,"rental_uris":{"android":"levelo://app?vid=56917559-0e01-43dc-934a-93b5dc2e1377","ios":"levelo://app?vid=56917559-0e01-43dc-934a-93b5dc2e1377"},"vehicle_type_id":"4","last_reported":1727190565,"current_range_meters":25600,"station_id":"ce4bh492rcd13ifvqdvg","pricing_plan_id":"cebpf4jnsgd1na2vs0mg"},{"bike_id":"796a131a-6aeb-4c73-b544-751f27da226c","system_id":"levelo_inurba_marseille","lat":43.29914,"lon":5.37496,"is_reserved":false,"is_disabled":false,"rental_uris":{"android":"levelo://app?vid=796a131a-6aeb-4c73-b544-751f27da226c","ios":"levelo://app?vid=796a131a-6aeb-4c73-b544-751f27da226c"},"vehicle_type_id":"4","last_reported":1727190565,"current_range_meters":16800,"station_id":"ce4bgjh2rcd13ifvqbg0","pricing_plan_id":"cebpf4jnsgd1na2vs0mg"},{"bike_id":"6af514a9-0231-48b0-9caf-8954ab655016","system_id":"levelo_inurba_marseille","lat":43.29961,"lon":5.41326,"is_reserved":false,"is_disabled":false,"rental_uris":{"android":"levelo://app?vid=6af514a9-0231-48b0-9caf-8954ab655016","ios":"levelo://app?vid=6af514a9-0231-48b0-9caf-8954ab655016"},"vehicle_type_id":"4","last_reported":1727190565,"current_range_meters":28400,"station_id":"ce4bhp12rcd13ifvqh9g","pricing_plan_id":"cebpf4jnsgd1na2vs0mg"},{"bike_id":"3e185349-c9c7-4bb6-8866-05f22a1baef7","system_id":"levelo_inurba_marseille","lat":43.29812,"lon":5.40419,"is_reserved":false,"is_disabled":false,"rental_uris":{"android":"levelo://app?vid=3e185349-c9c7-4bb6-8866-05f22a1baef7","ios":"levelo://app?vid=3e185349-c9c7-4bb6-8866-05f22a1baef7"},"vehicle_type_id":"4","last_reported":1727190565,"current_range_meters":28800,"station_id":"ce4bh112rcd13ifvqd90","pricing_plan_id":"cebpf4jnsgd1na2vs0mg"},{"bike_id":"3af76597-cd43-4a39-bfe1-f4fedfcc4577","system_id":"levelo_inurba_marseille","lat":43.281088,"lon":5.378333,"is_reserved":false,"is_disabled":false,"rental_uris":{"android":"levelo://app?vid=3af76597-cd43-4a39-bfe1-f4fedfcc4577","ios":"levelo://app?vid=3af76597-cd43-4a39-bfe1-f4fedfcc4577"},"vehicle_type_id":"4","last_reported":1727190565,"current_range_meters":39200,"station_id":"ce4bha12rcd13ifvqee0","pricing_plan_id":"cebpf4jnsgd1na2vs0mg"},{"bike_id":"968010c7-855e-456c-842b-1c5d136130f3","system_id":"levelo_inurba_marseille","lat":43.31324,"lon":5.39712,"is_reserved":false,"is_disabled":false,"rental_uris":{"android":"levelo://app?vid=968010c7-855e-456c-842b-1c5d136130f3","ios":"levelo://app?vid=968010c7-855e-456c-842b-1c5d136130f3"},"vehicle_type_id":"4","last_reported":1727190565,"current_range_meters":38800,"station_id":"ce4bgvp2rcd13ifvqcu0","pricing_plan_id":"cebpf4jnsgd1na2vs0mg"},{"bike_id":"c7362695-d6bc-430f-9248-7ca36392ce83","system_id":"levelo_inurba_marseille","lat":43.29632,"lon":5.40599,"is_reserved":false,"is_disabled":false,"rental_uris":{"android":"levelo://app?vid=c7362695-d6bc-430f-9248-7ca36392ce83","ios":"levelo://app?vid=c7362695-d6bc-430f-9248-7ca36392ce83"},"vehicle_type_id":"4","last_reported":1727190565,"current_range_meters":20800,"station_id":"ce4bh0h2rcd13ifvqd60","pricing_plan_id":"cebpf4jnsgd1na2vs0mg"},{"bike_id":"cc7c26ca-61b1-4cf1-80dc-0356391c2ca2","system_id":"levelo_inurba_marseille","lat":43.28937,"lon":5.39632,"is_reserved":false,"is_disabled":false,"rental_uris":{"android":"levelo://app?vid=cc7c26ca-61b1-4cf1-80dc-0356391c2ca2","ios":"levelo://app?vid=cc7c26ca-61b1-4cf1-80dc-0356391c2ca2"},"vehicle_type_id":"4","last_reported":1727190565,"current_range_meters":36400,"station_id":"ce4bh3h2rcd13ifvqdn0","pricing_plan_id":"cebpf4jnsgd1na2vs0mg"},{"bike_id":"62b10a0a-1fae-4760-aa13-f00befe0fb3c","system_id":"levelo_inurba_marseille","lat":43.27182,"lon":5.40996,"is_reserved":false,"is_disabled":false,"rental_uris":{"android":"levelo://app?vid=62b10a0a-1fae-4760-aa13-f00befe0fb3c","ios":"levelo://app?vid=62b10a0a-1fae-4760-aa13-f00befe0fb3c"},"vehicle_type_id":"4","last_reported":1727190565,"current_range_meters":36800,"station_id":"ce4bhl12rcd13ifvqgf0","pricing_plan_id":"cebpf4jnsgd1na2vs0mg"},{"bike_id":"accbb2ea-7a8d-421b-9348-0eddd2ae2e5f","system_id":"levelo_inurba_marseille","lat":43.29545,"lon":5.3914,"is_reserved":false,"is_disabled":false,"rental_uris":{"android":"levelo://app?vid=accbb2ea-7a8d-421b-9348-0eddd2ae2e5f","ios":"levelo://app?vid=accbb2ea-7a8d-421b-9348-0eddd2ae2e5f"},"vehicle_type_id":"4","last_reported":1727190565,"current_range_meters":12400,"station_id":"ce4bh392rcd13ifvqdl0","pricing_plan_id":"cebpf4jnsgd1na2vs0mg"},{"bike_id":"08661cd8-de9f-4674-bcf7-171ce1fa6341","system_id":"levelo_inurba_marseille","lat":43.26683,"lon":5.38268,"is_reserved":false,"is_disabled":false,"rental_uris":{"android":"levelo://app?vid=08661cd8-de9f-4674-bcf7-171ce1fa6341","ios":"levelo://app?vid=08661cd8-de9f-4674-bcf7-171ce1fa6341"},"vehicle_type_id":"4","last_reported":1727190565,"current_range_meters":22800,"station_id":"ce4bhg92rcd13ifvqf90","pricing_plan_id":"cebpf4jnsgd1na2vs0mg"},{"bike_id":"73035b45-7f59-4bc4-8513-48216d8c9a53","system_id":"levelo_inurba_marseille","lat":43.23153,"lon":5.43711,"is_reserved":false,"is_disabled":false,"rental_uris":{"android":"levelo://app?vid=73035b45-7f59-4bc4-8513-48216d8c9a53","ios":"levelo://app?vid=73035b45-7f59-4bc4-8513-48216d8c9a53"},"vehicle_type_id":"4","last_reported":1727190565,"current_range_meters":22800,"station_id":"ce4bhmp2rcd13ifvqgog","pricing_plan_id":"cebpf4jnsgd1na2vs0mg"},{"bike_id":"95f8ac12-05ad-433a-bab5-6c2ee3d4d27e","system_id":"levelo_inurba_marseille","lat":43.31992,"lon":5.38142,"is_reserved":false,"is_disabled":false,"rental_uris":{"android":"levelo://app?vid=95f8ac12-05ad-433a-bab5-6c2ee3d4d27e","ios":"levelo://app?vid=95f8ac12-05ad-433a-bab5-6c2ee3d4d27e"},"vehicle_type_id":"4","last_reported":1727190565,"current_range_meters":12800,"station_id":"ce4bhr12rcd13ifvqhpg","pricing_plan_id":"cebpf4jnsgd1na2vs0mg"},{"bike_id":"7fba3fb3-6c3c-45fc-96c7-ae3b6e08137d","system_id":"levelo_inurba_marseille","lat":43.33764,"lon":5.37441,"is_reserved":false,"is_disabled":false,"rental_uris":{"android":"levelo://app?vid=7fba3fb3-6c3c-45fc-96c7-ae3b6e08137d","ios":"levelo://app?vid=7fba3fb3-6c3c-45fc-96c7-ae3b6e08137d"},"vehicle_type_id":"4","last_reported":1727190565,"current_range_meters":36000,"station_id":"","pricing_plan_id":"cebpf4jnsgd1na2vs0mg"},{"bike_id":"183a6d8c-7d1a-4f45-bed1-4032657d48ea","system_id":"levelo_inurba_marseille","lat":43.29534,"lon":5.38553,"is_reserved":false,"is_disabled":false,"rental_uris":{"android":"levelo://app?vid=183a6d8c-7d1a-4f45-bed1-4032657d48ea","ios":"levelo://app?vid=183a6d8c-7d1a-4f45-bed1-4032657d48ea"},"vehicle_type_id":"4","last_reported":1727190565,"current_range_meters":35200,"station_id":"ce4bgih2rcd13ifvqba0","pricing_plan_id":"cebpf4jnsgd1na2vs0mg"},{"bike_id":"38dfe2da-3a33-45c0-9e1b-204e2e9ebec1","system_id":"levelo_inurba_marseille","lat":43.27788,"lon":5.42562,"is_reserved":false,"is_disabled":false,"rental_uris":{"android":"levelo://app?vid=38dfe2da-3a33-45c0-9e1b-204e2e9ebec1","ios":"levelo://app?vid=38dfe2da-3a33-45c0-9e1b-204e2e9ebec1"},"vehicle_type_id":"4","last_reported":1727190565,"current_range_meters":35600,"station_id":"","pricing_plan_id":"cebpf4jnsgd1na2vs0mg"},{"bike_id":"03c345f2-681e-43a6-a247-aa5a8b0c29eb","system_id":"levelo_inurba_marseille","lat":43.275452,"lon":5.424214,"is_reserved":false,"is_disabled":false,"rental_uris":{"android":"levelo://app?vid=03c345f2-681e-43a6-a247-aa5a8b0c29eb","ios":"levelo://app?vid=03c345f2-681e-43a6-a247-aa5a8b0c29eb"},"vehicle_type_id":"4","last_reported":1727190565,"current_range_meters":23200,"station_id":"ce4bhn92rcd13ifvqgrg","pricing_plan_id":"cebpf4jnsgd1na2vs0mg"},{"bike_id":"7546e7e1-1913-4307-9a07-90b7b6339236","system_id":"levelo_inurba_marseille","lat":43.25583,"lon":5.38236,"is_reserved":false,"is_disabled":false,"rental_uris":{"android":"levelo://app?vid=7546e7e1-1913-4307-9a07-90b7b6339236","ios":"levelo://app?vid=7546e7e1-1913-4307-9a07-90b7b6339236"},"vehicle_type_id":"4","last_reported":1727190565,"current_range_meters":20800,"station_id":"ce4bhih2rcd13ifvqfs0","pricing_plan_id":"cebpf4jnsgd1na2vs0mg"},{"bike_id":"6a26120e-6c16-4c8f-9f5b-445d3c96e15a","system_id":"levelo_inurba_marseille","lat":43.23186,"lon":5.39989,"is_reserved":false,"is_disabled":false,"rental_uris":{"android":"levelo://app?vid=6a26120e-6c16-4c8f-9f5b-445d3c96e15a","ios":"levelo://app?vid=6a26120e-6c16-4c8f-9f5b-445d3c96e15a"},"vehicle_type_id":"4","last_reported":1727190565,"current_range_meters":6000,"station_id":"ce4bhn12rcd13ifvqgqg","pricing_plan_id":"cebpf4jnsgd1na2vs0mg"},{"bike_id":"18eeec1d-12bf-454f-b5fe-4d2e45690c03","system_id":"levelo_inurba_marseille","lat":43.23959,"lon":5.36646,"is_reserved":false,"is_disabled":false,"rental_uris":{"android":"levelo://app?vid=18eeec1d-12bf-454f-b5fe-4d2e45690c03","ios":"levelo://app?vid=18eeec1d-12bf-454f-b5fe-4d2e45690c03"},"vehicle_type_id":"4","last_reported":1727190565,"current_range_meters":36400,"station_id":"ce4bhi12rcd13ifvqfp0","pricing_plan_id":"cebpf4jnsgd1na2vs0mg"},{"bike_id":"7151f172-5911-43f4-8250-897211aec178","system_id":"levelo_inurba_marseille","lat":43.29032,"lon":5.38653,"is_reserved":false,"is_disabled":false,"rental_uris":{"android":"levelo://app?vid=7151f172-5911-43f4-8250-897211aec178","ios":"levelo://app?vid=7151f172-5911-43f4-8250-897211aec178"},"vehicle_type_id":"4","last_reported":1727190565,"current_range_meters":4800,"station_id":"ce4bh4p2rcd13ifvqe0g","pricing_plan_id":"cebpf4jnsgd1na2vs0mg"},{"bike_id":"b29c1318-bf4a-4eea-b5e7-a171970b396d","system_id":"levelo_inurba_marseille","lat":43.27569,"lon":5.38418,"is_reserved":false,"is_disabled":false,"rental_uris":{"android":"levelo://app?vid=b29c1318-bf4a-4eea-b5e7-a171970b396d","ios":"levelo://app?vid=b29c1318-bf4a-4eea-b5e7-a171970b396d"},"vehicle_type_id":"4","last_reported":1727190565,"current_range_meters":32800,"station_id":"ce4bhh92rcd13ifvqfi0","pricing_plan_id":"cebpf4jnsgd1na2vs0mg"},{"bike_id":"180a3057-ed0d-4109-995d-1018b1905eb5","system_id":"levelo_inurba_marseille","lat":43.330292,"lon":5.39046,"is_reserved":false,"is_disabled":false,"rental_uris":{"android":"levelo://app?vid=180a3057-ed0d-4109-995d-1018b1905eb5","ios":"levelo://app?vid=180a3057-ed0d-4109-995d-1018b1905eb5"},"vehicle_type_id":"4","last_reported":1727190565,"current_range_meters":38800,"station_id":"ce4bhr92rcd13ifvqhrg","pricing_plan_id":"cebpf4jnsgd1na2vs0mg"},{"bike_id":"f808c29f-833c-4be9-94ba-f5bbf2d86de8","system_id":"levelo_inurba_marseille","lat":43.29551,"lon":5.42284,"is_reserved":false,"is_disabled":false,"rental_uris":{"android":"levelo://app?vid=f808c29f-833c-4be9-94ba-f5bbf2d86de8","ios":"levelo://app?vid=f808c29f-833c-4be9-94ba-f5bbf2d86de8"},"vehicle_type_id":"4","last_reported":1727190565,"current_range_meters":39200,"station_id":"ce4bhph2rcd13ifvqhdg","pricing_plan_id":"cebpf4jnsgd1na2vs0mg"},{"bike_id":"b6ed5244-0283-4ff6-97f1-a8c93a669788","system_id":"levelo_inurba_marseille","lat":43.31358,"lon":5.38483,"is_reserved":false,"is_disabled":false,"rental_uris":{"android":"levelo://app?vid=b6ed5244-0283-4ff6-97f1-a8c93a669788","ios":"levelo://app?vid=b6ed5244-0283-4ff6-97f1-a8c93a669788"},"vehicle_type_id":"4","last_reported":1727190565,"current_range_meters":27600,"station_id":"ce4bgt92rcd13ifvqcf0","pricing_plan_id":"cebpf4jnsgd1na2vs0mg"},{"bike_id":"416bcf96-fe4b-4a91-82c4-691302474a86","system_id":"levelo_inurba_marseille","lat":43.25868,"lon":5.39898,"is_reserved":false,"is_disabled":false,"rental_uris":{"android":"levelo://app?vid=416bcf96-fe4b-4a91-82c4-691302474a86","ios":"levelo://app?vid=416bcf96-fe4b-4a91-82c4-691302474a86"},"vehicle_type_id":"4","last_reported":1727190565,"current_range_meters":16800,"station_id":"ce4bhl92rcd13ifvqghg","pricing_plan_id":"cebpf4jnsgd1na2vs0mg"},{"bike_id":"406e558f-42fd-4390-8183-ab71fb04d7bd","system_id":"levelo_inurba_marseille","lat":43.29414,"lon":5.38626,"is_reserved":false,"is_disabled":false,"rental_uris":{"android":"levelo://app?vid=406e558f-42fd-4390-8183-ab71fb04d7bd","ios":"levelo://app?vid=406e558f-42fd-4390-8183-ab71fb04d7bd"},"vehicle_type_id":"4","last_reported":1727190565,"current_range_meters":11600,"station_id":"ce4bh2h2rcd13ifvqdh0","pricing_plan_id":"cebpf4jnsgd1na2vs0mg"},{"bike_id":"b943b039-02ce-42cf-9ef8-0ea4904d8691","system_id":"levelo_inurba_marseille","lat":43.24181,"lon":5.39728,"is_reserved":false,"is_disabled":false,"rental_uris":{"android":"levelo://app?vid=b943b039-02ce-42cf-9ef8-0ea4904d8691","ios":"levelo://app?vid=b943b039-02ce-42cf-9ef8-0ea4904d8691"},"vehicle_type_id":"4","last_reported":1727190565,"current_range_meters":12400,"station_id":"ce4bhn12rcd13ifvqgpg","pricing_plan_id":"cebpf4jnsgd1na2vs0mg"},{"bike_id":"330b6f4f-4412-408d-9be7-966104338698","system_id":"levelo_inurba_marseille","lat":43.31492,"lon":5.37311,"is_reserved":false,"is_disabled":false,"rental_uris":{"android":"levelo://app?vid=330b6f4f-4412-408d-9be7-966104338698","ios":"levelo://app?vid=330b6f4f-4412-408d-9be7-966104338698"},"vehicle_type_id":"4","last_reported":1727190565,"current_range_meters":32800,"station_id":"ce4bgt12rcd13ifvqcd0","pricing_plan_id":"cebpf4jnsgd1na2vs0mg"},{"bike_id":"e38b7b62-5542-4a43-909f-6ae8056f3a2a","system_id":"levelo_inurba_marseille","lat":43.28153,"lon":5.42647,"is_reserved":false,"is_disabled":false,"rental_uris":{"android":"levelo://app?vid=e38b7b62-5542-4a43-909f-6ae8056f3a2a","ios":"levelo://app?vid=e38b7b62-5542-4a43-909f-6ae8056f3a2a"},"vehicle_type_id":"4","last_reported":1727190565,"current_range_meters":35200,"station_id":"ce4bhnh2rcd13ifvqgug","pricing_plan_id":"cebpf4jnsgd1na2vs0mg"},{"bike_id":"c7badd9b-72ee-4b1a-8335-15e57c0eed2e","system_id":"levelo_inurba_marseille","lat":43.30538,"lon":5.36704,"is_reserved":false,"is_disabled":false,"rental_uris":{"android":"levelo://app?vid=c7badd9b-72ee-4b1a-8335-15e57c0eed2e","ios":"levelo://app?vid=c7badd9b-72ee-4b1a-8335-15e57c0eed2e"},"vehicle_type_id":"4","last_reported":1727190565,"current_range_meters":38800,"station_id":"ce4bgrp2rcd13ifvqc9g","pricing_plan_id":"cebpf4jnsgd1na2vs0mg"},{"bike_id":"b9f8c158-b5f3-41cf-b34e-5cd4ee9d78d9","system_id":"levelo_inurba_marseille","lat":43.26809,"lon":5.40263,"is_reserved":false,"is_disabled":false,"rental_uris":{"android":"levelo://app?vid=b9f8c158-b5f3-41cf-b34e-5cd4ee9d78d9","ios":"levelo://app?vid=b9f8c158-b5f3-41cf-b34e-5cd4ee9d78d9"},"vehicle_type_id":"4","last_reported":1727190565,"current_range_meters":8800,"station_id":"ce501612rcd8frsf0b60","pricing_plan_id":"cebpf4jnsgd1na2vs0mg"},{"bike_id":"3cf80b5c-240b-4d5d-b2ac-a164ab305fde","system_id":"levelo_inurba_marseille","lat":43.26217,"lon":5.3744,"is_reserved":false,"is_disabled":false,"rental_uris":{"android":"levelo://app?vid=3cf80b5c-240b-4d5d-b2ac-a164ab305fde","ios":"levelo://app?vid=3cf80b5c-240b-4d5d-b2ac-a164ab305fde"},"vehicle_type_id":"4","last_reported":1727190565,"current_range_meters":38800,"station_id":"ce4bhgp2rcd13ifvqfc0","pricing_plan_id":"cebpf4jnsgd1na2vs0mg"},{"bike_id":"1f50bf59-d917-41fd-834b-3e1430b2c9ad","system_id":"levelo_inurba_marseille","lat":43.28155,"lon":5.42637,"is_reserved":false,"is_disabled":false,"rental_uris":{"android":"levelo://app?vid=1f50bf59-d917-41fd-834b-3e1430b2c9ad","ios":"levelo://app?vid=1f50bf59-d917-41fd-834b-3e1430b2c9ad"},"vehicle_type_id":"4","last_reported":1727190565,"current_range_meters":11600,"station_id":"ce4bhnh2rcd13ifvqgug","pricing_plan_id":"cebpf4jnsgd1na2vs0mg"},{"bike_id":"bc029bae-9b22-4f50-b298-88d24fa620ca","system_id":"levelo_inurba_marseille","lat":43.29555,"lon":5.42279,"is_reserved":false,"is_disabled":false,"rental_uris":{"android":"levelo://app?vid=bc029bae-9b22-4f50-b298-88d24fa620ca","ios":"levelo://app?vid=bc029bae-9b22-4f50-b298-88d24fa620ca"},"vehicle_type_id":"4","last_reported":1727190565,"current_range_meters":38800,"station_id":"ce4bhph2rcd13ifvqhdg","pricing_plan_id":"cebpf4jnsgd1na2vs0mg"},{"bike_id":"b3b30021-e3c4-422e-ba26-30dbc7552ae3","system_id":"levelo_inurba_marseille","lat":43.29027,"lon":5.3865,"is_reserved":false,"is_disabled":false,"rental_uris":{"android":"levelo://app?vid=b3b30021-e3c4-422e-ba26-30dbc7552ae3","ios":"levelo://app?vid=b3b30021-e3c4-422e-ba26-30dbc7552ae3"},"vehicle_type_id":"4","last_reported":1727190565,"current_range_meters":37600,"station_id":"ce4bh4p2rcd13ifvqe0g","pricing_plan_id":"cebpf4jnsgd1na2vs0mg"},{"bike_id":"9945e023-ca5f-4dc7-b2c2-5a9d895aec4f","system_id":"levelo_inurba_marseille","lat":43.2942,"lon":5.38618,"is_reserved":false,"is_disabled":false,"rental_uris":{"android":"levelo://app?vid=9945e023-ca5f-4dc7-b2c2-5a9d895aec4f","ios":"levelo://app?vid=9945e023-ca5f-4dc7-b2c2-5a9d895aec4f"},"vehicle_type_id":"4","last_reported":1727190565,"current_range_meters":4800,"station_id":"ce4bh2h2rcd13ifvqdh0","pricing_plan_id":"cebpf4jnsgd1na2vs0mg"},{"bike_id":"994fcb60-90b6-447a-8ea8-4e31900839c8","system_id":"levelo_inurba_marseille","lat":43.26547,"lon":5.38998,"is_reserved":false,"is_disabled":false,"rental_uris":{"android":"levelo://app?vid=994fcb60-90b6-447a-8ea8-4e31900839c8","ios":"levelo://app?vid=994fcb60-90b6-447a-8ea8-4e31900839c8"},"vehicle_type_id":"4","last_reported":1727190565,"current_range_meters":38800,"station_id":"","pricing_plan_id":"cebpf4jnsgd1na2vs0mg"},{"bike_id":"7bc351dd-0506-4a03-b6d8-5f6af8f929b8","system_id":"levelo_inurba_marseille","lat":43.23179,"lon":5.39988,"is_reserved":false,"is_disabled":false,"rental_uris":{"android":"levelo://app?vid=7bc351dd-0506-4a03-b6d8-5f6af8f929b8","ios":"levelo://app?vid=7bc351dd-0506-4a03-b6d8-5f6af8f929b8"},"vehicle_type_id":"4","last_reported":1727190565,"current_range_meters":19600,"station_id":"ce4bhn12rcd13ifvqgqg","pricing_plan_id":"cebpf4jnsgd1na2vs0mg"},