{"last_updated":1730787217,"ttl":60,"version":"2.2","data":{"bikes":[{"bike_id":"b9ec57ae-8189-4fa9-a859-429fb89b29e6","system_id":"levelo_inurba_marseille","lat":43.320423,"lon":5.415691,"is_reserved":false,"is_disabled":false,"rental_uris":{"android":"levelo://app?vid=b9ec57ae-8189-4fa9-a859-429fb89b29e6","ios":"levelo://app?vid=b9ec57ae-8189-4fa9-a859-429fb89b29e6"},"vehicle_type_id":"4","last_reported":1730787217,"current_range_meters":29600,"station_id":"ce4bhq92rcd13ifvqhkg","pricing_plan_id":"cebpf4jnsgd1na2vs0mg"},{"bike_id":"c4ca81f1-0770-4982-88af-728d13e28981","system_id":"levelo_inurba_marseille","lat":43.26202,"lon":5.37437,"is_reserved":false,"is_disabled":false,"rental_uris":{"android":"levelo://app?vid=c4ca81f1-0770-4982-88af-728d13e28981","ios":"levelo://app?vid=c4ca81f1-0770-4982-88af-728d13e28981"},"vehicle_type_id":"4","last_reported":1730787217,"current_range_meters":38000,"station_id":"ce4bhgp2rcd13ifvqfc0","pricing_plan_id":"cebpf4jnsgd1na2vs0mg"},{"bike_id":"0371acda-a2cf-455b-8ec8-056cee40fd62","system_id":"levelo_inurba_marseille","lat":43.29276,"lon":5.40126,"is_reserved":false,"is_disabled":false,"rental_uris":{"android":"levelo://app?vid=0371acda-a2cf-455b-8ec8-056cee40fd62","ios":"levelo://app?vid=0371acda-a2cf-455b-8ec8-056cee40fd62"},"vehicle_type_id":"4","last_reported":1730787217,"current_range_meters":18800,"station_id":"ce4bh312rcd13ifvqdk0","pricing_plan_id":"cebpf4jnsgd1na2vs0mg"},{"bike_id":"b7837f34-17a9-43ad-b99a-4bf61e4fa6db","system_id":"levelo_inurba_marseille","lat":43.3025,"lon":5.40062,"is_reserved":false,"is_disabled":false,"rental_uris":{"android":"levelo://app?vid=b7837f34-17a9-43ad-b99a-4bf61e4fa6db","ios":"levelo://app?vid=b7837f34-17a9-43ad-b99a-4bf61e4fa6db"},"vehicle_type_id":"4","last_reported":1730787217,"current_range_meters":36000,"station_id":"ce4bgvh2rcd13ifvqcs0","pricing_plan_id":"cebpf4jnsgd1na2vs0mg"},{"bike_id":"bcac3ad2-33ea-454e-b32a-bb7e115d1f16","system_id":"levelo_inurba_marseille","lat":43.28085,"lon":5.39658,"is_reserved":false,"is_disabled":false,"rental_uris":{"android":"levelo://app?vid=bcac3ad2-33ea-454e-b32a-bb7e115d1f16","ios":"levelo://app?vid=bcac3ad2-33ea-454e-b32a-bb7e115d1f16"},"vehicle_type_id":"4","last_reported":1730787217,"current_range_meters":34800,"station_id":"ce4bho12rcd13ifvqh2g","pricing_plan_id":"cebpf4jnsgd1na2vs0mg"},{"bike_id":"c24fb9a5-b454-4ee1-a0d9-7727e66a5e9b","system_id":"levelo_inurba_marseille","lat":43.29088,"lon":5.38143,"is_reserved":false,"is_disabled":false,"rental_uris":{"android":"levelo://app?vid=c24fb9a5-b454-4ee1-a0d9-7727e66a5e9b","ios":"levelo://app?vid=c24fb9a5-b454-4ee1-a0d9-7727e66a5e9b"},"vehicle_type_id":"4","last_reported":1730787217,"current_range_meters":36000,"station_id":"ce4bh512rcd13ifvqe2g","pricing_plan_id":"cebpf4jnsgd1na2vs0mg"},{"bike_id":"2b6c8443-1848-4bd1-a5f7-cb79fbd151e5","system_id":"levelo_inurba_marseille","lat":43.28459,"lon":5.3589,"is_reserved":false,"is_disabled":false,"rental_uris":{"android":"levelo://app?vid=2b6c8443-1848-4bd1-a5f7-cb79fbd151e5","ios":"levelo://app?vid=2b6c8443-1848-4bd1-a5f7-cb79fbd151e5"},"vehicle_type_id":"4","last_reported":1730787217,"current_range_meters":30800,"station_id":"ce4bhah2rcd13ifvqei0","pricing_plan_id":"cebpf4jnsgd1na2vs0mg"},{"bike_id":"c2c47899-fecc-420d-bef3-d287868dae47","system_id":"levelo_inurba_marseille","lat":43.245742,"lon":5.395358,"is_reserved":false,"is_disabled":false,"rental_uris":{"android":"levelo://app?vid=c2c47899-fecc-420d-bef3-d287868dae47","ios":"levelo://app?vid=c2c47899-fecc-420d-bef3-d287868dae47"},"vehicle_type_id":"4","last_reported":1730787217,"current_range_meters":26800,"station_id":"ce4bhlp2rcd13ifvqgjg","pricing_plan_id":"cebpf4jnsgd1na2vs0mg"},{"bike_id":"0813b8d9-95b0-4ee8-8c30-0a2f8f5acae7","system_id":"levelo_inurba_marseille","lat":43.286779,"lon":5.363487,"is_reserved":false,"is_disabled":false,"rental_uris":{"android":"levelo://app?vid=0813b8d9-95b0-4ee8-8c30-0a2f8f5acae7","ios":"levelo://app?vid=0813b8d9-95b0-4ee8-8c30-0a2f8f5acae7"},"vehicle_type_id":"4","last_reported":1730787217,"current_range_meters":38800,"station_id":"ce4bhah2rcd13ifvqej0","pricing_plan_id":"cebpf4jnsgd1na2vs0mg"},{"bike_id":"e52c644d-5fb8-4e3f-815c-be0685689da8","system_id":"levelo_inurba_marseille","lat":43.30144,"lon":5.38071,"is_reserved":false,"is_disabled":false,"rental_uris":{"android":"levelo://app?vid=e52c644d-5fb8-4e3f-815c-be0685689da8","ios":"levelo://app?vid=e52c644d-5fb8-4e3f-815c-be0685689da8"},"vehicle_type_id":"4","last_reported":1730787217,"current_range_meters":37600,"station_id":"ce4bgjp2rcd13ifvqbh0","pricing_plan_id":"cebpf4jnsgd1na2vs0mg"},{"bike_id":"e69268df-bf99-404c-a39a-ee9f2a3ecdf5","system_id":"levelo_inurba_marseille","lat":43.30645,"lon":5.400756,"is_reserved":false,"is_disabled":false,"rental_uris":{"android":"levelo://app?vid=e69268df-bf99-404c-a39a-ee9f2a3ecdf5","ios":"levelo://app?vid=e69268df-bf99-404c-a39a-ee9f2a3ecdf5"},"vehicle_type_id":"4","last_reported":1730787217,"current_range_meters":5600,"station_id":"ce4bh112rcd13ifvqda0","pricing_plan_id":"cebpf4jnsgd1na2vs0mg"},{"bike_id":"bdada6f8-affd-453d-a33d-05004a8e626b","system_id":"levelo_inurba_marseille","lat":43.31265,"lon":5.40175,"is_reserved":false,"is_disabled":false,"rental_uris":{"android":"levelo://app?vid=bdada6f8-affd-453d-a33d-05004a8e626b","ios":"levelo://app?vid=bdada6f8-affd-453d-a33d-05004a8e626b"},"vehicle_type_id":"4","last_reported":1730787217,"current_range_meters":38800,"station_id":"ce4bh092rcd13ifvqd30","pricing_plan_id":"cebpf4jnsgd1na2vs0mg"},{"bike_id":"7d640c47-a4ae-4641-8ed6-4165bb1caeb6","system_id":"levelo_inurba_marseille","lat":43.26486,"lon":5.3955,"is_reserved":false,"is_disabled":false,"rental_uris":{"android":"levelo://app?vid=7d640c47-a4ae-4641-8ed6-4165bb1caeb6","ios":"levelo://app?vid=7d640c47-a4ae-4641-8ed6-4165bb1caeb6"},"vehicle_type_id":"4","last_reported":1730787217,"current_range_meters":36800,"station_id":"ce4bhi12rcd13ifvqfq0","pricing_plan_id":"cebpf4jnsgd1na2vs0mg"},{"bike_id":"bef6e360-e6a9-4673-8e18-0a89fd02a098","system_id":"levelo_inurba_marseille","lat":43.30097,"lon":5.3909,"is_reserved":false,"is_disabled":false,"rental_uris":{"android":"levelo://app?vid=bef6e360-e6a9-4673-8e18-0a89fd02a098","ios":"levelo://app?vid=bef6e360-e6a9-4673-8e18-0a89fd02a098"},"vehicle_type_id":"4","last_reported":1730787217,"current_range_meters":15200,"station_id":"ce4bh192rcd13ifvqdb0","pricing_plan_id":"cebpf4jnsgd1na2vs0mg"},{"bike_id":"944a3ee4-32b7-4613-bb82-96e96f54f71c","system_id":"levelo_inurba_marseille","lat":43.28453,"lon":5.35884,"is_reserved":false,"is_disabled":false,"rental_uris":{"android":"levelo://app?vid=944a3ee4-32b7-4613-bb82-96e96f54f71c","ios":"levelo://app?vid=944a3ee4-32b7-4613-bb82-96e96f54f71c"},"vehicle_type_id":"4","last_reported":1730787217,"current_range_meters":33200,"station_id":"ce4bhah2rcd13ifvqei0","pricing_plan_id":"cebpf4jnsgd1na2vs0mg"},{"bike_id":"5561e224-f3f3-463a-be58-95b0ea9d50c8","system_id":"levelo_inurba_marseille","lat":43.27041,"lon":5.40269,"is_reserved":false,"is_disabled":false,"rental_uris":{"android":"levelo://app?vid=5561e224-f3f3-463a-be58-95b0ea9d50c8","ios":"levelo://app?vid=5561e224-f3f3-463a-be58-95b0ea9d50c8"},"vehicle_type_id":"4","last_reported":1730787217,"current_range_meters":10000,"station_id":"ce4bhk92rcd13ifvqgc0","pricing_plan_id":"cebpf4jnsgd1na2vs0mg"},{"bike_id":"99b1c731-d11f-47af-b837-9b3a4c13e227","system_id":"levelo_inurba_marseille","lat":43.273798,"lon":5.362627,"is_reserved":false,"is_disabled":false,"rental_uris":{"android":"levelo://app?vid=99b1c731-d11f-47af-b837-9b3a4c13e227","ios":"levelo://app?vid=99b1c731-d11f-47af-b837-9b3a4c13e227"},"vehicle_type_id":"4","last_reported":1730787217,"current_range_meters":38000,"station_id":"ce4bhbh2rcd13ifvqeo0","pricing_plan_id":"cebpf4jnsgd1na2vs0mg"},{"bike_id":"590de1cb-eae9-4a79-b020-0e8321b145ef","system_id":"levelo_inurba_marseille","lat":43.231946,"lon":5.355507,"is_reserved":false,"is_disabled":false,"rental_uris":{"android":"levelo://app?vid=590de1cb-eae9-4a79-b020-0e8321b145ef","ios":"levelo://app?vid=590de1cb-eae9-4a79-b020-0e8321b145ef"},"vehicle_type_id":"4","last_reported":1730787217,"current_range_meters":22000,"station_id":"ce4bhu92rcd13ifvqi70","pricing_plan_id":"cebpf4jnsgd1na2vs0mg"},{"bike_id":"4147bbfb-4b14-4aca-b782-8ec6c0473609","system_id":"levelo_inurba_marseille","lat":43.23594,"lon":5.40346,"is_reserved":false,"is_disabled":false,"rental_uris":{"android":"levelo://app?vid=4147bbfb-4b14-4aca-b782-8ec6c0473609","ios":"levelo://app?vid=4147bbfb-4b14-4aca-b782-8ec6c0473609"},"vehicle_type_id":"4","last_reported":1730787217,"current_range_meters":9200,"station_id":"","pricing_plan_id":"cebpf4jnsgd1na2vs0mg"},{"bike_id":"8113a11d-faa1-4a73-a7b9-57f2c7a19838","system_id":"levelo_inurba_marseille","lat":43.3234,"lon":5.40622,"is_reserved":false,"is_disabled":false,"rental_uris":{"android":"levelo://app?vid=8113a11d-faa1-4a73-a7b9-57f2c7a19838","ios":"levelo://app?vid=8113a11d-faa1-4a73-a7b9-57f2c7a19838"},"vehicle_type_id":"4","last_reported":1730787217,"current_range_meters":16400,"station_id":"ce4bhq92rcd13ifvqhjg","pricing_plan_id":"cebpf4jnsgd1na2vs0mg"},{"bike_id":"fa66adb8-19da-4b56-aeb9-ccf1206b3e1e","system_id":"levelo_inurba_marseille","lat":43.32365,"lon":5.36757,"is_reserved":false,"is_disabled":false,"rental_uris":{"android":"levelo://app?vid=fa66adb8-19da-4b56-aeb9-ccf1206b3e1e","ios":"levelo://app?vid=fa66adb8-19da-4b56-aeb9-ccf1206b3e1e"},"vehicle_type_id":"4","last_reported":1730787217,"current_range_meters":36000,"station_id":"ce4bhsh2rcd13ifvqi2g","pricing_plan_id":"cebpf4jnsgd1na2vs0mg"},{"bike_id":"146b94cf-b81c-43a8-a126-d1471621d458","system_id":"levelo_inurba_marseille","lat":43.27995,"lon":5.40023,"is_reserved":false,"is_disabled":false,"rental_uris":{"android":"levelo://app?vid=146b94cf-b81c-43a8-a126-d1471621d458","ios":"levelo://app?vid=146b94cf-b81c-43a8-a126-d1471621d458"},"vehicle_type_id":"4","last_reported":1730787217,"current_range_meters":27600,"station_id":"ce4bho92rcd13ifvqh4g","pricing_plan_id":"cebpf4jnsgd1na2vs0mg"},{"bike_id":"64a2b89f-49f7-40b2-a980-02000405203c","system_id":"levelo_inurba_marseille","lat":43.288469,"lon":5.393082,"is_reserved":false,"is_disabled":false,"rental_uris":{"android":"levelo://app?vid=64a2b89f-49f7-40b2-a980-02000405203c","ios":"levelo://app?vid=64a2b89f-49f7-40b2-a980-02000405203c"},"vehicle_type_id":"4","last_reported":1730787217,"current_range_meters":19600,"station_id":"ce4bh2p2rcd13ifvqdi0","pricing_plan_id":"cebpf4jnsgd1na2vs0mg"},{"bike_id":"9dd4c1b5-f2ec-496b-8f02-a2c3d2c60a9c","system_id":"levelo_inurba_marseille","lat":43.24765,"lon":5.41832,"is_reserved":false,"is_disabled":false,"rental_uris":{"android":"levelo://app?vid=9dd4c1b5-f2ec-496b-8f02-a2c3d2c60a9c","ios":"levelo://app?vid=9dd4c1b5-f2ec-496b-8f02-a2c3d2c60a9c"},"vehicle_type_id":"4","last_reported":1730787217,"current_range_meters":28800,"station_id":"ce4bhkp2rcd13ifvqgd0","pricing_plan_id":"cebpf4jnsgd1na2vs0mg"},{"bike_id":"526eedd4-db5c-4687-9de3-3c089eba7751","system_id":"levelo_inurba_marseille","lat":43.231844,"lon":5.39993,"is_reserved":false,"is_disabled":false,"rental_uris":{"android":"levelo://app?vid=526eedd4-db5c-4687-9de3-3c089eba7751","ios":"levelo://app?vid=526eedd4-db5c-4687-9de3-3c089eba7751"},"vehicle_type_id":"4","last_reported":1730787217,"current_range_meters":8400,"station_id":"ce4bhn12rcd13ifvqgqg","pricing_plan_id":"cebpf4jnsgd1na2vs0mg"},{"bike_id":"47662166-db17-4d16-a97b-519c42566d41","system_id":"levelo_inurba_marseille","lat":43.27815,"lon":5.40718,"is_reserved":false,"is_disabled":false,"rental_uris":{"android":"levelo://app?vid=47662166-db17-4d16-a97b-519c42566d41","ios":"levelo://app?vid=47662166-db17-4d16-a97b-519c42566d41"},"vehicle_type_id":"4","last_reported":1730787217,"current_range_meters":4800,"station_id":"ce4bhnh2rcd13ifvqgtg","pricing_plan_id":"cebpf4jnsgd1na2vs0mg"},{"bike_id":"2afa43fc-2ebd-43bb-b650-01b2aada10d0","system_id":"levelo_inurba_marseille","lat":43.2978,"lon":5.39352,"is_reserved":false,"is_disabled":false,"rental_uris":{"android":"levelo://app?vid=2afa43fc-2ebd-43bb-b650-01b2aada10d0","ios":"levelo://app?vid=2afa43fc-2ebd-43bb-b650-01b2aada10d0"},"vehicle_type_id":"4","last_reported":1730787217,"current_range_meters":38800,"station_id":"chh1huq6cuj3fo74tm60","pricing_plan_id":"cebpf4jnsgd1na2vs0mg"},{"bike_id":"525c40cf-ce5d-40cc-a112-46953ad38731","system_id":"levelo_inurba_marseille","lat":43.31169,"lon":5.38709,"is_reserved":false,"is_disabled":false,"rental_uris":{"android":"levelo://app?vid=525c40cf-ce5d-40cc-a112-46953ad38731","ios":"levelo://app?vid=525c40cf-ce5d-40cc-a112-46953ad38731"},"vehicle_type_id":"4","last_reported":1730787217,"current_range_meters":38800,"station_id":"ce4bgv12rcd13ifvqcp0","pricing_plan_id":"cebpf4jnsgd1na2vs0mg"},{"bike_id":"ef762b0a-886e-4da9-adfe-1739a57163ed","system_id":"levelo_inurba_marseille","lat":43.3234,"lon":5.40626,"is_reserved":false,"is_disabled":false,"rental_uris":{"android":"levelo://app?vid=ef762b0a-886e-4da9-adfe-1739a57163ed","ios":"levelo://app?vid=ef762b0a-886e-4da9-adfe-1739a57163ed"},"vehicle_type_id":"4","last_reported":1730787217,"current_range_meters":9600,"station_id":"ce4bhq92rcd13ifvqhjg","pricing_plan_id":"cebpf4jnsgd1na2vs0mg"},{"bike_id":"35d46972-faca-4525-a2d2-3f928f24f16c","system_id":"levelo_inurba_marseille","lat":43.24167,"lon":5.36402,"is_reserved":false,"is_disabled":false,"rental_uris":{"android":"levelo://app?vid=35d46972-faca-4525-a2d2-3f928f24f16c","ios":"levelo://app?vid=35d46972-faca-4525-a2d2-3f928f24f16c"},"vehicle_type_id":"4","last_reported":1730787217,"current_range_meters":38000,"station_id":"cpo36qri1sfpv3e86is0","pricing_plan_id":"cebpf4jnsgd1na2vs0mg"},{"bike_id":"0b2f1818-8c81-46d3-afcb-c2b819b5b5e8","system_id":"levelo_inurba_marseille","lat":43.28493,"lon":5.38559,"is_reserved":false,"is_disabled":false,"rental_uris":{"android":"levelo://app?vid=0b2f1818-8c81-46d3-afcb-c2b819b5b5e8","ios":"levelo://app?vid=0b2f1818-8c81-46d3-afcb-c2b819b5b5e8"},"vehicle_type_id":"4","last_reported":1730787217,"current_range_meters":11600,"station_id":"ce4bh8p2rcd13ifvqeb0","pricing_plan_id":"cebpf4jnsgd1na2vs0mg"},{"bike_id":"d302d503-3c8c-4b61-8ae5-e5ff26031190","system_id":"levelo_inurba_marseille","lat":43.30535,"lon":5.38425,"is_reserved":false,"is_disabled":false,"rental_uris":{"android":"levelo://app?vid=d302d503-3c8c-4b61-8ae5-e5ff26031190","ios":"levelo://app?vid=d302d503-3c8c-4b61-8ae5-e5ff26031190"},"vehicle_type_id":"4","last_reported":1730787217,"current_range_meters":38400,"station_id":"ce4bgg92rcd13ifvqb30","pricing_plan_id":"cebpf4jnsgd1na2vs0mg"},{"bike_id":"f7b02530-438b-4535-927c-07793d571ea5","system_id":"levelo_inurba_marseille","lat":43.29634,"lon":5.40597,"is_reserved":false,"is_disabled":false,"rental_uris":{"android":"levelo://app?vid=f7b02530-438b-4535-927c-07793d571ea5","ios":"levelo://app?vid=f7b02530-438b-4535-927c-07793d571ea5"},"vehicle_type_id":"4","last_reported":1730787217,"current_range_meters":38800,"station_id":"ce4bh0h2rcd13ifvqd60","pricing_plan_id":"cebpf4jnsgd1na2vs0mg"},{"bike_id":"2378f453-72a7-4eb2-ab3b-946285d406fd","system_id":"levelo_inurba_marseille","lat":43.29225,"lon":5.37724,"is_reserved":false,"is_disabled":false,"rental_uris":{"android":"levelo://app?vid=2378f453-72a7-4eb2-ab3b-946285d406fd","ios":"levelo://app?vid=2378f453-72a7-4eb2-ab3b-946285d406fd"},"vehicle_type_id":"4","last_reported":1730787217,"current_range_meters":4400,"station_id":"","pricing_plan_id":"cebpf4jnsgd1na2vs0mg"},{"bike_id":"08b19d39-d3b4-4cd0-9eef-4ded5d64f233","system_id":"levelo_inurba_marseille","lat":43.279188,"lon":5.39585,"is_reserved":false,"is_disabled":false,"rental_uris":{"android":"levelo://app?vid=08b19d39-d3b4-4cd0-9eef-4ded5d64f233","ios":"levelo://app?vid=08b19d39-d3b4-4cd0-9eef-4ded5d64f233"},"vehicle_type_id":"4","last_reported":1730787217,"current_range_meters":37600,"station_id":"ce4bhf92rcd13ifvqf40","pricing_plan_id":"cebpf4jnsgd1na2vs0mg"},{"bike_id":"1cc4bc1a-6bfd-49b0-b35c-617bf4cfb31e","system_id":"levelo_inurba_marseille","lat":43.3205,"lon":5.41547,"is_reserved":false,"is_disabled":false,"rental_uris":{"android":"levelo://app?vid=1cc4bc1a-6bfd-49b0-b35c-617bf4cfb31e","ios":"levelo://app?vid=1cc4bc1a-6bfd-49b0-b35c-617bf4cfb31e"},"vehicle_type_id":"4","last_reported":1730787217,"current_range_meters":38800,"station_id":"ce4bhq92rcd13ifvqhkg","pricing_plan_id":"cebpf4jnsgd1na2vs0mg"},{"bike_id":"5622b9b9-6fcf-45c3-b4a5-a8f71f65eca1","system_id":"levelo_inurba_marseille","lat":43.28922,"lon":5.39627,"is_reserved":false,"is_disabled":false,"rental_uris":{"android":"levelo://app?vid=5622b9b9-6fcf-45c3-b4a5-a8f71f65eca1","ios":"levelo://app?vid=5622b9b9-6fcf-45c3-b4a5-a8f71f65eca1"},"vehicle_type_id":"4","last_reported":1730787217,"current_range_meters":24400,"station_id":"ce4bh3h2rcd13ifvqdn0","pricing_plan_id":"cebpf4jnsgd1na2vs0mg"},{"bike_id":"bc2b219d-e065-4de1-8fdd-dffe50ebac62","system_id":"levelo_inurba_marseille","lat":43.31172,"lon":5.38707,"is_reserved":false,"is_disabled":false,"rental_uris":{"android":"levelo://app?vid=bc2b219d-e065-4de1-8fdd-dffe50ebac62","ios":"levelo://app?vid=bc2b219d-e065-4de1-8fdd-dffe50ebac62"},"vehicle_type_id":"4","last_reported":1730787217,"current_range_meters":25200,"station_id":"ce4bgv12rcd13ifvqcp0","pricing_plan_id":"cebpf4jnsgd1na2vs0mg"},{"bike_id":"bdbf7863-30af-4a7a-accb-c5dc85031aca","system_id":"levelo_inurba_marseille","lat":43.29273,"lon":5.40125,"is_reserved":false,"is_disabled":false,"rental_uris":{"android":"levelo://app?vid=bdbf7863-30af-4a7a-accb-c5dc85031aca","ios":"levelo://app?vid=bdbf7863-30af-4a7a-accb-c5dc85031aca"},"vehicle_type_id":"4","last_reported":1730787217,"current_range_meters":38800,"station_id":"ce4bh312rcd13ifvqdk0","pricing_plan_id":"cebpf4jnsgd1na2vs0mg"},{"bike_id":"9ed2c8a0-ee79-4741-a6f1-4f693a4492ae","system_id":"levelo_inurba_marseille","lat":43.29345,"lon":5.38345,"is_reserved":false,"is_disabled":false,"rental_uris":{"android":"levelo://app?vid=9ed2c8a0-ee79-4741-a6f1-4f693a4492ae","ios":"levelo://app?vid=9ed2c8a0-ee79-4741-a6f1-4f693a4492ae"},"vehicle_type_id":"4","last_reported":1730787217,"current_range_meters":38800,"station_id":"","pricing_plan_id":"cebpf4jnsgd1na2vs0mg"},{"bike_id":"cd48e9b9-163a-44d1-abf1-b2e658a32f2f","system_id":"levelo_inurba_marseille","lat":43.30135,"lon":5.38788,"is_reserved":false,"is_disabled":false,"rental_uris":{"android":"levelo://app?vid=cd48e9b9-163a-44d1-abf1-b2e658a32f2f","ios":"levelo://app?vid=cd48e9b9-163a-44d1-abf1-b2e658a32f2f"},"vehicle_type_id":"4","last_reported":1730787217,"current_range_meters":32800,"station_id":"ce4bghh2rcd13ifvqb60","pricing_plan_id":"cebpf4jnsgd1na2vs0mg"},{"bike_id":"1dcc4078-31e5-4cab-8516-eb6896bc0e11","system_id":"levelo_inurba_marseille","lat":43.30874,"lon":5.37186,"is_reserved":false,"is_disabled":false,"rental_uris":{"android":"levelo://app?vid=1dcc4078-31e5-4cab-8516-eb6896bc0e11","ios":"levelo://app?vid=1dcc4078-31e5-4cab-8516-eb6896bc0e11"},"vehicle_type_id":"4","last_reported":1730787217,"current_range_meters":38800,"station_id":"ce4bguh2rcd13ifvqckg","pricing_plan_id":"cebpf4jnsgd1na2vs0mg"},{"bike_id":"450d28c8-7262-44a8-99d6-ad435143d341","system_id":"levelo_inurba_marseille","lat":43.283545,"lon":5.381075,"is_reserved":false,"is_disabled":false,"rental_uris":{"android":"levelo://app?vid=450d28c8-7262-44a8-99d6-ad435143d341","ios":"levelo://app?vid=450d28c8-7262-44a8-99d6-ad435143d341"},"vehicle_type_id":"4","last_reported":1730787217,"current_range_meters":24000,"station_id":"ce4bh412rcd13ifvqdr0","pricing_plan_id":"cebpf4jnsgd1na2vs0mg"},{"bike_id":"fc2c3f9b-061b-4b88-8d47-8a6d27bb94ba","system_id":"levelo_inurba_marseille","lat":43.25119,"lon":5.40319,"is_reserved":false,"is_disabled":false,"rental_uris":{"android":"levelo://app?vid=fc2c3f9b-061b-4b88-8d47-8a6d27bb94ba","ios":"levelo://app?vid=fc2c3f9b-061b-4b88-8d47-8a6d27bb94ba"},"vehicle_type_id":"4","last_reported":1730787217,"current_range_meters":7200,"station_id":"ce4bhlh2rcd13ifvqgig","pricing_plan_id":"cebpf4jnsgd1na2vs0mg"},{"bike_id":"be569dbd-7574-4aea-9eb3-dd7998ac8895","system_id":"levelo_inurba_marseille","lat":43.27072,"lon":5.42272,"is_reserved":false,"is_disabled":false,"rental_uris":{"android":"levelo://app?vid=be569dbd-7574-4aea-9eb3-dd7998ac8895","ios":"levelo://app?vid=be569dbd-7574-4aea-9eb3-dd7998ac8895"},"vehicle_type_id":"4","last_reported":1730787217,"current_range_meters":11600,"station_id":"ce4bhk92rcd13ifvqgb0","pricing_plan_id":"cebpf4jnsgd1na2vs0mg"},{"bike_id":"c7b95943-2eec-42ab-a593-5b974f1fc25b","system_id":"levelo_inurba_marseille","lat":43.26552,"lon":5.37292,"is_reserved":false,"is_disabled":false,"rental_uris":{"android":"levelo://app?vid=c7b95943-2eec-42ab-a593-5b974f1fc25b","ios":"levelo://app?vid=c7b95943-2eec-42ab-a593-5b974f1fc25b"},"vehicle_type_id":"4","last_reported":1730787217,"current_range_meters":17200,"station_id":"ce4bhg12rcd13ifvqf70","pricing_plan_id":"cebpf4jnsgd1na2vs0mg"},{"bike_id":"c02cb689-cac5-4dfa-bde0-e095a992c4d0","system_id":"levelo_inurba_marseille","lat":43.29789,"lon":5.393473,"is_reserved":false,"is_disabled":false,"rental_uris":{"android":"levelo://app?vid=c02cb689-cac5-4dfa-bde0-e095a992c4d0","ios":"levelo://app?vid=c02cb689-cac5-4dfa-bde0-e095a992c4d0"},"vehicle_type_id":"4","last_reported":1730787217,"current_range_meters":38800,"station_id":"chh1huq6cuj3fo74tm60","pricing_plan_id":"cebpf4jnsgd1na2vs0mg"},{"bike_id":"e12d7650-f1b2-4c4b-8eb8-23651f70543b","system_id":"levelo_inurba_marseille","lat":43.32361,"lon":5.38892,"is_reserved":false,"is_disabled":false,"rental_uris":{"android":"levelo://app?vid=e12d7650-f1b2-4c4b-8eb8-23651f70543b","ios":"levelo://app?vid=e12d7650-f1b2-4c4b-8eb8-23651f70543b"},"vehicle_type_id":"4","last_reported":1730787217,"current_range_meters":6800,"station_id":"ce4bhqp2rcd13ifvqhog","pricing_plan_id":"cebpf4jnsgd1na2vs0mg"},{"bike_id":"fbe1344d-a732-4551-86e4-3b4d6dad7b24","system_id":"levelo_inurba_marseille","lat":43.29247,"lon":5.40903,"is_reserved":false,"is_disabled":false,"rental_uris":{"android":"levelo://app?vid=fbe1344d-a732-4551-86e4-3b4d6dad7b24","ios":"levelo://app?vid=fbe1344d-a732-4551-86e4-3b4d6dad7b24"},"vehicle_type_id":"4","last_reported":1730787217,"current_range_meters":37600,"station_id":"ce4bh192rcd13ifvqdc0","pricing_plan_id":"cebpf4jnsgd1na2vs0mg"},{"bike_id":"3731b232-5ac2-42f6-ad4f-510332e4c316","system_id":"levelo_inurba_marseille","lat":43.23963,"lon":5.36634,"is_reserved":false,"is_disabled":false,"rental_uris":{"android":"levelo://app?vid=3731b232-5ac2-42f6-ad4f-510332e4c316","ios":"levelo://app?vid=3731b232-5ac2-42f6-ad4f-510332e4c316"},"vehicle_type_id":"4","last_reported":1730787217,"current_range_meters":38000,"station_id":"ce4bhi12rcd13ifvqfp0","pricing_plan_id":"cebpf4jnsgd1na2vs0mg"},{"bike_id":"07f8f1bf-d68f-4b58-92a7-b1443614c858","system_id":"levelo_inurba_marseille","lat":43.30952,"lon":5.390353,"is_reserved":false,"is_disabled":false,"rental_uris":{"android":"levelo://app?vid=07f8f1bf-d68f-4b58-92a7-b1443614c858","ios":"levelo://app?vid=07f8f1bf-d68f-4b58-92a7-b1443614c858"},"vehicle_type_id":"4","last_reported":1730787217,"current_range_meters":38800,"station_id":"ce4bgup2rcd13ifvqco0","pricing_plan_id":"cebpf4jnsgd1na2vs0mg"},{"bike_id":"c644397c-9f05-4578-a04b-d15f3f9130e5","system_id":"levelo_inurba_marseille","lat":43.26259,"lon":5.39683,"is_reserved":false,"is_disabled":false,"rental_uris":{"android":"levelo://app?vid=c644397c-9f05-4578-a04b-d15f3f9130e5","ios":"levelo://app?vid=c644397c-9f05-4578-a04b-d15f3f9130e5"},"vehicle_type_id":"4","last_reported":1730787217,"current_range_meters":38000,"station_id":"","pricing_plan_id":"cebpf4jnsgd1na2vs0mg"},{"bike_id":"afb4951c-b08c-4d64-9938-fe2618de5e61","system_id":"levelo_inurba_marseille","lat":43.288559,"lon":5.358444,"is_reserved":false,"is_disabled":false,"rental_uris":{"android":"levelo://app?vid=afb4951c-b08c-4d64-9938-fe2618de5e61","ios":"levelo://app?vid=afb4951c-b08c-4d64-9938-fe2618de5e61"},"vehicle_type_id":"4","last_reported":1730787217,"current_range_meters":30800,"station_id":"ce4bhb12rcd13ifvqem0","pricing_plan_id":"cebpf4jnsgd1na2vs0mg"},{"bike_id":"b5f5f289-9584-4e43-979b-86f74ad6203a","system_id":"levelo_inurba_marseille","lat":43.25583,"lon":5.38233,"is_reserved":false,"is_disabled":false,"rental_uris":{"android":"levelo://app?vid=b5f5f289-9584-4e43-979b-86f74ad6203a","ios":"levelo://app?vid=b5f5f289-9584-4e43-979b-86f74ad6203a"},"vehicle_type_id":"4","last_reported":1730787217,"current_range_meters":29600,"station_id":"ce4bhih2rcd13ifvqfs0","pricing_plan_id":"cebpf4jnsgd1na2vs0mg"},{"bike_id":"91f5b76d-bdfe-4048-8a04-c9679d35526a","system_id":"levelo_inurba_marseille","lat":43.33026,"lon":5.39037,"is_reserved":false,"is_disabled":false,"rental_uris":{"android":"levelo://app?vid=91f5b76d-bdfe-4048-8a04-c9679d35526a","ios":"levelo://app?vid=91f5b76d-bdfe-4048-8a04-c9679d35526a"},"vehicle_type_id":"4","last_reported":1730787217,"current_range_meters":38000,"station_id":"ce4bhr92rcd13ifvqhrg","pricing_plan_id":"cebpf4jnsgd1na2vs0mg"},{"bike_id":"003d7fda-4443-4148-aec1-729df37750b9","system_id":"levelo_inurba_marseille","lat":43.281002,"lon":5.378423,"is_reserved":false,"is_disabled":false,"rental_uris":{"android":"levelo://app?vid=003d7fda-4443-4148-aec1-729df37750b9","ios":"levelo://app?vid=003d7fda-4443-4148-aec1-729df37750b9"},"vehicle_type_id":"4","last_reported":1730787217,"current_range_meters":38800,"station_id":"ce4bha12rcd13ifvqee0","pricing_plan_id":"cebpf4jnsgd1na2vs0mg"},{"bike_id":"54a53193-b42f-4e81-af8d-b5da45c2ad7e","system_id":"levelo_inurba_marseille","lat":43.27174,"lon":5.40989,"is_reserved":false,"is_disabled":false,"rental_uris":{"android":"levelo://app?vid=54a53193-b42f-4e81-af8d-b5da45c2ad7e","ios":"levelo://app?vid=54a53193-b42f-4e81-af8d-b5da45c2ad7e"},"vehicle_type_id":"4","last_reported":1730787217,"current_range_meters":38800,"station_id":"ce4bhl12rcd13ifvqgf0","pricing_plan_id":"cebpf4jnsgd1na2vs0mg"},{"bike_id":"99d78f6e-5bfc-4e99-baa1-b9137a41c134","system_id":"levelo_inurba_marseille","lat":43.2815,"lon":5.42645,"is_reserved":false,"is_disabled":false,"rental_uris":{"android":"levelo://app?vid=99d78f6e-5bfc-4e99-baa1-b9137a41c134","ios":"levelo://app?vid=99d78f6e-5bfc-4e99-baa1-b9137a41c134"},"vehicle_type_id":"4","last_reported":1730787217,"current_range_meters":37600,"station_id":"ce4bhnh2rcd13ifvqgug","pricing_plan_id":"cebpf4jnsgd1na2vs0mg"},{"bike_id":"46d7b9e4-4d95-4565-ad4c-d95ad5e9ab18","system_id":"levelo_inurba_marseille","lat":43.24668,"lon":5.38149,"is_reserved":false,"is_disabled":false,"rental_uris":{"android":"levelo://app?vid=46d7b9e4-4d95-4565-ad4c-d95ad5e9ab18","ios":"levelo://app?vid=46d7b9e4-4d95-4565-ad4c-d95ad5e9ab18"},"vehicle_type_id":"4","last_reported":1730787217,"current_range_meters":18800,"station_id":"ce4bhih2rcd13ifvqfr0","pricing_plan_id":"cebpf4jnsgd1na2vs0mg"},{"bike_id":"0fb9819f-f5ed-4bc1-9006-4b1ad7d9b36e","system_id":"levelo_inurba_marseille","lat":43.32469,"lon":5.3656,"is_reserved":false,"is_disabled":false,"rental_uris":{"android":"levelo://app?vid=0fb9819f-f5ed-4bc1-9006-4b1ad7d9b36e","ios":"levelo://app?vid=0fb9819f-f5ed-4bc1-9006-4b1ad7d9b36e"},"vehicle_type_id":"4","last_reported":1730787217,"current_range_meters":15200,"station_id":"ce4bhs12rcd13ifvqhvg","pricing_plan_id":"cebpf4jnsgd1na2vs0mg"},{"bike_id":"11565750-6db8-493a-9971-18c0f3394a9e","system_id":"levelo_inurba_marseille","lat":43.29274,"lon":5.40122,"is_reserved":false,"is_disabled":false,"rental_uris":{"android":"levelo://app?vid=11565750-6db8-493a-9971-18c0f3394a9e","ios":"levelo://app?vid=11565750-6db8-493a-9971-18c0f3394a9e"},"vehicle_type_id":"4","last_reported":1730787217,"current_range_meters":28800,"station_id":"ce4bh312rcd13ifvqdk0","pricing_plan_id":"cebpf4jnsgd1na2vs0mg"},{"bike_id":"001e4aac-bf74-4b01-bca5-4d0961df3e73","system_id":"levelo_inurba_marseille","lat":43.30866,"lon":5.39645,"is_reserved":false,"is_disabled":false,"rental_uris":{"android":"levelo://app?vid=001e4aac-bf74-4b01-bca5-4d0961df3e73","ios":"levelo://app?vid=001e4aac-bf74-4b01-bca5-4d0961df3e73"},"vehicle_type_id":"4","last_reported":1730787217,"current_range_meters":12000,"station_id":"ce4bh012rcd13ifvqcv0","pricing_plan_id":"cebpf4jnsgd1na2vs0mg"},{"bike_id":"372b79ea-d145-403a-86aa-4421629e3558","system_id":"levelo_inurba_marseille","lat":43.31266,"lon":5.40175,"is_reserved":false,"is_disabled":false,"rental_uris":{"android":"levelo://app?vid=372b79ea-d145-403a-86aa-4421629e3558","ios":"levelo://app?vid=372b79ea-d145-403a-86aa-4421629e3558"},"vehicle_type_id":"4","last_reported":1730787217,"current_range_meters":38800,"station_id":"ce4bh092rcd13ifvqd30","pricing_plan_id":"cebpf4jnsgd1na2vs0mg"},{"bike_id":"037eaf0f-9112-47d3-aa8d-7a0ef0d58625","system_id":"levelo_inurba_marseille","lat":43.24167,"lon":5.36395,"is_reserved":false,"is_disabled":false,"rental_uris":{"android":"levelo://app?vid=037eaf0f-9112-47d3-aa8d-7a0ef0d58625","ios":"levelo://app?vid=037eaf0f-9112-47d3-aa8d-7a0ef0d58625"},"vehicle_type_id":"4","last_reported":1730787217,"current_range_meters":38800,"station_id":"cpo36qri1sfpv3e86is0","pricing_plan_id":"cebpf4jnsgd1na2vs0mg"},{"bike_id":"0688e1f9-1bf1-4863-9a6f-f01b30b1aed3","system_id":"levelo_inurba_marseille","lat":43.28453,"lon":5.35892,"is_reserved":false,"is_disabled":false,"rental_uris":{"android":"levelo://app?vid=0688e1f9-1bf1-4863-9a6f-f01b30b1aed3","ios":"levelo://app?vid=0688e1f9-1bf1-4863-9a6f-f01b30b1aed3"},"vehicle_type_id":"4","last_reported":1730787217,"current_range_meters":38800,"station_id":"ce4bhah2rcd13ifvqei0","pricing_plan_id":"cebpf4jnsgd1na2vs0mg"},{"bike_id":"4ea0507a-3008-47a9-a8e4-08fc8842bae4","system_id":"levelo_inurba_marseille","lat":43.2717,"lon":5.40988,"is_reserved":false,"is_disabled":false,"rental_uris":{"android":"levelo://app?vid=4ea0507a-3008-47a9-a8e4-08fc8842bae4","ios":"levelo://app?vid=4ea0507a-3008-47a9-a8e4-08fc8842bae4"},"vehicle_type_id":"4","last_reported":1730787217,"current_range_meters":38800,"station_id":"ce4bhl12rcd13ifvqgf0","pricing_plan_id":"cebpf4jnsgd1na2vs0mg"},{"bike_id":"5f7bea16-ee2b-4b3b-8d0f-0102e87cabea","system_id":"levelo_inurba_marseille","lat":43.30795,"lon":5.43529,"is_reserved":false,"is_disabled":false,"rental_uris":{"android":"levelo://app?vid=5f7bea16-ee2b-4b3b-8d0f-0102e87cabea","ios":"levelo://app?vid=5f7bea16-ee2b-4b3b-8d0f-0102e87cabea"},"vehicle_type_id":"4","last_reported":1730787217,"current_range_meters":6000,"station_id":"ce4bhph2rcd13ifvqheg","pricing_plan_id":"cebpf4jnsgd1na2vs0mg"},{"bike_id":"9fd80cbe-8d2d-4f81-85e9-fb09f9cff6c5","system_id":"levelo_inurba_marseille","lat":43.2904,"lon":5.35912,"is_reserved":false,"is_disabled":false,"rental_uris":{"android":"levelo://app?vid=9fd80cbe-8d2d-4f81-85e9-fb09f9cff6c5","ios":"levelo://app?vid=9fd80cbe-8d2d-4f81-85e9-fb09f9cff6c5"},"vehicle_type_id":"4","last_reported":1730787217,"current_range_meters":38000,"station_id":"ce4bha92rcd13ifvqeg0","pricing_plan_id":"cebpf4jnsgd1na2vs0mg"},{"bike_id":"4148fc12-56cd-4c41-8dc4-6a61a267f866","system_id":"levelo_inurba_marseille","lat":43.3302,"lon":5.39046,"is_reserved":false,"is_disabled":false,"rental_uris":{"android":"levelo://app?vid=4148fc12-56cd-4c41-8dc4-6a61a267f866","ios":"levelo://app?vid=4148fc12-56cd-4c41-8dc4-6a61a267f866"},"vehicle_type_id":"4","last_reported":1730787217,"current_range_meters":32400,"station_id":"ce4bhr92rcd13ifvqhrg","pricing_plan_id":"cebpf4jnsgd1na2vs0mg"},{"bike_id":"190ab154-8298-4b3b-94c9-6d2abf0f4f50","system_id":"levelo_inurba_marseille","lat":43.28696,"lon":5.39976,"is_reserved":false,"is_disabled":false,"rental_uris":{"android":"levelo://app?vid=190ab154-8298-4b3b-94c9-6d2abf0f4f50","ios":"levelo://app?vid=190ab154-8298-4b3b-94c9-6d2abf0f4f50"},"vehicle_type_id":"4","last_reported":1730787217,"current_range_meters":38800,"station_id":"ce4bho92rcd13ifvqh3g","pricing_plan_id":"cebpf4jnsgd1na2vs0mg"},{"bike_id":"bea79691-7f5e-4b08-ba43-27ad9d0af7ea","system_id":"levelo_inurba_marseille","lat":43.27311,"lon":5.39089,"is_reserved":false,"is_disabled":false,"rental_uris":{"android":"levelo://app?vid=bea79691-7f5e-4b08-ba43-27ad9d0af7ea","ios":"levelo://app?vid=bea79691-7f5e-4b08-ba43-27ad9d0af7ea"},"vehicle_type_id":"4","last_reported":1730787217,"current_range_meters":35600,"station_id":"ce4bhgp2rcd13ifvqfe0","pricing_plan_id":"cebpf4jnsgd1na2vs0mg"},{"bike_id":"7456f770-5dea-4f37-afa6-eca01272107d","system_id":"levelo_inurba_marseille","lat":43.28399,"lon":5.37517,"is_reserved":false,"is_disabled":false,"rental_uris":{"android":"levelo://app?vid=7456f770-5dea-4f37-afa6-eca01272107d","ios":"levelo://app?vid=7456f770-5dea-4f37-afa6-eca01272107d"},"vehicle_type_id":"4","last_reported":1730787217,"current_range_meters":34000,"station_id":"ce4bh412rcd13ifvqds0","pricing_plan_id":"cebpf4jnsgd1na2vs0mg"},{"bike_id":"266bf1d3-a394-4561-89c0-b7887d92fd8c","system_id":"levelo_inurba_marseille","lat":43.30151,"lon":5.38077,"is_reserved":false,"is_disabled":false,"rental_uris":{"android":"levelo://app?vid=266bf1d3-a394-4561-89c0-b7887d92fd8c","ios":"levelo://app?vid=266bf1d3-a394-4561-89c0-b7887d92fd8c"},"vehicle_type_id":"4","last_reported":1730787217,"current_range_meters":36800,"station_id":"ce4bgjp2rcd13ifvqbh0","pricing_plan_id":"cebpf4jnsgd1na2vs0mg"},{"bike_id":"f2b92d8c-3227-448f-8678-9820255ccff4","system_id":"levelo_inurba_marseille","lat":43.30468,"lon":5.37909,"is_reserved":false,"is_disabled":false,"rental_uris":{"android":"levelo://app?vid=f2b92d8c-3227-448f-8678-9820255ccff4","ios":"levelo://app?vid=f2b92d8c-3227-448f-8678-9820255ccff4"},"vehicle_type_id":"4","last_reported":1730787217,"current_range_meters":36800,"station_id":"ce4bgup2rcd13ifvqcn0","pricing_plan_id":"cebpf4jnsgd1na2vs0mg"},{"bike_id":"8d5faf28-e526-4d5b-93d3-399bd2cb1046","system_id":"levelo_inurba_marseille","lat":43.31754,"lon":5.39014,"is_reserved":false,"is_disabled":false,"rental_uris":{"android":"levelo://app?vid=8d5faf28-e526-4d5b-93d3-399bd2cb1046","ios":"levelo://app?vid=8d5faf28-e526-4d5b-93d3-399bd2cb1046"},"vehicle_type_id":"4","last_reported":1730787217,"current_range_meters":10000,"station_id":"ce4bhqp2rcd13ifvqhng","pricing_plan_id":"cebpf4jnsgd1na2vs0mg"},{"bike_id":"6725d41e-775c-40af-b38f-45b495a7ab81","system_id":"levelo_inurba_marseille","lat":43.28708,"lon":5.39986,"is_reserved":false,"is_disabled":false,"rental_uris":{"android":"levelo://app?vid=6725d41e-775c-40af-b38f-45b495a7ab81","ios":"levelo://app?vid=6725d41e-775c-40af-b38f-45b495a7ab81"},"vehicle_type_id":"4","last_reported":1730787217,"current_range_meters":29600,"station_id":"ce4bho92rcd13ifvqh3g","pricing_plan_id":"cebpf4jnsgd1na2vs0mg"},{"bike_id":"09829a24-f639-4891-80cb-ed9f598d5fde","system_id":"levelo_inurba_marseille","lat":43.29189,"lon":5.39321,"is_reserved":false,"is_disabled":false,"rental_uris":{"android":"levelo://app?vid=09829a24-f639-4891-80cb-ed9f598d5fde","ios":"levelo://app?vid=09829a24-f639-4891-80cb-ed9f598d5fde"},"vehicle_type_id":"4","last_reported":1730787217,"current_range_meters":37600,"station_id":"ce4bh192rcd13ifvqdd0","pricing_plan_id":"cebpf4jnsgd1na2vs0mg"},{"bike_id":"4d39a779-31fa-49e8-8dd7-1884b4a4ae25","system_id":"levelo_inurba_marseille","lat":43.26192,"lon":5.37447,"is_reserved":false,"is_disabled":false,"rental_uris":{"android":"levelo://app?vid=4d39a779-31fa-49e8-8dd7-1884b4a4ae25","ios":"levelo://app?vid=4d39a779-31fa-49e8-8dd7-1884b4a4ae25"},"vehicle_type_id":"4","last_reported":1730787217,"current_range_meters":4400,"station_id":"ce4bhgp2rcd13ifvqfc0","pricing_plan_id":"cebpf4jnsgd1na2vs0mg"},{"bike_id":"8c90d0b3-f1b0-424d-a4c3-3b5f9d847e56","system_id":"levelo_inurba_marseille","lat":43.30589,"lon":5.37227,"is_reserved":false,"is_disabled":false,"rental_uris":{"android":"levelo://app?vid=8c90d0b3-f1b0-424d-a4c3-3b5f9d847e56","ios":"levelo://app?vid=8c90d0b3-f1b0-424d-a4c3-3b5f9d847e56"},"vehicle_type_id":"4","last_reported":1730787217,"current_range_meters":39200,"station_id":"ce4bgqh2rcd13ifvqc4g","pricing_plan_id":"cebpf4jnsgd1na2vs0mg"},{"bike_id":"8d62cb5e-8941-4ae5-9303-f2f93c627b51","system_id":"levelo_inurba_marseille","lat":43.293091,"lon":5.371632,"is_reserved":false,"is_disabled":false,"rental_uris":{"android":"levelo://app?vid=8d62cb5e-8941-4ae5-9303-f2f93c627b51","ios":"levelo://app?vid=8d62cb5e-8941-4ae5-9303-f2f93c627b51"},"vehicle_type_id":"4","last_reported":1730787217,"current_range_meters":37600,"station_id":"ce4bgh92rcd13ifvqb40","pricing_plan_id":"cebpf4jnsgd1na2vs0mg"},{"bike_id":"4e3436bb-5c55-431f-9ffc-31e4eacb299c","system_id":"levelo_inurba_marseille","lat":43.27984,"lon":5.40015,"is_reserved":false,"is_disabled":false,"rental_uris":{"android":"levelo://app?vid=4e3436bb-5c55-431f-9ffc-31e4eacb299c","ios":"levelo://app?vid=4e3436bb-5c55-431f-9ffc-31e4eacb299c"},"vehicle_type_id":"4","last_reported":1730787217,"current_range_meters":36800,"station_id":"ce4bho92rcd13ifvqh4g","pricing_plan_id":"cebpf4jnsgd1na2vs0mg"},{"bike_id":"53b845dc-04ea-40c0-805b-a14f055c685a","system_id":"levelo_inurba_marseille","lat":43.30881,"lon":5.3964,"is_reserved":false,"is_disabled":false,"rental_uris":{"android":"levelo://app?vid=53b845dc-04ea-40c0-805b-a14f055c685a","ios":"levelo://app?vid=53b845dc-04ea-40c0-805b-a14f055c685a"},"vehicle_type_id":"4","last_reported":1730787217,"current_range_meters":38400,"station_id":"ce4bh012rcd13ifvqcv0","pricing_plan_id":"cebpf4jnsgd1na2vs0mg"},{"bike_id":"37deeb23-ece9-4f69-9fee-a33b9b0b9f3f","system_id":"levelo_inurba_marseille","lat":43.29519,"lon":5.39032,"is_reserved":false,"is_disabled":false,"rental_uris":{"android":"levelo://app?vid=37deeb23-ece9-4f69-9fee-a33b9b0b9f3f","ios":"levelo://app?vid=37deeb23-ece9-4f69-9fee-a33b9b0b9f3f"},"vehicle_type_id":"4","last_reported":1730787217,"current_range_meters":32000,"station_id":"ce4bh3p2rcd13ifvqdp0","pricing_plan_id":"cebpf4jnsgd1na2vs0mg"},{"bike_id":"8323a3e8-cebc-427b-a3a3-072a7d680741","system_id":"levelo_inurba_marseille","lat":43.292847,"lon":5.401211,"is_reserved":false,"is_disabled":false,"rental_uris":{"android":"levelo://app?vid=8323a3e8-cebc-427b-a3a3-072a7d680741","ios":"levelo://app?vid=8323a3e8-cebc-427b-a3a3-072a7d680741"},"vehicle_type_id":"4","last_reported":1730787217,"current_range_meters":37600,"station_id":"ce4bh512rcd13ifvqe3g","pricing_plan_id":"cebpf4jnsgd1na2vs0mg"},{"bike_id":"f2c092a2-0134-4ce9-b755-7ee8d58ab87c","system_id":"levelo_inurba_marseille","lat":43.27085,"lon":5.38187,"is_reserved":false,"is_disabled":false,"rental_uris":{"android":"levelo://app?vid=f2c092a2-0134-4ce9-b755-7ee8d58ab87c","ios":"levelo://app?vid=f2c092a2-0134-4ce9-b755-7ee8d58ab87c"},"vehicle_type_id":"4","last_reported":1730787217,"current_range_meters":23200,"station_id":"","pricing_plan_id":"cebpf4jnsgd1na2vs0mg"},{"bike_id":"576c5343-e842-4ace-8ef5-4494705c6e20","system_id":"levelo_inurba_marseille","lat":43.27491,"lon":5.42448,"is_reserved":false,"is_disabled":false,"rental_uris":{"android":"levelo://app?vid=576c5343-e842-4ace-8ef5-4494705c6e20","ios":"levelo://app?vid=576c5343-e842-4ace-8ef5-4494705c6e20"},"vehicle_type_id":"4","last_reported":1730787217,"current_range_meters":22800,"station_id":"ce4bhn92rcd13ifvqgrg","pricing_plan_id":"cebpf4jnsgd1na2vs0mg"},{"bike_id":"dfdbab8c-1f1d-443d-b108-183c4b7fb7c3","system_id":"levelo_inurba_marseille","lat":43.28076,"lon":5.39645,"is_reserved":false,"is_disabled":false,"rental_uris":{"android":"levelo://app?vid=dfdbab8c-1f1d-443d-b108-183c4b7fb7c3","ios":"levelo://app?vid=dfdbab8c-1f1d-443d-b108-183c4b7fb7c3"},"vehicle_type_id":"4","last_reported":1730787217,"current_range_meters":26800,"station_id":"ce4bho12rcd13ifvqh2g","pricing_plan_id":"cebpf4jnsgd1na2vs0mg"},{"bike_id":"14a94e8d-3495-425c-b482-eb20cbe00a10","system_id":"levelo_inurba_marseille","lat":43.27836,"lon":5.39209,"is_reserved":false,"is_disabled":false,"rental_uris":{"android":"levelo://app?vid=14a94e8d-3495-425c-b482-eb20cbe00a10","ios":"levelo://app?vid=14a94e8d-3495-425c-b482-eb20cbe00a10"},"vehicle_type_id":"4","last_reported":1730787217,"current_range_meters":9200,"station_id":"ce4bhjp2rcd13ifvqga0","pricing_plan_id":"cebpf4jnsgd1na2vs0mg"},{"bike_id":"5eeefd11-649c-499f-9856-2a20cd33e6cb","system_id":"levelo_inurba_marseille","lat":43.30545,"lon":5.36706,"is_reserved":false,"is_disabled":false,"rental_uris":{"android":"levelo://app?vid=5eeefd11-649c-499f-9856-2a20cd33e6cb","ios":"levelo://app?vid=5eeefd11-649c-499f-9856-2a20cd33e6cb"},"vehicle_type_id":"4","last_reported":1730787217,"current_range_meters":11600,"station_id":"ce4bgrp2rcd13ifvqc9g","pricing_plan_id":"cebpf4jnsgd1na2vs0mg"},{"bike_id":"759be4e7-d1d4-42c1-9d68-c05c47cd9090","system_id":"levelo_inurba_marseille","lat":43.30296,"lon":5.36885,"is_reserved":false,"is_disabled":false,"rental_uris":{"android":"levelo://app?vid=759be4e7-d1d4-42c1-9d68-c05c47cd9090","ios":"levelo://app?vid=759be4e7-d1d4-42c1-9d68-c05c47cd9090"},"vehicle_type_id":"4","last_reported":1730787217,"current_range_meters":33600,"station_id":"ce4bgqh2rcd13ifvqc5g","pricing_plan_id":"cebpf4jnsgd1na2vs0mg"},{"bike_id":"bc09bd59-7629-4bf2-921b-6600d712b8de","system_id":"levelo_inurba_marseille","lat":43.28451,"lon":5.35894,"is_reserved":false,"is_disabled":false,"rental_uris":{"android":"levelo://app?vid=bc09bd59-7629-4bf2-921b-6600d712b8de","ios":"levelo://app?vid=bc09bd59-7629-4bf2-921b-6600d712b8de"},"vehicle_type_id":"4","last_reported":1730787217,"current_range_meters":22800,"station_id":"ce4bhah2rcd13ifvqei0","pricing_plan_id":"cebpf4jnsgd1na2vs0mg"},{"bike_id":"affbf57b-e414-47f3-9273-dfaf4a2dccde","system_id":"levelo_inurba_marseille","lat":43.28848,"lon":5.39308,"is_reserved":false,"is_disabled":false,"rental_uris":{"android":"levelo://app?vid=affbf57b-e414-47f3-9273-dfaf4a2dccde","ios":"levelo://app?vid=affbf57b-e414-47f3-9273-dfaf4a2dccde"},"vehicle_type_id":"4","last_reported":1730787217,"current_range_meters":29600,"station_id":"ce4bh2p2rcd13ifvqdi0","pricing_plan_id":"cebpf4jnsgd1na2vs0mg"},{"bike_id":"1536068a-a0cd-402b-8b9f-6b88ac5952e3","system_id":"levelo_inurba_marseille","lat":43.31364,"lon":5.38503,"is_reserved":false,"is_disabled":false,"rental_uris":{"android":"levelo://app?vid=1536068a-a0cd-402b-8b9f-6b88ac5952e3","ios":"levelo://app?vid=1536068a-a0cd-402b-8b9f-6b88ac5952e3"},"vehicle_type_id":"4","last_reported":1730787217,"current_range_meters":34800,"station_id":"ce4bgt92rcd13ifvqcf0","pricing_plan_id":"cebpf4jnsgd1na2vs0mg"},{"bike_id":"efd52e43-c6c4-4283-8f94-e8c17d086d54","system_id":"levelo_inurba_marseille","lat":43.28659,"lon":5.36345,"is_reserved":false,"is_disabled":false,"rental_uris":{"android":"levelo://app?vid=efd52e43-c6c4-4283-8f94-e8c17d086d54","ios":"levelo://app?vid=efd52e43-c6c4-4283-8f94-e8c17d086d54"},"vehicle_type_id":"4","last_reported":1730787217,"current_range_meters":38800,"station_id":"ce4bhah2rcd13ifvqej0","pricing_plan_id":"cebpf4jnsgd1na2vs0mg"},{"bike_id":"148e1e1e-b721-4ced-994a-e87b8db04276","system_id":"levelo_inurba_marseille","lat":43.28913,"lon":5.38397,"is_reserved":false,"is_disabled":false,"rental_uris":{"android":"levelo://app?vid=148e1e1e-b721-4ced-994a-e87b8db04276","ios":"levelo://app?vid=148e1e1e-b721-4ced-994a-e87b8db04276"},"vehicle_type_id":"4","last_reported":1730787217,"current_range_meters":24800,"station_id":"ce4bh612rcd13ifvqe6g","pricing_plan_id":"cebpf4jnsgd1na2vs0mg"},{"bike_id":"87231ffe-0ac7-469b-8716-78c258e514db","system_id":"levelo_inurba_marseille","lat":43.24667,"lon":5.38167,"is_reserved":false,"is_disabled":false,"rental_uris":{"android":"levelo://app?vid=87231ffe-0ac7-469b-8716-78c258e514db","ios":"levelo://app?vid=87231ffe-0ac7-469b-8716-78c258e514db"},"vehicle_type_id":"4","last_reported":1730787217,"current_range_meters":37600,"station_id":"ce4bhih2rcd13ifvqfr0","pricing_plan_id":"cebpf4jnsgd1na2vs0mg"},{"bike_id":"1a262795-7407-49d2-b8b5-844e6a51667f","system_id":"levelo_inurba_marseille","lat":43.29247,"lon":5.36111,"is_reserved":false,"is_disabled":false,"rental_uris":{"android":"levelo://app?vid=1a262795-7407-49d2-b8b5-844e6a51667f","ios":"levelo://app?vid=1a262795-7407-49d2-b8b5-844e6a51667f"},"vehicle_type_id":"4","last_reported":1730787217,"current_range_meters":24400,"station_id":"ce4bhbh2rcd13ifvqeqg","pricing_plan_id":"cebpf4jnsgd1na2vs0mg"},{"bike_id":"d4472d20-9c4b-4c70-ad00-3a005519a429","system_id":"levelo_inurba_marseille","lat":43.35343,"lon":5.35742,"is_reserved":false,"is_disabled":false,"rental_uris":{"android":"levelo://app?vid=d4472d20-9c4b-4c70-ad00-3a005519a429","ios":"levelo://app?vid=d4472d20-9c4b-4c70-ad00-3a005519a429"},"vehicle_type_id":"4","last_reported":1730787217,"current_range_meters":6400,"station_id":"","pricing_plan_id":"cebpf4jnsgd1na2vs0mg"},{"bike_id":"d112ef64-8345-40dc-a437-a0aa8c5bd57d","system_id":"levelo_inurba_marseille","lat":43.3054,"lon":5.36709,"is_reserved":false,"is_disabled":false,"rental_uris":{"android":"levelo://app?vid=d112ef64-8345-40dc-a437-a0aa8c5bd57d","ios":"levelo://app?vid=d112ef64-8345-40dc-a437-a0aa8c5bd57d"},"vehicle_type_id":"4","last_reported":1730787217,"current_range_meters":38800,"station_id":"ce4bgrp2rcd13ifvqc9g","pricing_plan_id":"cebpf4jnsgd1na2vs0mg"},{"bike_id":"93e1a5ab-3065-4d73-b07a-8664739a1737","system_id":"levelo_inurba_marseille","lat":43.26943,"lon":5.40242,"is_reserved":false,"is_disabled":false,"rental_uris":{"android":"levelo://app?vid=93e1a5ab-3065-4d73-b07a-8664739a1737","ios":"levelo://app?vid=93e1a5ab-3065-4d73-b07a-8664739a1737"},"vehicle_type_id":"4","last_reported":1730787217,"current_range_meters":38000,"station_id":"cjm6bp8fraef2m0cb0m0","pricing_plan_id":"cebpf4jnsgd1na2vs0mg"},{"bike_id":"c84b0bfc-34a9-475b-9f04-6a326b51d4f9","system_id":"levelo_inurba_marseille","lat":43.29517,"lon":5.39041,"is_reserved":false,"is_disabled":false,"rental_uris":{"android":"levelo://app?vid=c84b0bfc-34a9-475b-9f04-6a326b51d4f9","ios":"levelo://app?vid=c84b0bfc-34a9-475b-9f04-6a326b51d4f9"},"vehicle_type_id":"4","last_reported":1730787217,"current_range_meters":39200,"station_id":"ce4bh3p2rcd13ifvqdp0","pricing_plan_id":"cebpf4jnsgd1na2vs0mg"},{"bike_id":"3060f333-6014-4044-8bd0-c03c9707250b","system_id":"levelo_inurba_marseille","lat":43.27828,"lon":5.39196,"is_reserved":false,"is_disabled":false,"rental_uris":{"android":"levelo://app?vid=3060f333-6014-4044-8bd0-c03c9707250b","ios":"levelo://app?vid=3060f333-6014-4044-8bd0-c03c9707250b"},"vehicle_type_id":"4","last_reported":1730787217,"current_range_meters":36800,"station_id":"ce4bhjp2rcd13ifvqga0","pricing_plan_id":"cebpf4jnsgd1na2vs0mg"},{"bike_id":"1a3cfcf0-71ce-438d-8543-37bda2b48a9c","system_id":"levelo_inurba_marseille","lat":43.31494,"lon":5.373,"is_reserved":false,"is_disabled":false,"rental_uris":{"android":"levelo://app?vid=1a3cfcf0-71ce-438d-8543-37bda2b48a9c","ios":"levelo://app?vid=1a3cfcf0-71ce-438d-8543-37bda2b48a9c"},"vehicle_type_id":"4","last_reported":1730787217,"current_range_meters":36800,"station_id":"ce4bgt12rcd13ifvqcd0","pricing_plan_id":"cebpf4jnsgd1na2vs0mg"},{"bike_id":"c0a06f5a-7eed-4816-bf28-311c03fae9d6","system_id":"levelo_inurba_marseille","lat":43.26203,"lon":5.37447,"is_reserved":false,"is_disabled":false,"rental_uris":{"android":"levelo://app?vid=c0a06f5a-7eed-4816-bf28-311c03fae9d6","ios":"levelo://app?vid=c0a06f5a-7eed-4816-bf28-311c03fae9d6"},"vehicle_type_id":"4","last_reported":1730787217,"current_range_meters":38400,"station_id":"ce4bhgp2rcd13ifvqfc0","pricing_plan_id":"cebpf4jnsgd1na2vs0mg"},{"bike_id":"641a5734-7051-49d3-a036-1e6baa5e64f8","system_id":"levelo_inurba_marseille","lat":43.30537,"lon":5.36709,"is_reserved":false,"is_disabled":false,"rental_uris":{"android":"levelo://app?vid=641a5734-7051-49d3-a036-1e6baa5e64f8","ios":"levelo://app?vid=641a5734-7051-49d3-a036-1e6baa5e64f8"},"vehicle_type_id":"4","last_reported":1730787217,"current_range_meters":36400,"station_id":"ce4bgrp2rcd13ifvqc9g","pricing_plan_id":"cebpf4jnsgd1na2vs0mg"},{"bike_id":"ed8908e8-3043-4187-a7bd-b9080da9eb38","system_id":"levelo_inurba_marseille","lat":43.30931,"lon":5.40143,"is_reserved":false,"is_disabled":false,"rental_uris":{"android":"levelo://app?vid=ed8908e8-3043-4187-a7bd-b9080da9eb38","ios":"levelo://app?vid=ed8908e8-3043-4187-a7bd-b9080da9eb38"},"vehicle_type_id":"4","last_reported":1730787217,"current_range_meters":38800,"station_id":"ce4bgvp2rcd13ifvqct0","pricing_plan_id":"cebpf4jnsgd1na2vs0mg"},{"bike_id":"270381d7-813e-4fd2-8243-d2548c2487cb","system_id":"levelo_inurba_marseille","lat":43.30458,"lon":5.37913,"is_reserved":false,"is_disabled":false,"rental_uris":{"android":"levelo://app?vid=270381d7-813e-4fd2-8243-d2548c2487cb","ios":"levelo://app?vid=270381d7-813e-4fd2-8243-d2548c2487cb"},"vehicle_type_id":"4","last_reported":1730787217,"current_range_meters":20000,"station_id":"ce4bgup2rcd13ifvqcn0","pricing_plan_id":"cebpf4jnsgd1na2vs0mg"},{"bike_id":"0a1a40db-b474-4571-b7c4-fd7400638eb1","system_id":"levelo_inurba_marseille","lat":43.317098,"lon":5.437039,"is_reserved":false,"is_disabled":false,"rental_uris":{"android":"levelo://app?vid=0a1a40db-b474-4571-b7c4-fd7400638eb1","ios":"levelo://app?vid=0a1a40db-b474-4571-b7c4-fd7400638eb1"},"vehicle_type_id":"4","last_reported":1730787217,"current_range_meters":38800,"station_id":"ce4bhp92rcd13ifvqhcg","pricing_plan_id":"cebpf4jnsgd1na2vs0mg"},{"bike_id":"be5bb167-8e9d-4764-9cac-04dc5e3697e1","system_id":"levelo_inurba_marseille","lat":43.28456,"lon":5.3589,"is_reserved":false,"is_disabled":false,"rental_uris":{"android":"levelo://app?vid=be5bb167-8e9d-4764-9cac-04dc5e3697e1","ios":"levelo://app?vid=be5bb167-8e9d-4764-9cac-04dc5e3697e1"},"vehicle_type_id":"4","last_reported":1730787217,"current_range_meters":24000,"station_id":"ce4bhah2rcd13ifvqei0","pricing_plan_id":"cebpf4jnsgd1na2vs0mg"},{"bike_id":"24e8035d-7469-4d74-84e8-7b641704309c","system_id":"levelo_inurba_marseille","lat":43.27665,"lon":5.38883,"is_reserved":false,"is_disabled":false,"rental_uris":{"android":"levelo://app?vid=24e8035d-7469-4d74-84e8-7b641704309c","ios":"levelo://app?vid=24e8035d-7469-4d74-84e8-7b641704309c"},"vehicle_type_id":"4","last_reported":1730787217,"current_range_meters":31200,"station_id":"ce4bhi12rcd13ifvqfo0","pricing_plan_id":"cebpf4jnsgd1na2vs0mg"},{"bike_id":"2a620781-b8da-499d-9d4e-854e7a1d11af","system_id":"levelo_inurba_marseille","lat":43.27177,"lon":5.40989,"is_reserved":false,"is_disabled":false,"rental_uris":{"android":"levelo://app?vid=2a620781-b8da-499d-9d4e-854e7a1d11af","ios":"levelo://app?vid=2a620781-b8da-499d-9d4e-854e7a1d11af"},"vehicle_type_id":"4","last_reported":1730787217,"current_range_meters":38800,"station_id":"ce4bhl12rcd13ifvqgf0","pricing_plan_id":"cebpf4jnsgd1na2vs0mg"},{"bike_id":"89ed3898-5787-41f0-8b05-9f68f5efd265","system_id":"levelo_inurba_marseille","lat":43.30164,"lon":5.38084,"is_reserved":false,"is_disabled":false,"rental_uris":{"android":"levelo://app?vid=89ed3898-5787-41f0-8b05-9f68f5efd265","ios":"levelo://app?vid=89ed3898-5787-41f0-8b05-9f68f5efd265"},"vehicle_type_id":"4","last_reported":1730787217,"current_range_meters":30400,"station_id":"ce4bgjp2rcd13ifvqbh0","pricing_plan_id":"cebpf4jnsgd1na2vs0mg"},{"bike_id":"2dd40e8a-347a-4069-9f04-901c41b0a3c7","system_id":"levelo_inurba_marseille","lat":43.32099,"lon":5.36776,"is_reserved":false,"is_disabled":false,"rental_uris":{"android":"levelo://app?vid=2dd40e8a-347a-4069-9f04-901c41b0a3c7","ios":"levelo://app?vid=2dd40e8a-347a-4069-9f04-901c41b0a3c7"},"vehicle_type_id":"4","last_reported":1730787217,"current_range_meters":37600,"station_id":"ce4bhrh2rcd13ifvqhug","pricing_plan_id":"cebpf4jnsgd1na2vs0mg"},{"bike_id":"55997e55-a382-466e-8f77-ed9e8d468b84","system_id":"levelo_inurba_marseille","lat":43.30419,"lon":5.41292,"is_reserved":false,"is_disabled":false,"rental_uris":{"android":"levelo://app?vid=55997e55-a382-466e-8f77-ed9e8d468b84","ios":"levelo://app?vid=55997e55-a382-466e-8f77-ed9e8d468b84"},"vehicle_type_id":"4","last_reported":1730787217,"current_range_meters":38800,"station_id":"ce4bhop2rcd13ifvqh8g","pricing_plan_id":"cebpf4jnsgd1na2vs0mg"},{"bike_id":"8377c6ae-db03-40cf-b6d8-e6a320e27281","system_id":"levelo_inurba_marseille","lat":43.30424,"lon":5.38889,"is_reserved":false,"is_disabled":false,"rental_uris":{"android":"levelo://app?vid=8377c6ae-db03-40cf-b6d8-e6a320e27281","ios":"levelo://app?vid=8377c6ae-db03-40cf-b6d8-e6a320e27281"},"vehicle_type_id":"4","last_reported":1730787217,"current_range_meters":38800,"station_id":"ce4bgk12rcd13ifvqbi0","pricing_plan_id":"cebpf4jnsgd1na2vs0mg"},{"bike_id":"dfda8b1c-5739-4d46-bcee-9938ea212ccb","system_id":"levelo_inurba_marseille","lat":43.28084,"lon":5.40668,"is_reserved":false,"is_disabled":false,"rental_uris":{"android":"levelo://app?vid=dfda8b1c-5739-4d46-bcee-9938ea212ccb","ios":"levelo://app?vid=dfda8b1c-5739-4d46-bcee-9938ea212ccb"},"vehicle_type_id":"4","last_reported":1730787217,"current_range_meters":25200,"station_id":"","pricing_plan_id":"cebpf4jnsgd1na2vs0mg"},{"bike_id":"6fc2326c-4cde-4ad0-9f66-cc0b4811ab5d","system_id":"levelo_inurba_marseille","lat":43.319954,"lon":5.381534,"is_reserved":false,"is_disabled":false,"rental_uris":{"android":"levelo://app?vid=6fc2326c-4cde-4ad0-9f66-cc0b4811ab5d","ios":"levelo://app?vid=6fc2326c-4cde-4ad0-9f66-cc0b4811ab5d"},"vehicle_type_id":"4","last_reported":1730787217,"current_range_meters":37600,"station_id":"ce4bhr12rcd13ifvqhpg","pricing_plan_id":"cebpf4jnsgd1na2vs0mg"},{"bike_id":"d22fb1b1-2550-4a1c-9826-b88923c7be78","system_id":"levelo_inurba_marseille","lat":43.308814,"lon":5.396385,"is_reserved":false,"is_disabled":false,"rental_uris":{"android":"levelo://app?vid=d22fb1b1-2550-4a1c-9826-b88923c7be78","ios":"levelo://app?vid=d22fb1b1-2550-4a1c-9826-b88923c7be78"},"vehicle_type_id":"4","last_reported":1730787217,"current_range_meters":19200,"station_id":"ce4bh012rcd13ifvqcv0","pricing_plan_id":"cebpf4jnsgd1na2vs0mg"},{"bike_id":"cb1bd95d-cf18-423c-b7c6-d1323760058d","system_id":"levelo_inurba_marseille","lat":43.2454,"lon":5.39522,"is_reserved":false,"is_disabled":false,"rental_uris":{"android":"levelo://app?vid=cb1bd95d-cf18-423c-b7c6-d1323760058d","ios":"levelo://app?vid=cb1bd95d-cf18-423c-b7c6-d1323760058d"},"vehicle_type_id":"4","last_reported":1730787217,"current_range_meters":18800,"station_id":"ce4bhlp2rcd13ifvqgjg","pricing_plan_id":"cebpf4jnsgd1na2vs0mg"},{"bike_id":"148ef324-e0ba-4f3f-a972-788a9d2d9cf2","system_id":"levelo_inurba_marseille","lat":43.287275,"lon":5.361004,"is_reserved":false,"is_disabled":false,"rental_uris":{"android":"levelo://app?vid=148ef324-e0ba-4f3f-a972-788a9d2d9cf2","ios":"levelo://app?vid=148ef324-e0ba-4f3f-a972-788a9d2d9cf2"},"vehicle_type_id":"4","last_reported":1730787217,"current_range_meters":38000,"station_id":"cki0cbj6b192h4jlfktg","pricing_plan_id":"cebpf4jnsgd1na2vs0mg"},{"bike_id":"7ddf4dd9-e8f9-4545-aaa1-ba04aaba824c","system_id":"levelo_inurba_marseille","lat":43.310747,"lon":5.383605,"is_reserved":false,"is_disabled":false,"rental_uris":{"android":"levelo://app?vid=7ddf4dd9-e8f9-4545-aaa1-ba04aaba824c","ios":"levelo://app?vid=7ddf4dd9-e8f9-4545-aaa1-ba04aaba824c"},"vehicle_type_id":"4","last_reported":1730787217,"current_range_meters":38800,"station_id":"ce4bgv92rcd13ifvqcr0","pricing_plan_id":"cebpf4jnsgd1na2vs0mg"},{"bike_id":"b0a0a404-93a0-4dc9-b1e0-d43f17c83d6c","system_id":"levelo_inurba_marseille","lat":43.30146,"lon":5.38086,"is_reserved":false,"is_disabled":false,"rental_uris":{"android":"levelo://app?vid=b0a0a404-93a0-4dc9-b1e0-d43f17c83d6c","ios":"levelo://app?vid=b0a0a404-93a0-4dc9-b1e0-d43f17c83d6c"},"vehicle_type_id":"4","last_reported":1730787217,"current_range_meters":36800,"station_id":"ce4bgjp2rcd13ifvqbh0","pricing_plan_id":"cebpf4jnsgd1na2vs0mg"},{"bike_id":"badab807-e6e8-41f4-b9de-bae487459ab8","system_id":"levelo_inurba_marseille","lat":43.27953,"lon":5.38715,"is_reserved":false,"is_disabled":false,"rental_uris":{"android":"levelo://app?vid=badab807-e6e8-41f4-b9de-bae487459ab8","ios":"levelo://app?vid=badab807-e6e8-41f4-b9de-bae487459ab8"},"vehicle_type_id":"4","last_reported":1730787217,"current_range_meters":38000,"station_id":"ce4bhg12rcd13ifvqf80","pricing_plan_id":"cebpf4jnsgd1na2vs0mg"},{"bike_id":"476b1032-3456-4e75-9225-7aec38b7121d","system_id":"levelo_inurba_marseille","lat":43.27813,"lon":5.40713,"is_reserved":false,"is_disabled":false,"rental_uris":{"android":"levelo://app?vid=476b1032-3456-4e75-9225-7aec38b7121d","ios":"levelo://app?vid=476b1032-3456-4e75-9225-7aec38b7121d"},"vehicle_type_id":"4","last_reported":1730787217,"current_range_meters":24400,"station_id":"ce4bhnh2rcd13ifvqgtg","pricing_plan_id":"cebpf4jnsgd1na2vs0mg"},{"bike_id":"bdde6b7b-ba8c-4d13-b147-d10426e579cd","system_id":"levelo_inurba_marseille","lat":43.31063,"lon":5.38339,"is_reserved":false,"is_disabled":false,"rental_uris":{"android":"levelo://app?vid=bdde6b7b-ba8c-4d13-b147-d10426e579cd","ios":"levelo://app?vid=bdde6b7b-ba8c-4d13-b147-d10426e579cd"},"vehicle_type_id":"4","last_reported":1730787217,"current_range_meters":38800,"station_id":"ce4bgv92rcd13ifvqcr0","pricing_plan_id":"cebpf4jnsgd1na2vs0mg"},{"bike_id":"9d764d20-b2dd-4da1-acae-03a5ed91a76d","system_id":"levelo_inurba_marseille","lat":43.2844,"lon":5.39184,"is_reserved":false,"is_disabled":false,"rental_uris":{"android":"levelo://app?vid=9d764d20-b2dd-4da1-acae-03a5ed91a76d","ios":"levelo://app?vid=9d764d20-b2dd-4da1-acae-03a5ed91a76d"},"vehicle_type_id":"4","last_reported":1730787217,"current_range_meters":34800,"station_id":"ce4bhoh2rcd13ifvqh5g","pricing_plan_id":"cebpf4jnsgd1na2vs0mg"},{"bike_id":"98ecf52e-74c6-45bc-a5b2-06c6ca5d158c","system_id":"levelo_inurba_marseille","lat":43.30909,"lon":5.36839,"is_reserved":false,"is_disabled":false,"rental_uris":{"android":"levelo://app?vid=98ecf52e-74c6-45bc-a5b2-06c6ca5d158c","ios":"levelo://app?vid=98ecf52e-74c6-45bc-a5b2-06c6ca5d158c"},"vehicle_type_id":"4","last_reported":1730787217,"current_range_meters":30800,"station_id":"ce4bgn92rcd13ifvqbvg","pricing_plan_id":"cebpf4jnsgd1na2vs0mg"},{"bike_id":"8b751894-1161-4d7b-a0e2-88850f36a102","system_id":"levelo_inurba_marseille","lat":43.31748,"lon":5.39018,"is_reserved":false,"is_disabled":false,"rental_uris":{"android":"levelo://app?vid=8b751894-1161-4d7b-a0e2-88850f36a102","ios":"levelo://app?vid=8b751894-1161-4d7b-a0e2-88850f36a102"},"vehicle_type_id":"4","last_reported":1730787217,"current_range_meters":38800,"station_id":"ce4bhqp2rcd13ifvqhng","pricing_plan_id":"cebpf4jnsgd1na2vs0mg"},{"bike_id":"3ef99431-3adb-46de-97da-821b1b9d3028","system_id":"levelo_inurba_marseille","lat":43.269411,"lon":5.402496,"is_reserved":false,"is_disabled":false,"rental_uris":{"android":"levelo://app?vid=3ef99431-3adb-46de-97da-821b1b9d3028","ios":"levelo://app?vid=3ef99431-3adb-46de-97da-821b1b9d3028"},"vehicle_type_id":"4","last_reported":1730787217,"current_range_meters":38000,"station_id":"cjm6bp8fraef2m0cb0m0","pricing_plan_id":"cebpf4jnsgd1na2vs0mg"},{"bike_id":"284a58f0-ac34-4623-8869-59696274e7c5","system_id":"levelo_inurba_marseille","lat":43.31064,"lon":5.38351,"is_reserved":false,"is_disabled":false,"rental_uris":{"android":"levelo://app?vid=284a58f0-ac34-4623-8869-59696274e7c5","ios":"levelo://app?vid=284a58f0-ac34-4623-8869-59696274e7c5"},"vehicle_type_id":"4","last_reported":1730787217,"current_range_meters":18800,"station_id":"ce4bgv92rcd13ifvqcr0","pricing_plan_id":"cebpf4jnsgd1na2vs0mg"},{"bike_id":"e99371b2-9ed2-4e9d-91f7-10d9ba9422d5","system_id":"levelo_inurba_marseille","lat":43.30925,"lon":5.40142,"is_reserved":false,"is_disabled":false,"rental_uris":{"android":"levelo://app?vid=e99371b2-9ed2-4e9d-91f7-10d9ba9422d5","ios":"levelo://app?vid=e99371b2-9ed2-4e9d-91f7-10d9ba9422d5"},"vehicle_type_id":"4","last_reported":1730787217,"current_range_meters":38800,"station_id":"ce4bgvp2rcd13ifvqct0","pricing_plan_id":"cebpf4jnsgd1na2vs0mg"},{"bike_id":"ee0f6b67-b360-47d4-b992-6d950adba1c0","system_id":"levelo_inurba_marseille","lat":43.30182,"lon":5.36618,"is_reserved":false,"is_disabled":false,"rental_uris":{"android":"levelo://app?vid=ee0f6b67-b360-47d4-b992-6d950adba1c0","ios":"levelo://app?vid=ee0f6b67-b360-47d4-b992-6d950adba1c0"},"vehicle_type_id":"4","last_reported":1730787217,"current_range_meters":38800,"station_id":"ce4bgrh2rcd13ifvqc8g","pricing_plan_id":"cebpf4jnsgd1na2vs0mg"},{"bike_id":"929c7aec-e50e-4913-9b20-0561368fd01a","system_id":"levelo_inurba_marseille","lat":43.303077,"lon":5.392283,"is_reserved":false,"is_disabled":false,"rental_uris":{"android":"levelo://app?vid=929c7aec-e50e-4913-9b20-0561368fd01a","ios":"levelo://app?vid=929c7aec-e50e-4913-9b20-0561368fd01a"},"vehicle_type_id":"4","last_reported":1730787217,"current_range_meters":37600,"station_id":"ce4bgvp2rcd13ifvqct0","pricing_plan_id":"cebpf4jnsgd1na2vs0mg"},{"bike_id":"ba8f5d9a-4861-4465-b828-23e2245ef053","system_id":"levelo_inurba_marseille","lat":43.23176,"lon":5.39978,"is_reserved":false,"is_disabled":false,"rental_uris":{"android":"levelo://app?vid=ba8f5d9a-4861-4465-b828-23e2245ef053","ios":"levelo://app?vid=ba8f5d9a-4861-4465-b828-23e2245ef053"},"vehicle_type_id":"4","last_reported":1730787217,"current_range_meters":39200,"station_id":"ce4bhn12rcd13ifvqgqg","pricing_plan_id":"cebpf4jnsgd1na2vs0mg"},{"bike_id":"41c7ebb4-dfef-4f40-97df-f9ead2472eea","system_id":"levelo_inurba_marseille","lat":43.30463,"lon":5.37896,"is_reserved":false,"is_disabled":false,"rental_uris":{"android":"levelo://app?vid=41c7ebb4-dfef-4f40-97df-f9ead2472eea","ios":"levelo://app?vid=41c7ebb4-dfef-4f40-97df-f9ead2472eea"},"vehicle_type_id":"4","last_reported":1730787217,"current_range_meters":32000,"station_id":"ce4bgup2rcd13ifvqcn0","pricing_plan_id":"cebpf4jnsgd1na2vs0mg"},{"bike_id":"5b8f46d2-0726-4a5f-a9c0-70430fa0502c","system_id":"levelo_inurba_marseille","lat":43.25825,"lon":5.3942,"is_reserved":false,"is_disabled":false,"rental_uris":{"android":"levelo://app?vid=5b8f46d2-0726-4a5f-a9c0-70430fa0502c","ios":"levelo://app?vid=5b8f46d2-0726-4a5f-a9c0-70430fa0502c"},"vehicle_type_id":"4","last_reported":1730787217,"current_range_meters":26800,"station_id":"ce4bhip2rcd13ifvqft0","pricing_plan_id":"cebpf4jnsgd1na2vs0mg"},{"bike_id":"6c78a033-e104-48bc-bb54-3615bf76d1ad","system_id":"levelo_inurba_marseille","lat":43.258706,"lon":5.39904,"is_reserved":false,"is_disabled":false,"rental_uris":{"android":"levelo://app?vid=6c78a033-e104-48bc-bb54-3615bf76d1ad","ios":"levelo://app?vid=6c78a033-e104-48bc-bb54-3615bf76d1ad"},"vehicle_type_id":"4","last_reported":1730787217,"current_range_meters":38000,"station_id":"ce4bhl92rcd13ifvqghg","pricing_plan_id":"cebpf4jnsgd1na2vs0mg"},{"bike_id":"022aec00-c426-420e-9a6f-708ccf99d121","system_id":"levelo_inurba_marseille","lat":43.25498,"lon":5.37654,"is_reserved":false,"is_disabled":false,"rental_uris":{"android":"levelo://app?vid=022aec00-c426-420e-9a6f-708ccf99d121","ios":"levelo://app?vid=022aec00-c426-420e-9a6f-708ccf99d121"},"vehicle_type_id":"4","last_reported":1730787217,"current_range_meters":36400,"station_id":"ce4bhh12rcd13ifvqff0","pricing_plan_id":"cebpf4jnsgd1na2vs0mg"},{"bike_id":"bda12d79-c31b-40f4-a5e1-49827fd9ca9c","system_id":"levelo_inurba_marseille","lat":43.29625,"lon":5.40601,"is_reserved":false,"is_disabled":false,"rental_uris":{"android":"levelo://app?vid=bda12d79-c31b-40f4-a5e1-49827fd9ca9c","ios":"levelo://app?vid=bda12d79-c31b-40f4-a5e1-49827fd9ca9c"},"vehicle_type_id":"4","last_reported":1730787217,"current_range_meters":23200,"station_id":"ce4bh0h2rcd13ifvqd60","pricing_plan_id":"cebpf4jnsgd1na2vs0mg"},{"bike_id":"7b4fe856-4dc7-41f6-b07c-6194ffb9d50b","system_id":"levelo_inurba_marseille","lat":43.25095,"lon":5.39523,"is_reserved":false,"is_disabled":false,"rental_uris":{"android":"levelo://app?vid=7b4fe856-4dc7-41f6-b07c-6194ffb9d50b","ios":"levelo://app?vid=7b4fe856-4dc7-41f6-b07c-6194ffb9d50b"},"vehicle_type_id":"4","last_reported":1730787217,"current_range_meters":36800,"station_id":"ce4bhm12rcd13ifvqgkg","pricing_plan_id":"cebpf4jnsgd1na2vs0mg"},{"bike_id":"4314c959-0960-488f-8a5e-47a2dcd21d56","system_id":"levelo_inurba_marseille","lat":43.31885,"lon":5.4072,"is_reserved":false,"is_disabled":false,"rental_uris":{"android":"levelo://app?vid=4314c959-0960-488f-8a5e-47a2dcd21d56","ios":"levelo://app?vid=4314c959-0960-488f-8a5e-47a2dcd21d56"},"vehicle_type_id":"4","last_reported":1730787217,"current_range_meters":37600,"station_id":"ce4bhq12rcd13ifvqhig","pricing_plan_id":"cebpf4jnsgd1na2vs0mg"},{"bike_id":"5d1708ee-ea56-470e-a759-d68052530c0f","system_id":"levelo_inurba_marseille","lat":43.30645,"lon":5.40078,"is_reserved":false,"is_disabled":false,"rental_uris":{"android":"levelo://app?vid=5d1708ee-ea56-470e-a759-d68052530c0f","ios":"levelo://app?vid=5d1708ee-ea56-470e-a759-d68052530c0f"},"vehicle_type_id":"4","last_reported":1730787217,"current_range_meters":38000,"station_id":"ce4bh112rcd13ifvqda0","pricing_plan_id":"cebpf4jnsgd1na2vs0mg"},{"bike_id":"beeef4e4-0d45-4dfa-9ccc-aedb2ce31115","system_id":"levelo_inurba_marseille","lat":43.32108,"lon":5.36777,"is_reserved":false,"is_disabled":false,"rental_uris":{"android":"levelo://app?vid=beeef4e4-0d45-4dfa-9ccc-aedb2ce31115","ios":"levelo://app?vid=beeef4e4-0d45-4dfa-9ccc-aedb2ce31115"},"vehicle_type_id":"4","last_reported":1730787217,"current_range_meters":27600,"station_id":"ce4bhrh2rcd13ifvqhug","pricing_plan_id":"cebpf4jnsgd1na2vs0mg"},{"bike_id":"1ea4c3c0-dbf4-4dab-b6f1-22e20d00b9a5","system_id":"levelo_inurba_marseille","lat":43.31161,"lon":5.38712,"is_reserved":false,"is_disabled":false,"rental_uris":{"android":"levelo://app?vid=1ea4c3c0-dbf4-4dab-b6f1-22e20d00b9a5","ios":"levelo://app?vid=1ea4c3c0-dbf4-4dab-b6f1-22e20d00b9a5"},"vehicle_type_id":"4","last_reported":1730787217,"current_range_meters":36000,"station_id":"ce4bgv12rcd13ifvqcp0","pricing_plan_id":"cebpf4jnsgd1na2vs0mg"},{"bike_id":"ff79eb82-e5d1-4036-b08a-6743cabbacce","system_id":"levelo_inurba_marseille","lat":43.32285,"lon":5.38275,"is_reserved":false,"is_disabled":false,"rental_uris":{"android":"levelo://app?vid=ff79eb82-e5d1-4036-b08a-6743cabbacce","ios":"levelo://app?vid=ff79eb82-e5d1-4036-b08a-6743cabbacce"},"vehicle_type_id":"4","last_reported":1730787217,"current_range_meters":11200,"station_id":"ce4bhr12rcd13ifvqhqg","pricing_plan_id":"cebpf4jnsgd1na2vs0mg"},{"bike_id":"176ff4e6-f708-4c06-812b-5b1de7ea63cb","system_id":"levelo_inurba_marseille","lat":43.2925,"lon":5.40911,"is_reserved":false,"is_disabled":false,"rental_uris":{"android":"levelo://app?vid=176ff4e6-f708-4c06-812b-5b1de7ea63cb","ios":"levelo://app?vid=176ff4e6-f708-4c06-812b-5b1de7ea63cb"},"vehicle_type_id":"4","last_reported":1730787217,"current_range_meters":38400,"station_id":"ce4bh192rcd13ifvqdc0","pricing_plan_id":"cebpf4jnsgd1na2vs0mg"},{"bike_id":"71721fe2-35d7-41f2-9225-983e1943836f","system_id":"levelo_inurba_marseille","lat":43.33758,"lon":5.37464,"is_reserved":false,"is_disabled":false,"rental_uris":{"android":"levelo://app?vid=71721fe2-35d7-41f2-9225-983e1943836f","ios":"levelo://app?vid=71721fe2-35d7-41f2-9225-983e1943836f"},"vehicle_type_id":"4","last_reported":1730787217,"current_range_meters":37600,"station_id":"","pricing_plan_id":"cebpf4jnsgd1na2vs0mg"},{"bike_id":"3efb82fc-c92d-4ec5-a741-2428a9896075","system_id":"levelo_inurba_marseille","lat":43.30143,"lon":5.38079,"is_reserved":false,"is_disabled":false,"rental_uris":{"android":"levelo://app?vid=3efb82fc-c92d-4ec5-a741-2428a9896075","ios":"levelo://app?vid=3efb82fc-c92d-4ec5-a741-2428a9896075"},"vehicle_type_id":"4","last_reported":1730787217,"current_range_meters":35600,"station_id":"ce4bgjp2rcd13ifvqbh0","pricing_plan_id":"cebpf4jnsgd1na2vs0mg"},{"bike_id":"6c895aa1-f856-4bb1-a39a-0580e4bdd6fe","system_id":"levelo_inurba_marseille","lat":43.31759,"lon":5.39015,"is_reserved":false,"is_disabled":false,"rental_uris":{"android":"levelo://app?vid=6c895aa1-f856-4bb1-a39a-0580e4bdd6fe","ios":"levelo://app?vid=6c895aa1-f856-4bb1-a39a-0580e4bdd6fe"},"vehicle_type_id":"4","last_reported":1730787217,"current_range_meters":38800,"station_id":"ce4bhqp2rcd13ifvqhng","pricing_plan_id":"cebpf4jnsgd1na2vs0mg"},{"bike_id":"697dd118-268c-406e-bad8-371dfe74ed47","system_id":"levelo_inurba_marseille","lat":43.31752,"lon":5.39022,"is_reserved":false,"is_disabled":false,"rental_uris":{"android":"levelo://app?vid=697dd118-268c-406e-bad8-371dfe74ed47","ios":"levelo://app?vid=697dd118-268c-406e-bad8-371dfe74ed47"},"vehicle_type_id":"4","last_reported":1730787217,"current_range_meters":35600,"station_id":"ce4bhqp2rcd13ifvqhng","pricing_plan_id":"cebpf4jnsgd1na2vs0mg"},{"bike_id":"cc6dacd3-4d41-4ba3-9ae7-c10a17bcccc1","system_id":"levelo_inurba_marseille","lat":43.27173,"lon":5.40987,"is_reserved":false,"is_disabled":false,"rental_uris":{"android":"levelo://app?vid=cc6dacd3-4d41-4ba3-9ae7-c10a17bcccc1","ios":"levelo://app?vid=cc6dacd3-4d41-4ba3-9ae7-c10a17bcccc1"},"vehicle_type_id":"4","last_reported":1730787217,"current_range_meters":35200,"station_id":"ce4bhl12rcd13ifvqgf0","pricing_plan_id":"cebpf4jnsgd1na2vs0mg"},{"bike_id":"cd6beada-9f09-4aef-8902-9ca2dfbf130c","system_id":"levelo_inurba_marseille","lat":43.32654,"lon":5.4099,"is_reserved":false,"is_disabled":false,"rental_uris":{"android":"levelo://app?vid=cd6beada-9f09-4aef-8902-9ca2dfbf130c","ios":"levelo://app?vid=cd6beada-9f09-4aef-8902-9ca2dfbf130c"},"vehicle_type_id":"4","last_reported":1730787217,"current_range_meters":38800,"station_id":"ce4bhpp2rcd13ifvqhgg","pricing_plan_id":"cebpf4jnsgd1na2vs0mg"},{"bike_id":"8d827c78-0176-46cb-8846-26b3afd0eebe","system_id":"levelo_inurba_marseille","lat":43.2847,"lon":5.38418,"is_reserved":false,"is_disabled":false,"rental_uris":{"android":"levelo://app?vid=8d827c78-0176-46cb-8846-26b3afd0eebe","ios":"levelo://app?vid=8d827c78-0176-46cb-8846-26b3afd0eebe"},"vehicle_type_id":"4","last_reported":1730787217,"current_range_meters":38800,"station_id":"ce4bh512rcd13ifvqe3g","pricing_plan_id":"cebpf4jnsgd1na2vs0mg"},{"bike_id":"fb55b91a-8e06-4813-8c4e-a864dbf76b47","system_id":"levelo_inurba_marseille","lat":43.28102,"lon":5.37845,"is_reserved":false,"is_disabled":false,"rental_uris":{"android":"levelo://app?vid=fb55b91a-8e06-4813-8c4e-a864dbf76b47","ios":"levelo://app?vid=fb55b91a-8e06-4813-8c4e-a864dbf76b47"},"vehicle_type_id":"4","last_reported":1730787217,"current_range_meters":25200,"station_id":"ce4bha12rcd13ifvqee0","pricing_plan_id":"cebpf4jnsgd1na2vs0mg"},{"bike_id":"ba0b5239-2f55-40e3-b795-58e5b6a45c54","system_id":"levelo_inurba_marseille","lat":43.30771,"lon":5.37658,"is_reserved":false,"is_disabled":false,"rental_uris":{"android":"levelo://app?vid=ba0b5239-2f55-40e3-b795-58e5b6a45c54","ios":"levelo://app?vid=ba0b5239-2f55-40e3-b795-58e5b6a45c54"},"vehicle_type_id":"4","last_reported":1730787217,"current_range_meters":38800,"station_id":"ce4bgv92rcd13ifvqcq0","pricing_plan_id":"cebpf4jnsgd1na2vs0mg"},{"bike_id":"2f3fb672-e693-4cd7-8835-965da134d65f","system_id":"levelo_inurba_marseille","lat":43.27664,"lon":5.38924,"is_reserved":false,"is_disabled":false,"rental_uris":{"android":"levelo://app?vid=2f3fb672-e693-4cd7-8835-965da134d65f","ios":"levelo://app?vid=2f3fb672-e693-4cd7-8835-965da134d65f"},"vehicle_type_id":"4","last_reported":1730787217,"current_range_meters":37600,"station_id":"ce4bhi12rcd13ifvqfo0","pricing_plan_id":"cebpf4jnsgd1na2vs0mg"},{"bike_id":"fb1e742f-426f-44b1-b969-49f4f93c2973","system_id":"levelo_inurba_marseille","lat":43.297896,"lon":5.393514,"is_reserved":false,"is_disabled":false,"rental_uris":{"android":"levelo://app?vid=fb1e742f-426f-44b1-b969-49f4f93c2973","ios":"levelo://app?vid=fb1e742f-426f-44b1-b969-49f4f93c2973"},"vehicle_type_id":"4","last_reported":1730787217,"current_range_meters":36000,"station_id":"chh1huq6cuj3fo74tm60","pricing_plan_id":"cebpf4jnsgd1na2vs0mg"},{"bike_id":"35db7418-caea-44fa-9677-10c75926c990","system_id":"levelo_inurba_marseille","lat":43.27815,"lon":5.40718,"is_reserved":false,"is_disabled":false,"rental_uris":{"android":"levelo://app?vid=35db7418-caea-44fa-9677-10c75926c990","ios":"levelo://app?vid=35db7418-caea-44fa-9677-10c75926c990"},"vehicle_type_id":"4","last_reported":1730787217,"current_range_meters":11200,"station_id":"ce4bhnh2rcd13ifvqgtg","pricing_plan_id":"cebpf4jnsgd1na2vs0mg"},{"bike_id":"6a504148-b0f4-49c7-a1f2-c54af128b877","system_id":"levelo_inurba_marseille","lat":43.28695,"lon":5.39981,"is_reserved":false,"is_disabled":false,"rental_uris":{"android":"levelo://app?vid=6a504148-b0f4-49c7-a1f2-c54af128b877","ios":"levelo://app?vid=6a504148-b0f4-49c7-a1f2-c54af128b877"},"vehicle_type_id":"4","last_reported":1730787217,"current_range_meters":38800,"station_id":"ce4bho92rcd13ifvqh3g","pricing_plan_id":"cebpf4jnsgd1na2vs0mg"},{"bike_id":"01f66810-1655-408b-9d69-c62fab5a7cc8","system_id":"levelo_inurba_marseille","lat":43.29781,"lon":5.39335,"is_reserved":false,"is_disabled":false,"rental_uris":{"android":"levelo://app?vid=01f66810-1655-408b-9d69-c62fab5a7cc8","ios":"levelo://app?vid=01f66810-1655-408b-9d69-c62fab5a7cc8"},"vehicle_type_id":"4","last_reported":1730787217,"current_range_meters":38800,"station_id":"chh1huq6cuj3fo74tm60","pricing_plan_id":"cebpf4jnsgd1na2vs0mg"},{"bike_id":"c8d6b91e-9129-4941-856b-f71b218a31c4","system_id":"levelo_inurba_marseille","lat":43.30264,"lon":5.37697,"is_reserved":false,"is_disabled":false,"rental_uris":{"android":"levelo://app?vid=c8d6b91e-9129-4941-856b-f71b218a31c4","ios":"levelo://app?vid=c8d6b91e-9129-4941-856b-f71b218a31c4"},"vehicle_type_id":"4","last_reported":1730787217,"current_range_meters":24000,"station_id":"ce4bguh2rcd13ifvqcj0","pricing_plan_id":"cebpf4jnsgd1na2vs0mg"},{"bike_id":"dc11fb10-7966-4c34-a425-c94a472bc4a8","system_id":"levelo_inurba_marseille","lat":43.27993,"lon":5.40025,"is_reserved":false,"is_disabled":false,"rental_uris":{"android":"levelo://app?vid=dc11fb10-7966-4c34-a425-c94a472bc4a8","ios":"levelo://app?vid=dc11fb10-7966-4c34-a425-c94a472bc4a8"},"vehicle_type_id":"4","last_reported":1730787217,"current_range_meters":38400,"station_id":"ce4bho92rcd13ifvqh4g","pricing_plan_id":"cebpf4jnsgd1na2vs0mg"},{"bike_id":"f9b32f09-4fc6-4fd8-a1d9-57184b69f3d3","system_id":"levelo_inurba_marseille","lat":43.30182,"lon":5.36607,"is_reserved":false,"is_disabled":false,"rental_uris":{"android":"levelo://app?vid=f9b32f09-4fc6-4fd8-a1d9-57184b69f3d3","ios":"levelo://app?vid=f9b32f09-4fc6-4fd8-a1d9-57184b69f3d3"},"vehicle_type_id":"4","last_reported":1730787217,"current_range_meters":36800,"station_id":"ce4bgrh2rcd13ifvqc8g","pricing_plan_id":"cebpf4jnsgd1na2vs0mg"},{"bike_id":"ba04515b-2530-4f99-bfe4-78243134c10b","system_id":"levelo_inurba_marseille","lat":43.280579,"lon":5.409851,"is_reserved":false,"is_disabled":false,"rental_uris":{"android":"levelo://app?vid=ba04515b-2530-4f99-bfe4-78243134c10b","ios":"levelo://app?vid=ba04515b-2530-4f99-bfe4-78243134c10b"},"vehicle_type_id":"4","last_reported":1730787217,"current_range_meters":33600,"station_id":"","pricing_plan_id":"cebpf4jnsgd1na2vs0mg"},{"bike_id":"5bfadea6-7d89-4a6d-bc5b-ce4b0131d5c6","system_id":"levelo_inurba_marseille","lat":43.28571,"lon":5.39504,"is_reserved":false,"is_disabled":false,"rental_uris":{"android":"levelo://app?vid=5bfadea6-7d89-4a6d-bc5b-ce4b0131d5c6","ios":"levelo://app?vid=5bfadea6-7d89-4a6d-bc5b-ce4b0131d5c6"},"vehicle_type_id":"4","last_reported":1730787217,"current_range_meters":38800,"station_id":"ce4bh292rcd13ifvqdg0","pricing_plan_id":"cebpf4jnsgd1na2vs0mg"},{"bike_id":"b92c6826-5b7b-4a41-9d69-f688549f0759","system_id":"levelo_inurba_marseille","lat":43.28154,"lon":5.42647,"is_reserved":false,"is_disabled":false,"rental_uris":{"android":"levelo://app?vid=b92c6826-5b7b-4a41-9d69-f688549f0759","ios":"levelo://app?vid=b92c6826-5b7b-4a41-9d69-f688549f0759"},"vehicle_type_id":"4","last_reported":1730787217,"current_range_meters":24800,"station_id":"ce4bhnh2rcd13ifvqgug","pricing_plan_id":"cebpf4jnsgd1na2vs0mg"},{"bike_id":"f6fac252-bcfe-4359-8cd8-84ee90eebb7d","system_id":"levelo_inurba_marseille","lat":43.30531,"lon":5.36546,"is_reserved":false,"is_disabled":false,"rental_uris":{"android":"levelo://app?vid=f6fac252-bcfe-4359-8cd8-84ee90eebb7d","ios":"levelo://app?vid=f6fac252-bcfe-4359-8cd8-84ee90eebb7d"},"vehicle_type_id":"4","last_reported":1730787217,"current_range_meters":28800,"station_id":"ce4bgs12rcd13ifvqcag","pricing_plan_id":"cebpf4jnsgd1na2vs0mg"},{"bike_id":"09ac0428-6880-4a09-853b-b68ce4705d42","system_id":"levelo_inurba_marseille","lat":43.25114,"lon":5.40316,"is_reserved":false,"is_disabled":false,"rental_uris":{"android":"levelo://app?vid=09ac0428-6880-4a09-853b-b68ce4705d42","ios":"levelo://app?vid=09ac0428-6880-4a09-853b-b68ce4705d42"},"vehicle_type_id":"4","last_reported":1730787217,"current_range_meters":5600,"station_id":"ce4bhlh2rcd13ifvqgig","pricing_plan_id":"cebpf4jnsgd1na2vs0mg"},{"bike_id":"660f9ab5-0ee6-45bd-9ba0-20f4579b8e99","system_id":"levelo_inurba_marseille","lat":43.33601,"lon":5.41015,"is_reserved":false,"is_disabled":false,"rental_uris":{"android":"levelo://app?vid=660f9ab5-0ee6-45bd-9ba0-20f4579b8e99","ios":"levelo://app?vid=660f9ab5-0ee6-45bd-9ba0-20f4579b8e99"},"vehicle_type_id":"4","last_reported":1730787217,"current_range_meters":38800,"station_id":"ce4bhqh2rcd13ifvqhmg","pricing_plan_id":"cebpf4jnsgd1na2vs0mg"},{"bike_id":"f8468474-05e6-4d87-b2a2-6dbc7fd5a4f3","system_id":"levelo_inurba_marseille","lat":43.27668,"lon":5.38901,"is_reserved":false,"is_disabled":false,"rental_uris":{"android":"levelo://app?vid=f8468474-05e6-4d87-b2a2-6dbc7fd5a4f3","ios":"levelo://app?vid=f8468474-05e6-4d87-b2a2-6dbc7fd5a4f3"},"vehicle_type_id":"4","last_reported":1730787217,"current_range_meters":4800,"station_id":"ce4bhi12rcd13ifvqfo0","pricing_plan_id":"cebpf4jnsgd1na2vs0mg"},{"bike_id":"061ef25d-4a75-45e6-8f0d-443c96029c69","system_id":"levelo_inurba_marseille","lat":43.26566,"lon":5.39009,"is_reserved":false,"is_disabled":false,"rental_uris":{"android":"levelo://app?vid=061ef25d-4a75-45e6-8f0d-443c96029c69","ios":"levelo://app?vid=061ef25d-4a75-45e6-8f0d-443c96029c69"},"vehicle_type_id":"4","last_reported":1730787217,"current_range_meters":28400,"station_id":"ce4bhe12rcd13ifvqf30","pricing_plan_id":"cebpf4jnsgd1na2vs0mg"},{"bike_id":"72e07d7d-d9a6-45f6-ad6b-c4a3ac02362f","system_id":"levelo_inurba_marseille","lat":43.29604,"lon":5.37721,"is_reserved":false,"is_disabled":false,"rental_uris":{"android":"levelo://app?vid=72e07d7d-d9a6-45f6-ad6b-c4a3ac02362f","ios":"levelo://app?vid=72e07d7d-d9a6-45f6-ad6b-c4a3ac02362f"},"vehicle_type_id":"4","last_reported":1730787217,"current_range_meters":35200,"station_id":"ce4bgi92rcd13ifvqb90","pricing_plan_id":"cebpf4jnsgd1na2vs0mg"},{"bike_id":"5fc9e1bd-0406-4ef1-8fbc-71d62631ecd1","system_id":"levelo_inurba_marseille","lat":43.29192,"lon":5.39322,"is_reserved":false,"is_disabled":false,"rental_uris":{"android":"levelo://app?vid=5fc9e1bd-0406-4ef1-8fbc-71d62631ecd1","ios":"levelo://app?vid=5fc9e1bd-0406-4ef1-8fbc-71d62631ecd1"},"vehicle_type_id":"4","last_reported":1730787217,"current_range_meters":20400,"station_id":"ce4bh192rcd13ifvqdd0","pricing_plan_id":"cebpf4jnsgd1na2vs0mg"},{"bike_id":"d844a569-2803-4908-ac9c-866a60aea8c4","system_id":"levelo_inurba_marseille","lat":43.2987,"lon":5.39742,"is_reserved":false,"is_disabled":false,"rental_uris":{"android":"levelo://app?vid=d844a569-2803-4908-ac9c-866a60aea8c4","ios":"levelo://app?vid=d844a569-2803-4908-ac9c-866a60aea8c4"},"vehicle_type_id":"4","last_reported":1730787217,"current_range_meters":39200,"station_id":"ce4bh0h2rcd13ifvqd50","pricing_plan_id":"cebpf4jnsgd1na2vs0mg"},{"bike_id":"32226b21-dbcc-474c-9004-398b3fdc8208","system_id":"levelo_inurba_marseille","lat":43.28463,"lon":5.35903,"is_reserved":false,"is_disabled":false,"rental_uris":{"android":"levelo://app?vid=32226b21-dbcc-474c-9004-398b3fdc8208","ios":"levelo://app?vid=32226b21-dbcc-474c-9004-398b3fdc8208"},"vehicle_type_id":"4","last_reported":1730787217,"current_range_meters":38800,"station_id":"ce4bhah2rcd13ifvqei0","pricing_plan_id":"cebpf4jnsgd1na2vs0mg"},{"bike_id":"06e0eef9-fe31-4959-ba0c-f1757f32cba7","system_id":"levelo_inurba_marseille","lat":43.31892,"lon":5.40728,"is_reserved":false,"is_disabled":false,"rental_uris":{"android":"levelo://app?vid=06e0eef9-fe31-4959-ba0c-f1757f32cba7","ios":"levelo://app?vid=06e0eef9-fe31-4959-ba0c-f1757f32cba7"},"vehicle_type_id":"4","last_reported":1730787217,"current_range_meters":29600,"station_id":"ce4bhq12rcd13ifvqhig","pricing_plan_id":"cebpf4jnsgd1na2vs0mg"},{"bike_id":"04db859c-1a0b-4c81-a2f7-31b4ae3426cc","system_id":"levelo_inurba_marseille","lat":43.312747,"lon":5.401727,"is_reserved":false,"is_disabled":false,"rental_uris":{"android":"levelo://app?vid=04db859c-1a0b-4c81-a2f7-31b4ae3426cc","ios":"levelo://app?vid=04db859c-1a0b-4c81-a2f7-31b4ae3426cc"},"vehicle_type_id":"4","last_reported":1730787217,"current_range_meters":28000,"station_id":"ce4bh092rcd13ifvqd30","pricing_plan_id":"cebpf4jnsgd1na2vs0mg"},{"bike_id":"d169fccc-2744-44e0-bab4-cffd1ec4c6f6","system_id":"levelo_inurba_marseille","lat":43.31361,"lon":5.38498,"is_reserved":false,"is_disabled":false,"rental_uris":{"android":"levelo://app?vid=d169fccc-2744-44e0-bab4-cffd1ec4c6f6","ios":"levelo://app?vid=d169fccc-2744-44e0-bab4-cffd1ec4c6f6"},"vehicle_type_id":"4","last_reported":1730787217,"current_range_meters":28400,"station_id":"ce4bgt92rcd13ifvqcf0","pricing_plan_id":"cebpf4jnsgd1na2vs0mg"},{"bike_id":"8e11a423-f1bd-46aa-b37b-5165df3156db","system_id":"levelo_inurba_marseille","lat":43.32336,"lon":5.40623,"is_reserved":false,"is_disabled":false,"rental_uris":{"android":"levelo://app?vid=8e11a423-f1bd-46aa-b37b-5165df3156db","ios":"levelo://app?vid=8e11a423-f1bd-46aa-b37b-5165df3156db"},"vehicle_type_id":"4","last_reported":1730787217,"current_range_meters":8400,"station_id":"ce4bhq92rcd13ifvqhjg","pricing_plan_id":"cebpf4jnsgd1na2vs0mg"},{"bike_id":"df806948-b99b-4e90-b181-e242a0931978","system_id":"levelo_inurba_marseille","lat":43.30146,"lon":5.38072,"is_reserved":false,"is_disabled":false,"rental_uris":{"android":"levelo://app?vid=df806948-b99b-4e90-b181-e242a0931978","ios":"levelo://app?vid=df806948-b99b-4e90-b181-e242a0931978"},"vehicle_type_id":"4","last_reported":1730787217,"current_range_meters":21600,"station_id":"ce4bgjp2rcd13ifvqbh0","pricing_plan_id":"cebpf4jnsgd1na2vs0mg"},{"bike_id":"823967de-5ba0-4689-8bf8-641b466fd8b1","system_id":"levelo_inurba_marseille","lat":43.231954,"lon":5.355566,"is_reserved":false,"is_disabled":false,"rental_uris":{"android":"levelo://app?vid=823967de-5ba0-4689-8bf8-641b466fd8b1","ios":"levelo://app?vid=823967de-5ba0-4689-8bf8-641b466fd8b1"},"vehicle_type_id":"4","last_reported":1730787217,"current_range_meters":38800,"station_id":"ce4bhu92rcd13ifvqi70","pricing_plan_id":"cebpf4jnsgd1na2vs0mg"},{"bike_id":"df2000e4-7ce1-46ba-980f-a90a63f2d7a2","system_id":"levelo_inurba_marseille","lat":43.29848,"lon":5.36283,"is_reserved":false,"is_disabled":false,"rental_uris":{"android":"levelo://app?vid=df2000e4-7ce1-46ba-980f-a90a63f2d7a2","ios":"levelo://app?vid=df2000e4-7ce1-46ba-980f-a90a63f2d7a2"},"vehicle_type_id":"4","last_reported":1730787217,"current_range_meters":38400,"station_id":"ce4bgpp2rcd13ifvqc3g","pricing_plan_id":"cebpf4jnsgd1na2vs0mg"},{"bike_id":"65557df6-2816-42b1-b18c-f4f90151d698","system_id":"levelo_inurba_marseille","lat":43.31363,"lon":5.38491,"is_reserved":false,"is_disabled":false,"rental_uris":{"android":"levelo://app?vid=65557df6-2816-42b1-b18c-f4f90151d698","ios":"levelo://app?vid=65557df6-2816-42b1-b18c-f4f90151d698"},"vehicle_type_id":"4","last_reported":1730787217,"current_range_meters":38800,"station_id":"ce4bgt92rcd13ifvqcf0","pricing_plan_id":"cebpf4jnsgd1na2vs0mg"},{"bike_id":"0961ec59-faa5-4758-a140-27591caba56f","system_id":"levelo_inurba_marseille","lat":43.27175,"lon":5.40995,"is_reserved":false,"is_disabled":false,"rental_uris":{"android":"levelo://app?vid=0961ec59-faa5-4758-a140-27591caba56f","ios":"levelo://app?vid=0961ec59-faa5-4758-a140-27591caba56f"},"vehicle_type_id":"4","last_reported":1730787217,"current_range_meters":38000,"station_id":"ce4bhl12rcd13ifvqgf0","pricing_plan_id":"cebpf4jnsgd1na2vs0mg"},{"bike_id":"1252ec32-0d22-4483-8127-23590df1d2a6","system_id":"levelo_inurba_marseille","lat":43.25728,"lon":5.41106,"is_reserved":false,"is_disabled":false,"rental_uris":{"android":"levelo://app?vid=1252ec32-0d22-4483-8127-23590df1d2a6","ios":"levelo://app?vid=1252ec32-0d22-4483-8127-23590df1d2a6"},"vehicle_type_id":"4","last_reported":1730787217,"current_range_meters":24400,"station_id":"ce4bhkp2rcd13ifvqgd0","pricing_plan_id":"cebpf4jnsgd1na2vs0mg"},{"bike_id":"371ed9b9-117f-4304-a294-be3251d3642c","system_id":"levelo_inurba_marseille","lat":43.31755,"lon":5.39019,"is_reserved":false,"is_disabled":false,"rental_uris":{"android":"levelo://app?vid=371ed9b9-117f-4304-a294-be3251d3642c","ios":"levelo://app?vid=371ed9b9-117f-4304-a294-be3251d3642c"},"vehicle_type_id":"4","last_reported":1730787217,"current_range_meters":27600,"station_id":"ce4bhqp2rcd13ifvqhng","pricing_plan_id":"cebpf4jnsgd1na2vs0mg"},{"bike_id":"ecc1794a-9cc4-47b8-bccd-f32a8e39134d","system_id":"levelo_inurba_marseille","lat":43.28153,"lon":5.42645,"is_reserved":false,"is_disabled":false,"rental_uris":{"android":"levelo://app?vid=ecc1794a-9cc4-47b8-bccd-f32a8e39134d","ios":"levelo://app?vid=ecc1794a-9cc4-47b8-bccd-f32a8e39134d"},"vehicle_type_id":"4","last_reported":1730787217,"current_range_meters":38000,"station_id":"ce4bhnh2rcd13ifvqgug","pricing_plan_id":"cebpf4jnsgd1na2vs0mg"},{"bike_id":"8cf7faf6-0469-433f-9709-c083cd1a81fa","system_id":"levelo_inurba_marseille","lat":43.31705,"lon":5.37738,"is_reserved":false,"is_disabled":false,"rental_uris":{"android":"levelo://app?vid=8cf7faf6-0469-433f-9709-c083cd1a81fa","ios":"levelo://app?vid=8cf7faf6-0469-433f-9709-c083cd1a81fa"},"vehicle_type_id":"4","last_reported":1730787217,"current_range_meters":24000,"station_id":"ce4bgth2rcd13ifvqch0","pricing_plan_id":"cebpf4jnsgd1na2vs0mg"},{"bike_id":"b97d231f-b06d-444f-93ba-90193ccee906","system_id":"levelo_inurba_marseille","lat":43.25081,"lon":5.39509,"is_reserved":false,"is_disabled":false,"rental_uris":{"android":"levelo://app?vid=b97d231f-b06d-444f-93ba-90193ccee906","ios":"levelo://app?vid=b97d231f-b06d-444f-93ba-90193ccee906"},"vehicle_type_id":"4","last_reported":1730787217,"current_range_meters":38000,"station_id":"ce4bhm12rcd13ifvqgkg","pricing_plan_id":"cebpf4jnsgd1na2vs0mg"},{"bike_id":"ed3cc475-9352-4500-9e2a-f8144dc4b6f1","system_id":"levelo_inurba_marseille","lat":43.33024,"lon":5.39048,"is_reserved":false,"is_disabled":false,"rental_uris":{"android":"levelo://app?vid=ed3cc475-9352-4500-9e2a-f8144dc4b6f1","ios":"levelo://app?vid=ed3cc475-9352-4500-9e2a-f8144dc4b6f1"},"vehicle_type_id":"4","last_reported":1730787217,"current_range_meters":38800,"station_id":"ce4bhr92rcd13ifvqhrg","pricing_plan_id":"cebpf4jnsgd1na2vs0mg"},{"bike_id":"53dc63e6-7e6b-4819-9f2e-9436cfeb9eb5","system_id":"levelo_inurba_marseille","lat":43.2572,"lon":5.41114,"is_reserved":false,"is_disabled":false,"rental_uris":{"android":"levelo://app?vid=53dc63e6-7e6b-4819-9f2e-9436cfeb9eb5","ios":"levelo://app?vid=53dc63e6-7e6b-4819-9f2e-9436cfeb9eb5"},"vehicle_type_id":"4","last_reported":1730787217,"current_range_meters":9600,"station_id":"ce4bhkp2rcd13ifvqgd0","pricing_plan_id":"cebpf4jnsgd1na2vs0mg"},{"bike_id":"683d5dbe-5bd3-40ba-ae6e-0a3d7f949763","system_id":"levelo_inurba_marseille","lat":43.27981,"lon":5.38748,"is_reserved":false,"is_disabled":false,"rental_uris":{"android":"levelo://app?vid=683d5dbe-5bd3-40ba-ae6e-0a3d7f949763","ios":"levelo://app?vid=683d5dbe-5bd3-40ba-ae6e-0a3d7f949763"},"vehicle_type_id":"4","last_reported":1730787217,"current_range_meters":18000,"station_id":"ce4bhg12rcd13ifvqf80","pricing_plan_id":"cebpf4jnsgd1na2vs0mg"},{"bike_id":"a6b470c9-d823-44bc-baa3-d9eb5e2efbd3","system_id":"levelo_inurba_marseille","lat":43.28154,"lon":5.42637,"is_reserved":false,"is_disabled":false,"rental_uris":{"android":"levelo://app?vid=a6b470c9-d823-44bc-baa3-d9eb5e2efbd3","ios":"levelo://app?vid=a6b470c9-d823-44bc-baa3-d9eb5e2efbd3"},"vehicle_type_id":"4","last_reported":1730787217,"current_range_meters":7200,"station_id":"ce4bhnh2rcd13ifvqgug","pricing_plan_id":"cebpf4jnsgd1na2vs0mg"},{"bike_id":"47777ef0-ae72-45a5-9a07-ba48e982d3c9","system_id":"levelo_inurba_marseille","lat":43.31115,"lon":5.37759,"is_reserved":false,"is_disabled":false,"rental_uris":{"android":"levelo://app?vid=47777ef0-ae72-45a5-9a07-ba48e982d3c9","ios":"levelo://app?vid=47777ef0-ae72-45a5-9a07-ba48e982d3c9"},"vehicle_type_id":"4","last_reported":1730787217,"current_range_meters":35600,"station_id":"ce4bgt92rcd13ifvqcg0","pricing_plan_id":"cebpf4jnsgd1na2vs0mg"},{"bike_id":"b1f93a0a-e88e-42f4-95e7-84ac59091667","system_id":"levelo_inurba_marseille","lat":43.28667,"lon":5.38667,"is_reserved":false,"is_disabled":false,"rental_uris":{"android":"levelo://app?vid=b1f93a0a-e88e-42f4-95e7-84ac59091667","ios":"levelo://app?vid=b1f93a0a-e88e-42f4-95e7-84ac59091667"},"vehicle_type_id":"4","last_reported":1730787217,"current_range_meters":34800,"station_id":"ce4bh492rcd13ifvqdug","pricing_plan_id":"cebpf4jnsgd1na2vs0mg"},{"bike_id":"7a58136c-3165-4313-8fac-2c364b399752","system_id":"levelo_inurba_marseille","lat":43.33726,"lon":5.39191,"is_reserved":false,"is_disabled":false,"rental_uris":{"android":"levelo://app?vid=7a58136c-3165-4313-8fac-2c364b399752","ios":"levelo://app?vid=7a58136c-3165-4313-8fac-2c364b399752"},"vehicle_type_id":"4","last_reported":1730787217,"current_range_meters":24800,"station_id":"ce4bhr92rcd13ifvqhsg","pricing_plan_id":"cebpf4jnsgd1na2vs0mg"},{"bike_id":"a422d3ad-87b5-492e-ad8f-69176f6bde58","system_id":"levelo_inurba_marseille","lat":43.30421,"lon":5.38884,"is_reserved":false,"is_disabled":false,"rental_uris":{"android":"levelo://app?vid=a422d3ad-87b5-492e-ad8f-69176f6bde58","ios":"levelo://app?vid=a422d3ad-87b5-492e-ad8f-69176f6bde58"},"vehicle_type_id":"4","last_reported":1730787217,"current_range_meters":9600,"station_id":"ce4bgk12rcd13ifvqbi0","pricing_plan_id":"cebpf4jnsgd1na2vs0mg"},{"bike_id":"c864c025-b3b0-4077-aaf8-410eaac1ccba","system_id":"levelo_inurba_marseille","lat":43.2985,"lon":5.36289,"is_reserved":false,"is_disabled":false,"rental_uris":{"android":"levelo://app?vid=c864c025-b3b0-4077-aaf8-410eaac1ccba","ios":"levelo://app?vid=c864c025-b3b0-4077-aaf8-410eaac1ccba"},"vehicle_type_id":"4","last_reported":1730787217,"current_range_meters":16400,"station_id":"ce4bgpp2rcd13ifvqc3g","pricing_plan_id":"cebpf4jnsgd1na2vs0mg"},{"bike_id":"4c84d495-66d8-488c-81e6-cc5e295383d8","system_id":"levelo_inurba_marseille","lat":43.29572,"lon":5.39979,"is_reserved":false,"is_disabled":false,"rental_uris":{"android":"levelo://app?vid=4c84d495-66d8-488c-81e6-cc5e295383d8","ios":"levelo://app?vid=4c84d495-66d8-488c-81e6-cc5e295383d8"},"vehicle_type_id":"4","last_reported":1730787217,"current_range_meters":26000,"station_id":"ce4bh312rcd13ifvqdj0","pricing_plan_id":"cebpf4jnsgd1na2vs0mg"},{"bike_id":"d53b57e5-6868-433d-b990-24fcbe41bcf1","system_id":"levelo_inurba_marseille","lat":43.2756,"lon":5.38422,"is_reserved":false,"is_disabled":false,"rental_uris":{"android":"levelo://app?vid=d53b57e5-6868-433d-b990-24fcbe41bcf1","ios":"levelo://app?vid=d53b57e5-6868-433d-b990-24fcbe41bcf1"},"vehicle_type_id":"4","last_reported":1730787217,"current_range_meters":38800,"station_id":"ce4bhh92rcd13ifvqfi0","pricing_plan_id":"cebpf4jnsgd1na2vs0mg"},{"bike_id":"0a3a5c05-ca94-4423-bfea-a67474fe094c","system_id":"levelo_inurba_marseille","lat":43.32471,"lon":5.36574,"is_reserved":false,"is_disabled":false,"rental_uris":{"android":"levelo://app?vid=0a3a5c05-ca94-4423-bfea-a67474fe094c","ios":"levelo://app?vid=0a3a5c05-ca94-4423-bfea-a67474fe094c"},"vehicle_type_id":"4","last_reported":1730787217,"current_range_meters":24400,"station_id":"ce4bhs12rcd13ifvqhvg","pricing_plan_id":"cebpf4jnsgd1na2vs0mg"},{"bike_id":"d3934863-c047-4a19-ab63-74520fa03ac8","system_id":"levelo_inurba_marseille","lat":43.30455,"lon":5.37898,"is_reserved":false,"is_disabled":false,"rental_uris":{"android":"levelo://app?vid=d3934863-c047-4a19-ab63-74520fa03ac8","ios":"levelo://app?vid=d3934863-c047-4a19-ab63-74520fa03ac8"},"vehicle_type_id":"4","last_reported":1730787217,"current_range_meters":32800,"station_id":"ce4bgup2rcd13ifvqcn0","pricing_plan_id":"cebpf4jnsgd1na2vs0mg"},{"bike_id":"b592aa30-9f80-4f5b-a0ff-da2be38dcc1f","system_id":"levelo_inurba_marseille","lat":43.32108,"lon":5.36774,"is_reserved":false,"is_disabled":false,"rental_uris":{"android":"levelo://app?vid=b592aa30-9f80-4f5b-a0ff-da2be38dcc1f","ios":"levelo://app?vid=b592aa30-9f80-4f5b-a0ff-da2be38dcc1f"},"vehicle_type_id":"4","last_reported":1730787217,"current_range_meters":38800,"station_id":"ce4bhrh2rcd13ifvqhug","pricing_plan_id":"cebpf4jnsgd1na2vs0mg"},{"bike_id":"47cc15c7-290c-452f-9b34-25e3332d28c3","system_id":"levelo_inurba_marseille","lat":43.30143,"lon":5.38085,"is_reserved":false,"is_disabled":false,"rental_uris":{"android":"levelo://app?vid=47cc15c7-290c-452f-9b34-25e3332d28c3","ios":"levelo://app?vid=47cc15c7-290c-452f-9b34-25e3332d28c3"},"vehicle_type_id":"4","last_reported":1730787217,"current_range_meters":13600,"station_id":"ce4bgjp2rcd13ifvqbh0","pricing_plan_id":"cebpf4jnsgd1na2vs0mg"},{"bike_id":"993abc75-e41c-4629-a65d-a2dc69f1709d","system_id":"levelo_inurba_marseille","lat":43.31719,"lon":5.42413,"is_reserved":false,"is_disabled":false,"rental_uris":{"android":"levelo://app?vid=993abc75-e41c-4629-a65d-a2dc69f1709d","ios":"levelo://app?vid=993abc75-e41c-4629-a65d-a2dc69f1709d"},"vehicle_type_id":"4","last_reported":1730787217,"current_range_meters":37600,"station_id":"ce4bhp92rcd13ifvqhbg","pricing_plan_id":"cebpf4jnsgd1na2vs0mg"},{"bike_id":"eab47ed5-f83a-4939-80d1-ff052743bdd1","system_id":"levelo_inurba_marseille","lat":43.3211,"lon":5.36774,"is_reserved":false,"is_disabled":false,"rental_uris":{"android":"levelo://app?vid=eab47ed5-f83a-4939-80d1-ff052743bdd1","ios":"levelo://app?vid=eab47ed5-f83a-4939-80d1-ff052743bdd1"},"vehicle_type_id":"4","last_reported":1730787217,"current_range_meters":32400,"station_id":"ce4bhrh2rcd13ifvqhug","pricing_plan_id":"cebpf4jnsgd1na2vs0mg"},{"bike_id":"787ae20d-554f-44ac-9043-a08cc660d9cd","system_id":"levelo_inurba_marseille","lat":43.30197,"lon":5.39472,"is_reserved":false,"is_disabled":false,"rental_uris":{"android":"levelo://app?vid=787ae20d-554f-44ac-9043-a08cc660d9cd","ios":"levelo://app?vid=787ae20d-554f-44ac-9043-a08cc660d9cd"},"vehicle_type_id":"4","last_reported":1730787217,"current_range_meters":37600,"station_id":"ce4bh0p2rcd13ifvqd70","pricing_plan_id":"cebpf4jnsgd1na2vs0mg"},{"bike_id":"a0be6000-a8f5-4b39-a1ab-df18f1dd4304","system_id":"levelo_inurba_marseille","lat":43.28348,"lon":5.38102,"is_reserved":false,"is_disabled":false,"rental_uris":{"android":"levelo://app?vid=a0be6000-a8f5-4b39-a1ab-df18f1dd4304","ios":"levelo://app?vid=a0be6000-a8f5-4b39-a1ab-df18f1dd4304"},"vehicle_type_id":"4","last_reported":1730787217,"current_range_meters":38000,"station_id":"ce4bh412rcd13ifvqdr0","pricing_plan_id":"cebpf4jnsgd1na2vs0mg"},{"bike_id":"97e5936c-17cb-43fa-be90-55830ac8bc88","system_id":"levelo_inurba_marseille","lat":43.30416,"lon":5.39748,"is_reserved":false,"is_disabled":false,"rental_uris":{"android":"levelo://app?vid=97e5936c-17cb-43fa-be90-55830ac8bc88","ios":"levelo://app?vid=97e5936c-17cb-43fa-be90-55830ac8bc88"},"vehicle_type_id":"4","last_reported":1730787217,"current_range_meters":38400,"station_id":"ce4bh092rcd13ifvqd20","pricing_plan_id":"cebpf4jnsgd1na2vs0mg"},{"bike_id":"5b041e65-a357-4f5f-8060-dee3ef26553f","system_id":"levelo_inurba_marseille","lat":43.262119,"lon":5.379243,"is_reserved":false,"is_disabled":false,"rental_uris":{"android":"levelo://app?vid=5b041e65-a357-4f5f-8060-dee3ef26553f","ios":"levelo://app?vid=5b041e65-a357-4f5f-8060-dee3ef26553f"},"vehicle_type_id":"4","last_reported":1730787217,"current_range_meters":26800,"station_id":"ce4bhjp2rcd13ifvqg90","pricing_plan_id":"cebpf4jnsgd1na2vs0mg"},{"bike_id":"02dbcd6c-8390-4265-bdef-38c0c6b3b526","system_id":"levelo_inurba_marseille","lat":43.26061,"lon":5.39399,"is_reserved":false,"is_disabled":false,"rental_uris":{"android":"levelo://app?vid=02dbcd6c-8390-4265-bdef-38c0c6b3b526","ios":"levelo://app?vid=02dbcd6c-8390-4265-bdef-38c0c6b3b526"},"vehicle_type_id":"4","last_reported":1730787217,"current_range_meters":39200,"station_id":"ce4bhh92rcd13ifvqfj0","pricing_plan_id":"cebpf4jnsgd1na2vs0mg"},{"bike_id":"0e57e0ef-f90b-4a93-85f9-79e0dbde4494","system_id":"levelo_inurba_marseille","lat":43.2795,"lon":5.41044,"is_reserved":false,"is_disabled":false,"rental_uris":{"android":"levelo://app?vid=0e57e0ef-f90b-4a93-85f9-79e0dbde4494","ios":"levelo://app?vid=0e57e0ef-f90b-4a93-85f9-79e0dbde4494"},"vehicle_type_id":"4","last_reported":1730787217,"current_range_meters":36800,"station_id":"ce4bhnp2rcd13ifvqh0g","pricing_plan_id":"cebpf4jnsgd1na2vs0mg"},{"bike_id":"eeb6fa2a-003b-4e78-b5b2-99abb33a724d","system_id":"levelo_inurba_marseille","lat":43.29571,"lon":5.39977,"is_reserved":false,"is_disabled":false,"rental_uris":{"android":"levelo://app?vid=eeb6fa2a-003b-4e78-b5b2-99abb33a724d","ios":"levelo://app?vid=eeb6fa2a-003b-4e78-b5b2-99abb33a724d"},"vehicle_type_id":"4","last_reported":1730787217,"current_range_meters":38400,"station_id":"ce4bh312rcd13ifvqdj0","pricing_plan_id":"cebpf4jnsgd1na2vs0mg"},{"bike_id":"ce8e5906-0d4f-4085-a6e2-c7f244080cc6","system_id":"levelo_inurba_marseille","lat":43.32285,"lon":5.38279,"is_reserved":false,"is_disabled":false,"rental_uris":{"android":"levelo://app?vid=ce8e5906-0d4f-4085-a6e2-c7f244080cc6","ios":"levelo://app?vid=ce8e5906-0d4f-4085-a6e2-c7f244080cc6"},"vehicle_type_id":"4","last_reported":1730787217,"current_range_meters":38800,"station_id":"ce4bhr12rcd13ifvqhqg","pricing_plan_id":"cebpf4jnsgd1na2vs0mg"},{"bike_id":"9b3d9d15-fefa-43f7-9d77-d2f964f7c759","system_id":"levelo_inurba_marseille","lat":43.279939,"lon":5.400151,"is_reserved":false,"is_disabled":false,"rental_uris":{"android":"levelo://app?vid=9b3d9d15-fefa-43f7-9d77-d2f964f7c759","ios":"levelo://app?vid=9b3d9d15-fefa-43f7-9d77-d2f964f7c759"},"vehicle_type_id":"4","last_reported":1730787217,"current_range_meters":37600,"station_id":"ce4bho92rcd13ifvqh4g","pricing_plan_id":"cebpf4jnsgd1na2vs0mg"},{"bike_id":"6c6f793a-b4ae-48da-ab03-1e7093a0eced","system_id":"levelo_inurba_marseille","lat":43.285681,"lon":5.395073,"is_reserved":false,"is_disabled":false,"rental_uris":{"android":"levelo://app?vid=6c6f793a-b4ae-48da-ab03-1e7093a0eced","ios":"levelo://app?vid=6c6f793a-b4ae-48da-ab03-1e7093a0eced"},"vehicle_type_id":"4","last_reported":1730787217,"current_range_meters":38800,"station_id":"ce4bh292rcd13ifvqdg0","pricing_plan_id":"cebpf4jnsgd1na2vs0mg"},{"bike_id":"452b828a-64c1-4795-814d-e8164a5b9a59","system_id":"levelo_inurba_marseille","lat":43.26685,"lon":5.38272,"is_reserved":false,"is_disabled":false,"rental_uris":{"android":"levelo://app?vid=452b828a-64c1-4795-814d-e8164a5b9a59","ios":"levelo://app?vid=452b828a-64c1-4795-814d-e8164a5b9a59"},"vehicle_type_id":"4","last_reported":1730787217,"current_range_meters":37600,"station_id":"ce4bhg92rcd13ifvqf90","pricing_plan_id":"cebpf4jnsgd1na2vs0mg"},{"bike_id":"061af2b2-d26c-4fd5-bc63-3604d8d8b438","system_id":"levelo_inurba_marseille","lat":43.26799,"lon":5.40252,"is_reserved":false,"is_disabled":false,"rental_uris":{"android":"levelo://app?vid=061af2b2-d26c-4fd5-bc63-3604d8d8b438","ios":"levelo://app?vid=061af2b2-d26c-4fd5-bc63-3604d8d8b438"},"vehicle_type_id":"4","last_reported":1730787217,"current_range_meters":24000,"station_id":"ce501612rcd8frsf0b60","pricing_plan_id":"cebpf4jnsgd1na2vs0mg"},{"bike_id":"f642fed0-5cd4-4c99-948e-e675a013e199","system_id":"levelo_inurba_marseille","lat":43.251147,"lon":5.403104,"is_reserved":false,"is_disabled":false,"rental_uris":{"android":"levelo://app?vid=f642fed0-5cd4-4c99-948e-e675a013e199","ios":"levelo://app?vid=f642fed0-5cd4-4c99-948e-e675a013e199"},"vehicle_type_id":"4","last_reported":1730787217,"current_range_meters":19200,"station_id":"ce4bhhp2rcd13ifvqfm0","pricing_plan_id":"cebpf4jnsgd1na2vs0mg"},