{"last_updated":1727331226,"ttl":60,"version":"2.2","data":{"bikes":[{"bike_id":"f82c8257-bab0-4d5a-b202-1064bb5dc194","system_id":"levelo_inurba_marseille","lat":43.27076,"lon":5.42277,"is_reserved":false,"is_disabled":false,"rental_uris":{"android":"levelo://app?vid=f82c8257-bab0-4d5a-b202-1064bb5dc194","ios":"levelo://app?vid=f82c8257-bab0-4d5a-b202-1064bb5dc194"},"vehicle_type_id":"4","last_reported":1727331226,"current_range_meters":12800,"station_id":"ce4bhk92rcd13ifvqgb0","pricing_plan_id":"cebpf4jnsgd1na2vs0mg"},{"bike_id":"92e85b81-a2b3-49b9-a91e-7ca1870438f4","system_id":"levelo_inurba_marseille","lat":43.29417,"lon":5.38637,"is_reserved":false,"is_disabled":false,"rental_uris":{"android":"levelo://app?vid=92e85b81-a2b3-49b9-a91e-7ca1870438f4","ios":"levelo://app?vid=92e85b81-a2b3-49b9-a91e-7ca1870438f4"},"vehicle_type_id":"4","last_reported":1727331226,"current_range_meters":38400,"station_id":"ce4bh2h2rcd13ifvqdh0","pricing_plan_id":"cebpf4jnsgd1na2vs0mg"},{"bike_id":"d1bad64d-f6a6-49af-8aa2-13d87bccfeb8","system_id":"levelo_inurba_marseille","lat":43.28701,"lon":5.37377,"is_reserved":false,"is_disabled":false,"rental_uris":{"android":"levelo://app?vid=d1bad64d-f6a6-49af-8aa2-13d87bccfeb8","ios":"levelo://app?vid=d1bad64d-f6a6-49af-8aa2-13d87bccfeb8"},"vehicle_type_id":"4","last_reported":1727331226,"current_range_meters":38800,"station_id":"ce4bh3p2rcd13ifvqdq0","pricing_plan_id":"cebpf4jnsgd1na2vs0mg"},{"bike_id":"74d68aab-dcd1-4d0a-976e-418b8bad0fdd","system_id":"levelo_inurba_marseille","lat":43.23151,"lon":5.43698,"is_reserved":false,"is_disabled":false,"rental_uris":{"android":"levelo://app?vid=74d68aab-dcd1-4d0a-976e-418b8bad0fdd","ios":"levelo://app?vid=74d68aab-dcd1-4d0a-976e-418b8bad0fdd"},"vehicle_type_id":"4","last_reported":1727331226,"current_range_meters":38800,"station_id":"ce4bhmp2rcd13ifvqgog","pricing_plan_id":"cebpf4jnsgd1na2vs0mg"},{"bike_id":"6867a5cc-3719-43a0-a0a1-1af2b8b70384","system_id":"levelo_inurba_marseille","lat":43.30475,"lon":5.37897,"is_reserved":false,"is_disabled":false,"rental_uris":{"android":"levelo://app?vid=6867a5cc-3719-43a0-a0a1-1af2b8b70384","ios":"levelo://app?vid=6867a5cc-3719-43a0-a0a1-1af2b8b70384"},"vehicle_type_id":"4","last_reported":1727331226,"current_range_meters":33600,"station_id":"ce4bgup2rcd13ifvqcn0","pricing_plan_id":"cebpf4jnsgd1na2vs0mg"},{"bike_id":"00016f13-b63c-43ff-ab5f-39da0fc9f78a","system_id":"levelo_inurba_marseille","lat":43.28465,"lon":5.35912,"is_reserved":false,"is_disabled":false,"rental_uris":{"android":"levelo://app?vid=00016f13-b63c-43ff-ab5f-39da0fc9f78a","ios":"levelo://app?vid=00016f13-b63c-43ff-ab5f-39da0fc9f78a"},"vehicle_type_id":"4","last_reported":1727331226,"current_range_meters":30800,"station_id":"ce4bhah2rcd13ifvqei0","pricing_plan_id":"cebpf4jnsgd1na2vs0mg"},{"bike_id":"f2d346e2-35ed-4bb7-ae46-f1e76162498b","system_id":"levelo_inurba_marseille","lat":43.24081,"lon":5.37753,"is_reserved":false,"is_disabled":false,"rental_uris":{"android":"levelo://app?vid=f2d346e2-35ed-4bb7-ae46-f1e76162498b","ios":"levelo://app?vid=f2d346e2-35ed-4bb7-ae46-f1e76162498b"},"vehicle_type_id":"4","last_reported":1727331226,"current_range_meters":34800,"station_id":"ce4bhnp2rcd13ifvqgvg","pricing_plan_id":"cebpf4jnsgd1na2vs0mg"},{"bike_id":"b23afdd4-2489-41c0-b1ad-5711f3898380","system_id":"levelo_inurba_marseille","lat":43.30953,"lon":5.39037,"is_reserved":false,"is_disabled":false,"rental_uris":{"android":"levelo://app?vid=b23afdd4-2489-41c0-b1ad-5711f3898380","ios":"levelo://app?vid=b23afdd4-2489-41c0-b1ad-5711f3898380"},"vehicle_type_id":"4","last_reported":1727331226,"current_range_meters":39200,"station_id":"ce4bgup2rcd13ifvqco0","pricing_plan_id":"cebpf4jnsgd1na2vs0mg"},{"bike_id":"40ec5bfa-1b9f-4e34-8561-543b16e14199","system_id":"levelo_inurba_marseille","lat":43.27496,"lon":5.42449,"is_reserved":false,"is_disabled":false,"rental_uris":{"android":"levelo://app?vid=40ec5bfa-1b9f-4e34-8561-543b16e14199","ios":"levelo://app?vid=40ec5bfa-1b9f-4e34-8561-543b16e14199"},"vehicle_type_id":"4","last_reported":1727331226,"current_range_meters":25200,"station_id":"ce4bhn92rcd13ifvqgrg","pricing_plan_id":"cebpf4jnsgd1na2vs0mg"},{"bike_id":"44a2d35f-38ea-4d8d-ba35-77fea9fcbb32","system_id":"levelo_inurba_marseille","lat":43.30471,"lon":5.37911,"is_reserved":false,"is_disabled":false,"rental_uris":{"android":"levelo://app?vid=44a2d35f-38ea-4d8d-ba35-77fea9fcbb32","ios":"levelo://app?vid=44a2d35f-38ea-4d8d-ba35-77fea9fcbb32"},"vehicle_type_id":"4","last_reported":1727331226,"current_range_meters":19200,"station_id":"ce4bgup2rcd13ifvqcn0","pricing_plan_id":"cebpf4jnsgd1na2vs0mg"},{"bike_id":"c3dc0bfd-1047-4800-8b7c-7d8cb2ac491b","system_id":"levelo_inurba_marseille","lat":43.31118,"lon":5.37766,"is_reserved":false,"is_disabled":false,"rental_uris":{"android":"levelo://app?vid=c3dc0bfd-1047-4800-8b7c-7d8cb2ac491b","ios":"levelo://app?vid=c3dc0bfd-1047-4800-8b7c-7d8cb2ac491b"},"vehicle_type_id":"4","last_reported":1727331226,"current_range_meters":10000,"station_id":"ce4bgt92rcd13ifvqcg0","pricing_plan_id":"cebpf4jnsgd1na2vs0mg"},{"bike_id":"52725028-155c-4fee-8c0b-2f494a9c0537","system_id":"levelo_inurba_marseille","lat":43.24806,"lon":5.37455,"is_reserved":false,"is_disabled":false,"rental_uris":{"android":"levelo://app?vid=52725028-155c-4fee-8c0b-2f494a9c0537","ios":"levelo://app?vid=52725028-155c-4fee-8c0b-2f494a9c0537"},"vehicle_type_id":"4","last_reported":1727331226,"current_range_meters":8400,"station_id":"ce4bhgh2rcd13ifvqfb0","pricing_plan_id":"cebpf4jnsgd1na2vs0mg"},{"bike_id":"45eba069-19b2-45c4-a67b-478acc0442e0","system_id":"levelo_inurba_marseille","lat":43.326599,"lon":5.409917,"is_reserved":false,"is_disabled":false,"rental_uris":{"android":"levelo://app?vid=45eba069-19b2-45c4-a67b-478acc0442e0","ios":"levelo://app?vid=45eba069-19b2-45c4-a67b-478acc0442e0"},"vehicle_type_id":"4","last_reported":1727331226,"current_range_meters":38400,"station_id":"ce4bhpp2rcd13ifvqhgg","pricing_plan_id":"cebpf4jnsgd1na2vs0mg"},{"bike_id":"eb965b44-7547-4d6c-8d03-5439b5c3f4a8","system_id":"levelo_inurba_marseille","lat":43.27496,"lon":5.42451,"is_reserved":false,"is_disabled":false,"rental_uris":{"android":"levelo://app?vid=eb965b44-7547-4d6c-8d03-5439b5c3f4a8","ios":"levelo://app?vid=eb965b44-7547-4d6c-8d03-5439b5c3f4a8"},"vehicle_type_id":"4","last_reported":1727331226,"current_range_meters":12800,"station_id":"ce4bhn92rcd13ifvqgrg","pricing_plan_id":"cebpf4jnsgd1na2vs0mg"},{"bike_id":"8298fecb-9a85-4a11-83d0-d54bdeab5de5","system_id":"levelo_inurba_marseille","lat":43.27074,"lon":5.42278,"is_reserved":false,"is_disabled":false,"rental_uris":{"android":"levelo://app?vid=8298fecb-9a85-4a11-83d0-d54bdeab5de5","ios":"levelo://app?vid=8298fecb-9a85-4a11-83d0-d54bdeab5de5"},"vehicle_type_id":"4","last_reported":1727331226,"current_range_meters":6400,"station_id":"ce4bhk92rcd13ifvqgb0","pricing_plan_id":"cebpf4jnsgd1na2vs0mg"},{"bike_id":"818eb369-4c70-42e8-b04d-afc706498bad","system_id":"levelo_inurba_marseille","lat":43.30279,"lon":5.37717,"is_reserved":false,"is_disabled":false,"rental_uris":{"android":"levelo://app?vid=818eb369-4c70-42e8-b04d-afc706498bad","ios":"levelo://app?vid=818eb369-4c70-42e8-b04d-afc706498bad"},"vehicle_type_id":"4","last_reported":1727331226,"current_range_meters":29600,"station_id":"ce4bguh2rcd13ifvqcj0","pricing_plan_id":"cebpf4jnsgd1na2vs0mg"},{"bike_id":"9fa4f99d-a411-4ef4-b6c8-d9fd7e40a915","system_id":"levelo_inurba_marseille","lat":43.23196,"lon":5.35544,"is_reserved":false,"is_disabled":false,"rental_uris":{"android":"levelo://app?vid=9fa4f99d-a411-4ef4-b6c8-d9fd7e40a915","ios":"levelo://app?vid=9fa4f99d-a411-4ef4-b6c8-d9fd7e40a915"},"vehicle_type_id":"4","last_reported":1727331226,"current_range_meters":28000,"station_id":"ce4bhu92rcd13ifvqi70","pricing_plan_id":"cebpf4jnsgd1na2vs0mg"},{"bike_id":"18dcc2de-6658-4930-a51b-2c944671767f","system_id":"levelo_inurba_marseille","lat":43.31348,"lon":5.36703,"is_reserved":false,"is_disabled":false,"rental_uris":{"android":"levelo://app?vid=18dcc2de-6658-4930-a51b-2c944671767f","ios":"levelo://app?vid=18dcc2de-6658-4930-a51b-2c944671767f"},"vehicle_type_id":"4","last_reported":1727331226,"current_range_meters":30400,"station_id":"ce4bgr92rcd13ifvqc6g","pricing_plan_id":"cebpf4jnsgd1na2vs0mg"},{"bike_id":"6f81454f-c6f2-4c20-86c3-cce455ad9812","system_id":"levelo_inurba_marseille","lat":43.26849,"lon":5.4038,"is_reserved":false,"is_disabled":false,"rental_uris":{"android":"levelo://app?vid=6f81454f-c6f2-4c20-86c3-cce455ad9812","ios":"levelo://app?vid=6f81454f-c6f2-4c20-86c3-cce455ad9812"},"vehicle_type_id":"4","last_reported":1727331226,"current_range_meters":4400,"station_id":"","pricing_plan_id":"cebpf4jnsgd1na2vs0mg"},{"bike_id":"a9ba3092-17c4-421d-b796-dec734f23b44","system_id":"levelo_inurba_marseille","lat":43.30953,"lon":5.39074,"is_reserved":false,"is_disabled":false,"rental_uris":{"android":"levelo://app?vid=a9ba3092-17c4-421d-b796-dec734f23b44","ios":"levelo://app?vid=a9ba3092-17c4-421d-b796-dec734f23b44"},"vehicle_type_id":"4","last_reported":1727331226,"current_range_meters":38800,"station_id":"ce4bgup2rcd13ifvqco0","pricing_plan_id":"cebpf4jnsgd1na2vs0mg"},{"bike_id":"73d2d7a1-cf6f-4e52-99a9-81ba936188ef","system_id":"levelo_inurba_marseille","lat":43.28156,"lon":5.42647,"is_reserved":false,"is_disabled":false,"rental_uris":{"android":"levelo://app?vid=73d2d7a1-cf6f-4e52-99a9-81ba936188ef","ios":"levelo://app?vid=73d2d7a1-cf6f-4e52-99a9-81ba936188ef"},"vehicle_type_id":"4","last_reported":1727331226,"current_range_meters":6800,"station_id":"ce4bhnh2rcd13ifvqgug","pricing_plan_id":"cebpf4jnsgd1na2vs0mg"},{"bike_id":"271a01c9-c794-449b-b61c-0d6394359f0b","system_id":"levelo_inurba_marseille","lat":43.257235,"lon":5.384959,"is_reserved":false,"is_disabled":false,"rental_uris":{"android":"levelo://app?vid=271a01c9-c794-449b-b61c-0d6394359f0b","ios":"levelo://app?vid=271a01c9-c794-449b-b61c-0d6394359f0b"},"vehicle_type_id":"4","last_reported":1727331226,"current_range_meters":20000,"station_id":"","pricing_plan_id":"cebpf4jnsgd1na2vs0mg"},{"bike_id":"90f01120-67fa-4ef1-b4c3-3c9f7df17fa0","system_id":"levelo_inurba_marseille","lat":43.30156,"lon":5.38075,"is_reserved":false,"is_disabled":false,"rental_uris":{"android":"levelo://app?vid=90f01120-67fa-4ef1-b4c3-3c9f7df17fa0","ios":"levelo://app?vid=90f01120-67fa-4ef1-b4c3-3c9f7df17fa0"},"vehicle_type_id":"4","last_reported":1727331226,"current_range_meters":33600,"station_id":"ce4bgjp2rcd13ifvqbh0","pricing_plan_id":"cebpf4jnsgd1na2vs0mg"},{"bike_id":"4369b364-046d-4780-976d-5e200827cbc4","system_id":"levelo_inurba_marseille","lat":43.27491,"lon":5.42448,"is_reserved":false,"is_disabled":false,"rental_uris":{"android":"levelo://app?vid=4369b364-046d-4780-976d-5e200827cbc4","ios":"levelo://app?vid=4369b364-046d-4780-976d-5e200827cbc4"},"vehicle_type_id":"4","last_reported":1727331226,"current_range_meters":38400,"station_id":"ce4bhn92rcd13ifvqgrg","pricing_plan_id":"cebpf4jnsgd1na2vs0mg"},{"bike_id":"79742e59-9a50-46be-8ac2-5a56b4b153b8","system_id":"levelo_inurba_marseille","lat":43.27497,"lon":5.42451,"is_reserved":false,"is_disabled":false,"rental_uris":{"android":"levelo://app?vid=79742e59-9a50-46be-8ac2-5a56b4b153b8","ios":"levelo://app?vid=79742e59-9a50-46be-8ac2-5a56b4b153b8"},"vehicle_type_id":"4","last_reported":1727331226,"current_range_meters":32000,"station_id":"ce4bhn92rcd13ifvqgrg","pricing_plan_id":"cebpf4jnsgd1na2vs0mg"},{"bike_id":"d15781c6-ec12-487d-aa87-f2539a4a4e16","system_id":"levelo_inurba_marseille","lat":43.30466,"lon":5.37902,"is_reserved":false,"is_disabled":false,"rental_uris":{"android":"levelo://app?vid=d15781c6-ec12-487d-aa87-f2539a4a4e16","ios":"levelo://app?vid=d15781c6-ec12-487d-aa87-f2539a4a4e16"},"vehicle_type_id":"4","last_reported":1727331226,"current_range_meters":32000,"station_id":"ce4bgup2rcd13ifvqcn0","pricing_plan_id":"cebpf4jnsgd1na2vs0mg"},{"bike_id":"8f8dacb8-6dcb-4759-a64f-b83f5109a5b9","system_id":"levelo_inurba_marseille","lat":43.30791,"lon":5.37656,"is_reserved":false,"is_disabled":false,"rental_uris":{"android":"levelo://app?vid=8f8dacb8-6dcb-4759-a64f-b83f5109a5b9","ios":"levelo://app?vid=8f8dacb8-6dcb-4759-a64f-b83f5109a5b9"},"vehicle_type_id":"4","last_reported":1727331226,"current_range_meters":36000,"station_id":"ce4bgv92rcd13ifvqcq0","pricing_plan_id":"cebpf4jnsgd1na2vs0mg"},{"bike_id":"7737b815-6daf-41f0-8354-4b28ba75917f","system_id":"levelo_inurba_marseille","lat":43.30205,"lon":5.39819,"is_reserved":false,"is_disabled":false,"rental_uris":{"android":"levelo://app?vid=7737b815-6daf-41f0-8354-4b28ba75917f","ios":"levelo://app?vid=7737b815-6daf-41f0-8354-4b28ba75917f"},"vehicle_type_id":"4","last_reported":1727331226,"current_range_meters":12800,"station_id":"ce4bgvp2rcd13ifvqct0","pricing_plan_id":"cebpf4jnsgd1na2vs0mg"},{"bike_id":"55ea95e7-3f62-4a7a-9a93-f260a871c40e","system_id":"levelo_inurba_marseille","lat":43.30608,"lon":5.39345,"is_reserved":false,"is_disabled":false,"rental_uris":{"android":"levelo://app?vid=55ea95e7-3f62-4a7a-9a93-f260a871c40e","ios":"levelo://app?vid=55ea95e7-3f62-4a7a-9a93-f260a871c40e"},"vehicle_type_id":"4","last_reported":1727331226,"current_range_meters":32400,"station_id":"ce4bh0p2rcd13ifvqd80","pricing_plan_id":"cebpf4jnsgd1na2vs0mg"},{"bike_id":"379d63ca-2f4e-4723-ada2-e0ac6c8bd9b2","system_id":"levelo_inurba_marseille","lat":43.24077,"lon":5.37758,"is_reserved":false,"is_disabled":false,"rental_uris":{"android":"levelo://app?vid=379d63ca-2f4e-4723-ada2-e0ac6c8bd9b2","ios":"levelo://app?vid=379d63ca-2f4e-4723-ada2-e0ac6c8bd9b2"},"vehicle_type_id":"4","last_reported":1727331226,"current_range_meters":16000,"station_id":"ce4bhnp2rcd13ifvqgvg","pricing_plan_id":"cebpf4jnsgd1na2vs0mg"},{"bike_id":"3109b08e-97cb-47e0-ba01-1d18ed43f231","system_id":"levelo_inurba_marseille","lat":43.26032,"lon":5.37551,"is_reserved":false,"is_disabled":false,"rental_uris":{"android":"levelo://app?vid=3109b08e-97cb-47e0-ba01-1d18ed43f231","ios":"levelo://app?vid=3109b08e-97cb-47e0-ba01-1d18ed43f231"},"vehicle_type_id":"4","last_reported":1727331226,"current_range_meters":38800,"station_id":"ce4bhgh2rcd13ifvqfa0","pricing_plan_id":"cebpf4jnsgd1na2vs0mg"},{"bike_id":"a6ceaa53-b040-4bed-a5a4-04e99e38d93e","system_id":"levelo_inurba_marseille","lat":43.25718,"lon":5.41117,"is_reserved":false,"is_disabled":false,"rental_uris":{"android":"levelo://app?vid=a6ceaa53-b040-4bed-a5a4-04e99e38d93e","ios":"levelo://app?vid=a6ceaa53-b040-4bed-a5a4-04e99e38d93e"},"vehicle_type_id":"4","last_reported":1727331226,"current_range_meters":11600,"station_id":"ce4bhkp2rcd13ifvqgd0","pricing_plan_id":"cebpf4jnsgd1na2vs0mg"},{"bike_id":"e8d09b65-3c7d-461d-8529-b1f6ed6c796b","system_id":"levelo_inurba_marseille","lat":43.28276,"lon":5.37913,"is_reserved":false,"is_disabled":false,"rental_uris":{"android":"levelo://app?vid=e8d09b65-3c7d-461d-8529-b1f6ed6c796b","ios":"levelo://app?vid=e8d09b65-3c7d-461d-8529-b1f6ed6c796b"},"vehicle_type_id":"4","last_reported":1727331226,"current_range_meters":38800,"station_id":"ce4bh412rcd13ifvqdr0","pricing_plan_id":"cebpf4jnsgd1na2vs0mg"},{"bike_id":"a30a4121-b133-411e-8896-f4c02e84586f","system_id":"levelo_inurba_marseille","lat":43.30602,"lon":5.393477,"is_reserved":false,"is_disabled":false,"rental_uris":{"android":"levelo://app?vid=a30a4121-b133-411e-8896-f4c02e84586f","ios":"levelo://app?vid=a30a4121-b133-411e-8896-f4c02e84586f"},"vehicle_type_id":"4","last_reported":1727331226,"current_range_meters":28400,"station_id":"ce4bh0p2rcd13ifvqd80","pricing_plan_id":"cebpf4jnsgd1na2vs0mg"},{"bike_id":"ec81901e-49ac-4988-8c09-ffc5b2eb2ea2","system_id":"levelo_inurba_marseille","lat":43.28002,"lon":5.40009,"is_reserved":false,"is_disabled":false,"rental_uris":{"android":"levelo://app?vid=ec81901e-49ac-4988-8c09-ffc5b2eb2ea2","ios":"levelo://app?vid=ec81901e-49ac-4988-8c09-ffc5b2eb2ea2"},"vehicle_type_id":"4","last_reported":1727331226,"current_range_meters":20400,"station_id":"ce4bho92rcd13ifvqh4g","pricing_plan_id":"cebpf4jnsgd1na2vs0mg"},{"bike_id":"dab37bf3-4a86-4251-b6a1-c4d272e4ea4d","system_id":"levelo_inurba_marseille","lat":43.33606,"lon":5.41028,"is_reserved":false,"is_disabled":false,"rental_uris":{"android":"levelo://app?vid=dab37bf3-4a86-4251-b6a1-c4d272e4ea4d","ios":"levelo://app?vid=dab37bf3-4a86-4251-b6a1-c4d272e4ea4d"},"vehicle_type_id":"4","last_reported":1727331226,"current_range_meters":38800,"station_id":"ce4bhqh2rcd13ifvqhmg","pricing_plan_id":"cebpf4jnsgd1na2vs0mg"},{"bike_id":"ede609f3-73c9-48c0-9297-561a9b09ac98","system_id":"levelo_inurba_marseille","lat":43.30656,"lon":5.40078,"is_reserved":false,"is_disabled":false,"rental_uris":{"android":"levelo://app?vid=ede609f3-73c9-48c0-9297-561a9b09ac98","ios":"levelo://app?vid=ede609f3-73c9-48c0-9297-561a9b09ac98"},"vehicle_type_id":"4","last_reported":1727331226,"current_range_meters":38800,"station_id":"ce4bh112rcd13ifvqda0","pricing_plan_id":"cebpf4jnsgd1na2vs0mg"},{"bike_id":"b3408936-130d-4b8f-8c15-4043d758b202","system_id":"levelo_inurba_marseille","lat":43.30652,"lon":5.40065,"is_reserved":false,"is_disabled":false,"rental_uris":{"android":"levelo://app?vid=b3408936-130d-4b8f-8c15-4043d758b202","ios":"levelo://app?vid=b3408936-130d-4b8f-8c15-4043d758b202"},"vehicle_type_id":"4","last_reported":1727331226,"current_range_meters":38800,"station_id":"ce4bh112rcd13ifvqda0","pricing_plan_id":"cebpf4jnsgd1na2vs0mg"},{"bike_id":"8bb9320a-442f-4a64-9057-cd5ec3a8c2a3","system_id":"levelo_inurba_marseille","lat":43.28954,"lon":5.36401,"is_reserved":false,"is_disabled":false,"rental_uris":{"android":"levelo://app?vid=8bb9320a-442f-4a64-9057-cd5ec3a8c2a3","ios":"levelo://app?vid=8bb9320a-442f-4a64-9057-cd5ec3a8c2a3"},"vehicle_type_id":"4","last_reported":1727331226,"current_range_meters":36400,"station_id":"ce4bhc92rcd13ifvqetg","pricing_plan_id":"cebpf4jnsgd1na2vs0mg"},{"bike_id":"7a8458d5-44ac-4f2e-abef-3f01eb31f7ca","system_id":"levelo_inurba_marseille","lat":43.337444,"lon":5.374475,"is_reserved":false,"is_disabled":false,"rental_uris":{"android":"levelo://app?vid=7a8458d5-44ac-4f2e-abef-3f01eb31f7ca","ios":"levelo://app?vid=7a8458d5-44ac-4f2e-abef-3f01eb31f7ca"},"vehicle_type_id":"4","last_reported":1727331226,"current_range_meters":22400,"station_id":"","pricing_plan_id":"cebpf4jnsgd1na2vs0mg"},{"bike_id":"41b9a237-ad2d-4e20-9ddd-a0e26c3d5a88","system_id":"levelo_inurba_marseille","lat":43.31194,"lon":5.3871,"is_reserved":false,"is_disabled":false,"rental_uris":{"android":"levelo://app?vid=41b9a237-ad2d-4e20-9ddd-a0e26c3d5a88","ios":"levelo://app?vid=41b9a237-ad2d-4e20-9ddd-a0e26c3d5a88"},"vehicle_type_id":"4","last_reported":1727331226,"current_range_meters":24000,"station_id":"ce4bgv12rcd13ifvqcp0","pricing_plan_id":"cebpf4jnsgd1na2vs0mg"},{"bike_id":"ff0c5e03-2479-48b3-b2c7-06f44fc95697","system_id":"levelo_inurba_marseille","lat":43.28956,"lon":5.36392,"is_reserved":false,"is_disabled":false,"rental_uris":{"android":"levelo://app?vid=ff0c5e03-2479-48b3-b2c7-06f44fc95697","ios":"levelo://app?vid=ff0c5e03-2479-48b3-b2c7-06f44fc95697"},"vehicle_type_id":"4","last_reported":1727331226,"current_range_meters":18800,"station_id":"ce4bhc92rcd13ifvqetg","pricing_plan_id":"cebpf4jnsgd1na2vs0mg"},{"bike_id":"59233330-600d-4e2b-84c8-7ab9dfe26a1f","system_id":"levelo_inurba_marseille","lat":43.2465,"lon":5.38897,"is_reserved":false,"is_disabled":false,"rental_uris":{"android":"levelo://app?vid=59233330-600d-4e2b-84c8-7ab9dfe26a1f","ios":"levelo://app?vid=59233330-600d-4e2b-84c8-7ab9dfe26a1f"},"vehicle_type_id":"4","last_reported":1727331226,"current_range_meters":38800,"station_id":"ce4bhg12rcd13ifvqf60","pricing_plan_id":"cebpf4jnsgd1na2vs0mg"},{"bike_id":"117e0b61-b742-4df4-88b0-87390698a8fa","system_id":"levelo_inurba_marseille","lat":43.28472,"lon":5.35864,"is_reserved":false,"is_disabled":false,"rental_uris":{"android":"levelo://app?vid=117e0b61-b742-4df4-88b0-87390698a8fa","ios":"levelo://app?vid=117e0b61-b742-4df4-88b0-87390698a8fa"},"vehicle_type_id":"4","last_reported":1727331226,"current_range_meters":38400,"station_id":"ce4bhah2rcd13ifvqei0","pricing_plan_id":"cebpf4jnsgd1na2vs0mg"},{"bike_id":"13ed2806-0100-4d07-a2d5-d6e3f0fa1a81","system_id":"levelo_inurba_marseille","lat":43.31501,"lon":5.37306,"is_reserved":false,"is_disabled":false,"rental_uris":{"android":"levelo://app?vid=13ed2806-0100-4d07-a2d5-d6e3f0fa1a81","ios":"levelo://app?vid=13ed2806-0100-4d07-a2d5-d6e3f0fa1a81"},"vehicle_type_id":"4","last_reported":1727331226,"current_range_meters":28800,"station_id":"ce4bgt12rcd13ifvqcd0","pricing_plan_id":"cebpf4jnsgd1na2vs0mg"},{"bike_id":"1641169f-2609-48fc-9fa8-62b9cffac069","system_id":"levelo_inurba_marseille","lat":43.312653,"lon":5.401603,"is_reserved":false,"is_disabled":false,"rental_uris":{"android":"levelo://app?vid=1641169f-2609-48fc-9fa8-62b9cffac069","ios":"levelo://app?vid=1641169f-2609-48fc-9fa8-62b9cffac069"},"vehicle_type_id":"4","last_reported":1727331226,"current_range_meters":36800,"station_id":"ce4bgs12rcd13ifvqcag","pricing_plan_id":"cebpf4jnsgd1na2vs0mg"},{"bike_id":"ed9d69a6-a921-4251-b073-fdfe53c8cdc2","system_id":"levelo_inurba_marseille","lat":43.24078,"lon":5.37755,"is_reserved":false,"is_disabled":false,"rental_uris":{"android":"levelo://app?vid=ed9d69a6-a921-4251-b073-fdfe53c8cdc2","ios":"levelo://app?vid=ed9d69a6-a921-4251-b073-fdfe53c8cdc2"},"vehicle_type_id":"4","last_reported":1727331226,"current_range_meters":36800,"station_id":"ce4bhnp2rcd13ifvqgvg","pricing_plan_id":"cebpf4jnsgd1na2vs0mg"},{"bike_id":"d162aab3-be10-4904-bc7f-276c85e185c1","system_id":"levelo_inurba_marseille","lat":43.30539,"lon":5.38421,"is_reserved":false,"is_disabled":false,"rental_uris":{"android":"levelo://app?vid=d162aab3-be10-4904-bc7f-276c85e185c1","ios":"levelo://app?vid=d162aab3-be10-4904-bc7f-276c85e185c1"},"vehicle_type_id":"4","last_reported":1727331226,"current_range_meters":30400,"station_id":"ce4bgg92rcd13ifvqb30","pricing_plan_id":"cebpf4jnsgd1na2vs0mg"},{"bike_id":"f4f5d47c-d42c-411c-b9ac-69893cddc8e1","system_id":"levelo_inurba_marseille","lat":43.280815,"lon":5.367005,"is_reserved":false,"is_disabled":false,"rental_uris":{"android":"levelo://app?vid=f4f5d47c-d42c-411c-b9ac-69893cddc8e1","ios":"levelo://app?vid=f4f5d47c-d42c-411c-b9ac-69893cddc8e1"},"vehicle_type_id":"4","last_reported":1727331226,"current_range_meters":4800,"station_id":"ce4bha12rcd13ifvqef0","pricing_plan_id":"cebpf4jnsgd1na2vs0mg"},{"bike_id":"9d073943-f5f8-4878-a9c1-9cd044e25bbe","system_id":"levelo_inurba_marseille","lat":43.23153,"lon":5.43709,"is_reserved":false,"is_disabled":false,"rental_uris":{"android":"levelo://app?vid=9d073943-f5f8-4878-a9c1-9cd044e25bbe","ios":"levelo://app?vid=9d073943-f5f8-4878-a9c1-9cd044e25bbe"},"vehicle_type_id":"4","last_reported":1727331226,"current_range_meters":20800,"station_id":"ce4bhmp2rcd13ifvqgog","pricing_plan_id":"cebpf4jnsgd1na2vs0mg"},{"bike_id":"6ce78276-8ec0-4d60-a72c-c0fc9ac59e97","system_id":"levelo_inurba_marseille","lat":43.24574,"lon":5.37436,"is_reserved":false,"is_disabled":false,"rental_uris":{"android":"levelo://app?vid=6ce78276-8ec0-4d60-a72c-c0fc9ac59e97","ios":"levelo://app?vid=6ce78276-8ec0-4d60-a72c-c0fc9ac59e97"},"vehicle_type_id":"4","last_reported":1727331226,"current_range_meters":36400,"station_id":"","pricing_plan_id":"cebpf4jnsgd1na2vs0mg"},{"bike_id":"fb4ce12c-6e5d-4cc9-a4e0-1a25a4e0f004","system_id":"levelo_inurba_marseille","lat":43.305262,"lon":5.366099,"is_reserved":false,"is_disabled":false,"rental_uris":{"android":"levelo://app?vid=fb4ce12c-6e5d-4cc9-a4e0-1a25a4e0f004","ios":"levelo://app?vid=fb4ce12c-6e5d-4cc9-a4e0-1a25a4e0f004"},"vehicle_type_id":"4","last_reported":1727331226,"current_range_meters":24800,"station_id":"ce4bgs12rcd13ifvqcag","pricing_plan_id":"cebpf4jnsgd1na2vs0mg"},{"bike_id":"3a705eee-12a8-4d5e-a9d9-cb2026320587","system_id":"levelo_inurba_marseille","lat":43.2696,"lon":5.38629,"is_reserved":false,"is_disabled":false,"rental_uris":{"android":"levelo://app?vid=3a705eee-12a8-4d5e-a9d9-cb2026320587","ios":"levelo://app?vid=3a705eee-12a8-4d5e-a9d9-cb2026320587"},"vehicle_type_id":"4","last_reported":1727331226,"current_range_meters":36400,"station_id":"ce4bhh92rcd13ifvqfh0","pricing_plan_id":"cebpf4jnsgd1na2vs0mg"},{"bike_id":"e0321300-37ad-4bce-a17c-4bf73cb9114f","system_id":"levelo_inurba_marseille","lat":43.29902,"lon":5.43658,"is_reserved":false,"is_disabled":false,"rental_uris":{"android":"levelo://app?vid=e0321300-37ad-4bce-a17c-4bf73cb9114f","ios":"levelo://app?vid=e0321300-37ad-4bce-a17c-4bf73cb9114f"},"vehicle_type_id":"4","last_reported":1727331226,"current_range_meters":36400,"station_id":"ce4bhpp2rcd13ifvqhfg","pricing_plan_id":"cebpf4jnsgd1na2vs0mg"},{"bike_id":"fb8dbcb4-f3ca-4dc2-8469-db6b421828f0","system_id":"levelo_inurba_marseille","lat":43.30566,"lon":5.36693,"is_reserved":false,"is_disabled":false,"rental_uris":{"android":"levelo://app?vid=fb8dbcb4-f3ca-4dc2-8469-db6b421828f0","ios":"levelo://app?vid=fb8dbcb4-f3ca-4dc2-8469-db6b421828f0"},"vehicle_type_id":"4","last_reported":1727331226,"current_range_meters":32000,"station_id":"ce4bgrp2rcd13ifvqc9g","pricing_plan_id":"cebpf4jnsgd1na2vs0mg"},{"bike_id":"5998edb1-c12b-4b6e-8439-caa5c7c173af","system_id":"levelo_inurba_marseille","lat":43.26955,"lon":5.38623,"is_reserved":false,"is_disabled":false,"rental_uris":{"android":"levelo://app?vid=5998edb1-c12b-4b6e-8439-caa5c7c173af","ios":"levelo://app?vid=5998edb1-c12b-4b6e-8439-caa5c7c173af"},"vehicle_type_id":"4","last_reported":1727331226,"current_range_meters":29600,"station_id":"ce4bhh92rcd13ifvqfh0","pricing_plan_id":"cebpf4jnsgd1na2vs0mg"},{"bike_id":"17a078e4-ebb0-4651-a520-5b5f918b6ab4","system_id":"levelo_inurba_marseille","lat":43.24072,"lon":5.37763,"is_reserved":false,"is_disabled":false,"rental_uris":{"android":"levelo://app?vid=17a078e4-ebb0-4651-a520-5b5f918b6ab4","ios":"levelo://app?vid=17a078e4-ebb0-4651-a520-5b5f918b6ab4"},"vehicle_type_id":"4","last_reported":1727331226,"current_range_meters":36400,"station_id":"ce4bhnp2rcd13ifvqgvg","pricing_plan_id":"cebpf4jnsgd1na2vs0mg"},{"bike_id":"739277f5-a4df-443b-8ba0-9247b8971ff3","system_id":"levelo_inurba_marseille","lat":43.30472,"lon":5.379075,"is_reserved":false,"is_disabled":false,"rental_uris":{"android":"levelo://app?vid=739277f5-a4df-443b-8ba0-9247b8971ff3","ios":"levelo://app?vid=739277f5-a4df-443b-8ba0-9247b8971ff3"},"vehicle_type_id":"4","last_reported":1727331226,"current_range_meters":10800,"station_id":"ce4bgup2rcd13ifvqcn0","pricing_plan_id":"cebpf4jnsgd1na2vs0mg"},{"bike_id":"018668e8-a530-4d21-ab04-2b5e2f2cf015","system_id":"levelo_inurba_marseille","lat":43.29601,"lon":5.40209,"is_reserved":false,"is_disabled":false,"rental_uris":{"android":"levelo://app?vid=018668e8-a530-4d21-ab04-2b5e2f2cf015","ios":"levelo://app?vid=018668e8-a530-4d21-ab04-2b5e2f2cf015"},"vehicle_type_id":"4","last_reported":1727331226,"current_range_meters":30400,"station_id":"","pricing_plan_id":"cebpf4jnsgd1na2vs0mg"},{"bike_id":"79a05bb1-ccec-47f0-8ebd-1f95854549f8","system_id":"levelo_inurba_marseille","lat":43.31282,"lon":5.380327,"is_reserved":false,"is_disabled":false,"rental_uris":{"android":"levelo://app?vid=79a05bb1-ccec-47f0-8ebd-1f95854549f8","ios":"levelo://app?vid=79a05bb1-ccec-47f0-8ebd-1f95854549f8"},"vehicle_type_id":"4","last_reported":1727331226,"current_range_meters":8400,"station_id":"","pricing_plan_id":"cebpf4jnsgd1na2vs0mg"},{"bike_id":"30136007-4af8-4987-a9f0-08680d42d88d","system_id":"levelo_inurba_marseille","lat":43.27495,"lon":5.42453,"is_reserved":false,"is_disabled":false,"rental_uris":{"android":"levelo://app?vid=30136007-4af8-4987-a9f0-08680d42d88d","ios":"levelo://app?vid=30136007-4af8-4987-a9f0-08680d42d88d"},"vehicle_type_id":"4","last_reported":1727331226,"current_range_meters":31200,"station_id":"ce4bhn92rcd13ifvqgrg","pricing_plan_id":"cebpf4jnsgd1na2vs0mg"},{"bike_id":"42bc79c8-5077-4879-b5ab-1e9ab677ea47","system_id":"levelo_inurba_marseille","lat":43.25466,"lon":5.37681,"is_reserved":false,"is_disabled":false,"rental_uris":{"android":"levelo://app?vid=42bc79c8-5077-4879-b5ab-1e9ab677ea47","ios":"levelo://app?vid=42bc79c8-5077-4879-b5ab-1e9ab677ea47"},"vehicle_type_id":"4","last_reported":1727331226,"current_range_meters":38000,"station_id":"ce4bhh12rcd13ifvqff0","pricing_plan_id":"cebpf4jnsgd1na2vs0mg"},{"bike_id":"4ca8f2df-d07d-4530-b77f-5472e4a1443e","system_id":"levelo_inurba_marseille","lat":43.32544,"lon":5.41428,"is_reserved":false,"is_disabled":false,"rental_uris":{"android":"levelo://app?vid=4ca8f2df-d07d-4530-b77f-5472e4a1443e","ios":"levelo://app?vid=4ca8f2df-d07d-4530-b77f-5472e4a1443e"},"vehicle_type_id":"4","last_reported":1727331226,"current_range_meters":30400,"station_id":"ce4bhq12rcd13ifvqhhg","pricing_plan_id":"cebpf4jnsgd1na2vs0mg"},{"bike_id":"79bcd95b-c98a-4a88-8c23-cb2457601db8","system_id":"levelo_inurba_marseille","lat":43.30962,"lon":5.39026,"is_reserved":false,"is_disabled":false,"rental_uris":{"android":"levelo://app?vid=79bcd95b-c98a-4a88-8c23-cb2457601db8","ios":"levelo://app?vid=79bcd95b-c98a-4a88-8c23-cb2457601db8"},"vehicle_type_id":"4","last_reported":1727331226,"current_range_meters":37600,"station_id":"ce4bgup2rcd13ifvqco0","pricing_plan_id":"cebpf4jnsgd1na2vs0mg"},{"bike_id":"df1bb53e-c106-4893-ad76-6a4c9dfa43a7","system_id":"levelo_inurba_marseille","lat":43.30165,"lon":5.3808,"is_reserved":false,"is_disabled":false,"rental_uris":{"android":"levelo://app?vid=df1bb53e-c106-4893-ad76-6a4c9dfa43a7","ios":"levelo://app?vid=df1bb53e-c106-4893-ad76-6a4c9dfa43a7"},"vehicle_type_id":"4","last_reported":1727331226,"current_range_meters":15200,"station_id":"ce4bgjp2rcd13ifvqbh0","pricing_plan_id":"cebpf4jnsgd1na2vs0mg"},{"bike_id":"e2439c25-39ef-4ab9-9943-1cd0b7edb5dd","system_id":"levelo_inurba_marseille","lat":43.30552,"lon":5.36678,"is_reserved":false,"is_disabled":false,"rental_uris":{"android":"levelo://app?vid=e2439c25-39ef-4ab9-9943-1cd0b7edb5dd","ios":"levelo://app?vid=e2439c25-39ef-4ab9-9943-1cd0b7edb5dd"},"vehicle_type_id":"4","last_reported":1727331226,"current_range_meters":38800,"station_id":"ce4bgrp2rcd13ifvqc9g","pricing_plan_id":"cebpf4jnsgd1na2vs0mg"},{"bike_id":"4ecd2984-7012-494c-9f77-6ed6c1a9d985","system_id":"levelo_inurba_marseille","lat":43.29245,"lon":5.40163,"is_reserved":false,"is_disabled":false,"rental_uris":{"android":"levelo://app?vid=4ecd2984-7012-494c-9f77-6ed6c1a9d985","ios":"levelo://app?vid=4ecd2984-7012-494c-9f77-6ed6c1a9d985"},"vehicle_type_id":"4","last_reported":1727331226,"current_range_meters":2800,"station_id":"ce4bh312rcd13ifvqdk0","pricing_plan_id":"cebpf4jnsgd1na2vs0mg"},{"bike_id":"cc3e684b-83ee-4ceb-a416-807e2f5ba6a0","system_id":"levelo_inurba_marseille","lat":43.2872,"lon":5.37934,"is_reserved":false,"is_disabled":false,"rental_uris":{"android":"levelo://app?vid=cc3e684b-83ee-4ceb-a416-807e2f5ba6a0","ios":"levelo://app?vid=cc3e684b-83ee-4ceb-a416-807e2f5ba6a0"},"vehicle_type_id":"4","last_reported":1727331226,"current_range_meters":24400,"station_id":"ce4bh9p2rcd13ifvqec0","pricing_plan_id":"cebpf4jnsgd1na2vs0mg"},{"bike_id":"d46fc4e4-ed02-48e9-8bc3-167bf401f8c9","system_id":"levelo_inurba_marseille","lat":43.24389,"lon":5.37061,"is_reserved":false,"is_disabled":false,"rental_uris":{"android":"levelo://app?vid=d46fc4e4-ed02-48e9-8bc3-167bf401f8c9","ios":"levelo://app?vid=d46fc4e4-ed02-48e9-8bc3-167bf401f8c9"},"vehicle_type_id":"4","last_reported":1727331226,"current_range_meters":36400,"station_id":"ce4bhhh2rcd13ifvqfk0","pricing_plan_id":"cebpf4jnsgd1na2vs0mg"},{"bike_id":"8f5130c0-b468-42e5-9eaa-eba14b292a2c","system_id":"levelo_inurba_marseille","lat":43.30252,"lon":5.40077,"is_reserved":false,"is_disabled":false,"rental_uris":{"android":"levelo://app?vid=8f5130c0-b468-42e5-9eaa-eba14b292a2c","ios":"levelo://app?vid=8f5130c0-b468-42e5-9eaa-eba14b292a2c"},"vehicle_type_id":"4","last_reported":1727331226,"current_range_meters":39200,"station_id":"ce4bgvh2rcd13ifvqcs0","pricing_plan_id":"cebpf4jnsgd1na2vs0mg"},{"bike_id":"7bd1bd50-27c6-4444-90af-da47b424e887","system_id":"levelo_inurba_marseille","lat":43.31358,"lon":5.38487,"is_reserved":false,"is_disabled":false,"rental_uris":{"android":"levelo://app?vid=7bd1bd50-27c6-4444-90af-da47b424e887","ios":"levelo://app?vid=7bd1bd50-27c6-4444-90af-da47b424e887"},"vehicle_type_id":"4","last_reported":1727331226,"current_range_meters":21600,"station_id":"ce4bgt92rcd13ifvqcf0","pricing_plan_id":"cebpf4jnsgd1na2vs0mg"},{"bike_id":"c911365b-5031-452c-8625-e51e7e1486a3","system_id":"levelo_inurba_marseille","lat":43.272052,"lon":5.390342,"is_reserved":false,"is_disabled":false,"rental_uris":{"android":"levelo://app?vid=c911365b-5031-452c-8625-e51e7e1486a3","ios":"levelo://app?vid=c911365b-5031-452c-8625-e51e7e1486a3"},"vehicle_type_id":"4","last_reported":1727331226,"current_range_meters":33600,"station_id":"","pricing_plan_id":"cebpf4jnsgd1na2vs0mg"},{"bike_id":"59275bc6-d288-4f6b-b5f6-3e196197889e","system_id":"levelo_inurba_marseille","lat":43.32,"lon":5.38141,"is_reserved":false,"is_disabled":false,"rental_uris":{"android":"levelo://app?vid=59275bc6-d288-4f6b-b5f6-3e196197889e","ios":"levelo://app?vid=59275bc6-d288-4f6b-b5f6-3e196197889e"},"vehicle_type_id":"4","last_reported":1727331226,"current_range_meters":38000,"station_id":"ce4bhr12rcd13ifvqhpg","pricing_plan_id":"cebpf4jnsgd1na2vs0mg"},{"bike_id":"c017f362-9664-45c4-b19b-7118d6bf47c1","system_id":"levelo_inurba_marseille","lat":43.28154,"lon":5.42649,"is_reserved":false,"is_disabled":false,"rental_uris":{"android":"levelo://app?vid=c017f362-9664-45c4-b19b-7118d6bf47c1","ios":"levelo://app?vid=c017f362-9664-45c4-b19b-7118d6bf47c1"},"vehicle_type_id":"4","last_reported":1727331226,"current_range_meters":37600,"station_id":"ce4bhnh2rcd13ifvqgug","pricing_plan_id":"cebpf4jnsgd1na2vs0mg"},{"bike_id":"abb1da47-bf56-425f-bddd-b875994c1112","system_id":"levelo_inurba_marseille","lat":43.31762,"lon":5.39,"is_reserved":false,"is_disabled":false,"rental_uris":{"android":"levelo://app?vid=abb1da47-bf56-425f-bddd-b875994c1112","ios":"levelo://app?vid=abb1da47-bf56-425f-bddd-b875994c1112"},"vehicle_type_id":"4","last_reported":1727331226,"current_range_meters":35600,"station_id":"ce4bhqp2rcd13ifvqhng","pricing_plan_id":"cebpf4jnsgd1na2vs0mg"},{"bike_id":"2bcefafe-001b-419b-88cd-bb0cf7e199d3","system_id":"levelo_inurba_marseille","lat":43.28351,"lon":5.38106,"is_reserved":false,"is_disabled":false,"rental_uris":{"android":"levelo://app?vid=2bcefafe-001b-419b-88cd-bb0cf7e199d3","ios":"levelo://app?vid=2bcefafe-001b-419b-88cd-bb0cf7e199d3"},"vehicle_type_id":"4","last_reported":1727331226,"current_range_meters":8400,"station_id":"ce4bh412rcd13ifvqdr0","pricing_plan_id":"cebpf4jnsgd1na2vs0mg"},{"bike_id":"140b973b-9ff9-46fd-bbde-1b4d1ff3716c","system_id":"levelo_inurba_marseille","lat":43.30195,"lon":5.39957,"is_reserved":false,"is_disabled":false,"rental_uris":{"android":"levelo://app?vid=140b973b-9ff9-46fd-bbde-1b4d1ff3716c","ios":"levelo://app?vid=140b973b-9ff9-46fd-bbde-1b4d1ff3716c"},"vehicle_type_id":"4","last_reported":1727331226,"current_range_meters":2800,"station_id":"","pricing_plan_id":"cebpf4jnsgd1na2vs0mg"},{"bike_id":"65063097-6998-460f-ac17-9ddd6188ee3b","system_id":"levelo_inurba_marseille","lat":43.31073,"lon":5.38343,"is_reserved":false,"is_disabled":false,"rental_uris":{"android":"levelo://app?vid=65063097-6998-460f-ac17-9ddd6188ee3b","ios":"levelo://app?vid=65063097-6998-460f-ac17-9ddd6188ee3b"},"vehicle_type_id":"4","last_reported":1727331226,"current_range_meters":36000,"station_id":"ce4bgv92rcd13ifvqcr0","pricing_plan_id":"cebpf4jnsgd1na2vs0mg"},{"bike_id":"99f8ad48-51db-4466-be29-2d7cf85a553b","system_id":"levelo_inurba_marseille","lat":43.3136,"lon":5.38496,"is_reserved":false,"is_disabled":false,"rental_uris":{"android":"levelo://app?vid=99f8ad48-51db-4466-be29-2d7cf85a553b","ios":"levelo://app?vid=99f8ad48-51db-4466-be29-2d7cf85a553b"},"vehicle_type_id":"4","last_reported":1727331226,"current_range_meters":38000,"station_id":"ce4bgt92rcd13ifvqcf0","pricing_plan_id":"cebpf4jnsgd1na2vs0mg"},{"bike_id":"26854cc0-ff2c-49c3-a583-31f2f48ca428","system_id":"levelo_inurba_marseille","lat":43.33608,"lon":5.41036,"is_reserved":false,"is_disabled":false,"rental_uris":{"android":"levelo://app?vid=26854cc0-ff2c-49c3-a583-31f2f48ca428","ios":"levelo://app?vid=26854cc0-ff2c-49c3-a583-31f2f48ca428"},"vehicle_type_id":"4","last_reported":1727331226,"current_range_meters":18800,"station_id":"ce4bhqh2rcd13ifvqhmg","pricing_plan_id":"cebpf4jnsgd1na2vs0mg"},{"bike_id":"efcec37d-89e2-45dd-aca9-87826f278c00","system_id":"levelo_inurba_marseille","lat":43.28469,"lon":5.38414,"is_reserved":false,"is_disabled":false,"rental_uris":{"android":"levelo://app?vid=efcec37d-89e2-45dd-aca9-87826f278c00","ios":"levelo://app?vid=efcec37d-89e2-45dd-aca9-87826f278c00"},"vehicle_type_id":"4","last_reported":1727331226,"current_range_meters":38800,"station_id":"ce4bh512rcd13ifvqe3g","pricing_plan_id":"cebpf4jnsgd1na2vs0mg"},{"bike_id":"1da2feee-5f5e-40d1-a702-2de40ba1a5d7","system_id":"levelo_inurba_marseille","lat":43.30606,"lon":5.39345,"is_reserved":false,"is_disabled":false,"rental_uris":{"android":"levelo://app?vid=1da2feee-5f5e-40d1-a702-2de40ba1a5d7","ios":"levelo://app?vid=1da2feee-5f5e-40d1-a702-2de40ba1a5d7"},"vehicle_type_id":"4","last_reported":1727331226,"current_range_meters":35200,"station_id":"ce4bh0p2rcd13ifvqd80","pricing_plan_id":"cebpf4jnsgd1na2vs0mg"},{"bike_id":"c7ad56d7-b078-4218-a006-c6db1f4f15a0","system_id":"levelo_inurba_marseille","lat":43.30246,"lon":5.39547,"is_reserved":false,"is_disabled":false,"rental_uris":{"android":"levelo://app?vid=c7ad56d7-b078-4218-a006-c6db1f4f15a0","ios":"levelo://app?vid=c7ad56d7-b078-4218-a006-c6db1f4f15a0"},"vehicle_type_id":"4","last_reported":1727331226,"current_range_meters":24800,"station_id":"ce4bh0p2rcd13ifvqd70","pricing_plan_id":"cebpf4jnsgd1na2vs0mg"},{"bike_id":"38674e62-e768-405d-9590-89d89d7b7b0f","system_id":"levelo_inurba_marseille","lat":43.26062,"lon":5.39396,"is_reserved":false,"is_disabled":false,"rental_uris":{"android":"levelo://app?vid=38674e62-e768-405d-9590-89d89d7b7b0f","ios":"levelo://app?vid=38674e62-e768-405d-9590-89d89d7b7b0f"},"vehicle_type_id":"4","last_reported":1727331226,"current_range_meters":39200,"station_id":"ce4bhh92rcd13ifvqfj0","pricing_plan_id":"cebpf4jnsgd1na2vs0mg"},{"bike_id":"b6251719-68e8-4e90-a48e-681d7ff5dcd4","system_id":"levelo_inurba_marseille","lat":43.30597,"lon":5.39359,"is_reserved":false,"is_disabled":false,"rental_uris":{"android":"levelo://app?vid=b6251719-68e8-4e90-a48e-681d7ff5dcd4","ios":"levelo://app?vid=b6251719-68e8-4e90-a48e-681d7ff5dcd4"},"vehicle_type_id":"4","last_reported":1727331226,"current_range_meters":24000,"station_id":"ce4bh0p2rcd13ifvqd80","pricing_plan_id":"cebpf4jnsgd1na2vs0mg"},{"bike_id":"5956d14b-d9a5-4603-be6b-bffc9f3393e8","system_id":"levelo_inurba_marseille","lat":43.30607,"lon":5.39349,"is_reserved":false,"is_disabled":false,"rental_uris":{"android":"levelo://app?vid=5956d14b-d9a5-4603-be6b-bffc9f3393e8","ios":"levelo://app?vid=5956d14b-d9a5-4603-be6b-bffc9f3393e8"},"vehicle_type_id":"4","last_reported":1727331226,"current_range_meters":22800,"station_id":"ce4bh0p2rcd13ifvqd80","pricing_plan_id":"cebpf4jnsgd1na2vs0mg"},{"bike_id":"1b01696d-69a3-45f6-85c7-5dc14a0edeac","system_id":"levelo_inurba_marseille","lat":43.27995,"lon":5.42451,"is_reserved":false,"is_disabled":false,"rental_uris":{"android":"levelo://app?vid=1b01696d-69a3-45f6-85c7-5dc14a0edeac","ios":"levelo://app?vid=1b01696d-69a3-45f6-85c7-5dc14a0edeac"},"vehicle_type_id":"4","last_reported":1727331226,"current_range_meters":38000,"station_id":"","pricing_plan_id":"cebpf4jnsgd1na2vs0mg"},{"bike_id":"db9ced75-8fb4-4b9d-b0f8-a02a49c26d60","system_id":"levelo_inurba_marseille","lat":43.30604,"lon":5.39335,"is_reserved":false,"is_disabled":false,"rental_uris":{"android":"levelo://app?vid=db9ced75-8fb4-4b9d-b0f8-a02a49c26d60","ios":"levelo://app?vid=db9ced75-8fb4-4b9d-b0f8-a02a49c26d60"},"vehicle_type_id":"4","last_reported":1727331226,"current_range_meters":32400,"station_id":"ce4bh0p2rcd13ifvqd80","pricing_plan_id":"cebpf4jnsgd1na2vs0mg"},{"bike_id":"4d6d252d-6c84-4dfd-b8d4-f7fa8a4707cd","system_id":"levelo_inurba_marseille","lat":43.30602,"lon":5.39346,"is_reserved":false,"is_disabled":false,"rental_uris":{"android":"levelo://app?vid=4d6d252d-6c84-4dfd-b8d4-f7fa8a4707cd","ios":"levelo://app?vid=4d6d252d-6c84-4dfd-b8d4-f7fa8a4707cd"},"vehicle_type_id":"4","last_reported":1727331226,"current_range_meters":8000,"station_id":"ce4bh0p2rcd13ifvqd80","pricing_plan_id":"cebpf4jnsgd1na2vs0mg"},{"bike_id":"b8265e77-c510-430c-9b27-d54ecb0610d0","system_id":"levelo_inurba_marseille","lat":43.25086,"lon":5.3952,"is_reserved":false,"is_disabled":false,"rental_uris":{"android":"levelo://app?vid=b8265e77-c510-430c-9b27-d54ecb0610d0","ios":"levelo://app?vid=b8265e77-c510-430c-9b27-d54ecb0610d0"},"vehicle_type_id":"4","last_reported":1727331226,"current_range_meters":38000,"station_id":"ce4bhm12rcd13ifvqgkg","pricing_plan_id":"cebpf4jnsgd1na2vs0mg"},{"bike_id":"1443328a-d642-439b-94d2-b66d8a40c057","system_id":"levelo_inurba_marseille","lat":43.27909,"lon":5.38013,"is_reserved":false,"is_disabled":false,"rental_uris":{"android":"levelo://app?vid=1443328a-d642-439b-94d2-b66d8a40c057","ios":"levelo://app?vid=1443328a-d642-439b-94d2-b66d8a40c057"},"vehicle_type_id":"4","last_reported":1727331226,"current_range_meters":27200,"station_id":"ce4bhf92rcd13ifvqf50","pricing_plan_id":"cebpf4jnsgd1na2vs0mg"},{"bike_id":"8b6e2ecc-7578-46e5-a8c0-54a5f7738f0d","system_id":"levelo_inurba_marseille","lat":43.24183,"lon":5.39734,"is_reserved":false,"is_disabled":false,"rental_uris":{"android":"levelo://app?vid=8b6e2ecc-7578-46e5-a8c0-54a5f7738f0d","ios":"levelo://app?vid=8b6e2ecc-7578-46e5-a8c0-54a5f7738f0d"},"vehicle_type_id":"4","last_reported":1727331226,"current_range_meters":14400,"station_id":"ce4bhn12rcd13ifvqgpg","pricing_plan_id":"cebpf4jnsgd1na2vs0mg"},{"bike_id":"9f9c6052-e813-4141-968a-017042695798","system_id":"levelo_inurba_marseille","lat":43.30476,"lon":5.37908,"is_reserved":false,"is_disabled":false,"rental_uris":{"android":"levelo://app?vid=9f9c6052-e813-4141-968a-017042695798","ios":"levelo://app?vid=9f9c6052-e813-4141-968a-017042695798"},"vehicle_type_id":"4","last_reported":1727331226,"current_range_meters":32400,"station_id":"ce4bgup2rcd13ifvqcn0","pricing_plan_id":"cebpf4jnsgd1na2vs0mg"},{"bike_id":"031c2443-9ee1-436c-9b5c-61dfa2758075","system_id":"levelo_inurba_marseille","lat":43.30785,"lon":5.37653,"is_reserved":false,"is_disabled":false,"rental_uris":{"android":"levelo://app?vid=031c2443-9ee1-436c-9b5c-61dfa2758075","ios":"levelo://app?vid=031c2443-9ee1-436c-9b5c-61dfa2758075"},"vehicle_type_id":"4","last_reported":1727331226,"current_range_meters":6000,"station_id":"ce4bgv92rcd13ifvqcq0","pricing_plan_id":"cebpf4jnsgd1na2vs0mg"},{"bike_id":"00edd952-08d1-4117-be38-8c23b3c958f8","system_id":"levelo_inurba_marseille","lat":43.30436,"lon":5.38884,"is_reserved":false,"is_disabled":false,"rental_uris":{"android":"levelo://app?vid=00edd952-08d1-4117-be38-8c23b3c958f8","ios":"levelo://app?vid=00edd952-08d1-4117-be38-8c23b3c958f8"},"vehicle_type_id":"4","last_reported":1727331226,"current_range_meters":36000,"station_id":"ce4bgk12rcd13ifvqbi0","pricing_plan_id":"cebpf4jnsgd1na2vs0mg"},{"bike_id":"19309ef8-ba58-45a5-8f62-d42eb4958490","system_id":"levelo_inurba_marseille","lat":43.30935,"lon":5.40146,"is_reserved":false,"is_disabled":false,"rental_uris":{"android":"levelo://app?vid=19309ef8-ba58-45a5-8f62-d42eb4958490","ios":"levelo://app?vid=19309ef8-ba58-45a5-8f62-d42eb4958490"},"vehicle_type_id":"4","last_reported":1727331226,"current_range_meters":38800,"station_id":"ce4bgvp2rcd13ifvqct0","pricing_plan_id":"cebpf4jnsgd1na2vs0mg"},{"bike_id":"516e6145-b698-40bd-b79f-448709c787f1","system_id":"levelo_inurba_marseille","lat":43.3303,"lon":5.39039,"is_reserved":false,"is_disabled":false,"rental_uris":{"android":"levelo://app?vid=516e6145-b698-40bd-b79f-448709c787f1","ios":"levelo://app?vid=516e6145-b698-40bd-b79f-448709c787f1"},"vehicle_type_id":"4","last_reported":1727331226,"current_range_meters":37600,"station_id":"ce4bhr92rcd13ifvqhrg","pricing_plan_id":"cebpf4jnsgd1na2vs0mg"},{"bike_id":"48e6bb39-de35-46b7-b057-3295a5474807","system_id":"levelo_inurba_marseille","lat":43.28369,"lon":5.38483,"is_reserved":false,"is_disabled":false,"rental_uris":{"android":"levelo://app?vid=48e6bb39-de35-46b7-b057-3295a5474807","ios":"levelo://app?vid=48e6bb39-de35-46b7-b057-3295a5474807"},"vehicle_type_id":"4","last_reported":1727331226,"current_range_meters":26000,"station_id":"","pricing_plan_id":"cebpf4jnsgd1na2vs0mg"},{"bike_id":"adedb212-0fd0-4038-bdd9-4cb8193dfc55","system_id":"levelo_inurba_marseille","lat":43.28717,"lon":5.37918,"is_reserved":false,"is_disabled":false,"rental_uris":{"android":"levelo://app?vid=adedb212-0fd0-4038-bdd9-4cb8193dfc55","ios":"levelo://app?vid=adedb212-0fd0-4038-bdd9-4cb8193dfc55"},"vehicle_type_id":"4","last_reported":1727331226,"current_range_meters":25600,"station_id":"ce4bh9p2rcd13ifvqec0","pricing_plan_id":"cebpf4jnsgd1na2vs0mg"},{"bike_id":"178cba8c-1927-49a5-ada2-fb6bb85a9228","system_id":"levelo_inurba_marseille","lat":43.24078,"lon":5.37755,"is_reserved":false,"is_disabled":false,"rental_uris":{"android":"levelo://app?vid=178cba8c-1927-49a5-ada2-fb6bb85a9228","ios":"levelo://app?vid=178cba8c-1927-49a5-ada2-fb6bb85a9228"},"vehicle_type_id":"4","last_reported":1727331226,"current_range_meters":32400,"station_id":"ce4bhnp2rcd13ifvqgvg","pricing_plan_id":"cebpf4jnsgd1na2vs0mg"},{"bike_id":"c0ee146e-1377-43ac-b7fa-d787d97260b9","system_id":"levelo_inurba_marseille","lat":43.28357,"lon":5.38109,"is_reserved":false,"is_disabled":false,"rental_uris":{"android":"levelo://app?vid=c0ee146e-1377-43ac-b7fa-d787d97260b9","ios":"levelo://app?vid=c0ee146e-1377-43ac-b7fa-d787d97260b9"},"vehicle_type_id":"4","last_reported":1727331226,"current_range_meters":38000,"station_id":"ce4bh412rcd13ifvqdr0","pricing_plan_id":"cebpf4jnsgd1na2vs0mg"},{"bike_id":"d0d07880-62b3-4c52-b862-412a7e5558bd","system_id":"levelo_inurba_marseille","lat":43.27996,"lon":5.41662,"is_reserved":false,"is_disabled":false,"rental_uris":{"android":"levelo://app?vid=d0d07880-62b3-4c52-b862-412a7e5558bd","ios":"levelo://app?vid=d0d07880-62b3-4c52-b862-412a7e5558bd"},"vehicle_type_id":"4","last_reported":1727331226,"current_range_meters":18000,"station_id":"ce4bho12rcd13ifvqh1g","pricing_plan_id":"cebpf4jnsgd1na2vs0mg"},{"bike_id":"a2a22857-6d43-48cb-8e1d-9bf1f7c4bf4d","system_id":"levelo_inurba_marseille","lat":43.29372,"lon":5.37852,"is_reserved":false,"is_disabled":false,"rental_uris":{"android":"levelo://app?vid=a2a22857-6d43-48cb-8e1d-9bf1f7c4bf4d","ios":"levelo://app?vid=a2a22857-6d43-48cb-8e1d-9bf1f7c4bf4d"},"vehicle_type_id":"4","last_reported":1727331226,"current_range_meters":36400,"station_id":"ce4bgjh2rcd13ifvqbf0","pricing_plan_id":"cebpf4jnsgd1na2vs0mg"},{"bike_id":"cf36a53a-3509-423f-8075-777dbf5a32a1","system_id":"levelo_inurba_marseille","lat":43.22934,"lon":5.35384,"is_reserved":false,"is_disabled":false,"rental_uris":{"android":"levelo://app?vid=cf36a53a-3509-423f-8075-777dbf5a32a1","ios":"levelo://app?vid=cf36a53a-3509-423f-8075-777dbf5a32a1"},"vehicle_type_id":"4","last_reported":1727331226,"current_range_meters":26800,"station_id":"cpo3532slgdg3j2ikp40","pricing_plan_id":"cebpf4jnsgd1na2vs0mg"},{"bike_id":"a75d11e4-5000-41f8-9ff2-fbd2a76366d5","system_id":"levelo_inurba_marseille","lat":43.3395,"lon":5.42078,"is_reserved":false,"is_disabled":false,"rental_uris":{"android":"levelo://app?vid=a75d11e4-5000-41f8-9ff2-fbd2a76366d5","ios":"levelo://app?vid=a75d11e4-5000-41f8-9ff2-fbd2a76366d5"},"vehicle_type_id":"4","last_reported":1727331226,"current_range_meters":16400,"station_id":"","pricing_plan_id":"cebpf4jnsgd1na2vs0mg"},{"bike_id":"66d47382-1566-4e25-9b1b-ae5d16dc0d89","system_id":"levelo_inurba_marseille","lat":43.28969,"lon":5.37826,"is_reserved":false,"is_disabled":false,"rental_uris":{"android":"levelo://app?vid=66d47382-1566-4e25-9b1b-ae5d16dc0d89","ios":"levelo://app?vid=66d47382-1566-4e25-9b1b-ae5d16dc0d89"},"vehicle_type_id":"4","last_reported":1727331226,"current_range_meters":35200,"station_id":"ce4bh9p2rcd13ifvqed0","pricing_plan_id":"cebpf4jnsgd1na2vs0mg"},{"bike_id":"78abe469-536b-42bc-9bee-73f10028bf3e","system_id":"levelo_inurba_marseille","lat":43.27491,"lon":5.42455,"is_reserved":false,"is_disabled":false,"rental_uris":{"android":"levelo://app?vid=78abe469-536b-42bc-9bee-73f10028bf3e","ios":"levelo://app?vid=78abe469-536b-42bc-9bee-73f10028bf3e"},"vehicle_type_id":"4","last_reported":1727331226,"current_range_meters":33200,"station_id":"ce4bhn92rcd13ifvqgrg","pricing_plan_id":"cebpf4jnsgd1na2vs0mg"},{"bike_id":"ea49d9e8-8e06-4151-b49f-455334378a83","system_id":"levelo_inurba_marseille","lat":43.25726,"lon":5.41108,"is_reserved":false,"is_disabled":false,"rental_uris":{"android":"levelo://app?vid=ea49d9e8-8e06-4151-b49f-455334378a83","ios":"levelo://app?vid=ea49d9e8-8e06-4151-b49f-455334378a83"},"vehicle_type_id":"4","last_reported":1727331226,"current_range_meters":6000,"station_id":"ce4bhkp2rcd13ifvqgd0","pricing_plan_id":"cebpf4jnsgd1na2vs0mg"},{"bike_id":"630acc49-8e35-4687-b0bb-ce1185b0f0d0","system_id":"levelo_inurba_marseille","lat":43.3149,"lon":5.37314,"is_reserved":false,"is_disabled":false,"rental_uris":{"android":"levelo://app?vid=630acc49-8e35-4687-b0bb-ce1185b0f0d0","ios":"levelo://app?vid=630acc49-8e35-4687-b0bb-ce1185b0f0d0"},"vehicle_type_id":"4","last_reported":1727331226,"current_range_meters":16800,"station_id":"ce4bgt12rcd13ifvqcd0","pricing_plan_id":"cebpf4jnsgd1na2vs0mg"},{"bike_id":"90ec8e32-de8b-49d2-90ec-0e997d932c46","system_id":"levelo_inurba_marseille","lat":43.28425,"lon":5.34978,"is_reserved":false,"is_disabled":false,"rental_uris":{"android":"levelo://app?vid=90ec8e32-de8b-49d2-90ec-0e997d932c46","ios":"levelo://app?vid=90ec8e32-de8b-49d2-90ec-0e997d932c46"},"vehicle_type_id":"4","last_reported":1727331226,"current_range_meters":37600,"station_id":"ce4bhbh2rcd13ifvqepg","pricing_plan_id":"cebpf4jnsgd1na2vs0mg"},{"bike_id":"03ee95af-84cc-44ed-a76a-332d8cd751b2","system_id":"levelo_inurba_marseille","lat":43.23152,"lon":5.43709,"is_reserved":false,"is_disabled":false,"rental_uris":{"android":"levelo://app?vid=03ee95af-84cc-44ed-a76a-332d8cd751b2","ios":"levelo://app?vid=03ee95af-84cc-44ed-a76a-332d8cd751b2"},"vehicle_type_id":"4","last_reported":1727331226,"current_range_meters":5600,"station_id":"ce4bhmp2rcd13ifvqgog","pricing_plan_id":"cebpf4jnsgd1na2vs0mg"},{"bike_id":"362d6825-6219-416f-b86d-6c9c61d5f4f6","system_id":"levelo_inurba_marseille","lat":43.2841,"lon":5.37508,"is_reserved":false,"is_disabled":false,"rental_uris":{"android":"levelo://app?vid=362d6825-6219-416f-b86d-6c9c61d5f4f6","ios":"levelo://app?vid=362d6825-6219-416f-b86d-6c9c61d5f4f6"},"vehicle_type_id":"4","last_reported":1727331226,"current_range_meters":28400,"station_id":"ce4bh412rcd13ifvqds0","pricing_plan_id":"cebpf4jnsgd1na2vs0mg"},{"bike_id":"08a5cd66-f021-4853-bec7-3221a1186d83","system_id":"levelo_inurba_marseille","lat":43.27495,"lon":5.42459,"is_reserved":false,"is_disabled":false,"rental_uris":{"android":"levelo://app?vid=08a5cd66-f021-4853-bec7-3221a1186d83","ios":"levelo://app?vid=08a5cd66-f021-4853-bec7-3221a1186d83"},"vehicle_type_id":"4","last_reported":1727331226,"current_range_meters":23200,"station_id":"ce4bhn92rcd13ifvqgrg","pricing_plan_id":"cebpf4jnsgd1na2vs0mg"},{"bike_id":"e5bd0fa9-5f87-41bf-b1c3-9068bc1e13e2","system_id":"levelo_inurba_marseille","lat":43.32364,"lon":5.38883,"is_reserved":false,"is_disabled":false,"rental_uris":{"android":"levelo://app?vid=e5bd0fa9-5f87-41bf-b1c3-9068bc1e13e2","ios":"levelo://app?vid=e5bd0fa9-5f87-41bf-b1c3-9068bc1e13e2"},"vehicle_type_id":"4","last_reported":1727331226,"current_range_meters":18000,"station_id":"ce4bhqp2rcd13ifvqhog","pricing_plan_id":"cebpf4jnsgd1na2vs0mg"},{"bike_id":"3b797606-8f8d-45f9-b51e-fe5143a658b4","system_id":"levelo_inurba_marseille","lat":43.30151,"lon":5.38074,"is_reserved":false,"is_disabled":false,"rental_uris":{"android":"levelo://app?vid=3b797606-8f8d-45f9-b51e-fe5143a658b4","ios":"levelo://app?vid=3b797606-8f8d-45f9-b51e-fe5143a658b4"},"vehicle_type_id":"4","last_reported":1727331226,"current_range_meters":30000,"station_id":"ce4bgjp2rcd13ifvqbh0","pricing_plan_id":"cebpf4jnsgd1na2vs0mg"},{"bike_id":"e3957d14-62b8-4556-99f8-ab988c9dd032","system_id":"levelo_inurba_marseille","lat":43.30462,"lon":5.37903,"is_reserved":false,"is_disabled":false,"rental_uris":{"android":"levelo://app?vid=e3957d14-62b8-4556-99f8-ab988c9dd032","ios":"levelo://app?vid=e3957d14-62b8-4556-99f8-ab988c9dd032"},"vehicle_type_id":"4","last_reported":1727331226,"current_range_meters":33200,"station_id":"ce4bgup2rcd13ifvqcn0","pricing_plan_id":"cebpf4jnsgd1na2vs0mg"},{"bike_id":"d8654ec4-6c00-4844-bf03-787bfe5964d4","system_id":"levelo_inurba_marseille","lat":43.27493,"lon":5.42451,"is_reserved":false,"is_disabled":false,"rental_uris":{"android":"levelo://app?vid=d8654ec4-6c00-4844-bf03-787bfe5964d4","ios":"levelo://app?vid=d8654ec4-6c00-4844-bf03-787bfe5964d4"},"vehicle_type_id":"4","last_reported":1727331226,"current_range_meters":26800,"station_id":"ce4bhn92rcd13ifvqgrg","pricing_plan_id":"cebpf4jnsgd1na2vs0mg"},{"bike_id":"54540059-20d5-4cbb-9f00-c09aa596c31a","system_id":"levelo_inurba_marseille","lat":43.289275,"lon":5.383922,"is_reserved":false,"is_disabled":false,"rental_uris":{"android":"levelo://app?vid=54540059-20d5-4cbb-9f00-c09aa596c31a","ios":"levelo://app?vid=54540059-20d5-4cbb-9f00-c09aa596c31a"},"vehicle_type_id":"4","last_reported":1727331226,"current_range_meters":12800,"station_id":"ce4bh612rcd13ifvqe6g","pricing_plan_id":"cebpf4jnsgd1na2vs0mg"},{"bike_id":"637beff3-55bd-4f15-99c0-4cb53d5dddb9","system_id":"levelo_inurba_marseille","lat":43.30665,"lon":5.39527,"is_reserved":false,"is_disabled":false,"rental_uris":{"android":"levelo://app?vid=637beff3-55bd-4f15-99c0-4cb53d5dddb9","ios":"levelo://app?vid=637beff3-55bd-4f15-99c0-4cb53d5dddb9"},"vehicle_type_id":"4","last_reported":1727331226,"current_range_meters":37600,"station_id":"","pricing_plan_id":"cebpf4jnsgd1na2vs0mg"},{"bike_id":"0cc13aea-61a3-4a79-8203-545dd1bf67f5","system_id":"levelo_inurba_marseille","lat":43.28929,"lon":5.3638,"is_reserved":false,"is_disabled":false,"rental_uris":{"android":"levelo://app?vid=0cc13aea-61a3-4a79-8203-545dd1bf67f5","ios":"levelo://app?vid=0cc13aea-61a3-4a79-8203-545dd1bf67f5"},"vehicle_type_id":"4","last_reported":1727331226,"current_range_meters":37600,"station_id":"ce4bhc92rcd13ifvqetg","pricing_plan_id":"cebpf4jnsgd1na2vs0mg"},{"bike_id":"24c96040-78e5-4d3d-98c2-da1d0a848e1f","system_id":"levelo_inurba_marseille","lat":43.24073,"lon":5.37761,"is_reserved":false,"is_disabled":false,"rental_uris":{"android":"levelo://app?vid=24c96040-78e5-4d3d-98c2-da1d0a848e1f","ios":"levelo://app?vid=24c96040-78e5-4d3d-98c2-da1d0a848e1f"},"vehicle_type_id":"4","last_reported":1727331226,"current_range_meters":25600,"station_id":"ce4bhnp2rcd13ifvqgvg","pricing_plan_id":"cebpf4jnsgd1na2vs0mg"},{"bike_id":"d43c85ca-4c93-4962-8e62-f8d251e36364","system_id":"levelo_inurba_marseille","lat":43.28153,"lon":5.42638,"is_reserved":false,"is_disabled":false,"rental_uris":{"android":"levelo://app?vid=d43c85ca-4c93-4962-8e62-f8d251e36364","ios":"levelo://app?vid=d43c85ca-4c93-4962-8e62-f8d251e36364"},"vehicle_type_id":"4","last_reported":1727331226,"current_range_meters":35200,"station_id":"ce4bhnh2rcd13ifvqgug","pricing_plan_id":"cebpf4jnsgd1na2vs0mg"},{"bike_id":"7b395aec-e2f4-48a2-885b-3bda32b74778","system_id":"levelo_inurba_marseille","lat":43.29618,"lon":5.37721,"is_reserved":false,"is_disabled":false,"rental_uris":{"android":"levelo://app?vid=7b395aec-e2f4-48a2-885b-3bda32b74778","ios":"levelo://app?vid=7b395aec-e2f4-48a2-885b-3bda32b74778"},"vehicle_type_id":"4","last_reported":1727331226,"current_range_meters":7200,"station_id":"ce4bgi92rcd13ifvqb90","pricing_plan_id":"cebpf4jnsgd1na2vs0mg"},{"bike_id":"b860d883-c194-47c2-a427-633aacf2d83d","system_id":"levelo_inurba_marseille","lat":43.33606,"lon":5.41035,"is_reserved":false,"is_disabled":false,"rental_uris":{"android":"levelo://app?vid=b860d883-c194-47c2-a427-633aacf2d83d","ios":"levelo://app?vid=b860d883-c194-47c2-a427-633aacf2d83d"},"vehicle_type_id":"4","last_reported":1727331226,"current_range_meters":24400,"station_id":"ce4bhqh2rcd13ifvqhmg","pricing_plan_id":"cebpf4jnsgd1na2vs0mg"},{"bike_id":"354ca403-b8e7-4272-b8bc-6cb61ed44214","system_id":"levelo_inurba_marseille","lat":43.28705,"lon":5.37927,"is_reserved":false,"is_disabled":false,"rental_uris":{"android":"levelo://app?vid=354ca403-b8e7-4272-b8bc-6cb61ed44214","ios":"levelo://app?vid=354ca403-b8e7-4272-b8bc-6cb61ed44214"},"vehicle_type_id":"4","last_reported":1727331226,"current_range_meters":25200,"station_id":"ce4bh9p2rcd13ifvqec0","pricing_plan_id":"cebpf4jnsgd1na2vs0mg"},{"bike_id":"5933e752-2163-42fe-ae1d-31c1fb0105f2","system_id":"levelo_inurba_marseille","lat":43.30478,"lon":5.37898,"is_reserved":false,"is_disabled":false,"rental_uris":{"android":"levelo://app?vid=5933e752-2163-42fe-ae1d-31c1fb0105f2","ios":"levelo://app?vid=5933e752-2163-42fe-ae1d-31c1fb0105f2"},"vehicle_type_id":"4","last_reported":1727331226,"current_range_meters":16800,"station_id":"ce4bgup2rcd13ifvqcn0","pricing_plan_id":"cebpf4jnsgd1na2vs0mg"},{"bike_id":"5233d857-1fab-42f4-9c19-87f7a987f56d","system_id":"levelo_inurba_marseille","lat":43.27501,"lon":5.42445,"is_reserved":false,"is_disabled":false,"rental_uris":{"android":"levelo://app?vid=5233d857-1fab-42f4-9c19-87f7a987f56d","ios":"levelo://app?vid=5233d857-1fab-42f4-9c19-87f7a987f56d"},"vehicle_type_id":"4","last_reported":1727331226,"current_range_meters":32800,"station_id":"ce4bhn92rcd13ifvqgrg","pricing_plan_id":"cebpf4jnsgd1na2vs0mg"},{"bike_id":"4f842d87-a86c-42be-b629-3587085490b4","system_id":"levelo_inurba_marseille","lat":43.2894,"lon":5.36402,"is_reserved":false,"is_disabled":false,"rental_uris":{"android":"levelo://app?vid=4f842d87-a86c-42be-b629-3587085490b4","ios":"levelo://app?vid=4f842d87-a86c-42be-b629-3587085490b4"},"vehicle_type_id":"4","last_reported":1727331226,"current_range_meters":33200,"station_id":"ce4bhc92rcd13ifvqetg","pricing_plan_id":"cebpf4jnsgd1na2vs0mg"},{"bike_id":"538dac14-9de1-4375-a115-13e606449aa7","system_id":"levelo_inurba_marseille","lat":43.24075,"lon":5.37755,"is_reserved":false,"is_disabled":false,"rental_uris":{"android":"levelo://app?vid=538dac14-9de1-4375-a115-13e606449aa7","ios":"levelo://app?vid=538dac14-9de1-4375-a115-13e606449aa7"},"vehicle_type_id":"4","last_reported":1727331226,"current_range_meters":34800,"station_id":"ce4bhnp2rcd13ifvqgvg","pricing_plan_id":"cebpf4jnsgd1na2vs0mg"},{"bike_id":"c2bdf32c-f616-4cec-8d5e-330373c3c441","system_id":"levelo_inurba_marseille","lat":43.24388,"lon":5.37059,"is_reserved":false,"is_disabled":false,"rental_uris":{"android":"levelo://app?vid=c2bdf32c-f616-4cec-8d5e-330373c3c441","ios":"levelo://app?vid=c2bdf32c-f616-4cec-8d5e-330373c3c441"},"vehicle_type_id":"4","last_reported":1727331226,"current_range_meters":38800,"station_id":"ce4bhhh2rcd13ifvqfk0","pricing_plan_id":"cebpf4jnsgd1na2vs0mg"},{"bike_id":"3614aa63-048c-4566-93e3-c6e010e2e48a","system_id":"levelo_inurba_marseille","lat":43.281574,"lon":5.425892,"is_reserved":false,"is_disabled":false,"rental_uris":{"android":"levelo://app?vid=3614aa63-048c-4566-93e3-c6e010e2e48a","ios":"levelo://app?vid=3614aa63-048c-4566-93e3-c6e010e2e48a"},"vehicle_type_id":"4","last_reported":1727331226,"current_range_meters":8800,"station_id":"ce4bhnh2rcd13ifvqgug","pricing_plan_id":"cebpf4jnsgd1na2vs0mg"},{"bike_id":"0a5ef607-1314-4ea7-a547-44134686620f","system_id":"levelo_inurba_marseille","lat":43.27492,"lon":5.42451,"is_reserved":false,"is_disabled":false,"rental_uris":{"android":"levelo://app?vid=0a5ef607-1314-4ea7-a547-44134686620f","ios":"levelo://app?vid=0a5ef607-1314-4ea7-a547-44134686620f"},"vehicle_type_id":"4","last_reported":1727331226,"current_range_meters":37600,"station_id":"ce4bhn92rcd13ifvqgrg","pricing_plan_id":"cebpf4jnsgd1na2vs0mg"},{"bike_id":"eda18f10-7707-4bba-b8d2-de8ff5a4ba1a","system_id":"levelo_inurba_marseille","lat":43.26066,"lon":5.39397,"is_reserved":false,"is_disabled":false,"rental_uris":{"android":"levelo://app?vid=eda18f10-7707-4bba-b8d2-de8ff5a4ba1a","ios":"levelo://app?vid=eda18f10-7707-4bba-b8d2-de8ff5a4ba1a"},"vehicle_type_id":"4","last_reported":1727331226,"current_range_meters":14800,"station_id":"ce4bhh92rcd13ifvqfj0","pricing_plan_id":"cebpf4jnsgd1na2vs0mg"},{"bike_id":"2b2ceba0-c0e8-460a-be53-7579adeca595","system_id":"levelo_inurba_marseille","lat":43.26554,"lon":5.37286,"is_reserved":false,"is_disabled":false,"rental_uris":{"android":"levelo://app?vid=2b2ceba0-c0e8-460a-be53-7579adeca595","ios":"levelo://app?vid=2b2ceba0-c0e8-460a-be53-7579adeca595"},"vehicle_type_id":"4","last_reported":1727331226,"current_range_meters":27200,"station_id":"ce4bhg12rcd13ifvqf70","pricing_plan_id":"cebpf4jnsgd1na2vs0mg"},{"bike_id":"32245064-8982-447e-bde1-06b9c6ea1ad6","system_id":"levelo_inurba_marseille","lat":43.24387,"lon":5.37058,"is_reserved":false,"is_disabled":false,"rental_uris":{"android":"levelo://app?vid=32245064-8982-447e-bde1-06b9c6ea1ad6","ios":"levelo://app?vid=32245064-8982-447e-bde1-06b9c6ea1ad6"},"vehicle_type_id":"4","last_reported":1727331226,"current_range_meters":2800,"station_id":"ce4bhhh2rcd13ifvqfk0","pricing_plan_id":"cebpf4jnsgd1na2vs0mg"},{"bike_id":"9fb2c9b2-a0c8-434c-bff7-b5c4a955f91e","system_id":"levelo_inurba_marseille","lat":43.289332,"lon":5.363919,"is_reserved":false,"is_disabled":false,"rental_uris":{"android":"levelo://app?vid=9fb2c9b2-a0c8-434c-bff7-b5c4a955f91e","ios":"levelo://app?vid=9fb2c9b2-a0c8-434c-bff7-b5c4a955f91e"},"vehicle_type_id":"4","last_reported":1727331226,"current_range_meters":34800,"station_id":"ce4bhc92rcd13ifvqetg","pricing_plan_id":"cebpf4jnsgd1na2vs0mg"},{"bike_id":"86cc00fb-3115-49c4-8209-a596309893f4","system_id":"levelo_inurba_marseille","lat":43.28159,"lon":5.42638,"is_reserved":false,"is_disabled":false,"rental_uris":{"android":"levelo://app?vid=86cc00fb-3115-49c4-8209-a596309893f4","ios":"levelo://app?vid=86cc00fb-3115-49c4-8209-a596309893f4"},"vehicle_type_id":"4","last_reported":1727331226,"current_range_meters":38400,"station_id":"ce4bhnh2rcd13ifvqgug","pricing_plan_id":"cebpf4jnsgd1na2vs0mg"},{"bike_id":"cdd4a971-88d1-4937-adf9-51649b8b80ee","system_id":"levelo_inurba_marseille","lat":43.30917,"lon":5.36843,"is_reserved":false,"is_disabled":false,"rental_uris":{"android":"levelo://app?vid=cdd4a971-88d1-4937-adf9-51649b8b80ee","ios":"levelo://app?vid=cdd4a971-88d1-4937-adf9-51649b8b80ee"},"vehicle_type_id":"4","last_reported":1727331226,"current_range_meters":38800,"station_id":"ce4bgn92rcd13ifvqbvg","pricing_plan_id":"cebpf4jnsgd1na2vs0mg"},{"bike_id":"58d36185-53b9-4a35-94db-5d3aa5540953","system_id":"levelo_inurba_marseille","lat":43.25108,"lon":5.40324,"is_reserved":false,"is_disabled":false,"rental_uris":{"android":"levelo://app?vid=58d36185-53b9-4a35-94db-5d3aa5540953","ios":"levelo://app?vid=58d36185-53b9-4a35-94db-5d3aa5540953"},"vehicle_type_id":"4","last_reported":1727331226,"current_range_meters":38400,"station_id":"ce4bhlh2rcd13ifvqgig","pricing_plan_id":"cebpf4jnsgd1na2vs0mg"},{"bike_id":"2ed98b51-95b7-4b57-a44b-84e22c01b097","system_id":"levelo_inurba_marseille","lat":43.25938,"lon":5.409,"is_reserved":false,"is_disabled":false,"rental_uris":{"android":"levelo://app?vid=2ed98b51-95b7-4b57-a44b-84e22c01b097","ios":"levelo://app?vid=2ed98b51-95b7-4b57-a44b-84e22c01b097"},"vehicle_type_id":"4","last_reported":1727331226,"current_range_meters":27200,"station_id":"ce4bhm92rcd13ifvqglg","pricing_plan_id":"cebpf4jnsgd1na2vs0mg"},{"bike_id":"7da25290-74ba-4a4c-9f93-78f0187105db","system_id":"levelo_inurba_marseille","lat":43.24077,"lon":5.3776,"is_reserved":false,"is_disabled":false,"rental_uris":{"android":"levelo://app?vid=7da25290-74ba-4a4c-9f93-78f0187105db","ios":"levelo://app?vid=7da25290-74ba-4a4c-9f93-78f0187105db"},"vehicle_type_id":"4","last_reported":1727331226,"current_range_meters":37600,"station_id":"ce4bhnp2rcd13ifvqgvg","pricing_plan_id":"cebpf4jnsgd1na2vs0mg"},{"bike_id":"db901e4b-152d-44f9-bf8e-0ac06b2af6fe","system_id":"levelo_inurba_marseille","lat":43.305377,"lon":5.367007,"is_reserved":false,"is_disabled":false,"rental_uris":{"android":"levelo://app?vid=db901e4b-152d-44f9-bf8e-0ac06b2af6fe","ios":"levelo://app?vid=db901e4b-152d-44f9-bf8e-0ac06b2af6fe"},"vehicle_type_id":"4","last_reported":1727331226,"current_range_meters":30400,"station_id":"ce4bgrp2rcd13ifvqc9g","pricing_plan_id":"cebpf4jnsgd1na2vs0mg"},{"bike_id":"885d413c-ae33-41c5-9773-ddf591ab14b5","system_id":"levelo_inurba_marseille","lat":43.2988,"lon":5.38916,"is_reserved":false,"is_disabled":false,"rental_uris":{"android":"levelo://app?vid=885d413c-ae33-41c5-9773-ddf591ab14b5","ios":"levelo://app?vid=885d413c-ae33-41c5-9773-ddf591ab14b5"},"vehicle_type_id":"4","last_reported":1727331226,"current_range_meters":38000,"station_id":"ce4bh392rcd13ifvqdl0","pricing_plan_id":"cebpf4jnsgd1na2vs0mg"},{"bike_id":"c859838e-9668-46a6-9add-c65973b9865a","system_id":"levelo_inurba_marseille","lat":43.27073,"lon":5.42278,"is_reserved":false,"is_disabled":false,"rental_uris":{"android":"levelo://app?vid=c859838e-9668-46a6-9add-c65973b9865a","ios":"levelo://app?vid=c859838e-9668-46a6-9add-c65973b9865a"},"vehicle_type_id":"4","last_reported":1727331226,"current_range_meters":29600,"station_id":"ce4bhk92rcd13ifvqgb0","pricing_plan_id":"cebpf4jnsgd1na2vs0mg"},{"bike_id":"4d63e6bf-5364-45f2-b199-35d2c134ddde","system_id":"levelo_inurba_marseille","lat":43.30875,"lon":5.37199,"is_reserved":false,"is_disabled":false,"rental_uris":{"android":"levelo://app?vid=4d63e6bf-5364-45f2-b199-35d2c134ddde","ios":"levelo://app?vid=4d63e6bf-5364-45f2-b199-35d2c134ddde"},"vehicle_type_id":"4","last_reported":1727331226,"current_range_meters":35200,"station_id":"ce4bguh2rcd13ifvqckg","pricing_plan_id":"cebpf4jnsgd1na2vs0mg"},{"bike_id":"e939d41d-05db-4a9f-a56d-b4b5aa1bec26","system_id":"levelo_inurba_marseille","lat":43.26571,"lon":5.39011,"is_reserved":false,"is_disabled":false,"rental_uris":{"android":"levelo://app?vid=e939d41d-05db-4a9f-a56d-b4b5aa1bec26","ios":"levelo://app?vid=e939d41d-05db-4a9f-a56d-b4b5aa1bec26"},"vehicle_type_id":"4","last_reported":1727331226,"current_range_meters":28000,"station_id":"ce4bhe12rcd13ifvqf30","pricing_plan_id":"cebpf4jnsgd1na2vs0mg"},{"bike_id":"e9a8dbaf-57f8-49f9-b8b9-f8977d9d8a8f","system_id":"levelo_inurba_marseille","lat":43.32491,"lon":5.36562,"is_reserved":false,"is_disabled":false,"rental_uris":{"android":"levelo://app?vid=e9a8dbaf-57f8-49f9-b8b9-f8977d9d8a8f","ios":"levelo://app?vid=e9a8dbaf-57f8-49f9-b8b9-f8977d9d8a8f"},"vehicle_type_id":"4","last_reported":1727331226,"current_range_meters":10000,"station_id":"ce4bhs12rcd13ifvqhvg","pricing_plan_id":"cebpf4jnsgd1na2vs0mg"},{"bike_id":"c5b0c6de-9639-4b7d-a7aa-594bff354677","system_id":"levelo_inurba_marseille","lat":43.2894,"lon":5.39625,"is_reserved":false,"is_disabled":false,"rental_uris":{"android":"levelo://app?vid=c5b0c6de-9639-4b7d-a7aa-594bff354677","ios":"levelo://app?vid=c5b0c6de-9639-4b7d-a7aa-594bff354677"},"vehicle_type_id":"4","last_reported":1727331226,"current_range_meters":34800,"station_id":"ce4bh3h2rcd13ifvqdn0","pricing_plan_id":"cebpf4jnsgd1na2vs0mg"},{"bike_id":"32f2ee49-0647-4da0-a723-7687c3b8c1c9","system_id":"levelo_inurba_marseille","lat":43.23158,"lon":5.43709,"is_reserved":false,"is_disabled":false,"rental_uris":{"android":"levelo://app?vid=32f2ee49-0647-4da0-a723-7687c3b8c1c9","ios":"levelo://app?vid=32f2ee49-0647-4da0-a723-7687c3b8c1c9"},"vehicle_type_id":"4","last_reported":1727331226,"current_range_meters":11600,"station_id":"ce4bhmp2rcd13ifvqgog","pricing_plan_id":"cebpf4jnsgd1na2vs0mg"},{"bike_id":"22e78102-e61a-40ce-aa23-528aa9929fe6","system_id":"levelo_inurba_marseille","lat":43.270663,"lon":5.4228,"is_reserved":false,"is_disabled":false,"rental_uris":{"android":"levelo://app?vid=22e78102-e61a-40ce-aa23-528aa9929fe6","ios":"levelo://app?vid=22e78102-e61a-40ce-aa23-528aa9929fe6"},"vehicle_type_id":"4","last_reported":1727331226,"current_range_meters":8400,"station_id":"ce4bhk92rcd13ifvqgb0","pricing_plan_id":"cebpf4jnsgd1na2vs0mg"},{"bike_id":"d14d52e5-75cc-4a1f-90ea-cce4ddff11b1","system_id":"levelo_inurba_marseille","lat":43.31187,"lon":5.38708,"is_reserved":false,"is_disabled":false,"rental_uris":{"android":"levelo://app?vid=d14d52e5-75cc-4a1f-90ea-cce4ddff11b1","ios":"levelo://app?vid=d14d52e5-75cc-4a1f-90ea-cce4ddff11b1"},"vehicle_type_id":"4","last_reported":1727331226,"current_range_meters":38400,"station_id":"ce4bgv12rcd13ifvqcp0","pricing_plan_id":"cebpf4jnsgd1na2vs0mg"},{"bike_id":"45daab6e-bdfa-4378-bb67-2ff46e2c4c5d","system_id":"levelo_inurba_marseille","lat":43.26953,"lon":5.38628,"is_reserved":false,"is_disabled":false,"rental_uris":{"android":"levelo://app?vid=45daab6e-bdfa-4378-bb67-2ff46e2c4c5d","ios":"levelo://app?vid=45daab6e-bdfa-4378-bb67-2ff46e2c4c5d"},"vehicle_type_id":"4","last_reported":1727331226,"current_range_meters":32400,"station_id":"ce4bhh92rcd13ifvqfh0","pricing_plan_id":"cebpf4jnsgd1na2vs0mg"},{"bike_id":"b0888648-6373-49a2-afb7-73fd07a08bea","system_id":"levelo_inurba_marseille","lat":43.316948,"lon":5.404852,"is_reserved":false,"is_disabled":false,"rental_uris":{"android":"levelo://app?vid=b0888648-6373-49a2-afb7-73fd07a08bea","ios":"levelo://app?vid=b0888648-6373-49a2-afb7-73fd07a08bea"},"vehicle_type_id":"4","last_reported":1727331226,"current_range_meters":27600,"station_id":"ce4bh012rcd13ifvqd00","pricing_plan_id":"cebpf4jnsgd1na2vs0mg"},{"bike_id":"a1e9bad9-395e-4713-bfb8-a7896c4afc46","system_id":"levelo_inurba_marseille","lat":43.30937,"lon":5.40144,"is_reserved":false,"is_disabled":false,"rental_uris":{"android":"levelo://app?vid=a1e9bad9-395e-4713-bfb8-a7896c4afc46","ios":"levelo://app?vid=a1e9bad9-395e-4713-bfb8-a7896c4afc46"},"vehicle_type_id":"4","last_reported":1727331226,"current_range_meters":32400,"station_id":"ce4bgvp2rcd13ifvqct0","pricing_plan_id":"cebpf4jnsgd1na2vs0mg"},{"bike_id":"47ba0401-8be6-4c89-8eef-6bff009d65b5","system_id":"levelo_inurba_marseille","lat":43.32291,"lon":5.38262,"is_reserved":false,"is_disabled":false,"rental_uris":{"android":"levelo://app?vid=47ba0401-8be6-4c89-8eef-6bff009d65b5","ios":"levelo://app?vid=47ba0401-8be6-4c89-8eef-6bff009d65b5"},"vehicle_type_id":"4","last_reported":1727331226,"current_range_meters":11600,"station_id":"ce4bhr12rcd13ifvqhqg","pricing_plan_id":"cebpf4jnsgd1na2vs0mg"},{"bike_id":"91fe01cd-19dc-4521-a6bc-c4b544c8a93c","system_id":"levelo_inurba_marseille","lat":43.305218,"lon":5.380689,"is_reserved":false,"is_disabled":false,"rental_uris":{"android":"levelo://app?vid=91fe01cd-19dc-4521-a6bc-c4b544c8a93c","ios":"levelo://app?vid=91fe01cd-19dc-4521-a6bc-c4b544c8a93c"},"vehicle_type_id":"4","last_reported":1727331226,"current_range_meters":22000,"station_id":"ce4bguh2rcd13ifvqcj0","pricing_plan_id":"cebpf4jnsgd1na2vs0mg"},{"bike_id":"e9c30c3c-02b9-4f52-9864-998f980f1bc0","system_id":"levelo_inurba_marseille","lat":43.29041,"lon":5.39951,"is_reserved":false,"is_disabled":false,"rental_uris":{"android":"levelo://app?vid=e9c30c3c-02b9-4f52-9864-998f980f1bc0","ios":"levelo://app?vid=e9c30c3c-02b9-4f52-9864-998f980f1bc0"},"vehicle_type_id":"4","last_reported":1727331226,"current_range_meters":9600,"station_id":"ce4bh392rcd13ifvqdm0","pricing_plan_id":"cebpf4jnsgd1na2vs0mg"},{"bike_id":"ba8259d4-bb1a-4d53-a1f5-821cc0651b41","system_id":"levelo_inurba_marseille","lat":43.29688,"lon":5.37284,"is_reserved":false,"is_disabled":false,"rental_uris":{"android":"levelo://app?vid=ba8259d4-bb1a-4d53-a1f5-821cc0651b41","ios":"levelo://app?vid=ba8259d4-bb1a-4d53-a1f5-821cc0651b41"},"vehicle_type_id":"4","last_reported":1727331226,"current_range_meters":36400,"station_id":"ce4bgk12rcd13ifvqbj0","pricing_plan_id":"cebpf4jnsgd1na2vs0mg"},{"bike_id":"730a8251-d94a-4277-99a9-1c8f6d01216c","system_id":"levelo_inurba_marseille","lat":43.25932,"lon":5.40913,"is_reserved":false,"is_disabled":false,"rental_uris":{"android":"levelo://app?vid=730a8251-d94a-4277-99a9-1c8f6d01216c","ios":"levelo://app?vid=730a8251-d94a-4277-99a9-1c8f6d01216c"},"vehicle_type_id":"4","last_reported":1727331226,"current_range_meters":20000,"station_id":"ce4bhm92rcd13ifvqglg","pricing_plan_id":"cebpf4jnsgd1na2vs0mg"},{"bike_id":"5f6c79fc-4a32-4034-b731-a210b1c8c48d","system_id":"levelo_inurba_marseille","lat":43.30532,"lon":5.36689,"is_reserved":false,"is_disabled":false,"rental_uris":{"android":"levelo://app?vid=5f6c79fc-4a32-4034-b731-a210b1c8c48d","ios":"levelo://app?vid=5f6c79fc-4a32-4034-b731-a210b1c8c48d"},"vehicle_type_id":"4","last_reported":1727331226,"current_range_meters":10000,"station_id":"ce4bgrp2rcd13ifvqc9g","pricing_plan_id":"cebpf4jnsgd1na2vs0mg"},{"bike_id":"b806ea31-b0a0-4167-a7f4-ddaec60bc75a","system_id":"levelo_inurba_marseille","lat":43.320145,"lon":5.415037,"is_reserved":false,"is_disabled":false,"rental_uris":{"android":"levelo://app?vid=b806ea31-b0a0-4167-a7f4-ddaec60bc75a","ios":"levelo://app?vid=b806ea31-b0a0-4167-a7f4-ddaec60bc75a"},"vehicle_type_id":"4","last_reported":1727331226,"current_range_meters":32800,"station_id":"ce4bhq92rcd13ifvqhkg","pricing_plan_id":"cebpf4jnsgd1na2vs0mg"},{"bike_id":"590eb31b-9b26-4156-9633-0b39aaa3c865","system_id":"levelo_inurba_marseille","lat":43.30467,"lon":5.37913,"is_reserved":false,"is_disabled":false,"rental_uris":{"android":"levelo://app?vid=590eb31b-9b26-4156-9633-0b39aaa3c865","ios":"levelo://app?vid=590eb31b-9b26-4156-9633-0b39aaa3c865"},"vehicle_type_id":"4","last_reported":1727331226,"current_range_meters":24000,"station_id":"ce4bgup2rcd13ifvqcn0","pricing_plan_id":"cebpf4jnsgd1na2vs0mg"},{"bike_id":"5708459a-e98f-4dc5-8636-090bc006d63f","system_id":"levelo_inurba_marseille","lat":43.29035,"lon":5.3755,"is_reserved":false,"is_disabled":false,"rental_uris":{"android":"levelo://app?vid=5708459a-e98f-4dc5-8636-090bc006d63f","ios":"levelo://app?vid=5708459a-e98f-4dc5-8636-090bc006d63f"},"vehicle_type_id":"4","last_reported":1727331226,"current_range_meters":38800,"station_id":"ce4bh692rcd13ifvqe90","pricing_plan_id":"cebpf4jnsgd1na2vs0mg"},{"bike_id":"3dbd4749-a24c-43cd-9def-67297f866862","system_id":"levelo_inurba_marseille","lat":43.32364,"lon":5.38883,"is_reserved":false,"is_disabled":false,"rental_uris":{"android":"levelo://app?vid=3dbd4749-a24c-43cd-9def-67297f866862","ios":"levelo://app?vid=3dbd4749-a24c-43cd-9def-67297f866862"},"vehicle_type_id":"4","last_reported":1727331226,"current_range_meters":11200,"station_id":"ce4bhqp2rcd13ifvqhog","pricing_plan_id":"cebpf4jnsgd1na2vs0mg"},{"bike_id":"2c18cbbd-2b5a-4884-95e0-7a86106b06cc","system_id":"levelo_inurba_marseille","lat":43.30899,"lon":5.37183,"is_reserved":false,"is_disabled":false,"rental_uris":{"android":"levelo://app?vid=2c18cbbd-2b5a-4884-95e0-7a86106b06cc","ios":"levelo://app?vid=2c18cbbd-2b5a-4884-95e0-7a86106b06cc"},"vehicle_type_id":"4","last_reported":1727331226,"current_range_meters":35200,"station_id":"ce4bguh2rcd13ifvqckg","pricing_plan_id":"cebpf4jnsgd1na2vs0mg"},{"bike_id":"1a4252c3-05b9-4471-8eed-398eca369e49","system_id":"levelo_inurba_marseille","lat":43.24078,"lon":5.37754,"is_reserved":false,"is_disabled":false,"rental_uris":{"android":"levelo://app?vid=1a4252c3-05b9-4471-8eed-398eca369e49","ios":"levelo://app?vid=1a4252c3-05b9-4471-8eed-398eca369e49"},"vehicle_type_id":"4","last_reported":1727331226,"current_range_meters":19600,"station_id":"ce4bhnp2rcd13ifvqgvg","pricing_plan_id":"cebpf4jnsgd1na2vs0mg"},{"bike_id":"b89f3c75-62ef-439a-891a-3e5717a4b61a","system_id":"levelo_inurba_marseille","lat":43.27932,"lon":5.37949,"is_reserved":false,"is_disabled":false,"rental_uris":{"android":"levelo://app?vid=b89f3c75-62ef-439a-891a-3e5717a4b61a","ios":"levelo://app?vid=b89f3c75-62ef-439a-891a-3e5717a4b61a"},"vehicle_type_id":"4","last_reported":1727331226,"current_range_meters":24400,"station_id":"","pricing_plan_id":"cebpf4jnsgd1na2vs0mg"},{"bike_id":"397cc718-7f58-4f3b-af4e-225c245a0c0d","system_id":"levelo_inurba_marseille","lat":43.29617,"lon":5.38104,"is_reserved":false,"is_disabled":false,"rental_uris":{"android":"levelo://app?vid=397cc718-7f58-4f3b-af4e-225c245a0c0d","ios":"levelo://app?vid=397cc718-7f58-4f3b-af4e-225c245a0c0d"},"vehicle_type_id":"4","last_reported":1727331226,"current_range_meters":38800,"station_id":"ce4bgl12rcd13ifvqbo0","pricing_plan_id":"cebpf4jnsgd1na2vs0mg"},{"bike_id":"f9cefe39-9e01-48d0-9432-d12f8a7da9df","system_id":"levelo_inurba_marseille","lat":43.30886,"lon":5.37201,"is_reserved":false,"is_disabled":false,"rental_uris":{"android":"levelo://app?vid=f9cefe39-9e01-48d0-9432-d12f8a7da9df","ios":"levelo://app?vid=f9cefe39-9e01-48d0-9432-d12f8a7da9df"},"vehicle_type_id":"4","last_reported":1727331226,"current_range_meters":38800,"station_id":"ce4bguh2rcd13ifvqckg","pricing_plan_id":"cebpf4jnsgd1na2vs0mg"},{"bike_id":"5236a0c4-05da-4b1a-a16e-c1ffa87d0d41","system_id":"levelo_inurba_marseille","lat":43.28156,"lon":5.42639,"is_reserved":false,"is_disabled":false,"rental_uris":{"android":"levelo://app?vid=5236a0c4-05da-4b1a-a16e-c1ffa87d0d41","ios":"levelo://app?vid=5236a0c4-05da-4b1a-a16e-c1ffa87d0d41"},"vehicle_type_id":"4","last_reported":1727331226,"current_range_meters":28800,"station_id":"ce4bhnh2rcd13ifvqgug","pricing_plan_id":"cebpf4jnsgd1na2vs0mg"},{"bike_id":"e75f8dd4-6982-4cac-8d5e-00993ffdb46c","system_id":"levelo_inurba_marseille","lat":43.30229,"lon":5.38836,"is_reserved":false,"is_disabled":false,"rental_uris":{"android":"levelo://app?vid=e75f8dd4-6982-4cac-8d5e-00993ffdb46c","ios":"levelo://app?vid=e75f8dd4-6982-4cac-8d5e-00993ffdb46c"},"vehicle_type_id":"4","last_reported":1727331226,"current_range_meters":13600,"station_id":"ce4bghh2rcd13ifvqb60","pricing_plan_id":"cebpf4jnsgd1na2vs0mg"},{"bike_id":"e7538fd8-10d9-40e4-aff9-8eb2f36b73c6","system_id":"levelo_inurba_marseille","lat":43.3248,"lon":5.3657,"is_reserved":false,"is_disabled":false,"rental_uris":{"android":"levelo://app?vid=e7538fd8-10d9-40e4-aff9-8eb2f36b73c6","ios":"levelo://app?vid=e7538fd8-10d9-40e4-aff9-8eb2f36b73c6"},"vehicle_type_id":"4","last_reported":1727331226,"current_range_meters":30000,"station_id":"ce4bhs12rcd13ifvqhvg","pricing_plan_id":"cebpf4jnsgd1na2vs0mg"},{"bike_id":"c2e5a81e-6912-4cb0-98ad-5f3df477fa43","system_id":"levelo_inurba_marseille","lat":43.29012,"lon":5.37584,"is_reserved":false,"is_disabled":false,"rental_uris":{"android":"levelo://app?vid=c2e5a81e-6912-4cb0-98ad-5f3df477fa43","ios":"levelo://app?vid=c2e5a81e-6912-4cb0-98ad-5f3df477fa43"},"vehicle_type_id":"4","last_reported":1727331226,"current_range_meters":38400,"station_id":"ce4bh692rcd13ifvqe90","pricing_plan_id":"cebpf4jnsgd1na2vs0mg"},{"bike_id":"763829cc-cb94-4cf8-8b3c-72ae0662d9f8","system_id":"levelo_inurba_marseille","lat":43.24393,"lon":5.37058,"is_reserved":false,"is_disabled":false,"rental_uris":{"android":"levelo://app?vid=763829cc-cb94-4cf8-8b3c-72ae0662d9f8","ios":"levelo://app?vid=763829cc-cb94-4cf8-8b3c-72ae0662d9f8"},"vehicle_type_id":"4","last_reported":1727331226,"current_range_meters":38000,"station_id":"ce4bhhh2rcd13ifvqfk0","pricing_plan_id":"cebpf4jnsgd1na2vs0mg"},{"bike_id":"ab90bc99-59c7-431a-8b6f-a357519e2aec","system_id":"levelo_inurba_marseille","lat":43.28938,"lon":5.39626,"is_reserved":false,"is_disabled":false,"rental_uris":{"android":"levelo://app?vid=ab90bc99-59c7-431a-8b6f-a357519e2aec","ios":"levelo://app?vid=ab90bc99-59c7-431a-8b6f-a357519e2aec"},"vehicle_type_id":"4","last_reported":1727331226,"current_range_meters":38000,"station_id":"ce4bh3h2rcd13ifvqdn0","pricing_plan_id":"cebpf4jnsgd1na2vs0mg"},{"bike_id":"24a2ceb3-d8dc-441d-9c54-43b5ee627ba4","system_id":"levelo_inurba_marseille","lat":43.29531,"lon":5.39397,"is_reserved":false,"is_disabled":false,"rental_uris":{"android":"levelo://app?vid=24a2ceb3-d8dc-441d-9c54-43b5ee627ba4","ios":"levelo://app?vid=24a2ceb3-d8dc-441d-9c54-43b5ee627ba4"},"vehicle_type_id":"4","last_reported":1727331226,"current_range_meters":22400,"station_id":"ce4bh292rcd13ifvqdf0","pricing_plan_id":"cebpf4jnsgd1na2vs0mg"},{"bike_id":"6c6d2726-4971-47f1-bc33-ffdb13891bd6","system_id":"levelo_inurba_marseille","lat":43.29285,"lon":5.36846,"is_reserved":false,"is_disabled":false,"rental_uris":{"android":"levelo://app?vid=6c6d2726-4971-47f1-bc33-ffdb13891bd6","ios":"levelo://app?vid=6c6d2726-4971-47f1-bc33-ffdb13891bd6"},"vehicle_type_id":"4","last_reported":1727331226,"current_range_meters":27200,"station_id":"ce4bhbp2rcd13ifvqesg","pricing_plan_id":"cebpf4jnsgd1na2vs0mg"},{"bike_id":"88a5c6eb-3c78-499b-b132-594fb6a10d64","system_id":"levelo_inurba_marseille","lat":43.2439,"lon":5.37052,"is_reserved":false,"is_disabled":false,"rental_uris":{"android":"levelo://app?vid=88a5c6eb-3c78-499b-b132-594fb6a10d64","ios":"levelo://app?vid=88a5c6eb-3c78-499b-b132-594fb6a10d64"},"vehicle_type_id":"4","last_reported":1727331226,"current_range_meters":38400,"station_id":"ce4bhhh2rcd13ifvqfk0","pricing_plan_id":"cebpf4jnsgd1na2vs0mg"},{"bike_id":"3bc88a68-bb67-460b-b3d6-a2967b98cd6e","system_id":"levelo_inurba_marseille","lat":43.28411,"lon":5.37509,"is_reserved":false,"is_disabled":false,"rental_uris":{"android":"levelo://app?vid=3bc88a68-bb67-460b-b3d6-a2967b98cd6e","ios":"levelo://app?vid=3bc88a68-bb67-460b-b3d6-a2967b98cd6e"},"vehicle_type_id":"4","last_reported":1727331226,"current_range_meters":30000,"station_id":"ce4bh412rcd13ifvqds0","pricing_plan_id":"cebpf4jnsgd1na2vs0mg"},{"bike_id":"8c85be20-40c8-4c25-bed6-7089a8f7b486","system_id":"levelo_inurba_marseille","lat":43.30141,"lon":5.39869,"is_reserved":false,"is_disabled":false,"rental_uris":{"android":"levelo://app?vid=8c85be20-40c8-4c25-bed6-7089a8f7b486","ios":"levelo://app?vid=8c85be20-40c8-4c25-bed6-7089a8f7b486"},"vehicle_type_id":"4","last_reported":1727331226,"current_range_meters":12000,"station_id":"ce4bh0h2rcd13ifvqd40","pricing_plan_id":"cebpf4jnsgd1na2vs0mg"},{"bike_id":"02b1f4be-5600-47f6-9d66-89f232b8b451","system_id":"levelo_inurba_marseille","lat":43.28713,"lon":5.37938,"is_reserved":false,"is_disabled":false,"rental_uris":{"android":"levelo://app?vid=02b1f4be-5600-47f6-9d66-89f232b8b451","ios":"levelo://app?vid=02b1f4be-5600-47f6-9d66-89f232b8b451"},"vehicle_type_id":"4","last_reported":1727331226,"current_range_meters":37600,"station_id":"ce4bh9p2rcd13ifvqec0","pricing_plan_id":"cebpf4jnsgd1na2vs0mg"},{"bike_id":"cfade8c3-0038-45c3-af3a-cbaa61b28825","system_id":"levelo_inurba_marseille","lat":43.24079,"lon":5.37757,"is_reserved":false,"is_disabled":false,"rental_uris":{"android":"levelo://app?vid=cfade8c3-0038-45c3-af3a-cbaa61b28825","ios":"levelo://app?vid=cfade8c3-0038-45c3-af3a-cbaa61b28825"},"vehicle_type_id":"4","last_reported":1727331226,"current_range_meters":30000,"station_id":"ce4bhnp2rcd13ifvqgvg","pricing_plan_id":"cebpf4jnsgd1na2vs0mg"},{"bike_id":"f56e08ee-227a-4481-84ce-6f391e127161","system_id":"levelo_inurba_marseille","lat":43.282725,"lon":5.350691,"is_reserved":false,"is_disabled":false,"rental_uris":{"android":"levelo://app?vid=f56e08ee-227a-4481-84ce-6f391e127161","ios":"levelo://app?vid=f56e08ee-227a-4481-84ce-6f391e127161"},"vehicle_type_id":"4","last_reported":1727331226,"current_range_meters":35600,"station_id":"ce4bhbp2rcd13ifvqerg","pricing_plan_id":"cebpf4jnsgd1na2vs0mg"},{"bike_id":"164c5150-fd82-49d7-aff9-b769aa561f0f","system_id":"levelo_inurba_marseille","lat":43.31998,"lon":5.38142,"is_reserved":false,"is_disabled":false,"rental_uris":{"android":"levelo://app?vid=164c5150-fd82-49d7-aff9-b769aa561f0f","ios":"levelo://app?vid=164c5150-fd82-49d7-aff9-b769aa561f0f"},"vehicle_type_id":"4","last_reported":1727331226,"current_range_meters":27600,"station_id":"ce4bhr12rcd13ifvqhpg","pricing_plan_id":"cebpf4jnsgd1na2vs0mg"},{"bike_id":"64577474-503b-47b8-ba02-db6057494fc8","system_id":"levelo_inurba_marseille","lat":43.25941,"lon":5.40906,"is_reserved":false,"is_disabled":false,"rental_uris":{"android":"levelo://app?vid=64577474-503b-47b8-ba02-db6057494fc8","ios":"levelo://app?vid=64577474-503b-47b8-ba02-db6057494fc8"},"vehicle_type_id":"4","last_reported":1727331226,"current_range_meters":35600,"station_id":"ce4bhm92rcd13ifvqglg","pricing_plan_id":"cebpf4jnsgd1na2vs0mg"},{"bike_id":"2838c3b1-75b7-40b1-8f0c-0d005fb9dee7","system_id":"levelo_inurba_marseille","lat":43.32542,"lon":5.41426,"is_reserved":false,"is_disabled":false,"rental_uris":{"android":"levelo://app?vid=2838c3b1-75b7-40b1-8f0c-0d005fb9dee7","ios":"levelo://app?vid=2838c3b1-75b7-40b1-8f0c-0d005fb9dee7"},"vehicle_type_id":"4","last_reported":1727331226,"current_range_meters":16000,"station_id":"ce4bhq12rcd13ifvqhhg","pricing_plan_id":"cebpf4jnsgd1na2vs0mg"},{"bike_id":"666cfbb3-1b46-4df5-a347-94d4c62ca70f","system_id":"levelo_inurba_marseille","lat":43.24078,"lon":5.37743,"is_reserved":false,"is_disabled":false,"rental_uris":{"android":"levelo://app?vid=666cfbb3-1b46-4df5-a347-94d4c62ca70f","ios":"levelo://app?vid=666cfbb3-1b46-4df5-a347-94d4c62ca70f"},"vehicle_type_id":"4","last_reported":1727331226,"current_range_meters":8000,"station_id":"ce4bhnp2rcd13ifvqgvg","pricing_plan_id":"cebpf4jnsgd1na2vs0mg"},{"bike_id":"c6ebdc49-4729-4e81-a2ad-ad9c2b48e60f","system_id":"levelo_inurba_marseille","lat":43.30468,"lon":5.37904,"is_reserved":false,"is_disabled":false,"rental_uris":{"android":"levelo://app?vid=c6ebdc49-4729-4e81-a2ad-ad9c2b48e60f","ios":"levelo://app?vid=c6ebdc49-4729-4e81-a2ad-ad9c2b48e60f"},"vehicle_type_id":"4","last_reported":1727331226,"current_range_meters":35200,"station_id":"ce4bgup2rcd13ifvqcn0","pricing_plan_id":"cebpf4jnsgd1na2vs0mg"},{"bike_id":"5031f14b-18c6-4ae4-8c06-0ab8a3520326","system_id":"levelo_inurba_marseille","lat":43.31695,"lon":5.40483,"is_reserved":false,"is_disabled":false,"rental_uris":{"android":"levelo://app?vid=5031f14b-18c6-4ae4-8c06-0ab8a3520326","ios":"levelo://app?vid=5031f14b-18c6-4ae4-8c06-0ab8a3520326"},"vehicle_type_id":"4","last_reported":1727331226,"current_range_meters":28400,"station_id":"ce4bh012rcd13ifvqd00","pricing_plan_id":"cebpf4jnsgd1na2vs0mg"},{"bike_id":"e12f2835-cfda-46dc-8b54-36e169425f82","system_id":"levelo_inurba_marseille","lat":43.28947,"lon":5.36378,"is_reserved":false,"is_disabled":false,"rental_uris":{"android":"levelo://app?vid=e12f2835-cfda-46dc-8b54-36e169425f82","ios":"levelo://app?vid=e12f2835-cfda-46dc-8b54-36e169425f82"},"vehicle_type_id":"4","last_reported":1727331226,"current_range_meters":37600,"station_id":"ce4bhc92rcd13ifvqetg","pricing_plan_id":"cebpf4jnsgd1na2vs0mg"},{"bike_id":"a7bca3df-0344-4204-86d7-b742d4769839","system_id":"levelo_inurba_marseille","lat":43.30863,"lon":5.3685,"is_reserved":false,"is_disabled":false,"rental_uris":{"android":"levelo://app?vid=a7bca3df-0344-4204-86d7-b742d4769839","ios":"levelo://app?vid=a7bca3df-0344-4204-86d7-b742d4769839"},"vehicle_type_id":"4","last_reported":1727331226,"current_range_meters":24400,"station_id":"ce4bgn92rcd13ifvqbvg","pricing_plan_id":"cebpf4jnsgd1na2vs0mg"},{"bike_id":"f653a44a-9e6f-4f4b-b1ab-2289c42b4590","system_id":"levelo_inurba_marseille","lat":43.28338,"lon":5.38103,"is_reserved":false,"is_disabled":false,"rental_uris":{"android":"levelo://app?vid=f653a44a-9e6f-4f4b-b1ab-2289c42b4590","ios":"levelo://app?vid=f653a44a-9e6f-4f4b-b1ab-2289c42b4590"},"vehicle_type_id":"4","last_reported":1727331226,"current_range_meters":38800,"station_id":"ce4bh412rcd13ifvqdr0","pricing_plan_id":"cebpf4jnsgd1na2vs0mg"},{"bike_id":"a42a4355-f441-42ee-ba49-846b018efed6","system_id":"levelo_inurba_marseille","lat":43.30475,"lon":5.37904,"is_reserved":false,"is_disabled":false,"rental_uris":{"android":"levelo://app?vid=a42a4355-f441-42ee-ba49-846b018efed6","ios":"levelo://app?vid=a42a4355-f441-42ee-ba49-846b018efed6"},"vehicle_type_id":"4","last_reported":1727331226,"current_range_meters":16400,"station_id":"ce4bgup2rcd13ifvqcn0","pricing_plan_id":"cebpf4jnsgd1na2vs0mg"},{"bike_id":"3b95d26e-f06e-49bf-b839-e0adcd439c46","system_id":"levelo_inurba_marseille","lat":43.23189,"lon":5.39991,"is_reserved":false,"is_disabled":false,"rental_uris":{"android":"levelo://app?vid=3b95d26e-f06e-49bf-b839-e0adcd439c46","ios":"levelo://app?vid=3b95d26e-f06e-49bf-b839-e0adcd439c46"},"vehicle_type_id":"4","last_reported":1727331226,"current_range_meters":38400,"station_id":"ce4bhn12rcd13ifvqgqg","pricing_plan_id":"cebpf4jnsgd1na2vs0mg"},{"bike_id":"d92e7cf1-35a1-41d0-aeda-6e514292f22b","system_id":"levelo_inurba_marseille","lat":43.29557,"lon":5.42291,"is_reserved":false,"is_disabled":false,"rental_uris":{"android":"levelo://app?vid=d92e7cf1-35a1-41d0-aeda-6e514292f22b","ios":"levelo://app?vid=d92e7cf1-35a1-41d0-aeda-6e514292f22b"},"vehicle_type_id":"4","last_reported":1727331226,"current_range_meters":5600,"station_id":"ce4bhph2rcd13ifvqhdg","pricing_plan_id":"cebpf4jnsgd1na2vs0mg"},{"bike_id":"e81fe980-0750-4423-9cef-eaa66c1c59f8","system_id":"levelo_inurba_marseille","lat":43.2903,"lon":5.38648,"is_reserved":false,"is_disabled":false,"rental_uris":{"android":"levelo://app?vid=e81fe980-0750-4423-9cef-eaa66c1c59f8","ios":"levelo://app?vid=e81fe980-0750-4423-9cef-eaa66c1c59f8"},"vehicle_type_id":"4","last_reported":1727331226,"current_range_meters":38800,"station_id":"ce4bh4p2rcd13ifvqe0g","pricing_plan_id":"cebpf4jnsgd1na2vs0mg"},{"bike_id":"7827170f-fe53-4f76-acc5-1f9d10e67145","system_id":"levelo_inurba_marseille","lat":43.22928,"lon":5.35377,"is_reserved":false,"is_disabled":false,"rental_uris":{"android":"levelo://app?vid=7827170f-fe53-4f76-acc5-1f9d10e67145","ios":"levelo://app?vid=7827170f-fe53-4f76-acc5-1f9d10e67145"},"vehicle_type_id":"4","last_reported":1727331226,"current_range_meters":35200,"station_id":"cpo3532slgdg3j2ikp40","pricing_plan_id":"cebpf4jnsgd1na2vs0mg"},{"bike_id":"ed5f0f27-c5ae-4b32-b269-acbb0091e787","system_id":"levelo_inurba_marseille","lat":43.295685,"lon":5.399676,"is_reserved":false,"is_disabled":false,"rental_uris":{"android":"levelo://app?vid=ed5f0f27-c5ae-4b32-b269-acbb0091e787","ios":"levelo://app?vid=ed5f0f27-c5ae-4b32-b269-acbb0091e787"},"vehicle_type_id":"4","last_reported":1727331226,"current_range_meters":38800,"station_id":"ce4bh0p2rcd13ifvqd80","pricing_plan_id":"cebpf4jnsgd1na2vs0mg"},{"bike_id":"ebae3c15-7e7e-4b53-bbfe-281af6e0853b","system_id":"levelo_inurba_marseille","lat":43.27498,"lon":5.42448,"is_reserved":false,"is_disabled":false,"rental_uris":{"android":"levelo://app?vid=ebae3c15-7e7e-4b53-bbfe-281af6e0853b","ios":"levelo://app?vid=ebae3c15-7e7e-4b53-bbfe-281af6e0853b"},"vehicle_type_id":"4","last_reported":1727331226,"current_range_meters":36800,"station_id":"ce4bhn92rcd13ifvqgrg","pricing_plan_id":"cebpf4jnsgd1na2vs0mg"},{"bike_id":"5d5438fe-2464-4787-be86-c143737ef6c7","system_id":"levelo_inurba_marseille","lat":43.28413,"lon":5.37505,"is_reserved":false,"is_disabled":false,"rental_uris":{"android":"levelo://app?vid=5d5438fe-2464-4787-be86-c143737ef6c7","ios":"levelo://app?vid=5d5438fe-2464-4787-be86-c143737ef6c7"},"vehicle_type_id":"4","last_reported":1727331226,"current_range_meters":6800,"station_id":"ce4bh412rcd13ifvqds0","pricing_plan_id":"cebpf4jnsgd1na2vs0mg"},{"bike_id":"038f80b5-65f0-47ef-9d43-617ee9f0ac37","system_id":"levelo_inurba_marseille","lat":43.30541,"lon":5.36549,"is_reserved":false,"is_disabled":false,"rental_uris":{"android":"levelo://app?vid=038f80b5-65f0-47ef-9d43-617ee9f0ac37","ios":"levelo://app?vid=038f80b5-65f0-47ef-9d43-617ee9f0ac37"},"vehicle_type_id":"4","last_reported":1727331226,"current_range_meters":38800,"station_id":"ce4bgs12rcd13ifvqcag","pricing_plan_id":"cebpf4jnsgd1na2vs0mg"},{"bike_id":"088c3c22-4403-461d-951a-fbc998a3444c","system_id":"levelo_inurba_marseille","lat":43.25732,"lon":5.41106,"is_reserved":false,"is_disabled":false,"rental_uris":{"android":"levelo://app?vid=088c3c22-4403-461d-951a-fbc998a3444c","ios":"levelo://app?vid=088c3c22-4403-461d-951a-fbc998a3444c"},"vehicle_type_id":"4","last_reported":1727331226,"current_range_meters":33200,"station_id":"ce4bhkp2rcd13ifvqgd0","pricing_plan_id":"cebpf4jnsgd1na2vs0mg"},{"bike_id":"c223dba9-c222-40cc-8f79-4cd05407c510","system_id":"levelo_inurba_marseille","lat":43.25117,"lon":5.40317,"is_reserved":false,"is_disabled":false,"rental_uris":{"android":"levelo://app?vid=c223dba9-c222-40cc-8f79-4cd05407c510","ios":"levelo://app?vid=c223dba9-c222-40cc-8f79-4cd05407c510"},"vehicle_type_id":"4","last_reported":1727331226,"current_range_meters":36800,"station_id":"ce4bhlh2rcd13ifvqgig","pricing_plan_id":"cebpf4jnsgd1na2vs0mg"},{"bike_id":"4a4bfd88-bdfc-4802-b3a8-e798e4274727","system_id":"levelo_inurba_marseille","lat":43.32289,"lon":5.38264,"is_reserved":false,"is_disabled":false,"rental_uris":{"android":"levelo://app?vid=4a4bfd88-bdfc-4802-b3a8-e798e4274727","ios":"levelo://app?vid=4a4bfd88-bdfc-4802-b3a8-e798e4274727"},"vehicle_type_id":"4","last_reported":1727331226,"current_range_meters":25200,"station_id":"ce4bhr12rcd13ifvqhqg","pricing_plan_id":"cebpf4jnsgd1na2vs0mg"},{"bike_id":"d66a4195-867e-4bfb-ba88-b3cd6797fa0f","system_id":"levelo_inurba_marseille","lat":43.27498,"lon":5.4245,"is_reserved":false,"is_disabled":false,"rental_uris":{"android":"levelo://app?vid=d66a4195-867e-4bfb-ba88-b3cd6797fa0f","ios":"levelo://app?vid=d66a4195-867e-4bfb-ba88-b3cd6797fa0f"},"vehicle_type_id":"4","last_reported":1727331226,"current_range_meters":30800,"station_id":"ce4bhn92rcd13ifvqgrg","pricing_plan_id":"cebpf4jnsgd1na2vs0mg"},{"bike_id":"46c2cd7a-2030-4c23-a3f4-2b21bf7f8904","system_id":"levelo_inurba_marseille","lat":43.31888,"lon":5.40739,"is_reserved":false,"is_disabled":false,"rental_uris":{"android":"levelo://app?vid=46c2cd7a-2030-4c23-a3f4-2b21bf7f8904","ios":"levelo://app?vid=46c2cd7a-2030-4c23-a3f4-2b21bf7f8904"},"vehicle_type_id":"4","last_reported":1727331226,"current_range_meters":33200,"station_id":"ce4bhq12rcd13ifvqhig","pricing_plan_id":"cebpf4jnsgd1na2vs0mg"},{"bike_id":"81c79a5f-f1a7-4420-97f8-092caaa8c88e","system_id":"levelo_inurba_marseille","lat":43.30559,"lon":5.366942,"is_reserved":false,"is_disabled":false,"rental_uris":{"android":"levelo://app?vid=81c79a5f-f1a7-4420-97f8-092caaa8c88e","ios":"levelo://app?vid=81c79a5f-f1a7-4420-97f8-092caaa8c88e"},"vehicle_type_id":"4","last_reported":1727331226,"current_range_meters":17600,"station_id":"ce4bgrp2rcd13ifvqc9g","pricing_plan_id":"cebpf4jnsgd1na2vs0mg"},{"bike_id":"de8ff9a9-709a-4424-83ed-039925aabde2","system_id":"levelo_inurba_marseille","lat":43.2407,"lon":5.37765,"is_reserved":false,"is_disabled":false,"rental_uris":{"android":"levelo://app?vid=de8ff9a9-709a-4424-83ed-039925aabde2","ios":"levelo://app?vid=de8ff9a9-709a-4424-83ed-039925aabde2"},"vehicle_type_id":"4","last_reported":1727331226,"current_range_meters":10800,"station_id":"ce4bhnp2rcd13ifvqgvg","pricing_plan_id":"cebpf4jnsgd1na2vs0mg"},{"bike_id":"4660de8f-6b1d-4ec7-86e9-b37d4a58ce76","system_id":"levelo_inurba_marseille","lat":43.32293,"lon":5.38271,"is_reserved":false,"is_disabled":false,"rental_uris":{"android":"levelo://app?vid=4660de8f-6b1d-4ec7-86e9-b37d4a58ce76","ios":"levelo://app?vid=4660de8f-6b1d-4ec7-86e9-b37d4a58ce76"},"vehicle_type_id":"4","last_reported":1727331226,"current_range_meters":34000,"station_id":"ce4bhr12rcd13ifvqhqg","pricing_plan_id":"cebpf4jnsgd1na2vs0mg"},{"bike_id":"2a2912f6-2e1b-4601-b150-5d831f4894db","system_id":"levelo_inurba_marseille","lat":43.258244,"lon":5.394438,"is_reserved":false,"is_disabled":false,"rental_uris":{"android":"levelo://app?vid=2a2912f6-2e1b-4601-b150-5d831f4894db","ios":"levelo://app?vid=2a2912f6-2e1b-4601-b150-5d831f4894db"},"vehicle_type_id":"4","last_reported":1727331226,"current_range_meters":31200,"station_id":"ce4bhip2rcd13ifvqft0","pricing_plan_id":"cebpf4jnsgd1na2vs0mg"},{"bike_id":"078bf408-951d-4a2c-8ea7-054f083515f3","system_id":"levelo_inurba_marseille","lat":43.30461,"lon":5.37899,"is_reserved":false,"is_disabled":false,"rental_uris":{"android":"levelo://app?vid=078bf408-951d-4a2c-8ea7-054f083515f3","ios":"levelo://app?vid=078bf408-951d-4a2c-8ea7-054f083515f3"},"vehicle_type_id":"4","last_reported":1727331226,"current_range_meters":25200,"station_id":"ce4bgup2rcd13ifvqcn0","pricing_plan_id":"cebpf4jnsgd1na2vs0mg"},{"bike_id":"4f760a3a-a77c-46ea-8732-f5e1f65552c7","system_id":"levelo_inurba_marseille","lat":43.31531,"lon":5.38031,"is_reserved":false,"is_disabled":false,"rental_uris":{"android":"levelo://app?vid=4f760a3a-a77c-46ea-8732-f5e1f65552c7","ios":"levelo://app?vid=4f760a3a-a77c-46ea-8732-f5e1f65552c7"},"vehicle_type_id":"4","last_reported":1727331226,"current_range_meters":28800,"station_id":"ce4bhsp2rcd13ifvqi50","pricing_plan_id":"cebpf4jnsgd1na2vs0mg"},{"bike_id":"4fc0ef81-a692-4f7c-9d38-77b16cc04b2c","system_id":"levelo_inurba_marseille","lat":43.31761,"lon":5.39019,"is_reserved":false,"is_disabled":false,"rental_uris":{"android":"levelo://app?vid=4fc0ef81-a692-4f7c-9d38-77b16cc04b2c","ios":"levelo://app?vid=4fc0ef81-a692-4f7c-9d38-77b16cc04b2c"},"vehicle_type_id":"4","last_reported":1727331226,"current_range_meters":33200,"station_id":"ce4bhqp2rcd13ifvqhng","pricing_plan_id":"cebpf4jnsgd1na2vs0mg"},{"bike_id":"19708902-570b-41d0-bede-9a89add31afc","system_id":"levelo_inurba_marseille","lat":43.32332,"lon":5.40621,"is_reserved":false,"is_disabled":false,"rental_uris":{"android":"levelo://app?vid=19708902-570b-41d0-bede-9a89add31afc","ios":"levelo://app?vid=19708902-570b-41d0-bede-9a89add31afc"},"vehicle_type_id":"4","last_reported":1727331226,"current_range_meters":36000,"station_id":"ce4bhq92rcd13ifvqhjg","pricing_plan_id":"cebpf4jnsgd1na2vs0mg"},{"bike_id":"5f9ae006-80ef-48a7-83d0-27a1f80c48b0","system_id":"levelo_inurba_marseille","lat":43.31362,"lon":5.38492,"is_reserved":false,"is_disabled":false,"rental_uris":{"android":"levelo://app?vid=5f9ae006-80ef-48a7-83d0-27a1f80c48b0","ios":"levelo://app?vid=5f9ae006-80ef-48a7-83d0-27a1f80c48b0"},"vehicle_type_id":"4","last_reported":1727331226,"current_range_meters":34800,"station_id":"ce4bgt92rcd13ifvqcf0","pricing_plan_id":"cebpf4jnsgd1na2vs0mg"},{"bike_id":"eda8bcde-5e1d-4538-802b-7a2e14d9f52d","system_id":"levelo_inurba_marseille","lat":43.22929,"lon":5.35374,"is_reserved":false,"is_disabled":false,"rental_uris":{"android":"levelo://app?vid=eda8bcde-5e1d-4538-802b-7a2e14d9f52d","ios":"levelo://app?vid=eda8bcde-5e1d-4538-802b-7a2e14d9f52d"},"vehicle_type_id":"4","last_reported":1727331226,"current_range_meters":23200,"station_id":"cpo3532slgdg3j2ikp40","pricing_plan_id":"cebpf4jnsgd1na2vs0mg"},{"bike_id":"51f4d75c-79c5-47e9-8fcd-05825786ca23","system_id":"levelo_inurba_marseille","lat":43.23192,"lon":5.39976,"is_reserved":false,"is_disabled":false,"rental_uris":{"android":"levelo://app?vid=51f4d75c-79c5-47e9-8fcd-05825786ca23","ios":"levelo://app?vid=51f4d75c-79c5-47e9-8fcd-05825786ca23"},"vehicle_type_id":"4","last_reported":1727331226,"current_range_meters":38800,"station_id":"ce4bhn12rcd13ifvqgqg","pricing_plan_id":"cebpf4jnsgd1na2vs0mg"},{"bike_id":"1e6b0c16-c6ca-44c3-8633-a751ebbb6842","system_id":"levelo_inurba_marseille","lat":43.28607,"lon":5.37065,"is_reserved":false,"is_disabled":false,"rental_uris":{"android":"levelo://app?vid=1e6b0c16-c6ca-44c3-8633-a751ebbb6842","ios":"levelo://app?vid=1e6b0c16-c6ca-44c3-8633-a751ebbb6842"},"vehicle_type_id":"4","last_reported":1727331226,"current_range_meters":32800,"station_id":"ce4bht12rcd13ifvqi60","pricing_plan_id":"cebpf4jnsgd1na2vs0mg"},{"bike_id":"0f742747-e52d-47b8-aef6-58c6062f5817","system_id":"levelo_inurba_marseille","lat":43.28268,"lon":5.35067,"is_reserved":false,"is_disabled":false,"rental_uris":{"android":"levelo://app?vid=0f742747-e52d-47b8-aef6-58c6062f5817","ios":"levelo://app?vid=0f742747-e52d-47b8-aef6-58c6062f5817"},"vehicle_type_id":"4","last_reported":1727331226,"current_range_meters":37600,"station_id":"ce4bhbp2rcd13ifvqerg","pricing_plan_id":"cebpf4jnsgd1na2vs0mg"},