{"last_updated":1733249482,"ttl":60,"version":"2.2","data":{"bikes":[{"bike_id":"df479c2c-35ac-44ad-b9d6-81c89ed769ce","system_id":"levelo_inurba_marseille","lat":43.29697,"lon":5.37071,"is_reserved":false,"is_disabled":true,"rental_uris":{"android":"levelo://app?vid=df479c2c-35ac-44ad-b9d6-81c89ed769ce","ios":"levelo://app?vid=df479c2c-35ac-44ad-b9d6-81c89ed769ce"},"vehicle_type_id":"4","last_reported":1733249482,"current_range_meters":0,"station_id":"","pricing_plan_id":"cebpf4jnsgd1na2vs0mg"},{"bike_id":"8e029eaf-e104-4c5d-858d-6cd39de73d09","system_id":"levelo_inurba_marseille","lat":43.24182,"lon":5.36396,"is_reserved":false,"is_disabled":false,"rental_uris":{"android":"levelo://app?vid=8e029eaf-e104-4c5d-858d-6cd39de73d09","ios":"levelo://app?vid=8e029eaf-e104-4c5d-858d-6cd39de73d09"},"vehicle_type_id":"4","last_reported":1733249482,"current_range_meters":14000,"station_id":"cpo36qri1sfpv3e86is0","pricing_plan_id":"cebpf4jnsgd1na2vs0mg"},{"bike_id":"fd85f247-bc9f-4512-8957-89e7641ccdee","system_id":"levelo_inurba_marseille","lat":43.32476,"lon":5.36575,"is_reserved":false,"is_disabled":false,"rental_uris":{"android":"levelo://app?vid=fd85f247-bc9f-4512-8957-89e7641ccdee","ios":"levelo://app?vid=fd85f247-bc9f-4512-8957-89e7641ccdee"},"vehicle_type_id":"4","last_reported":1733249482,"current_range_meters":38000,"station_id":"ce4bhs12rcd13ifvqhvg","pricing_plan_id":"cebpf4jnsgd1na2vs0mg"},{"bike_id":"d6cf49a9-66ae-4e46-91f8-44b36ab435b0","system_id":"levelo_inurba_marseille","lat":43.2657,"lon":5.39002,"is_reserved":false,"is_disabled":true,"rental_uris":{"android":"levelo://app?vid=d6cf49a9-66ae-4e46-91f8-44b36ab435b0","ios":"levelo://app?vid=d6cf49a9-66ae-4e46-91f8-44b36ab435b0"},"vehicle_type_id":"4","last_reported":1733249482,"current_range_meters":0,"station_id":"ce4bhe12rcd13ifvqf30","pricing_plan_id":"cebpf4jnsgd1na2vs0mg"},{"bike_id":"d0ec3d06-3b2a-474b-804d-22ae12e47ed9","system_id":"levelo_inurba_marseille","lat":43.27328,"lon":5.39097,"is_reserved":false,"is_disabled":false,"rental_uris":{"android":"levelo://app?vid=d0ec3d06-3b2a-474b-804d-22ae12e47ed9","ios":"levelo://app?vid=d0ec3d06-3b2a-474b-804d-22ae12e47ed9"},"vehicle_type_id":"4","last_reported":1733249482,"current_range_meters":34000,"station_id":"ce4bhgp2rcd13ifvqfe0","pricing_plan_id":"cebpf4jnsgd1na2vs0mg"},{"bike_id":"51b51fa2-c31e-4579-91e7-095efd534359","system_id":"levelo_inurba_marseille","lat":43.23206,"lon":5.35548,"is_reserved":false,"is_disabled":false,"rental_uris":{"android":"levelo://app?vid=51b51fa2-c31e-4579-91e7-095efd534359","ios":"levelo://app?vid=51b51fa2-c31e-4579-91e7-095efd534359"},"vehicle_type_id":"4","last_reported":1733249482,"current_range_meters":38800,"station_id":"ce4bhu92rcd13ifvqi70","pricing_plan_id":"cebpf4jnsgd1na2vs0mg"},{"bike_id":"bf2697d8-6d9e-4d88-9119-8a9081010bc1","system_id":"levelo_inurba_marseille","lat":43.28001,"lon":5.40012,"is_reserved":false,"is_disabled":false,"rental_uris":{"android":"levelo://app?vid=bf2697d8-6d9e-4d88-9119-8a9081010bc1","ios":"levelo://app?vid=bf2697d8-6d9e-4d88-9119-8a9081010bc1"},"vehicle_type_id":"4","last_reported":1733249482,"current_range_meters":36800,"station_id":"ce4bho92rcd13ifvqh4g","pricing_plan_id":"cebpf4jnsgd1na2vs0mg"},{"bike_id":"44667e0e-3f11-43c3-8c43-85aa4e53fc8f","system_id":"levelo_inurba_marseille","lat":43.30425,"lon":5.41289,"is_reserved":false,"is_disabled":true,"rental_uris":{"android":"levelo://app?vid=44667e0e-3f11-43c3-8c43-85aa4e53fc8f","ios":"levelo://app?vid=44667e0e-3f11-43c3-8c43-85aa4e53fc8f"},"vehicle_type_id":"4","last_reported":1733249482,"current_range_meters":0,"station_id":"ce4bhop2rcd13ifvqh8g","pricing_plan_id":"cebpf4jnsgd1na2vs0mg"},{"bike_id":"be407bbe-d1ce-48de-8db2-09114af9efd7","system_id":"levelo_inurba_marseille","lat":43.32371,"lon":5.36762,"is_reserved":false,"is_disabled":false,"rental_uris":{"android":"levelo://app?vid=be407bbe-d1ce-48de-8db2-09114af9efd7","ios":"levelo://app?vid=be407bbe-d1ce-48de-8db2-09114af9efd7"},"vehicle_type_id":"4","last_reported":1733249482,"current_range_meters":37600,"station_id":"ce4bhsh2rcd13ifvqi2g","pricing_plan_id":"cebpf4jnsgd1na2vs0mg"},{"bike_id":"d7dbcf0e-e106-424c-996c-6cd9cd757ab9","system_id":"levelo_inurba_marseille","lat":43.29007,"lon":5.3561,"is_reserved":false,"is_disabled":false,"rental_uris":{"android":"levelo://app?vid=d7dbcf0e-e106-424c-996c-6cd9cd757ab9","ios":"levelo://app?vid=d7dbcf0e-e106-424c-996c-6cd9cd757ab9"},"vehicle_type_id":"4","last_reported":1733249482,"current_range_meters":19600,"station_id":"ce4bhb92rcd13ifvqen0","pricing_plan_id":"cebpf4jnsgd1na2vs0mg"},{"bike_id":"e40b678c-7cbe-44b0-93b4-49adceef9719","system_id":"levelo_inurba_marseille","lat":43.27808,"lon":5.40694,"is_reserved":false,"is_disabled":false,"rental_uris":{"android":"levelo://app?vid=e40b678c-7cbe-44b0-93b4-49adceef9719","ios":"levelo://app?vid=e40b678c-7cbe-44b0-93b4-49adceef9719"},"vehicle_type_id":"4","last_reported":1733249482,"current_range_meters":6400,"station_id":"ce4bhnh2rcd13ifvqgtg","pricing_plan_id":"cebpf4jnsgd1na2vs0mg"},{"bike_id":"d8336ea8-90bc-4350-bb3f-6d8f1f984358","system_id":"levelo_inurba_marseille","lat":43.26945,"lon":5.40241,"is_reserved":false,"is_disabled":false,"rental_uris":{"android":"levelo://app?vid=d8336ea8-90bc-4350-bb3f-6d8f1f984358","ios":"levelo://app?vid=d8336ea8-90bc-4350-bb3f-6d8f1f984358"},"vehicle_type_id":"4","last_reported":1733249482,"current_range_meters":38800,"station_id":"cjm6bp8fraef2m0cb0m0","pricing_plan_id":"cebpf4jnsgd1na2vs0mg"},{"bike_id":"8bd642b2-0279-44c7-9ee2-fc3b57332c83","system_id":"levelo_inurba_marseille","lat":43.27455,"lon":5.40073,"is_reserved":false,"is_disabled":true,"rental_uris":{"android":"levelo://app?vid=8bd642b2-0279-44c7-9ee2-fc3b57332c83","ios":"levelo://app?vid=8bd642b2-0279-44c7-9ee2-fc3b57332c83"},"vehicle_type_id":"4","last_reported":1733249482,"current_range_meters":0,"station_id":"","pricing_plan_id":"cebpf4jnsgd1na2vs0mg"},{"bike_id":"a9b97bd2-2737-4fe3-83bb-c578ee428248","system_id":"levelo_inurba_marseille","lat":43.28157,"lon":5.42643,"is_reserved":false,"is_disabled":false,"rental_uris":{"android":"levelo://app?vid=a9b97bd2-2737-4fe3-83bb-c578ee428248","ios":"levelo://app?vid=a9b97bd2-2737-4fe3-83bb-c578ee428248"},"vehicle_type_id":"4","last_reported":1733249482,"current_range_meters":36800,"station_id":"ce4bhnh2rcd13ifvqgug","pricing_plan_id":"cebpf4jnsgd1na2vs0mg"},{"bike_id":"681119d2-4353-495e-9538-aad3a13a901c","system_id":"levelo_inurba_marseille","lat":43.25118,"lon":5.40316,"is_reserved":false,"is_disabled":false,"rental_uris":{"android":"levelo://app?vid=681119d2-4353-495e-9538-aad3a13a901c","ios":"levelo://app?vid=681119d2-4353-495e-9538-aad3a13a901c"},"vehicle_type_id":"4","last_reported":1733249482,"current_range_meters":7200,"station_id":"ce4bhlh2rcd13ifvqgig","pricing_plan_id":"cebpf4jnsgd1na2vs0mg"},{"bike_id":"647c9f5d-38ae-406a-af37-47e78bdb92c8","system_id":"levelo_inurba_marseille","lat":43.337444,"lon":5.374475,"is_reserved":false,"is_disabled":false,"rental_uris":{"android":"levelo://app?vid=647c9f5d-38ae-406a-af37-47e78bdb92c8","ios":"levelo://app?vid=647c9f5d-38ae-406a-af37-47e78bdb92c8"},"vehicle_type_id":"4","last_reported":1733249482,"current_range_meters":24000,"station_id":"","pricing_plan_id":"cebpf4jnsgd1na2vs0mg"},{"bike_id":"5c5ccf3c-6336-43af-b9d7-7aada42cdeff","system_id":"levelo_inurba_marseille","lat":43.26196,"lon":5.37443,"is_reserved":false,"is_disabled":false,"rental_uris":{"android":"levelo://app?vid=5c5ccf3c-6336-43af-b9d7-7aada42cdeff","ios":"levelo://app?vid=5c5ccf3c-6336-43af-b9d7-7aada42cdeff"},"vehicle_type_id":"4","last_reported":1733249482,"current_range_meters":36400,"station_id":"ce4bhgp2rcd13ifvqfc0","pricing_plan_id":"cebpf4jnsgd1na2vs0mg"},{"bike_id":"b6e791c9-2922-4b25-9f25-0ff4226d4ab6","system_id":"levelo_inurba_marseille","lat":43.257048,"lon":5.410054,"is_reserved":false,"is_disabled":false,"rental_uris":{"android":"levelo://app?vid=b6e791c9-2922-4b25-9f25-0ff4226d4ab6","ios":"levelo://app?vid=b6e791c9-2922-4b25-9f25-0ff4226d4ab6"},"vehicle_type_id":"4","last_reported":1733249482,"current_range_meters":3200,"station_id":"ce4bhkp2rcd13ifvqgd0","pricing_plan_id":"cebpf4jnsgd1na2vs0mg"},{"bike_id":"c9ae347f-afd8-436c-933c-cf5e2e790d85","system_id":"levelo_inurba_marseille","lat":43.30236,"lon":5.39456,"is_reserved":false,"is_disabled":true,"rental_uris":{"android":"levelo://app?vid=c9ae347f-afd8-436c-933c-cf5e2e790d85","ios":"levelo://app?vid=c9ae347f-afd8-436c-933c-cf5e2e790d85"},"vehicle_type_id":"4","last_reported":1733249482,"current_range_meters":34000,"station_id":"ce4bh0p2rcd13ifvqd70","pricing_plan_id":"cebpf4jnsgd1na2vs0mg"},{"bike_id":"16c81e58-5de2-4b13-a3b2-87a46dd75cc9","system_id":"levelo_inurba_marseille","lat":43.31759,"lon":5.39007,"is_reserved":false,"is_disabled":false,"rental_uris":{"android":"levelo://app?vid=16c81e58-5de2-4b13-a3b2-87a46dd75cc9","ios":"levelo://app?vid=16c81e58-5de2-4b13-a3b2-87a46dd75cc9"},"vehicle_type_id":"4","last_reported":1733249482,"current_range_meters":38800,"station_id":"ce4bhqp2rcd13ifvqhng","pricing_plan_id":"cebpf4jnsgd1na2vs0mg"},{"bike_id":"207fcadf-a09e-4ac0-875d-c28a699c2e0a","system_id":"levelo_inurba_marseille","lat":43.290207,"lon":5.356146,"is_reserved":false,"is_disabled":false,"rental_uris":{"android":"levelo://app?vid=207fcadf-a09e-4ac0-875d-c28a699c2e0a","ios":"levelo://app?vid=207fcadf-a09e-4ac0-875d-c28a699c2e0a"},"vehicle_type_id":"4","last_reported":1733249482,"current_range_meters":38000,"station_id":"ce4bhb92rcd13ifvqen0","pricing_plan_id":"cebpf4jnsgd1na2vs0mg"},{"bike_id":"28b52837-d828-49e4-b4be-cfbac010c328","system_id":"levelo_inurba_marseille","lat":43.33727,"lon":5.39194,"is_reserved":false,"is_disabled":false,"rental_uris":{"android":"levelo://app?vid=28b52837-d828-49e4-b4be-cfbac010c328","ios":"levelo://app?vid=28b52837-d828-49e4-b4be-cfbac010c328"},"vehicle_type_id":"4","last_reported":1733249482,"current_range_meters":38800,"station_id":"ce4bhr92rcd13ifvqhsg","pricing_plan_id":"cebpf4jnsgd1na2vs0mg"},{"bike_id":"b3f478ac-3b05-4edf-bdbf-76399090f8e9","system_id":"levelo_inurba_marseille","lat":43.29994,"lon":5.37639,"is_reserved":false,"is_disabled":true,"rental_uris":{"android":"levelo://app?vid=b3f478ac-3b05-4edf-bdbf-76399090f8e9","ios":"levelo://app?vid=b3f478ac-3b05-4edf-bdbf-76399090f8e9"},"vehicle_type_id":"4","last_reported":1733249482,"current_range_meters":0,"station_id":"","pricing_plan_id":"cebpf4jnsgd1na2vs0mg"},{"bike_id":"c3587c28-5435-41c6-a9b7-aa468e6b19aa","system_id":"levelo_inurba_marseille","lat":43.29746,"lon":5.37916,"is_reserved":false,"is_disabled":true,"rental_uris":{"android":"levelo://app?vid=c3587c28-5435-41c6-a9b7-aa468e6b19aa","ios":"levelo://app?vid=c3587c28-5435-41c6-a9b7-aa468e6b19aa"},"vehicle_type_id":"4","last_reported":1733249482,"current_range_meters":0,"station_id":"","pricing_plan_id":"cebpf4jnsgd1na2vs0mg"},{"bike_id":"e8d9fcd3-6c4c-4c2e-a87e-41c5e4dfa6d0","system_id":"levelo_inurba_marseille","lat":43.25438,"lon":5.38158,"is_reserved":false,"is_disabled":true,"rental_uris":{"android":"levelo://app?vid=e8d9fcd3-6c4c-4c2e-a87e-41c5e4dfa6d0","ios":"levelo://app?vid=e8d9fcd3-6c4c-4c2e-a87e-41c5e4dfa6d0"},"vehicle_type_id":"4","last_reported":1733249482,"current_range_meters":0,"station_id":"","pricing_plan_id":"cebpf4jnsgd1na2vs0mg"},{"bike_id":"e7c2b082-ef91-42b1-9ef0-9e4329cee9cb","system_id":"levelo_inurba_marseille","lat":43.29969,"lon":5.40375,"is_reserved":false,"is_disabled":true,"rental_uris":{"android":"levelo://app?vid=e7c2b082-ef91-42b1-9ef0-9e4329cee9cb","ios":"levelo://app?vid=e7c2b082-ef91-42b1-9ef0-9e4329cee9cb"},"vehicle_type_id":"4","last_reported":1733249482,"current_range_meters":0,"station_id":"","pricing_plan_id":"cebpf4jnsgd1na2vs0mg"},{"bike_id":"16e03701-590e-4b64-8a34-43e9f78250b8","system_id":"levelo_inurba_marseille","lat":43.31331,"lon":5.39697,"is_reserved":false,"is_disabled":false,"rental_uris":{"android":"levelo://app?vid=16e03701-590e-4b64-8a34-43e9f78250b8","ios":"levelo://app?vid=16e03701-590e-4b64-8a34-43e9f78250b8"},"vehicle_type_id":"4","last_reported":1733249482,"current_range_meters":35200,"station_id":"ce4bgvp2rcd13ifvqcu0","pricing_plan_id":"cebpf4jnsgd1na2vs0mg"},{"bike_id":"ba2f11c3-a4e2-4666-8f95-d860b1c21946","system_id":"levelo_inurba_marseille","lat":43.23185,"lon":5.3997,"is_reserved":false,"is_disabled":false,"rental_uris":{"android":"levelo://app?vid=ba2f11c3-a4e2-4666-8f95-d860b1c21946","ios":"levelo://app?vid=ba2f11c3-a4e2-4666-8f95-d860b1c21946"},"vehicle_type_id":"4","last_reported":1733249482,"current_range_meters":33600,"station_id":"ce4bhn12rcd13ifvqgqg","pricing_plan_id":"cebpf4jnsgd1na2vs0mg"},{"bike_id":"e5af8f06-b11d-4a9c-a17e-c358f51ba456","system_id":"levelo_inurba_marseille","lat":43.24811,"lon":5.37462,"is_reserved":false,"is_disabled":false,"rental_uris":{"android":"levelo://app?vid=e5af8f06-b11d-4a9c-a17e-c358f51ba456","ios":"levelo://app?vid=e5af8f06-b11d-4a9c-a17e-c358f51ba456"},"vehicle_type_id":"4","last_reported":1733249482,"current_range_meters":38800,"station_id":"ce4bhgh2rcd13ifvqfb0","pricing_plan_id":"cebpf4jnsgd1na2vs0mg"},{"bike_id":"0ee0ab59-5abb-4d53-bc4d-a3af2b711996","system_id":"levelo_inurba_marseille","lat":43.32366,"lon":5.36756,"is_reserved":false,"is_disabled":false,"rental_uris":{"android":"levelo://app?vid=0ee0ab59-5abb-4d53-bc4d-a3af2b711996","ios":"levelo://app?vid=0ee0ab59-5abb-4d53-bc4d-a3af2b711996"},"vehicle_type_id":"4","last_reported":1733249482,"current_range_meters":33200,"station_id":"ce4bhsh2rcd13ifvqi2g","pricing_plan_id":"cebpf4jnsgd1na2vs0mg"},{"bike_id":"82da5bad-0c0f-4ceb-8f60-d497ea1da33c","system_id":"levelo_inurba_marseille","lat":43.23197,"lon":5.35547,"is_reserved":false,"is_disabled":false,"rental_uris":{"android":"levelo://app?vid=82da5bad-0c0f-4ceb-8f60-d497ea1da33c","ios":"levelo://app?vid=82da5bad-0c0f-4ceb-8f60-d497ea1da33c"},"vehicle_type_id":"4","last_reported":1733249482,"current_range_meters":38800,"station_id":"ce4bhu92rcd13ifvqi70","pricing_plan_id":"cebpf4jnsgd1na2vs0mg"},{"bike_id":"afcbeb75-6f5b-46e4-8346-25004ebb5bf8","system_id":"levelo_inurba_marseille","lat":43.31082,"lon":5.38345,"is_reserved":false,"is_disabled":false,"rental_uris":{"android":"levelo://app?vid=afcbeb75-6f5b-46e4-8346-25004ebb5bf8","ios":"levelo://app?vid=afcbeb75-6f5b-46e4-8346-25004ebb5bf8"},"vehicle_type_id":"4","last_reported":1733249482,"current_range_meters":30800,"station_id":"ce4bgv92rcd13ifvqcr0","pricing_plan_id":"cebpf4jnsgd1na2vs0mg"},{"bike_id":"19a39442-c7ac-49db-a0df-a3de8fa32134","system_id":"levelo_inurba_marseille","lat":43.27063,"lon":5.40261,"is_reserved":false,"is_disabled":false,"rental_uris":{"android":"levelo://app?vid=19a39442-c7ac-49db-a0df-a3de8fa32134","ios":"levelo://app?vid=19a39442-c7ac-49db-a0df-a3de8fa32134"},"vehicle_type_id":"4","last_reported":1733249482,"current_range_meters":19600,"station_id":"ce4bhk92rcd13ifvqgc0","pricing_plan_id":"cebpf4jnsgd1na2vs0mg"},{"bike_id":"e12bdda5-dc2c-4545-bb40-fff311effa17","system_id":"levelo_inurba_marseille","lat":43.29793,"lon":5.38101,"is_reserved":false,"is_disabled":true,"rental_uris":{"android":"levelo://app?vid=e12bdda5-dc2c-4545-bb40-fff311effa17","ios":"levelo://app?vid=e12bdda5-dc2c-4545-bb40-fff311effa17"},"vehicle_type_id":"4","last_reported":1733249482,"current_range_meters":0,"station_id":"ce4bgip2rcd13ifvqbb0","pricing_plan_id":"cebpf4jnsgd1na2vs0mg"},{"bike_id":"2f3968e7-9336-4ee4-ba78-8e92c0a818cc","system_id":"levelo_inurba_marseille","lat":43.31322,"lon":5.36647,"is_reserved":false,"is_disabled":true,"rental_uris":{"android":"levelo://app?vid=2f3968e7-9336-4ee4-ba78-8e92c0a818cc","ios":"levelo://app?vid=2f3968e7-9336-4ee4-ba78-8e92c0a818cc"},"vehicle_type_id":"4","last_reported":1733249482,"current_range_meters":6400,"station_id":"","pricing_plan_id":"cebpf4jnsgd1na2vs0mg"},{"bike_id":"a5ca46a8-0cef-4842-97f6-c032e2edc577","system_id":"levelo_inurba_marseille","lat":43.28355,"lon":5.38097,"is_reserved":false,"is_disabled":false,"rental_uris":{"android":"levelo://app?vid=a5ca46a8-0cef-4842-97f6-c032e2edc577","ios":"levelo://app?vid=a5ca46a8-0cef-4842-97f6-c032e2edc577"},"vehicle_type_id":"4","last_reported":1733249482,"current_range_meters":4800,"station_id":"ce4bh412rcd13ifvqdr0","pricing_plan_id":"cebpf4jnsgd1na2vs0mg"},{"bike_id":"16bea42d-3248-41fd-8b51-39fb3d7ec2c4","system_id":"levelo_inurba_marseille","lat":43.2648,"lon":5.38519,"is_reserved":false,"is_disabled":true,"rental_uris":{"android":"levelo://app?vid=16bea42d-3248-41fd-8b51-39fb3d7ec2c4","ios":"levelo://app?vid=16bea42d-3248-41fd-8b51-39fb3d7ec2c4"},"vehicle_type_id":"4","last_reported":1733249482,"current_range_meters":0,"station_id":"","pricing_plan_id":"cebpf4jnsgd1na2vs0mg"},{"bike_id":"0140b468-a727-455f-900e-1dd01f2f067d","system_id":"levelo_inurba_marseille","lat":43.2862,"lon":5.35101,"is_reserved":false,"is_disabled":false,"rental_uris":{"android":"levelo://app?vid=0140b468-a727-455f-900e-1dd01f2f067d","ios":"levelo://app?vid=0140b468-a727-455f-900e-1dd01f2f067d"},"vehicle_type_id":"4","last_reported":1733249482,"current_range_meters":22400,"station_id":"ce4bhch2rcd13ifvqeug","pricing_plan_id":"cebpf4jnsgd1na2vs0mg"},{"bike_id":"8aa77435-38a9-471a-8b27-546833cee6d3","system_id":"levelo_inurba_marseille","lat":43.26072,"lon":5.39383,"is_reserved":false,"is_disabled":false,"rental_uris":{"android":"levelo://app?vid=8aa77435-38a9-471a-8b27-546833cee6d3","ios":"levelo://app?vid=8aa77435-38a9-471a-8b27-546833cee6d3"},"vehicle_type_id":"4","last_reported":1733249482,"current_range_meters":16000,"station_id":"ce4bhh92rcd13ifvqfj0","pricing_plan_id":"cebpf4jnsgd1na2vs0mg"},{"bike_id":"75e45e5d-8ccc-450f-bfd6-fcecf1d96b18","system_id":"levelo_inurba_marseille","lat":43.28468,"lon":5.35891,"is_reserved":false,"is_disabled":true,"rental_uris":{"android":"levelo://app?vid=75e45e5d-8ccc-450f-bfd6-fcecf1d96b18","ios":"levelo://app?vid=75e45e5d-8ccc-450f-bfd6-fcecf1d96b18"},"vehicle_type_id":"4","last_reported":1733249482,"current_range_meters":400,"station_id":"ce4bhah2rcd13ifvqei0","pricing_plan_id":"cebpf4jnsgd1na2vs0mg"},{"bike_id":"be947476-4dc7-42d8-9f40-48c082bf1c53","system_id":"levelo_inurba_marseille","lat":43.30249,"lon":5.40054,"is_reserved":false,"is_disabled":false,"rental_uris":{"android":"levelo://app?vid=be947476-4dc7-42d8-9f40-48c082bf1c53","ios":"levelo://app?vid=be947476-4dc7-42d8-9f40-48c082bf1c53"},"vehicle_type_id":"4","last_reported":1733249482,"current_range_meters":19200,"station_id":"ce4bgvh2rcd13ifvqcs0","pricing_plan_id":"cebpf4jnsgd1na2vs0mg"},{"bike_id":"dc024656-8506-4b5a-a609-460bbae9d176","system_id":"levelo_inurba_marseille","lat":43.30812,"lon":5.379282,"is_reserved":false,"is_disabled":false,"rental_uris":{"android":"levelo://app?vid=dc024656-8506-4b5a-a609-460bbae9d176","ios":"levelo://app?vid=dc024656-8506-4b5a-a609-460bbae9d176"},"vehicle_type_id":"4","last_reported":1733249482,"current_range_meters":22000,"station_id":"","pricing_plan_id":"cebpf4jnsgd1na2vs0mg"},{"bike_id":"dc980a27-75cd-4f72-8ee5-cb8efb03514c","system_id":"levelo_inurba_marseille","lat":43.29555,"lon":5.42295,"is_reserved":false,"is_disabled":false,"rental_uris":{"android":"levelo://app?vid=dc980a27-75cd-4f72-8ee5-cb8efb03514c","ios":"levelo://app?vid=dc980a27-75cd-4f72-8ee5-cb8efb03514c"},"vehicle_type_id":"4","last_reported":1733249482,"current_range_meters":8800,"station_id":"ce4bhph2rcd13ifvqhdg","pricing_plan_id":"cebpf4jnsgd1na2vs0mg"},{"bike_id":"38f03201-8844-4129-bd7f-46c6cdcda2c5","system_id":"levelo_inurba_marseille","lat":43.28701,"lon":5.39985,"is_reserved":false,"is_disabled":false,"rental_uris":{"android":"levelo://app?vid=38f03201-8844-4129-bd7f-46c6cdcda2c5","ios":"levelo://app?vid=38f03201-8844-4129-bd7f-46c6cdcda2c5"},"vehicle_type_id":"4","last_reported":1733249482,"current_range_meters":9600,"station_id":"ce4bho92rcd13ifvqh3g","pricing_plan_id":"cebpf4jnsgd1na2vs0mg"},{"bike_id":"5ec23ff3-20df-46bf-92e4-fe56f6cc3834","system_id":"levelo_inurba_marseille","lat":43.31273,"lon":5.4017,"is_reserved":false,"is_disabled":false,"rental_uris":{"android":"levelo://app?vid=5ec23ff3-20df-46bf-92e4-fe56f6cc3834","ios":"levelo://app?vid=5ec23ff3-20df-46bf-92e4-fe56f6cc3834"},"vehicle_type_id":"4","last_reported":1733249482,"current_range_meters":32400,"station_id":"ce4bh092rcd13ifvqd30","pricing_plan_id":"cebpf4jnsgd1na2vs0mg"},{"bike_id":"0f03cf6f-7916-43e3-9bea-acf3e77b14b5","system_id":"levelo_inurba_marseille","lat":43.28992,"lon":5.35632,"is_reserved":false,"is_disabled":false,"rental_uris":{"android":"levelo://app?vid=0f03cf6f-7916-43e3-9bea-acf3e77b14b5","ios":"levelo://app?vid=0f03cf6f-7916-43e3-9bea-acf3e77b14b5"},"vehicle_type_id":"4","last_reported":1733249482,"current_range_meters":30400,"station_id":"ce4bhb92rcd13ifvqen0","pricing_plan_id":"cebpf4jnsgd1na2vs0mg"},{"bike_id":"45825f8d-9cca-4964-9c46-cdbe012a99ed","system_id":"levelo_inurba_marseille","lat":43.29197,"lon":5.39329,"is_reserved":false,"is_disabled":false,"rental_uris":{"android":"levelo://app?vid=45825f8d-9cca-4964-9c46-cdbe012a99ed","ios":"levelo://app?vid=45825f8d-9cca-4964-9c46-cdbe012a99ed"},"vehicle_type_id":"4","last_reported":1733249482,"current_range_meters":4800,"station_id":"ce4bh192rcd13ifvqdd0","pricing_plan_id":"cebpf4jnsgd1na2vs0mg"},{"bike_id":"854bdf22-ad20-46ef-85a2-262e5a1a4dee","system_id":"levelo_inurba_marseille","lat":43.3414,"lon":5.40908,"is_reserved":false,"is_disabled":true,"rental_uris":{"android":"levelo://app?vid=854bdf22-ad20-46ef-85a2-262e5a1a4dee","ios":"levelo://app?vid=854bdf22-ad20-46ef-85a2-262e5a1a4dee"},"vehicle_type_id":"4","last_reported":1733249482,"current_range_meters":400,"station_id":"ce4bhqh2rcd13ifvqhlg","pricing_plan_id":"cebpf4jnsgd1na2vs0mg"},{"bike_id":"7222ffc9-0b67-4903-a9cc-b1a7538609f2","system_id":"levelo_inurba_marseille","lat":43.2885,"lon":5.35847,"is_reserved":false,"is_disabled":false,"rental_uris":{"android":"levelo://app?vid=7222ffc9-0b67-4903-a9cc-b1a7538609f2","ios":"levelo://app?vid=7222ffc9-0b67-4903-a9cc-b1a7538609f2"},"vehicle_type_id":"4","last_reported":1733249482,"current_range_meters":8400,"station_id":"ce4bhb12rcd13ifvqem0","pricing_plan_id":"cebpf4jnsgd1na2vs0mg"},{"bike_id":"742dab92-5096-4264-b55b-0340560689eb","system_id":"levelo_inurba_marseille","lat":43.28699,"lon":5.37397,"is_reserved":false,"is_disabled":false,"rental_uris":{"android":"levelo://app?vid=742dab92-5096-4264-b55b-0340560689eb","ios":"levelo://app?vid=742dab92-5096-4264-b55b-0340560689eb"},"vehicle_type_id":"4","last_reported":1733249482,"current_range_meters":10800,"station_id":"ce4bh3p2rcd13ifvqdq0","pricing_plan_id":"cebpf4jnsgd1na2vs0mg"},{"bike_id":"ffa544dd-a5fd-408b-8d44-6dfd4900d2c7","system_id":"levelo_inurba_marseille","lat":43.33607,"lon":5.41032,"is_reserved":false,"is_disabled":false,"rental_uris":{"android":"levelo://app?vid=ffa544dd-a5fd-408b-8d44-6dfd4900d2c7","ios":"levelo://app?vid=ffa544dd-a5fd-408b-8d44-6dfd4900d2c7"},"vehicle_type_id":"4","last_reported":1733249482,"current_range_meters":19600,"station_id":"ce4bhqh2rcd13ifvqhmg","pricing_plan_id":"cebpf4jnsgd1na2vs0mg"},{"bike_id":"5d20ead0-4b56-4c9e-a99f-651e126fa927","system_id":"levelo_inurba_marseille","lat":43.28113,"lon":5.43974,"is_reserved":false,"is_disabled":false,"rental_uris":{"android":"levelo://app?vid=5d20ead0-4b56-4c9e-a99f-651e126fa927","ios":"levelo://app?vid=5d20ead0-4b56-4c9e-a99f-651e126fa927"},"vehicle_type_id":"4","last_reported":1733249482,"current_range_meters":16400,"station_id":"","pricing_plan_id":"cebpf4jnsgd1na2vs0mg"},{"bike_id":"2328afe4-3679-437e-827c-94361c2e185f","system_id":"levelo_inurba_marseille","lat":43.28572,"lon":5.39497,"is_reserved":false,"is_disabled":false,"rental_uris":{"android":"levelo://app?vid=2328afe4-3679-437e-827c-94361c2e185f","ios":"levelo://app?vid=2328afe4-3679-437e-827c-94361c2e185f"},"vehicle_type_id":"4","last_reported":1733249482,"current_range_meters":18000,"station_id":"ce4bh292rcd13ifvqdg0","pricing_plan_id":"cebpf4jnsgd1na2vs0mg"},{"bike_id":"7c9b5b08-94ce-494b-ab98-00876d99d3d4","system_id":"levelo_inurba_marseille","lat":43.29632,"lon":5.40594,"is_reserved":false,"is_disabled":false,"rental_uris":{"android":"levelo://app?vid=7c9b5b08-94ce-494b-ab98-00876d99d3d4","ios":"levelo://app?vid=7c9b5b08-94ce-494b-ab98-00876d99d3d4"},"vehicle_type_id":"4","last_reported":1733249482,"current_range_meters":19200,"station_id":"ce4bh0h2rcd13ifvqd60","pricing_plan_id":"cebpf4jnsgd1na2vs0mg"},{"bike_id":"d28dff53-d52e-48d4-8d75-b29e123ad4f6","system_id":"levelo_inurba_marseille","lat":43.2466,"lon":5.38161,"is_reserved":false,"is_disabled":false,"rental_uris":{"android":"levelo://app?vid=d28dff53-d52e-48d4-8d75-b29e123ad4f6","ios":"levelo://app?vid=d28dff53-d52e-48d4-8d75-b29e123ad4f6"},"vehicle_type_id":"4","last_reported":1733249482,"current_range_meters":20800,"station_id":"ce4bhih2rcd13ifvqfr0","pricing_plan_id":"cebpf4jnsgd1na2vs0mg"},{"bike_id":"8d3823ea-8728-4708-a8ab-a7316ed9637a","system_id":"levelo_inurba_marseille","lat":43.28939,"lon":5.36632,"is_reserved":false,"is_disabled":true,"rental_uris":{"android":"levelo://app?vid=8d3823ea-8728-4708-a8ab-a7316ed9637a","ios":"levelo://app?vid=8d3823ea-8728-4708-a8ab-a7316ed9637a"},"vehicle_type_id":"4","last_reported":1733249482,"current_range_meters":23200,"station_id":"ce4bhap2rcd13ifvqek0","pricing_plan_id":"cebpf4jnsgd1na2vs0mg"},{"bike_id":"17684b53-454d-47e4-aba8-4d08922f63f0","system_id":"levelo_inurba_marseille","lat":43.30331,"lon":5.40428,"is_reserved":false,"is_disabled":true,"rental_uris":{"android":"levelo://app?vid=17684b53-454d-47e4-aba8-4d08922f63f0","ios":"levelo://app?vid=17684b53-454d-47e4-aba8-4d08922f63f0"},"vehicle_type_id":"4","last_reported":1733249482,"current_range_meters":1600,"station_id":"ce4bh012rcd13ifvqd10","pricing_plan_id":"cebpf4jnsgd1na2vs0mg"},{"bike_id":"45ff3798-a743-4ffc-962c-fbce8ce4e073","system_id":"levelo_inurba_marseille","lat":43.23148,"lon":5.43711,"is_reserved":false,"is_disabled":false,"rental_uris":{"android":"levelo://app?vid=45ff3798-a743-4ffc-962c-fbce8ce4e073","ios":"levelo://app?vid=45ff3798-a743-4ffc-962c-fbce8ce4e073"},"vehicle_type_id":"4","last_reported":1733249482,"current_range_meters":10000,"station_id":"ce4bhmp2rcd13ifvqgog","pricing_plan_id":"cebpf4jnsgd1na2vs0mg"},{"bike_id":"567b24a1-00e9-4dae-8734-02dea2eb2806","system_id":"levelo_inurba_marseille","lat":43.29375,"lon":5.37828,"is_reserved":false,"is_disabled":false,"rental_uris":{"android":"levelo://app?vid=567b24a1-00e9-4dae-8734-02dea2eb2806","ios":"levelo://app?vid=567b24a1-00e9-4dae-8734-02dea2eb2806"},"vehicle_type_id":"4","last_reported":1733249482,"current_range_meters":28400,"station_id":"ce4bgjh2rcd13ifvqbf0","pricing_plan_id":"cebpf4jnsgd1na2vs0mg"},{"bike_id":"cb18a97f-360b-42ae-896e-1b05c8d31e47","system_id":"levelo_inurba_marseille","lat":43.30965,"lon":5.3903,"is_reserved":false,"is_disabled":true,"rental_uris":{"android":"levelo://app?vid=cb18a97f-360b-42ae-896e-1b05c8d31e47","ios":"levelo://app?vid=cb18a97f-360b-42ae-896e-1b05c8d31e47"},"vehicle_type_id":"4","last_reported":1733249482,"current_range_meters":800,"station_id":"ce4bgup2rcd13ifvqco0","pricing_plan_id":"cebpf4jnsgd1na2vs0mg"},{"bike_id":"cdfe6590-4984-4014-86c8-6dd70747c27a","system_id":"levelo_inurba_marseille","lat":43.29737,"lon":5.37434,"is_reserved":false,"is_disabled":true,"rental_uris":{"android":"levelo://app?vid=cdfe6590-4984-4014-86c8-6dd70747c27a","ios":"levelo://app?vid=cdfe6590-4984-4014-86c8-6dd70747c27a"},"vehicle_type_id":"4","last_reported":1733249482,"current_range_meters":0,"station_id":"","pricing_plan_id":"cebpf4jnsgd1na2vs0mg"},{"bike_id":"8c10b77e-9276-4f90-bb28-d9403699abca","system_id":"levelo_inurba_marseille","lat":43.27565,"lon":5.38427,"is_reserved":false,"is_disabled":true,"rental_uris":{"android":"levelo://app?vid=8c10b77e-9276-4f90-bb28-d9403699abca","ios":"levelo://app?vid=8c10b77e-9276-4f90-bb28-d9403699abca"},"vehicle_type_id":"4","last_reported":1733249482,"current_range_meters":0,"station_id":"ce4bhh92rcd13ifvqfi0","pricing_plan_id":"cebpf4jnsgd1na2vs0mg"},{"bike_id":"3aae67b4-68e8-4c34-adad-8f64fe6c431d","system_id":"levelo_inurba_marseille","lat":43.26556,"lon":5.37282,"is_reserved":false,"is_disabled":false,"rental_uris":{"android":"levelo://app?vid=3aae67b4-68e8-4c34-adad-8f64fe6c431d","ios":"levelo://app?vid=3aae67b4-68e8-4c34-adad-8f64fe6c431d"},"vehicle_type_id":"4","last_reported":1733249482,"current_range_meters":28800,"station_id":"ce4bhg12rcd13ifvqf70","pricing_plan_id":"cebpf4jnsgd1na2vs0mg"},{"bike_id":"9be91ae4-f0e4-4815-8771-11307b3a366c","system_id":"levelo_inurba_marseille","lat":43.33024,"lon":5.39037,"is_reserved":false,"is_disabled":false,"rental_uris":{"android":"levelo://app?vid=9be91ae4-f0e4-4815-8771-11307b3a366c","ios":"levelo://app?vid=9be91ae4-f0e4-4815-8771-11307b3a366c"},"vehicle_type_id":"4","last_reported":1733249482,"current_range_meters":8400,"station_id":"ce4bhr92rcd13ifvqhrg","pricing_plan_id":"cebpf4jnsgd1na2vs0mg"},{"bike_id":"36142e23-8ff6-4096-ad19-b039c8156b69","system_id":"levelo_inurba_marseille","lat":43.2866,"lon":5.36338,"is_reserved":false,"is_disabled":true,"rental_uris":{"android":"levelo://app?vid=36142e23-8ff6-4096-ad19-b039c8156b69","ios":"levelo://app?vid=36142e23-8ff6-4096-ad19-b039c8156b69"},"vehicle_type_id":"4","last_reported":1733249482,"current_range_meters":30000,"station_id":"ce4bhah2rcd13ifvqej0","pricing_plan_id":"cebpf4jnsgd1na2vs0mg"},{"bike_id":"42b9061c-3a22-4f56-8cdd-6e08457777e2","system_id":"levelo_inurba_marseille","lat":43.29826,"lon":5.39761,"is_reserved":false,"is_disabled":false,"rental_uris":{"android":"levelo://app?vid=42b9061c-3a22-4f56-8cdd-6e08457777e2","ios":"levelo://app?vid=42b9061c-3a22-4f56-8cdd-6e08457777e2"},"vehicle_type_id":"4","last_reported":1733249482,"current_range_meters":38800,"station_id":"","pricing_plan_id":"cebpf4jnsgd1na2vs0mg"},{"bike_id":"6b0622fe-a678-470a-8cb7-c675ecc40120","system_id":"levelo_inurba_marseille","lat":43.2926,"lon":5.40909,"is_reserved":false,"is_disabled":false,"rental_uris":{"android":"levelo://app?vid=6b0622fe-a678-470a-8cb7-c675ecc40120","ios":"levelo://app?vid=6b0622fe-a678-470a-8cb7-c675ecc40120"},"vehicle_type_id":"4","last_reported":1733249482,"current_range_meters":36400,"station_id":"ce4bh192rcd13ifvqdc0","pricing_plan_id":"cebpf4jnsgd1na2vs0mg"},{"bike_id":"4c3fb316-febe-4764-b0a1-d58fd67e3e9a","system_id":"levelo_inurba_marseille","lat":43.28175,"lon":5.38274,"is_reserved":false,"is_disabled":true,"rental_uris":{"android":"levelo://app?vid=4c3fb316-febe-4764-b0a1-d58fd67e3e9a","ios":"levelo://app?vid=4c3fb316-febe-4764-b0a1-d58fd67e3e9a"},"vehicle_type_id":"4","last_reported":1733249482,"current_range_meters":25600,"station_id":"","pricing_plan_id":"cebpf4jnsgd1na2vs0mg"},{"bike_id":"987a5ab4-d60c-480c-94b6-7cab38975402","system_id":"levelo_inurba_marseille","lat":43.29748,"lon":5.37971,"is_reserved":false,"is_disabled":true,"rental_uris":{"android":"levelo://app?vid=987a5ab4-d60c-480c-94b6-7cab38975402","ios":"levelo://app?vid=987a5ab4-d60c-480c-94b6-7cab38975402"},"vehicle_type_id":"4","last_reported":1733249482,"current_range_meters":0,"station_id":"","pricing_plan_id":"cebpf4jnsgd1na2vs0mg"},{"bike_id":"6877f033-d09d-44d8-8868-c02f5054dd5f","system_id":"levelo_inurba_marseille","lat":43.31482,"lon":5.37276,"is_reserved":false,"is_disabled":false,"rental_uris":{"android":"levelo://app?vid=6877f033-d09d-44d8-8868-c02f5054dd5f","ios":"levelo://app?vid=6877f033-d09d-44d8-8868-c02f5054dd5f"},"vehicle_type_id":"4","last_reported":1733249482,"current_range_meters":10000,"station_id":"ce4bgt12rcd13ifvqcd0","pricing_plan_id":"cebpf4jnsgd1na2vs0mg"},{"bike_id":"2c4596ad-0ad9-4016-b92b-0093349de2b4","system_id":"levelo_inurba_marseille","lat":43.3072,"lon":5.38235,"is_reserved":false,"is_disabled":true,"rental_uris":{"android":"levelo://app?vid=2c4596ad-0ad9-4016-b92b-0093349de2b4","ios":"levelo://app?vid=2c4596ad-0ad9-4016-b92b-0093349de2b4"},"vehicle_type_id":"4","last_reported":1733249482,"current_range_meters":0,"station_id":"","pricing_plan_id":"cebpf4jnsgd1na2vs0mg"},{"bike_id":"01bf2d77-2887-492a-8e61-418aad60aab8","system_id":"levelo_inurba_marseille","lat":43.23183,"lon":5.39984,"is_reserved":false,"is_disabled":false,"rental_uris":{"android":"levelo://app?vid=01bf2d77-2887-492a-8e61-418aad60aab8","ios":"levelo://app?vid=01bf2d77-2887-492a-8e61-418aad60aab8"},"vehicle_type_id":"4","last_reported":1733249482,"current_range_meters":26800,"station_id":"ce4bhn12rcd13ifvqgqg","pricing_plan_id":"cebpf4jnsgd1na2vs0mg"},{"bike_id":"1f28300c-d8be-4d08-b5ea-d3aadf1e301d","system_id":"levelo_inurba_marseille","lat":43.26262,"lon":5.42107,"is_reserved":false,"is_disabled":false,"rental_uris":{"android":"levelo://app?vid=1f28300c-d8be-4d08-b5ea-d3aadf1e301d","ios":"levelo://app?vid=1f28300c-d8be-4d08-b5ea-d3aadf1e301d"},"vehicle_type_id":"4","last_reported":1733249482,"current_range_meters":17600,"station_id":"","pricing_plan_id":"cebpf4jnsgd1na2vs0mg"},{"bike_id":"b7ab8c01-033f-4395-8276-23c850ad3d02","system_id":"levelo_inurba_marseille","lat":43.30327,"lon":5.36572,"is_reserved":false,"is_disabled":true,"rental_uris":{"android":"levelo://app?vid=b7ab8c01-033f-4395-8276-23c850ad3d02","ios":"levelo://app?vid=b7ab8c01-033f-4395-8276-23c850ad3d02"},"vehicle_type_id":"4","last_reported":1733249482,"current_range_meters":0,"station_id":"","pricing_plan_id":"cebpf4jnsgd1na2vs0mg"},{"bike_id":"5e952925-1491-4f8f-b074-0d84f66a6dea","system_id":"levelo_inurba_marseille","lat":43.32292,"lon":5.38276,"is_reserved":false,"is_disabled":false,"rental_uris":{"android":"levelo://app?vid=5e952925-1491-4f8f-b074-0d84f66a6dea","ios":"levelo://app?vid=5e952925-1491-4f8f-b074-0d84f66a6dea"},"vehicle_type_id":"4","last_reported":1733249482,"current_range_meters":34000,"station_id":"ce4bhr12rcd13ifvqhqg","pricing_plan_id":"cebpf4jnsgd1na2vs0mg"},{"bike_id":"c6e6729e-5027-422b-b134-990c8bb67ebc","system_id":"levelo_inurba_marseille","lat":43.28047,"lon":5.36948,"is_reserved":false,"is_disabled":false,"rental_uris":{"android":"levelo://app?vid=c6e6729e-5027-422b-b134-990c8bb67ebc","ios":"levelo://app?vid=c6e6729e-5027-422b-b134-990c8bb67ebc"},"vehicle_type_id":"4","last_reported":1733249482,"current_range_meters":39200,"station_id":"ce4bha12rcd13ifvqef0","pricing_plan_id":"cebpf4jnsgd1na2vs0mg"},{"bike_id":"ce9f5d0c-0440-494a-92a3-99b91e99b586","system_id":"levelo_inurba_marseille","lat":43.27578,"lon":5.38425,"is_reserved":false,"is_disabled":true,"rental_uris":{"android":"levelo://app?vid=ce9f5d0c-0440-494a-92a3-99b91e99b586","ios":"levelo://app?vid=ce9f5d0c-0440-494a-92a3-99b91e99b586"},"vehicle_type_id":"4","last_reported":1733249482,"current_range_meters":0,"station_id":"ce4bhh92rcd13ifvqfi0","pricing_plan_id":"cebpf4jnsgd1na2vs0mg"},{"bike_id":"8d8f863b-0066-4dab-b916-897fbd65d119","system_id":"levelo_inurba_marseille","lat":43.30037,"lon":5.38031,"is_reserved":false,"is_disabled":false,"rental_uris":{"android":"levelo://app?vid=8d8f863b-0066-4dab-b916-897fbd65d119","ios":"levelo://app?vid=8d8f863b-0066-4dab-b916-897fbd65d119"},"vehicle_type_id":"4","last_reported":1733249482,"current_range_meters":16400,"station_id":"","pricing_plan_id":"cebpf4jnsgd1na2vs0mg"},{"bike_id":"628370d3-5e99-4a21-86ce-21d8816893e1","system_id":"levelo_inurba_marseille","lat":43.292,"lon":5.39336,"is_reserved":false,"is_disabled":false,"rental_uris":{"android":"levelo://app?vid=628370d3-5e99-4a21-86ce-21d8816893e1","ios":"levelo://app?vid=628370d3-5e99-4a21-86ce-21d8816893e1"},"vehicle_type_id":"4","last_reported":1733249482,"current_range_meters":17200,"station_id":"ce4bh192rcd13ifvqdd0","pricing_plan_id":"cebpf4jnsgd1na2vs0mg"},{"bike_id":"330a642a-274e-4e68-8fe1-5d4031c17262","system_id":"levelo_inurba_marseille","lat":43.26488,"lon":5.395475,"is_reserved":false,"is_disabled":false,"rental_uris":{"android":"levelo://app?vid=330a642a-274e-4e68-8fe1-5d4031c17262","ios":"levelo://app?vid=330a642a-274e-4e68-8fe1-5d4031c17262"},"vehicle_type_id":"4","last_reported":1733249482,"current_range_meters":38800,"station_id":"ce4bhi12rcd13ifvqfq0","pricing_plan_id":"cebpf4jnsgd1na2vs0mg"},{"bike_id":"6cc6805f-c0ca-4585-bdf1-b5a0339762b0","system_id":"levelo_inurba_marseille","lat":43.29014,"lon":5.42792,"is_reserved":false,"is_disabled":true,"rental_uris":{"android":"levelo://app?vid=6cc6805f-c0ca-4585-bdf1-b5a0339762b0","ios":"levelo://app?vid=6cc6805f-c0ca-4585-bdf1-b5a0339762b0"},"vehicle_type_id":"4","last_reported":1733249482,"current_range_meters":2000,"station_id":"","pricing_plan_id":"cebpf4jnsgd1na2vs0mg"},{"bike_id":"66e5e480-df3d-4353-82a1-17abdba691f0","system_id":"levelo_inurba_marseille","lat":43.29189,"lon":5.35797,"is_reserved":false,"is_disabled":false,"rental_uris":{"android":"levelo://app?vid=66e5e480-df3d-4353-82a1-17abdba691f0","ios":"levelo://app?vid=66e5e480-df3d-4353-82a1-17abdba691f0"},"vehicle_type_id":"4","last_reported":1733249482,"current_range_meters":18800,"station_id":"ce4bhb12rcd13ifvqel0","pricing_plan_id":"cebpf4jnsgd1na2vs0mg"},{"bike_id":"8d1c8b92-79bb-4181-b0d2-5e94db1a14d0","system_id":"levelo_inurba_marseille","lat":43.30006,"lon":5.38259,"is_reserved":false,"is_disabled":true,"rental_uris":{"android":"levelo://app?vid=8d1c8b92-79bb-4181-b0d2-5e94db1a14d0","ios":"levelo://app?vid=8d1c8b92-79bb-4181-b0d2-5e94db1a14d0"},"vehicle_type_id":"4","last_reported":1733249482,"current_range_meters":0,"station_id":"","pricing_plan_id":"cebpf4jnsgd1na2vs0mg"},{"bike_id":"5741a92c-5fdd-4387-bf90-3ee06302df87","system_id":"levelo_inurba_marseille","lat":43.31069,"lon":5.3834,"is_reserved":false,"is_disabled":false,"rental_uris":{"android":"levelo://app?vid=5741a92c-5fdd-4387-bf90-3ee06302df87","ios":"levelo://app?vid=5741a92c-5fdd-4387-bf90-3ee06302df87"},"vehicle_type_id":"4","last_reported":1733249482,"current_range_meters":35200,"station_id":"ce4bgv92rcd13ifvqcr0","pricing_plan_id":"cebpf4jnsgd1na2vs0mg"},{"bike_id":"d12e07bc-303e-4665-a4bc-2ae6e909e195","system_id":"levelo_inurba_marseille","lat":43.30829,"lon":5.40024,"is_reserved":false,"is_disabled":false,"rental_uris":{"android":"levelo://app?vid=d12e07bc-303e-4665-a4bc-2ae6e909e195","ios":"levelo://app?vid=d12e07bc-303e-4665-a4bc-2ae6e909e195"},"vehicle_type_id":"4","last_reported":1733249482,"current_range_meters":36400,"station_id":"","pricing_plan_id":"cebpf4jnsgd1na2vs0mg"},{"bike_id":"8c6ae27f-3733-439a-943c-f088570574ea","system_id":"levelo_inurba_marseille","lat":43.24803,"lon":5.37454,"is_reserved":false,"is_disabled":false,"rental_uris":{"android":"levelo://app?vid=8c6ae27f-3733-439a-943c-f088570574ea","ios":"levelo://app?vid=8c6ae27f-3733-439a-943c-f088570574ea"},"vehicle_type_id":"4","last_reported":1733249482,"current_range_meters":38800,"station_id":"ce4bhgh2rcd13ifvqfb0","pricing_plan_id":"cebpf4jnsgd1na2vs0mg"},{"bike_id":"30548017-e5f5-4193-a4b7-acc2c9e9bfdb","system_id":"levelo_inurba_marseille","lat":43.3302,"lon":5.39041,"is_reserved":false,"is_disabled":false,"rental_uris":{"android":"levelo://app?vid=30548017-e5f5-4193-a4b7-acc2c9e9bfdb","ios":"levelo://app?vid=30548017-e5f5-4193-a4b7-acc2c9e9bfdb"},"vehicle_type_id":"4","last_reported":1733249482,"current_range_meters":38800,"station_id":"ce4bhr92rcd13ifvqhrg","pricing_plan_id":"cebpf4jnsgd1na2vs0mg"},{"bike_id":"ae11192b-7477-4050-9e15-a2e6b81f0e44","system_id":"levelo_inurba_marseille","lat":43.30263,"lon":5.38664,"is_reserved":false,"is_disabled":false,"rental_uris":{"android":"levelo://app?vid=ae11192b-7477-4050-9e15-a2e6b81f0e44","ios":"levelo://app?vid=ae11192b-7477-4050-9e15-a2e6b81f0e44"},"vehicle_type_id":"4","last_reported":1733249482,"current_range_meters":8400,"station_id":"","pricing_plan_id":"cebpf4jnsgd1na2vs0mg"},{"bike_id":"4e666bff-a384-4eb4-909f-618e48911254","system_id":"levelo_inurba_marseille","lat":43.27995,"lon":5.400227,"is_reserved":false,"is_disabled":false,"rental_uris":{"android":"levelo://app?vid=4e666bff-a384-4eb4-909f-618e48911254","ios":"levelo://app?vid=4e666bff-a384-4eb4-909f-618e48911254"},"vehicle_type_id":"4","last_reported":1733249482,"current_range_meters":38800,"station_id":"ce4bho92rcd13ifvqh4g","pricing_plan_id":"cebpf4jnsgd1na2vs0mg"},{"bike_id":"1ca0aca0-4ca4-4bf8-9b1d-054345c3a341","system_id":"levelo_inurba_marseille","lat":43.28709,"lon":5.39968,"is_reserved":false,"is_disabled":false,"rental_uris":{"android":"levelo://app?vid=1ca0aca0-4ca4-4bf8-9b1d-054345c3a341","ios":"levelo://app?vid=1ca0aca0-4ca4-4bf8-9b1d-054345c3a341"},"vehicle_type_id":"4","last_reported":1733249482,"current_range_meters":32800,"station_id":"ce4bho92rcd13ifvqh3g","pricing_plan_id":"cebpf4jnsgd1na2vs0mg"},{"bike_id":"4f8c6457-7b21-40cc-8da9-83dbe00b2111","system_id":"levelo_inurba_marseille","lat":43.2795,"lon":5.4105,"is_reserved":false,"is_disabled":false,"rental_uris":{"android":"levelo://app?vid=4f8c6457-7b21-40cc-8da9-83dbe00b2111","ios":"levelo://app?vid=4f8c6457-7b21-40cc-8da9-83dbe00b2111"},"vehicle_type_id":"4","last_reported":1733249482,"current_range_meters":35200,"station_id":"ce4bhnp2rcd13ifvqh0g","pricing_plan_id":"cebpf4jnsgd1na2vs0mg"},{"bike_id":"d2c28698-e177-4ec3-804c-ede2349774ad","system_id":"levelo_inurba_marseille","lat":43.26045,"lon":5.37549,"is_reserved":false,"is_disabled":false,"rental_uris":{"android":"levelo://app?vid=d2c28698-e177-4ec3-804c-ede2349774ad","ios":"levelo://app?vid=d2c28698-e177-4ec3-804c-ede2349774ad"},"vehicle_type_id":"4","last_reported":1733249482,"current_range_meters":12000,"station_id":"ce4bhgh2rcd13ifvqfa0","pricing_plan_id":"cebpf4jnsgd1na2vs0mg"},{"bike_id":"9f4deee7-7f31-4c2e-82c6-46a38d5aa3cf","system_id":"levelo_inurba_marseille","lat":43.2984,"lon":5.36263,"is_reserved":false,"is_disabled":false,"rental_uris":{"android":"levelo://app?vid=9f4deee7-7f31-4c2e-82c6-46a38d5aa3cf","ios":"levelo://app?vid=9f4deee7-7f31-4c2e-82c6-46a38d5aa3cf"},"vehicle_type_id":"4","last_reported":1733249482,"current_range_meters":38800,"station_id":"ce4bgpp2rcd13ifvqc3g","pricing_plan_id":"cebpf4jnsgd1na2vs0mg"},{"bike_id":"f8f377b7-0b8d-4c3e-b327-5132c9308c8a","system_id":"levelo_inurba_marseille","lat":43.28856,"lon":5.39307,"is_reserved":false,"is_disabled":false,"rental_uris":{"android":"levelo://app?vid=f8f377b7-0b8d-4c3e-b327-5132c9308c8a","ios":"levelo://app?vid=f8f377b7-0b8d-4c3e-b327-5132c9308c8a"},"vehicle_type_id":"4","last_reported":1733249482,"current_range_meters":38800,"station_id":"ce4bh2p2rcd13ifvqdi0","pricing_plan_id":"cebpf4jnsgd1na2vs0mg"},{"bike_id":"9c77a68d-2e99-44e9-b903-950fb6644d35","system_id":"levelo_inurba_marseille","lat":43.25268,"lon":5.39464,"is_reserved":false,"is_disabled":true,"rental_uris":{"android":"levelo://app?vid=9c77a68d-2e99-44e9-b903-950fb6644d35","ios":"levelo://app?vid=9c77a68d-2e99-44e9-b903-950fb6644d35"},"vehicle_type_id":"4","last_reported":1733249482,"current_range_meters":0,"station_id":"","pricing_plan_id":"cebpf4jnsgd1na2vs0mg"},{"bike_id":"5dd9e784-d592-4921-b915-2ba815384928","system_id":"levelo_inurba_marseille","lat":43.28619,"lon":5.35097,"is_reserved":false,"is_disabled":false,"rental_uris":{"android":"levelo://app?vid=5dd9e784-d592-4921-b915-2ba815384928","ios":"levelo://app?vid=5dd9e784-d592-4921-b915-2ba815384928"},"vehicle_type_id":"4","last_reported":1733249482,"current_range_meters":25200,"station_id":"ce4bhch2rcd13ifvqeug","pricing_plan_id":"cebpf4jnsgd1na2vs0mg"},{"bike_id":"feb0b2d5-1082-408a-9bb4-26801f41573e","system_id":"levelo_inurba_marseille","lat":43.26936,"lon":5.40249,"is_reserved":false,"is_disabled":false,"rental_uris":{"android":"levelo://app?vid=feb0b2d5-1082-408a-9bb4-26801f41573e","ios":"levelo://app?vid=feb0b2d5-1082-408a-9bb4-26801f41573e"},"vehicle_type_id":"4","last_reported":1733249482,"current_range_meters":24400,"station_id":"cjm6bp8fraef2m0cb0m0","pricing_plan_id":"cebpf4jnsgd1na2vs0mg"},{"bike_id":"deeea0a3-e7fb-4d78-b83c-fd5fae7a086f","system_id":"levelo_inurba_marseille","lat":43.30893,"lon":5.37203,"is_reserved":false,"is_disabled":false,"rental_uris":{"android":"levelo://app?vid=deeea0a3-e7fb-4d78-b83c-fd5fae7a086f","ios":"levelo://app?vid=deeea0a3-e7fb-4d78-b83c-fd5fae7a086f"},"vehicle_type_id":"4","last_reported":1733249482,"current_range_meters":27600,"station_id":"ce4bguh2rcd13ifvqckg","pricing_plan_id":"cebpf4jnsgd1na2vs0mg"},{"bike_id":"680d1a34-1423-48a1-b6df-99b23c9a304a","system_id":"levelo_inurba_marseille","lat":43.291991,"lon":5.35787,"is_reserved":false,"is_disabled":false,"rental_uris":{"android":"levelo://app?vid=680d1a34-1423-48a1-b6df-99b23c9a304a","ios":"levelo://app?vid=680d1a34-1423-48a1-b6df-99b23c9a304a"},"vehicle_type_id":"4","last_reported":1733249482,"current_range_meters":31200,"station_id":"ce4bhb12rcd13ifvqel0","pricing_plan_id":"cebpf4jnsgd1na2vs0mg"},{"bike_id":"83985555-c848-4b28-808f-8a7e7cf8519e","system_id":"levelo_inurba_marseille","lat":43.28118,"lon":5.44005,"is_reserved":false,"is_disabled":true,"rental_uris":{"android":"levelo://app?vid=83985555-c848-4b28-808f-8a7e7cf8519e","ios":"levelo://app?vid=83985555-c848-4b28-808f-8a7e7cf8519e"},"vehicle_type_id":"4","last_reported":1733249482,"current_range_meters":0,"station_id":"","pricing_plan_id":"cebpf4jnsgd1na2vs0mg"},{"bike_id":"57102c6f-b80b-45ba-b78f-8a83a31b1b04","system_id":"levelo_inurba_marseille","lat":43.27811,"lon":5.40709,"is_reserved":false,"is_disabled":false,"rental_uris":{"android":"levelo://app?vid=57102c6f-b80b-45ba-b78f-8a83a31b1b04","ios":"levelo://app?vid=57102c6f-b80b-45ba-b78f-8a83a31b1b04"},"vehicle_type_id":"4","last_reported":1733249482,"current_range_meters":30400,"station_id":"ce4bhnh2rcd13ifvqgtg","pricing_plan_id":"cebpf4jnsgd1na2vs0mg"},{"bike_id":"e01a51e9-53ab-4948-86d2-ec6b1e5230a1","system_id":"levelo_inurba_marseille","lat":43.31368,"lon":5.38496,"is_reserved":false,"is_disabled":false,"rental_uris":{"android":"levelo://app?vid=e01a51e9-53ab-4948-86d2-ec6b1e5230a1","ios":"levelo://app?vid=e01a51e9-53ab-4948-86d2-ec6b1e5230a1"},"vehicle_type_id":"4","last_reported":1733249482,"current_range_meters":38800,"station_id":"ce4bgt92rcd13ifvqcf0","pricing_plan_id":"cebpf4jnsgd1na2vs0mg"},{"bike_id":"903ec8f1-f4c3-441f-a117-ff7454fcb959","system_id":"levelo_inurba_marseille","lat":43.29459,"lon":5.39406,"is_reserved":false,"is_disabled":true,"rental_uris":{"android":"levelo://app?vid=903ec8f1-f4c3-441f-a117-ff7454fcb959","ios":"levelo://app?vid=903ec8f1-f4c3-441f-a117-ff7454fcb959"},"vehicle_type_id":"4","last_reported":1733249482,"current_range_meters":0,"station_id":"","pricing_plan_id":"cebpf4jnsgd1na2vs0mg"},{"bike_id":"07a60b7f-80b7-470a-9515-22fa33d21dee","system_id":"levelo_inurba_marseille","lat":43.30284,"lon":5.39635,"is_reserved":false,"is_disabled":true,"rental_uris":{"android":"levelo://app?vid=07a60b7f-80b7-470a-9515-22fa33d21dee","ios":"levelo://app?vid=07a60b7f-80b7-470a-9515-22fa33d21dee"},"vehicle_type_id":"4","last_reported":1733249482,"current_range_meters":1600,"station_id":"","pricing_plan_id":"cebpf4jnsgd1na2vs0mg"},{"bike_id":"941eeae1-8936-4a86-b31a-ea87d84b2048","system_id":"levelo_inurba_marseille","lat":43.28037,"lon":5.35643,"is_reserved":false,"is_disabled":false,"rental_uris":{"android":"levelo://app?vid=941eeae1-8936-4a86-b31a-ea87d84b2048","ios":"levelo://app?vid=941eeae1-8936-4a86-b31a-ea87d84b2048"},"vehicle_type_id":"4","last_reported":1733249482,"current_range_meters":6000,"station_id":"","pricing_plan_id":"cebpf4jnsgd1na2vs0mg"},{"bike_id":"20bf5203-dbcf-4021-b5b2-60c1f62b35f9","system_id":"levelo_inurba_marseille","lat":43.2916,"lon":5.37162,"is_reserved":false,"is_disabled":true,"rental_uris":{"android":"levelo://app?vid=20bf5203-dbcf-4021-b5b2-60c1f62b35f9","ios":"levelo://app?vid=20bf5203-dbcf-4021-b5b2-60c1f62b35f9"},"vehicle_type_id":"4","last_reported":1733249482,"current_range_meters":0,"station_id":"ce4bha92rcd13ifvqeh0","pricing_plan_id":"cebpf4jnsgd1na2vs0mg"},{"bike_id":"afffd621-dccc-49f4-8d6c-13a2bffc6176","system_id":"levelo_inurba_marseille","lat":43.25086,"lon":5.3951,"is_reserved":false,"is_disabled":false,"rental_uris":{"android":"levelo://app?vid=afffd621-dccc-49f4-8d6c-13a2bffc6176","ios":"levelo://app?vid=afffd621-dccc-49f4-8d6c-13a2bffc6176"},"vehicle_type_id":"4","last_reported":1733249482,"current_range_meters":24800,"station_id":"ce4bhm12rcd13ifvqgkg","pricing_plan_id":"cebpf4jnsgd1na2vs0mg"},{"bike_id":"0b804146-f3f1-42fc-a1a3-4a4680090e38","system_id":"levelo_inurba_marseille","lat":43.30882,"lon":5.3719,"is_reserved":false,"is_disabled":false,"rental_uris":{"android":"levelo://app?vid=0b804146-f3f1-42fc-a1a3-4a4680090e38","ios":"levelo://app?vid=0b804146-f3f1-42fc-a1a3-4a4680090e38"},"vehicle_type_id":"4","last_reported":1733249482,"current_range_meters":34800,"station_id":"ce4bguh2rcd13ifvqckg","pricing_plan_id":"cebpf4jnsgd1na2vs0mg"},{"bike_id":"6558bb67-1929-496b-ba4e-4bbe400a0ac6","system_id":"levelo_inurba_marseille","lat":43.2622,"lon":5.3744,"is_reserved":false,"is_disabled":false,"rental_uris":{"android":"levelo://app?vid=6558bb67-1929-496b-ba4e-4bbe400a0ac6","ios":"levelo://app?vid=6558bb67-1929-496b-ba4e-4bbe400a0ac6"},"vehicle_type_id":"4","last_reported":1733249482,"current_range_meters":36000,"station_id":"ce4bhgp2rcd13ifvqfc0","pricing_plan_id":"cebpf4jnsgd1na2vs0mg"},{"bike_id":"57198ef8-c233-4272-bb73-66c408b6eb26","system_id":"levelo_inurba_marseille","lat":43.33024,"lon":5.39043,"is_reserved":false,"is_disabled":false,"rental_uris":{"android":"levelo://app?vid=57198ef8-c233-4272-bb73-66c408b6eb26","ios":"levelo://app?vid=57198ef8-c233-4272-bb73-66c408b6eb26"},"vehicle_type_id":"4","last_reported":1733249482,"current_range_meters":26000,"station_id":"ce4bhr92rcd13ifvqhrg","pricing_plan_id":"cebpf4jnsgd1na2vs0mg"},{"bike_id":"d968385f-de2b-44eb-96a8-54efc707caa9","system_id":"levelo_inurba_marseille","lat":43.23204,"lon":5.35541,"is_reserved":false,"is_disabled":false,"rental_uris":{"android":"levelo://app?vid=d968385f-de2b-44eb-96a8-54efc707caa9","ios":"levelo://app?vid=d968385f-de2b-44eb-96a8-54efc707caa9"},"vehicle_type_id":"4","last_reported":1733249482,"current_range_meters":38800,"station_id":"ce4bhu92rcd13ifvqi70","pricing_plan_id":"cebpf4jnsgd1na2vs0mg"},{"bike_id":"5e78eeea-0aab-425d-bd69-4fdcfd1fae70","system_id":"levelo_inurba_marseille","lat":43.32295,"lon":5.38256,"is_reserved":false,"is_disabled":false,"rental_uris":{"android":"levelo://app?vid=5e78eeea-0aab-425d-bd69-4fdcfd1fae70","ios":"levelo://app?vid=5e78eeea-0aab-425d-bd69-4fdcfd1fae70"},"vehicle_type_id":"4","last_reported":1733249482,"current_range_meters":34800,"station_id":"ce4bhr12rcd13ifvqhqg","pricing_plan_id":"cebpf4jnsgd1na2vs0mg"},{"bike_id":"e218f52a-3c8a-490a-99d9-5af7196625b0","system_id":"levelo_inurba_marseille","lat":43.23196,"lon":5.35542,"is_reserved":false,"is_disabled":false,"rental_uris":{"android":"levelo://app?vid=e218f52a-3c8a-490a-99d9-5af7196625b0","ios":"levelo://app?vid=e218f52a-3c8a-490a-99d9-5af7196625b0"},"vehicle_type_id":"4","last_reported":1733249482,"current_range_meters":38800,"station_id":"ce4bhu92rcd13ifvqi70","pricing_plan_id":"cebpf4jnsgd1na2vs0mg"},{"bike_id":"506c09f4-6c9b-4fb3-996c-4c7f86dd75a8","system_id":"levelo_inurba_marseille","lat":43.24564,"lon":5.3735,"is_reserved":false,"is_disabled":true,"rental_uris":{"android":"levelo://app?vid=506c09f4-6c9b-4fb3-996c-4c7f86dd75a8","ios":"levelo://app?vid=506c09f4-6c9b-4fb3-996c-4c7f86dd75a8"},"vehicle_type_id":"4","last_reported":1733249482,"current_range_meters":0,"station_id":"","pricing_plan_id":"cebpf4jnsgd1na2vs0mg"},{"bike_id":"ef97af97-e61d-43fa-8075-be57402b6570","system_id":"levelo_inurba_marseille","lat":43.28714,"lon":5.37392,"is_reserved":false,"is_disabled":false,"rental_uris":{"android":"levelo://app?vid=ef97af97-e61d-43fa-8075-be57402b6570","ios":"levelo://app?vid=ef97af97-e61d-43fa-8075-be57402b6570"},"vehicle_type_id":"4","last_reported":1733249482,"current_range_meters":38000,"station_id":"ce4bh3p2rcd13ifvqdq0","pricing_plan_id":"cebpf4jnsgd1na2vs0mg"},{"bike_id":"811f147d-6a67-460d-b589-e71e2c93967c","system_id":"levelo_inurba_marseille","lat":43.31529,"lon":5.38034,"is_reserved":false,"is_disabled":false,"rental_uris":{"android":"levelo://app?vid=811f147d-6a67-460d-b589-e71e2c93967c","ios":"levelo://app?vid=811f147d-6a67-460d-b589-e71e2c93967c"},"vehicle_type_id":"4","last_reported":1733249482,"current_range_meters":30400,"station_id":"ce4bhsp2rcd13ifvqi50","pricing_plan_id":"cebpf4jnsgd1na2vs0mg"},{"bike_id":"9202c63e-372c-4469-a5c1-8e35757d1940","system_id":"levelo_inurba_marseille","lat":43.30053,"lon":5.38832,"is_reserved":false,"is_disabled":true,"rental_uris":{"android":"levelo://app?vid=9202c63e-372c-4469-a5c1-8e35757d1940","ios":"levelo://app?vid=9202c63e-372c-4469-a5c1-8e35757d1940"},"vehicle_type_id":"4","last_reported":1733249482,"current_range_meters":0,"station_id":"","pricing_plan_id":"cebpf4jnsgd1na2vs0mg"},{"bike_id":"35f9e607-19fc-442f-b731-41b7ee0028d0","system_id":"levelo_inurba_marseille","lat":43.27426,"lon":5.3942,"is_reserved":false,"is_disabled":false,"rental_uris":{"android":"levelo://app?vid=35f9e607-19fc-442f-b731-41b7ee0028d0","ios":"levelo://app?vid=35f9e607-19fc-442f-b731-41b7ee0028d0"},"vehicle_type_id":"4","last_reported":1733249482,"current_range_meters":4000,"station_id":"ce4bhdp2rcd13ifvqf20","pricing_plan_id":"cebpf4jnsgd1na2vs0mg"},{"bike_id":"59fe6ee5-2970-40fb-8f17-79075f699540","system_id":"levelo_inurba_marseille","lat":43.27055,"lon":5.40265,"is_reserved":false,"is_disabled":false,"rental_uris":{"android":"levelo://app?vid=59fe6ee5-2970-40fb-8f17-79075f699540","ios":"levelo://app?vid=59fe6ee5-2970-40fb-8f17-79075f699540"},"vehicle_type_id":"4","last_reported":1733249482,"current_range_meters":38000,"station_id":"ce4bhk92rcd13ifvqgc0","pricing_plan_id":"cebpf4jnsgd1na2vs0mg"},{"bike_id":"ea2d17ce-786b-482b-9d03-5a7aad598791","system_id":"levelo_inurba_marseille","lat":43.25915,"lon":5.40877,"is_reserved":false,"is_disabled":true,"rental_uris":{"android":"levelo://app?vid=ea2d17ce-786b-482b-9d03-5a7aad598791","ios":"levelo://app?vid=ea2d17ce-786b-482b-9d03-5a7aad598791"},"vehicle_type_id":"4","last_reported":1733249482,"current_range_meters":400,"station_id":"ce4bhm92rcd13ifvqglg","pricing_plan_id":"cebpf4jnsgd1na2vs0mg"},{"bike_id":"db7cb462-fc71-4748-8a09-ee9e9bcd5e58","system_id":"levelo_inurba_marseille","lat":43.30658,"lon":5.40092,"is_reserved":false,"is_disabled":false,"rental_uris":{"android":"levelo://app?vid=db7cb462-fc71-4748-8a09-ee9e9bcd5e58","ios":"levelo://app?vid=db7cb462-fc71-4748-8a09-ee9e9bcd5e58"},"vehicle_type_id":"4","last_reported":1733249482,"current_range_meters":34800,"station_id":"ce4bh112rcd13ifvqda0","pricing_plan_id":"cebpf4jnsgd1na2vs0mg"},{"bike_id":"cf3e6ea0-09ff-406c-b357-28a6a6117f94","system_id":"levelo_inurba_marseille","lat":43.22934,"lon":5.35375,"is_reserved":false,"is_disabled":false,"rental_uris":{"android":"levelo://app?vid=cf3e6ea0-09ff-406c-b357-28a6a6117f94","ios":"levelo://app?vid=cf3e6ea0-09ff-406c-b357-28a6a6117f94"},"vehicle_type_id":"4","last_reported":1733249482,"current_range_meters":14400,"station_id":"cpo3532slgdg3j2ikp40","pricing_plan_id":"cebpf4jnsgd1na2vs0mg"},{"bike_id":"c2a8faff-bb33-449e-ba22-c78399448fc1","system_id":"levelo_inurba_marseille","lat":43.28156,"lon":5.42646,"is_reserved":false,"is_disabled":false,"rental_uris":{"android":"levelo://app?vid=c2a8faff-bb33-449e-ba22-c78399448fc1","ios":"levelo://app?vid=c2a8faff-bb33-449e-ba22-c78399448fc1"},"vehicle_type_id":"4","last_reported":1733249482,"current_range_meters":4400,"station_id":"ce4bhnh2rcd13ifvqgug","pricing_plan_id":"cebpf4jnsgd1na2vs0mg"},{"bike_id":"4a163e59-10c0-4f85-9663-cc135fcf421e","system_id":"levelo_inurba_marseille","lat":43.24806,"lon":5.37459,"is_reserved":false,"is_disabled":false,"rental_uris":{"android":"levelo://app?vid=4a163e59-10c0-4f85-9663-cc135fcf421e","ios":"levelo://app?vid=4a163e59-10c0-4f85-9663-cc135fcf421e"},"vehicle_type_id":"4","last_reported":1733249482,"current_range_meters":22000,"station_id":"ce4bhgh2rcd13ifvqfb0","pricing_plan_id":"cebpf4jnsgd1na2vs0mg"},{"bike_id":"719e509a-25e4-4b1b-9830-f708d85d7593","system_id":"levelo_inurba_marseille","lat":43.29569,"lon":5.37512,"is_reserved":false,"is_disabled":true,"rental_uris":{"android":"levelo://app?vid=719e509a-25e4-4b1b-9830-f708d85d7593","ios":"levelo://app?vid=719e509a-25e4-4b1b-9830-f708d85d7593"},"vehicle_type_id":"4","last_reported":1733249482,"current_range_meters":0,"station_id":"ce4bgh92rcd13ifvqb50","pricing_plan_id":"cebpf4jnsgd1na2vs0mg"},{"bike_id":"34990873-3196-4058-b006-4ffbc0216fdf","system_id":"levelo_inurba_marseille","lat":43.23197,"lon":5.35541,"is_reserved":false,"is_disabled":false,"rental_uris":{"android":"levelo://app?vid=34990873-3196-4058-b006-4ffbc0216fdf","ios":"levelo://app?vid=34990873-3196-4058-b006-4ffbc0216fdf"},"vehicle_type_id":"4","last_reported":1733249482,"current_range_meters":38800,"station_id":"ce4bhu92rcd13ifvqi70","pricing_plan_id":"cebpf4jnsgd1na2vs0mg"},{"bike_id":"8a0eb313-aa3a-4af3-a2cb-92e15f57119f","system_id":"levelo_inurba_marseille","lat":43.29965,"lon":5.38498,"is_reserved":false,"is_disabled":true,"rental_uris":{"android":"levelo://app?vid=8a0eb313-aa3a-4af3-a2cb-92e15f57119f","ios":"levelo://app?vid=8a0eb313-aa3a-4af3-a2cb-92e15f57119f"},"vehicle_type_id":"4","last_reported":1733249482,"current_range_meters":800,"station_id":"ce4bgj92rcd13ifvqbd0","pricing_plan_id":"cebpf4jnsgd1na2vs0mg"},{"bike_id":"235e4433-937e-41f8-a4d6-6889c27bd8c1","system_id":"levelo_inurba_marseille","lat":43.31085,"lon":5.38337,"is_reserved":false,"is_disabled":false,"rental_uris":{"android":"levelo://app?vid=235e4433-937e-41f8-a4d6-6889c27bd8c1","ios":"levelo://app?vid=235e4433-937e-41f8-a4d6-6889c27bd8c1"},"vehicle_type_id":"4","last_reported":1733249482,"current_range_meters":23200,"station_id":"ce4bgv92rcd13ifvqcr0","pricing_plan_id":"cebpf4jnsgd1na2vs0mg"},{"bike_id":"c7246d43-f3b0-4f6e-a739-f76f925adbb6","system_id":"levelo_inurba_marseille","lat":43.26064,"lon":5.39399,"is_reserved":false,"is_disabled":false,"rental_uris":{"android":"levelo://app?vid=c7246d43-f3b0-4f6e-a739-f76f925adbb6","ios":"levelo://app?vid=c7246d43-f3b0-4f6e-a739-f76f925adbb6"},"vehicle_type_id":"4","last_reported":1733249482,"current_range_meters":14400,"station_id":"ce4bhh92rcd13ifvqfj0","pricing_plan_id":"cebpf4jnsgd1na2vs0mg"},{"bike_id":"839953ec-5f41-4523-92fd-d75fa46832a0","system_id":"levelo_inurba_marseille","lat":43.29258,"lon":5.3844,"is_reserved":false,"is_disabled":false,"rental_uris":{"android":"levelo://app?vid=839953ec-5f41-4523-92fd-d75fa46832a0","ios":"levelo://app?vid=839953ec-5f41-4523-92fd-d75fa46832a0"},"vehicle_type_id":"4","last_reported":1733249482,"current_range_meters":32800,"station_id":"ce4bh692rcd13ifvqea0","pricing_plan_id":"cebpf4jnsgd1na2vs0mg"},{"bike_id":"9e16cba1-ec65-4d4d-8408-842337a498e1","system_id":"levelo_inurba_marseille","lat":43.24656,"lon":5.38896,"is_reserved":false,"is_disabled":false,"rental_uris":{"android":"levelo://app?vid=9e16cba1-ec65-4d4d-8408-842337a498e1","ios":"levelo://app?vid=9e16cba1-ec65-4d4d-8408-842337a498e1"},"vehicle_type_id":"4","last_reported":1733249482,"current_range_meters":28400,"station_id":"ce4bhg12rcd13ifvqf60","pricing_plan_id":"cebpf4jnsgd1na2vs0mg"},{"bike_id":"7eeb5ac6-a3ab-4724-a0d1-17bed7e385e6","system_id":"levelo_inurba_marseille","lat":43.2801,"lon":5.41659,"is_reserved":false,"is_disabled":true,"rental_uris":{"android":"levelo://app?vid=7eeb5ac6-a3ab-4724-a0d1-17bed7e385e6","ios":"levelo://app?vid=7eeb5ac6-a3ab-4724-a0d1-17bed7e385e6"},"vehicle_type_id":"4","last_reported":1733249482,"current_range_meters":28400,"station_id":"ce4bho12rcd13ifvqh1g","pricing_plan_id":"cebpf4jnsgd1na2vs0mg"},{"bike_id":"48f7fad5-9736-4854-ad66-3ac0235f4d2f","system_id":"levelo_inurba_marseille","lat":43.27054,"lon":5.40259,"is_reserved":false,"is_disabled":false,"rental_uris":{"android":"levelo://app?vid=48f7fad5-9736-4854-ad66-3ac0235f4d2f","ios":"levelo://app?vid=48f7fad5-9736-4854-ad66-3ac0235f4d2f"},"vehicle_type_id":"4","last_reported":1733249482,"current_range_meters":23200,"station_id":"ce4bhk92rcd13ifvqgc0","pricing_plan_id":"cebpf4jnsgd1na2vs0mg"},{"bike_id":"1765576d-ad21-4bb0-85a8-4c7cde4f5294","system_id":"levelo_inurba_marseille","lat":43.29625,"lon":5.3715,"is_reserved":false,"is_disabled":true,"rental_uris":{"android":"levelo://app?vid=1765576d-ad21-4bb0-85a8-4c7cde4f5294","ios":"levelo://app?vid=1765576d-ad21-4bb0-85a8-4c7cde4f5294"},"vehicle_type_id":"4","last_reported":1733249482,"current_range_meters":4800,"station_id":"ce4bgnh2rcd13ifvqc0g","pricing_plan_id":"cebpf4jnsgd1na2vs0mg"},{"bike_id":"d66bb060-eae4-4237-b847-a034287e114d","system_id":"levelo_inurba_marseille","lat":43.239787,"lon":5.366247,"is_reserved":false,"is_disabled":false,"rental_uris":{"android":"levelo://app?vid=d66bb060-eae4-4237-b847-a034287e114d","ios":"levelo://app?vid=d66bb060-eae4-4237-b847-a034287e114d"},"vehicle_type_id":"4","last_reported":1733249482,"current_range_meters":23200,"station_id":"ce4bhi12rcd13ifvqfp0","pricing_plan_id":"cebpf4jnsgd1na2vs0mg"},{"bike_id":"1fc5096f-d28c-4a02-8cae-6a8e9b3b09b7","system_id":"levelo_inurba_marseille","lat":43.31371,"lon":5.38487,"is_reserved":false,"is_disabled":false,"rental_uris":{"android":"levelo://app?vid=1fc5096f-d28c-4a02-8cae-6a8e9b3b09b7","ios":"levelo://app?vid=1fc5096f-d28c-4a02-8cae-6a8e9b3b09b7"},"vehicle_type_id":"4","last_reported":1733249482,"current_range_meters":12000,"station_id":"ce4bgt92rcd13ifvqcf0","pricing_plan_id":"cebpf4jnsgd1na2vs0mg"},{"bike_id":"029508cc-6a39-4558-b900-1ab42ae8222d","system_id":"levelo_inurba_marseille","lat":43.28707,"lon":5.39977,"is_reserved":false,"is_disabled":false,"rental_uris":{"android":"levelo://app?vid=029508cc-6a39-4558-b900-1ab42ae8222d","ios":"levelo://app?vid=029508cc-6a39-4558-b900-1ab42ae8222d"},"vehicle_type_id":"4","last_reported":1733249482,"current_range_meters":28000,"station_id":"ce4bho92rcd13ifvqh3g","pricing_plan_id":"cebpf4jnsgd1na2vs0mg"},{"bike_id":"ecf59274-c53f-4d00-8000-107aaa195945","system_id":"levelo_inurba_marseille","lat":43.28103,"lon":5.37839,"is_reserved":false,"is_disabled":false,"rental_uris":{"android":"levelo://app?vid=ecf59274-c53f-4d00-8000-107aaa195945","ios":"levelo://app?vid=ecf59274-c53f-4d00-8000-107aaa195945"},"vehicle_type_id":"4","last_reported":1733249482,"current_range_meters":16400,"station_id":"ce4bha12rcd13ifvqee0","pricing_plan_id":"cebpf4jnsgd1na2vs0mg"},{"bike_id":"a1c08132-e546-4c40-98be-996c0a017b07","system_id":"levelo_inurba_marseille","lat":43.30801,"lon":5.38165,"is_reserved":false,"is_disabled":false,"rental_uris":{"android":"levelo://app?vid=a1c08132-e546-4c40-98be-996c0a017b07","ios":"levelo://app?vid=a1c08132-e546-4c40-98be-996c0a017b07"},"vehicle_type_id":"4","last_reported":1733249482,"current_range_meters":24800,"station_id":"ce4bgt12rcd13ifvqce0","pricing_plan_id":"cebpf4jnsgd1na2vs0mg"},{"bike_id":"306ac285-bc0c-4835-93e0-a6039d545963","system_id":"levelo_inurba_marseille","lat":43.30097,"lon":5.39084,"is_reserved":false,"is_disabled":true,"rental_uris":{"android":"levelo://app?vid=306ac285-bc0c-4835-93e0-a6039d545963","ios":"levelo://app?vid=306ac285-bc0c-4835-93e0-a6039d545963"},"vehicle_type_id":"4","last_reported":1733249482,"current_range_meters":38800,"station_id":"ce4bh192rcd13ifvqdb0","pricing_plan_id":"cebpf4jnsgd1na2vs0mg"},{"bike_id":"510f7d64-056d-4591-848e-33c7bef51b35","system_id":"levelo_inurba_marseille","lat":43.33029,"lon":5.39033,"is_reserved":false,"is_disabled":false,"rental_uris":{"android":"levelo://app?vid=510f7d64-056d-4591-848e-33c7bef51b35","ios":"levelo://app?vid=510f7d64-056d-4591-848e-33c7bef51b35"},"vehicle_type_id":"4","last_reported":1733249482,"current_range_meters":38800,"station_id":"ce4bhr92rcd13ifvqhrg","pricing_plan_id":"cebpf4jnsgd1na2vs0mg"},{"bike_id":"1dc70cdf-4f74-41af-9e95-77502d50e11a","system_id":"levelo_inurba_marseille","lat":43.30426,"lon":5.41282,"is_reserved":false,"is_disabled":true,"rental_uris":{"android":"levelo://app?vid=1dc70cdf-4f74-41af-9e95-77502d50e11a","ios":"levelo://app?vid=1dc70cdf-4f74-41af-9e95-77502d50e11a"},"vehicle_type_id":"4","last_reported":1733249482,"current_range_meters":16400,"station_id":"ce4bhop2rcd13ifvqh8g","pricing_plan_id":"cebpf4jnsgd1na2vs0mg"},{"bike_id":"ac0fa3b6-96bc-461b-b530-19d53a6d27cf","system_id":"levelo_inurba_marseille","lat":43.25586,"lon":5.38225,"is_reserved":false,"is_disabled":false,"rental_uris":{"android":"levelo://app?vid=ac0fa3b6-96bc-461b-b530-19d53a6d27cf","ios":"levelo://app?vid=ac0fa3b6-96bc-461b-b530-19d53a6d27cf"},"vehicle_type_id":"4","last_reported":1733249482,"current_range_meters":6400,"station_id":"ce4bhih2rcd13ifvqfs0","pricing_plan_id":"cebpf4jnsgd1na2vs0mg"},{"bike_id":"301ecf01-64da-4be9-bf36-ed7455ae9931","system_id":"levelo_inurba_marseille","lat":43.29791,"lon":5.38091,"is_reserved":false,"is_disabled":false,"rental_uris":{"android":"levelo://app?vid=301ecf01-64da-4be9-bf36-ed7455ae9931","ios":"levelo://app?vid=301ecf01-64da-4be9-bf36-ed7455ae9931"},"vehicle_type_id":"4","last_reported":1733249482,"current_range_meters":6000,"station_id":"ce4bgip2rcd13ifvqbb0","pricing_plan_id":"cebpf4jnsgd1na2vs0mg"},{"bike_id":"967491ec-5b3d-4f15-ada1-24e49fb67e79","system_id":"levelo_inurba_marseille","lat":43.29577,"lon":5.37515,"is_reserved":false,"is_disabled":false,"rental_uris":{"android":"levelo://app?vid=967491ec-5b3d-4f15-ada1-24e49fb67e79","ios":"levelo://app?vid=967491ec-5b3d-4f15-ada1-24e49fb67e79"},"vehicle_type_id":"4","last_reported":1733249482,"current_range_meters":22800,"station_id":"ce4bgh92rcd13ifvqb50","pricing_plan_id":"cebpf4jnsgd1na2vs0mg"},{"bike_id":"a57352c3-6470-473f-b725-4b1ac6d22442","system_id":"levelo_inurba_marseille","lat":43.28619,"lon":5.35105,"is_reserved":false,"is_disabled":false,"rental_uris":{"android":"levelo://app?vid=a57352c3-6470-473f-b725-4b1ac6d22442","ios":"levelo://app?vid=a57352c3-6470-473f-b725-4b1ac6d22442"},"vehicle_type_id":"4","last_reported":1733249482,"current_range_meters":22800,"station_id":"ce4bhch2rcd13ifvqeug","pricing_plan_id":"cebpf4jnsgd1na2vs0mg"},{"bike_id":"72e21a5e-0a93-46f4-be99-089514dd36e9","system_id":"levelo_inurba_marseille","lat":43.33027,"lon":5.3904,"is_reserved":false,"is_disabled":false,"rental_uris":{"android":"levelo://app?vid=72e21a5e-0a93-46f4-be99-089514dd36e9","ios":"levelo://app?vid=72e21a5e-0a93-46f4-be99-089514dd36e9"},"vehicle_type_id":"4","last_reported":1733249482,"current_range_meters":38800,"station_id":"ce4bhr92rcd13ifvqhrg","pricing_plan_id":"cebpf4jnsgd1na2vs0mg"},{"bike_id":"79c8ea6d-5102-4a1e-b941-afdabc095945","system_id":"levelo_inurba_marseille","lat":43.290665,"lon":5.383406,"is_reserved":false,"is_disabled":true,"rental_uris":{"android":"levelo://app?vid=79c8ea6d-5102-4a1e-b941-afdabc095945","ios":"levelo://app?vid=79c8ea6d-5102-4a1e-b941-afdabc095945"},"vehicle_type_id":"4","last_reported":1733249482,"current_range_meters":24400,"station_id":"","pricing_plan_id":"cebpf4jnsgd1na2vs0mg"},{"bike_id":"016f68b4-d473-4846-80a2-b710a62372af","system_id":"levelo_inurba_marseille","lat":43.31713,"lon":5.43702,"is_reserved":false,"is_disabled":false,"rental_uris":{"android":"levelo://app?vid=016f68b4-d473-4846-80a2-b710a62372af","ios":"levelo://app?vid=016f68b4-d473-4846-80a2-b710a62372af"},"vehicle_type_id":"4","last_reported":1733249482,"current_range_meters":30800,"station_id":"ce4bhp92rcd13ifvqhcg","pricing_plan_id":"cebpf4jnsgd1na2vs0mg"},{"bike_id":"52fee8ad-d6b0-448b-9950-3f390e19b840","system_id":"levelo_inurba_marseille","lat":43.29924,"lon":5.37473,"is_reserved":false,"is_disabled":false,"rental_uris":{"android":"levelo://app?vid=52fee8ad-d6b0-448b-9950-3f390e19b840","ios":"levelo://app?vid=52fee8ad-d6b0-448b-9950-3f390e19b840"},"vehicle_type_id":"4","last_reported":1733249482,"current_range_meters":35200,"station_id":"ce4bgjh2rcd13ifvqbg0","pricing_plan_id":"cebpf4jnsgd1na2vs0mg"},{"bike_id":"d337693b-82b2-4f65-ad74-9a2472a5f9cd","system_id":"levelo_inurba_marseille","lat":43.29791,"lon":5.38116,"is_reserved":false,"is_disabled":true,"rental_uris":{"android":"levelo://app?vid=d337693b-82b2-4f65-ad74-9a2472a5f9cd","ios":"levelo://app?vid=d337693b-82b2-4f65-ad74-9a2472a5f9cd"},"vehicle_type_id":"4","last_reported":1733249482,"current_range_meters":37600,"station_id":"ce4bgip2rcd13ifvqbb0","pricing_plan_id":"cebpf4jnsgd1na2vs0mg"},{"bike_id":"1f3491f0-7911-4ef6-949b-178332ea511b","system_id":"levelo_inurba_marseille","lat":43.27994,"lon":5.38782,"is_reserved":false,"is_disabled":false,"rental_uris":{"android":"levelo://app?vid=1f3491f0-7911-4ef6-949b-178332ea511b","ios":"levelo://app?vid=1f3491f0-7911-4ef6-949b-178332ea511b"},"vehicle_type_id":"4","last_reported":1733249482,"current_range_meters":24000,"station_id":"ce4bhg12rcd13ifvqf80","pricing_plan_id":"cebpf4jnsgd1na2vs0mg"},{"bike_id":"427d7497-fe79-4531-b7d6-69d2614ceec1","system_id":"levelo_inurba_marseille","lat":43.29174,"lon":5.38484,"is_reserved":false,"is_disabled":true,"rental_uris":{"android":"levelo://app?vid=427d7497-fe79-4531-b7d6-69d2614ceec1","ios":"levelo://app?vid=427d7497-fe79-4531-b7d6-69d2614ceec1"},"vehicle_type_id":"4","last_reported":1733249482,"current_range_meters":8400,"station_id":"","pricing_plan_id":"cebpf4jnsgd1na2vs0mg"},{"bike_id":"8ddb22ed-9538-40f6-870b-92d53e68d938","system_id":"levelo_inurba_marseille","lat":43.29037,"lon":5.38645,"is_reserved":false,"is_disabled":false,"rental_uris":{"android":"levelo://app?vid=8ddb22ed-9538-40f6-870b-92d53e68d938","ios":"levelo://app?vid=8ddb22ed-9538-40f6-870b-92d53e68d938"},"vehicle_type_id":"4","last_reported":1733249482,"current_range_meters":9200,"station_id":"ce4bh4p2rcd13ifvqe0g","pricing_plan_id":"cebpf4jnsgd1na2vs0mg"},{"bike_id":"1b9d703b-28c2-4eb9-9125-85f6103dbecc","system_id":"levelo_inurba_marseille","lat":43.28708,"lon":5.4,"is_reserved":false,"is_disabled":false,"rental_uris":{"android":"levelo://app?vid=1b9d703b-28c2-4eb9-9125-85f6103dbecc","ios":"levelo://app?vid=1b9d703b-28c2-4eb9-9125-85f6103dbecc"},"vehicle_type_id":"4","last_reported":1733249482,"current_range_meters":37600,"station_id":"ce4bho92rcd13ifvqh3g","pricing_plan_id":"cebpf4jnsgd1na2vs0mg"},{"bike_id":"2d29e4fd-866b-4eb1-b42e-57077a7cc5a7","system_id":"levelo_inurba_marseille","lat":43.30141,"lon":5.37427,"is_reserved":false,"is_disabled":false,"rental_uris":{"android":"levelo://app?vid=2d29e4fd-866b-4eb1-b42e-57077a7cc5a7","ios":"levelo://app?vid=2d29e4fd-866b-4eb1-b42e-57077a7cc5a7"},"vehicle_type_id":"4","last_reported":1733249482,"current_range_meters":10000,"station_id":"ce4bgs92rcd13ifvqcc0","pricing_plan_id":"cebpf4jnsgd1na2vs0mg"},{"bike_id":"ed420919-74d5-496e-8d22-f774c8fcfbb2","system_id":"levelo_inurba_marseille","lat":43.2901,"lon":5.35605,"is_reserved":false,"is_disabled":false,"rental_uris":{"android":"levelo://app?vid=ed420919-74d5-496e-8d22-f774c8fcfbb2","ios":"levelo://app?vid=ed420919-74d5-496e-8d22-f774c8fcfbb2"},"vehicle_type_id":"4","last_reported":1733249482,"current_range_meters":38000,"station_id":"ce4bhb92rcd13ifvqen0","pricing_plan_id":"cebpf4jnsgd1na2vs0mg"},{"bike_id":"a4b9e425-64b8-4ce2-a5ab-5fcc5d1230a4","system_id":"levelo_inurba_marseille","lat":43.32106,"lon":5.36779,"is_reserved":false,"is_disabled":false,"rental_uris":{"android":"levelo://app?vid=a4b9e425-64b8-4ce2-a5ab-5fcc5d1230a4","ios":"levelo://app?vid=a4b9e425-64b8-4ce2-a5ab-5fcc5d1230a4"},"vehicle_type_id":"4","last_reported":1733249482,"current_range_meters":9600,"station_id":"ce4bhrh2rcd13ifvqhug","pricing_plan_id":"cebpf4jnsgd1na2vs0mg"},{"bike_id":"803c1b66-728a-435a-beca-1893ffcb222f","system_id":"levelo_inurba_marseille","lat":43.29038,"lon":5.35908,"is_reserved":false,"is_disabled":false,"rental_uris":{"android":"levelo://app?vid=803c1b66-728a-435a-beca-1893ffcb222f","ios":"levelo://app?vid=803c1b66-728a-435a-beca-1893ffcb222f"},"vehicle_type_id":"4","last_reported":1733249482,"current_range_meters":20400,"station_id":"ce4bha92rcd13ifvqeg0","pricing_plan_id":"cebpf4jnsgd1na2vs0mg"},{"bike_id":"302ce1df-994c-4294-90e0-6c4c05857211","system_id":"levelo_inurba_marseille","lat":43.24808,"lon":5.37459,"is_reserved":false,"is_disabled":false,"rental_uris":{"android":"levelo://app?vid=302ce1df-994c-4294-90e0-6c4c05857211","ios":"levelo://app?vid=302ce1df-994c-4294-90e0-6c4c05857211"},"vehicle_type_id":"4","last_reported":1733249482,"current_range_meters":38800,"station_id":"ce4bhgh2rcd13ifvqfb0","pricing_plan_id":"cebpf4jnsgd1na2vs0mg"},{"bike_id":"b2bc1728-46a3-400e-bd39-12c204f62d20","system_id":"levelo_inurba_marseille","lat":43.26951,"lon":5.40241,"is_reserved":false,"is_disabled":false,"rental_uris":{"android":"levelo://app?vid=b2bc1728-46a3-400e-bd39-12c204f62d20","ios":"levelo://app?vid=b2bc1728-46a3-400e-bd39-12c204f62d20"},"vehicle_type_id":"4","last_reported":1733249482,"current_range_meters":25600,"station_id":"cjm6bp8fraef2m0cb0m0","pricing_plan_id":"cebpf4jnsgd1na2vs0mg"},{"bike_id":"124e256b-6755-4adb-956b-3d5fbbcf671d","system_id":"levelo_inurba_marseille","lat":43.29789,"lon":5.39345,"is_reserved":false,"is_disabled":true,"rental_uris":{"android":"levelo://app?vid=124e256b-6755-4adb-956b-3d5fbbcf671d","ios":"levelo://app?vid=124e256b-6755-4adb-956b-3d5fbbcf671d"},"vehicle_type_id":"4","last_reported":1733249482,"current_range_meters":0,"station_id":"chh1huq6cuj3fo74tm60","pricing_plan_id":"cebpf4jnsgd1na2vs0mg"},{"bike_id":"0fb51153-e333-4cf0-9413-a3ae27df6b16","system_id":"levelo_inurba_marseille","lat":43.27992,"lon":5.40027,"is_reserved":false,"is_disabled":false,"rental_uris":{"android":"levelo://app?vid=0fb51153-e333-4cf0-9413-a3ae27df6b16","ios":"levelo://app?vid=0fb51153-e333-4cf0-9413-a3ae27df6b16"},"vehicle_type_id":"4","last_reported":1733249482,"current_range_meters":23200,"station_id":"ce4bho92rcd13ifvqh4g","pricing_plan_id":"cebpf4jnsgd1na2vs0mg"},{"bike_id":"6fa73ae3-91e9-49d0-af4b-d9ca8591ccaf","system_id":"levelo_inurba_marseille","lat":43.33019,"lon":5.39032,"is_reserved":false,"is_disabled":false,"rental_uris":{"android":"levelo://app?vid=6fa73ae3-91e9-49d0-af4b-d9ca8591ccaf","ios":"levelo://app?vid=6fa73ae3-91e9-49d0-af4b-d9ca8591ccaf"},"vehicle_type_id":"4","last_reported":1733249482,"current_range_meters":20400,"station_id":"ce4bhr92rcd13ifvqhrg","pricing_plan_id":"cebpf4jnsgd1na2vs0mg"},{"bike_id":"7d275e9a-1bd4-4401-948a-bf8c39ad132d","system_id":"levelo_inurba_marseille","lat":43.31328,"lon":5.39716,"is_reserved":false,"is_disabled":false,"rental_uris":{"android":"levelo://app?vid=7d275e9a-1bd4-4401-948a-bf8c39ad132d","ios":"levelo://app?vid=7d275e9a-1bd4-4401-948a-bf8c39ad132d"},"vehicle_type_id":"4","last_reported":1733249482,"current_range_meters":12400,"station_id":"ce4bgvp2rcd13ifvqcu0","pricing_plan_id":"cebpf4jnsgd1na2vs0mg"},{"bike_id":"00c8e1d4-c10a-436d-ba01-e50bfe8def08","system_id":"levelo_inurba_marseille","lat":43.25577,"lon":5.38235,"is_reserved":false,"is_disabled":false,"rental_uris":{"android":"levelo://app?vid=00c8e1d4-c10a-436d-ba01-e50bfe8def08","ios":"levelo://app?vid=00c8e1d4-c10a-436d-ba01-e50bfe8def08"},"vehicle_type_id":"4","last_reported":1733249482,"current_range_meters":17200,"station_id":"ce4bhih2rcd13ifvqfs0","pricing_plan_id":"cebpf4jnsgd1na2vs0mg"},{"bike_id":"0112a8c7-aaf7-4044-b05d-a8dc345517a8","system_id":"levelo_inurba_marseille","lat":43.31319,"lon":5.39707,"is_reserved":false,"is_disabled":false,"rental_uris":{"android":"levelo://app?vid=0112a8c7-aaf7-4044-b05d-a8dc345517a8","ios":"levelo://app?vid=0112a8c7-aaf7-4044-b05d-a8dc345517a8"},"vehicle_type_id":"4","last_reported":1733249482,"current_range_meters":28000,"station_id":"ce4bgvp2rcd13ifvqcu0","pricing_plan_id":"cebpf4jnsgd1na2vs0mg"},{"bike_id":"803ae2dc-bb0e-4bdd-a79c-7df72396dc05","system_id":"levelo_inurba_marseille","lat":43.28008,"lon":5.4001,"is_reserved":false,"is_disabled":false,"rental_uris":{"android":"levelo://app?vid=803ae2dc-bb0e-4bdd-a79c-7df72396dc05","ios":"levelo://app?vid=803ae2dc-bb0e-4bdd-a79c-7df72396dc05"},"vehicle_type_id":"4","last_reported":1733249482,"current_range_meters":38800,"station_id":"ce4bho92rcd13ifvqh4g","pricing_plan_id":"cebpf4jnsgd1na2vs0mg"},{"bike_id":"629133d4-cff8-483d-809a-322864079e4d","system_id":"levelo_inurba_marseille","lat":43.31705,"lon":5.42397,"is_reserved":false,"is_disabled":false,"rental_uris":{"android":"levelo://app?vid=629133d4-cff8-483d-809a-322864079e4d","ios":"levelo://app?vid=629133d4-cff8-483d-809a-322864079e4d"},"vehicle_type_id":"4","last_reported":1733249482,"current_range_meters":20800,"station_id":"ce4bhp92rcd13ifvqhbg","pricing_plan_id":"cebpf4jnsgd1na2vs0mg"},{"bike_id":"a111a6cd-4af3-4fd0-a2de-0037d38b47f9","system_id":"levelo_inurba_marseille","lat":43.29849,"lon":5.36248,"is_reserved":false,"is_disabled":false,"rental_uris":{"android":"levelo://app?vid=a111a6cd-4af3-4fd0-a2de-0037d38b47f9","ios":"levelo://app?vid=a111a6cd-4af3-4fd0-a2de-0037d38b47f9"},"vehicle_type_id":"4","last_reported":1733249482,"current_range_meters":20400,"station_id":"ce4bgpp2rcd13ifvqc3g","pricing_plan_id":"cebpf4jnsgd1na2vs0mg"},{"bike_id":"f41641da-0293-44e1-b6c9-29a56ad44e59","system_id":"levelo_inurba_marseille","lat":43.27069,"lon":5.42279,"is_reserved":false,"is_disabled":false,"rental_uris":{"android":"levelo://app?vid=f41641da-0293-44e1-b6c9-29a56ad44e59","ios":"levelo://app?vid=f41641da-0293-44e1-b6c9-29a56ad44e59"},"vehicle_type_id":"4","last_reported":1733249482,"current_range_meters":25200,"station_id":"ce4bhk92rcd13ifvqgb0","pricing_plan_id":"cebpf4jnsgd1na2vs0mg"},{"bike_id":"57e0f190-7f16-4931-934d-384b1700b76f","system_id":"levelo_inurba_marseille","lat":43.330957,"lon":5.362107,"is_reserved":false,"is_disabled":true,"rental_uris":{"android":"levelo://app?vid=57e0f190-7f16-4931-934d-384b1700b76f","ios":"levelo://app?vid=57e0f190-7f16-4931-934d-384b1700b76f"},"vehicle_type_id":"4","last_reported":1733249482,"current_range_meters":0,"station_id":"","pricing_plan_id":"cebpf4jnsgd1na2vs0mg"},{"bike_id":"5e160b8e-5c83-4423-b051-bd2cf577003d","system_id":"levelo_inurba_marseille","lat":43.231978,"lon":5.355496,"is_reserved":false,"is_disabled":false,"rental_uris":{"android":"levelo://app?vid=5e160b8e-5c83-4423-b051-bd2cf577003d","ios":"levelo://app?vid=5e160b8e-5c83-4423-b051-bd2cf577003d"},"vehicle_type_id":"4","last_reported":1733249482,"current_range_meters":38800,"station_id":"ce4bhu92rcd13ifvqi70","pricing_plan_id":"cebpf4jnsgd1na2vs0mg"},{"bike_id":"fe22b0f1-4409-493b-92e7-efe79b2e56cf","system_id":"levelo_inurba_marseille","lat":43.27068,"lon":5.42272,"is_reserved":false,"is_disabled":false,"rental_uris":{"android":"levelo://app?vid=fe22b0f1-4409-493b-92e7-efe79b2e56cf","ios":"levelo://app?vid=fe22b0f1-4409-493b-92e7-efe79b2e56cf"},"vehicle_type_id":"4","last_reported":1733249482,"current_range_meters":24800,"station_id":"ce4bhk92rcd13ifvqgb0","pricing_plan_id":"cebpf4jnsgd1na2vs0mg"},{"bike_id":"89790328-14f8-4b3a-86d2-09c07c01657a","system_id":"levelo_inurba_marseille","lat":43.33024,"lon":5.39041,"is_reserved":false,"is_disabled":false,"rental_uris":{"android":"levelo://app?vid=89790328-14f8-4b3a-86d2-09c07c01657a","ios":"levelo://app?vid=89790328-14f8-4b3a-86d2-09c07c01657a"},"vehicle_type_id":"4","last_reported":1733249482,"current_range_meters":30000,"station_id":"ce4bhr92rcd13ifvqhrg","pricing_plan_id":"cebpf4jnsgd1na2vs0mg"},{"bike_id":"2474f47f-3502-4a86-9cdf-a92970d48289","system_id":"levelo_inurba_marseille","lat":43.32368,"lon":5.38886,"is_reserved":false,"is_disabled":false,"rental_uris":{"android":"levelo://app?vid=2474f47f-3502-4a86-9cdf-a92970d48289","ios":"levelo://app?vid=2474f47f-3502-4a86-9cdf-a92970d48289"},"vehicle_type_id":"4","last_reported":1733249482,"current_range_meters":36400,"station_id":"ce4bhqp2rcd13ifvqhog","pricing_plan_id":"cebpf4jnsgd1na2vs0mg"},{"bike_id":"0ecfd779-5539-47af-aacd-2f9643bc2006","system_id":"levelo_inurba_marseille","lat":43.30166,"lon":5.38075,"is_reserved":false,"is_disabled":false,"rental_uris":{"android":"levelo://app?vid=0ecfd779-5539-47af-aacd-2f9643bc2006","ios":"levelo://app?vid=0ecfd779-5539-47af-aacd-2f9643bc2006"},"vehicle_type_id":"4","last_reported":1733249482,"current_range_meters":28400,"station_id":"ce4bgjp2rcd13ifvqbh0","pricing_plan_id":"cebpf4jnsgd1na2vs0mg"},{"bike_id":"1df12b90-cbae-49c5-a6f4-8e27e7cb26fb","system_id":"levelo_inurba_marseille","lat":43.30658,"lon":5.40079,"is_reserved":false,"is_disabled":false,"rental_uris":{"android":"levelo://app?vid=1df12b90-cbae-49c5-a6f4-8e27e7cb26fb","ios":"levelo://app?vid=1df12b90-cbae-49c5-a6f4-8e27e7cb26fb"},"vehicle_type_id":"4","last_reported":1733249482,"current_range_meters":32800,"station_id":"ce4bh112rcd13ifvqda0","pricing_plan_id":"cebpf4jnsgd1na2vs0mg"},{"bike_id":"337a9be2-ef08-4eff-89f9-35aab4dd8102","system_id":"levelo_inurba_marseille","lat":43.31334,"lon":5.39683,"is_reserved":false,"is_disabled":false,"rental_uris":{"android":"levelo://app?vid=337a9be2-ef08-4eff-89f9-35aab4dd8102","ios":"levelo://app?vid=337a9be2-ef08-4eff-89f9-35aab4dd8102"},"vehicle_type_id":"4","last_reported":1733249482,"current_range_meters":27200,"station_id":"ce4bgvp2rcd13ifvqcu0","pricing_plan_id":"cebpf4jnsgd1na2vs0mg"},{"bike_id":"d8cb318f-af17-4eb7-9af0-bd9fc5a34ddb","system_id":"levelo_inurba_marseille","lat":43.2985,"lon":5.36282,"is_reserved":false,"is_disabled":false,"rental_uris":{"android":"levelo://app?vid=d8cb318f-af17-4eb7-9af0-bd9fc5a34ddb","ios":"levelo://app?vid=d8cb318f-af17-4eb7-9af0-bd9fc5a34ddb"},"vehicle_type_id":"4","last_reported":1733249482,"current_range_meters":32800,"station_id":"ce4bgpp2rcd13ifvqc3g","pricing_plan_id":"cebpf4jnsgd1na2vs0mg"},{"bike_id":"ce6a429f-4825-4c63-b948-e0dfdaaab389","system_id":"levelo_inurba_marseille","lat":43.29213,"lon":5.36046,"is_reserved":false,"is_disabled":true,"rental_uris":{"android":"levelo://app?vid=ce6a429f-4825-4c63-b948-e0dfdaaab389","ios":"levelo://app?vid=ce6a429f-4825-4c63-b948-e0dfdaaab389"},"vehicle_type_id":"4","last_reported":1733249482,"current_range_meters":38800,"station_id":"ce4bhbh2rcd13ifvqeqg","pricing_plan_id":"cebpf4jnsgd1na2vs0mg"},{"bike_id":"8d4a4adb-15e8-4c6e-af88-14589ad7920d","system_id":"levelo_inurba_marseille","lat":43.28617,"lon":5.351,"is_reserved":false,"is_disabled":true,"rental_uris":{"android":"levelo://app?vid=8d4a4adb-15e8-4c6e-af88-14589ad7920d","ios":"levelo://app?vid=8d4a4adb-15e8-4c6e-af88-14589ad7920d"},"vehicle_type_id":"4","last_reported":1733249482,"current_range_meters":0,"station_id":"ce4bhch2rcd13ifvqeug","pricing_plan_id":"cebpf4jnsgd1na2vs0mg"},{"bike_id":"e63aa962-a242-44bd-8328-31cf6c0d9d3d","system_id":"levelo_inurba_marseille","lat":43.29305,"lon":5.37184,"is_reserved":false,"is_disabled":true,"rental_uris":{"android":"levelo://app?vid=e63aa962-a242-44bd-8328-31cf6c0d9d3d","ios":"levelo://app?vid=e63aa962-a242-44bd-8328-31cf6c0d9d3d"},"vehicle_type_id":"4","last_reported":1733249482,"current_range_meters":0,"station_id":"ce4bgh92rcd13ifvqb40","pricing_plan_id":"cebpf4jnsgd1na2vs0mg"},{"bike_id":"f8bcc820-9a1c-492a-9f26-6a6b26934b17","system_id":"levelo_inurba_marseille","lat":43.28617,"lon":5.37061,"is_reserved":false,"is_disabled":true,"rental_uris":{"android":"levelo://app?vid=f8bcc820-9a1c-492a-9f26-6a6b26934b17","ios":"levelo://app?vid=f8bcc820-9a1c-492a-9f26-6a6b26934b17"},"vehicle_type_id":"4","last_reported":1733249482,"current_range_meters":38000,"station_id":"ce4bht12rcd13ifvqi60","pricing_plan_id":"cebpf4jnsgd1na2vs0mg"},{"bike_id":"ffa321ed-06ff-48bd-8b4c-2f6701e60320","system_id":"levelo_inurba_marseille","lat":43.26932,"lon":5.38915,"is_reserved":false,"is_disabled":false,"rental_uris":{"android":"levelo://app?vid=ffa321ed-06ff-48bd-8b4c-2f6701e60320","ios":"levelo://app?vid=ffa321ed-06ff-48bd-8b4c-2f6701e60320"},"vehicle_type_id":"4","last_reported":1733249482,"current_range_meters":22400,"station_id":"ce4bhhh2rcd13ifvqfl0","pricing_plan_id":"cebpf4jnsgd1na2vs0mg"},{"bike_id":"3a9149f3-357c-4d0a-859b-18382ef024a5","system_id":"levelo_inurba_marseille","lat":43.3212,"lon":5.36773,"is_reserved":false,"is_disabled":false,"rental_uris":{"android":"levelo://app?vid=3a9149f3-357c-4d0a-859b-18382ef024a5","ios":"levelo://app?vid=3a9149f3-357c-4d0a-859b-18382ef024a5"},"vehicle_type_id":"4","last_reported":1733249482,"current_range_meters":30800,"station_id":"ce4bhrh2rcd13ifvqhug","pricing_plan_id":"cebpf4jnsgd1na2vs0mg"},{"bike_id":"03ee2335-9a9e-4c34-b796-5568e1b9dae7","system_id":"levelo_inurba_marseille","lat":43.34149,"lon":5.40908,"is_reserved":false,"is_disabled":false,"rental_uris":{"android":"levelo://app?vid=03ee2335-9a9e-4c34-b796-5568e1b9dae7","ios":"levelo://app?vid=03ee2335-9a9e-4c34-b796-5568e1b9dae7"},"vehicle_type_id":"4","last_reported":1733249482,"current_range_meters":36400,"station_id":"ce4bhqh2rcd13ifvqhlg","pricing_plan_id":"cebpf4jnsgd1na2vs0mg"},{"bike_id":"325e222a-420f-430a-a4bf-9365f0b714ab","system_id":"levelo_inurba_marseille","lat":43.27948,"lon":5.41049,"is_reserved":false,"is_disabled":true,"rental_uris":{"android":"levelo://app?vid=325e222a-420f-430a-a4bf-9365f0b714ab","ios":"levelo://app?vid=325e222a-420f-430a-a4bf-9365f0b714ab"},"vehicle_type_id":"4","last_reported":1733249482,"current_range_meters":38800,"station_id":"ce4bhnp2rcd13ifvqh0g","pricing_plan_id":"cebpf4jnsgd1na2vs0mg"},{"bike_id":"67599700-ee45-4273-a9c7-950d4097057c","system_id":"levelo_inurba_marseille","lat":43.25824,"lon":5.39437,"is_reserved":false,"is_disabled":false,"rental_uris":{"android":"levelo://app?vid=67599700-ee45-4273-a9c7-950d4097057c","ios":"levelo://app?vid=67599700-ee45-4273-a9c7-950d4097057c"},"vehicle_type_id":"4","last_reported":1733249482,"current_range_meters":27200,"station_id":"ce4bhip2rcd13ifvqft0","pricing_plan_id":"cebpf4jnsgd1na2vs0mg"},{"bike_id":"da6a7a1d-e653-4950-af8c-8137b06f7d40","system_id":"levelo_inurba_marseille","lat":43.3004,"lon":5.37551,"is_reserved":false,"is_disabled":true,"rental_uris":{"android":"levelo://app?vid=da6a7a1d-e653-4950-af8c-8137b06f7d40","ios":"levelo://app?vid=da6a7a1d-e653-4950-af8c-8137b06f7d40"},"vehicle_type_id":"4","last_reported":1733249482,"current_range_meters":0,"station_id":"","pricing_plan_id":"cebpf4jnsgd1na2vs0mg"},{"bike_id":"7d60429c-0aba-4758-83d4-be2ceb95d10c","system_id":"levelo_inurba_marseille","lat":43.3033,"lon":5.40428,"is_reserved":false,"is_disabled":true,"rental_uris":{"android":"levelo://app?vid=7d60429c-0aba-4758-83d4-be2ceb95d10c","ios":"levelo://app?vid=7d60429c-0aba-4758-83d4-be2ceb95d10c"},"vehicle_type_id":"4","last_reported":1733249482,"current_range_meters":800,"station_id":"ce4bh012rcd13ifvqd10","pricing_plan_id":"cebpf4jnsgd1na2vs0mg"},{"bike_id":"45762765-6bbb-4b45-92bb-833d11cab2ae","system_id":"levelo_inurba_marseille","lat":43.28111,"lon":5.37839,"is_reserved":false,"is_disabled":false,"rental_uris":{"android":"levelo://app?vid=45762765-6bbb-4b45-92bb-833d11cab2ae","ios":"levelo://app?vid=45762765-6bbb-4b45-92bb-833d11cab2ae"},"vehicle_type_id":"4","last_reported":1733249482,"current_range_meters":34000,"station_id":"ce4bha12rcd13ifvqee0","pricing_plan_id":"cebpf4jnsgd1na2vs0mg"},{"bike_id":"d1423131-ea1f-4dc8-a6e8-2352bf1581bc","system_id":"levelo_inurba_marseille","lat":43.30416,"lon":5.41306,"is_reserved":false,"is_disabled":false,"rental_uris":{"android":"levelo://app?vid=d1423131-ea1f-4dc8-a6e8-2352bf1581bc","ios":"levelo://app?vid=d1423131-ea1f-4dc8-a6e8-2352bf1581bc"},"vehicle_type_id":"4","last_reported":1733249482,"current_range_meters":18800,"station_id":"ce4bhop2rcd13ifvqh8g","pricing_plan_id":"cebpf4jnsgd1na2vs0mg"},{"bike_id":"8c752b35-7f02-442d-8bb9-eaeec31a9caf","system_id":"levelo_inurba_marseille","lat":43.30559,"lon":5.36541,"is_reserved":false,"is_disabled":false,"rental_uris":{"android":"levelo://app?vid=8c752b35-7f02-442d-8bb9-eaeec31a9caf","ios":"levelo://app?vid=8c752b35-7f02-442d-8bb9-eaeec31a9caf"},"vehicle_type_id":"4","last_reported":1733249482,"current_range_meters":16800,"station_id":"ce4bgs12rcd13ifvqcag","pricing_plan_id":"cebpf4jnsgd1na2vs0mg"},{"bike_id":"50ca6a15-cf29-47fe-bf6c-378eb3713217","system_id":"levelo_inurba_marseille","lat":43.29272,"lon":5.36853,"is_reserved":false,"is_disabled":false,"rental_uris":{"android":"levelo://app?vid=50ca6a15-cf29-47fe-bf6c-378eb3713217","ios":"levelo://app?vid=50ca6a15-cf29-47fe-bf6c-378eb3713217"},"vehicle_type_id":"4","last_reported":1733249482,"current_range_meters":6000,"station_id":"ce4bhbp2rcd13ifvqesg","pricing_plan_id":"cebpf4jnsgd1na2vs0mg"},{"bike_id":"a10b1379-5e4b-4786-a8ee-b403135dc8d3","system_id":"levelo_inurba_marseille","lat":43.29534,"lon":5.38547,"is_reserved":false,"is_disabled":false,"rental_uris":{"android":"levelo://app?vid=a10b1379-5e4b-4786-a8ee-b403135dc8d3","ios":"levelo://app?vid=a10b1379-5e4b-4786-a8ee-b403135dc8d3"},"vehicle_type_id":"4","last_reported":1733249482,"current_range_meters":16800,"station_id":"ce4bgih2rcd13ifvqba0","pricing_plan_id":"cebpf4jnsgd1na2vs0mg"},{"bike_id":"ca76a573-7bd6-4174-a602-a6965a8ec0d9","system_id":"levelo_inurba_marseille","lat":43.28273,"lon":5.35067,"is_reserved":false,"is_disabled":false,"rental_uris":{"android":"levelo://app?vid=ca76a573-7bd6-4174-a602-a6965a8ec0d9","ios":"levelo://app?vid=ca76a573-7bd6-4174-a602-a6965a8ec0d9"},"vehicle_type_id":"4","last_reported":1733249482,"current_range_meters":25600,"station_id":"ce4bhbp2rcd13ifvqerg","pricing_plan_id":"cebpf4jnsgd1na2vs0mg"},{"bike_id":"07ac680f-cee7-4c3a-86b5-629060e7c4af","system_id":"levelo_inurba_marseille","lat":43.29262,"lon":5.368387,"is_reserved":false,"is_disabled":false,"rental_uris":{"android":"levelo://app?vid=07ac680f-cee7-4c3a-86b5-629060e7c4af","ios":"levelo://app?vid=07ac680f-cee7-4c3a-86b5-629060e7c4af"},"vehicle_type_id":"4","last_reported":1733249482,"current_range_meters":33600,"station_id":"ce4bgjh2rcd13ifvqbf0","pricing_plan_id":"cebpf4jnsgd1na2vs0mg"},{"bike_id":"70c61673-8159-49b2-b6ed-4b8c3dd127e4","system_id":"levelo_inurba_marseille","lat":43.25085,"lon":5.39518,"is_reserved":false,"is_disabled":false,"rental_uris":{"android":"levelo://app?vid=70c61673-8159-49b2-b6ed-4b8c3dd127e4","ios":"levelo://app?vid=70c61673-8159-49b2-b6ed-4b8c3dd127e4"},"vehicle_type_id":"4","last_reported":1733249482,"current_range_meters":38800,"station_id":"ce4bhm12rcd13ifvqgkg","pricing_plan_id":"cebpf4jnsgd1na2vs0mg"},{"bike_id":"a3bd9e04-584a-48a1-8b8a-6a6aebb1fe4d","system_id":"levelo_inurba_marseille","lat":43.29201,"lon":5.39325,"is_reserved":false,"is_disabled":false,"rental_uris":{"android":"levelo://app?vid=a3bd9e04-584a-48a1-8b8a-6a6aebb1fe4d","ios":"levelo://app?vid=a3bd9e04-584a-48a1-8b8a-6a6aebb1fe4d"},"vehicle_type_id":"4","last_reported":1733249482,"current_range_meters":28400,"station_id":"ce4bh192rcd13ifvqdd0","pricing_plan_id":"cebpf4jnsgd1na2vs0mg"},{"bike_id":"a4b50ccf-c6d5-4cbe-bcd0-0e51585e7527","system_id":"levelo_inurba_marseille","lat":43.31081,"lon":5.38344,"is_reserved":false,"is_disabled":false,"rental_uris":{"android":"levelo://app?vid=a4b50ccf-c6d5-4cbe-bcd0-0e51585e7527","ios":"levelo://app?vid=a4b50ccf-c6d5-4cbe-bcd0-0e51585e7527"},"vehicle_type_id":"4","last_reported":1733249482,"current_range_meters":14400,"station_id":"ce4bgv92rcd13ifvqcr0","pricing_plan_id":"cebpf4jnsgd1na2vs0mg"},{"bike_id":"69c7e5b8-2331-4bc8-b7db-83a6cbe8dd93","system_id":"levelo_inurba_marseille","lat":43.30541,"lon":5.36695,"is_reserved":false,"is_disabled":true,"rental_uris":{"android":"levelo://app?vid=69c7e5b8-2331-4bc8-b7db-83a6cbe8dd93","ios":"levelo://app?vid=69c7e5b8-2331-4bc8-b7db-83a6cbe8dd93"},"vehicle_type_id":"4","last_reported":1733249482,"current_range_meters":1600,"station_id":"ce4bgrp2rcd13ifvqc9g","pricing_plan_id":"cebpf4jnsgd1na2vs0mg"},{"bike_id":"7b5e0666-04cb-486a-8fff-6a359d6a278e","system_id":"levelo_inurba_marseille","lat":43.26802,"lon":5.40263,"is_reserved":false,"is_disabled":false,"rental_uris":{"android":"levelo://app?vid=7b5e0666-04cb-486a-8fff-6a359d6a278e","ios":"levelo://app?vid=7b5e0666-04cb-486a-8fff-6a359d6a278e"},"vehicle_type_id":"4","last_reported":1733249482,"current_range_meters":8000,"station_id":"ce501612rcd8frsf0b60","pricing_plan_id":"cebpf4jnsgd1na2vs0mg"},{"bike_id":"fe594fc4-83b4-4bec-8445-9ed4df0cad70","system_id":"levelo_inurba_marseille","lat":43.27181,"lon":5.40989,"is_reserved":false,"is_disabled":false,"rental_uris":{"android":"levelo://app?vid=fe594fc4-83b4-4bec-8445-9ed4df0cad70","ios":"levelo://app?vid=fe594fc4-83b4-4bec-8445-9ed4df0cad70"},"vehicle_type_id":"4","last_reported":1733249482,"current_range_meters":36000,"station_id":"ce4bhl12rcd13ifvqgf0","pricing_plan_id":"cebpf4jnsgd1na2vs0mg"},{"bike_id":"e6c1254e-be53-4ff0-b5d9-26cdf980d7c3","system_id":"levelo_inurba_marseille","lat":43.25721,"lon":5.41115,"is_reserved":false,"is_disabled":false,"rental_uris":{"android":"levelo://app?vid=e6c1254e-be53-4ff0-b5d9-26cdf980d7c3","ios":"levelo://app?vid=e6c1254e-be53-4ff0-b5d9-26cdf980d7c3"},"vehicle_type_id":"4","last_reported":1733249482,"current_range_meters":32400,"station_id":"ce4bhkp2rcd13ifvqgd0","pricing_plan_id":"cebpf4jnsgd1na2vs0mg"},{"bike_id":"8258908c-2685-4346-a02e-eb0907e71275","system_id":"levelo_inurba_marseille","lat":43.28717,"lon":5.37392,"is_reserved":false,"is_disabled":false,"rental_uris":{"android":"levelo://app?vid=8258908c-2685-4346-a02e-eb0907e71275","ios":"levelo://app?vid=8258908c-2685-4346-a02e-eb0907e71275"},"vehicle_type_id":"4","last_reported":1733249482,"current_range_meters":17600,"station_id":"ce4bh3p2rcd13ifvqdq0","pricing_plan_id":"cebpf4jnsgd1na2vs0mg"},{"bike_id":"8c9b02d3-11e9-45f4-b455-a840d4d545d0","system_id":"levelo_inurba_marseille","lat":43.26928,"lon":5.38919,"is_reserved":false,"is_disabled":false,"rental_uris":{"android":"levelo://app?vid=8c9b02d3-11e9-45f4-b455-a840d4d545d0","ios":"levelo://app?vid=8c9b02d3-11e9-45f4-b455-a840d4d545d0"},"vehicle_type_id":"4","last_reported":1733249482,"current_range_meters":9200,"station_id":"ce4bhhh2rcd13ifvqfl0","pricing_plan_id":"cebpf4jnsgd1na2vs0mg"},{"bike_id":"afee990f-b1ca-4562-adf0-5c85af5d126c","system_id":"levelo_inurba_marseille","lat":43.26031,"lon":5.37553,"is_reserved":false,"is_disabled":false,"rental_uris":{"android":"levelo://app?vid=afee990f-b1ca-4562-adf0-5c85af5d126c","ios":"levelo://app?vid=afee990f-b1ca-4562-adf0-5c85af5d126c"},"vehicle_type_id":"4","last_reported":1733249482,"current_range_meters":33200,"station_id":"ce4bhgh2rcd13ifvqfa0","pricing_plan_id":"cebpf4jnsgd1na2vs0mg"},{"bike_id":"276ed0b6-8548-438f-856e-1dfa5d9a1316","system_id":"levelo_inurba_marseille","lat":43.27958,"lon":5.41048,"is_reserved":false,"is_disabled":true,"rental_uris":{"android":"levelo://app?vid=276ed0b6-8548-438f-856e-1dfa5d9a1316","ios":"levelo://app?vid=276ed0b6-8548-438f-856e-1dfa5d9a1316"},"vehicle_type_id":"4","last_reported":1733249482,"current_range_meters":28000,"station_id":"ce4bhnp2rcd13ifvqh0g","pricing_plan_id":"cebpf4jnsgd1na2vs0mg"},{"bike_id":"a95689b9-33aa-4999-bcfa-e51f7b387b2a","system_id":"levelo_inurba_marseille","lat":43.27973,"lon":5.38736,"is_reserved":false,"is_disabled":true,"rental_uris":{"android":"levelo://app?vid=a95689b9-33aa-4999-bcfa-e51f7b387b2a","ios":"levelo://app?vid=a95689b9-33aa-4999-bcfa-e51f7b387b2a"},"vehicle_type_id":"4","last_reported":1733249482,"current_range_meters":0,"station_id":"ce4bhg12rcd13ifvqf80","pricing_plan_id":"cebpf4jnsgd1na2vs0mg"},{"bike_id":"c39c0558-ea8e-4d0d-b915-781c470de9fd","system_id":"levelo_inurba_marseille","lat":43.30325,"lon":5.40431,"is_reserved":false,"is_disabled":true,"rental_uris":{"android":"levelo://app?vid=c39c0558-ea8e-4d0d-b915-781c470de9fd","ios":"levelo://app?vid=c39c0558-ea8e-4d0d-b915-781c470de9fd"},"vehicle_type_id":"4","last_reported":1733249482,"current_range_meters":0,"station_id":"ce4bh012rcd13ifvqd10","pricing_plan_id":"cebpf4jnsgd1na2vs0mg"},{"bike_id":"2279ad30-6106-47cf-8014-d015ae4baa95","system_id":"levelo_inurba_marseille","lat":43.28704,"lon":5.37382,"is_reserved":false,"is_disabled":false,"rental_uris":{"android":"levelo://app?vid=2279ad30-6106-47cf-8014-d015ae4baa95","ios":"levelo://app?vid=2279ad30-6106-47cf-8014-d015ae4baa95"},"vehicle_type_id":"4","last_reported":1733249482,"current_range_meters":38800,"station_id":"ce4bh3p2rcd13ifvqdq0","pricing_plan_id":"cebpf4jnsgd1na2vs0mg"},{"bike_id":"5b7638bd-c2dc-46d8-9fd1-814abb0c1b6a","system_id":"levelo_inurba_marseille","lat":43.28029,"lon":5.3694,"is_reserved":false,"is_disabled":false,"rental_uris":{"android":"levelo://app?vid=5b7638bd-c2dc-46d8-9fd1-814abb0c1b6a","ios":"levelo://app?vid=5b7638bd-c2dc-46d8-9fd1-814abb0c1b6a"},"vehicle_type_id":"4","last_reported":1733249482,"current_range_meters":38800,"station_id":"ce4bha12rcd13ifvqef0","pricing_plan_id":"cebpf4jnsgd1na2vs0mg"},{"bike_id":"be8cd377-bf58-414c-876c-45495911bc5b","system_id":"levelo_inurba_marseille","lat":43.28681,"lon":5.41081,"is_reserved":false,"is_disabled":true,"rental_uris":{"android":"levelo://app?vid=be8cd377-bf58-414c-876c-45495911bc5b","ios":"levelo://app?vid=be8cd377-bf58-414c-876c-45495911bc5b"},"vehicle_type_id":"4","last_reported":1733249482,"current_range_meters":12800,"station_id":"","pricing_plan_id":"cebpf4jnsgd1na2vs0mg"},{"bike_id":"19de276f-c4be-48d8-b95c-0a0da1e6d8f3","system_id":"levelo_inurba_marseille","lat":43.28031,"lon":5.36936,"is_reserved":false,"is_disabled":false,"rental_uris":{"android":"levelo://app?vid=19de276f-c4be-48d8-b95c-0a0da1e6d8f3","ios":"levelo://app?vid=19de276f-c4be-48d8-b95c-0a0da1e6d8f3"},"vehicle_type_id":"4","last_reported":1733249482,"current_range_meters":6400,"station_id":"ce4bha12rcd13ifvqef0","pricing_plan_id":"cebpf4jnsgd1na2vs0mg"},{"bike_id":"b4748622-ea65-481f-b24a-2b262d339423","system_id":"levelo_inurba_marseille","lat":43.30898,"lon":5.39641,"is_reserved":false,"is_disabled":false,"rental_uris":{"android":"levelo://app?vid=b4748622-ea65-481f-b24a-2b262d339423","ios":"levelo://app?vid=b4748622-ea65-481f-b24a-2b262d339423"},"vehicle_type_id":"4","last_reported":1733249482,"current_range_meters":36800,"station_id":"ce4bh012rcd13ifvqcv0","pricing_plan_id":"cebpf4jnsgd1na2vs0mg"},{"bike_id":"6abdb72f-e1e4-409a-b169-ec86230eeb68","system_id":"levelo_inurba_marseille","lat":43.26808,"lon":5.40273,"is_reserved":false,"is_disabled":false,"rental_uris":{"android":"levelo://app?vid=6abdb72f-e1e4-409a-b169-ec86230eeb68","ios":"levelo://app?vid=6abdb72f-e1e4-409a-b169-ec86230eeb68"},"vehicle_type_id":"4","last_reported":1733249482,"current_range_meters":22000,"station_id":"ce501612rcd8frsf0b60","pricing_plan_id":"cebpf4jnsgd1na2vs0mg"},{"bike_id":"ab74d258-8d56-4ed9-9cb7-57ae1639ee73","system_id":"levelo_inurba_marseille","lat":43.26319,"lon":5.40147,"is_reserved":false,"is_disabled":true,"rental_uris":{"android":"levelo://app?vid=ab74d258-8d56-4ed9-9cb7-57ae1639ee73","ios":"levelo://app?vid=ab74d258-8d56-4ed9-9cb7-57ae1639ee73"},"vehicle_type_id":"4","last_reported":1733249482,"current_range_meters":0,"station_id":"","pricing_plan_id":"cebpf4jnsgd1na2vs0mg"},{"bike_id":"b6cf0548-f4a5-4119-a4d2-87b988ae41f1","system_id":"levelo_inurba_marseille","lat":43.31331,"lon":5.39685,"is_reserved":false,"is_disabled":false,"rental_uris":{"android":"levelo://app?vid=b6cf0548-f4a5-4119-a4d2-87b988ae41f1","ios":"levelo://app?vid=b6cf0548-f4a5-4119-a4d2-87b988ae41f1"},"vehicle_type_id":"4","last_reported":1733249482,"current_range_meters":36800,"station_id":"ce4bgvp2rcd13ifvqcu0","pricing_plan_id":"cebpf4jnsgd1na2vs0mg"},{"bike_id":"e9260695-4fe3-491c-b86f-b1d5ec5b428f","system_id":"levelo_inurba_marseille","lat":43.31223,"lon":5.3686,"is_reserved":false,"is_disabled":true,"rental_uris":{"android":"levelo://app?vid=e9260695-4fe3-491c-b86f-b1d5ec5b428f","ios":"levelo://app?vid=e9260695-4fe3-491c-b86f-b1d5ec5b428f"},"vehicle_type_id":"4","last_reported":1733249482,"current_range_meters":2000,"station_id":"ce4bgl92rcd13ifvqbq0","pricing_plan_id":"cebpf4jnsgd1na2vs0mg"},{"bike_id":"2305b7c6-e4e6-45a4-a263-52618fda5e7a","system_id":"levelo_inurba_marseille","lat":43.26555,"lon":5.37289,"is_reserved":false,"is_disabled":false,"rental_uris":{"android":"levelo://app?vid=2305b7c6-e4e6-45a4-a263-52618fda5e7a","ios":"levelo://app?vid=2305b7c6-e4e6-45a4-a263-52618fda5e7a"},