{"last_updated":1734224108,"ttl":60,"version":"2.2","data":{"bikes":[{"bike_id":"45c22bfb-3859-46ca-bbdd-b43970628095","system_id":"levelo_inurba_marseille","lat":43.23183,"lon":5.39988,"is_reserved":false,"is_disabled":false,"rental_uris":{"android":"levelo://app?vid=45c22bfb-3859-46ca-bbdd-b43970628095","ios":"levelo://app?vid=45c22bfb-3859-46ca-bbdd-b43970628095"},"vehicle_type_id":"4","last_reported":1734224108,"current_range_meters":19600,"station_id":"ce4bhn12rcd13ifvqgqg","pricing_plan_id":"cebpf4jnsgd1na2vs0mg"},{"bike_id":"816a8994-18eb-426d-a37f-38723b089506","system_id":"levelo_inurba_marseille","lat":43.26787,"lon":5.39418,"is_reserved":false,"is_disabled":false,"rental_uris":{"android":"levelo://app?vid=816a8994-18eb-426d-a37f-38723b089506","ios":"levelo://app?vid=816a8994-18eb-426d-a37f-38723b089506"},"vehicle_type_id":"4","last_reported":1734224108,"current_range_meters":38800,"station_id":"ce4bhh12rcd13ifvqfg0","pricing_plan_id":"cebpf4jnsgd1na2vs0mg"},{"bike_id":"6a684703-b86d-480c-a944-c1ff37dbc508","system_id":"levelo_inurba_marseille","lat":43.29323,"lon":5.37161,"is_reserved":false,"is_disabled":true,"rental_uris":{"android":"levelo://app?vid=6a684703-b86d-480c-a944-c1ff37dbc508","ios":"levelo://app?vid=6a684703-b86d-480c-a944-c1ff37dbc508"},"vehicle_type_id":"4","last_reported":1734224108,"current_range_meters":400,"station_id":"ce4bgh92rcd13ifvqb40","pricing_plan_id":"cebpf4jnsgd1na2vs0mg"},{"bike_id":"50b3a443-a67d-4bc4-85df-95f6908841be","system_id":"levelo_inurba_marseille","lat":43.2319,"lon":5.35562,"is_reserved":false,"is_disabled":false,"rental_uris":{"android":"levelo://app?vid=50b3a443-a67d-4bc4-85df-95f6908841be","ios":"levelo://app?vid=50b3a443-a67d-4bc4-85df-95f6908841be"},"vehicle_type_id":"4","last_reported":1734224108,"current_range_meters":16000,"station_id":"ce4bhu92rcd13ifvqi70","pricing_plan_id":"cebpf4jnsgd1na2vs0mg"},{"bike_id":"72791e0d-b762-49b4-939e-ffbc649b8fec","system_id":"levelo_inurba_marseille","lat":43.29631,"lon":5.40591,"is_reserved":false,"is_disabled":false,"rental_uris":{"android":"levelo://app?vid=72791e0d-b762-49b4-939e-ffbc649b8fec","ios":"levelo://app?vid=72791e0d-b762-49b4-939e-ffbc649b8fec"},"vehicle_type_id":"4","last_reported":1734224108,"current_range_meters":24800,"station_id":"ce4bh0h2rcd13ifvqd60","pricing_plan_id":"cebpf4jnsgd1na2vs0mg"},{"bike_id":"ed9edba7-d3f1-4e95-8555-1252dbf70dce","system_id":"levelo_inurba_marseille","lat":43.27567,"lon":5.38416,"is_reserved":false,"is_disabled":true,"rental_uris":{"android":"levelo://app?vid=ed9edba7-d3f1-4e95-8555-1252dbf70dce","ios":"levelo://app?vid=ed9edba7-d3f1-4e95-8555-1252dbf70dce"},"vehicle_type_id":"4","last_reported":1734224108,"current_range_meters":38000,"station_id":"ce4bhh92rcd13ifvqfi0","pricing_plan_id":"cebpf4jnsgd1na2vs0mg"},{"bike_id":"767bd7f7-f068-49b4-a91d-aee7712bfd36","system_id":"levelo_inurba_marseille","lat":43.31506,"lon":5.37299,"is_reserved":false,"is_disabled":false,"rental_uris":{"android":"levelo://app?vid=767bd7f7-f068-49b4-a91d-aee7712bfd36","ios":"levelo://app?vid=767bd7f7-f068-49b4-a91d-aee7712bfd36"},"vehicle_type_id":"4","last_reported":1734224108,"current_range_meters":38800,"station_id":"ce4bgt12rcd13ifvqcd0","pricing_plan_id":"cebpf4jnsgd1na2vs0mg"},{"bike_id":"7c3ba09d-6a88-4276-b3fb-00baf3fd8e2a","system_id":"levelo_inurba_marseille","lat":43.30467,"lon":5.37898,"is_reserved":false,"is_disabled":false,"rental_uris":{"android":"levelo://app?vid=7c3ba09d-6a88-4276-b3fb-00baf3fd8e2a","ios":"levelo://app?vid=7c3ba09d-6a88-4276-b3fb-00baf3fd8e2a"},"vehicle_type_id":"4","last_reported":1734224108,"current_range_meters":28800,"station_id":"ce4bgup2rcd13ifvqcn0","pricing_plan_id":"cebpf4jnsgd1na2vs0mg"},{"bike_id":"b9909b1b-7dc0-43e0-9eac-af3c1c280ed0","system_id":"levelo_inurba_marseille","lat":43.29065,"lon":5.35784,"is_reserved":false,"is_disabled":false,"rental_uris":{"android":"levelo://app?vid=b9909b1b-7dc0-43e0-9eac-af3c1c280ed0","ios":"levelo://app?vid=b9909b1b-7dc0-43e0-9eac-af3c1c280ed0"},"vehicle_type_id":"4","last_reported":1734224108,"current_range_meters":10800,"station_id":"","pricing_plan_id":"cebpf4jnsgd1na2vs0mg"},{"bike_id":"b5cf385f-5ad2-43b5-9c65-6bf4516752af","system_id":"levelo_inurba_marseille","lat":43.30194,"lon":5.36608,"is_reserved":false,"is_disabled":false,"rental_uris":{"android":"levelo://app?vid=b5cf385f-5ad2-43b5-9c65-6bf4516752af","ios":"levelo://app?vid=b5cf385f-5ad2-43b5-9c65-6bf4516752af"},"vehicle_type_id":"4","last_reported":1734224108,"current_range_meters":18800,"station_id":"ce4bgrh2rcd13ifvqc8g","pricing_plan_id":"cebpf4jnsgd1na2vs0mg"},{"bike_id":"aa013b4b-42a7-4ac3-a4bf-61fea5b92025","system_id":"levelo_inurba_marseille","lat":43.295532,"lon":5.42285,"is_reserved":false,"is_disabled":false,"rental_uris":{"android":"levelo://app?vid=aa013b4b-42a7-4ac3-a4bf-61fea5b92025","ios":"levelo://app?vid=aa013b4b-42a7-4ac3-a4bf-61fea5b92025"},"vehicle_type_id":"4","last_reported":1734224108,"current_range_meters":19600,"station_id":"ce4bhph2rcd13ifvqhdg","pricing_plan_id":"cebpf4jnsgd1na2vs0mg"},{"bike_id":"4f42abec-0161-4f08-a250-7200e8cd39ec","system_id":"levelo_inurba_marseille","lat":43.29554,"lon":5.42292,"is_reserved":false,"is_disabled":false,"rental_uris":{"android":"levelo://app?vid=4f42abec-0161-4f08-a250-7200e8cd39ec","ios":"levelo://app?vid=4f42abec-0161-4f08-a250-7200e8cd39ec"},"vehicle_type_id":"4","last_reported":1734224108,"current_range_meters":32800,"station_id":"ce4bhph2rcd13ifvqhdg","pricing_plan_id":"cebpf4jnsgd1na2vs0mg"},{"bike_id":"d0b52179-7b43-45b8-a92e-d890bbf81935","system_id":"levelo_inurba_marseille","lat":43.30139,"lon":5.39844,"is_reserved":false,"is_disabled":false,"rental_uris":{"android":"levelo://app?vid=d0b52179-7b43-45b8-a92e-d890bbf81935","ios":"levelo://app?vid=d0b52179-7b43-45b8-a92e-d890bbf81935"},"vehicle_type_id":"4","last_reported":1734224108,"current_range_meters":22800,"station_id":"ce4bh0h2rcd13ifvqd40","pricing_plan_id":"cebpf4jnsgd1na2vs0mg"},{"bike_id":"2aabb9e3-ae45-4b17-b10d-af50e235d80a","system_id":"levelo_inurba_marseille","lat":43.26786,"lon":5.39924,"is_reserved":false,"is_disabled":true,"rental_uris":{"android":"levelo://app?vid=2aabb9e3-ae45-4b17-b10d-af50e235d80a","ios":"levelo://app?vid=2aabb9e3-ae45-4b17-b10d-af50e235d80a"},"vehicle_type_id":"4","last_reported":1734224108,"current_range_meters":0,"station_id":"","pricing_plan_id":"cebpf4jnsgd1na2vs0mg"},{"bike_id":"152328ee-76df-40e3-a986-63f0788dab36","system_id":"levelo_inurba_marseille","lat":43.32334,"lon":5.40628,"is_reserved":false,"is_disabled":false,"rental_uris":{"android":"levelo://app?vid=152328ee-76df-40e3-a986-63f0788dab36","ios":"levelo://app?vid=152328ee-76df-40e3-a986-63f0788dab36"},"vehicle_type_id":"4","last_reported":1734224108,"current_range_meters":27200,"station_id":"ce4bhq92rcd13ifvqhjg","pricing_plan_id":"cebpf4jnsgd1na2vs0mg"},{"bike_id":"d0e85661-eea5-4b39-9df2-cda64a4c3cd6","system_id":"levelo_inurba_marseille","lat":43.3088,"lon":5.3717,"is_reserved":false,"is_disabled":false,"rental_uris":{"android":"levelo://app?vid=d0e85661-eea5-4b39-9df2-cda64a4c3cd6","ios":"levelo://app?vid=d0e85661-eea5-4b39-9df2-cda64a4c3cd6"},"vehicle_type_id":"4","last_reported":1734224108,"current_range_meters":39200,"station_id":"ce4bguh2rcd13ifvqckg","pricing_plan_id":"cebpf4jnsgd1na2vs0mg"},{"bike_id":"a839feba-19e0-43dc-accc-15584f393366","system_id":"levelo_inurba_marseille","lat":43.28449,"lon":5.35897,"is_reserved":false,"is_disabled":false,"rental_uris":{"android":"levelo://app?vid=a839feba-19e0-43dc-accc-15584f393366","ios":"levelo://app?vid=a839feba-19e0-43dc-accc-15584f393366"},"vehicle_type_id":"4","last_reported":1734224108,"current_range_meters":34800,"station_id":"ce4bhah2rcd13ifvqei0","pricing_plan_id":"cebpf4jnsgd1na2vs0mg"},{"bike_id":"3595e955-9243-4ebf-a4ff-5df2907e8d74","system_id":"levelo_inurba_marseille","lat":43.32289,"lon":5.38276,"is_reserved":false,"is_disabled":false,"rental_uris":{"android":"levelo://app?vid=3595e955-9243-4ebf-a4ff-5df2907e8d74","ios":"levelo://app?vid=3595e955-9243-4ebf-a4ff-5df2907e8d74"},"vehicle_type_id":"4","last_reported":1734224108,"current_range_meters":38800,"station_id":"ce4bhr12rcd13ifvqhqg","pricing_plan_id":"cebpf4jnsgd1na2vs0mg"},{"bike_id":"068556ff-acfe-4d57-969c-cd6d5c06d876","system_id":"levelo_inurba_marseille","lat":43.2926,"lon":5.40903,"is_reserved":false,"is_disabled":false,"rental_uris":{"android":"levelo://app?vid=068556ff-acfe-4d57-969c-cd6d5c06d876","ios":"levelo://app?vid=068556ff-acfe-4d57-969c-cd6d5c06d876"},"vehicle_type_id":"4","last_reported":1734224108,"current_range_meters":30400,"station_id":"ce4bh192rcd13ifvqdc0","pricing_plan_id":"cebpf4jnsgd1na2vs0mg"},{"bike_id":"405aa5e8-6e75-40b9-bc76-371db6bd0cf8","system_id":"levelo_inurba_marseille","lat":43.31228,"lon":5.36832,"is_reserved":false,"is_disabled":false,"rental_uris":{"android":"levelo://app?vid=405aa5e8-6e75-40b9-bc76-371db6bd0cf8","ios":"levelo://app?vid=405aa5e8-6e75-40b9-bc76-371db6bd0cf8"},"vehicle_type_id":"4","last_reported":1734224108,"current_range_meters":16000,"station_id":"ce4bgl92rcd13ifvqbq0","pricing_plan_id":"cebpf4jnsgd1na2vs0mg"},{"bike_id":"e2e5ca26-ae0f-40ee-98f0-8a717fd53b58","system_id":"levelo_inurba_marseille","lat":43.31117,"lon":5.37764,"is_reserved":false,"is_disabled":false,"rental_uris":{"android":"levelo://app?vid=e2e5ca26-ae0f-40ee-98f0-8a717fd53b58","ios":"levelo://app?vid=e2e5ca26-ae0f-40ee-98f0-8a717fd53b58"},"vehicle_type_id":"4","last_reported":1734224108,"current_range_meters":38800,"station_id":"ce4bgt92rcd13ifvqcg0","pricing_plan_id":"cebpf4jnsgd1na2vs0mg"},{"bike_id":"e09e30df-3fe0-4a60-ae27-fedec56d1191","system_id":"levelo_inurba_marseille","lat":43.30573,"lon":5.38377,"is_reserved":false,"is_disabled":false,"rental_uris":{"android":"levelo://app?vid=e09e30df-3fe0-4a60-ae27-fedec56d1191","ios":"levelo://app?vid=e09e30df-3fe0-4a60-ae27-fedec56d1191"},"vehicle_type_id":"4","last_reported":1734224108,"current_range_meters":25600,"station_id":"ce4bgt12rcd13ifvqce0","pricing_plan_id":"cebpf4jnsgd1na2vs0mg"},{"bike_id":"496b9119-850a-49b3-bf98-295bb079ca7c","system_id":"levelo_inurba_marseille","lat":43.28195,"lon":5.44587,"is_reserved":false,"is_disabled":false,"rental_uris":{"android":"levelo://app?vid=496b9119-850a-49b3-bf98-295bb079ca7c","ios":"levelo://app?vid=496b9119-850a-49b3-bf98-295bb079ca7c"},"vehicle_type_id":"4","last_reported":1734224108,"current_range_meters":8000,"station_id":"","pricing_plan_id":"cebpf4jnsgd1na2vs0mg"},{"bike_id":"9a52e458-8a4a-419d-9f2b-3aa29fa14212","system_id":"levelo_inurba_marseille","lat":43.27994,"lon":5.41669,"is_reserved":false,"is_disabled":false,"rental_uris":{"android":"levelo://app?vid=9a52e458-8a4a-419d-9f2b-3aa29fa14212","ios":"levelo://app?vid=9a52e458-8a4a-419d-9f2b-3aa29fa14212"},"vehicle_type_id":"4","last_reported":1734224108,"current_range_meters":38800,"station_id":"ce4bho12rcd13ifvqh1g","pricing_plan_id":"cebpf4jnsgd1na2vs0mg"},{"bike_id":"756759df-30bb-4fc0-b7b8-d22004f554c8","system_id":"levelo_inurba_marseille","lat":43.3234,"lon":5.40618,"is_reserved":false,"is_disabled":false,"rental_uris":{"android":"levelo://app?vid=756759df-30bb-4fc0-b7b8-d22004f554c8","ios":"levelo://app?vid=756759df-30bb-4fc0-b7b8-d22004f554c8"},"vehicle_type_id":"4","last_reported":1734224108,"current_range_meters":10800,"station_id":"ce4bhq92rcd13ifvqhjg","pricing_plan_id":"cebpf4jnsgd1na2vs0mg"},{"bike_id":"5e6f02bf-6783-43f4-ac3e-e922e375a372","system_id":"levelo_inurba_marseille","lat":43.32062,"lon":5.41548,"is_reserved":false,"is_disabled":false,"rental_uris":{"android":"levelo://app?vid=5e6f02bf-6783-43f4-ac3e-e922e375a372","ios":"levelo://app?vid=5e6f02bf-6783-43f4-ac3e-e922e375a372"},"vehicle_type_id":"4","last_reported":1734224108,"current_range_meters":36000,"station_id":"ce4bhqh2rcd13ifvqhmg","pricing_plan_id":"cebpf4jnsgd1na2vs0mg"},{"bike_id":"a27ce157-a146-44e7-8cc7-1c7cb83761e0","system_id":"levelo_inurba_marseille","lat":43.29258,"lon":5.40904,"is_reserved":false,"is_disabled":false,"rental_uris":{"android":"levelo://app?vid=a27ce157-a146-44e7-8cc7-1c7cb83761e0","ios":"levelo://app?vid=a27ce157-a146-44e7-8cc7-1c7cb83761e0"},"vehicle_type_id":"4","last_reported":1734224108,"current_range_meters":26800,"station_id":"ce4bh192rcd13ifvqdc0","pricing_plan_id":"cebpf4jnsgd1na2vs0mg"},{"bike_id":"09aa2f3c-9555-44b2-a34d-05acc5333b88","system_id":"levelo_inurba_marseille","lat":43.27949,"lon":5.41041,"is_reserved":false,"is_disabled":false,"rental_uris":{"android":"levelo://app?vid=09aa2f3c-9555-44b2-a34d-05acc5333b88","ios":"levelo://app?vid=09aa2f3c-9555-44b2-a34d-05acc5333b88"},"vehicle_type_id":"4","last_reported":1734224108,"current_range_meters":38000,"station_id":"ce4bhnp2rcd13ifvqh0g","pricing_plan_id":"cebpf4jnsgd1na2vs0mg"},{"bike_id":"243d8a32-8675-42ff-8a0a-1d7d8c05b7b1","system_id":"levelo_inurba_marseille","lat":43.32656,"lon":5.40997,"is_reserved":false,"is_disabled":false,"rental_uris":{"android":"levelo://app?vid=243d8a32-8675-42ff-8a0a-1d7d8c05b7b1","ios":"levelo://app?vid=243d8a32-8675-42ff-8a0a-1d7d8c05b7b1"},"vehicle_type_id":"4","last_reported":1734224108,"current_range_meters":8800,"station_id":"ce4bhpp2rcd13ifvqhgg","pricing_plan_id":"cebpf4jnsgd1na2vs0mg"},{"bike_id":"d5c89c1f-3bad-4af2-9449-e04c277a4696","system_id":"levelo_inurba_marseille","lat":43.29976,"lon":5.41328,"is_reserved":false,"is_disabled":true,"rental_uris":{"android":"levelo://app?vid=d5c89c1f-3bad-4af2-9449-e04c277a4696","ios":"levelo://app?vid=d5c89c1f-3bad-4af2-9449-e04c277a4696"},"vehicle_type_id":"4","last_reported":1734224108,"current_range_meters":37600,"station_id":"ce4bhp12rcd13ifvqh9g","pricing_plan_id":"cebpf4jnsgd1na2vs0mg"},{"bike_id":"e6c17fa1-6fd0-4ca1-9951-48e979ee6abc","system_id":"levelo_inurba_marseille","lat":43.26555,"lon":5.37315,"is_reserved":false,"is_disabled":false,"rental_uris":{"android":"levelo://app?vid=e6c17fa1-6fd0-4ca1-9951-48e979ee6abc","ios":"levelo://app?vid=e6c17fa1-6fd0-4ca1-9951-48e979ee6abc"},"vehicle_type_id":"4","last_reported":1734224108,"current_range_meters":38800,"station_id":"ce4bhg12rcd13ifvqf70","pricing_plan_id":"cebpf4jnsgd1na2vs0mg"},{"bike_id":"5c679723-d67a-46e7-ae99-5aca11b06651","system_id":"levelo_inurba_marseille","lat":43.31273,"lon":5.40199,"is_reserved":false,"is_disabled":false,"rental_uris":{"android":"levelo://app?vid=5c679723-d67a-46e7-ae99-5aca11b06651","ios":"levelo://app?vid=5c679723-d67a-46e7-ae99-5aca11b06651"},"vehicle_type_id":"4","last_reported":1734224108,"current_range_meters":28800,"station_id":"ce4bh092rcd13ifvqd30","pricing_plan_id":"cebpf4jnsgd1na2vs0mg"},{"bike_id":"5dcb142e-3766-4e2c-b1fe-c9ebbc5d3c50","system_id":"levelo_inurba_marseille","lat":43.31988,"lon":5.38138,"is_reserved":false,"is_disabled":false,"rental_uris":{"android":"levelo://app?vid=5dcb142e-3766-4e2c-b1fe-c9ebbc5d3c50","ios":"levelo://app?vid=5dcb142e-3766-4e2c-b1fe-c9ebbc5d3c50"},"vehicle_type_id":"4","last_reported":1734224108,"current_range_meters":38000,"station_id":"ce4bhr12rcd13ifvqhpg","pricing_plan_id":"cebpf4jnsgd1na2vs0mg"},{"bike_id":"af84f0d6-0da8-41c2-b16a-2d81040dffb1","system_id":"levelo_inurba_marseille","lat":43.24206,"lon":5.39702,"is_reserved":false,"is_disabled":false,"rental_uris":{"android":"levelo://app?vid=af84f0d6-0da8-41c2-b16a-2d81040dffb1","ios":"levelo://app?vid=af84f0d6-0da8-41c2-b16a-2d81040dffb1"},"vehicle_type_id":"4","last_reported":1734224108,"current_range_meters":27600,"station_id":"ce4bhn12rcd13ifvqgpg","pricing_plan_id":"cebpf4jnsgd1na2vs0mg"},{"bike_id":"89c28168-9e53-422f-a68c-5ee6ccf55d1e","system_id":"levelo_inurba_marseille","lat":43.29716,"lon":5.37684,"is_reserved":false,"is_disabled":false,"rental_uris":{"android":"levelo://app?vid=89c28168-9e53-422f-a68c-5ee6ccf55d1e","ios":"levelo://app?vid=89c28168-9e53-422f-a68c-5ee6ccf55d1e"},"vehicle_type_id":"4","last_reported":1734224108,"current_range_meters":38400,"station_id":"ce4bgkh2rcd13ifvqbl0","pricing_plan_id":"cebpf4jnsgd1na2vs0mg"},{"bike_id":"be15b9e1-574c-45f1-b914-fc0b9a33b109","system_id":"levelo_inurba_marseille","lat":43.2504,"lon":5.41697,"is_reserved":false,"is_disabled":false,"rental_uris":{"android":"levelo://app?vid=be15b9e1-574c-45f1-b914-fc0b9a33b109","ios":"levelo://app?vid=be15b9e1-574c-45f1-b914-fc0b9a33b109"},"vehicle_type_id":"4","last_reported":1734224108,"current_range_meters":14400,"station_id":"","pricing_plan_id":"cebpf4jnsgd1na2vs0mg"},{"bike_id":"faeeed3d-e1ea-42b2-8154-c03c65ca9361","system_id":"levelo_inurba_marseille","lat":43.26223,"lon":5.37224,"is_reserved":false,"is_disabled":true,"rental_uris":{"android":"levelo://app?vid=faeeed3d-e1ea-42b2-8154-c03c65ca9361","ios":"levelo://app?vid=faeeed3d-e1ea-42b2-8154-c03c65ca9361"},"vehicle_type_id":"4","last_reported":1734224108,"current_range_meters":0,"station_id":"","pricing_plan_id":"cebpf4jnsgd1na2vs0mg"},{"bike_id":"4e5f6ae5-2a4f-4cc3-87d7-6d571f08bd38","system_id":"levelo_inurba_marseille","lat":43.28704,"lon":5.37378,"is_reserved":false,"is_disabled":false,"rental_uris":{"android":"levelo://app?vid=4e5f6ae5-2a4f-4cc3-87d7-6d571f08bd38","ios":"levelo://app?vid=4e5f6ae5-2a4f-4cc3-87d7-6d571f08bd38"},"vehicle_type_id":"4","last_reported":1734224108,"current_range_meters":38800,"station_id":"ce4bh3p2rcd13ifvqdq0","pricing_plan_id":"cebpf4jnsgd1na2vs0mg"},{"bike_id":"8bc2629d-782c-426d-a834-8e5e7d2d5eae","system_id":"levelo_inurba_marseille","lat":43.31336,"lon":5.396907,"is_reserved":false,"is_disabled":false,"rental_uris":{"android":"levelo://app?vid=8bc2629d-782c-426d-a834-8e5e7d2d5eae","ios":"levelo://app?vid=8bc2629d-782c-426d-a834-8e5e7d2d5eae"},"vehicle_type_id":"4","last_reported":1734224108,"current_range_meters":39200,"station_id":"ce4bgvp2rcd13ifvqcu0","pricing_plan_id":"cebpf4jnsgd1na2vs0mg"},{"bike_id":"2cc53316-345b-49f9-999c-b72726594aa1","system_id":"levelo_inurba_marseille","lat":43.29224,"lon":5.36064,"is_reserved":false,"is_disabled":false,"rental_uris":{"android":"levelo://app?vid=2cc53316-345b-49f9-999c-b72726594aa1","ios":"levelo://app?vid=2cc53316-345b-49f9-999c-b72726594aa1"},"vehicle_type_id":"4","last_reported":1734224108,"current_range_meters":10800,"station_id":"ce4bhbh2rcd13ifvqeqg","pricing_plan_id":"cebpf4jnsgd1na2vs0mg"},{"bike_id":"8fe8f19b-04bc-4f46-a81f-9a40e2ebbdda","system_id":"levelo_inurba_marseille","lat":43.29873,"lon":5.39731,"is_reserved":false,"is_disabled":false,"rental_uris":{"android":"levelo://app?vid=8fe8f19b-04bc-4f46-a81f-9a40e2ebbdda","ios":"levelo://app?vid=8fe8f19b-04bc-4f46-a81f-9a40e2ebbdda"},"vehicle_type_id":"4","last_reported":1734224108,"current_range_meters":33600,"station_id":"ce4bh0h2rcd13ifvqd50","pricing_plan_id":"cebpf4jnsgd1na2vs0mg"},{"bike_id":"6d233442-1f06-40c2-8154-9aabcfcd3454","system_id":"levelo_inurba_marseille","lat":43.31894,"lon":5.40734,"is_reserved":false,"is_disabled":false,"rental_uris":{"android":"levelo://app?vid=6d233442-1f06-40c2-8154-9aabcfcd3454","ios":"levelo://app?vid=6d233442-1f06-40c2-8154-9aabcfcd3454"},"vehicle_type_id":"4","last_reported":1734224108,"current_range_meters":38800,"station_id":"ce4bh0p2rcd13ifvqd70","pricing_plan_id":"cebpf4jnsgd1na2vs0mg"},{"bike_id":"d7eff4c8-f623-4bb7-8109-be18b1cb0948","system_id":"levelo_inurba_marseille","lat":43.29517,"lon":5.37504,"is_reserved":false,"is_disabled":false,"rental_uris":{"android":"levelo://app?vid=d7eff4c8-f623-4bb7-8109-be18b1cb0948","ios":"levelo://app?vid=d7eff4c8-f623-4bb7-8109-be18b1cb0948"},"vehicle_type_id":"4","last_reported":1734224108,"current_range_meters":37600,"station_id":"ce4bgkp2rcd13ifvqbmg","pricing_plan_id":"cebpf4jnsgd1na2vs0mg"},{"bike_id":"d2d9a2dd-e2b8-4579-9541-70d69f7b42e6","system_id":"levelo_inurba_marseille","lat":43.24074,"lon":5.37761,"is_reserved":false,"is_disabled":false,"rental_uris":{"android":"levelo://app?vid=d2d9a2dd-e2b8-4579-9541-70d69f7b42e6","ios":"levelo://app?vid=d2d9a2dd-e2b8-4579-9541-70d69f7b42e6"},"vehicle_type_id":"4","last_reported":1734224108,"current_range_meters":24400,"station_id":"ce4bhnp2rcd13ifvqgvg","pricing_plan_id":"cebpf4jnsgd1na2vs0mg"},{"bike_id":"299cdfa7-55ab-45de-8dbe-4f564308fa76","system_id":"levelo_inurba_marseille","lat":43.28461,"lon":5.35886,"is_reserved":false,"is_disabled":false,"rental_uris":{"android":"levelo://app?vid=299cdfa7-55ab-45de-8dbe-4f564308fa76","ios":"levelo://app?vid=299cdfa7-55ab-45de-8dbe-4f564308fa76"},"vehicle_type_id":"4","last_reported":1734224108,"current_range_meters":36000,"station_id":"ce4bhah2rcd13ifvqei0","pricing_plan_id":"cebpf4jnsgd1na2vs0mg"},{"bike_id":"7d6c35b2-6ef5-45b0-bdf1-466f360a33d1","system_id":"levelo_inurba_marseille","lat":43.30931,"lon":5.40148,"is_reserved":false,"is_disabled":false,"rental_uris":{"android":"levelo://app?vid=7d6c35b2-6ef5-45b0-bdf1-466f360a33d1","ios":"levelo://app?vid=7d6c35b2-6ef5-45b0-bdf1-466f360a33d1"},"vehicle_type_id":"4","last_reported":1734224108,"current_range_meters":38800,"station_id":"ce4bgvp2rcd13ifvqct0","pricing_plan_id":"cebpf4jnsgd1na2vs0mg"},{"bike_id":"8c9a5da4-dc3f-4150-a808-aa276248a783","system_id":"levelo_inurba_marseille","lat":43.30605,"lon":5.39354,"is_reserved":false,"is_disabled":false,"rental_uris":{"android":"levelo://app?vid=8c9a5da4-dc3f-4150-a808-aa276248a783","ios":"levelo://app?vid=8c9a5da4-dc3f-4150-a808-aa276248a783"},"vehicle_type_id":"4","last_reported":1734224108,"current_range_meters":35200,"station_id":"ce4bh0p2rcd13ifvqd80","pricing_plan_id":"cebpf4jnsgd1na2vs0mg"},{"bike_id":"3258e1ab-e0b5-4f3b-9b62-7836d94eb61a","system_id":"levelo_inurba_marseille","lat":43.32658,"lon":5.40993,"is_reserved":false,"is_disabled":false,"rental_uris":{"android":"levelo://app?vid=3258e1ab-e0b5-4f3b-9b62-7836d94eb61a","ios":"levelo://app?vid=3258e1ab-e0b5-4f3b-9b62-7836d94eb61a"},"vehicle_type_id":"4","last_reported":1734224108,"current_range_meters":35600,"station_id":"ce4bhpp2rcd13ifvqhgg","pricing_plan_id":"cebpf4jnsgd1na2vs0mg"},{"bike_id":"ccb0bd57-8fd0-4a14-a2f1-a98cf5042768","system_id":"levelo_inurba_marseille","lat":43.30894,"lon":5.3962,"is_reserved":false,"is_disabled":false,"rental_uris":{"android":"levelo://app?vid=ccb0bd57-8fd0-4a14-a2f1-a98cf5042768","ios":"levelo://app?vid=ccb0bd57-8fd0-4a14-a2f1-a98cf5042768"},"vehicle_type_id":"4","last_reported":1734224108,"current_range_meters":28400,"station_id":"ce4bh012rcd13ifvqcv0","pricing_plan_id":"cebpf4jnsgd1na2vs0mg"},{"bike_id":"e00d66cc-b150-49e8-ae6d-e9090bf6d114","system_id":"levelo_inurba_marseille","lat":43.290707,"lon":5.371661,"is_reserved":false,"is_disabled":false,"rental_uris":{"android":"levelo://app?vid=e00d66cc-b150-49e8-ae6d-e9090bf6d114","ios":"levelo://app?vid=e00d66cc-b150-49e8-ae6d-e9090bf6d114"},"vehicle_type_id":"4","last_reported":1734224108,"current_range_meters":10800,"station_id":"ce4bh5p2rcd13ifvqe4g","pricing_plan_id":"cebpf4jnsgd1na2vs0mg"},{"bike_id":"88341ea4-6ea4-4722-b434-08ec41b7663f","system_id":"levelo_inurba_marseille","lat":43.30604,"lon":5.39339,"is_reserved":false,"is_disabled":true,"rental_uris":{"android":"levelo://app?vid=88341ea4-6ea4-4722-b434-08ec41b7663f","ios":"levelo://app?vid=88341ea4-6ea4-4722-b434-08ec41b7663f"},"vehicle_type_id":"4","last_reported":1734224108,"current_range_meters":30800,"station_id":"ce4bh0p2rcd13ifvqd80","pricing_plan_id":"cebpf4jnsgd1na2vs0mg"},{"bike_id":"edaea664-24e0-4d6c-aa7a-497f5c5f88f6","system_id":"levelo_inurba_marseille","lat":43.27016,"lon":5.39129,"is_reserved":false,"is_disabled":true,"rental_uris":{"android":"levelo://app?vid=edaea664-24e0-4d6c-aa7a-497f5c5f88f6","ios":"levelo://app?vid=edaea664-24e0-4d6c-aa7a-497f5c5f88f6"},"vehicle_type_id":"4","last_reported":1734224108,"current_range_meters":0,"station_id":"","pricing_plan_id":"cebpf4jnsgd1na2vs0mg"},{"bike_id":"1edf453c-8ef7-443f-a97f-313ce3ce8976","system_id":"levelo_inurba_marseille","lat":43.28831,"lon":5.35833,"is_reserved":false,"is_disabled":false,"rental_uris":{"android":"levelo://app?vid=1edf453c-8ef7-443f-a97f-313ce3ce8976","ios":"levelo://app?vid=1edf453c-8ef7-443f-a97f-313ce3ce8976"},"vehicle_type_id":"4","last_reported":1734224108,"current_range_meters":33600,"station_id":"ce4bhb12rcd13ifvqem0","pricing_plan_id":"cebpf4jnsgd1na2vs0mg"},{"bike_id":"0040893a-b6b3-453b-8921-65eca478b12c","system_id":"levelo_inurba_marseille","lat":43.23148,"lon":5.43709,"is_reserved":false,"is_disabled":false,"rental_uris":{"android":"levelo://app?vid=0040893a-b6b3-453b-8921-65eca478b12c","ios":"levelo://app?vid=0040893a-b6b3-453b-8921-65eca478b12c"},"vehicle_type_id":"4","last_reported":1734224108,"current_range_meters":38000,"station_id":"ce4bhmp2rcd13ifvqgog","pricing_plan_id":"cebpf4jnsgd1na2vs0mg"},{"bike_id":"ed41dfb2-f310-4eff-85a5-2e8fa59ffc90","system_id":"levelo_inurba_marseille","lat":43.28472,"lon":5.38415,"is_reserved":false,"is_disabled":false,"rental_uris":{"android":"levelo://app?vid=ed41dfb2-f310-4eff-85a5-2e8fa59ffc90","ios":"levelo://app?vid=ed41dfb2-f310-4eff-85a5-2e8fa59ffc90"},"vehicle_type_id":"4","last_reported":1734224108,"current_range_meters":22800,"station_id":"ce4bh512rcd13ifvqe3g","pricing_plan_id":"cebpf4jnsgd1na2vs0mg"},{"bike_id":"2a86d604-7930-403e-ad59-8b9328ccdec4","system_id":"levelo_inurba_marseille","lat":43.30141,"lon":5.37411,"is_reserved":false,"is_disabled":false,"rental_uris":{"android":"levelo://app?vid=2a86d604-7930-403e-ad59-8b9328ccdec4","ios":"levelo://app?vid=2a86d604-7930-403e-ad59-8b9328ccdec4"},"vehicle_type_id":"4","last_reported":1734224108,"current_range_meters":36800,"station_id":"ce4bgs92rcd13ifvqcc0","pricing_plan_id":"cebpf4jnsgd1na2vs0mg"},{"bike_id":"da306aef-acdc-4ea6-b097-95f7b1d0455e","system_id":"levelo_inurba_marseille","lat":43.31222,"lon":5.36922,"is_reserved":false,"is_disabled":false,"rental_uris":{"android":"levelo://app?vid=da306aef-acdc-4ea6-b097-95f7b1d0455e","ios":"levelo://app?vid=da306aef-acdc-4ea6-b097-95f7b1d0455e"},"vehicle_type_id":"4","last_reported":1734224108,"current_range_meters":38800,"station_id":"ce4bgl92rcd13ifvqbq0","pricing_plan_id":"cebpf4jnsgd1na2vs0mg"},{"bike_id":"b5dd8c4c-3ba7-409a-a561-657517ac7670","system_id":"levelo_inurba_marseille","lat":43.285732,"lon":5.394971,"is_reserved":false,"is_disabled":false,"rental_uris":{"android":"levelo://app?vid=b5dd8c4c-3ba7-409a-a561-657517ac7670","ios":"levelo://app?vid=b5dd8c4c-3ba7-409a-a561-657517ac7670"},"vehicle_type_id":"4","last_reported":1734224108,"current_range_meters":12000,"station_id":"ce4bh292rcd13ifvqdg0","pricing_plan_id":"cebpf4jnsgd1na2vs0mg"},{"bike_id":"0e545a65-9ae7-4ff9-8ddd-fa9316a710e3","system_id":"levelo_inurba_marseille","lat":43.28702,"lon":5.37384,"is_reserved":false,"is_disabled":false,"rental_uris":{"android":"levelo://app?vid=0e545a65-9ae7-4ff9-8ddd-fa9316a710e3","ios":"levelo://app?vid=0e545a65-9ae7-4ff9-8ddd-fa9316a710e3"},"vehicle_type_id":"4","last_reported":1734224108,"current_range_meters":32800,"station_id":"ce4bh3p2rcd13ifvqdq0","pricing_plan_id":"cebpf4jnsgd1na2vs0mg"},{"bike_id":"0bf81dcc-c1c3-4e43-a815-57d9ca14a9a2","system_id":"levelo_inurba_marseille","lat":43.30812,"lon":5.43518,"is_reserved":false,"is_disabled":false,"rental_uris":{"android":"levelo://app?vid=0bf81dcc-c1c3-4e43-a815-57d9ca14a9a2","ios":"levelo://app?vid=0bf81dcc-c1c3-4e43-a815-57d9ca14a9a2"},"vehicle_type_id":"4","last_reported":1734224108,"current_range_meters":34000,"station_id":"ce4bhph2rcd13ifvqheg","pricing_plan_id":"cebpf4jnsgd1na2vs0mg"},{"bike_id":"ba6abc17-2a1f-45c6-8711-b118d10bc680","system_id":"levelo_inurba_marseille","lat":43.2894,"lon":5.36407,"is_reserved":false,"is_disabled":false,"rental_uris":{"android":"levelo://app?vid=ba6abc17-2a1f-45c6-8711-b118d10bc680","ios":"levelo://app?vid=ba6abc17-2a1f-45c6-8711-b118d10bc680"},"vehicle_type_id":"4","last_reported":1734224108,"current_range_meters":33600,"station_id":"ce4bhc92rcd13ifvqetg","pricing_plan_id":"cebpf4jnsgd1na2vs0mg"},{"bike_id":"bc0632a7-709a-4ff1-a290-cca8b40883c2","system_id":"levelo_inurba_marseille","lat":43.30138,"lon":5.39853,"is_reserved":false,"is_disabled":false,"rental_uris":{"android":"levelo://app?vid=bc0632a7-709a-4ff1-a290-cca8b40883c2","ios":"levelo://app?vid=bc0632a7-709a-4ff1-a290-cca8b40883c2"},"vehicle_type_id":"4","last_reported":1734224108,"current_range_meters":38000,"station_id":"ce4bh0h2rcd13ifvqd40","pricing_plan_id":"cebpf4jnsgd1na2vs0mg"},{"bike_id":"a248f6cc-82f3-4e75-a343-5582d9b4c2e1","system_id":"levelo_inurba_marseille","lat":43.31539,"lon":5.38033,"is_reserved":false,"is_disabled":false,"rental_uris":{"android":"levelo://app?vid=a248f6cc-82f3-4e75-a343-5582d9b4c2e1","ios":"levelo://app?vid=a248f6cc-82f3-4e75-a343-5582d9b4c2e1"},"vehicle_type_id":"4","last_reported":1734224108,"current_range_meters":27600,"station_id":"ce4bhsp2rcd13ifvqi50","pricing_plan_id":"cebpf4jnsgd1na2vs0mg"},{"bike_id":"1be8b304-8cfd-458b-96b0-7ea7e10db816","system_id":"levelo_inurba_marseille","lat":43.26944,"lon":5.40247,"is_reserved":false,"is_disabled":false,"rental_uris":{"android":"levelo://app?vid=1be8b304-8cfd-458b-96b0-7ea7e10db816","ios":"levelo://app?vid=1be8b304-8cfd-458b-96b0-7ea7e10db816"},"vehicle_type_id":"4","last_reported":1734224108,"current_range_meters":38800,"station_id":"cjm6bp8fraef2m0cb0m0","pricing_plan_id":"cebpf4jnsgd1na2vs0mg"},{"bike_id":"2e49a40c-05a6-431f-a5a8-7cc0b8d0184a","system_id":"levelo_inurba_marseille","lat":43.27215,"lon":5.40986,"is_reserved":false,"is_disabled":false,"rental_uris":{"android":"levelo://app?vid=2e49a40c-05a6-431f-a5a8-7cc0b8d0184a","ios":"levelo://app?vid=2e49a40c-05a6-431f-a5a8-7cc0b8d0184a"},"vehicle_type_id":"4","last_reported":1734224108,"current_range_meters":20000,"station_id":"ce4bhl12rcd13ifvqgf0","pricing_plan_id":"cebpf4jnsgd1na2vs0mg"},{"bike_id":"c873592f-87df-4da8-a19f-1566731532df","system_id":"levelo_inurba_marseille","lat":43.28479,"lon":5.38409,"is_reserved":false,"is_disabled":false,"rental_uris":{"android":"levelo://app?vid=c873592f-87df-4da8-a19f-1566731532df","ios":"levelo://app?vid=c873592f-87df-4da8-a19f-1566731532df"},"vehicle_type_id":"4","last_reported":1734224108,"current_range_meters":38800,"station_id":"ce4bh512rcd13ifvqe3g","pricing_plan_id":"cebpf4jnsgd1na2vs0mg"},{"bike_id":"fd4efec3-03a9-456d-9f3e-04aeb194cc68","system_id":"levelo_inurba_marseille","lat":43.25819,"lon":5.39405,"is_reserved":false,"is_disabled":false,"rental_uris":{"android":"levelo://app?vid=fd4efec3-03a9-456d-9f3e-04aeb194cc68","ios":"levelo://app?vid=fd4efec3-03a9-456d-9f3e-04aeb194cc68"},"vehicle_type_id":"4","last_reported":1734224108,"current_range_meters":32800,"station_id":"ce4bhip2rcd13ifvqft0","pricing_plan_id":"cebpf4jnsgd1na2vs0mg"},{"bike_id":"6994f3dd-5742-486e-b28b-ea715f1289aa","system_id":"levelo_inurba_marseille","lat":43.33601,"lon":5.41002,"is_reserved":false,"is_disabled":false,"rental_uris":{"android":"levelo://app?vid=6994f3dd-5742-486e-b28b-ea715f1289aa","ios":"levelo://app?vid=6994f3dd-5742-486e-b28b-ea715f1289aa"},"vehicle_type_id":"4","last_reported":1734224108,"current_range_meters":11600,"station_id":"ce4bhqh2rcd13ifvqhmg","pricing_plan_id":"cebpf4jnsgd1na2vs0mg"},{"bike_id":"dfdefa1a-36e5-482a-aafa-f01de140dff1","system_id":"levelo_inurba_marseille","lat":43.28461,"lon":5.35902,"is_reserved":false,"is_disabled":false,"rental_uris":{"android":"levelo://app?vid=dfdefa1a-36e5-482a-aafa-f01de140dff1","ios":"levelo://app?vid=dfdefa1a-36e5-482a-aafa-f01de140dff1"},"vehicle_type_id":"4","last_reported":1734224108,"current_range_meters":28000,"station_id":"ce4bhah2rcd13ifvqei0","pricing_plan_id":"cebpf4jnsgd1na2vs0mg"},{"bike_id":"7482f887-7952-4f02-a5dc-546e954acfc6","system_id":"levelo_inurba_marseille","lat":43.29417,"lon":5.38638,"is_reserved":false,"is_disabled":true,"rental_uris":{"android":"levelo://app?vid=7482f887-7952-4f02-a5dc-546e954acfc6","ios":"levelo://app?vid=7482f887-7952-4f02-a5dc-546e954acfc6"},"vehicle_type_id":"4","last_reported":1734224108,"current_range_meters":6800,"station_id":"ce4bh2h2rcd13ifvqdh0","pricing_plan_id":"cebpf4jnsgd1na2vs0mg"},{"bike_id":"49535689-c82b-4b8f-869a-4688111f246f","system_id":"levelo_inurba_marseille","lat":43.32291,"lon":5.38271,"is_reserved":false,"is_disabled":false,"rental_uris":{"android":"levelo://app?vid=49535689-c82b-4b8f-869a-4688111f246f","ios":"levelo://app?vid=49535689-c82b-4b8f-869a-4688111f246f"},"vehicle_type_id":"4","last_reported":1734224108,"current_range_meters":38400,"station_id":"ce4bhr12rcd13ifvqhqg","pricing_plan_id":"cebpf4jnsgd1na2vs0mg"},{"bike_id":"dc232db5-b70d-461f-9d6c-b355298dd0b7","system_id":"levelo_inurba_marseille","lat":43.30801,"lon":5.38153,"is_reserved":false,"is_disabled":false,"rental_uris":{"android":"levelo://app?vid=dc232db5-b70d-461f-9d6c-b355298dd0b7","ios":"levelo://app?vid=dc232db5-b70d-461f-9d6c-b355298dd0b7"},"vehicle_type_id":"4","last_reported":1734224108,"current_range_meters":10000,"station_id":"ce4bgt12rcd13ifvqce0","pricing_plan_id":"cebpf4jnsgd1na2vs0mg"},{"bike_id":"2071f054-5a90-4b26-bab7-f4ec1d1dd648","system_id":"levelo_inurba_marseille","lat":43.28104,"lon":5.37841,"is_reserved":false,"is_disabled":false,"rental_uris":{"android":"levelo://app?vid=2071f054-5a90-4b26-bab7-f4ec1d1dd648","ios":"levelo://app?vid=2071f054-5a90-4b26-bab7-f4ec1d1dd648"},"vehicle_type_id":"4","last_reported":1734224108,"current_range_meters":38800,"station_id":"ce4bha12rcd13ifvqee0","pricing_plan_id":"cebpf4jnsgd1na2vs0mg"},{"bike_id":"0e6e5fe9-00fb-4612-a30a-a69ff66f7186","system_id":"levelo_inurba_marseille","lat":43.32663,"lon":5.40988,"is_reserved":false,"is_disabled":false,"rental_uris":{"android":"levelo://app?vid=0e6e5fe9-00fb-4612-a30a-a69ff66f7186","ios":"levelo://app?vid=0e6e5fe9-00fb-4612-a30a-a69ff66f7186"},"vehicle_type_id":"4","last_reported":1734224108,"current_range_meters":22000,"station_id":"ce4bhpp2rcd13ifvqhgg","pricing_plan_id":"cebpf4jnsgd1na2vs0mg"},{"bike_id":"2fde2325-c422-42fb-bd6a-b015a704ab42","system_id":"levelo_inurba_marseille","lat":43.25113,"lon":5.4032,"is_reserved":false,"is_disabled":false,"rental_uris":{"android":"levelo://app?vid=2fde2325-c422-42fb-bd6a-b015a704ab42","ios":"levelo://app?vid=2fde2325-c422-42fb-bd6a-b015a704ab42"},"vehicle_type_id":"4","last_reported":1734224108,"current_range_meters":16800,"station_id":"ce4bhlh2rcd13ifvqgig","pricing_plan_id":"cebpf4jnsgd1na2vs0mg"},{"bike_id":"bde98226-e398-4f22-95d7-b6833bf229c8","system_id":"levelo_inurba_marseille","lat":43.30218,"lon":5.39464,"is_reserved":false,"is_disabled":false,"rental_uris":{"android":"levelo://app?vid=bde98226-e398-4f22-95d7-b6833bf229c8","ios":"levelo://app?vid=bde98226-e398-4f22-95d7-b6833bf229c8"},"vehicle_type_id":"4","last_reported":1734224108,"current_range_meters":16000,"station_id":"ce4bh0p2rcd13ifvqd70","pricing_plan_id":"cebpf4jnsgd1na2vs0mg"},{"bike_id":"20448b72-f966-4d8b-8b61-70ba5c4d76dc","system_id":"levelo_inurba_marseille","lat":43.29285,"lon":5.40112,"is_reserved":false,"is_disabled":false,"rental_uris":{"android":"levelo://app?vid=20448b72-f966-4d8b-8b61-70ba5c4d76dc","ios":"levelo://app?vid=20448b72-f966-4d8b-8b61-70ba5c4d76dc"},"vehicle_type_id":"4","last_reported":1734224108,"current_range_meters":30000,"station_id":"ce4bh312rcd13ifvqdk0","pricing_plan_id":"cebpf4jnsgd1na2vs0mg"},{"bike_id":"30c2d320-1958-4ebb-9a37-5650a90311fa","system_id":"levelo_inurba_marseille","lat":43.28712,"lon":5.39979,"is_reserved":false,"is_disabled":false,"rental_uris":{"android":"levelo://app?vid=30c2d320-1958-4ebb-9a37-5650a90311fa","ios":"levelo://app?vid=30c2d320-1958-4ebb-9a37-5650a90311fa"},"vehicle_type_id":"4","last_reported":1734224108,"current_range_meters":35600,"station_id":"ce4bho92rcd13ifvqh3g","pricing_plan_id":"cebpf4jnsgd1na2vs0mg"},{"bike_id":"ae0bdd7b-187c-409c-b2b3-37aac32d4db3","system_id":"levelo_inurba_marseille","lat":43.32368,"lon":5.36757,"is_reserved":false,"is_disabled":false,"rental_uris":{"android":"levelo://app?vid=ae0bdd7b-187c-409c-b2b3-37aac32d4db3","ios":"levelo://app?vid=ae0bdd7b-187c-409c-b2b3-37aac32d4db3"},"vehicle_type_id":"4","last_reported":1734224108,"current_range_meters":38000,"station_id":"ce4bhsh2rcd13ifvqi2g","pricing_plan_id":"cebpf4jnsgd1na2vs0mg"},{"bike_id":"59b259af-328b-4a37-b1cb-eeec53772a2b","system_id":"levelo_inurba_marseille","lat":43.30549,"lon":5.36706,"is_reserved":false,"is_disabled":false,"rental_uris":{"android":"levelo://app?vid=59b259af-328b-4a37-b1cb-eeec53772a2b","ios":"levelo://app?vid=59b259af-328b-4a37-b1cb-eeec53772a2b"},"vehicle_type_id":"4","last_reported":1734224108,"current_range_meters":38800,"station_id":"ce4bgrp2rcd13ifvqc9g","pricing_plan_id":"cebpf4jnsgd1na2vs0mg"},{"bike_id":"42cfffe7-8d2a-4a4f-b8f4-c4e4f1a96726","system_id":"levelo_inurba_marseille","lat":43.26552,"lon":5.3729,"is_reserved":false,"is_disabled":false,"rental_uris":{"android":"levelo://app?vid=42cfffe7-8d2a-4a4f-b8f4-c4e4f1a96726","ios":"levelo://app?vid=42cfffe7-8d2a-4a4f-b8f4-c4e4f1a96726"},"vehicle_type_id":"4","last_reported":1734224108,"current_range_meters":10000,"station_id":"ce4bhg12rcd13ifvqf70","pricing_plan_id":"cebpf4jnsgd1na2vs0mg"},{"bike_id":"9ad311dd-c450-4f09-933a-ef53d4559dc3","system_id":"levelo_inurba_marseille","lat":43.26987,"lon":5.39864,"is_reserved":false,"is_disabled":false,"rental_uris":{"android":"levelo://app?vid=9ad311dd-c450-4f09-933a-ef53d4559dc3","ios":"levelo://app?vid=9ad311dd-c450-4f09-933a-ef53d4559dc3"},"vehicle_type_id":"4","last_reported":1734224108,"current_range_meters":24800,"station_id":"","pricing_plan_id":"cebpf4jnsgd1na2vs0mg"},{"bike_id":"37456efc-92e9-4863-91c7-bd4d94a41119","system_id":"levelo_inurba_marseille","lat":43.28493,"lon":5.40176,"is_reserved":false,"is_disabled":false,"rental_uris":{"android":"levelo://app?vid=37456efc-92e9-4863-91c7-bd4d94a41119","ios":"levelo://app?vid=37456efc-92e9-4863-91c7-bd4d94a41119"},"vehicle_type_id":"4","last_reported":1734224108,"current_range_meters":11200,"station_id":"","pricing_plan_id":"cebpf4jnsgd1na2vs0mg"},{"bike_id":"123e146a-854c-4e79-886f-1db5d5371d0c","system_id":"levelo_inurba_marseille","lat":43.31999,"lon":5.38148,"is_reserved":false,"is_disabled":false,"rental_uris":{"android":"levelo://app?vid=123e146a-854c-4e79-886f-1db5d5371d0c","ios":"levelo://app?vid=123e146a-854c-4e79-886f-1db5d5371d0c"},"vehicle_type_id":"4","last_reported":1734224108,"current_range_meters":38800,"station_id":"ce4bhr12rcd13ifvqhpg","pricing_plan_id":"cebpf4jnsgd1na2vs0mg"},{"bike_id":"44db9a9d-ddc8-4756-b796-1d8de4c4d278","system_id":"levelo_inurba_marseille","lat":43.31998,"lon":5.3815,"is_reserved":false,"is_disabled":false,"rental_uris":{"android":"levelo://app?vid=44db9a9d-ddc8-4756-b796-1d8de4c4d278","ios":"levelo://app?vid=44db9a9d-ddc8-4756-b796-1d8de4c4d278"},"vehicle_type_id":"4","last_reported":1734224108,"current_range_meters":25200,"station_id":"ce4bhr12rcd13ifvqhpg","pricing_plan_id":"cebpf4jnsgd1na2vs0mg"},{"bike_id":"4741a383-8051-4461-b0d8-a526bae939ad","system_id":"levelo_inurba_marseille","lat":43.26942,"lon":5.38648,"is_reserved":false,"is_disabled":false,"rental_uris":{"android":"levelo://app?vid=4741a383-8051-4461-b0d8-a526bae939ad","ios":"levelo://app?vid=4741a383-8051-4461-b0d8-a526bae939ad"},"vehicle_type_id":"4","last_reported":1734224108,"current_range_meters":38000,"station_id":"ce4bhh92rcd13ifvqfh0","pricing_plan_id":"cebpf4jnsgd1na2vs0mg"},{"bike_id":"af67ac53-ba21-4ff0-8334-95679e9ff2cc","system_id":"levelo_inurba_marseille","lat":43.278805,"lon":5.388003,"is_reserved":false,"is_disabled":true,"rental_uris":{"android":"levelo://app?vid=af67ac53-ba21-4ff0-8334-95679e9ff2cc","ios":"levelo://app?vid=af67ac53-ba21-4ff0-8334-95679e9ff2cc"},"vehicle_type_id":"4","last_reported":1734224108,"current_range_meters":0,"station_id":"","pricing_plan_id":"cebpf4jnsgd1na2vs0mg"},{"bike_id":"af3cf5fc-8f4b-4054-b231-9398597286a2","system_id":"levelo_inurba_marseille","lat":43.3136,"lon":5.38499,"is_reserved":false,"is_disabled":false,"rental_uris":{"android":"levelo://app?vid=af3cf5fc-8f4b-4054-b231-9398597286a2","ios":"levelo://app?vid=af3cf5fc-8f4b-4054-b231-9398597286a2"},"vehicle_type_id":"4","last_reported":1734224108,"current_range_meters":16400,"station_id":"ce4bgt92rcd13ifvqcf0","pricing_plan_id":"cebpf4jnsgd1na2vs0mg"},{"bike_id":"a1646859-c01a-4acf-9da8-f1ee179a778f","system_id":"levelo_inurba_marseille","lat":43.300918,"lon":5.390795,"is_reserved":false,"is_disabled":true,"rental_uris":{"android":"levelo://app?vid=a1646859-c01a-4acf-9da8-f1ee179a778f","ios":"levelo://app?vid=a1646859-c01a-4acf-9da8-f1ee179a778f"},"vehicle_type_id":"4","last_reported":1734224108,"current_range_meters":16400,"station_id":"ce4bh192rcd13ifvqdb0","pricing_plan_id":"cebpf4jnsgd1na2vs0mg"},{"bike_id":"ca9fb8c6-c34e-4d2b-82f7-56c70143a1bb","system_id":"levelo_inurba_marseille","lat":43.27995,"lon":5.40013,"is_reserved":false,"is_disabled":false,"rental_uris":{"android":"levelo://app?vid=ca9fb8c6-c34e-4d2b-82f7-56c70143a1bb","ios":"levelo://app?vid=ca9fb8c6-c34e-4d2b-82f7-56c70143a1bb"},"vehicle_type_id":"4","last_reported":1734224108,"current_range_meters":16400,"station_id":"ce4bho92rcd13ifvqh4g","pricing_plan_id":"cebpf4jnsgd1na2vs0mg"},{"bike_id":"fc43bfe3-9f6d-4964-8d03-4526a28744ff","system_id":"levelo_inurba_marseille","lat":43.23963,"lon":5.36632,"is_reserved":false,"is_disabled":false,"rental_uris":{"android":"levelo://app?vid=fc43bfe3-9f6d-4964-8d03-4526a28744ff","ios":"levelo://app?vid=fc43bfe3-9f6d-4964-8d03-4526a28744ff"},"vehicle_type_id":"4","last_reported":1734224108,"current_range_meters":38400,"station_id":"ce4bhi12rcd13ifvqfp0","pricing_plan_id":"cebpf4jnsgd1na2vs0mg"},{"bike_id":"abd5d070-e1a6-4ddf-997b-99397e182274","system_id":"levelo_inurba_marseille","lat":43.29555,"lon":5.42293,"is_reserved":false,"is_disabled":false,"rental_uris":{"android":"levelo://app?vid=abd5d070-e1a6-4ddf-997b-99397e182274","ios":"levelo://app?vid=abd5d070-e1a6-4ddf-997b-99397e182274"},"vehicle_type_id":"4","last_reported":1734224108,"current_range_meters":32000,"station_id":"ce4bhph2rcd13ifvqhdg","pricing_plan_id":"cebpf4jnsgd1na2vs0mg"},{"bike_id":"d99e6ff9-3877-42c3-8f2a-8f925cb0627b","system_id":"levelo_inurba_marseille","lat":43.26553,"lon":5.37287,"is_reserved":false,"is_disabled":false,"rental_uris":{"android":"levelo://app?vid=d99e6ff9-3877-42c3-8f2a-8f925cb0627b","ios":"levelo://app?vid=d99e6ff9-3877-42c3-8f2a-8f925cb0627b"},"vehicle_type_id":"4","last_reported":1734224108,"current_range_meters":27600,"station_id":"ce4bhg12rcd13ifvqf70","pricing_plan_id":"cebpf4jnsgd1na2vs0mg"},{"bike_id":"d65fcea9-51ba-41f0-86fd-e798dfdd6f09","system_id":"levelo_inurba_marseille","lat":43.28701,"lon":5.38304,"is_reserved":false,"is_disabled":true,"rental_uris":{"android":"levelo://app?vid=d65fcea9-51ba-41f0-86fd-e798dfdd6f09","ios":"levelo://app?vid=d65fcea9-51ba-41f0-86fd-e798dfdd6f09"},"vehicle_type_id":"4","last_reported":1734224108,"current_range_meters":0,"station_id":"","pricing_plan_id":"cebpf4jnsgd1na2vs0mg"},{"bike_id":"656d8740-9b85-4a93-86ce-9d32a0e761f7","system_id":"levelo_inurba_marseille","lat":43.31066,"lon":5.38343,"is_reserved":false,"is_disabled":true,"rental_uris":{"android":"levelo://app?vid=656d8740-9b85-4a93-86ce-9d32a0e761f7","ios":"levelo://app?vid=656d8740-9b85-4a93-86ce-9d32a0e761f7"},"vehicle_type_id":"4","last_reported":1734224108,"current_range_meters":28000,"station_id":"ce4bgv92rcd13ifvqcr0","pricing_plan_id":"cebpf4jnsgd1na2vs0mg"},{"bike_id":"30b09c14-5db6-4bdd-8ec0-8d8fd355bef3","system_id":"levelo_inurba_marseille","lat":43.29859,"lon":5.39811,"is_reserved":false,"is_disabled":true,"rental_uris":{"android":"levelo://app?vid=30b09c14-5db6-4bdd-8ec0-8d8fd355bef3","ios":"levelo://app?vid=30b09c14-5db6-4bdd-8ec0-8d8fd355bef3"},"vehicle_type_id":"4","last_reported":1734224108,"current_range_meters":4400,"station_id":"","pricing_plan_id":"cebpf4jnsgd1na2vs0mg"},{"bike_id":"f08c808c-af08-40b8-81c3-97739c995b77","system_id":"levelo_inurba_marseille","lat":43.30158,"lon":5.39855,"is_reserved":false,"is_disabled":true,"rental_uris":{"android":"levelo://app?vid=f08c808c-af08-40b8-81c3-97739c995b77","ios":"levelo://app?vid=f08c808c-af08-40b8-81c3-97739c995b77"},"vehicle_type_id":"4","last_reported":1734224108,"current_range_meters":30400,"station_id":"ce4bh0h2rcd13ifvqd40","pricing_plan_id":"cebpf4jnsgd1na2vs0mg"},{"bike_id":"86970bbe-b814-43c9-89a2-85f507f309fa","system_id":"levelo_inurba_marseille","lat":43.305474,"lon":5.384308,"is_reserved":false,"is_disabled":true,"rental_uris":{"android":"levelo://app?vid=86970bbe-b814-43c9-89a2-85f507f309fa","ios":"levelo://app?vid=86970bbe-b814-43c9-89a2-85f507f309fa"},"vehicle_type_id":"4","last_reported":1734224108,"current_range_meters":6800,"station_id":"ce4bgg92rcd13ifvqb30","pricing_plan_id":"cebpf4jnsgd1na2vs0mg"},{"bike_id":"a52a126c-db70-4139-bb68-c7c2b0eee700","system_id":"levelo_inurba_marseille","lat":43.28702,"lon":5.39992,"is_reserved":false,"is_disabled":false,"rental_uris":{"android":"levelo://app?vid=a52a126c-db70-4139-bb68-c7c2b0eee700","ios":"levelo://app?vid=a52a126c-db70-4139-bb68-c7c2b0eee700"},"vehicle_type_id":"4","last_reported":1734224108,"current_range_meters":17200,"station_id":"ce4bho92rcd13ifvqh3g","pricing_plan_id":"cebpf4jnsgd1na2vs0mg"},{"bike_id":"96969163-05be-4d1c-a728-67794615bdfc","system_id":"levelo_inurba_marseille","lat":43.29015,"lon":5.39005,"is_reserved":false,"is_disabled":false,"rental_uris":{"android":"levelo://app?vid=96969163-05be-4d1c-a728-67794615bdfc","ios":"levelo://app?vid=96969163-05be-4d1c-a728-67794615bdfc"},"vehicle_type_id":"4","last_reported":1734224108,"current_range_meters":18000,"station_id":"","pricing_plan_id":"cebpf4jnsgd1na2vs0mg"},{"bike_id":"64203de9-e72b-4d66-9a84-7a315c7ed37f","system_id":"levelo_inurba_marseille","lat":43.294673,"lon":5.374217,"is_reserved":false,"is_disabled":true,"rental_uris":{"android":"levelo://app?vid=64203de9-e72b-4d66-9a84-7a315c7ed37f","ios":"levelo://app?vid=64203de9-e72b-4d66-9a84-7a315c7ed37f"},"vehicle_type_id":"4","last_reported":1734224108,"current_range_meters":0,"station_id":"","pricing_plan_id":"cebpf4jnsgd1na2vs0mg"},{"bike_id":"43a2fa1d-314c-4a4d-b7c9-aa2f198eb73b","system_id":"levelo_inurba_marseille","lat":43.30133,"lon":5.3877,"is_reserved":false,"is_disabled":true,"rental_uris":{"android":"levelo://app?vid=43a2fa1d-314c-4a4d-b7c9-aa2f198eb73b","ios":"levelo://app?vid=43a2fa1d-314c-4a4d-b7c9-aa2f198eb73b"},"vehicle_type_id":"4","last_reported":1734224108,"current_range_meters":32400,"station_id":"ce4bghh2rcd13ifvqb60","pricing_plan_id":"cebpf4jnsgd1na2vs0mg"},{"bike_id":"f40a8800-0282-4e19-ba2d-6a4b73090705","system_id":"levelo_inurba_marseille","lat":43.28686,"lon":5.38653,"is_reserved":false,"is_disabled":true,"rental_uris":{"android":"levelo://app?vid=f40a8800-0282-4e19-ba2d-6a4b73090705","ios":"levelo://app?vid=f40a8800-0282-4e19-ba2d-6a4b73090705"},"vehicle_type_id":"4","last_reported":1734224108,"current_range_meters":29600,"station_id":"ce4bh492rcd13ifvqdug","pricing_plan_id":"cebpf4jnsgd1na2vs0mg"},{"bike_id":"3eb8d47d-3071-449d-a33a-462941d750bd","system_id":"levelo_inurba_marseille","lat":43.28945,"lon":5.36394,"is_reserved":false,"is_disabled":false,"rental_uris":{"android":"levelo://app?vid=3eb8d47d-3071-449d-a33a-462941d750bd","ios":"levelo://app?vid=3eb8d47d-3071-449d-a33a-462941d750bd"},"vehicle_type_id":"4","last_reported":1734224108,"current_range_meters":20000,"station_id":"ce4bhc92rcd13ifvqetg","pricing_plan_id":"cebpf4jnsgd1na2vs0mg"},{"bike_id":"ee86875a-7fd8-4803-839e-f9dfb16c4db6","system_id":"levelo_inurba_marseille","lat":43.231524,"lon":5.437083,"is_reserved":false,"is_disabled":false,"rental_uris":{"android":"levelo://app?vid=ee86875a-7fd8-4803-839e-f9dfb16c4db6","ios":"levelo://app?vid=ee86875a-7fd8-4803-839e-f9dfb16c4db6"},"vehicle_type_id":"4","last_reported":1734224108,"current_range_meters":6800,"station_id":"ce4bhmp2rcd13ifvqgog","pricing_plan_id":"cebpf4jnsgd1na2vs0mg"},{"bike_id":"e9c2da41-0cf3-4790-b1bd-5a8d9ecb7255","system_id":"levelo_inurba_marseille","lat":43.26209,"lon":5.37922,"is_reserved":false,"is_disabled":false,"rental_uris":{"android":"levelo://app?vid=e9c2da41-0cf3-4790-b1bd-5a8d9ecb7255","ios":"levelo://app?vid=e9c2da41-0cf3-4790-b1bd-5a8d9ecb7255"},"vehicle_type_id":"4","last_reported":1734224108,"current_range_meters":27600,"station_id":"ce4bhjp2rcd13ifvqg90","pricing_plan_id":"cebpf4jnsgd1na2vs0mg"},{"bike_id":"4032b643-f636-4c75-9540-a4d6ed8569b4","system_id":"levelo_inurba_marseille","lat":43.30176,"lon":5.36623,"is_reserved":false,"is_disabled":false,"rental_uris":{"android":"levelo://app?vid=4032b643-f636-4c75-9540-a4d6ed8569b4","ios":"levelo://app?vid=4032b643-f636-4c75-9540-a4d6ed8569b4"},"vehicle_type_id":"4","last_reported":1734224108,"current_range_meters":31200,"station_id":"ce4bgrh2rcd13ifvqc8g","pricing_plan_id":"cebpf4jnsgd1na2vs0mg"},{"bike_id":"70c673d5-6066-4faf-b215-c0e7165e8d28","system_id":"levelo_inurba_marseille","lat":43.26045,"lon":5.39443,"is_reserved":false,"is_disabled":false,"rental_uris":{"android":"levelo://app?vid=70c673d5-6066-4faf-b215-c0e7165e8d28","ios":"levelo://app?vid=70c673d5-6066-4faf-b215-c0e7165e8d28"},"vehicle_type_id":"4","last_reported":1734224108,"current_range_meters":8400,"station_id":"ce4bhh92rcd13ifvqfj0","pricing_plan_id":"cebpf4jnsgd1na2vs0mg"},{"bike_id":"5fc40e57-8de1-4f75-b39e-a09e7b3c97fa","system_id":"levelo_inurba_marseille","lat":43.298,"lon":5.40406,"is_reserved":false,"is_disabled":false,"rental_uris":{"android":"levelo://app?vid=5fc40e57-8de1-4f75-b39e-a09e7b3c97fa","ios":"levelo://app?vid=5fc40e57-8de1-4f75-b39e-a09e7b3c97fa"},"vehicle_type_id":"4","last_reported":1734224108,"current_range_meters":35600,"station_id":"ce4bh112rcd13ifvqd90","pricing_plan_id":"cebpf4jnsgd1na2vs0mg"},{"bike_id":"6d8ef379-5d2c-41e5-bd8d-51a3cd22fbe0","system_id":"levelo_inurba_marseille","lat":43.2417,"lon":5.39671,"is_reserved":false,"is_disabled":true,"rental_uris":{"android":"levelo://app?vid=6d8ef379-5d2c-41e5-bd8d-51a3cd22fbe0","ios":"levelo://app?vid=6d8ef379-5d2c-41e5-bd8d-51a3cd22fbe0"},"vehicle_type_id":"4","last_reported":1734224108,"current_range_meters":25600,"station_id":"ce4bhn12rcd13ifvqgpg","pricing_plan_id":"cebpf4jnsgd1na2vs0mg"},{"bike_id":"a292a457-10f9-4b48-a0ef-624edd7a1383","system_id":"levelo_inurba_marseille","lat":43.31369,"lon":5.38488,"is_reserved":false,"is_disabled":false,"rental_uris":{"android":"levelo://app?vid=a292a457-10f9-4b48-a0ef-624edd7a1383","ios":"levelo://app?vid=a292a457-10f9-4b48-a0ef-624edd7a1383"},"vehicle_type_id":"4","last_reported":1734224108,"current_range_meters":38800,"station_id":"ce4bgt92rcd13ifvqcf0","pricing_plan_id":"cebpf4jnsgd1na2vs0mg"},{"bike_id":"d155e5dc-01d8-403a-892d-340cef9712f2","system_id":"levelo_inurba_marseille","lat":43.31074,"lon":5.38344,"is_reserved":false,"is_disabled":false,"rental_uris":{"android":"levelo://app?vid=d155e5dc-01d8-403a-892d-340cef9712f2","ios":"levelo://app?vid=d155e5dc-01d8-403a-892d-340cef9712f2"},"vehicle_type_id":"4","last_reported":1734224108,"current_range_meters":17600,"station_id":"ce4bgv92rcd13ifvqcr0","pricing_plan_id":"cebpf4jnsgd1na2vs0mg"},{"bike_id":"c9169d90-4952-4442-b216-225cffd88fbb","system_id":"levelo_inurba_marseille","lat":43.28719,"lon":5.39988,"is_reserved":false,"is_disabled":true,"rental_uris":{"android":"levelo://app?vid=c9169d90-4952-4442-b216-225cffd88fbb","ios":"levelo://app?vid=c9169d90-4952-4442-b216-225cffd88fbb"},"vehicle_type_id":"4","last_reported":1734224108,"current_range_meters":0,"station_id":"ce4bho92rcd13ifvqh3g","pricing_plan_id":"cebpf4jnsgd1na2vs0mg"},{"bike_id":"38cbe152-ac56-4cf6-82ec-171fa60594d2","system_id":"levelo_inurba_marseille","lat":43.32007,"lon":5.38123,"is_reserved":false,"is_disabled":false,"rental_uris":{"android":"levelo://app?vid=38cbe152-ac56-4cf6-82ec-171fa60594d2","ios":"levelo://app?vid=38cbe152-ac56-4cf6-82ec-171fa60594d2"},"vehicle_type_id":"4","last_reported":1734224108,"current_range_meters":23200,"station_id":"ce4bhr12rcd13ifvqhpg","pricing_plan_id":"cebpf4jnsgd1na2vs0mg"},{"bike_id":"99c6b58f-7dcd-4bf9-9a17-642f49713be1","system_id":"levelo_inurba_marseille","lat":43.28111,"lon":5.37826,"is_reserved":false,"is_disabled":false,"rental_uris":{"android":"levelo://app?vid=99c6b58f-7dcd-4bf9-9a17-642f49713be1","ios":"levelo://app?vid=99c6b58f-7dcd-4bf9-9a17-642f49713be1"},"vehicle_type_id":"4","last_reported":1734224108,"current_range_meters":20400,"station_id":"ce4bha12rcd13ifvqee0","pricing_plan_id":"cebpf4jnsgd1na2vs0mg"},{"bike_id":"9a70ab8e-45dd-444e-ad26-31b6478e5e8d","system_id":"levelo_inurba_marseille","lat":43.28633,"lon":5.37067,"is_reserved":false,"is_disabled":false,"rental_uris":{"android":"levelo://app?vid=9a70ab8e-45dd-444e-ad26-31b6478e5e8d","ios":"levelo://app?vid=9a70ab8e-45dd-444e-ad26-31b6478e5e8d"},"vehicle_type_id":"4","last_reported":1734224108,"current_range_meters":36400,"station_id":"ce4bht12rcd13ifvqi60","pricing_plan_id":"cebpf4jnsgd1na2vs0mg"},{"bike_id":"07154a6e-1aad-4b6f-8cd5-49a1da2b8e24","system_id":"levelo_inurba_marseille","lat":43.23154,"lon":5.4372,"is_reserved":false,"is_disabled":false,"rental_uris":{"android":"levelo://app?vid=07154a6e-1aad-4b6f-8cd5-49a1da2b8e24","ios":"levelo://app?vid=07154a6e-1aad-4b6f-8cd5-49a1da2b8e24"},"vehicle_type_id":"4","last_reported":1734224108,"current_range_meters":38800,"station_id":"ce4bhmp2rcd13ifvqgog","pricing_plan_id":"cebpf4jnsgd1na2vs0mg"},{"bike_id":"acda9170-8058-4395-be1d-4f9f6510eb74","system_id":"levelo_inurba_marseille","lat":43.2791,"lon":5.3799,"is_reserved":false,"is_disabled":false,"rental_uris":{"android":"levelo://app?vid=acda9170-8058-4395-be1d-4f9f6510eb74","ios":"levelo://app?vid=acda9170-8058-4395-be1d-4f9f6510eb74"},"vehicle_type_id":"4","last_reported":1734224108,"current_range_meters":28000,"station_id":"ce4bhf92rcd13ifvqf50","pricing_plan_id":"cebpf4jnsgd1na2vs0mg"},{"bike_id":"ebe54f27-d17e-4b68-b037-51114bf667c5","system_id":"levelo_inurba_marseille","lat":43.28413,"lon":5.3752,"is_reserved":false,"is_disabled":false,"rental_uris":{"android":"levelo://app?vid=ebe54f27-d17e-4b68-b037-51114bf667c5","ios":"levelo://app?vid=ebe54f27-d17e-4b68-b037-51114bf667c5"},"vehicle_type_id":"4","last_reported":1734224108,"current_range_meters":19200,"station_id":"ce4bh412rcd13ifvqds0","pricing_plan_id":"cebpf4jnsgd1na2vs0mg"},{"bike_id":"2473bae3-7fe8-4e1b-b193-9ce7694fc0c8","system_id":"levelo_inurba_marseille","lat":43.28158,"lon":5.42644,"is_reserved":false,"is_disabled":false,"rental_uris":{"android":"levelo://app?vid=2473bae3-7fe8-4e1b-b193-9ce7694fc0c8","ios":"levelo://app?vid=2473bae3-7fe8-4e1b-b193-9ce7694fc0c8"},"vehicle_type_id":"4","last_reported":1734224108,"current_range_meters":16800,"station_id":"ce4bhnh2rcd13ifvqgug","pricing_plan_id":"cebpf4jnsgd1na2vs0mg"},{"bike_id":"92676c9b-b9d3-47dc-b554-520b4e0b8a37","system_id":"levelo_inurba_marseille","lat":43.30503,"lon":5.36732,"is_reserved":false,"is_disabled":false,"rental_uris":{"android":"levelo://app?vid=92676c9b-b9d3-47dc-b554-520b4e0b8a37","ios":"levelo://app?vid=92676c9b-b9d3-47dc-b554-520b4e0b8a37"},"vehicle_type_id":"4","last_reported":1734224108,"current_range_meters":30400,"station_id":"ce4bgrp2rcd13ifvqc9g","pricing_plan_id":"cebpf4jnsgd1na2vs0mg"},{"bike_id":"ce0a55e5-8456-4707-ad02-3dd8cfad57da","system_id":"levelo_inurba_marseille","lat":43.25086,"lon":5.39539,"is_reserved":false,"is_disabled":false,"rental_uris":{"android":"levelo://app?vid=ce0a55e5-8456-4707-ad02-3dd8cfad57da","ios":"levelo://app?vid=ce0a55e5-8456-4707-ad02-3dd8cfad57da"},"vehicle_type_id":"4","last_reported":1734224108,"current_range_meters":33200,"station_id":"ce4bhm12rcd13ifvqgkg","pricing_plan_id":"cebpf4jnsgd1na2vs0mg"},{"bike_id":"6b10d37b-3846-4f7e-8b9d-57ca79bbb675","system_id":"levelo_inurba_marseille","lat":43.29541,"lon":5.38579,"is_reserved":false,"is_disabled":true,"rental_uris":{"android":"levelo://app?vid=6b10d37b-3846-4f7e-8b9d-57ca79bbb675","ios":"levelo://app?vid=6b10d37b-3846-4f7e-8b9d-57ca79bbb675"},"vehicle_type_id":"4","last_reported":1734224108,"current_range_meters":36400,"station_id":"ce4bgih2rcd13ifvqba0","pricing_plan_id":"cebpf4jnsgd1na2vs0mg"},{"bike_id":"9703c418-561c-4947-909b-5280aa1605c3","system_id":"levelo_inurba_marseille","lat":43.24181,"lon":5.39733,"is_reserved":false,"is_disabled":false,"rental_uris":{"android":"levelo://app?vid=9703c418-561c-4947-909b-5280aa1605c3","ios":"levelo://app?vid=9703c418-561c-4947-909b-5280aa1605c3"},"vehicle_type_id":"4","last_reported":1734224108,"current_range_meters":38800,"station_id":"ce4bhn12rcd13ifvqgpg","pricing_plan_id":"cebpf4jnsgd1na2vs0mg"},{"bike_id":"25f96875-3e8f-4597-9cc8-611b6bda0caf","system_id":"levelo_inurba_marseille","lat":43.2895,"lon":5.36393,"is_reserved":false,"is_disabled":false,"rental_uris":{"android":"levelo://app?vid=25f96875-3e8f-4597-9cc8-611b6bda0caf","ios":"levelo://app?vid=25f96875-3e8f-4597-9cc8-611b6bda0caf"},"vehicle_type_id":"4","last_reported":1734224108,"current_range_meters":38800,"station_id":"ce4bhc92rcd13ifvqetg","pricing_plan_id":"cebpf4jnsgd1na2vs0mg"},{"bike_id":"377ad416-b0ae-445f-b4f6-76ea4fd47056","system_id":"levelo_inurba_marseille","lat":43.27902,"lon":5.37998,"is_reserved":false,"is_disabled":false,"rental_uris":{"android":"levelo://app?vid=377ad416-b0ae-445f-b4f6-76ea4fd47056","ios":"levelo://app?vid=377ad416-b0ae-445f-b4f6-76ea4fd47056"},"vehicle_type_id":"4","last_reported":1734224108,"current_range_meters":12000,"station_id":"ce4bhf92rcd13ifvqf50","pricing_plan_id":"cebpf4jnsgd1na2vs0mg"},{"bike_id":"2197cd6c-5f9c-484a-827f-be914afe4ada","system_id":"levelo_inurba_marseille","lat":43.31895,"lon":5.40732,"is_reserved":false,"is_disabled":false,"rental_uris":{"android":"levelo://app?vid=2197cd6c-5f9c-484a-827f-be914afe4ada","ios":"levelo://app?vid=2197cd6c-5f9c-484a-827f-be914afe4ada"},"vehicle_type_id":"4","last_reported":1734224108,"current_range_meters":9600,"station_id":"ce4bhq12rcd13ifvqhig","pricing_plan_id":"cebpf4jnsgd1na2vs0mg"},{"bike_id":"c43bddf2-1969-41dd-92e3-52ede5aa322b","system_id":"levelo_inurba_marseille","lat":43.26196,"lon":5.37449,"is_reserved":false,"is_disabled":false,"rental_uris":{"android":"levelo://app?vid=c43bddf2-1969-41dd-92e3-52ede5aa322b","ios":"levelo://app?vid=c43bddf2-1969-41dd-92e3-52ede5aa322b"},"vehicle_type_id":"4","last_reported":1734224108,"current_range_meters":16400,"station_id":"ce4bhgp2rcd13ifvqfc0","pricing_plan_id":"cebpf4jnsgd1na2vs0mg"},{"bike_id":"a9ecf1a4-de37-454b-a62a-1c76f78bfd81","system_id":"levelo_inurba_marseille","lat":43.24648,"lon":5.38893,"is_reserved":false,"is_disabled":false,"rental_uris":{"android":"levelo://app?vid=a9ecf1a4-de37-454b-a62a-1c76f78bfd81","ios":"levelo://app?vid=a9ecf1a4-de37-454b-a62a-1c76f78bfd81"},"vehicle_type_id":"4","last_reported":1734224108,"current_range_meters":28400,"station_id":"ce4bhg12rcd13ifvqf60","pricing_plan_id":"cebpf4jnsgd1na2vs0mg"},{"bike_id":"693c1ece-3329-4985-9a2b-c90b1fe06ddf","system_id":"levelo_inurba_marseille","lat":43.3176,"lon":5.39013,"is_reserved":false,"is_disabled":false,"rental_uris":{"android":"levelo://app?vid=693c1ece-3329-4985-9a2b-c90b1fe06ddf","ios":"levelo://app?vid=693c1ece-3329-4985-9a2b-c90b1fe06ddf"},"vehicle_type_id":"4","last_reported":1734224108,"current_range_meters":27200,"station_id":"ce4bhqp2rcd13ifvqhng","pricing_plan_id":"cebpf4jnsgd1na2vs0mg"},{"bike_id":"b4f28572-e9c3-4d89-a9c6-b22627fb6aff","system_id":"levelo_inurba_marseille","lat":43.32532,"lon":5.41465,"is_reserved":false,"is_disabled":false,"rental_uris":{"android":"levelo://app?vid=b4f28572-e9c3-4d89-a9c6-b22627fb6aff","ios":"levelo://app?vid=b4f28572-e9c3-4d89-a9c6-b22627fb6aff"},"vehicle_type_id":"4","last_reported":1734224108,"current_range_meters":22800,"station_id":"ce4bhq12rcd13ifvqhhg","pricing_plan_id":"cebpf4jnsgd1na2vs0mg"},{"bike_id":"191b5667-981b-4c12-87f2-bb8ccf259a58","system_id":"levelo_inurba_marseille","lat":43.290218,"lon":5.381327,"is_reserved":false,"is_disabled":false,"rental_uris":{"android":"levelo://app?vid=191b5667-981b-4c12-87f2-bb8ccf259a58","ios":"levelo://app?vid=191b5667-981b-4c12-87f2-bb8ccf259a58"},"vehicle_type_id":"4","last_reported":1734224108,"current_range_meters":38400,"station_id":"ce4bh4p2rcd13ifvqe1g","pricing_plan_id":"cebpf4jnsgd1na2vs0mg"},{"bike_id":"f98e7e7f-5920-4770-8e6a-e1e9626c2cb5","system_id":"levelo_inurba_marseille","lat":43.25815,"lon":5.39426,"is_reserved":false,"is_disabled":false,"rental_uris":{"android":"levelo://app?vid=f98e7e7f-5920-4770-8e6a-e1e9626c2cb5","ios":"levelo://app?vid=f98e7e7f-5920-4770-8e6a-e1e9626c2cb5"},"vehicle_type_id":"4","last_reported":1734224108,"current_range_meters":9600,"station_id":"ce4bhip2rcd13ifvqft0","pricing_plan_id":"cebpf4jnsgd1na2vs0mg"},{"bike_id":"55ce578e-dec3-47c6-bc2a-3369d6d751b1","system_id":"levelo_inurba_marseille","lat":43.2319,"lon":5.39982,"is_reserved":false,"is_disabled":true,"rental_uris":{"android":"levelo://app?vid=55ce578e-dec3-47c6-bc2a-3369d6d751b1","ios":"levelo://app?vid=55ce578e-dec3-47c6-bc2a-3369d6d751b1"},"vehicle_type_id":"4","last_reported":1734224108,"current_range_meters":0,"station_id":"ce4bhn12rcd13ifvqgqg","pricing_plan_id":"cebpf4jnsgd1na2vs0mg"},{"bike_id":"fe77746b-4cb9-430b-9b0e-8f429372e633","system_id":"levelo_inurba_marseille","lat":43.28078,"lon":5.39659,"is_reserved":false,"is_disabled":false,"rental_uris":{"android":"levelo://app?vid=fe77746b-4cb9-430b-9b0e-8f429372e633","ios":"levelo://app?vid=fe77746b-4cb9-430b-9b0e-8f429372e633"},"vehicle_type_id":"4","last_reported":1734224108,"current_range_meters":35200,"station_id":"ce4bho12rcd13ifvqh2g","pricing_plan_id":"cebpf4jnsgd1na2vs0mg"},{"bike_id":"4e3eebec-f009-4887-809b-5f30495d5092","system_id":"levelo_inurba_marseille","lat":43.28703,"lon":5.374,"is_reserved":false,"is_disabled":true,"rental_uris":{"android":"levelo://app?vid=4e3eebec-f009-4887-809b-5f30495d5092","ios":"levelo://app?vid=4e3eebec-f009-4887-809b-5f30495d5092"},"vehicle_type_id":"4","last_reported":1734224108,"current_range_meters":24400,"station_id":"ce4bh3p2rcd13ifvqdq0","pricing_plan_id":"cebpf4jnsgd1na2vs0mg"},{"bike_id":"eb1496f4-67ed-47fd-8660-60023378367f","system_id":"levelo_inurba_marseille","lat":43.294212,"lon":5.374322,"is_reserved":false,"is_disabled":true,"rental_uris":{"android":"levelo://app?vid=eb1496f4-67ed-47fd-8660-60023378367f","ios":"levelo://app?vid=eb1496f4-67ed-47fd-8660-60023378367f"},"vehicle_type_id":"4","last_reported":1734224108,"current_range_meters":0,"station_id":"","pricing_plan_id":"cebpf4jnsgd1na2vs0mg"},{"bike_id":"71adf873-8534-4b4c-88ad-a35b28cb9554","system_id":"levelo_inurba_marseille","lat":43.24756,"lon":5.4115,"is_reserved":false,"is_disabled":false,"rental_uris":{"android":"levelo://app?vid=71adf873-8534-4b4c-88ad-a35b28cb9554","ios":"levelo://app?vid=71adf873-8534-4b4c-88ad-a35b28cb9554"},"vehicle_type_id":"4","last_reported":1734224108,"current_range_meters":22000,"station_id":"","pricing_plan_id":"cebpf4jnsgd1na2vs0mg"},{"bike_id":"c0c3fc51-3be3-4932-a397-78224f09cbb8","system_id":"levelo_inurba_marseille","lat":43.31213,"lon":5.36861,"is_reserved":false,"is_disabled":false,"rental_uris":{"android":"levelo://app?vid=c0c3fc51-3be3-4932-a397-78224f09cbb8","ios":"levelo://app?vid=c0c3fc51-3be3-4932-a397-78224f09cbb8"},"vehicle_type_id":"4","last_reported":1734224108,"current_range_meters":30000,"station_id":"ce4bgl92rcd13ifvqbq0","pricing_plan_id":"cebpf4jnsgd1na2vs0mg"},{"bike_id":"30ebf9e5-e6c0-48c8-b762-4f7bbd57689f","system_id":"levelo_inurba_marseille","lat":43.28942,"lon":5.36407,"is_reserved":false,"is_disabled":false,"rental_uris":{"android":"levelo://app?vid=30ebf9e5-e6c0-48c8-b762-4f7bbd57689f","ios":"levelo://app?vid=30ebf9e5-e6c0-48c8-b762-4f7bbd57689f"},"vehicle_type_id":"4","last_reported":1734224108,"current_range_meters":38800,"station_id":"ce4bhc92rcd13ifvqetg","pricing_plan_id":"cebpf4jnsgd1na2vs0mg"},{"bike_id":"1dde6f4b-4f52-49f7-98b1-3ea7bce0474f","system_id":"levelo_inurba_marseille","lat":43.31532,"lon":5.38025,"is_reserved":false,"is_disabled":false,"rental_uris":{"android":"levelo://app?vid=1dde6f4b-4f52-49f7-98b1-3ea7bce0474f","ios":"levelo://app?vid=1dde6f4b-4f52-49f7-98b1-3ea7bce0474f"},"vehicle_type_id":"4","last_reported":1734224108,"current_range_meters":14000,"station_id":"ce4bhsp2rcd13ifvqi50","pricing_plan_id":"cebpf4jnsgd1na2vs0mg"},{"bike_id":"c1f72aff-a39f-4e19-9fb6-17f6fb30e242","system_id":"levelo_inurba_marseille","lat":43.29573,"lon":5.37514,"is_reserved":false,"is_disabled":false,"rental_uris":{"android":"levelo://app?vid=c1f72aff-a39f-4e19-9fb6-17f6fb30e242","ios":"levelo://app?vid=c1f72aff-a39f-4e19-9fb6-17f6fb30e242"},"vehicle_type_id":"4","last_reported":1734224108,"current_range_meters":6000,"station_id":"ce4bgh92rcd13ifvqb50","pricing_plan_id":"cebpf4jnsgd1na2vs0mg"},{"bike_id":"e417af0d-29ea-459e-9bdd-15daa8ff17e0","system_id":"levelo_inurba_marseille","lat":43.29529,"lon":5.38557,"is_reserved":false,"is_disabled":true,"rental_uris":{"android":"levelo://app?vid=e417af0d-29ea-459e-9bdd-15daa8ff17e0","ios":"levelo://app?vid=e417af0d-29ea-459e-9bdd-15daa8ff17e0"},"vehicle_type_id":"4","last_reported":1734224108,"current_range_meters":38800,"station_id":"ce4bgih2rcd13ifvqba0","pricing_plan_id":"cebpf4jnsgd1na2vs0mg"},{"bike_id":"7d1db28c-edeb-4a91-9b40-97c4e6901127","system_id":"levelo_inurba_marseille","lat":43.25731,"lon":5.41103,"is_reserved":false,"is_disabled":false,"rental_uris":{"android":"levelo://app?vid=7d1db28c-edeb-4a91-9b40-97c4e6901127","ios":"levelo://app?vid=7d1db28c-edeb-4a91-9b40-97c4e6901127"},"vehicle_type_id":"4","last_reported":1734224108,"current_range_meters":25600,"station_id":"ce4bhkp2rcd13ifvqgd0","pricing_plan_id":"cebpf4jnsgd1na2vs0mg"},{"bike_id":"3b4cd93b-06b2-471a-8225-1e869c3bab9a","system_id":"levelo_inurba_marseille","lat":43.32362,"lon":5.38885,"is_reserved":false,"is_disabled":false,"rental_uris":{"android":"levelo://app?vid=3b4cd93b-06b2-471a-8225-1e869c3bab9a","ios":"levelo://app?vid=3b4cd93b-06b2-471a-8225-1e869c3bab9a"},"vehicle_type_id":"4","last_reported":1734224108,"current_range_meters":38000,"station_id":"ce4bhqp2rcd13ifvqhog","pricing_plan_id":"cebpf4jnsgd1na2vs0mg"},{"bike_id":"abdf81ec-e98d-4dee-9e25-ca8f28442f23","system_id":"levelo_inurba_marseille","lat":43.29742,"lon":5.4071,"is_reserved":false,"is_disabled":true,"rental_uris":{"android":"levelo://app?vid=abdf81ec-e98d-4dee-9e25-ca8f28442f23","ios":"levelo://app?vid=abdf81ec-e98d-4dee-9e25-ca8f28442f23"},"vehicle_type_id":"4","last_reported":1734224108,"current_range_meters":0,"station_id":"","pricing_plan_id":"cebpf4jnsgd1na2vs0mg"},{"bike_id":"56a44aec-4383-4004-9164-02ac5de8f956","system_id":"levelo_inurba_marseille","lat":43.28828,"lon":5.35857,"is_reserved":false,"is_disabled":false,"rental_uris":{"android":"levelo://app?vid=56a44aec-4383-4004-9164-02ac5de8f956","ios":"levelo://app?vid=56a44aec-4383-4004-9164-02ac5de8f956"},"vehicle_type_id":"4","last_reported":1734224108,"current_range_meters":22000,"station_id":"ce4bhb12rcd13ifvqem0","pricing_plan_id":"cebpf4jnsgd1na2vs0mg"},{"bike_id":"748a382e-7fe2-4a58-a98a-ff4a5538255b","system_id":"levelo_inurba_marseille","lat":43.31353,"lon":5.38499,"is_reserved":false,"is_disabled":false,"rental_uris":{"android":"levelo://app?vid=748a382e-7fe2-4a58-a98a-ff4a5538255b","ios":"levelo://app?vid=748a382e-7fe2-4a58-a98a-ff4a5538255b"},"vehicle_type_id":"4","last_reported":1734224108,"current_range_meters":35200,"station_id":"ce4bgt92rcd13ifvqcf0","pricing_plan_id":"cebpf4jnsgd1na2vs0mg"},{"bike_id":"4a10ded7-00ff-4ff3-bc89-44b487cf8699","system_id":"levelo_inurba_marseille","lat":43.25118,"lon":5.40355,"is_reserved":false,"is_disabled":false,"rental_uris":{"android":"levelo://app?vid=4a10ded7-00ff-4ff3-bc89-44b487cf8699","ios":"levelo://app?vid=4a10ded7-00ff-4ff3-bc89-44b487cf8699"},"vehicle_type_id":"4","last_reported":1734224108,"current_range_meters":38800,"station_id":"ce4bhlh2rcd13ifvqgig","pricing_plan_id":"cebpf4jnsgd1na2vs0mg"},{"bike_id":"cef5264d-8c3e-4ed6-b72e-40dc5cd3194b","system_id":"levelo_inurba_marseille","lat":43.29788,"lon":5.37102,"is_reserved":false,"is_disabled":false,"rental_uris":{"android":"levelo://app?vid=cef5264d-8c3e-4ed6-b72e-40dc5cd3194b","ios":"levelo://app?vid=cef5264d-8c3e-4ed6-b72e-40dc5cd3194b"},"vehicle_type_id":"4","last_reported":1734224108,"current_range_meters":38000,"station_id":"ce4bgop2rcd13ifvqc1g","pricing_plan_id":"cebpf4jnsgd1na2vs0mg"},{"bike_id":"17cc4ddb-de8e-47e0-b9b2-0d9cd13f8f19","system_id":"levelo_inurba_marseille","lat":43.33611,"lon":5.41028,"is_reserved":false,"is_disabled":false,"rental_uris":{"android":"levelo://app?vid=17cc4ddb-de8e-47e0-b9b2-0d9cd13f8f19","ios":"levelo://app?vid=17cc4ddb-de8e-47e0-b9b2-0d9cd13f8f19"},"vehicle_type_id":"4","last_reported":1734224108,"current_range_meters":11600,"station_id":"ce4bhqh2rcd13ifvqhmg","pricing_plan_id":"cebpf4jnsgd1na2vs0mg"},{"bike_id":"4a3f8d2d-f364-4fd4-b613-fa3127f4f11e","system_id":"levelo_inurba_marseille","lat":43.30541,"lon":5.36706,"is_reserved":false,"is_disabled":false,"rental_uris":{"android":"levelo://app?vid=4a3f8d2d-f364-4fd4-b613-fa3127f4f11e","ios":"levelo://app?vid=4a3f8d2d-f364-4fd4-b613-fa3127f4f11e"},"vehicle_type_id":"4","last_reported":1734224108,"current_range_meters":38800,"station_id":"ce4bgrp2rcd13ifvqc9g","pricing_plan_id":"cebpf4jnsgd1na2vs0mg"},{"bike_id":"ecbfcd56-e2e9-411a-916b-327a5fa7e43b","system_id":"levelo_inurba_marseille","lat":43.29959,"lon":5.3737,"is_reserved":false,"is_disabled":false,"rental_uris":{"android":"levelo://app?vid=ecbfcd56-e2e9-411a-916b-327a5fa7e43b","ios":"levelo://app?vid=ecbfcd56-e2e9-411a-916b-327a5fa7e43b"},"vehicle_type_id":"4","last_reported":1734224108,"current_range_meters":26800,"station_id":"","pricing_plan_id":"cebpf4jnsgd1na2vs0mg"},{"bike_id":"a132d949-74e3-4004-a0b3-c7cf0996e5ee","system_id":"levelo_inurba_marseille","lat":43.28701,"lon":5.38695,"is_reserved":false,"is_disabled":false,"rental_uris":{"android":"levelo://app?vid=a132d949-74e3-4004-a0b3-c7cf0996e5ee","ios":"levelo://app?vid=a132d949-74e3-4004-a0b3-c7cf0996e5ee"},"vehicle_type_id":"4","last_reported":1734224108,"current_range_meters":27600,"station_id":"ce4bh492rcd13ifvqdug","pricing_plan_id":"cebpf4jnsgd1na2vs0mg"},{"bike_id":"074c3c75-da1e-46a6-95b6-95a41a6d2ba3","system_id":"levelo_inurba_marseille","lat":43.30134,"lon":5.3881,"is_reserved":false,"is_disabled":false,"rental_uris":{"android":"levelo://app?vid=074c3c75-da1e-46a6-95b6-95a41a6d2ba3","ios":"levelo://app?vid=074c3c75-da1e-46a6-95b6-95a41a6d2ba3"},"vehicle_type_id":"4","last_reported":1734224108,"current_range_meters":38800,"station_id":"ce4bghh2rcd13ifvqb60","pricing_plan_id":"cebpf4jnsgd1na2vs0mg"},{"bike_id":"b9054db8-7d6f-4542-ae2d-1bd9d8895a1a","system_id":"levelo_inurba_marseille","lat":43.32361,"lon":5.36767,"is_reserved":false,"is_disabled":false,"rental_uris":{"android":"levelo://app?vid=b9054db8-7d6f-4542-ae2d-1bd9d8895a1a","ios":"levelo://app?vid=b9054db8-7d6f-4542-ae2d-1bd9d8895a1a"},"vehicle_type_id":"4","last_reported":1734224108,"current_range_meters":38800,"station_id":"ce4bhsh2rcd13ifvqi2g","pricing_plan_id":"cebpf4jnsgd1na2vs0mg"},{"bike_id":"a170ba40-17b7-4bf6-90f8-c07a5cf55709","system_id":"levelo_inurba_marseille","lat":43.24639,"lon":5.38921,"is_reserved":false,"is_disabled":true,"rental_uris":{"android":"levelo://app?vid=a170ba40-17b7-4bf6-90f8-c07a5cf55709","ios":"levelo://app?vid=a170ba40-17b7-4bf6-90f8-c07a5cf55709"},"vehicle_type_id":"4","last_reported":1734224108,"current_range_meters":38800,"station_id":"ce4bhg12rcd13ifvqf60","pricing_plan_id":"cebpf4jnsgd1na2vs0mg"},{"bike_id":"b89cd02a-44c8-4fbb-83be-fee20ca926ec","system_id":"levelo_inurba_marseille","lat":43.25099,"lon":5.40354,"is_reserved":false,"is_disabled":false,"rental_uris":{"android":"levelo://app?vid=b89cd02a-44c8-4fbb-83be-fee20ca926ec","ios":"levelo://app?vid=b89cd02a-44c8-4fbb-83be-fee20ca926ec"},"vehicle_type_id":"4","last_reported":1734224108,"current_range_meters":8400,"station_id":"ce4bhlh2rcd13ifvqgig","pricing_plan_id":"cebpf4jnsgd1na2vs0mg"},{"bike_id":"ef332f0e-1a06-4106-bb0c-4a1c81d6ef04","system_id":"levelo_inurba_marseille","lat":43.30813,"lon":5.3813,"is_reserved":false,"is_disabled":false,"rental_uris":{"android":"levelo://app?vid=ef332f0e-1a06-4106-bb0c-4a1c81d6ef04","ios":"levelo://app?vid=ef332f0e-1a06-4106-bb0c-4a1c81d6ef04"},"vehicle_type_id":"4","last_reported":1734224108,"current_range_meters":9600,"station_id":"ce4bgt12rcd13ifvqce0","pricing_plan_id":"cebpf4jnsgd1na2vs0mg"},{"bike_id":"5b6ca433-01a6-4103-9759-da4f588af137","system_id":"levelo_inurba_marseille","lat":43.27907,"lon":5.37995,"is_reserved":false,"is_disabled":false,"rental_uris":{"android":"levelo://app?vid=5b6ca433-01a6-4103-9759-da4f588af137","ios":"levelo://app?vid=5b6ca433-01a6-4103-9759-da4f588af137"},"vehicle_type_id":"4","last_reported":1734224108,"current_range_meters":18000,"station_id":"ce4bhf92rcd13ifvqf50","pricing_plan_id":"cebpf4jnsgd1na2vs0mg"},{"bike_id":"275ee744-5d9b-4ac8-bb35-a47c0223f564","system_id":"levelo_inurba_marseille","lat":43.325472,"lon":5.414318,"is_reserved":false,"is_disabled":false,"rental_uris":{"android":"levelo://app?vid=275ee744-5d9b-4ac8-bb35-a47c0223f564","ios":"levelo://app?vid=275ee744-5d9b-4ac8-bb35-a47c0223f564"},"vehicle_type_id":"4","last_reported":1734224108,"current_range_meters":38800,"station_id":"ce4bhq12rcd13ifvqhhg","pricing_plan_id":"cebpf4jnsgd1na2vs0mg"},{"bike_id":"c51154b5-1034-4fc0-8fac-d1d2e91dba39","system_id":"levelo_inurba_marseille","lat":43.23062,"lon":5.35494,"is_reserved":false,"is_disabled":false,"rental_uris":{"android":"levelo://app?vid=c51154b5-1034-4fc0-8fac-d1d2e91dba39","ios":"levelo://app?vid=c51154b5-1034-4fc0-8fac-d1d2e91dba39"},"vehicle_type_id":"4","last_reported":1734224108,"current_range_meters":8400,"station_id":"cpo3342slgdg3j2ifvpg","pricing_plan_id":"cebpf4jnsgd1na2vs0mg"},{"bike_id":"16c589a0-f663-4c73-8071-49dfb0c25ddb","system_id":"levelo_inurba_marseille","lat":43.3122,"lon":5.36856,"is_reserved":false,"is_disabled":false,"rental_uris":{"android":"levelo://app?vid=16c589a0-f663-4c73-8071-49dfb0c25ddb","ios":"levelo://app?vid=16c589a0-f663-4c73-8071-49dfb0c25ddb"},"vehicle_type_id":"4","last_reported":1734224108,"current_range_meters":16000,"station_id":"ce4bgl92rcd13ifvqbq0","pricing_plan_id":"cebpf4jnsgd1na2vs0mg"},{"bike_id":"d361eec5-1d66-4054-83a1-879726484406","system_id":"levelo_inurba_marseille","lat":43.31326,"lon":5.3972,"is_reserved":false,"is_disabled":false,"rental_uris":{"android":"levelo://app?vid=d361eec5-1d66-4054-83a1-879726484406","ios":"levelo://app?vid=d361eec5-1d66-4054-83a1-879726484406"},"vehicle_type_id":"4","last_reported":1734224108,"current_range_meters":37600,"station_id":"ce4bgvp2rcd13ifvqcu0","pricing_plan_id":"cebpf4jnsgd1na2vs0mg"},{"bike_id":"b072affc-306c-4825-8b43-0a2cd7f84860","system_id":"levelo_inurba_marseille","lat":43.32371,"lon":5.38882,"is_reserved":false,"is_disabled":false,"rental_uris":{"android":"levelo://app?vid=b072affc-306c-4825-8b43-0a2cd7f84860","ios":"levelo://app?vid=b072affc-306c-4825-8b43-0a2cd7f84860"},"vehicle_type_id":"4","last_reported":1734224108,"current_range_meters":9200,"station_id":"ce4bhqp2rcd13ifvqhog","pricing_plan_id":"cebpf4jnsgd1na2vs0mg"},{"bike_id":"266f7fca-62d8-462d-83ba-67663ab9bbef","system_id":"levelo_inurba_marseille","lat":43.25111,"lon":5.40322,"is_reserved":false,"is_disabled":false,"rental_uris":{"android":"levelo://app?vid=266f7fca-62d8-462d-83ba-67663ab9bbef","ios":"levelo://app?vid=266f7fca-62d8-462d-83ba-67663ab9bbef"},"vehicle_type_id":"4","last_reported":1734224108,"current_range_meters":37600,"station_id":"ce4bhlh2rcd13ifvqgig","pricing_plan_id":"cebpf4jnsgd1na2vs0mg"},{"bike_id":"2add9805-6fe1-496b-95ec-c3450a7c4a57","system_id":"levelo_inurba_marseille","lat":43.30047,"lon":5.37406,"is_reserved":false,"is_disabled":true,"rental_uris":{"android":"levelo://app?vid=2add9805-6fe1-496b-95ec-c3450a7c4a57","ios":"levelo://app?vid=2add9805-6fe1-496b-95ec-c3450a7c4a57"},"vehicle_type_id":"4","last_reported":1734224108,"current_range_meters":0,"station_id":"","pricing_plan_id":"cebpf4jnsgd1na2vs0mg"},{"bike_id":"e6daa3b0-d355-4eb9-8e91-304a7094997b","system_id":"levelo_inurba_marseille","lat":43.29903,"lon":5.43661,"is_reserved":false,"is_disabled":false,"rental_uris":{"android":"levelo://app?vid=e6daa3b0-d355-4eb9-8e91-304a7094997b","ios":"levelo://app?vid=e6daa3b0-d355-4eb9-8e91-304a7094997b"},"vehicle_type_id":"4","last_reported":1734224108,"current_range_meters":17600,"station_id":"ce4bhpp2rcd13ifvqhfg","pricing_plan_id":"cebpf4jnsgd1na2vs0mg"},{"bike_id":"104ceb5b-ffeb-462d-afa4-5c623377a4ce","system_id":"levelo_inurba_marseille","lat":43.25827,"lon":5.39426,"is_reserved":false,"is_disabled":false,"rental_uris":{"android":"levelo://app?vid=104ceb5b-ffeb-462d-afa4-5c623377a4ce","ios":"levelo://app?vid=104ceb5b-ffeb-462d-afa4-5c623377a4ce"},"vehicle_type_id":"4","last_reported":1734224108,"current_range_meters":17600,"station_id":"ce4bhip2rcd13ifvqft0","pricing_plan_id":"cebpf4jnsgd1na2vs0mg"},{"bike_id":"fabc0430-593f-48af-8609-5df6565dc6c4","system_id":"levelo_inurba_marseille","lat":43.25124,"lon":5.40317,"is_reserved":false,"is_disabled":false,"rental_uris":{"android":"levelo://app?vid=fabc0430-593f-48af-8609-5df6565dc6c4","ios":"levelo://app?vid=fabc0430-593f-48af-8609-5df6565dc6c4"},"vehicle_type_id":"4","last_reported":1734224108,"current_range_meters":38800,"station_id":"ce4bhlh2rcd13ifvqgig","pricing_plan_id":"cebpf4jnsgd1na2vs0mg"},{"bike_id":"e739486a-a11b-424b-994c-a3eb8bd887d7","system_id":"levelo_inurba_marseille","lat":43.27838,"lon":5.40739,"is_reserved":false,"is_disabled":false,"rental_uris":{"android":"levelo://app?vid=e739486a-a11b-424b-994c-a3eb8bd887d7","ios":"levelo://app?vid=e739486a-a11b-424b-994c-a3eb8bd887d7"},"vehicle_type_id":"4","last_reported":1734224108,"current_range_meters":28400,"station_id":"ce4bhnh2rcd13ifvqgtg","pricing_plan_id":"cebpf4jnsgd1na2vs0mg"},{"bike_id":"af9b9b22-5c96-497a-8e54-ae2585ff2a4f","system_id":"levelo_inurba_marseille","lat":43.28458,"lon":5.3841,"is_reserved":false,"is_disabled":false,"rental_uris":{"android":"levelo://app?vid=af9b9b22-5c96-497a-8e54-ae2585ff2a4f","ios":"levelo://app?vid=af9b9b22-5c96-497a-8e54-ae2585ff2a4f"},"vehicle_type_id":"4","last_reported":1734224108,"current_range_meters":38400,"station_id":"ce4bh512rcd13ifvqe3g","pricing_plan_id":"cebpf4jnsgd1na2vs0mg"},{"bike_id":"21591caf-5015-404e-b449-b0dbc024d5d7","system_id":"levelo_inurba_marseille","lat":43.31112,"lon":5.37764,"is_reserved":false,"is_disabled":false,"rental_uris":{"android":"levelo://app?vid=21591caf-5015-404e-b449-b0dbc024d5d7","ios":"levelo://app?vid=21591caf-5015-404e-b449-b0dbc024d5d7"},"vehicle_type_id":"4","last_reported":1734224108,"current_range_meters":31200,"station_id":"ce4bgt92rcd13ifvqcg0","pricing_plan_id":"cebpf4jnsgd1na2vs0mg"},{"bike_id":"dc647800-4e1f-44a3-b0cb-412fe3c0b522","system_id":"levelo_inurba_marseille","lat":43.24083,"lon":5.37749,"is_reserved":false,"is_disabled":false,"rental_uris":{"android":"levelo://app?vid=dc647800-4e1f-44a3-b0cb-412fe3c0b522","ios":"levelo://app?vid=dc647800-4e1f-44a3-b0cb-412fe3c0b522"},"vehicle_type_id":"4","last_reported":1734224108,"current_range_meters":38000,"station_id":"ce4bhnp2rcd13ifvqgvg","pricing_plan_id":"cebpf4jnsgd1na2vs0mg"},{"bike_id":"72bdc4f6-9d1d-42c9-ac9e-f6bf19c7da8a","system_id":"levelo_inurba_marseille","lat":43.24077,"lon":5.37754,"is_reserved":false,"is_disabled":false,"rental_uris":{"android":"levelo://app?vid=72bdc4f6-9d1d-42c9-ac9e-f6bf19c7da8a","ios":"levelo://app?vid=72bdc4f6-9d1d-42c9-ac9e-f6bf19c7da8a"},"vehicle_type_id":"4","last_reported":1734224108,"current_range_meters":38800,"station_id":"ce4bhnp2rcd13ifvqgvg","pricing_plan_id":"cebpf4jnsgd1na2vs0mg"},{"bike_id":"56266a76-ba72-4e71-8e56-13aed47b955b","system_id":"levelo_inurba_marseille","lat":43.24646,"lon":5.38201,"is_reserved":false,"is_disabled":false,"rental_uris":{"android":"levelo://app?vid=56266a76-ba72-4e71-8e56-13aed47b955b","ios":"levelo://app?vid=56266a76-ba72-4e71-8e56-13aed47b955b"},"vehicle_type_id":"4","last_reported":1734224108,"current_range_meters":16000,"station_id":"ce4bhih2rcd13ifvqfr0","pricing_plan_id":"cebpf4jnsgd1na2vs0mg"},{"bike_id":"33af1a7a-65d8-452d-81c2-4d441f89a7bf","system_id":"levelo_inurba_marseille","lat":43.28481,"lon":5.38414,"is_reserved":false,"is_disabled":false,"rental_uris":{"android":"levelo://app?vid=33af1a7a-65d8-452d-81c2-4d441f89a7bf","ios":"levelo://app?vid=33af1a7a-65d8-452d-81c2-4d441f89a7bf"},"vehicle_type_id":"4","last_reported":1734224108,"current_range_meters":39200,"station_id":"ce4bh512rcd13ifvqe3g","pricing_plan_id":"cebpf4jnsgd1na2vs0mg"},{"bike_id":"c200ae5a-1bfc-41c1-b6e0-48b629950315","system_id":"levelo_inurba_marseille","lat":43.25493,"lon":5.37657,"is_reserved":false,"is_disabled":false,"rental_uris":{"android":"levelo://app?vid=c200ae5a-1bfc-41c1-b6e0-48b629950315","ios":"levelo://app?vid=c200ae5a-1bfc-41c1-b6e0-48b629950315"},"vehicle_type_id":"4","last_reported":1734224108,"current_range_meters":38800,"station_id":"ce4bhh12rcd13ifvqff0","pricing_plan_id":"cebpf4jnsgd1na2vs0mg"},{"bike_id":"af5005fc-d058-4152-a2f0-a599ec2fe143","system_id":"levelo_inurba_marseille","lat":43.32289,"lon":5.38289,"is_reserved":false,"is_disabled":false,"rental_uris":{"android":"levelo://app?vid=af5005fc-d058-4152-a2f0-a599ec2fe143","ios":"levelo://app?vid=af5005fc-d058-4152-a2f0-a599ec2fe143"},"vehicle_type_id":"4","last_reported":1734224108,"current_range_meters":38800,"station_id":"ce4bhr12rcd13ifvqhqg","pricing_plan_id":"cebpf4jnsgd1na2vs0mg"},{"bike_id":"3650d84c-d2fd-4728-abeb-b9accdfa7210","system_id":"levelo_inurba_marseille","lat":43.30248,"lon":5.40059,"is_reserved":false,"is_disabled":true,"rental_uris":{"android":"levelo://app?vid=3650d84c-d2fd-4728-abeb-b9accdfa7210","ios":"levelo://app?vid=3650d84c-d2fd-4728-abeb-b9accdfa7210"},"vehicle_type_id":"4","last_reported":1734224108,"current_range_meters":24800,"station_id":"ce4bgvh2rcd13ifvqcs0","pricing_plan_id":"cebpf4jnsgd1na2vs0mg"},{"bike_id":"b76bfadb-6288-4939-8ca7-fc00e8227f70","system_id":"levelo_inurba_marseille","lat":43.310758,"lon":5.38345,"is_reserved":false,"is_disabled":true,"rental_uris":{"android":"levelo://app?vid=b76bfadb-6288-4939-8ca7-fc00e8227f70","ios":"levelo://app?vid=b76bfadb-6288-4939-8ca7-fc00e8227f70"},"vehicle_type_id":"4","last_reported":1734224108,"current_range_meters":0,"station_id":"ce4bgv92rcd13ifvqcr0","pricing_plan_id":"cebpf4jnsgd1na2vs0mg"},{"bike_id":"dea0c1e1-2fa3-4a80-88ba-168498adbc3d","system_id":"levelo_inurba_marseille","lat":43.28968,"lon":5.37828,"is_reserved":false,"is_disabled":false,"rental_uris":{"android":"levelo://app?vid=dea0c1e1-2fa3-4a80-88ba-168498adbc3d","ios":"levelo://app?vid=dea0c1e1-2fa3-4a80-88ba-168498adbc3d"},"vehicle_type_id":"4","last_reported":1734224108,"current_range_meters":18800,"station_id":"ce4bh9p2rcd13ifvqed0","pricing_plan_id":"cebpf4jnsgd1na2vs0mg"},{"bike_id":"be3cc1f6-59b3-48d9-8415-8e7c09047a60","system_id":"levelo_inurba_marseille","lat":43.25102,"lon":5.40312,"is_reserved":false,"is_disabled":false,"rental_uris":{"android":"levelo://app?vid=be3cc1f6-59b3-48d9-8415-8e7c09047a60","ios":"levelo://app?vid=be3cc1f6-59b3-48d9-8415-8e7c09047a60"},"vehicle_type_id":"4","last_reported":1734224108,"current_range_meters":38800,"station_id":"ce4bhlh2rcd13ifvqgig","pricing_plan_id":"cebpf4jnsgd1na2vs0mg"},{"bike_id":"3077f5fc-c7ad-42c8-973b-db4ea45820ba","system_id":"levelo_inurba_marseille","lat":43.31369,"lon":5.36711,"is_reserved":false,"is_disabled":false,"rental_uris":{"android":"levelo://app?vid=3077f5fc-c7ad-42c8-973b-db4ea45820ba","ios":"levelo://app?vid=3077f5fc-c7ad-42c8-973b-db4ea45820ba"},"vehicle_type_id":"4","last_reported":1734224108,"current_range_meters":22800,"station_id":"ce4bgr92rcd13ifvqc6g","pricing_plan_id":"cebpf4jnsgd1na2vs0mg"},{"bike_id":"b2313dc6-ce87-4506-95f2-ae16210a1d62","system_id":"levelo_inurba_marseille","lat":43.29025,"lon":5.35927,"is_reserved":false,"is_disabled":false,"rental_uris":{"android":"levelo://app?vid=b2313dc6-ce87-4506-95f2-ae16210a1d62","ios":"levelo://app?vid=b2313dc6-ce87-4506-95f2-ae16210a1d62"},"vehicle_type_id":"4","last_reported":1734224108,"current_range_meters":38000,"station_id":"ce4bha92rcd13ifvqeg0","pricing_plan_id":"cebpf4jnsgd1na2vs0mg"},{"bike_id":"425f721e-4481-4245-9dd4-65f65f07aa6c","system_id":"levelo_inurba_marseille","lat":43.28459,"lon":5.35893,"is_reserved":false,"is_disabled":false,"rental_uris":{"android":"levelo://app?vid=425f721e-4481-4245-9dd4-65f65f07aa6c","ios":"levelo://app?vid=425f721e-4481-4245-9dd4-65f65f07aa6c"},"vehicle_type_id":"4","last_reported":1734224108,"current_range_meters":27600,"station_id":"ce4bhah2rcd13ifvqei0","pricing_plan_id":"cebpf4jnsgd1na2vs0mg"},{"bike_id":"67a3a2f3-fa97-4303-b023-74b486e373af","system_id":"levelo_inurba_marseille","lat":43.29558,"lon":5.42293,"is_reserved":false,"is_disabled":false,"rental_uris":{"android":"levelo://app?vid=67a3a2f3-fa97-4303-b023-74b486e373af","ios":"levelo://app?vid=67a3a2f3-fa97-4303-b023-74b486e373af"},"vehicle_type_id":"4","last_reported":1734224108,"current_range_meters":35200,"station_id":"ce4bhph2rcd13ifvqhdg","pricing_plan_id":"cebpf4jnsgd1na2vs0mg"},{"bike_id":"6069fe6f-3d12-436c-ba1a-a6e9607abbd3","system_id":"levelo_inurba_marseille","lat":43.32534,"lon":5.41452,"is_reserved":false,"is_disabled":false,"rental_uris":{"android":"levelo://app?vid=6069fe6f-3d12-436c-ba1a-a6e9607abbd3","ios":"levelo://app?vid=6069fe6f-3d12-436c-ba1a-a6e9607abbd3"},"vehicle_type_id":"4","last_reported":1734224108,"current_range_meters":29600,"station_id":"ce4bhq12rcd13ifvqhhg","pricing_plan_id":"cebpf4jnsgd1na2vs0mg"},{"bike_id":"6a020032-a209-4ad0-9c62-7ad903b5bebd","system_id":"levelo_inurba_marseille","lat":43.24162,"lon":5.39693,"is_reserved":false,"is_disabled":false,"rental_uris":{"android":"levelo://app?vid=6a020032-a209-4ad0-9c62-7ad903b5bebd","ios":"levelo://app?vid=6a020032-a209-4ad0-9c62-7ad903b5bebd"},"vehicle_type_id":"4","last_reported":1734224108,"current_range_meters":32800,"station_id":"ce4bhn12rcd13ifvqgpg","pricing_plan_id":"cebpf4jnsgd1na2vs0mg"},{"bike_id":"c3692873-22fd-4daa-93af-0e3408e9b0f3","system_id":"levelo_inurba_marseille","lat":43.28665,"lon":5.36358,"is_reserved":false,"is_disabled":false,"rental_uris":{"android":"levelo://app?vid=c3692873-22fd-4daa-93af-0e3408e9b0f3","ios":"levelo://app?vid=c3692873-22fd-4daa-93af-0e3408e9b0f3"},"vehicle_type_id":"4","last_reported":1734224108,"current_range_meters":38800,"station_id":"ce4bhah2rcd13ifvqej0","pricing_plan_id":"cebpf4jnsgd1na2vs0mg"},{"bike_id":"6cb5f94f-eade-4b7c-b995-84c805be74f9","system_id":"levelo_inurba_marseille","lat":43.33779,"lon":5.37414,"is_reserved":false,"is_disabled":false,"rental_uris":{"android":"levelo://app?vid=6cb5f94f-eade-4b7c-b995-84c805be74f9","ios":"levelo://app?vid=6cb5f94f-eade-4b7c-b995-84c805be74f9"},"vehicle_type_id":"4","last_reported":1734224108,"current_range_meters":36800,"station_id":"","pricing_plan_id":"cebpf4jnsgd1na2vs0mg"},{"bike_id":"58071d0b-1ca9-417a-a438-41b7fa75a0ec","system_id":"levelo_inurba_marseille","lat":43.29178,"lon":5.39319,"is_reserved":false,"is_disabled":true,"rental_uris":{"android":"levelo://app?vid=58071d0b-1ca9-417a-a438-41b7fa75a0ec","ios":"levelo://app?vid=58071d0b-1ca9-417a-a438-41b7fa75a0ec"},"vehicle_type_id":"4","last_reported":1734224108,"current_range_meters":2000,"station_id":"ce4bh192rcd13ifvqdd0","pricing_plan_id":"cebpf4jnsgd1na2vs0mg"},{"bike_id":"dfd7df50-b96e-4d10-81c7-84ad94dd9a10","system_id":"levelo_inurba_marseille","lat":43.31764,"lon":5.3901,"is_reserved":false,"is_disabled":false,"rental_uris":{"android":"levelo://app?vid=dfd7df50-b96e-4d10-81c7-84ad94dd9a10","ios":"levelo://app?vid=dfd7df50-b96e-4d10-81c7-84ad94dd9a10"},"vehicle_type_id":"4","last_reported":1734224108,"current_range_meters":38800,"station_id":"ce4bhqp2rcd13ifvqhng","pricing_plan_id":"cebpf4jnsgd1na2vs0mg"},{"bike_id":"6718f822-9647-4590-aec8-431b1a70b350","system_id":"levelo_inurba_marseille","lat":43.27565,"lon":5.38417,"is_reserved":false,"is_disabled":false,"rental_uris":{"android":"levelo://app?vid=6718f822-9647-4590-aec8-431b1a70b350","ios":"levelo://app?vid=6718f822-9647-4590-aec8-431b1a70b350"},"vehicle_type_id":"4","last_reported":1734224108,"current_range_meters":38000,"station_id":"ce4bhh92rcd13ifvqfi0","pricing_plan_id":"cebpf4jnsgd1na2vs0mg"},{"bike_id":"5698604e-aaa5-42b6-9f56-06778c2d2e5a","system_id":"levelo_inurba_marseille","lat":43.25111,"lon":5.40323,"is_reserved":false,"is_disabled":false,"rental_uris":{"android":"levelo://app?vid=5698604e-aaa5-42b6-9f56-06778c2d2e5a","ios":"levelo://app?vid=5698604e-aaa5-42b6-9f56-06778c2d2e5a"},"vehicle_type_id":"4","last_reported":1734224108,"current_range_meters":38800,"station_id":"ce4bhlh2rcd13ifvqgig","pricing_plan_id":"cebpf4jnsgd1na2vs0mg"},{"bike_id":"0a646241-c519-49e3-958d-6acd5fe9c130","system_id":"levelo_inurba_marseille","lat":43.33028,"lon":5.39037,"is_reserved":false,"is_disabled":false,"rental_uris":{"android":"levelo://app?vid=0a646241-c519-49e3-958d-6acd5fe9c130","ios":"levelo://app?vid=0a646241-c519-49e3-958d-6acd5fe9c130"},"vehicle_type_id":"4","last_reported":1734224108,"current_range_meters":38800,"station_id":"ce4bhr92rcd13ifvqhrg","pricing_plan_id":"cebpf4jnsgd1na2vs0mg"},{"bike_id":"cfdfd01c-b2c2-41e6-9b96-7c8b8a24df63","system_id":"levelo_inurba_marseille","lat":43.2798,"lon":5.44299,"is_reserved":false,"is_disabled":false,"rental_uris":{"android":"levelo://app?vid=cfdfd01c-b2c2-41e6-9b96-7c8b8a24df63","ios":"levelo://app?vid=cfdfd01c-b2c2-41e6-9b96-7c8b8a24df63"},"vehicle_type_id":"4","last_reported":1734224108,"current_range_meters":21600,"station_id":"","pricing_plan_id":"cebpf4jnsgd1na2vs0mg"},{"bike_id":"62be7227-74b7-4792-b3e9-793f45ae0003","system_id":"levelo_inurba_marseille","lat":43.24536,"lon":5.39517,"is_reserved":false,"is_disabled":false,"rental_uris":{"android":"levelo://app?vid=62be7227-74b7-4792-b3e9-793f45ae0003","ios":"levelo://app?vid=62be7227-74b7-4792-b3e9-793f45ae0003"},"vehicle_type_id":"4","last_reported":1734224108,"current_range_meters":32400,"station_id":"ce4bhlp2rcd13ifvqgjg","pricing_plan_id":"cebpf4jnsgd1na2vs0mg"},{"bike_id":"47d51823-b4b3-45b6-9ade-fc0f4eab7fa6","system_id":"levelo_inurba_marseille","lat":43.28949,"lon":5.36397,"is_reserved":false,"is_disabled":false,"rental_uris":{"android":"levelo://app?vid=47d51823-b4b3-45b6-9ade-fc0f4eab7fa6","ios":"levelo://app?vid=47d51823-b4b3-45b6-9ade-fc0f4eab7fa6"},"vehicle_type_id":"4","last_reported":1734224108,"current_range_meters":10000,"station_id":"ce4bhc92rcd13ifvqetg","pricing_plan_id":"cebpf4jnsgd1na2vs0mg"},{"bike_id":"ca59d865-1951-4846-a717-a349b9e50e7c","system_id":"levelo_inurba_marseille","lat":43.27614,"lon":5.36114,"is_reserved":false,"is_disabled":true,"rental_uris":{"android":"levelo://app?vid=ca59d865-1951-4846-a717-a349b9e50e7c","ios":"levelo://app?vid=ca59d865-1951-4846-a717-a349b9e50e7c"},"vehicle_type_id":"4","last_reported":1734224108,"current_range_meters":34000,"station_id":"ce4bgj92rcd13ifvqbe0","pricing_plan_id":"cebpf4jnsgd1na2vs0mg"},{"bike_id":"a75b0b59-df42-4a6e-966c-49b99f720a95","system_id":"levelo_inurba_marseille","lat":43.23971,"lon":5.36632,"is_reserved":false,"is_disabled":false,"rental_uris":{"android":"levelo://app?vid=a75b0b59-df42-4a6e-966c-49b99f720a95","ios":"levelo://app?vid=a75b0b59-df42-4a6e-966c-49b99f720a95"},"vehicle_type_id":"4","last_reported":1734224108,"current_range_meters":8400,"station_id":"ce4bhi12rcd13ifvqfp0","pricing_plan_id":"cebpf4jnsgd1na2vs0mg"},{"bike_id":"395f00bb-96c1-495a-b9a7-15c0cfab0a08","system_id":"levelo_inurba_marseille","lat":43.30318,"lon":5.40434,"is_reserved":false,"is_disabled":false,"rental_uris":{"android":"levelo://app?vid=395f00bb-96c1-495a-b9a7-15c0cfab0a08","ios":"levelo://app?vid=395f00bb-96c1-495a-b9a7-15c0cfab0a08"},"vehicle_type_id":"4","last_reported":1734224108,"current_range_meters":22000,"station_id":"ce4bh012rcd13ifvqd10","pricing_plan_id":"cebpf4jnsgd1na2vs0mg"},{"bike_id":"283ec910-2b59-4ffd-bbff-9867d116f826","system_id":"levelo_inurba_marseille","lat":43.337444,"lon":5.374475,"is_reserved":false,"is_disabled":true,"rental_uris":{"android":"levelo://app?vid=283ec910-2b59-4ffd-bbff-9867d116f826","ios":"levelo://app?vid=283ec910-2b59-4ffd-bbff-9867d116f826"},"vehicle_type_id":"4","last_reported":1734224108,"current_range_meters":0,"station_id":"","pricing_plan_id":"cebpf4jnsgd1na2vs0mg"},{"bike_id":"44bb1ee1-6608-426b-ad9e-5efdc1a7eac0","system_id":"levelo_inurba_marseille","lat":43.3376,"lon":5.37414,"is_reserved":false,"is_disabled":false,"rental_uris":{"android":"levelo://app?vid=44bb1ee1-6608-426b-ad9e-5efdc1a7eac0","ios":"levelo://app?vid=44bb1ee1-6608-426b-ad9e-5efdc1a7eac0"},"vehicle_type_id":"4","last_reported":1734224108,"current_range_meters":22800,"station_id":"","pricing_plan_id":"cebpf4jnsgd1na2vs0mg"},{"bike_id":"e78f402b-9c1a-444b-98c7-75df8c5e7136","system_id":"levelo_inurba_marseille","lat":43.30894,"lon":5.36908,"is_reserved":false,"is_disabled":false,"rental_uris":{"android":"levelo://app?vid=e78f402b-9c1a-444b-98c7-75df8c5e7136","ios":"levelo://app?vid=e78f402b-9c1a-444b-98c7-75df8c5e7136"},"vehicle_type_id":"4","last_reported":1734224108,"current_range_meters":38800,"station_id":"ce4bgn92rcd13ifvqbvg","pricing_plan_id":"cebpf4jnsgd1na2vs0mg"},{"bike_id":"fb7e1849-9459-4869-a89e-9b7992e645fc","system_id":"levelo_inurba_marseille","lat":43.30863,"lon":5.39641,"is_reserved":false,"is_disabled":false,"rental_uris":{"android":"levelo://app?vid=fb7e1849-9459-4869-a89e-9b7992e645fc","ios":"levelo://app?vid=fb7e1849-9459-4869-a89e-9b7992e645fc"},"vehicle_type_id":"4","last_reported":1734224108,"current_range_meters":38800,"station_id":"ce4bh012rcd13ifvqcv0","pricing_plan_id":"cebpf4jnsgd1na2vs0mg"},{"bike_id":"bbffd889-750b-4762-ae94-78458d50ea91","system_id":"levelo_inurba_marseille","lat":43.33727,"lon":5.39181,"is_reserved":false,"is_disabled":false,"rental_uris":{"android":"levelo://app?vid=bbffd889-750b-4762-ae94-78458d50ea91","ios":"levelo://app?vid=bbffd889-750b-4762-ae94-78458d50ea91"},"vehicle_type_id":"4","last_reported":1734224108,"current_range_meters":38400,"station_id":"ce4bhr92rcd13ifvqhsg","pricing_plan_id":"cebpf4jnsgd1na2vs0mg"},{"bike_id":"4852b709-51b9-4ca7-9b5f-fc05e5336f1e","system_id":"levelo_inurba_marseille","lat":43.31506,"lon":5.37302,"is_reserved":false,"is_disabled":false,"rental_uris":{"android":"levelo://app?vid=4852b709-51b9-4ca7-9b5f-fc05e5336f1e","ios":"levelo://app?vid=4852b709-51b9-4ca7-9b5f-fc05e5336f1e"},"vehicle_type_id":"4","last_reported":1734224108,"current_range_meters":27200,"station_id":"ce4bgt12rcd13ifvqcd0","pricing_plan_id":"cebpf4jnsgd1na2vs0mg"},{"bike_id":"6af93c5c-2369-4249-9874-540f27f0edd3","system_id":"levelo_inurba_marseille","lat":43.33728,"lon":5.39182,"is_reserved":false,"is_disabled":false,"rental_uris":{"android":"levelo://app?vid=6af93c5c-2369-4249-9874-540f27f0edd3","ios":"levelo://app?vid=6af93c5c-2369-4249-9874-540f27f0edd3"},"vehicle_type_id":"4","last_reported":1734224108,"current_range_meters":10800,"station_id":"ce4bhr92rcd13ifvqhsg","pricing_plan_id":"cebpf4jnsgd1na2vs0mg"},{"bike_id":"aae088da-2eae-4c85-885f-eb90c01aef74","system_id":"levelo_inurba_marseille","lat":43.30128,"lon":5.38794,"is_reserved":false,"is_disabled":false,"rental_uris":{"android":"levelo://app?vid=aae088da-2eae-4c85-885f-eb90c01aef74","ios":"levelo://app?vid=aae088da-2eae-4c85-885f-eb90c01aef74"},"vehicle_type_id":"4","last_reported":1734224108,"current_range_meters":30400,"station_id":"ce4bghh2rcd13ifvqb60","pricing_plan_id":"cebpf4jnsgd1na2vs0mg"},{"bike_id":"7a6fbafa-c405-41ec-babd-da89473cb281","system_id":"levelo_inurba_marseille","lat":43.27493,"lon":5.42458,"is_reserved":false,"is_disabled":false,"rental_uris":{"android":"levelo://app?vid=7a6fbafa-c405-41ec-babd-da89473cb281","ios":"levelo://app?vid=7a6fbafa-c405-41ec-babd-da89473cb281"},"vehicle_type_id":"4","last_reported":1734224108,"current_range_meters":38800,"station_id":"ce4bhn92rcd13ifvqgrg","pricing_plan_id":"cebpf4jnsgd1na2vs0mg"},{"bike_id":"6e6a004b-462d-4b03-aeaa-2611256f0d89","system_id":"levelo_inurba_marseille","lat":43.28123,"lon":5.38934,"is_reserved":false,"is_disabled":true,"rental_uris":{"android":"levelo://app?vid=6e6a004b-462d-4b03-aeaa-2611256f0d89","ios":"levelo://app?vid=6e6a004b-462d-4b03-aeaa-2611256f0d89"},"vehicle_type_id":"4","last_reported":1734224108,"current_range_meters":0,"station_id":"","pricing_plan_id":"cebpf4jnsgd1na2vs0mg"},{"bike_id":"6b44d0cf-c39c-4cb9-ba5a-c80dbd4ddf91","system_id":"levelo_inurba_marseille","lat":43.28721,"lon":5.39961,"is_reserved":false,"is_disabled":false,"rental_uris":{"android":"levelo://app?vid=6b44d0cf-c39c-4cb9-ba5a-c80dbd4ddf91","ios":"levelo://app?vid=6b44d0cf-c39c-4cb9-ba5a-c80dbd4ddf91"},"vehicle_type_id":"4","last_reported":1734224108,"current_range_meters":36800,"station_id":"ce4bho92rcd13ifvqh3g","pricing_plan_id":"cebpf4jnsgd1na2vs0mg"},{"bike_id":"3cc2fb91-5b74-4845-b3a1-e1c9812d789a","system_id":"levelo_inurba_marseille","lat":43.278334,"lon":5.392006,"is_reserved":false,"is_disabled":false,"rental_uris":{"android":"levelo://app?vid=3cc2fb91-5b74-4845-b3a1-e1c9812d789a","ios":"levelo://app?vid=3cc2fb91-5b74-4845-b3a1-e1c9812d789a"},"vehicle_type_id":"4","last_reported":1734224108,"current_range_meters":12400,"station_id":"ce4bhi12rcd13ifvqfo0","pricing_plan_id":"cebpf4jnsgd1na2vs0mg"},{"bike_id":"a42f5994-229b-4ba6-b3f2-7045ec6149a1","system_id":"levelo_inurba_marseille","lat":43.24647,"lon":5.38901,"is_reserved":false,"is_disabled":false,"rental_uris":{"android":"levelo://app?vid=a42f5994-229b-4ba6-b3f2-7045ec6149a1","ios":"levelo://app?vid=a42f5994-229b-4ba6-b3f2-7045ec6149a1"},"vehicle_type_id":"4","last_reported":1734224108,"current_range_meters":11200,"station_id":"ce4bhg12rcd13ifvqf60","pricing_plan_id":"cebpf4jnsgd1na2vs0mg"},{"bike_id":"b6604a83-0149-48df-b9e4-986fd078aebd","system_id":"levelo_inurba_marseille","lat":43.28692,"lon":5.3739,"is_reserved":false,"is_disabled":false,"rental_uris":{"android":"levelo://app?vid=b6604a83-0149-48df-b9e4-986fd078aebd","ios":"levelo://app?vid=b6604a83-0149-48df-b9e4-986fd078aebd"},"vehicle_type_id":"4","last_reported":1734224108,"current_range_meters":28400,"station_id":"ce4bh3p2rcd13ifvqdq0","pricing_plan_id":"cebpf4jnsgd1na2vs0mg"},{"bike_id":"fa8fabdf-8787-4822-beb1-82eb2b713949","system_id":"levelo_inurba_marseille","lat":43.30796,"lon":5.38176,"is_reserved":false,"is_disabled":false,"rental_uris":{"android":"levelo://app?vid=fa8fabdf-8787-4822-beb1-82eb2b713949","ios":"levelo://app?vid=fa8fabdf-8787-4822-beb1-82eb2b713949"},"vehicle_type_id":"4","last_reported":1734224108,"current_range_meters":32000,"station_id":"ce4bgt12rcd13ifvqce0","pricing_plan_id":"cebpf4jnsgd1na2vs0mg"},{"bike_id":"ed9a6af3-2f16-46f1-8fc7-fd7a4a8d26f4","system_id":"levelo_inurba_marseille","lat":43.273769,"lon":5.362607,"is_reserved":false,"is_disabled":false,"rental_uris":{"android":"levelo://app?vid=ed9a6af3-2f16-46f1-8fc7-fd7a4a8d26f4","ios":"levelo://app?vid=ed9a6af3-2f16-46f1-8fc7-fd7a4a8d26f4"},"vehicle_type_id":"4","last_reported":1734224108,"current_range_meters":38800,"station_id":"ce4bhbh2rcd13ifvqeo0","pricing_plan_id":"cebpf4jnsgd1na2vs0mg"},{"bike_id":"6cb6228e-a9de-4dac-9537-cd8e1a150de2","system_id":"levelo_inurba_marseille","lat":43.32469,"lon":5.36554,"is_reserved":false,"is_disabled":false,"rental_uris":{"android":"levelo://app?vid=6cb6228e-a9de-4dac-9537-cd8e1a150de2","ios":"levelo://app?vid=6cb6228e-a9de-4dac-9537-cd8e1a150de2"},"vehicle_type_id":"4","last_reported":1734224108,"current_range_meters":30400,"station_id":"ce4bhs12rcd13ifvqhvg","pricing_plan_id":"cebpf4jnsgd1na2vs0mg"},{"bike_id":"2486d544-0292-4cbc-abc8-324d72621448","system_id":"levelo_inurba_marseille","lat":43.31465,"lon":5.37321,"is_reserved":false,"is_disabled":false,"rental_uris":{"android":"levelo://app?vid=2486d544-0292-4cbc-abc8-324d72621448","ios":"levelo://app?vid=2486d544-0292-4cbc-abc8-324d72621448"},