{"last_updated":1729454940,"ttl":60,"version":"2.2","data":{"bikes":[{"bike_id":"9184e00a-b6ec-4bae-bf55-7db7d1efed40","system_id":"levelo_inurba_marseille","lat":43.28373,"lon":5.38625,"is_reserved":false,"is_disabled":false,"rental_uris":{"android":"levelo://app?vid=9184e00a-b6ec-4bae-bf55-7db7d1efed40","ios":"levelo://app?vid=9184e00a-b6ec-4bae-bf55-7db7d1efed40"},"vehicle_type_id":"4","last_reported":1729454940,"current_range_meters":11200,"station_id":"ce4bh492rcd13ifvqdvg","pricing_plan_id":"cebpf4jnsgd1na2vs0mg"},{"bike_id":"dc93bb9b-0ec8-42bf-bfa8-9ae4300b412b","system_id":"levelo_inurba_marseille","lat":43.28491,"lon":5.38536,"is_reserved":false,"is_disabled":false,"rental_uris":{"android":"levelo://app?vid=dc93bb9b-0ec8-42bf-bfa8-9ae4300b412b","ios":"levelo://app?vid=dc93bb9b-0ec8-42bf-bfa8-9ae4300b412b"},"vehicle_type_id":"4","last_reported":1729454940,"current_range_meters":10000,"station_id":"ce4bh8p2rcd13ifvqeb0","pricing_plan_id":"cebpf4jnsgd1na2vs0mg"},{"bike_id":"5f9630c8-b083-413a-b15e-2a570371faa4","system_id":"levelo_inurba_marseille","lat":43.29249,"lon":5.4091,"is_reserved":false,"is_disabled":false,"rental_uris":{"android":"levelo://app?vid=5f9630c8-b083-413a-b15e-2a570371faa4","ios":"levelo://app?vid=5f9630c8-b083-413a-b15e-2a570371faa4"},"vehicle_type_id":"4","last_reported":1729454940,"current_range_meters":38400,"station_id":"ce4bh192rcd13ifvqdc0","pricing_plan_id":"cebpf4jnsgd1na2vs0mg"},{"bike_id":"f2cf55f4-aa83-4a41-8c86-05d88bb3727e","system_id":"levelo_inurba_marseille","lat":43.3113,"lon":5.37752,"is_reserved":false,"is_disabled":false,"rental_uris":{"android":"levelo://app?vid=f2cf55f4-aa83-4a41-8c86-05d88bb3727e","ios":"levelo://app?vid=f2cf55f4-aa83-4a41-8c86-05d88bb3727e"},"vehicle_type_id":"4","last_reported":1729454940,"current_range_meters":21600,"station_id":"ce4bgt92rcd13ifvqcg0","pricing_plan_id":"cebpf4jnsgd1na2vs0mg"},{"bike_id":"2aae6609-bf72-4b69-8776-85ccbbd9b0e5","system_id":"levelo_inurba_marseille","lat":43.22927,"lon":5.35375,"is_reserved":false,"is_disabled":false,"rental_uris":{"android":"levelo://app?vid=2aae6609-bf72-4b69-8776-85ccbbd9b0e5","ios":"levelo://app?vid=2aae6609-bf72-4b69-8776-85ccbbd9b0e5"},"vehicle_type_id":"4","last_reported":1729454940,"current_range_meters":38800,"station_id":"cpo3532slgdg3j2ikp40","pricing_plan_id":"cebpf4jnsgd1na2vs0mg"},{"bike_id":"138f2d49-214b-48e8-9db4-98a6dc22aa3c","system_id":"levelo_inurba_marseille","lat":43.28429,"lon":5.39178,"is_reserved":false,"is_disabled":false,"rental_uris":{"android":"levelo://app?vid=138f2d49-214b-48e8-9db4-98a6dc22aa3c","ios":"levelo://app?vid=138f2d49-214b-48e8-9db4-98a6dc22aa3c"},"vehicle_type_id":"4","last_reported":1729454940,"current_range_meters":20400,"station_id":"ce4bhoh2rcd13ifvqh5g","pricing_plan_id":"cebpf4jnsgd1na2vs0mg"},{"bike_id":"c1b2ab0c-4e6a-4629-a23f-cbceac3fb517","system_id":"levelo_inurba_marseille","lat":43.27494,"lon":5.42451,"is_reserved":false,"is_disabled":false,"rental_uris":{"android":"levelo://app?vid=c1b2ab0c-4e6a-4629-a23f-cbceac3fb517","ios":"levelo://app?vid=c1b2ab0c-4e6a-4629-a23f-cbceac3fb517"},"vehicle_type_id":"4","last_reported":1729454940,"current_range_meters":36000,"station_id":"ce4bhn92rcd13ifvqgrg","pricing_plan_id":"cebpf4jnsgd1na2vs0mg"},{"bike_id":"c5e3e1df-1a2a-44f0-be91-b1d1b57c457b","system_id":"levelo_inurba_marseille","lat":43.2972,"lon":5.36616,"is_reserved":false,"is_disabled":false,"rental_uris":{"android":"levelo://app?vid=c5e3e1df-1a2a-44f0-be91-b1d1b57c457b","ios":"levelo://app?vid=c5e3e1df-1a2a-44f0-be91-b1d1b57c457b"},"vehicle_type_id":"4","last_reported":1729454940,"current_range_meters":38800,"station_id":"ce4bgn12rcd13ifvqbt0","pricing_plan_id":"cebpf4jnsgd1na2vs0mg"},{"bike_id":"921931b1-5cdf-46b7-9243-9a8cf25a811b","system_id":"levelo_inurba_marseille","lat":43.31754,"lon":5.39021,"is_reserved":false,"is_disabled":false,"rental_uris":{"android":"levelo://app?vid=921931b1-5cdf-46b7-9243-9a8cf25a811b","ios":"levelo://app?vid=921931b1-5cdf-46b7-9243-9a8cf25a811b"},"vehicle_type_id":"4","last_reported":1729454940,"current_range_meters":29600,"station_id":"ce4bhqp2rcd13ifvqhng","pricing_plan_id":"cebpf4jnsgd1na2vs0mg"},{"bike_id":"4c0f1edf-2944-4282-bf6a-788cee3f4fa8","system_id":"levelo_inurba_marseille","lat":43.30134,"lon":5.37429,"is_reserved":false,"is_disabled":false,"rental_uris":{"android":"levelo://app?vid=4c0f1edf-2944-4282-bf6a-788cee3f4fa8","ios":"levelo://app?vid=4c0f1edf-2944-4282-bf6a-788cee3f4fa8"},"vehicle_type_id":"4","last_reported":1729454940,"current_range_meters":7200,"station_id":"ce4bgs92rcd13ifvqcc0","pricing_plan_id":"cebpf4jnsgd1na2vs0mg"},{"bike_id":"6842afba-edb5-4e0c-a23b-abbe4c9bd581","system_id":"levelo_inurba_marseille","lat":43.30549,"lon":5.38409,"is_reserved":false,"is_disabled":false,"rental_uris":{"android":"levelo://app?vid=6842afba-edb5-4e0c-a23b-abbe4c9bd581","ios":"levelo://app?vid=6842afba-edb5-4e0c-a23b-abbe4c9bd581"},"vehicle_type_id":"4","last_reported":1729454940,"current_range_meters":14000,"station_id":"ce4bh512rcd13ifvqe3g","pricing_plan_id":"cebpf4jnsgd1na2vs0mg"},{"bike_id":"7a6ba3d7-846e-45d3-92b4-25ce5cda8a53","system_id":"levelo_inurba_marseille","lat":43.3371,"lon":5.39188,"is_reserved":false,"is_disabled":false,"rental_uris":{"android":"levelo://app?vid=7a6ba3d7-846e-45d3-92b4-25ce5cda8a53","ios":"levelo://app?vid=7a6ba3d7-846e-45d3-92b4-25ce5cda8a53"},"vehicle_type_id":"4","last_reported":1729454940,"current_range_meters":31200,"station_id":"ce4bhr92rcd13ifvqhsg","pricing_plan_id":"cebpf4jnsgd1na2vs0mg"},{"bike_id":"29dc69ab-e0fe-4b96-9cff-bca8448603d4","system_id":"levelo_inurba_marseille","lat":43.31759,"lon":5.39019,"is_reserved":false,"is_disabled":false,"rental_uris":{"android":"levelo://app?vid=29dc69ab-e0fe-4b96-9cff-bca8448603d4","ios":"levelo://app?vid=29dc69ab-e0fe-4b96-9cff-bca8448603d4"},"vehicle_type_id":"4","last_reported":1729454940,"current_range_meters":26000,"station_id":"ce4bhqp2rcd13ifvqhng","pricing_plan_id":"cebpf4jnsgd1na2vs0mg"},{"bike_id":"038ffbde-1c10-4cec-89f7-fc4555ac2035","system_id":"levelo_inurba_marseille","lat":43.28152,"lon":5.42645,"is_reserved":false,"is_disabled":false,"rental_uris":{"android":"levelo://app?vid=038ffbde-1c10-4cec-89f7-fc4555ac2035","ios":"levelo://app?vid=038ffbde-1c10-4cec-89f7-fc4555ac2035"},"vehicle_type_id":"4","last_reported":1729454940,"current_range_meters":17600,"station_id":"ce4bhnh2rcd13ifvqgug","pricing_plan_id":"cebpf4jnsgd1na2vs0mg"},{"bike_id":"38fa35c0-6fb1-42fa-ade0-9a80de10af00","system_id":"levelo_inurba_marseille","lat":43.282744,"lon":5.35079,"is_reserved":false,"is_disabled":false,"rental_uris":{"android":"levelo://app?vid=38fa35c0-6fb1-42fa-ade0-9a80de10af00","ios":"levelo://app?vid=38fa35c0-6fb1-42fa-ade0-9a80de10af00"},"vehicle_type_id":"4","last_reported":1729454940,"current_range_meters":38800,"station_id":"ce4bhbp2rcd13ifvqerg","pricing_plan_id":"cebpf4jnsgd1na2vs0mg"},{"bike_id":"41321f49-fbae-446f-b59c-a4294631e54e","system_id":"levelo_inurba_marseille","lat":43.28476,"lon":5.38413,"is_reserved":false,"is_disabled":false,"rental_uris":{"android":"levelo://app?vid=41321f49-fbae-446f-b59c-a4294631e54e","ios":"levelo://app?vid=41321f49-fbae-446f-b59c-a4294631e54e"},"vehicle_type_id":"4","last_reported":1729454940,"current_range_meters":29600,"station_id":"ce4bh512rcd13ifvqe3g","pricing_plan_id":"cebpf4jnsgd1na2vs0mg"},{"bike_id":"16dac4f2-8478-493a-9a10-7049598541d2","system_id":"levelo_inurba_marseille","lat":43.28403,"lon":5.37511,"is_reserved":false,"is_disabled":false,"rental_uris":{"android":"levelo://app?vid=16dac4f2-8478-493a-9a10-7049598541d2","ios":"levelo://app?vid=16dac4f2-8478-493a-9a10-7049598541d2"},"vehicle_type_id":"4","last_reported":1729454940,"current_range_meters":38800,"station_id":"ce4bh412rcd13ifvqds0","pricing_plan_id":"cebpf4jnsgd1na2vs0mg"},{"bike_id":"a73ead05-a47e-4450-b378-426c801bd817","system_id":"levelo_inurba_marseille","lat":43.30138,"lon":5.39841,"is_reserved":false,"is_disabled":false,"rental_uris":{"android":"levelo://app?vid=a73ead05-a47e-4450-b378-426c801bd817","ios":"levelo://app?vid=a73ead05-a47e-4450-b378-426c801bd817"},"vehicle_type_id":"4","last_reported":1729454940,"current_range_meters":30000,"station_id":"ce4bh0h2rcd13ifvqd40","pricing_plan_id":"cebpf4jnsgd1na2vs0mg"},{"bike_id":"4dec3220-9794-4963-846c-eac4a939cbd1","system_id":"levelo_inurba_marseille","lat":43.30923,"lon":5.40147,"is_reserved":false,"is_disabled":false,"rental_uris":{"android":"levelo://app?vid=4dec3220-9794-4963-846c-eac4a939cbd1","ios":"levelo://app?vid=4dec3220-9794-4963-846c-eac4a939cbd1"},"vehicle_type_id":"4","last_reported":1729454940,"current_range_meters":23200,"station_id":"ce4bgvp2rcd13ifvqct0","pricing_plan_id":"cebpf4jnsgd1na2vs0mg"},{"bike_id":"412871f9-5805-49cf-9e22-3f0b610f22d1","system_id":"levelo_inurba_marseille","lat":43.28698,"lon":5.39966,"is_reserved":false,"is_disabled":false,"rental_uris":{"android":"levelo://app?vid=412871f9-5805-49cf-9e22-3f0b610f22d1","ios":"levelo://app?vid=412871f9-5805-49cf-9e22-3f0b610f22d1"},"vehicle_type_id":"4","last_reported":1729454940,"current_range_meters":3200,"station_id":"ce4bho92rcd13ifvqh3g","pricing_plan_id":"cebpf4jnsgd1na2vs0mg"},{"bike_id":"0110ffb5-a63d-45d5-b867-2e5bae3721ec","system_id":"levelo_inurba_marseille","lat":43.32662,"lon":5.40991,"is_reserved":false,"is_disabled":false,"rental_uris":{"android":"levelo://app?vid=0110ffb5-a63d-45d5-b867-2e5bae3721ec","ios":"levelo://app?vid=0110ffb5-a63d-45d5-b867-2e5bae3721ec"},"vehicle_type_id":"4","last_reported":1729454940,"current_range_meters":14000,"station_id":"ce4bhpp2rcd13ifvqhgg","pricing_plan_id":"cebpf4jnsgd1na2vs0mg"},{"bike_id":"1c18c849-68b7-450d-8c07-c92802c4fafb","system_id":"levelo_inurba_marseille","lat":43.29029,"lon":5.39968,"is_reserved":false,"is_disabled":false,"rental_uris":{"android":"levelo://app?vid=1c18c849-68b7-450d-8c07-c92802c4fafb","ios":"levelo://app?vid=1c18c849-68b7-450d-8c07-c92802c4fafb"},"vehicle_type_id":"4","last_reported":1729454940,"current_range_meters":20800,"station_id":"ce4bh392rcd13ifvqdm0","pricing_plan_id":"cebpf4jnsgd1na2vs0mg"},{"bike_id":"cffc72a1-9762-4ffa-83d6-8b9856072bf4","system_id":"levelo_inurba_marseille","lat":43.31717,"lon":5.42404,"is_reserved":false,"is_disabled":false,"rental_uris":{"android":"levelo://app?vid=cffc72a1-9762-4ffa-83d6-8b9856072bf4","ios":"levelo://app?vid=cffc72a1-9762-4ffa-83d6-8b9856072bf4"},"vehicle_type_id":"4","last_reported":1729454940,"current_range_meters":25200,"station_id":"ce4bhp92rcd13ifvqhbg","pricing_plan_id":"cebpf4jnsgd1na2vs0mg"},{"bike_id":"dfd628f5-a3a1-4811-940e-4cfd78c36518","system_id":"levelo_inurba_marseille","lat":43.26566,"lon":5.39004,"is_reserved":false,"is_disabled":false,"rental_uris":{"android":"levelo://app?vid=dfd628f5-a3a1-4811-940e-4cfd78c36518","ios":"levelo://app?vid=dfd628f5-a3a1-4811-940e-4cfd78c36518"},"vehicle_type_id":"4","last_reported":1729454940,"current_range_meters":11600,"station_id":"ce4bhe12rcd13ifvqf30","pricing_plan_id":"cebpf4jnsgd1na2vs0mg"},{"bike_id":"b28f5ea3-f51d-4648-8a94-410fa3633caa","system_id":"levelo_inurba_marseille","lat":43.24164,"lon":5.36398,"is_reserved":false,"is_disabled":false,"rental_uris":{"android":"levelo://app?vid=b28f5ea3-f51d-4648-8a94-410fa3633caa","ios":"levelo://app?vid=b28f5ea3-f51d-4648-8a94-410fa3633caa"},"vehicle_type_id":"4","last_reported":1729454940,"current_range_meters":38800,"station_id":"cpo36qri1sfpv3e86is0","pricing_plan_id":"cebpf4jnsgd1na2vs0mg"},{"bike_id":"5cd96af5-3e17-42ae-9025-24dfef705577","system_id":"levelo_inurba_marseille","lat":43.29196,"lon":5.39307,"is_reserved":false,"is_disabled":false,"rental_uris":{"android":"levelo://app?vid=5cd96af5-3e17-42ae-9025-24dfef705577","ios":"levelo://app?vid=5cd96af5-3e17-42ae-9025-24dfef705577"},"vehicle_type_id":"4","last_reported":1729454940,"current_range_meters":6400,"station_id":"ce4bh192rcd13ifvqdd0","pricing_plan_id":"cebpf4jnsgd1na2vs0mg"},{"bike_id":"dc37fd46-5084-46a0-9174-3c99fcea243a","system_id":"levelo_inurba_marseille","lat":43.27563,"lon":5.38424,"is_reserved":false,"is_disabled":false,"rental_uris":{"android":"levelo://app?vid=dc37fd46-5084-46a0-9174-3c99fcea243a","ios":"levelo://app?vid=dc37fd46-5084-46a0-9174-3c99fcea243a"},"vehicle_type_id":"4","last_reported":1729454940,"current_range_meters":6800,"station_id":"ce4bhh92rcd13ifvqfi0","pricing_plan_id":"cebpf4jnsgd1na2vs0mg"},{"bike_id":"eb6d28fa-f971-4e01-baf2-2cdf61002b82","system_id":"levelo_inurba_marseille","lat":43.240747,"lon":5.377629,"is_reserved":false,"is_disabled":false,"rental_uris":{"android":"levelo://app?vid=eb6d28fa-f971-4e01-baf2-2cdf61002b82","ios":"levelo://app?vid=eb6d28fa-f971-4e01-baf2-2cdf61002b82"},"vehicle_type_id":"4","last_reported":1729454940,"current_range_meters":2800,"station_id":"","pricing_plan_id":"cebpf4jnsgd1na2vs0mg"},{"bike_id":"befb068b-7b18-4dbe-9d54-7889699e7dea","system_id":"levelo_inurba_marseille","lat":43.22924,"lon":5.35379,"is_reserved":false,"is_disabled":false,"rental_uris":{"android":"levelo://app?vid=befb068b-7b18-4dbe-9d54-7889699e7dea","ios":"levelo://app?vid=befb068b-7b18-4dbe-9d54-7889699e7dea"},"vehicle_type_id":"4","last_reported":1729454940,"current_range_meters":38800,"station_id":"cpo3532slgdg3j2ikp40","pricing_plan_id":"cebpf4jnsgd1na2vs0mg"},{"bike_id":"5b47cbfd-3740-4a35-b9bd-478cf093a87d","system_id":"levelo_inurba_marseille","lat":43.23959,"lon":5.36626,"is_reserved":false,"is_disabled":false,"rental_uris":{"android":"levelo://app?vid=5b47cbfd-3740-4a35-b9bd-478cf093a87d","ios":"levelo://app?vid=5b47cbfd-3740-4a35-b9bd-478cf093a87d"},"vehicle_type_id":"4","last_reported":1729454940,"current_range_meters":26800,"station_id":"ce4bhi12rcd13ifvqfp0","pricing_plan_id":"cebpf4jnsgd1na2vs0mg"},{"bike_id":"9cdd8dd9-b29f-454d-ae53-de682a959e62","system_id":"levelo_inurba_marseille","lat":43.32366,"lon":5.38888,"is_reserved":false,"is_disabled":false,"rental_uris":{"android":"levelo://app?vid=9cdd8dd9-b29f-454d-ae53-de682a959e62","ios":"levelo://app?vid=9cdd8dd9-b29f-454d-ae53-de682a959e62"},"vehicle_type_id":"4","last_reported":1729454940,"current_range_meters":39200,"station_id":"ce4bhqp2rcd13ifvqhog","pricing_plan_id":"cebpf4jnsgd1na2vs0mg"},{"bike_id":"6a239e90-1da0-443e-a751-9621878cc664","system_id":"levelo_inurba_marseille","lat":43.28421,"lon":5.34978,"is_reserved":false,"is_disabled":false,"rental_uris":{"android":"levelo://app?vid=6a239e90-1da0-443e-a751-9621878cc664","ios":"levelo://app?vid=6a239e90-1da0-443e-a751-9621878cc664"},"vehicle_type_id":"4","last_reported":1729454940,"current_range_meters":38000,"station_id":"ce4bhbh2rcd13ifvqepg","pricing_plan_id":"cebpf4jnsgd1na2vs0mg"},{"bike_id":"58342ce2-48b6-4554-b620-09ec4681a912","system_id":"levelo_inurba_marseille","lat":43.23954,"lon":5.36629,"is_reserved":false,"is_disabled":false,"rental_uris":{"android":"levelo://app?vid=58342ce2-48b6-4554-b620-09ec4681a912","ios":"levelo://app?vid=58342ce2-48b6-4554-b620-09ec4681a912"},"vehicle_type_id":"4","last_reported":1729454940,"current_range_meters":38800,"station_id":"ce4bhi12rcd13ifvqfp0","pricing_plan_id":"cebpf4jnsgd1na2vs0mg"},{"bike_id":"ab25e50e-031e-49b2-92c3-bc31c1e4e638","system_id":"levelo_inurba_marseille","lat":43.27979,"lon":5.41678,"is_reserved":false,"is_disabled":false,"rental_uris":{"android":"levelo://app?vid=ab25e50e-031e-49b2-92c3-bc31c1e4e638","ios":"levelo://app?vid=ab25e50e-031e-49b2-92c3-bc31c1e4e638"},"vehicle_type_id":"4","last_reported":1729454940,"current_range_meters":7200,"station_id":"ce4bho12rcd13ifvqh1g","pricing_plan_id":"cebpf4jnsgd1na2vs0mg"},{"bike_id":"09415369-8018-4dd6-951b-6d2dccc5a7e9","system_id":"levelo_inurba_marseille","lat":43.31686,"lon":5.40476,"is_reserved":false,"is_disabled":false,"rental_uris":{"android":"levelo://app?vid=09415369-8018-4dd6-951b-6d2dccc5a7e9","ios":"levelo://app?vid=09415369-8018-4dd6-951b-6d2dccc5a7e9"},"vehicle_type_id":"4","last_reported":1729454940,"current_range_meters":23200,"station_id":"ce4bh012rcd13ifvqd00","pricing_plan_id":"cebpf4jnsgd1na2vs0mg"},{"bike_id":"17c2e2b5-4d41-40ee-9ac7-27f2fafea751","system_id":"levelo_inurba_marseille","lat":43.28047,"lon":5.36944,"is_reserved":false,"is_disabled":false,"rental_uris":{"android":"levelo://app?vid=17c2e2b5-4d41-40ee-9ac7-27f2fafea751","ios":"levelo://app?vid=17c2e2b5-4d41-40ee-9ac7-27f2fafea751"},"vehicle_type_id":"4","last_reported":1729454940,"current_range_meters":28800,"station_id":"ce4bha12rcd13ifvqef0","pricing_plan_id":"cebpf4jnsgd1na2vs0mg"},{"bike_id":"57dd0012-e7c2-43e3-90a1-087125ac63fa","system_id":"levelo_inurba_marseille","lat":43.33753,"lon":5.37454,"is_reserved":false,"is_disabled":false,"rental_uris":{"android":"levelo://app?vid=57dd0012-e7c2-43e3-90a1-087125ac63fa","ios":"levelo://app?vid=57dd0012-e7c2-43e3-90a1-087125ac63fa"},"vehicle_type_id":"4","last_reported":1729454940,"current_range_meters":33600,"station_id":"","pricing_plan_id":"cebpf4jnsgd1na2vs0mg"},{"bike_id":"ad1c3d3d-b4cc-42d4-beb2-2f2573d3d2dd","system_id":"levelo_inurba_marseille","lat":43.31072,"lon":5.3835,"is_reserved":false,"is_disabled":false,"rental_uris":{"android":"levelo://app?vid=ad1c3d3d-b4cc-42d4-beb2-2f2573d3d2dd","ios":"levelo://app?vid=ad1c3d3d-b4cc-42d4-beb2-2f2573d3d2dd"},"vehicle_type_id":"4","last_reported":1729454940,"current_range_meters":38800,"station_id":"ce4bgv92rcd13ifvqcr0","pricing_plan_id":"cebpf4jnsgd1na2vs0mg"},{"bike_id":"0a6df673-e856-4343-b24f-084796475cea","system_id":"levelo_inurba_marseille","lat":43.31483,"lon":5.37301,"is_reserved":false,"is_disabled":false,"rental_uris":{"android":"levelo://app?vid=0a6df673-e856-4343-b24f-084796475cea","ios":"levelo://app?vid=0a6df673-e856-4343-b24f-084796475cea"},"vehicle_type_id":"4","last_reported":1729454940,"current_range_meters":33600,"station_id":"ce4bgt12rcd13ifvqcd0","pricing_plan_id":"cebpf4jnsgd1na2vs0mg"},{"bike_id":"acc80eec-b7f4-4a87-8f02-9235715cbd20","system_id":"levelo_inurba_marseille","lat":43.31067,"lon":5.38357,"is_reserved":false,"is_disabled":false,"rental_uris":{"android":"levelo://app?vid=acc80eec-b7f4-4a87-8f02-9235715cbd20","ios":"levelo://app?vid=acc80eec-b7f4-4a87-8f02-9235715cbd20"},"vehicle_type_id":"4","last_reported":1729454940,"current_range_meters":28000,"station_id":"ce4bgv92rcd13ifvqcr0","pricing_plan_id":"cebpf4jnsgd1na2vs0mg"},{"bike_id":"b1dc3465-3c2c-4109-9f67-763d29883cdb","system_id":"levelo_inurba_marseille","lat":43.29581,"lon":5.36738,"is_reserved":false,"is_disabled":false,"rental_uris":{"android":"levelo://app?vid=b1dc3465-3c2c-4109-9f67-763d29883cdb","ios":"levelo://app?vid=b1dc3465-3c2c-4109-9f67-763d29883cdb"},"vehicle_type_id":"4","last_reported":1729454940,"current_range_meters":8400,"station_id":"ce4bgph2rcd13ifvqc2g","pricing_plan_id":"cebpf4jnsgd1na2vs0mg"},{"bike_id":"de844c16-40e6-4c87-b431-094cac638790","system_id":"levelo_inurba_marseille","lat":43.30086,"lon":5.39087,"is_reserved":false,"is_disabled":false,"rental_uris":{"android":"levelo://app?vid=de844c16-40e6-4c87-b431-094cac638790","ios":"levelo://app?vid=de844c16-40e6-4c87-b431-094cac638790"},"vehicle_type_id":"4","last_reported":1729454940,"current_range_meters":18800,"station_id":"ce4bh192rcd13ifvqdb0","pricing_plan_id":"cebpf4jnsgd1na2vs0mg"},{"bike_id":"0c8d62df-ce7f-4d2a-93d3-2a0c7123f00e","system_id":"levelo_inurba_marseille","lat":43.27896,"lon":5.37988,"is_reserved":false,"is_disabled":false,"rental_uris":{"android":"levelo://app?vid=0c8d62df-ce7f-4d2a-93d3-2a0c7123f00e","ios":"levelo://app?vid=0c8d62df-ce7f-4d2a-93d3-2a0c7123f00e"},"vehicle_type_id":"4","last_reported":1729454940,"current_range_meters":6800,"station_id":"ce4bhf92rcd13ifvqf50","pricing_plan_id":"cebpf4jnsgd1na2vs0mg"},{"bike_id":"998c5e4c-d0ca-4b5a-882b-203ffe952849","system_id":"levelo_inurba_marseille","lat":43.30539,"lon":5.36716,"is_reserved":false,"is_disabled":false,"rental_uris":{"android":"levelo://app?vid=998c5e4c-d0ca-4b5a-882b-203ffe952849","ios":"levelo://app?vid=998c5e4c-d0ca-4b5a-882b-203ffe952849"},"vehicle_type_id":"4","last_reported":1729454940,"current_range_meters":37600,"station_id":"ce4bgrp2rcd13ifvqc9g","pricing_plan_id":"cebpf4jnsgd1na2vs0mg"},{"bike_id":"c2480932-f62a-4dec-939d-490845b21e8b","system_id":"levelo_inurba_marseille","lat":43.29243,"lon":5.38436,"is_reserved":false,"is_disabled":false,"rental_uris":{"android":"levelo://app?vid=c2480932-f62a-4dec-939d-490845b21e8b","ios":"levelo://app?vid=c2480932-f62a-4dec-939d-490845b21e8b"},"vehicle_type_id":"4","last_reported":1729454940,"current_range_meters":38800,"station_id":"","pricing_plan_id":"cebpf4jnsgd1na2vs0mg"},{"bike_id":"079789fd-ddab-4d4b-b76b-b3df4788f817","system_id":"levelo_inurba_marseille","lat":43.29417,"lon":5.38619,"is_reserved":false,"is_disabled":false,"rental_uris":{"android":"levelo://app?vid=079789fd-ddab-4d4b-b76b-b3df4788f817","ios":"levelo://app?vid=079789fd-ddab-4d4b-b76b-b3df4788f817"},"vehicle_type_id":"4","last_reported":1729454940,"current_range_meters":5600,"station_id":"ce4bh2h2rcd13ifvqdh0","pricing_plan_id":"cebpf4jnsgd1na2vs0mg"},{"bike_id":"6763eac8-72c4-4eb1-9d1d-9f093ea2cc52","system_id":"levelo_inurba_marseille","lat":43.303082,"lon":5.392147,"is_reserved":false,"is_disabled":false,"rental_uris":{"android":"levelo://app?vid=6763eac8-72c4-4eb1-9d1d-9f093ea2cc52","ios":"levelo://app?vid=6763eac8-72c4-4eb1-9d1d-9f093ea2cc52"},"vehicle_type_id":"4","last_reported":1729454940,"current_range_meters":24800,"station_id":"ce4bgkh2rcd13ifvqbk0","pricing_plan_id":"cebpf4jnsgd1na2vs0mg"},{"bike_id":"bf6b57fc-4872-420f-a3f7-fe294bcf43f7","system_id":"levelo_inurba_marseille","lat":43.2925,"lon":5.4092,"is_reserved":false,"is_disabled":false,"rental_uris":{"android":"levelo://app?vid=bf6b57fc-4872-420f-a3f7-fe294bcf43f7","ios":"levelo://app?vid=bf6b57fc-4872-420f-a3f7-fe294bcf43f7"},"vehicle_type_id":"4","last_reported":1729454940,"current_range_meters":38800,"station_id":"ce4bh192rcd13ifvqdc0","pricing_plan_id":"cebpf4jnsgd1na2vs0mg"},{"bike_id":"2e72f5fe-cb0b-4ab1-a594-665d9aaedd43","system_id":"levelo_inurba_marseille","lat":43.28482,"lon":5.3854,"is_reserved":false,"is_disabled":false,"rental_uris":{"android":"levelo://app?vid=2e72f5fe-cb0b-4ab1-a594-665d9aaedd43","ios":"levelo://app?vid=2e72f5fe-cb0b-4ab1-a594-665d9aaedd43"},"vehicle_type_id":"4","last_reported":1729454940,"current_range_meters":38800,"station_id":"ce4bh8p2rcd13ifvqeb0","pricing_plan_id":"cebpf4jnsgd1na2vs0mg"},{"bike_id":"cd0dce23-200f-416c-916b-7be9d153fea3","system_id":"levelo_inurba_marseille","lat":43.26066,"lon":5.38552,"is_reserved":false,"is_disabled":false,"rental_uris":{"android":"levelo://app?vid=cd0dce23-200f-416c-916b-7be9d153fea3","ios":"levelo://app?vid=cd0dce23-200f-416c-916b-7be9d153fea3"},"vehicle_type_id":"4","last_reported":1729454940,"current_range_meters":18000,"station_id":"","pricing_plan_id":"cebpf4jnsgd1na2vs0mg"},{"bike_id":"23115ac6-aff5-45af-87d0-ffdacdb28fd5","system_id":"levelo_inurba_marseille","lat":43.22929,"lon":5.35379,"is_reserved":false,"is_disabled":false,"rental_uris":{"android":"levelo://app?vid=23115ac6-aff5-45af-87d0-ffdacdb28fd5","ios":"levelo://app?vid=23115ac6-aff5-45af-87d0-ffdacdb28fd5"},"vehicle_type_id":"4","last_reported":1729454940,"current_range_meters":38800,"station_id":"cpo3532slgdg3j2ikp40","pricing_plan_id":"cebpf4jnsgd1na2vs0mg"},{"bike_id":"152751a1-3299-42f2-b764-a541e63e60bd","system_id":"levelo_inurba_marseille","lat":43.29638,"lon":5.40601,"is_reserved":false,"is_disabled":false,"rental_uris":{"android":"levelo://app?vid=152751a1-3299-42f2-b764-a541e63e60bd","ios":"levelo://app?vid=152751a1-3299-42f2-b764-a541e63e60bd"},"vehicle_type_id":"4","last_reported":1729454940,"current_range_meters":18800,"station_id":"ce4bh0h2rcd13ifvqd60","pricing_plan_id":"cebpf4jnsgd1na2vs0mg"},{"bike_id":"f0e996dc-1d39-454f-8c4e-c3a29a6cd099","system_id":"levelo_inurba_marseille","lat":43.26551,"lon":5.37288,"is_reserved":false,"is_disabled":false,"rental_uris":{"android":"levelo://app?vid=f0e996dc-1d39-454f-8c4e-c3a29a6cd099","ios":"levelo://app?vid=f0e996dc-1d39-454f-8c4e-c3a29a6cd099"},"vehicle_type_id":"4","last_reported":1729454940,"current_range_meters":16400,"station_id":"ce4bhg12rcd13ifvqf70","pricing_plan_id":"cebpf4jnsgd1na2vs0mg"},{"bike_id":"4baa99ae-2e1a-436a-bb1d-886404f1cc4d","system_id":"levelo_inurba_marseille","lat":43.28275,"lon":5.35074,"is_reserved":false,"is_disabled":false,"rental_uris":{"android":"levelo://app?vid=4baa99ae-2e1a-436a-bb1d-886404f1cc4d","ios":"levelo://app?vid=4baa99ae-2e1a-436a-bb1d-886404f1cc4d"},"vehicle_type_id":"4","last_reported":1729454940,"current_range_meters":38800,"station_id":"ce4bhbp2rcd13ifvqerg","pricing_plan_id":"cebpf4jnsgd1na2vs0mg"},{"bike_id":"a3f6bba9-3065-4ed1-b9ab-0b86d8988753","system_id":"levelo_inurba_marseille","lat":43.27977,"lon":5.38736,"is_reserved":false,"is_disabled":false,"rental_uris":{"android":"levelo://app?vid=a3f6bba9-3065-4ed1-b9ab-0b86d8988753","ios":"levelo://app?vid=a3f6bba9-3065-4ed1-b9ab-0b86d8988753"},"vehicle_type_id":"4","last_reported":1729454940,"current_range_meters":5600,"station_id":"ce4bhg12rcd13ifvqf80","pricing_plan_id":"cebpf4jnsgd1na2vs0mg"},{"bike_id":"5fb83cb5-1b9e-44dc-ad82-fe8e448bfa99","system_id":"levelo_inurba_marseille","lat":43.32112,"lon":5.36772,"is_reserved":false,"is_disabled":false,"rental_uris":{"android":"levelo://app?vid=5fb83cb5-1b9e-44dc-ad82-fe8e448bfa99","ios":"levelo://app?vid=5fb83cb5-1b9e-44dc-ad82-fe8e448bfa99"},"vehicle_type_id":"4","last_reported":1729454940,"current_range_meters":38800,"station_id":"ce4bhrh2rcd13ifvqhug","pricing_plan_id":"cebpf4jnsgd1na2vs0mg"},{"bike_id":"25bcd75b-fb00-46fb-b4c0-4a0a2321fc8a","system_id":"levelo_inurba_marseille","lat":43.3117,"lon":5.38719,"is_reserved":false,"is_disabled":false,"rental_uris":{"android":"levelo://app?vid=25bcd75b-fb00-46fb-b4c0-4a0a2321fc8a","ios":"levelo://app?vid=25bcd75b-fb00-46fb-b4c0-4a0a2321fc8a"},"vehicle_type_id":"4","last_reported":1729454940,"current_range_meters":33600,"station_id":"ce4bgv12rcd13ifvqcp0","pricing_plan_id":"cebpf4jnsgd1na2vs0mg"},{"bike_id":"397aa16f-9086-4144-b23e-c12febf82b55","system_id":"levelo_inurba_marseille","lat":43.30214,"lon":5.39472,"is_reserved":false,"is_disabled":false,"rental_uris":{"android":"levelo://app?vid=397aa16f-9086-4144-b23e-c12febf82b55","ios":"levelo://app?vid=397aa16f-9086-4144-b23e-c12febf82b55"},"vehicle_type_id":"4","last_reported":1729454940,"current_range_meters":38800,"station_id":"ce4bh0p2rcd13ifvqd70","pricing_plan_id":"cebpf4jnsgd1na2vs0mg"},{"bike_id":"d94abd10-f1f2-4572-ab8e-169add889ea4","system_id":"levelo_inurba_marseille","lat":43.280312,"lon":5.369421,"is_reserved":false,"is_disabled":false,"rental_uris":{"android":"levelo://app?vid=d94abd10-f1f2-4572-ab8e-169add889ea4","ios":"levelo://app?vid=d94abd10-f1f2-4572-ab8e-169add889ea4"},"vehicle_type_id":"4","last_reported":1729454940,"current_range_meters":27600,"station_id":"ce4bha12rcd13ifvqef0","pricing_plan_id":"cebpf4jnsgd1na2vs0mg"},{"bike_id":"726eab31-bc44-41b4-b62a-b01fd702c72e","system_id":"levelo_inurba_marseille","lat":43.30938,"lon":5.40141,"is_reserved":false,"is_disabled":false,"rental_uris":{"android":"levelo://app?vid=726eab31-bc44-41b4-b62a-b01fd702c72e","ios":"levelo://app?vid=726eab31-bc44-41b4-b62a-b01fd702c72e"},"vehicle_type_id":"4","last_reported":1729454940,"current_range_meters":28000,"station_id":"ce4bgvp2rcd13ifvqct0","pricing_plan_id":"cebpf4jnsgd1na2vs0mg"},{"bike_id":"3936565c-18a4-450b-9552-bdc1ba21cf35","system_id":"levelo_inurba_marseille","lat":43.34141,"lon":5.40907,"is_reserved":false,"is_disabled":false,"rental_uris":{"android":"levelo://app?vid=3936565c-18a4-450b-9552-bdc1ba21cf35","ios":"levelo://app?vid=3936565c-18a4-450b-9552-bdc1ba21cf35"},"vehicle_type_id":"4","last_reported":1729454940,"current_range_meters":22800,"station_id":"ce4bhqh2rcd13ifvqhlg","pricing_plan_id":"cebpf4jnsgd1na2vs0mg"},{"bike_id":"d06a881c-f80d-48b8-9719-6afcceb956d7","system_id":"levelo_inurba_marseille","lat":43.33023,"lon":5.39037,"is_reserved":false,"is_disabled":false,"rental_uris":{"android":"levelo://app?vid=d06a881c-f80d-48b8-9719-6afcceb956d7","ios":"levelo://app?vid=d06a881c-f80d-48b8-9719-6afcceb956d7"},"vehicle_type_id":"4","last_reported":1729454940,"current_range_meters":39200,"station_id":"ce4bhr92rcd13ifvqhrg","pricing_plan_id":"cebpf4jnsgd1na2vs0mg"},{"bike_id":"43d24770-4ece-4a77-a029-fe46e9bde13b","system_id":"levelo_inurba_marseille","lat":43.31573,"lon":5.37429,"is_reserved":false,"is_disabled":false,"rental_uris":{"android":"levelo://app?vid=43d24770-4ece-4a77-a029-fe46e9bde13b","ios":"levelo://app?vid=43d24770-4ece-4a77-a029-fe46e9bde13b"},"vehicle_type_id":"4","last_reported":1729454940,"current_range_meters":35600,"station_id":"","pricing_plan_id":"cebpf4jnsgd1na2vs0mg"},{"bike_id":"17caa1f2-fb79-4e9a-bf75-44bcd8f883dd","system_id":"levelo_inurba_marseille","lat":43.28466,"lon":5.38417,"is_reserved":false,"is_disabled":false,"rental_uris":{"android":"levelo://app?vid=17caa1f2-fb79-4e9a-bf75-44bcd8f883dd","ios":"levelo://app?vid=17caa1f2-fb79-4e9a-bf75-44bcd8f883dd"},"vehicle_type_id":"4","last_reported":1729454940,"current_range_meters":5600,"station_id":"ce4bh512rcd13ifvqe3g","pricing_plan_id":"cebpf4jnsgd1na2vs0mg"},{"bike_id":"9638ad47-6312-42d8-a475-3579cb20e4bb","system_id":"levelo_inurba_marseille","lat":43.28069,"lon":5.39648,"is_reserved":false,"is_disabled":false,"rental_uris":{"android":"levelo://app?vid=9638ad47-6312-42d8-a475-3579cb20e4bb","ios":"levelo://app?vid=9638ad47-6312-42d8-a475-3579cb20e4bb"},"vehicle_type_id":"4","last_reported":1729454940,"current_range_meters":29600,"station_id":"ce4bho12rcd13ifvqh2g","pricing_plan_id":"cebpf4jnsgd1na2vs0mg"},{"bike_id":"1e18c599-6c40-4c34-805b-3e674da0ddd0","system_id":"levelo_inurba_marseille","lat":43.284329,"lon":5.350166,"is_reserved":false,"is_disabled":false,"rental_uris":{"android":"levelo://app?vid=1e18c599-6c40-4c34-805b-3e674da0ddd0","ios":"levelo://app?vid=1e18c599-6c40-4c34-805b-3e674da0ddd0"},"vehicle_type_id":"4","last_reported":1729454940,"current_range_meters":38800,"station_id":"ce4bhbh2rcd13ifvqepg","pricing_plan_id":"cebpf4jnsgd1na2vs0mg"},{"bike_id":"766da900-471d-42f5-8cfa-8db494f945d7","system_id":"levelo_inurba_marseille","lat":43.289084,"lon":5.460529,"is_reserved":false,"is_disabled":false,"rental_uris":{"android":"levelo://app?vid=766da900-471d-42f5-8cfa-8db494f945d7","ios":"levelo://app?vid=766da900-471d-42f5-8cfa-8db494f945d7"},"vehicle_type_id":"4","last_reported":1729454940,"current_range_meters":24000,"station_id":"","pricing_plan_id":"cebpf4jnsgd1na2vs0mg"},{"bike_id":"e71d3fcf-5ffb-42f6-ba1e-7e333adab3db","system_id":"levelo_inurba_marseille","lat":43.297835,"lon":5.393398,"is_reserved":false,"is_disabled":false,"rental_uris":{"android":"levelo://app?vid=e71d3fcf-5ffb-42f6-ba1e-7e333adab3db","ios":"levelo://app?vid=e71d3fcf-5ffb-42f6-ba1e-7e333adab3db"},"vehicle_type_id":"4","last_reported":1729454940,"current_range_meters":36800,"station_id":"ce4bguh2rcd13ifvqckg","pricing_plan_id":"cebpf4jnsgd1na2vs0mg"},{"bike_id":"165b87db-cebb-44e0-91c8-012ba38fa763","system_id":"levelo_inurba_marseille","lat":43.28273,"lon":5.35063,"is_reserved":false,"is_disabled":false,"rental_uris":{"android":"levelo://app?vid=165b87db-cebb-44e0-91c8-012ba38fa763","ios":"levelo://app?vid=165b87db-cebb-44e0-91c8-012ba38fa763"},"vehicle_type_id":"4","last_reported":1729454940,"current_range_meters":38800,"station_id":"ce4bhbp2rcd13ifvqerg","pricing_plan_id":"cebpf4jnsgd1na2vs0mg"},{"bike_id":"6b0b00df-acb0-4528-adb6-b3172252b95b","system_id":"levelo_inurba_marseille","lat":43.28696,"lon":5.37377,"is_reserved":false,"is_disabled":false,"rental_uris":{"android":"levelo://app?vid=6b0b00df-acb0-4528-adb6-b3172252b95b","ios":"levelo://app?vid=6b0b00df-acb0-4528-adb6-b3172252b95b"},"vehicle_type_id":"4","last_reported":1729454940,"current_range_meters":16400,"station_id":"ce4bh3p2rcd13ifvqdq0","pricing_plan_id":"cebpf4jnsgd1na2vs0mg"},{"bike_id":"62bd4279-85cf-4db8-9679-527d5cdbe521","system_id":"levelo_inurba_marseille","lat":43.30329,"lon":5.36894,"is_reserved":false,"is_disabled":false,"rental_uris":{"android":"levelo://app?vid=62bd4279-85cf-4db8-9679-527d5cdbe521","ios":"levelo://app?vid=62bd4279-85cf-4db8-9679-527d5cdbe521"},"vehicle_type_id":"4","last_reported":1729454940,"current_range_meters":23200,"station_id":"ce4bgqh2rcd13ifvqc5g","pricing_plan_id":"cebpf4jnsgd1na2vs0mg"},{"bike_id":"06abd275-3c17-43a1-bec2-7362bb2e04b4","system_id":"levelo_inurba_marseille","lat":43.293,"lon":5.37485,"is_reserved":false,"is_disabled":false,"rental_uris":{"android":"levelo://app?vid=06abd275-3c17-43a1-bec2-7362bb2e04b4","ios":"levelo://app?vid=06abd275-3c17-43a1-bec2-7362bb2e04b4"},"vehicle_type_id":"4","last_reported":1729454940,"current_range_meters":29600,"station_id":"ce4bgi12rcd13ifvqb70","pricing_plan_id":"cebpf4jnsgd1na2vs0mg"},{"bike_id":"fabeeb24-210a-42cd-8b11-0a386393e204","system_id":"levelo_inurba_marseille","lat":43.282698,"lon":5.350696,"is_reserved":false,"is_disabled":false,"rental_uris":{"android":"levelo://app?vid=fabeeb24-210a-42cd-8b11-0a386393e204","ios":"levelo://app?vid=fabeeb24-210a-42cd-8b11-0a386393e204"},"vehicle_type_id":"4","last_reported":1729454940,"current_range_meters":38800,"station_id":"ce4bhbp2rcd13ifvqerg","pricing_plan_id":"cebpf4jnsgd1na2vs0mg"},{"bike_id":"3a90cd5a-8d84-4a1f-9da8-3547bb5d20c1","system_id":"levelo_inurba_marseille","lat":43.2319,"lon":5.35543,"is_reserved":false,"is_disabled":false,"rental_uris":{"android":"levelo://app?vid=3a90cd5a-8d84-4a1f-9da8-3547bb5d20c1","ios":"levelo://app?vid=3a90cd5a-8d84-4a1f-9da8-3547bb5d20c1"},"vehicle_type_id":"4","last_reported":1729454940,"current_range_meters":35600,"station_id":"ce4bhu92rcd13ifvqi70","pricing_plan_id":"cebpf4jnsgd1na2vs0mg"},{"bike_id":"c47ccd47-d873-4fd2-ba35-77b6357180ca","system_id":"levelo_inurba_marseille","lat":43.28108,"lon":5.37844,"is_reserved":false,"is_disabled":false,"rental_uris":{"android":"levelo://app?vid=c47ccd47-d873-4fd2-ba35-77b6357180ca","ios":"levelo://app?vid=c47ccd47-d873-4fd2-ba35-77b6357180ca"},"vehicle_type_id":"4","last_reported":1729454940,"current_range_meters":18000,"station_id":"ce4bha12rcd13ifvqee0","pricing_plan_id":"cebpf4jnsgd1na2vs0mg"},{"bike_id":"4b0e1ae9-90da-4b3c-97a7-9fcaa6ea9192","system_id":"levelo_inurba_marseille","lat":43.28104,"lon":5.37854,"is_reserved":false,"is_disabled":false,"rental_uris":{"android":"levelo://app?vid=4b0e1ae9-90da-4b3c-97a7-9fcaa6ea9192","ios":"levelo://app?vid=4b0e1ae9-90da-4b3c-97a7-9fcaa6ea9192"},"vehicle_type_id":"4","last_reported":1729454940,"current_range_meters":39200,"station_id":"ce4bha12rcd13ifvqee0","pricing_plan_id":"cebpf4jnsgd1na2vs0mg"},{"bike_id":"f7f63d48-465a-4350-819d-9a5be66b104c","system_id":"levelo_inurba_marseille","lat":43.29295,"lon":5.37457,"is_reserved":false,"is_disabled":false,"rental_uris":{"android":"levelo://app?vid=f7f63d48-465a-4350-819d-9a5be66b104c","ios":"levelo://app?vid=f7f63d48-465a-4350-819d-9a5be66b104c"},"vehicle_type_id":"4","last_reported":1729454940,"current_range_meters":38400,"station_id":"ce4bgi12rcd13ifvqb70","pricing_plan_id":"cebpf4jnsgd1na2vs0mg"},{"bike_id":"61f6fcba-0270-4e6f-bab2-fc32e0baeaf0","system_id":"levelo_inurba_marseille","lat":43.2811,"lon":5.37842,"is_reserved":false,"is_disabled":false,"rental_uris":{"android":"levelo://app?vid=61f6fcba-0270-4e6f-bab2-fc32e0baeaf0","ios":"levelo://app?vid=61f6fcba-0270-4e6f-bab2-fc32e0baeaf0"},"vehicle_type_id":"4","last_reported":1729454940,"current_range_meters":14800,"station_id":"ce4bha12rcd13ifvqee0","pricing_plan_id":"cebpf4jnsgd1na2vs0mg"},{"bike_id":"7772d39f-5e28-445c-af91-069b0cf63793","system_id":"levelo_inurba_marseille","lat":43.33765,"lon":5.37438,"is_reserved":false,"is_disabled":false,"rental_uris":{"android":"levelo://app?vid=7772d39f-5e28-445c-af91-069b0cf63793","ios":"levelo://app?vid=7772d39f-5e28-445c-af91-069b0cf63793"},"vehicle_type_id":"4","last_reported":1729454940,"current_range_meters":3200,"station_id":"","pricing_plan_id":"cebpf4jnsgd1na2vs0mg"},{"bike_id":"95b66c55-5abd-41c2-9bd2-3e3c73973021","system_id":"levelo_inurba_marseille","lat":43.30258,"lon":5.40066,"is_reserved":false,"is_disabled":false,"rental_uris":{"android":"levelo://app?vid=95b66c55-5abd-41c2-9bd2-3e3c73973021","ios":"levelo://app?vid=95b66c55-5abd-41c2-9bd2-3e3c73973021"},"vehicle_type_id":"4","last_reported":1729454940,"current_range_meters":39200,"station_id":"ce4bgvh2rcd13ifvqcs0","pricing_plan_id":"cebpf4jnsgd1na2vs0mg"},{"bike_id":"3213665e-989c-4d22-9f5a-31c8522597dd","system_id":"levelo_inurba_marseille","lat":43.296,"lon":5.36142,"is_reserved":false,"is_disabled":false,"rental_uris":{"android":"levelo://app?vid=3213665e-989c-4d22-9f5a-31c8522597dd","ios":"levelo://app?vid=3213665e-989c-4d22-9f5a-31c8522597dd"},"vehicle_type_id":"4","last_reported":1729454940,"current_range_meters":13600,"station_id":"","pricing_plan_id":"cebpf4jnsgd1na2vs0mg"},{"bike_id":"c0d3d32e-e5a1-4781-982b-6fe954b368b7","system_id":"levelo_inurba_marseille","lat":43.28734,"lon":5.36082,"is_reserved":false,"is_disabled":false,"rental_uris":{"android":"levelo://app?vid=c0d3d32e-e5a1-4781-982b-6fe954b368b7","ios":"levelo://app?vid=c0d3d32e-e5a1-4781-982b-6fe954b368b7"},"vehicle_type_id":"4","last_reported":1729454940,"current_range_meters":18800,"station_id":"cki0cbj6b192h4jlfktg","pricing_plan_id":"cebpf4jnsgd1na2vs0mg"},{"bike_id":"9a2117f0-c5b0-4dc2-891b-026a24af23f1","system_id":"levelo_inurba_marseille","lat":43.3105,"lon":5.40092,"is_reserved":false,"is_disabled":false,"rental_uris":{"android":"levelo://app?vid=9a2117f0-c5b0-4dc2-891b-026a24af23f1","ios":"levelo://app?vid=9a2117f0-c5b0-4dc2-891b-026a24af23f1"},"vehicle_type_id":"4","last_reported":1729454940,"current_range_meters":34000,"station_id":"","pricing_plan_id":"cebpf4jnsgd1na2vs0mg"},{"bike_id":"150b2076-fa3d-4436-b76f-3b9f9d8be659","system_id":"levelo_inurba_marseille","lat":43.33604,"lon":5.41036,"is_reserved":false,"is_disabled":false,"rental_uris":{"android":"levelo://app?vid=150b2076-fa3d-4436-b76f-3b9f9d8be659","ios":"levelo://app?vid=150b2076-fa3d-4436-b76f-3b9f9d8be659"},"vehicle_type_id":"4","last_reported":1729454940,"current_range_meters":3200,"station_id":"ce4bhqh2rcd13ifvqhmg","pricing_plan_id":"cebpf4jnsgd1na2vs0mg"},{"bike_id":"013dc01c-cff0-478e-9f23-9e03c25e67f4","system_id":"levelo_inurba_marseille","lat":43.2837,"lon":5.38505,"is_reserved":false,"is_disabled":false,"rental_uris":{"android":"levelo://app?vid=013dc01c-cff0-478e-9f23-9e03c25e67f4","ios":"levelo://app?vid=013dc01c-cff0-478e-9f23-9e03c25e67f4"},"vehicle_type_id":"4","last_reported":1729454940,"current_range_meters":20400,"station_id":"ce4bhi12rcd13ifvqfp0","pricing_plan_id":"cebpf4jnsgd1na2vs0mg"},{"bike_id":"2d3f3959-1f1e-4500-90dc-cd8999540bc5","system_id":"levelo_inurba_marseille","lat":43.28701,"lon":5.37384,"is_reserved":false,"is_disabled":false,"rental_uris":{"android":"levelo://app?vid=2d3f3959-1f1e-4500-90dc-cd8999540bc5","ios":"levelo://app?vid=2d3f3959-1f1e-4500-90dc-cd8999540bc5"},"vehicle_type_id":"4","last_reported":1729454940,"current_range_meters":28000,"station_id":"ce4bh3p2rcd13ifvqdq0","pricing_plan_id":"cebpf4jnsgd1na2vs0mg"},{"bike_id":"530bfc62-8a42-45da-b2f6-380bd4db9e48","system_id":"levelo_inurba_marseille","lat":43.279777,"lon":5.387467,"is_reserved":false,"is_disabled":false,"rental_uris":{"android":"levelo://app?vid=530bfc62-8a42-45da-b2f6-380bd4db9e48","ios":"levelo://app?vid=530bfc62-8a42-45da-b2f6-380bd4db9e48"},"vehicle_type_id":"4","last_reported":1729454940,"current_range_meters":38800,"station_id":"ce4bhg12rcd13ifvqf80","pricing_plan_id":"cebpf4jnsgd1na2vs0mg"},{"bike_id":"ac69515a-2b4c-4f03-b511-e10ff5d0241f","system_id":"levelo_inurba_marseille","lat":43.30875,"lon":5.37194,"is_reserved":false,"is_disabled":false,"rental_uris":{"android":"levelo://app?vid=ac69515a-2b4c-4f03-b511-e10ff5d0241f","ios":"levelo://app?vid=ac69515a-2b4c-4f03-b511-e10ff5d0241f"},"vehicle_type_id":"4","last_reported":1729454940,"current_range_meters":16000,"station_id":"ce4bguh2rcd13ifvqckg","pricing_plan_id":"cebpf4jnsgd1na2vs0mg"},{"bike_id":"bb503d0e-69b0-4cd4-a163-e87e48d3817f","system_id":"levelo_inurba_marseille","lat":43.30778,"lon":5.37652,"is_reserved":false,"is_disabled":false,"rental_uris":{"android":"levelo://app?vid=bb503d0e-69b0-4cd4-a163-e87e48d3817f","ios":"levelo://app?vid=bb503d0e-69b0-4cd4-a163-e87e48d3817f"},"vehicle_type_id":"4","last_reported":1729454940,"current_range_meters":38800,"station_id":"ce4bgv92rcd13ifvqcq0","pricing_plan_id":"cebpf4jnsgd1na2vs0mg"},{"bike_id":"edc38d6c-d1dc-44c3-8ceb-6a521aeb549e","system_id":"levelo_inurba_marseille","lat":43.28278,"lon":5.35068,"is_reserved":false,"is_disabled":false,"rental_uris":{"android":"levelo://app?vid=edc38d6c-d1dc-44c3-8ceb-6a521aeb549e","ios":"levelo://app?vid=edc38d6c-d1dc-44c3-8ceb-6a521aeb549e"},"vehicle_type_id":"4","last_reported":1729454940,"current_range_meters":26000,"station_id":"ce4bhbp2rcd13ifvqerg","pricing_plan_id":"cebpf4jnsgd1na2vs0mg"},{"bike_id":"250a7653-6d32-4d58-8d5c-09afc2558346","system_id":"levelo_inurba_marseille","lat":43.27912,"lon":5.3958,"is_reserved":false,"is_disabled":false,"rental_uris":{"android":"levelo://app?vid=250a7653-6d32-4d58-8d5c-09afc2558346","ios":"levelo://app?vid=250a7653-6d32-4d58-8d5c-09afc2558346"},"vehicle_type_id":"4","last_reported":1729454940,"current_range_meters":36000,"station_id":"ce4bhf92rcd13ifvqf40","pricing_plan_id":"cebpf4jnsgd1na2vs0mg"},{"bike_id":"b0e24c63-793a-4dc3-99e1-7494a931facb","system_id":"levelo_inurba_marseille","lat":43.284025,"lon":5.37512,"is_reserved":false,"is_disabled":false,"rental_uris":{"android":"levelo://app?vid=b0e24c63-793a-4dc3-99e1-7494a931facb","ios":"levelo://app?vid=b0e24c63-793a-4dc3-99e1-7494a931facb"},"vehicle_type_id":"4","last_reported":1729454940,"current_range_meters":30000,"station_id":"ce4bh9p2rcd13ifvqed0","pricing_plan_id":"cebpf4jnsgd1na2vs0mg"},{"bike_id":"bab44a62-5b4a-403f-b086-6be2f680d246","system_id":"levelo_inurba_marseille","lat":43.290131,"lon":5.381279,"is_reserved":false,"is_disabled":false,"rental_uris":{"android":"levelo://app?vid=bab44a62-5b4a-403f-b086-6be2f680d246","ios":"levelo://app?vid=bab44a62-5b4a-403f-b086-6be2f680d246"},"vehicle_type_id":"4","last_reported":1729454940,"current_range_meters":27600,"station_id":"ce4bh4p2rcd13ifvqe1g","pricing_plan_id":"cebpf4jnsgd1na2vs0mg"},{"bike_id":"eaaa5fbc-63f7-46b3-b6d4-fd6dc86ad4e8","system_id":"levelo_inurba_marseille","lat":43.23955,"lon":5.36627,"is_reserved":false,"is_disabled":false,"rental_uris":{"android":"levelo://app?vid=eaaa5fbc-63f7-46b3-b6d4-fd6dc86ad4e8","ios":"levelo://app?vid=eaaa5fbc-63f7-46b3-b6d4-fd6dc86ad4e8"},"vehicle_type_id":"4","last_reported":1729454940,"current_range_meters":38800,"station_id":"ce4bhi12rcd13ifvqfp0","pricing_plan_id":"cebpf4jnsgd1na2vs0mg"},{"bike_id":"43fb2067-1b85-4664-ba76-dcc07abd751c","system_id":"levelo_inurba_marseille","lat":43.30909,"lon":5.36851,"is_reserved":false,"is_disabled":false,"rental_uris":{"android":"levelo://app?vid=43fb2067-1b85-4664-ba76-dcc07abd751c","ios":"levelo://app?vid=43fb2067-1b85-4664-ba76-dcc07abd751c"},"vehicle_type_id":"4","last_reported":1729454940,"current_range_meters":34800,"station_id":"ce4bgn92rcd13ifvqbvg","pricing_plan_id":"cebpf4jnsgd1na2vs0mg"},{"bike_id":"2a8cfce5-93d5-4a5e-832b-148482060dca","system_id":"levelo_inurba_marseille","lat":43.32365,"lon":5.38885,"is_reserved":false,"is_disabled":false,"rental_uris":{"android":"levelo://app?vid=2a8cfce5-93d5-4a5e-832b-148482060dca","ios":"levelo://app?vid=2a8cfce5-93d5-4a5e-832b-148482060dca"},"vehicle_type_id":"4","last_reported":1729454940,"current_range_meters":22800,"station_id":"ce4bhqp2rcd13ifvqhog","pricing_plan_id":"cebpf4jnsgd1na2vs0mg"},{"bike_id":"115e3db0-037e-43f4-8fed-cc520aa5d554","system_id":"levelo_inurba_marseille","lat":43.31358,"lon":5.38497,"is_reserved":false,"is_disabled":false,"rental_uris":{"android":"levelo://app?vid=115e3db0-037e-43f4-8fed-cc520aa5d554","ios":"levelo://app?vid=115e3db0-037e-43f4-8fed-cc520aa5d554"},"vehicle_type_id":"4","last_reported":1729454940,"current_range_meters":800,"station_id":"ce4bgt92rcd13ifvqcf0","pricing_plan_id":"cebpf4jnsgd1na2vs0mg"},{"bike_id":"b2c1343a-3efb-4af2-8d17-530273fb49cc","system_id":"levelo_inurba_marseille","lat":43.33603,"lon":5.41033,"is_reserved":false,"is_disabled":false,"rental_uris":{"android":"levelo://app?vid=b2c1343a-3efb-4af2-8d17-530273fb49cc","ios":"levelo://app?vid=b2c1343a-3efb-4af2-8d17-530273fb49cc"},"vehicle_type_id":"4","last_reported":1729454940,"current_range_meters":13600,"station_id":"ce4bhqh2rcd13ifvqhmg","pricing_plan_id":"cebpf4jnsgd1na2vs0mg"},{"bike_id":"9cb0d92f-3b5d-4604-bbb8-cf8f5daee3e0","system_id":"levelo_inurba_marseille","lat":43.24648,"lon":5.38894,"is_reserved":false,"is_disabled":false,"rental_uris":{"android":"levelo://app?vid=9cb0d92f-3b5d-4604-bbb8-cf8f5daee3e0","ios":"levelo://app?vid=9cb0d92f-3b5d-4604-bbb8-cf8f5daee3e0"},"vehicle_type_id":"4","last_reported":1729454940,"current_range_meters":6400,"station_id":"ce4bhg12rcd13ifvqf60","pricing_plan_id":"cebpf4jnsgd1na2vs0mg"},{"bike_id":"70aa7570-4483-4dc5-8de4-f9dc0d4882f0","system_id":"levelo_inurba_marseille","lat":43.28459,"lon":5.38409,"is_reserved":false,"is_disabled":false,"rental_uris":{"android":"levelo://app?vid=70aa7570-4483-4dc5-8de4-f9dc0d4882f0","ios":"levelo://app?vid=70aa7570-4483-4dc5-8de4-f9dc0d4882f0"},"vehicle_type_id":"4","last_reported":1729454940,"current_range_meters":8000,"station_id":"ce4bh512rcd13ifvqe3g","pricing_plan_id":"cebpf4jnsgd1na2vs0mg"},{"bike_id":"af00502d-b5af-402e-bab9-2b06b78e3677","system_id":"levelo_inurba_marseille","lat":43.31114,"lon":5.37768,"is_reserved":false,"is_disabled":false,"rental_uris":{"android":"levelo://app?vid=af00502d-b5af-402e-bab9-2b06b78e3677","ios":"levelo://app?vid=af00502d-b5af-402e-bab9-2b06b78e3677"},"vehicle_type_id":"4","last_reported":1729454940,"current_range_meters":7200,"station_id":"ce4bgt92rcd13ifvqcg0","pricing_plan_id":"cebpf4jnsgd1na2vs0mg"},{"bike_id":"d863885c-9de8-4c1e-b0fe-4dac0fde31c8","system_id":"levelo_inurba_marseille","lat":43.261921,"lon":5.374508,"is_reserved":false,"is_disabled":false,"rental_uris":{"android":"levelo://app?vid=d863885c-9de8-4c1e-b0fe-4dac0fde31c8","ios":"levelo://app?vid=d863885c-9de8-4c1e-b0fe-4dac0fde31c8"},"vehicle_type_id":"4","last_reported":1729454940,"current_range_meters":36800,"station_id":"ce4bhgp2rcd13ifvqfc0","pricing_plan_id":"cebpf4jnsgd1na2vs0mg"},{"bike_id":"1683d216-d715-408c-8da1-7acbf6f7c18e","system_id":"levelo_inurba_marseille","lat":43.28694,"lon":5.3998,"is_reserved":false,"is_disabled":false,"rental_uris":{"android":"levelo://app?vid=1683d216-d715-408c-8da1-7acbf6f7c18e","ios":"levelo://app?vid=1683d216-d715-408c-8da1-7acbf6f7c18e"},"vehicle_type_id":"4","last_reported":1729454940,"current_range_meters":8800,"station_id":"ce4bho92rcd13ifvqh3g","pricing_plan_id":"cebpf4jnsgd1na2vs0mg"},{"bike_id":"32c8e5bb-2e87-4598-af6c-485bddbbab34","system_id":"levelo_inurba_marseille","lat":43.27967,"lon":5.38735,"is_reserved":false,"is_disabled":false,"rental_uris":{"android":"levelo://app?vid=32c8e5bb-2e87-4598-af6c-485bddbbab34","ios":"levelo://app?vid=32c8e5bb-2e87-4598-af6c-485bddbbab34"},"vehicle_type_id":"4","last_reported":1729454940,"current_range_meters":7200,"station_id":"ce4bhg12rcd13ifvqf80","pricing_plan_id":"cebpf4jnsgd1na2vs0mg"},{"bike_id":"a833175e-1305-4b25-99ef-69e8de6efc8f","system_id":"levelo_inurba_marseille","lat":43.33729,"lon":5.39184,"is_reserved":false,"is_disabled":false,"rental_uris":{"android":"levelo://app?vid=a833175e-1305-4b25-99ef-69e8de6efc8f","ios":"levelo://app?vid=a833175e-1305-4b25-99ef-69e8de6efc8f"},"vehicle_type_id":"4","last_reported":1729454940,"current_range_meters":30000,"station_id":"ce4bhr92rcd13ifvqhsg","pricing_plan_id":"cebpf4jnsgd1na2vs0mg"},{"bike_id":"c45fe0be-d587-41d6-a0e3-3d22e2e72fb2","system_id":"levelo_inurba_marseille","lat":43.30318,"lon":5.40439,"is_reserved":false,"is_disabled":false,"rental_uris":{"android":"levelo://app?vid=c45fe0be-d587-41d6-a0e3-3d22e2e72fb2","ios":"levelo://app?vid=c45fe0be-d587-41d6-a0e3-3d22e2e72fb2"},"vehicle_type_id":"4","last_reported":1729454940,"current_range_meters":8400,"station_id":"ce4bh012rcd13ifvqd10","pricing_plan_id":"cebpf4jnsgd1na2vs0mg"},{"bike_id":"f70723d8-b4b2-4c7a-a3ec-7e35204c3d04","system_id":"levelo_inurba_marseille","lat":43.31108,"lon":5.37785,"is_reserved":false,"is_disabled":false,"rental_uris":{"android":"levelo://app?vid=f70723d8-b4b2-4c7a-a3ec-7e35204c3d04","ios":"levelo://app?vid=f70723d8-b4b2-4c7a-a3ec-7e35204c3d04"},"vehicle_type_id":"4","last_reported":1729454940,"current_range_meters":15200,"station_id":"ce4bgt92rcd13ifvqcg0","pricing_plan_id":"cebpf4jnsgd1na2vs0mg"},{"bike_id":"4cf3e5d8-4f9a-4007-b965-622ecd99339e","system_id":"levelo_inurba_marseille","lat":43.31074,"lon":5.40085,"is_reserved":false,"is_disabled":false,"rental_uris":{"android":"levelo://app?vid=4cf3e5d8-4f9a-4007-b965-622ecd99339e","ios":"levelo://app?vid=4cf3e5d8-4f9a-4007-b965-622ecd99339e"},"vehicle_type_id":"4","last_reported":1729454940,"current_range_meters":7200,"station_id":"","pricing_plan_id":"cebpf4jnsgd1na2vs0mg"},{"bike_id":"3de5f9c6-824d-4fba-b9de-50e1c84c4cf7","system_id":"levelo_inurba_marseille","lat":43.28696,"lon":5.39981,"is_reserved":false,"is_disabled":false,"rental_uris":{"android":"levelo://app?vid=3de5f9c6-824d-4fba-b9de-50e1c84c4cf7","ios":"levelo://app?vid=3de5f9c6-824d-4fba-b9de-50e1c84c4cf7"},"vehicle_type_id":"4","last_reported":1729454940,"current_range_meters":6400,"station_id":"ce4bho92rcd13ifvqh3g","pricing_plan_id":"cebpf4jnsgd1na2vs0mg"},{"bike_id":"eb28c191-e5cc-4e35-8818-10ea0b1447e3","system_id":"levelo_inurba_marseille","lat":43.303,"lon":5.3691,"is_reserved":false,"is_disabled":false,"rental_uris":{"android":"levelo://app?vid=eb28c191-e5cc-4e35-8818-10ea0b1447e3","ios":"levelo://app?vid=eb28c191-e5cc-4e35-8818-10ea0b1447e3"},"vehicle_type_id":"4","last_reported":1729454940,"current_range_meters":38800,"station_id":"ce4bgqh2rcd13ifvqc5g","pricing_plan_id":"cebpf4jnsgd1na2vs0mg"},{"bike_id":"52acb39f-a57f-49d5-959f-057598bc9c4e","system_id":"levelo_inurba_marseille","lat":43.29042,"lon":5.39964,"is_reserved":false,"is_disabled":false,"rental_uris":{"android":"levelo://app?vid=52acb39f-a57f-49d5-959f-057598bc9c4e","ios":"levelo://app?vid=52acb39f-a57f-49d5-959f-057598bc9c4e"},"vehicle_type_id":"4","last_reported":1729454940,"current_range_meters":2800,"station_id":"ce4bh392rcd13ifvqdm0","pricing_plan_id":"cebpf4jnsgd1na2vs0mg"},{"bike_id":"2afa9398-54a2-4161-bdfe-0b17240da32e","system_id":"levelo_inurba_marseille","lat":43.28708,"lon":5.39982,"is_reserved":false,"is_disabled":false,"rental_uris":{"android":"levelo://app?vid=2afa9398-54a2-4161-bdfe-0b17240da32e","ios":"levelo://app?vid=2afa9398-54a2-4161-bdfe-0b17240da32e"},"vehicle_type_id":"4","last_reported":1729454940,"current_range_meters":38800,"station_id":"ce4bho92rcd13ifvqh3g","pricing_plan_id":"cebpf4jnsgd1na2vs0mg"},{"bike_id":"1843baa7-baee-4a8a-91db-846b4d5c3dcf","system_id":"levelo_inurba_marseille","lat":43.29094,"lon":5.38144,"is_reserved":false,"is_disabled":false,"rental_uris":{"android":"levelo://app?vid=1843baa7-baee-4a8a-91db-846b4d5c3dcf","ios":"levelo://app?vid=1843baa7-baee-4a8a-91db-846b4d5c3dcf"},"vehicle_type_id":"4","last_reported":1729454940,"current_range_meters":23200,"station_id":"ce4bh512rcd13ifvqe2g","pricing_plan_id":"cebpf4jnsgd1na2vs0mg"},{"bike_id":"f4590ff4-3bd1-43be-98f9-92e4e4687282","system_id":"levelo_inurba_marseille","lat":43.25823,"lon":5.39432,"is_reserved":false,"is_disabled":false,"rental_uris":{"android":"levelo://app?vid=f4590ff4-3bd1-43be-98f9-92e4e4687282","ios":"levelo://app?vid=f4590ff4-3bd1-43be-98f9-92e4e4687282"},"vehicle_type_id":"4","last_reported":1729454940,"current_range_meters":25200,"station_id":"ce4bhip2rcd13ifvqft0","pricing_plan_id":"cebpf4jnsgd1na2vs0mg"},{"bike_id":"44dbe7b3-d52f-4e77-a683-be6a7d7b31b1","system_id":"levelo_inurba_marseille","lat":43.270723,"lon":5.42284,"is_reserved":false,"is_disabled":false,"rental_uris":{"android":"levelo://app?vid=44dbe7b3-d52f-4e77-a683-be6a7d7b31b1","ios":"levelo://app?vid=44dbe7b3-d52f-4e77-a683-be6a7d7b31b1"},"vehicle_type_id":"4","last_reported":1729454940,"current_range_meters":6000,"station_id":"ce4bhk92rcd13ifvqgb0","pricing_plan_id":"cebpf4jnsgd1na2vs0mg"},{"bike_id":"931da876-d0ed-4146-82c7-6d132f483c10","system_id":"levelo_inurba_marseille","lat":43.32104,"lon":5.36778,"is_reserved":false,"is_disabled":false,"rental_uris":{"android":"levelo://app?vid=931da876-d0ed-4146-82c7-6d132f483c10","ios":"levelo://app?vid=931da876-d0ed-4146-82c7-6d132f483c10"},"vehicle_type_id":"4","last_reported":1729454940,"current_range_meters":38800,"station_id":"ce4bhrh2rcd13ifvqhug","pricing_plan_id":"cebpf4jnsgd1na2vs0mg"},{"bike_id":"ccd2662b-9426-4511-9817-bd78cd7be3c1","system_id":"levelo_inurba_marseille","lat":43.23854,"lon":5.42977,"is_reserved":false,"is_disabled":false,"rental_uris":{"android":"levelo://app?vid=ccd2662b-9426-4511-9817-bd78cd7be3c1","ios":"levelo://app?vid=ccd2662b-9426-4511-9817-bd78cd7be3c1"},"vehicle_type_id":"4","last_reported":1729454940,"current_range_meters":3600,"station_id":"","pricing_plan_id":"cebpf4jnsgd1na2vs0mg"},{"bike_id":"35f7993b-5c54-4028-8d55-9943c291cc83","system_id":"levelo_inurba_marseille","lat":43.3026,"lon":5.40081,"is_reserved":false,"is_disabled":false,"rental_uris":{"android":"levelo://app?vid=35f7993b-5c54-4028-8d55-9943c291cc83","ios":"levelo://app?vid=35f7993b-5c54-4028-8d55-9943c291cc83"},"vehicle_type_id":"4","last_reported":1729454940,"current_range_meters":8800,"station_id":"ce4bgvh2rcd13ifvqcs0","pricing_plan_id":"cebpf4jnsgd1na2vs0mg"},{"bike_id":"6eba1120-147e-4bac-b6d9-824faa8df75f","system_id":"levelo_inurba_marseille","lat":43.31324,"lon":5.39691,"is_reserved":false,"is_disabled":false,"rental_uris":{"android":"levelo://app?vid=6eba1120-147e-4bac-b6d9-824faa8df75f","ios":"levelo://app?vid=6eba1120-147e-4bac-b6d9-824faa8df75f"},"vehicle_type_id":"4","last_reported":1729454940,"current_range_meters":32800,"station_id":"ce4bgvp2rcd13ifvqcu0","pricing_plan_id":"cebpf4jnsgd1na2vs0mg"},{"bike_id":"005a74dc-32df-4824-a14f-d81f1ed63c6a","system_id":"levelo_inurba_marseille","lat":43.3078,"lon":5.376435,"is_reserved":false,"is_disabled":false,"rental_uris":{"android":"levelo://app?vid=005a74dc-32df-4824-a14f-d81f1ed63c6a","ios":"levelo://app?vid=005a74dc-32df-4824-a14f-d81f1ed63c6a"},"vehicle_type_id":"4","last_reported":1729454940,"current_range_meters":10000,"station_id":"ce4bgv92rcd13ifvqcq0","pricing_plan_id":"cebpf4jnsgd1na2vs0mg"},{"bike_id":"b5cd4a32-ddd1-4a1e-9b4c-b2d28ec47ac5","system_id":"levelo_inurba_marseille","lat":43.28105,"lon":5.37844,"is_reserved":false,"is_disabled":false,"rental_uris":{"android":"levelo://app?vid=b5cd4a32-ddd1-4a1e-9b4c-b2d28ec47ac5","ios":"levelo://app?vid=b5cd4a32-ddd1-4a1e-9b4c-b2d28ec47ac5"},"vehicle_type_id":"4","last_reported":1729454940,"current_range_meters":32000,"station_id":"ce4bha12rcd13ifvqee0","pricing_plan_id":"cebpf4jnsgd1na2vs0mg"},{"bike_id":"a4570300-b807-49a5-ae7a-f9458e08dfac","system_id":"levelo_inurba_marseille","lat":43.27813,"lon":5.39216,"is_reserved":false,"is_disabled":false,"rental_uris":{"android":"levelo://app?vid=a4570300-b807-49a5-ae7a-f9458e08dfac","ios":"levelo://app?vid=a4570300-b807-49a5-ae7a-f9458e08dfac"},"vehicle_type_id":"4","last_reported":1729454940,"current_range_meters":36000,"station_id":"ce4bhjp2rcd13ifvqga0","pricing_plan_id":"cebpf4jnsgd1na2vs0mg"},{"bike_id":"6b578d3c-d134-48e2-9662-c2d97d97ea58","system_id":"levelo_inurba_marseille","lat":43.31994,"lon":5.38155,"is_reserved":false,"is_disabled":false,"rental_uris":{"android":"levelo://app?vid=6b578d3c-d134-48e2-9662-c2d97d97ea58","ios":"levelo://app?vid=6b578d3c-d134-48e2-9662-c2d97d97ea58"},"vehicle_type_id":"4","last_reported":1729454940,"current_range_meters":37600,"station_id":"ce4bhr12rcd13ifvqhpg","pricing_plan_id":"cebpf4jnsgd1na2vs0mg"},{"bike_id":"60054e84-c649-49a6-8a62-beec3c569f32","system_id":"levelo_inurba_marseille","lat":43.30218,"lon":5.39465,"is_reserved":false,"is_disabled":false,"rental_uris":{"android":"levelo://app?vid=60054e84-c649-49a6-8a62-beec3c569f32","ios":"levelo://app?vid=60054e84-c649-49a6-8a62-beec3c569f32"},"vehicle_type_id":"4","last_reported":1729454940,"current_range_meters":0,"station_id":"ce4bh0p2rcd13ifvqd70","pricing_plan_id":"cebpf4jnsgd1na2vs0mg"},{"bike_id":"83341eed-4a77-4ec8-936f-2be77f1d3b59","system_id":"levelo_inurba_marseille","lat":43.30214,"lon":5.3946,"is_reserved":false,"is_disabled":false,"rental_uris":{"android":"levelo://app?vid=83341eed-4a77-4ec8-936f-2be77f1d3b59","ios":"levelo://app?vid=83341eed-4a77-4ec8-936f-2be77f1d3b59"},"vehicle_type_id":"4","last_reported":1729454940,"current_range_meters":0,"station_id":"ce4bh0p2rcd13ifvqd70","pricing_plan_id":"cebpf4jnsgd1na2vs0mg"},{"bike_id":"ac3708c4-ecfe-4ffd-893a-462d2a9ed561","system_id":"levelo_inurba_marseille","lat":43.23171,"lon":5.39992,"is_reserved":false,"is_disabled":false,"rental_uris":{"android":"levelo://app?vid=ac3708c4-ecfe-4ffd-893a-462d2a9ed561","ios":"levelo://app?vid=ac3708c4-ecfe-4ffd-893a-462d2a9ed561"},"vehicle_type_id":"4","last_reported":1729454940,"current_range_meters":38800,"station_id":"ce4bhn12rcd13ifvqgqg","pricing_plan_id":"cebpf4jnsgd1na2vs0mg"},{"bike_id":"813f8a68-8dee-42ee-821c-e07a4137856f","system_id":"levelo_inurba_marseille","lat":43.27913,"lon":5.37998,"is_reserved":false,"is_disabled":false,"rental_uris":{"android":"levelo://app?vid=813f8a68-8dee-42ee-821c-e07a4137856f","ios":"levelo://app?vid=813f8a68-8dee-42ee-821c-e07a4137856f"},"vehicle_type_id":"4","last_reported":1729454940,"current_range_meters":9200,"station_id":"ce4bhf92rcd13ifvqf50","pricing_plan_id":"cebpf4jnsgd1na2vs0mg"},{"bike_id":"a26636ff-e6a9-465f-8584-c6bc1fb9aacd","system_id":"levelo_inurba_marseille","lat":43.2871,"lon":5.37945,"is_reserved":false,"is_disabled":false,"rental_uris":{"android":"levelo://app?vid=a26636ff-e6a9-465f-8584-c6bc1fb9aacd","ios":"levelo://app?vid=a26636ff-e6a9-465f-8584-c6bc1fb9aacd"},"vehicle_type_id":"4","last_reported":1729454940,"current_range_meters":38800,"station_id":"ce4bh9p2rcd13ifvqec0","pricing_plan_id":"cebpf4jnsgd1na2vs0mg"},{"bike_id":"fce6569e-dff2-49ce-8b42-ef6df9180363","system_id":"levelo_inurba_marseille","lat":43.28402,"lon":5.37513,"is_reserved":false,"is_disabled":false,"rental_uris":{"android":"levelo://app?vid=fce6569e-dff2-49ce-8b42-ef6df9180363","ios":"levelo://app?vid=fce6569e-dff2-49ce-8b42-ef6df9180363"},"vehicle_type_id":"4","last_reported":1729454940,"current_range_meters":30400,"station_id":"ce4bh412rcd13ifvqds0","pricing_plan_id":"cebpf4jnsgd1na2vs0mg"},{"bike_id":"ed2077cb-cfc1-4f27-9e92-a3a506990a71","system_id":"levelo_inurba_marseille","lat":43.30324,"lon":5.40446,"is_reserved":false,"is_disabled":false,"rental_uris":{"android":"levelo://app?vid=ed2077cb-cfc1-4f27-9e92-a3a506990a71","ios":"levelo://app?vid=ed2077cb-cfc1-4f27-9e92-a3a506990a71"},"vehicle_type_id":"4","last_reported":1729454940,"current_range_meters":6800,"station_id":"ce4bh012rcd13ifvqd10","pricing_plan_id":"cebpf4jnsgd1na2vs0mg"},{"bike_id":"7eb2ad80-82af-45b4-99ce-498ba689728e","system_id":"levelo_inurba_marseille","lat":43.30145,"lon":5.38058,"is_reserved":false,"is_disabled":false,"rental_uris":{"android":"levelo://app?vid=7eb2ad80-82af-45b4-99ce-498ba689728e","ios":"levelo://app?vid=7eb2ad80-82af-45b4-99ce-498ba689728e"},"vehicle_type_id":"4","last_reported":1729454940,"current_range_meters":28800,"station_id":"ce4bgjp2rcd13ifvqbh0","pricing_plan_id":"cebpf4jnsgd1na2vs0mg"},{"bike_id":"f3b18d4c-688e-4e02-9104-7f1d559134af","system_id":"levelo_inurba_marseille","lat":43.32105,"lon":5.36768,"is_reserved":false,"is_disabled":false,"rental_uris":{"android":"levelo://app?vid=f3b18d4c-688e-4e02-9104-7f1d559134af","ios":"levelo://app?vid=f3b18d4c-688e-4e02-9104-7f1d559134af"},"vehicle_type_id":"4","last_reported":1729454940,"current_range_meters":35200,"station_id":"ce4bhrh2rcd13ifvqhug","pricing_plan_id":"cebpf4jnsgd1na2vs0mg"},{"bike_id":"98863c64-69b0-4841-9bc4-8dbeea9bb855","system_id":"levelo_inurba_marseille","lat":43.30939,"lon":5.40141,"is_reserved":false,"is_disabled":false,"rental_uris":{"android":"levelo://app?vid=98863c64-69b0-4841-9bc4-8dbeea9bb855","ios":"levelo://app?vid=98863c64-69b0-4841-9bc4-8dbeea9bb855"},"vehicle_type_id":"4","last_reported":1729454940,"current_range_meters":23200,"station_id":"ce4bgvp2rcd13ifvqct0","pricing_plan_id":"cebpf4jnsgd1na2vs0mg"},{"bike_id":"062124db-4122-4fdd-9a6e-6533ec2073f0","system_id":"levelo_inurba_marseille","lat":43.23152,"lon":5.43706,"is_reserved":false,"is_disabled":false,"rental_uris":{"android":"levelo://app?vid=062124db-4122-4fdd-9a6e-6533ec2073f0","ios":"levelo://app?vid=062124db-4122-4fdd-9a6e-6533ec2073f0"},"vehicle_type_id":"4","last_reported":1729454940,"current_range_meters":10800,"station_id":"ce4bhmp2rcd13ifvqgog","pricing_plan_id":"cebpf4jnsgd1na2vs0mg"},{"bike_id":"cc36c76b-afac-4d90-87ad-c1ef90269180","system_id":"levelo_inurba_marseille","lat":43.25118,"lon":5.40325,"is_reserved":false,"is_disabled":false,"rental_uris":{"android":"levelo://app?vid=cc36c76b-afac-4d90-87ad-c1ef90269180","ios":"levelo://app?vid=cc36c76b-afac-4d90-87ad-c1ef90269180"},"vehicle_type_id":"4","last_reported":1729454940,"current_range_meters":9600,"station_id":"ce4bhlh2rcd13ifvqgig","pricing_plan_id":"cebpf4jnsgd1na2vs0mg"},{"bike_id":"705a5fb9-b992-4b7b-86af-9df60b70b890","system_id":"levelo_inurba_marseille","lat":43.27173,"lon":5.40989,"is_reserved":false,"is_disabled":false,"rental_uris":{"android":"levelo://app?vid=705a5fb9-b992-4b7b-86af-9df60b70b890","ios":"levelo://app?vid=705a5fb9-b992-4b7b-86af-9df60b70b890"},"vehicle_type_id":"4","last_reported":1729454940,"current_range_meters":10000,"station_id":"ce4bhl12rcd13ifvqgf0","pricing_plan_id":"cebpf4jnsgd1na2vs0mg"},{"bike_id":"f4136449-9460-4030-a711-33bcf5b01ae1","system_id":"levelo_inurba_marseille","lat":43.28671,"lon":5.36353,"is_reserved":false,"is_disabled":false,"rental_uris":{"android":"levelo://app?vid=f4136449-9460-4030-a711-33bcf5b01ae1","ios":"levelo://app?vid=f4136449-9460-4030-a711-33bcf5b01ae1"},"vehicle_type_id":"4","last_reported":1729454940,"current_range_meters":28000,"station_id":"ce4bhah2rcd13ifvqej0","pricing_plan_id":"cebpf4jnsgd1na2vs0mg"},{"bike_id":"3bf2ae1c-49b2-4936-93d0-295eb17bee45","system_id":"levelo_inurba_marseille","lat":43.23063,"lon":5.35488,"is_reserved":false,"is_disabled":false,"rental_uris":{"android":"levelo://app?vid=3bf2ae1c-49b2-4936-93d0-295eb17bee45","ios":"levelo://app?vid=3bf2ae1c-49b2-4936-93d0-295eb17bee45"},"vehicle_type_id":"4","last_reported":1729454940,"current_range_meters":38800,"station_id":"cpo3342slgdg3j2ifvpg","pricing_plan_id":"cebpf4jnsgd1na2vs0mg"},{"bike_id":"a4bf4c37-492b-43fb-8327-d4e18ba08dac","system_id":"levelo_inurba_marseille","lat":43.28274,"lon":5.35066,"is_reserved":false,"is_disabled":false,"rental_uris":{"android":"levelo://app?vid=a4bf4c37-492b-43fb-8327-d4e18ba08dac","ios":"levelo://app?vid=a4bf4c37-492b-43fb-8327-d4e18ba08dac"},"vehicle_type_id":"4","last_reported":1729454940,"current_range_meters":37600,"station_id":"ce4bhbp2rcd13ifvqerg","pricing_plan_id":"cebpf4jnsgd1na2vs0mg"},{"bike_id":"a3b3b3a2-9ae8-4569-8f2c-15c673574ef1","system_id":"levelo_inurba_marseille","lat":43.29879,"lon":5.39735,"is_reserved":false,"is_disabled":false,"rental_uris":{"android":"levelo://app?vid=a3b3b3a2-9ae8-4569-8f2c-15c673574ef1","ios":"levelo://app?vid=a3b3b3a2-9ae8-4569-8f2c-15c673574ef1"},"vehicle_type_id":"4","last_reported":1729454940,"current_range_meters":33200,"station_id":"ce4bh0h2rcd13ifvqd50","pricing_plan_id":"cebpf4jnsgd1na2vs0mg"},{"bike_id":"b97b4fe2-68fe-479f-b0a4-204c940ac826","system_id":"levelo_inurba_marseille","lat":43.29521,"lon":5.39399,"is_reserved":false,"is_disabled":false,"rental_uris":{"android":"levelo://app?vid=b97b4fe2-68fe-479f-b0a4-204c940ac826","ios":"levelo://app?vid=b97b4fe2-68fe-479f-b0a4-204c940ac826"},"vehicle_type_id":"4","last_reported":1729454940,"current_range_meters":4800,"station_id":"ce4bh292rcd13ifvqdf0","pricing_plan_id":"cebpf4jnsgd1na2vs0mg"},{"bike_id":"666e0536-0420-4706-8e49-6450568c8c72","system_id":"levelo_inurba_marseille","lat":43.28574,"lon":5.39498,"is_reserved":false,"is_disabled":false,"rental_uris":{"android":"levelo://app?vid=666e0536-0420-4706-8e49-6450568c8c72","ios":"levelo://app?vid=666e0536-0420-4706-8e49-6450568c8c72"},"vehicle_type_id":"4","last_reported":1729454940,"current_range_meters":22000,"station_id":"ce4bh292rcd13ifvqdg0","pricing_plan_id":"cebpf4jnsgd1na2vs0mg"},{"bike_id":"ea93ad3b-2f63-4f71-9050-1fa0b897a3ad","system_id":"levelo_inurba_marseille","lat":43.27568,"lon":5.38397,"is_reserved":false,"is_disabled":false,"rental_uris":{"android":"levelo://app?vid=ea93ad3b-2f63-4f71-9050-1fa0b897a3ad","ios":"levelo://app?vid=ea93ad3b-2f63-4f71-9050-1fa0b897a3ad"},"vehicle_type_id":"4","last_reported":1729454940,"current_range_meters":6800,"station_id":"ce4bhh92rcd13ifvqfi0","pricing_plan_id":"cebpf4jnsgd1na2vs0mg"},{"bike_id":"72227f72-be48-4182-8659-01fea53b4691","system_id":"levelo_inurba_marseille","lat":43.28366,"lon":5.38624,"is_reserved":false,"is_disabled":false,"rental_uris":{"android":"levelo://app?vid=72227f72-be48-4182-8659-01fea53b4691","ios":"levelo://app?vid=72227f72-be48-4182-8659-01fea53b4691"},"vehicle_type_id":"4","last_reported":1729454940,"current_range_meters":8800,"station_id":"ce4bh492rcd13ifvqdvg","pricing_plan_id":"cebpf4jnsgd1na2vs0mg"},{"bike_id":"62738b42-4d14-4992-87b3-65556f57f437","system_id":"levelo_inurba_marseille","lat":43.24392,"lon":5.37058,"is_reserved":false,"is_disabled":false,"rental_uris":{"android":"levelo://app?vid=62738b42-4d14-4992-87b3-65556f57f437","ios":"levelo://app?vid=62738b42-4d14-4992-87b3-65556f57f437"},"vehicle_type_id":"4","last_reported":1729454940,"current_range_meters":32000,"station_id":"ce4bhhh2rcd13ifvqfk0","pricing_plan_id":"cebpf4jnsgd1na2vs0mg"},{"bike_id":"11ed6e86-4250-407e-9b4e-cdb0f566a99c","system_id":"levelo_inurba_marseille","lat":43.30142,"lon":5.3742,"is_reserved":false,"is_disabled":false,"rental_uris":{"android":"levelo://app?vid=11ed6e86-4250-407e-9b4e-cdb0f566a99c","ios":"levelo://app?vid=11ed6e86-4250-407e-9b4e-cdb0f566a99c"},"vehicle_type_id":"4","last_reported":1729454940,"current_range_meters":36800,"station_id":"ce4bgs92rcd13ifvqcc0","pricing_plan_id":"cebpf4jnsgd1na2vs0mg"},{"bike_id":"3208a7db-b2ba-42d5-b984-b06e7befcf38","system_id":"levelo_inurba_marseille","lat":43.31065,"lon":5.38356,"is_reserved":false,"is_disabled":false,"rental_uris":{"android":"levelo://app?vid=3208a7db-b2ba-42d5-b984-b06e7befcf38","ios":"levelo://app?vid=3208a7db-b2ba-42d5-b984-b06e7befcf38"},"vehicle_type_id":"4","last_reported":1729454940,"current_range_meters":38800,"station_id":"ce4bgv92rcd13ifvqcr0","pricing_plan_id":"cebpf4jnsgd1na2vs0mg"},{"bike_id":"7b7e3005-1f16-4474-817b-c8e570f166df","system_id":"levelo_inurba_marseille","lat":43.2957,"lon":5.39966,"is_reserved":false,"is_disabled":false,"rental_uris":{"android":"levelo://app?vid=7b7e3005-1f16-4474-817b-c8e570f166df","ios":"levelo://app?vid=7b7e3005-1f16-4474-817b-c8e570f166df"},"vehicle_type_id":"4","last_reported":1729454940,"current_range_meters":39200,"station_id":"ce4bh312rcd13ifvqdj0","pricing_plan_id":"cebpf4jnsgd1na2vs0mg"},{"bike_id":"342bb506-8e82-4fe8-8123-2298181f1aa1","system_id":"levelo_inurba_marseille","lat":43.30797,"lon":5.38167,"is_reserved":false,"is_disabled":false,"rental_uris":{"android":"levelo://app?vid=342bb506-8e82-4fe8-8123-2298181f1aa1","ios":"levelo://app?vid=342bb506-8e82-4fe8-8123-2298181f1aa1"},"vehicle_type_id":"4","last_reported":1729454940,"current_range_meters":35200,"station_id":"","pricing_plan_id":"cebpf4jnsgd1na2vs0mg"},{"bike_id":"c16267ac-2d87-4818-950c-fd5fca764697","system_id":"levelo_inurba_marseille","lat":43.309064,"lon":5.368447,"is_reserved":false,"is_disabled":false,"rental_uris":{"android":"levelo://app?vid=c16267ac-2d87-4818-950c-fd5fca764697","ios":"levelo://app?vid=c16267ac-2d87-4818-950c-fd5fca764697"},"vehicle_type_id":"4","last_reported":1729454940,"current_range_meters":6800,"station_id":"ce4bgi12rcd13ifvqb70","pricing_plan_id":"cebpf4jnsgd1na2vs0mg"},{"bike_id":"7f09bd63-63b5-4c96-8f6f-4f9e976785a4","system_id":"levelo_inurba_marseille","lat":43.27562,"lon":5.38425,"is_reserved":false,"is_disabled":false,"rental_uris":{"android":"levelo://app?vid=7f09bd63-63b5-4c96-8f6f-4f9e976785a4","ios":"levelo://app?vid=7f09bd63-63b5-4c96-8f6f-4f9e976785a4"},"vehicle_type_id":"4","last_reported":1729454940,"current_range_meters":28800,"station_id":"ce4bhh92rcd13ifvqfi0","pricing_plan_id":"cebpf4jnsgd1na2vs0mg"},{"bike_id":"be97444c-7d7e-4876-8c8c-f8ff3d175e7d","system_id":"levelo_inurba_marseille","lat":43.298523,"lon":5.376434,"is_reserved":false,"is_disabled":false,"rental_uris":{"android":"levelo://app?vid=be97444c-7d7e-4876-8c8c-f8ff3d175e7d","ios":"levelo://app?vid=be97444c-7d7e-4876-8c8c-f8ff3d175e7d"},"vehicle_type_id":"4","last_reported":1729454940,"current_range_meters":16000,"station_id":"ce4bgop2rcd13ifvqc1g","pricing_plan_id":"cebpf4jnsgd1na2vs0mg"},{"bike_id":"8ac79dde-f01d-4d5c-bab3-180502f73068","system_id":"levelo_inurba_marseille","lat":43.29911,"lon":5.37468,"is_reserved":false,"is_disabled":false,"rental_uris":{"android":"levelo://app?vid=8ac79dde-f01d-4d5c-bab3-180502f73068","ios":"levelo://app?vid=8ac79dde-f01d-4d5c-bab3-180502f73068"},"vehicle_type_id":"4","last_reported":1729454940,"current_range_meters":31200,"station_id":"ce4bgjh2rcd13ifvqbg0","pricing_plan_id":"cebpf4jnsgd1na2vs0mg"},{"bike_id":"639cf9d6-ef22-4646-a7a7-04edb947934a","system_id":"levelo_inurba_marseille","lat":43.29191,"lon":5.39325,"is_reserved":false,"is_disabled":false,"rental_uris":{"android":"levelo://app?vid=639cf9d6-ef22-4646-a7a7-04edb947934a","ios":"levelo://app?vid=639cf9d6-ef22-4646-a7a7-04edb947934a"},"vehicle_type_id":"4","last_reported":1729454940,"current_range_meters":38800,"station_id":"ce4bh192rcd13ifvqdd0","pricing_plan_id":"cebpf4jnsgd1na2vs0mg"},{"bike_id":"418bd683-b6c0-4394-90d1-454d0664a04c","system_id":"levelo_inurba_marseille","lat":43.33605,"lon":5.41033,"is_reserved":false,"is_disabled":false,"rental_uris":{"android":"levelo://app?vid=418bd683-b6c0-4394-90d1-454d0664a04c","ios":"levelo://app?vid=418bd683-b6c0-4394-90d1-454d0664a04c"},"vehicle_type_id":"4","last_reported":1729454940,"current_range_meters":38800,"station_id":"ce4bhqh2rcd13ifvqhmg","pricing_plan_id":"cebpf4jnsgd1na2vs0mg"},{"bike_id":"483d3aed-f2c1-44d2-8847-9865e5319b0a","system_id":"levelo_inurba_marseille","lat":43.30082,"lon":5.39075,"is_reserved":false,"is_disabled":false,"rental_uris":{"android":"levelo://app?vid=483d3aed-f2c1-44d2-8847-9865e5319b0a","ios":"levelo://app?vid=483d3aed-f2c1-44d2-8847-9865e5319b0a"},"vehicle_type_id":"4","last_reported":1729454940,"current_range_meters":11600,"station_id":"ce4bh192rcd13ifvqdb0","pricing_plan_id":"cebpf4jnsgd1na2vs0mg"},{"bike_id":"97af5e3f-c93d-4cbe-a1a0-24c9e5a133d8","system_id":"levelo_inurba_marseille","lat":43.27662,"lon":5.38918,"is_reserved":false,"is_disabled":false,"rental_uris":{"android":"levelo://app?vid=97af5e3f-c93d-4cbe-a1a0-24c9e5a133d8","ios":"levelo://app?vid=97af5e3f-c93d-4cbe-a1a0-24c9e5a133d8"},"vehicle_type_id":"4","last_reported":1729454940,"current_range_meters":30000,"station_id":"ce4bhi12rcd13ifvqfo0","pricing_plan_id":"cebpf4jnsgd1na2vs0mg"},{"bike_id":"f59a9b71-873d-44f4-891e-235d78219f75","system_id":"levelo_inurba_marseille","lat":43.28697,"lon":5.39988,"is_reserved":false,"is_disabled":false,"rental_uris":{"android":"levelo://app?vid=f59a9b71-873d-44f4-891e-235d78219f75","ios":"levelo://app?vid=f59a9b71-873d-44f4-891e-235d78219f75"},"vehicle_type_id":"4","last_reported":1729454940,"current_range_meters":9600,"station_id":"ce4bho92rcd13ifvqh3g","pricing_plan_id":"cebpf4jnsgd1na2vs0mg"},{"bike_id":"92d49266-4e64-4017-8b59-4b1b0cb8630d","system_id":"levelo_inurba_marseille","lat":43.31721,"lon":5.37738,"is_reserved":false,"is_disabled":false,"rental_uris":{"android":"levelo://app?vid=92d49266-4e64-4017-8b59-4b1b0cb8630d","ios":"levelo://app?vid=92d49266-4e64-4017-8b59-4b1b0cb8630d"},"vehicle_type_id":"4","last_reported":1729454940,"current_range_meters":39200,"station_id":"ce4bgth2rcd13ifvqch0","pricing_plan_id":"cebpf4jnsgd1na2vs0mg"},{"bike_id":"ca9652e1-b360-4039-a82c-ba9272ccce60","system_id":"levelo_inurba_marseille","lat":43.31756,"lon":5.39025,"is_reserved":false,"is_disabled":false,"rental_uris":{"android":"levelo://app?vid=ca9652e1-b360-4039-a82c-ba9272ccce60","ios":"levelo://app?vid=ca9652e1-b360-4039-a82c-ba9272ccce60"},"vehicle_type_id":"4","last_reported":1729454940,"current_range_meters":36800,"station_id":"ce4bhqp2rcd13ifvqhng","pricing_plan_id":"cebpf4jnsgd1na2vs0mg"},{"bike_id":"14d62cba-7ac8-4347-a3e7-df640ccb9e67","system_id":"levelo_inurba_marseille","lat":43.27373,"lon":5.36243,"is_reserved":false,"is_disabled":false,"rental_uris":{"android":"levelo://app?vid=14d62cba-7ac8-4347-a3e7-df640ccb9e67","ios":"levelo://app?vid=14d62cba-7ac8-4347-a3e7-df640ccb9e67"},"vehicle_type_id":"4","last_reported":1729454940,"current_range_meters":28000,"station_id":"ce4bhbh2rcd13ifvqeo0","pricing_plan_id":"cebpf4jnsgd1na2vs0mg"},{"bike_id":"10c6c932-2c29-452d-b986-45acaefd33d7","system_id":"levelo_inurba_marseille","lat":43.24656,"lon":5.38161,"is_reserved":false,"is_disabled":false,"rental_uris":{"android":"levelo://app?vid=10c6c932-2c29-452d-b986-45acaefd33d7","ios":"levelo://app?vid=10c6c932-2c29-452d-b986-45acaefd33d7"},"vehicle_type_id":"4","last_reported":1729454940,"current_range_meters":18000,"station_id":"ce4bhih2rcd13ifvqfr0","pricing_plan_id":"cebpf4jnsgd1na2vs0mg"},{"bike_id":"585803df-5067-4a9d-864b-78d7d2337e02","system_id":"levelo_inurba_marseille","lat":43.27684,"lon":5.38857,"is_reserved":false,"is_disabled":false,"rental_uris":{"android":"levelo://app?vid=585803df-5067-4a9d-864b-78d7d2337e02","ios":"levelo://app?vid=585803df-5067-4a9d-864b-78d7d2337e02"},"vehicle_type_id":"4","last_reported":1729454940,"current_range_meters":38800,"station_id":"ce4bhi12rcd13ifvqfo0","pricing_plan_id":"cebpf4jnsgd1na2vs0mg"},{"bike_id":"0c76e86e-401c-46ad-a4d9-6a511692ed21","system_id":"levelo_inurba_marseille","lat":43.28729,"lon":5.36077,"is_reserved":false,"is_disabled":false,"rental_uris":{"android":"levelo://app?vid=0c76e86e-401c-46ad-a4d9-6a511692ed21","ios":"levelo://app?vid=0c76e86e-401c-46ad-a4d9-6a511692ed21"},"vehicle_type_id":"4","last_reported":1729454940,"current_range_meters":38800,"station_id":"cki0cbj6b192h4jlfktg","pricing_plan_id":"cebpf4jnsgd1na2vs0mg"},{"bike_id":"f326fa07-39d5-4dd2-b7a0-e8004ebc7da5","system_id":"levelo_inurba_marseille","lat":43.25406,"lon":5.42119,"is_reserved":false,"is_disabled":false,"rental_uris":{"android":"levelo://app?vid=f326fa07-39d5-4dd2-b7a0-e8004ebc7da5","ios":"levelo://app?vid=f326fa07-39d5-4dd2-b7a0-e8004ebc7da5"},"vehicle_type_id":"4","last_reported":1729454940,"current_range_meters":6800,"station_id":"","pricing_plan_id":"cebpf4jnsgd1na2vs0mg"},{"bike_id":"d844ea63-bb51-4766-9f2a-609c7913691a","system_id":"levelo_inurba_marseille","lat":43.29042,"lon":5.38637,"is_reserved":false,"is_disabled":false,"rental_uris":{"android":"levelo://app?vid=d844ea63-bb51-4766-9f2a-609c7913691a","ios":"levelo://app?vid=d844ea63-bb51-4766-9f2a-609c7913691a"},"vehicle_type_id":"4","last_reported":1729454940,"current_range_meters":38800,"station_id":"ce4bh4p2rcd13ifvqe0g","pricing_plan_id":"cebpf4jnsgd1na2vs0mg"},{"bike_id":"40772cd7-9031-4fbb-9a81-c2345e97acc8","system_id":"levelo_inurba_marseille","lat":43.26026,"lon":5.37599,"is_reserved":false,"is_disabled":false,"rental_uris":{"android":"levelo://app?vid=40772cd7-9031-4fbb-9a81-c2345e97acc8","ios":"levelo://app?vid=40772cd7-9031-4fbb-9a81-c2345e97acc8"},"vehicle_type_id":"4","last_reported":1729454940,"current_range_meters":26800,"station_id":"ce4bhgh2rcd13ifvqfa0","pricing_plan_id":"cebpf4jnsgd1na2vs0mg"},{"bike_id":"1b4eae98-75f5-4b33-a51d-351a1b894496","system_id":"levelo_inurba_marseille","lat":43.29969,"lon":5.38498,"is_reserved":false,"is_disabled":false,"rental_uris":{"android":"levelo://app?vid=1b4eae98-75f5-4b33-a51d-351a1b894496","ios":"levelo://app?vid=1b4eae98-75f5-4b33-a51d-351a1b894496"},"vehicle_type_id":"4","last_reported":1729454940,"current_range_meters":38000,"station_id":"ce4bgj92rcd13ifvqbd0","pricing_plan_id":"cebpf4jnsgd1na2vs0mg"},{"bike_id":"f4b25c8b-b336-48b8-b171-c338a860aa94","system_id":"levelo_inurba_marseille","lat":43.29413,"lon":5.38629,"is_reserved":false,"is_disabled":false,"rental_uris":{"android":"levelo://app?vid=f4b25c8b-b336-48b8-b171-c338a860aa94","ios":"levelo://app?vid=f4b25c8b-b336-48b8-b171-c338a860aa94"},"vehicle_type_id":"4","last_reported":1729454940,"current_range_meters":20800,"station_id":"ce4bh2h2rcd13ifvqdh0","pricing_plan_id":"cebpf4jnsgd1na2vs0mg"},{"bike_id":"330d9e00-72c2-48cb-9f82-64a1aecc264a","system_id":"levelo_inurba_marseille","lat":43.27561,"lon":5.38427,"is_reserved":false,"is_disabled":false,"rental_uris":{"android":"levelo://app?vid=330d9e00-72c2-48cb-9f82-64a1aecc264a","ios":"levelo://app?vid=330d9e00-72c2-48cb-9f82-64a1aecc264a"},"vehicle_type_id":"4","last_reported":1729454940,"current_range_meters":32000,"station_id":"ce4bhh92rcd13ifvqfi0","pricing_plan_id":"cebpf4jnsgd1na2vs0mg"},{"bike_id":"09c742b9-67aa-44f1-b833-7cf3d42021e8","system_id":"levelo_inurba_marseille","lat":43.2558,"lon":5.38235,"is_reserved":false,"is_disabled":false,"rental_uris":{"android":"levelo://app?vid=09c742b9-67aa-44f1-b833-7cf3d42021e8","ios":"levelo://app?vid=09c742b9-67aa-44f1-b833-7cf3d42021e8"},"vehicle_type_id":"4","last_reported":1729454940,"current_range_meters":36400,"station_id":"ce4bhih2rcd13ifvqfs0","pricing_plan_id":"cebpf4jnsgd1na2vs0mg"},{"bike_id":"23b1c885-88f0-49bc-bb2c-626f9c5bd0c7","system_id":"levelo_inurba_marseille","lat":43.31714,"lon":5.3775,"is_reserved":false,"is_disabled":false,"rental_uris":{"android":"levelo://app?vid=23b1c885-88f0-49bc-bb2c-626f9c5bd0c7","ios":"levelo://app?vid=23b1c885-88f0-49bc-bb2c-626f9c5bd0c7"},"vehicle_type_id":"4","last_reported":1729454940,"current_range_meters":3600,"station_id":"ce4bgth2rcd13ifvqch0","pricing_plan_id":"cebpf4jnsgd1na2vs0mg"},{"bike_id":"1d045b29-4da5-4417-9986-d082ac81c662","system_id":"levelo_inurba_marseille","lat":43.29256,"lon":5.38438,"is_reserved":false,"is_disabled":false,"rental_uris":{"android":"levelo://app?vid=1d045b29-4da5-4417-9986-d082ac81c662","ios":"levelo://app?vid=1d045b29-4da5-4417-9986-d082ac81c662"},"vehicle_type_id":"4","last_reported":1729454940,"current_range_meters":24800,"station_id":"","pricing_plan_id":"cebpf4jnsgd1na2vs0mg"},{"bike_id":"a4988356-8192-430a-8cc6-0d4d4957e38b","system_id":"levelo_inurba_marseille","lat":43.30794,"lon":5.43522,"is_reserved":false,"is_disabled":false,"rental_uris":{"android":"levelo://app?vid=a4988356-8192-430a-8cc6-0d4d4957e38b","ios":"levelo://app?vid=a4988356-8192-430a-8cc6-0d4d4957e38b"},"vehicle_type_id":"4","last_reported":1729454940,"current_range_meters":20000,"station_id":"ce4bhph2rcd13ifvqheg","pricing_plan_id":"cebpf4jnsgd1na2vs0mg"},{"bike_id":"304e116c-22b7-4fec-8df3-5316f5ceb0f4","system_id":"levelo_inurba_marseille","lat":43.33729,"lon":5.3919,"is_reserved":false,"is_disabled":false,"rental_uris":{"android":"levelo://app?vid=304e116c-22b7-4fec-8df3-5316f5ceb0f4","ios":"levelo://app?vid=304e116c-22b7-4fec-8df3-5316f5ceb0f4"},"vehicle_type_id":"4","last_reported":1729454940,"current_range_meters":39200,"station_id":"ce4bhr92rcd13ifvqhsg","pricing_plan_id":"cebpf4jnsgd1na2vs0mg"},{"bike_id":"54e71ec7-7ea0-4c56-aff1-902c4c15f330","system_id":"levelo_inurba_marseille","lat":43.31476,"lon":5.37309,"is_reserved":false,"is_disabled":false,"rental_uris":{"android":"levelo://app?vid=54e71ec7-7ea0-4c56-aff1-902c4c15f330","ios":"levelo://app?vid=54e71ec7-7ea0-4c56-aff1-902c4c15f330"},"vehicle_type_id":"4","last_reported":1729454940,"current_range_meters":6000,"station_id":"ce4bgt12rcd13ifvqcd0","pricing_plan_id":"cebpf4jnsgd1na2vs0mg"},{"bike_id":"ce1c12f7-8ab8-454d-99ae-97da1510d2cd","system_id":"levelo_inurba_marseille","lat":43.29304,"lon":5.37451,"is_reserved":false,"is_disabled":false,"rental_uris":{"android":"levelo://app?vid=ce1c12f7-8ab8-454d-99ae-97da1510d2cd","ios":"levelo://app?vid=ce1c12f7-8ab8-454d-99ae-97da1510d2cd"},"vehicle_type_id":"4","last_reported":1729454940,"current_range_meters":2000,"station_id":"ce4bgi12rcd13ifvqb70","pricing_plan_id":"cebpf4jnsgd1na2vs0mg"},{"bike_id":"8682c74e-eb4a-4a10-81a7-668f58678ba5","system_id":"levelo_inurba_marseille","lat":43.31118,"lon":5.37767,"is_reserved":false,"is_disabled":false,"rental_uris":{"android":"levelo://app?vid=8682c74e-eb4a-4a10-81a7-668f58678ba5","ios":"levelo://app?vid=8682c74e-eb4a-4a10-81a7-668f58678ba5"},"vehicle_type_id":"4","last_reported":1729454940,"current_range_meters":30400,"station_id":"ce4bgt92rcd13ifvqcg0","pricing_plan_id":"cebpf4jnsgd1na2vs0mg"},{"bike_id":"c2a1a3f1-69a1-4926-92aa-70f9feb4505e","system_id":"levelo_inurba_marseille","lat":43.31533,"lon":5.38037,"is_reserved":false,"is_disabled":false,"rental_uris":{"android":"levelo://app?vid=c2a1a3f1-69a1-4926-92aa-70f9feb4505e","ios":"levelo://app?vid=c2a1a3f1-69a1-4926-92aa-70f9feb4505e"},"vehicle_type_id":"4","last_reported":1729454940,"current_range_meters":38800,"station_id":"ce4bhsp2rcd13ifvqi50","pricing_plan_id":"cebpf4jnsgd1na2vs0mg"},{"bike_id":"be50e200-7523-4429-ad85-273908308ab7","system_id":"levelo_inurba_marseille","lat":43.23962,"lon":5.36623,"is_reserved":false,"is_disabled":false,"rental_uris":{"android":"levelo://app?vid=be50e200-7523-4429-ad85-273908308ab7","ios":"levelo://app?vid=be50e200-7523-4429-ad85-273908308ab7"},"vehicle_type_id":"4","last_reported":1729454940,"current_range_meters":38800,"station_id":"ce4bhi12rcd13ifvqfp0","pricing_plan_id":"cebpf4jnsgd1na2vs0mg"},{"bike_id":"8e90573b-2e30-4c9e-8066-8d8edab1bdf0","system_id":"levelo_inurba_marseille","lat":43.30138,"lon":5.37422,"is_reserved":false,"is_disabled":false,"rental_uris":{"android":"levelo://app?vid=8e90573b-2e30-4c9e-8066-8d8edab1bdf0","ios":"levelo://app?vid=8e90573b-2e30-4c9e-8066-8d8edab1bdf0"},"vehicle_type_id":"4","last_reported":1729454940,"current_range_meters":14400,"station_id":"ce4bgs92rcd13ifvqcc0","pricing_plan_id":"cebpf4jnsgd1na2vs0mg"},{"bike_id":"18bc1f48-905d-4d2d-86f8-88e34df522af","system_id":"levelo_inurba_marseille","lat":43.31358,"lon":5.38491,"is_reserved":false,"is_disabled":false,"rental_uris":{"android":"levelo://app?vid=18bc1f48-905d-4d2d-86f8-88e34df522af","ios":"levelo://app?vid=18bc1f48-905d-4d2d-86f8-88e34df522af"},"vehicle_type_id":"4","last_reported":1729454940,"current_range_meters":38800,"station_id":"ce4bgt92rcd13ifvqcf0","pricing_plan_id":"cebpf4jnsgd1na2vs0mg"},{"bike_id":"f58e4b96-c7e9-4015-9e79-f0c1cc9953b2","system_id":"levelo_inurba_marseille","lat":43.2904,"lon":5.39961,"is_reserved":false,"is_disabled":false,"rental_uris":{"android":"levelo://app?vid=f58e4b96-c7e9-4015-9e79-f0c1cc9953b2","ios":"levelo://app?vid=f58e4b96-c7e9-4015-9e79-f0c1cc9953b2"},"vehicle_type_id":"4","last_reported":1729454940,"current_range_meters":3600,"station_id":"ce4bh392rcd13ifvqdm0","pricing_plan_id":"cebpf4jnsgd1na2vs0mg"},{"bike_id":"0bff5395-d4f2-4747-b0cf-5661c7151d44","system_id":"levelo_inurba_marseille","lat":43.29868,"lon":5.39733,"is_reserved":false,"is_disabled":false,"rental_uris":{"android":"levelo://app?vid=0bff5395-d4f2-4747-b0cf-5661c7151d44","ios":"levelo://app?vid=0bff5395-d4f2-4747-b0cf-5661c7151d44"},"vehicle_type_id":"4","last_reported":1729454940,"current_range_meters":38800,"station_id":"ce4bh0h2rcd13ifvqd50","pricing_plan_id":"cebpf4jnsgd1na2vs0mg"},{"bike_id":"09907c22-dfda-45de-9b95-04e49f35ec94","system_id":"levelo_inurba_marseille","lat":43.28075,"lon":5.39666,"is_reserved":false,"is_disabled":false,"rental_uris":{"android":"levelo://app?vid=09907c22-dfda-45de-9b95-04e49f35ec94","ios":"levelo://app?vid=09907c22-dfda-45de-9b95-04e49f35ec94"},"vehicle_type_id":"4","last_reported":1729454940,"current_range_meters":28400,"station_id":"ce4bho12rcd13ifvqh2g","pricing_plan_id":"cebpf4jnsgd1na2vs0mg"},{"bike_id":"42d9f2d5-f7a9-4be5-9734-655de8dfb14c","system_id":"levelo_inurba_marseille","lat":43.31266,"lon":5.40165,"is_reserved":false,"is_disabled":false,"rental_uris":{"android":"levelo://app?vid=42d9f2d5-f7a9-4be5-9734-655de8dfb14c","ios":"levelo://app?vid=42d9f2d5-f7a9-4be5-9734-655de8dfb14c"},"vehicle_type_id":"4","last_reported":1729454940,"current_range_meters":10000,"station_id":"ce4bh092rcd13ifvqd30","pricing_plan_id":"cebpf4jnsgd1na2vs0mg"},{"bike_id":"acbdbbb0-3c91-4690-891d-ebbd9f21d687","system_id":"levelo_inurba_marseille","lat":43.32658,"lon":5.40995,"is_reserved":false,"is_disabled":false,"rental_uris":{"android":"levelo://app?vid=acbdbbb0-3c91-4690-891d-ebbd9f21d687","ios":"levelo://app?vid=acbdbbb0-3c91-4690-891d-ebbd9f21d687"},"vehicle_type_id":"4","last_reported":1729454940,"current_range_meters":35200,"station_id":"ce4bhpp2rcd13ifvqhgg","pricing_plan_id":"cebpf4jnsgd1na2vs0mg"},{"bike_id":"602a1992-1110-40d7-9211-a9a8a7f10852","system_id":"levelo_inurba_marseille","lat":43.29168,"lon":5.37167,"is_reserved":false,"is_disabled":false,"rental_uris":{"android":"levelo://app?vid=602a1992-1110-40d7-9211-a9a8a7f10852","ios":"levelo://app?vid=602a1992-1110-40d7-9211-a9a8a7f10852"},"vehicle_type_id":"4","last_reported":1729454940,"current_range_meters":29600,"station_id":"ce4bha92rcd13ifvqeh0","pricing_plan_id":"cebpf4jnsgd1na2vs0mg"},{"bike_id":"0790546e-ec69-40d8-8da0-45c2f37a2755","system_id":"levelo_inurba_marseille","lat":43.29704,"lon":5.36599,"is_reserved":false,"is_disabled":false,"rental_uris":{"android":"levelo://app?vid=0790546e-ec69-40d8-8da0-45c2f37a2755","ios":"levelo://app?vid=0790546e-ec69-40d8-8da0-45c2f37a2755"},"vehicle_type_id":"4","last_reported":1729454940,"current_range_meters":32800,"station_id":"ce4bgn12rcd13ifvqbt0","pricing_plan_id":"cebpf4jnsgd1na2vs0mg"},{"bike_id":"5294e957-2dc5-465b-9c9b-930c815b514e","system_id":"levelo_inurba_marseille","lat":43.28701,"lon":5.39989,"is_reserved":false,"is_disabled":false,"rental_uris":{"android":"levelo://app?vid=5294e957-2dc5-465b-9c9b-930c815b514e","ios":"levelo://app?vid=5294e957-2dc5-465b-9c9b-930c815b514e"},"vehicle_type_id":"4","last_reported":1729454940,"current_range_meters":27200,"station_id":"ce4bho92rcd13ifvqh3g","pricing_plan_id":"cebpf4jnsgd1na2vs0mg"},{"bike_id":"21fee09b-0a46-442f-92a1-a137010f1342","system_id":"levelo_inurba_marseille","lat":43.3107,"lon":5.38347,"is_reserved":false,"is_disabled":false,"rental_uris":{"android":"levelo://app?vid=21fee09b-0a46-442f-92a1-a137010f1342","ios":"levelo://app?vid=21fee09b-0a46-442f-92a1-a137010f1342"},"vehicle_type_id":"4","last_reported":1729454940,"current_range_meters":38800,"station_id":"ce4bgv92rcd13ifvqcr0","pricing_plan_id":"cebpf4jnsgd1na2vs0mg"},{"bike_id":"7b5cb3ea-286e-4dec-afa6-f9929c52e1c8","system_id":"levelo_inurba_marseille","lat":43.31185,"lon":5.38715,"is_reserved":false,"is_disabled":false,"rental_uris":{"android":"levelo://app?vid=7b5cb3ea-286e-4dec-afa6-f9929c52e1c8","ios":"levelo://app?vid=7b5cb3ea-286e-4dec-afa6-f9929c52e1c8"},"vehicle_type_id":"4","last_reported":1729454940,"current_range_meters":38800,"station_id":"ce4bgv12rcd13ifvqcp0","pricing_plan_id":"cebpf4jnsgd1na2vs0mg"},{"bike_id":"096af689-c88a-4c98-bb8c-8b232119fe89","system_id":"levelo_inurba_marseille","lat":43.30807,"lon":5.38159,"is_reserved":false,"is_disabled":false,"rental_uris":{"android":"levelo://app?vid=096af689-c88a-4c98-bb8c-8b232119fe89","ios":"levelo://app?vid=096af689-c88a-4c98-bb8c-8b232119fe89"},"vehicle_type_id":"4","last_reported":1729454940,"current_range_meters":37600,"station_id":"ce4bgt12rcd13ifvqce0","pricing_plan_id":"cebpf4jnsgd1na2vs0mg"},{"bike_id":"a643b9fa-d33b-4956-a113-b91db84f2dc1","system_id":"levelo_inurba_marseille","lat":43.30602,"lon":5.37222,"is_reserved":false,"is_disabled":false,"rental_uris":{"android":"levelo://app?vid=a643b9fa-d33b-4956-a113-b91db84f2dc1","ios":"levelo://app?vid=a643b9fa-d33b-4956-a113-b91db84f2dc1"},"vehicle_type_id":"4","last_reported":1729454940,"current_range_meters":8800,"station_id":"ce4bgqh2rcd13ifvqc4g","pricing_plan_id":"cebpf4jnsgd1na2vs0mg"},{"bike_id":"d73805a7-096f-49e2-8ef6-f1ec3dfaa020","system_id":"levelo_inurba_marseille","lat":43.31224,"lon":5.36843,"is_reserved":false,"is_disabled":false,"rental_uris":{"android":"levelo://app?vid=d73805a7-096f-49e2-8ef6-f1ec3dfaa020","ios":"levelo://app?vid=d73805a7-096f-49e2-8ef6-f1ec3dfaa020"},"vehicle_type_id":"4","last_reported":1729454940,"current_range_meters":28400,"station_id":"ce4bgl92rcd13ifvqbq0","pricing_plan_id":"cebpf4jnsgd1na2vs0mg"},{"bike_id":"e3d720de-f87c-4953-bf0b-b39a4a054b01","system_id":"levelo_inurba_marseille","lat":43.287,"lon":5.39979,"is_reserved":false,"is_disabled":false,"rental_uris":{"android":"levelo://app?vid=e3d720de-f87c-4953-bf0b-b39a4a054b01","ios":"levelo://app?vid=e3d720de-f87c-4953-bf0b-b39a4a054b01"},"vehicle_type_id":"4","last_reported":1729454940,"current_range_meters":33600,"station_id":"ce4bho92rcd13ifvqh3g","pricing_plan_id":"cebpf4jnsgd1na2vs0mg"},{"bike_id":"1ab8aaa9-0ad9-4303-866e-905360d691a9","system_id":"levelo_inurba_marseille","lat":43.23193,"lon":5.35557,"is_reserved":false,"is_disabled":false,"rental_uris":{"android":"levelo://app?vid=1ab8aaa9-0ad9-4303-866e-905360d691a9","ios":"levelo://app?vid=1ab8aaa9-0ad9-4303-866e-905360d691a9"},"vehicle_type_id":"4","last_reported":1729454940,"current_range_meters":30800,"station_id":"ce4bhu92rcd13ifvqi70","pricing_plan_id":"cebpf4jnsgd1na2vs0mg"},{"bike_id":"aec4114d-2cf9-40df-a06b-3baf7ca2892c","system_id":"levelo_inurba_marseille","lat":43.2293,"lon":5.35382,"is_reserved":false,"is_disabled":false,"rental_uris":{"android":"levelo://app?vid=aec4114d-2cf9-40df-a06b-3baf7ca2892c","ios":"levelo://app?vid=aec4114d-2cf9-40df-a06b-3baf7ca2892c"},"vehicle_type_id":"4","last_reported":1729454940,"current_range_meters":38800,"station_id":"cpo3532slgdg3j2ikp40","pricing_plan_id":"cebpf4jnsgd1na2vs0mg"},{"bike_id":"d1fc6171-58c0-45cc-9b13-c519907756a0","system_id":"levelo_inurba_marseille","lat":43.29091,"lon":5.38144,"is_reserved":false,"is_disabled":false,"rental_uris":{"android":"levelo://app?vid=d1fc6171-58c0-45cc-9b13-c519907756a0","ios":"levelo://app?vid=d1fc6171-58c0-45cc-9b13-c519907756a0"},"vehicle_type_id":"4","last_reported":1729454940,"current_range_meters":30000,"station_id":"ce4bh512rcd13ifvqe2g","pricing_plan_id":"cebpf4jnsgd1na2vs0mg"},{"bike_id":"e41d381d-47c8-44a6-a135-578c6264ea22","system_id":"levelo_inurba_marseille","lat":43.23139,"lon":5.4371,"is_reserved":false,"is_disabled":false,"rental_uris":{"android":"levelo://app?vid=e41d381d-47c8-44a6-a135-578c6264ea22","ios":"levelo://app?vid=e41d381d-47c8-44a6-a135-578c6264ea22"},"vehicle_type_id":"4","last_reported":1729454940,"current_range_meters":0,"station_id":"ce4bhmp2rcd13ifvqgog","pricing_plan_id":"cebpf4jnsgd1na2vs0mg"},{"bike_id":"3dc584f0-42e5-4f6a-97e7-0051268f66af","system_id":"levelo_inurba_marseille","lat":43.28406,"lon":5.37519,"is_reserved":false,"is_disabled":false,"rental_uris":{"android":"levelo://app?vid=3dc584f0-42e5-4f6a-97e7-0051268f66af","ios":"levelo://app?vid=3dc584f0-42e5-4f6a-97e7-0051268f66af"},"vehicle_type_id":"4","last_reported":1729454940,"current_range_meters":33600,"station_id":"ce4bh412rcd13ifvqds0","pricing_plan_id":"cebpf4jnsgd1na2vs0mg"},{"bike_id":"9dbe91bb-00d5-4310-a4ed-118e33d56452","system_id":"levelo_inurba_marseille","lat":43.23148,"lon":5.43715,"is_reserved":false,"is_disabled":false,"rental_uris":{"android":"levelo://app?vid=9dbe91bb-00d5-4310-a4ed-118e33d56452","ios":"levelo://app?vid=9dbe91bb-00d5-4310-a4ed-118e33d56452"},"vehicle_type_id":"4","last_reported":1729454940,"current_range_meters":22400,"station_id":"ce4bhmp2rcd13ifvqgog","pricing_plan_id":"cebpf4jnsgd1na2vs0mg"},{"bike_id":"62fa3b9d-f26a-4713-b2f3-eeb6d897a9c8","system_id":"levelo_inurba_marseille","lat":43.28934,"lon":5.39635,"is_reserved":false,"is_disabled":false,"rental_uris":{"android":"levelo://app?vid=62fa3b9d-f26a-4713-b2f3-eeb6d897a9c8","ios":"levelo://app?vid=62fa3b9d-f26a-4713-b2f3-eeb6d897a9c8"},"vehicle_type_id":"4","last_reported":1729454940,"current_range_meters":18800,"station_id":"ce4bh3h2rcd13ifvqdn0","pricing_plan_id":"cebpf4jnsgd1na2vs0mg"},{"bike_id":"1d59ac3b-7b53-4853-92ce-71ab2f2ae90b","system_id":"levelo_inurba_marseille","lat":43.30138,"lon":5.39855,"is_reserved":false,"is_disabled":false,"rental_uris":{"android":"levelo://app?vid=1d59ac3b-7b53-4853-92ce-71ab2f2ae90b","ios":"levelo://app?vid=1d59ac3b-7b53-4853-92ce-71ab2f2ae90b"},"vehicle_type_id":"4","last_reported":1729454940,"current_range_meters":39200,"station_id":"ce4bh0h2rcd13ifvqd40","pricing_plan_id":"cebpf4jnsgd1na2vs0mg"},{"bike_id":"93772acf-3314-4199-83d3-f9aa2c616ac4","system_id":"levelo_inurba_marseille","lat":43.29794,"lon":5.38116,"is_reserved":false,"is_disabled":false,"rental_uris":{"android":"levelo://app?vid=93772acf-3314-4199-83d3-f9aa2c616ac4","ios":"levelo://app?vid=93772acf-3314-4199-83d3-f9aa2c616ac4"},"vehicle_type_id":"4","last_reported":1729454940,"current_range_meters":4400,"station_id":"ce4bgip2rcd13ifvqbb0","pricing_plan_id":"cebpf4jnsgd1na2vs0mg"},{"bike_id":"0efc50a1-1a87-49fc-a830-73faf2195813","system_id":"levelo_inurba_marseille","lat":43.30321,"lon":5.36895,"is_reserved":false,"is_disabled":false,"rental_uris":{"android":"levelo://app?vid=0efc50a1-1a87-49fc-a830-73faf2195813","ios":"levelo://app?vid=0efc50a1-1a87-49fc-a830-73faf2195813"},"vehicle_type_id":"4","last_reported":1729454940,"current_range_meters":39200,"station_id":"ce4bgqh2rcd13ifvqc5g","pricing_plan_id":"cebpf4jnsgd1na2vs0mg"},{"bike_id":"a2946203-b19c-4db1-8004-d00716399b4c","system_id":"levelo_inurba_marseille","lat":43.29027,"lon":5.38134,"is_reserved":false,"is_disabled":false,"rental_uris":{"android":"levelo://app?vid=a2946203-b19c-4db1-8004-d00716399b4c","ios":"levelo://app?vid=a2946203-b19c-4db1-8004-d00716399b4c"},"vehicle_type_id":"4","last_reported":1729454940,"current_range_meters":16800,"station_id":"ce4bh4p2rcd13ifvqe1g","pricing_plan_id":"cebpf4jnsgd1na2vs0mg"},{"bike_id":"238b7ca1-f023-4d85-84f9-4bd116381e2a","system_id":"levelo_inurba_marseille","lat":43.28443,"lon":5.3919,"is_reserved":false,"is_disabled":false,"rental_uris":{"android":"levelo://app?vid=238b7ca1-f023-4d85-84f9-4bd116381e2a","ios":"levelo://app?vid=238b7ca1-f023-4d85-84f9-4bd116381e2a"},"vehicle_type_id":"4","last_reported":1729454940,"current_range_meters":37600,"station_id":"ce4bhoh2rcd13ifvqh5g","pricing_plan_id":"cebpf4jnsgd1na2vs0mg"},{"bike_id":"f9e606a2-f98f-4da2-a7e6-f9040d57582d","system_id":"levelo_inurba_marseille","lat":43.24175,"lon":5.39738,"is_reserved":false,"is_disabled":false,"rental_uris":{"android":"levelo://app?vid=f9e606a2-f98f-4da2-a7e6-f9040d57582d","ios":"levelo://app?vid=f9e606a2-f98f-4da2-a7e6-f9040d57582d"},"vehicle_type_id":"4","last_reported":1729454940,"current_range_meters":20000,"station_id":"ce4bhn12rcd13ifvqgpg","pricing_plan_id":"cebpf4jnsgd1na2vs0mg"},{"bike_id":"4b3496a2-d393-48e7-b24c-bc5f8d6f4d51","system_id":"levelo_inurba_marseille","lat":43.23954,"lon":5.36623,"is_reserved":false,"is_disabled":false,"rental_uris":{"android":"levelo://app?vid=4b3496a2-d393-48e7-b24c-bc5f8d6f4d51","ios":"levelo://app?vid=4b3496a2-d393-48e7-b24c-bc5f8d6f4d51"},"vehicle_type_id":"4","last_reported":1729454940,"current_range_meters":29600,"station_id":"ce4bhi12rcd13ifvqfp0","pricing_plan_id":"cebpf4jnsgd1na2vs0mg"},{"bike_id":"a17882d0-5a71-4f9b-841b-911dc173c920","system_id":"levelo_inurba_marseille","lat":43.28277,"lon":5.35063,"is_reserved":false,"is_disabled":false,"rental_uris":{"android":"levelo://app?vid=a17882d0-5a71-4f9b-841b-911dc173c920","ios":"levelo://app?vid=a17882d0-5a71-4f9b-841b-911dc173c920"},"vehicle_type_id":"4","last_reported":1729454940,"current_range_meters":38800,"station_id":"ce4bhbp2rcd13ifvqerg","pricing_plan_id":"cebpf4jnsgd1na2vs0mg"},{"bike_id":"629a36d2-bf63-4d9f-a6e4-19847d0bedc4","system_id":"levelo_inurba_marseille","lat":43.30258,"lon":5.40078,"is_reserved":false,"is_disabled":false,"rental_uris":{"android":"levelo://app?vid=629a36d2-bf63-4d9f-a6e4-19847d0bedc4","ios":"levelo://app?vid=629a36d2-bf63-4d9f-a6e4-19847d0bedc4"},"vehicle_type_id":"4","last_reported":1729454940,"current_range_meters":39200,"station_id":"ce4bgvh2rcd13ifvqcs0","pricing_plan_id":"cebpf4jnsgd1na2vs0mg"},{"bike_id":"e4efc015-371f-453a-95df-993a59ea98a8","system_id":"levelo_inurba_marseille","lat":43.28408,"lon":5.37519,"is_reserved":false,"is_disabled":false,"rental_uris":{"android":"levelo://app?vid=e4efc015-371f-453a-95df-993a59ea98a8","ios":"levelo://app?vid=e4efc015-371f-453a-95df-993a59ea98a8"},"vehicle_type_id":"4","last_reported":1729454940,"current_range_meters":9600,"station_id":"ce4bh412rcd13ifvqds0","pricing_plan_id":"cebpf4jnsgd1na2vs0mg"},{"bike_id":"642ab070-694d-409d-b997-6e3cac203f34","system_id":"levelo_inurba_marseille","lat":43.29597,"lon":5.38093,"is_reserved":false,"is_disabled":false,"rental_uris":{"android":"levelo://app?vid=642ab070-694d-409d-b997-6e3cac203f34","ios":"levelo://app?vid=642ab070-694d-409d-b997-6e3cac203f34"},"vehicle_type_id":"4","last_reported":1729454940,"current_range_meters":27600,"station_id":"ce4bgl12rcd13ifvqbo0","pricing_plan_id":"cebpf4jnsgd1na2vs0mg"},{"bike_id":"86709198-9dd9-4d9c-8d14-617aaf9b7017","system_id":"levelo_inurba_marseille","lat":43.28485,"lon":5.3857,"is_reserved":false,"is_disabled":false,"rental_uris":{"android":"levelo://app?vid=86709198-9dd9-4d9c-8d14-617aaf9b7017","ios":"levelo://app?vid=86709198-9dd9-4d9c-8d14-617aaf9b7017"},"vehicle_type_id":"4","last_reported":1729454940,"current_range_meters":38800,"station_id":"ce4bh8p2rcd13ifvqeb0","pricing_plan_id":"cebpf4jnsgd1na2vs0mg"},{"bike_id":"82a7378c-fb65-4221-a951-ee464e9a8c52","system_id":"levelo_inurba_marseille","lat":43.292585,"lon":5.38436,"is_reserved":false,"is_disabled":false,"rental_uris":{"android":"levelo://app?vid=82a7378c-fb65-4221-a951-ee464e9a8c52","ios":"levelo://app?vid=82a7378c-fb65-4221-a951-ee464e9a8c52"},"vehicle_type_id":"4","last_reported":1729454940,"current_range_meters":38800,"station_id":"","pricing_plan_id":"cebpf4jnsgd1na2vs0mg"},{"bike_id":"e9a6d85d-70e2-402b-90eb-502b3aedbdb3","system_id":"levelo_inurba_marseille","lat":43.29172,"lon":5.379,"is_reserved":false,"is_disabled":false,"rental_uris":{"android":"levelo://app?vid=e9a6d85d-70e2-402b-90eb-502b3aedbdb3","ios":"levelo://app?vid=e9a6d85d-70e2-402b-90eb-502b3aedbdb3"},"vehicle_type_id":"4","last_reported":1729454940,"current_range_meters":7200,"station_id":"","pricing_plan_id":"cebpf4jnsgd1na2vs0mg"},{"bike_id":"e147b14e-00b7-4c5c-a3d7-e6496fa596e2","system_id":"levelo_inurba_marseille","lat":43.30145,"lon":5.39867,"is_reserved":false,"is_disabled":false,"rental_uris":{"android":"levelo://app?vid=e147b14e-00b7-4c5c-a3d7-e6496fa596e2","ios":"levelo://app?vid=e147b14e-00b7-4c5c-a3d7-e6496fa596e2"},"vehicle_type_id":"4","last_reported":1729454940,"current_range_meters":38800,"station_id":"ce4bh0h2rcd13ifvqd40","pricing_plan_id":"cebpf4jnsgd1na2vs0mg"},{"bike_id":"551e4cae-27ad-43f8-bfc5-8e0a93c14612","system_id":"levelo_inurba_marseille","lat":43.32101,"lon":5.36772,"is_reserved":false,"is_disabled":false,"rental_uris":{"android":"levelo://app?vid=551e4cae-27ad-43f8-bfc5-8e0a93c14612","ios":"levelo://app?vid=551e4cae-27ad-43f8-bfc5-8e0a93c14612"},"vehicle_type_id":"4","last_reported":1729454940,"current_range_meters":37600,"station_id":"ce4bhrh2rcd13ifvqhug","pricing_plan_id":"cebpf4jnsgd1na2vs0mg"},