{"last_updated":1748531452,"ttl":60,"version":"2.2","data":{"bikes":[{"bike_id":"fec65c28-a2f5-4224-b47b-37909593c070","system_id":"levelo_inurba_marseille","lat":43.27376,"lon":5.36253,"is_reserved":false,"is_disabled":false,"rental_uris":{"android":"levelo://app?vid=fec65c28-a2f5-4224-b47b-37909593c070","ios":"levelo://app?vid=fec65c28-a2f5-4224-b47b-37909593c070"},"vehicle_type_id":"4","last_reported":1748531452,"current_range_meters":2800,"station_id":"ce4bhbh2rcd13ifvqeo0","pricing_plan_id":"cebpf4jnsgd1na2vs0mg"},{"bike_id":"fe195f64-695f-4a29-8036-a6305c514e9b","system_id":"levelo_inurba_marseille","lat":43.28854,"lon":5.3933,"is_reserved":false,"is_disabled":false,"rental_uris":{"android":"levelo://app?vid=fe195f64-695f-4a29-8036-a6305c514e9b","ios":"levelo://app?vid=fe195f64-695f-4a29-8036-a6305c514e9b"},"vehicle_type_id":"4","last_reported":1748531452,"current_range_meters":2800,"station_id":"ce4bh2p2rcd13ifvqdi0","pricing_plan_id":"cebpf4jnsgd1na2vs0mg"},{"bike_id":"6885fcfa-af80-4e0e-97fe-0d3776c968a3","system_id":"levelo_inurba_marseille","lat":43.26201,"lon":5.37935,"is_reserved":false,"is_disabled":false,"rental_uris":{"android":"levelo://app?vid=6885fcfa-af80-4e0e-97fe-0d3776c968a3","ios":"levelo://app?vid=6885fcfa-af80-4e0e-97fe-0d3776c968a3"},"vehicle_type_id":"4","last_reported":1748531452,"current_range_meters":2800,"station_id":"ce4bhjp2rcd13ifvqg90","pricing_plan_id":"cebpf4jnsgd1na2vs0mg"},{"bike_id":"7e55f7ef-53f8-4eea-947e-59cd8750ba39","system_id":"levelo_inurba_marseille","lat":43.27386,"lon":5.36271,"is_reserved":false,"is_disabled":false,"rental_uris":{"android":"levelo://app?vid=7e55f7ef-53f8-4eea-947e-59cd8750ba39","ios":"levelo://app?vid=7e55f7ef-53f8-4eea-947e-59cd8750ba39"},"vehicle_type_id":"4","last_reported":1748531452,"current_range_meters":3200,"station_id":"ce4bhbh2rcd13ifvqeo0","pricing_plan_id":"cebpf4jnsgd1na2vs0mg"},{"bike_id":"29822296-cb5d-4fed-bfb2-3043a838d391","system_id":"levelo_inurba_marseille","lat":43.243884,"lon":5.370604,"is_reserved":false,"is_disabled":false,"rental_uris":{"android":"levelo://app?vid=29822296-cb5d-4fed-bfb2-3043a838d391","ios":"levelo://app?vid=29822296-cb5d-4fed-bfb2-3043a838d391"},"vehicle_type_id":"4","last_reported":1748531452,"current_range_meters":3200,"station_id":"ce4bhhh2rcd13ifvqfk0","pricing_plan_id":"cebpf4jnsgd1na2vs0mg"},{"bike_id":"91f96edf-f11a-4178-b672-0fe960058fe8","system_id":"levelo_inurba_marseille","lat":43.23967,"lon":5.36653,"is_reserved":false,"is_disabled":false,"rental_uris":{"android":"levelo://app?vid=91f96edf-f11a-4178-b672-0fe960058fe8","ios":"levelo://app?vid=91f96edf-f11a-4178-b672-0fe960058fe8"},"vehicle_type_id":"4","last_reported":1748531452,"current_range_meters":3200,"station_id":"ce4bhi12rcd13ifvqfp0","pricing_plan_id":"cebpf4jnsgd1na2vs0mg"},{"bike_id":"1ea1ce07-2a4d-4f4c-a07e-3623a3bb1044","system_id":"levelo_inurba_marseille","lat":43.231495,"lon":5.437255,"is_reserved":false,"is_disabled":false,"rental_uris":{"android":"levelo://app?vid=1ea1ce07-2a4d-4f4c-a07e-3623a3bb1044","ios":"levelo://app?vid=1ea1ce07-2a4d-4f4c-a07e-3623a3bb1044"},"vehicle_type_id":"4","last_reported":1748531452,"current_range_meters":3200,"station_id":"ce4bhmp2rcd13ifvqgog","pricing_plan_id":"cebpf4jnsgd1na2vs0mg"},{"bike_id":"9d83572b-a756-4e9f-85c8-574e57573d28","system_id":"levelo_inurba_marseille","lat":43.25825,"lon":5.39442,"is_reserved":false,"is_disabled":false,"rental_uris":{"android":"levelo://app?vid=9d83572b-a756-4e9f-85c8-574e57573d28","ios":"levelo://app?vid=9d83572b-a756-4e9f-85c8-574e57573d28"},"vehicle_type_id":"4","last_reported":1748531452,"current_range_meters":2800,"station_id":"ce4bhip2rcd13ifvqft0","pricing_plan_id":"cebpf4jnsgd1na2vs0mg"},{"bike_id":"66f450a3-35bb-4dec-85be-3968f9f1cd22","system_id":"levelo_inurba_marseille","lat":43.26948,"lon":5.38618,"is_reserved":false,"is_disabled":false,"rental_uris":{"android":"levelo://app?vid=66f450a3-35bb-4dec-85be-3968f9f1cd22","ios":"levelo://app?vid=66f450a3-35bb-4dec-85be-3968f9f1cd22"},"vehicle_type_id":"4","last_reported":1748531452,"current_range_meters":3200,"station_id":"ce4bhh92rcd13ifvqfh0","pricing_plan_id":"cebpf4jnsgd1na2vs0mg"},{"bike_id":"44c91950-1d16-4c24-8c3f-0218d97b74fb","system_id":"levelo_inurba_marseille","lat":43.21192,"lon":5.3508,"is_reserved":false,"is_disabled":false,"rental_uris":{"android":"levelo://app?vid=44c91950-1d16-4c24-8c3f-0218d97b74fb","ios":"levelo://app?vid=44c91950-1d16-4c24-8c3f-0218d97b74fb"},"vehicle_type_id":"4","last_reported":1748531452,"current_range_meters":3200,"station_id":"st_cvj6sg6p6f1abm77japg","pricing_plan_id":"cebpf4jnsgd1na2vs0mg"},{"bike_id":"22e79d50-f91b-4b90-8060-8b442ecebd20","system_id":"levelo_inurba_marseille","lat":43.23193,"lon":5.35557,"is_reserved":false,"is_disabled":false,"rental_uris":{"android":"levelo://app?vid=22e79d50-f91b-4b90-8060-8b442ecebd20","ios":"levelo://app?vid=22e79d50-f91b-4b90-8060-8b442ecebd20"},"vehicle_type_id":"4","last_reported":1748531452,"current_range_meters":3200,"station_id":"ce4bhu92rcd13ifvqi70","pricing_plan_id":"cebpf4jnsgd1na2vs0mg"},{"bike_id":"5904fa80-7445-4796-8292-3e5b04ffa2cd","system_id":"levelo_inurba_marseille","lat":43.2762,"lon":5.36111,"is_reserved":false,"is_disabled":false,"rental_uris":{"android":"levelo://app?vid=5904fa80-7445-4796-8292-3e5b04ffa2cd","ios":"levelo://app?vid=5904fa80-7445-4796-8292-3e5b04ffa2cd"},"vehicle_type_id":"4","last_reported":1748531452,"current_range_meters":3200,"station_id":"ce4bgj92rcd13ifvqbe0","pricing_plan_id":"cebpf4jnsgd1na2vs0mg"},{"bike_id":"c3a0bd73-5813-47f0-a5c8-27701041c8ba","system_id":"levelo_inurba_marseille","lat":43.27268,"lon":5.4242,"is_reserved":false,"is_disabled":false,"rental_uris":{"android":"levelo://app?vid=c3a0bd73-5813-47f0-a5c8-27701041c8ba","ios":"levelo://app?vid=c3a0bd73-5813-47f0-a5c8-27701041c8ba"},"vehicle_type_id":"4","last_reported":1748531452,"current_range_meters":3600,"station_id":"","pricing_plan_id":"cebpf4jnsgd1na2vs0mg"},{"bike_id":"75f31d97-3525-47ed-a5d4-c08cbdd1fc7d","system_id":"levelo_inurba_marseille","lat":43.28419,"lon":5.34995,"is_reserved":false,"is_disabled":false,"rental_uris":{"android":"levelo://app?vid=75f31d97-3525-47ed-a5d4-c08cbdd1fc7d","ios":"levelo://app?vid=75f31d97-3525-47ed-a5d4-c08cbdd1fc7d"},"vehicle_type_id":"4","last_reported":1748531452,"current_range_meters":4000,"station_id":"ce4bhbh2rcd13ifvqepg","pricing_plan_id":"cebpf4jnsgd1na2vs0mg"},{"bike_id":"8505c856-f10f-4d60-8d6f-4fe80fdb02df","system_id":"levelo_inurba_marseille","lat":43.27915,"lon":5.39621,"is_reserved":false,"is_disabled":false,"rental_uris":{"android":"levelo://app?vid=8505c856-f10f-4d60-8d6f-4fe80fdb02df","ios":"levelo://app?vid=8505c856-f10f-4d60-8d6f-4fe80fdb02df"},"vehicle_type_id":"4","last_reported":1748531452,"current_range_meters":4400,"station_id":"ce4bhf92rcd13ifvqf40","pricing_plan_id":"cebpf4jnsgd1na2vs0mg"},{"bike_id":"8d58868a-90c7-4354-bd95-c9b1424e7e94","system_id":"levelo_inurba_marseille","lat":43.30876,"lon":5.37449,"is_reserved":false,"is_disabled":false,"rental_uris":{"android":"levelo://app?vid=8d58868a-90c7-4354-bd95-c9b1424e7e94","ios":"levelo://app?vid=8d58868a-90c7-4354-bd95-c9b1424e7e94"},"vehicle_type_id":"4","last_reported":1748531452,"current_range_meters":4400,"station_id":"","pricing_plan_id":"cebpf4jnsgd1na2vs0mg"},{"bike_id":"f9d6ae4f-b150-4268-9dd1-431c1f5490dc","system_id":"levelo_inurba_marseille","lat":43.26957,"lon":5.3862,"is_reserved":false,"is_disabled":false,"rental_uris":{"android":"levelo://app?vid=f9d6ae4f-b150-4268-9dd1-431c1f5490dc","ios":"levelo://app?vid=f9d6ae4f-b150-4268-9dd1-431c1f5490dc"},"vehicle_type_id":"4","last_reported":1748531452,"current_range_meters":4400,"station_id":"ce4bhh92rcd13ifvqfh0","pricing_plan_id":"cebpf4jnsgd1na2vs0mg"},{"bike_id":"b80ee325-09b2-4724-993d-4f8d3707c41c","system_id":"levelo_inurba_marseille","lat":43.25862,"lon":5.39902,"is_reserved":false,"is_disabled":false,"rental_uris":{"android":"levelo://app?vid=b80ee325-09b2-4724-993d-4f8d3707c41c","ios":"levelo://app?vid=b80ee325-09b2-4724-993d-4f8d3707c41c"},"vehicle_type_id":"4","last_reported":1748531452,"current_range_meters":4400,"station_id":"ce4bhl92rcd13ifvqghg","pricing_plan_id":"cebpf4jnsgd1na2vs0mg"},{"bike_id":"70bdaede-dc74-488b-ba51-56b78af69d6f","system_id":"levelo_inurba_marseille","lat":43.28404,"lon":5.35,"is_reserved":false,"is_disabled":false,"rental_uris":{"android":"levelo://app?vid=70bdaede-dc74-488b-ba51-56b78af69d6f","ios":"levelo://app?vid=70bdaede-dc74-488b-ba51-56b78af69d6f"},"vehicle_type_id":"4","last_reported":1748531452,"current_range_meters":4400,"station_id":"ce4bhbh2rcd13ifvqepg","pricing_plan_id":"cebpf4jnsgd1na2vs0mg"},{"bike_id":"d36d62c6-be7e-44b1-a82a-b684aecc4f80","system_id":"levelo_inurba_marseille","lat":43.26508,"lon":5.39533,"is_reserved":false,"is_disabled":false,"rental_uris":{"android":"levelo://app?vid=d36d62c6-be7e-44b1-a82a-b684aecc4f80","ios":"levelo://app?vid=d36d62c6-be7e-44b1-a82a-b684aecc4f80"},"vehicle_type_id":"4","last_reported":1748531452,"current_range_meters":4400,"station_id":"ce4bhi12rcd13ifvqfq0","pricing_plan_id":"cebpf4jnsgd1na2vs0mg"},{"bike_id":"0bd5adeb-a9b6-41d5-ac62-4fe90fb5ff9e","system_id":"levelo_inurba_marseille","lat":43.28268,"lon":5.3507,"is_reserved":false,"is_disabled":false,"rental_uris":{"android":"levelo://app?vid=0bd5adeb-a9b6-41d5-ac62-4fe90fb5ff9e","ios":"levelo://app?vid=0bd5adeb-a9b6-41d5-ac62-4fe90fb5ff9e"},"vehicle_type_id":"4","last_reported":1748531452,"current_range_meters":4400,"station_id":"ce4bhbp2rcd13ifvqerg","pricing_plan_id":"cebpf4jnsgd1na2vs0mg"},{"bike_id":"a0c45fbf-13f0-4c9b-b5f6-b37b9846b01b","system_id":"levelo_inurba_marseille","lat":43.29805,"lon":5.38112,"is_reserved":false,"is_disabled":false,"rental_uris":{"android":"levelo://app?vid=a0c45fbf-13f0-4c9b-b5f6-b37b9846b01b","ios":"levelo://app?vid=a0c45fbf-13f0-4c9b-b5f6-b37b9846b01b"},"vehicle_type_id":"4","last_reported":1748531452,"current_range_meters":4800,"station_id":"ce4bgip2rcd13ifvqbb0","pricing_plan_id":"cebpf4jnsgd1na2vs0mg"},{"bike_id":"1b9c44ac-969a-4768-a1a3-21c86e0814fc","system_id":"levelo_inurba_marseille","lat":43.24201,"lon":5.3642,"is_reserved":false,"is_disabled":false,"rental_uris":{"android":"levelo://app?vid=1b9c44ac-969a-4768-a1a3-21c86e0814fc","ios":"levelo://app?vid=1b9c44ac-969a-4768-a1a3-21c86e0814fc"},"vehicle_type_id":"4","last_reported":1748531452,"current_range_meters":4800,"station_id":"cpo36qri1sfpv3e86is0","pricing_plan_id":"cebpf4jnsgd1na2vs0mg"},{"bike_id":"74e1254b-e947-4436-9fc8-ddbb180048e3","system_id":"levelo_inurba_marseille","lat":43.31366,"lon":5.38504,"is_reserved":false,"is_disabled":false,"rental_uris":{"android":"levelo://app?vid=74e1254b-e947-4436-9fc8-ddbb180048e3","ios":"levelo://app?vid=74e1254b-e947-4436-9fc8-ddbb180048e3"},"vehicle_type_id":"4","last_reported":1748531452,"current_range_meters":4400,"station_id":"ce4bgt92rcd13ifvqcf0","pricing_plan_id":"cebpf4jnsgd1na2vs0mg"},{"bike_id":"dbf9f468-d981-4dba-8605-2be47f9e565a","system_id":"levelo_inurba_marseille","lat":43.26937,"lon":5.38932,"is_reserved":false,"is_disabled":false,"rental_uris":{"android":"levelo://app?vid=dbf9f468-d981-4dba-8605-2be47f9e565a","ios":"levelo://app?vid=dbf9f468-d981-4dba-8605-2be47f9e565a"},"vehicle_type_id":"4","last_reported":1748531452,"current_range_meters":4800,"station_id":"ce4bhhh2rcd13ifvqfl0","pricing_plan_id":"cebpf4jnsgd1na2vs0mg"},{"bike_id":"ee4805fc-08cd-4377-be04-3721b1f97d83","system_id":"levelo_inurba_marseille","lat":43.24169,"lon":5.36426,"is_reserved":false,"is_disabled":false,"rental_uris":{"android":"levelo://app?vid=ee4805fc-08cd-4377-be04-3721b1f97d83","ios":"levelo://app?vid=ee4805fc-08cd-4377-be04-3721b1f97d83"},"vehicle_type_id":"4","last_reported":1748531452,"current_range_meters":4800,"station_id":"cpo36qri1sfpv3e86is0","pricing_plan_id":"cebpf4jnsgd1na2vs0mg"},{"bike_id":"7e6f541a-d5ef-4b5c-80df-a23fd971b2f4","system_id":"levelo_inurba_marseille","lat":43.27072,"lon":5.42289,"is_reserved":false,"is_disabled":false,"rental_uris":{"android":"levelo://app?vid=7e6f541a-d5ef-4b5c-80df-a23fd971b2f4","ios":"levelo://app?vid=7e6f541a-d5ef-4b5c-80df-a23fd971b2f4"},"vehicle_type_id":"4","last_reported":1748531452,"current_range_meters":4800,"station_id":"ce4bhk92rcd13ifvqgb0","pricing_plan_id":"cebpf4jnsgd1na2vs0mg"},{"bike_id":"49ac8dae-beac-486b-a546-b0aeac4dd968","system_id":"levelo_inurba_marseille","lat":43.273779,"lon":5.362564,"is_reserved":false,"is_disabled":false,"rental_uris":{"android":"levelo://app?vid=49ac8dae-beac-486b-a546-b0aeac4dd968","ios":"levelo://app?vid=49ac8dae-beac-486b-a546-b0aeac4dd968"},"vehicle_type_id":"4","last_reported":1748531452,"current_range_meters":4800,"station_id":"ce4bhbh2rcd13ifvqeo0","pricing_plan_id":"cebpf4jnsgd1na2vs0mg"},{"bike_id":"c8e3e8d4-2760-439c-b028-b56f52c7347e","system_id":"levelo_inurba_marseille","lat":43.212192,"lon":5.350807,"is_reserved":false,"is_disabled":false,"rental_uris":{"android":"levelo://app?vid=c8e3e8d4-2760-439c-b028-b56f52c7347e","ios":"levelo://app?vid=c8e3e8d4-2760-439c-b028-b56f52c7347e"},"vehicle_type_id":"4","last_reported":1748531452,"current_range_meters":5600,"station_id":"st_cvj6sg6p6f1abm77japg","pricing_plan_id":"cebpf4jnsgd1na2vs0mg"},{"bike_id":"76686bc3-93dd-4001-ba59-503b2e0a3537","system_id":"levelo_inurba_marseille","lat":43.25111,"lon":5.4032,"is_reserved":false,"is_disabled":false,"rental_uris":{"android":"levelo://app?vid=76686bc3-93dd-4001-ba59-503b2e0a3537","ios":"levelo://app?vid=76686bc3-93dd-4001-ba59-503b2e0a3537"},"vehicle_type_id":"4","last_reported":1748531452,"current_range_meters":5600,"station_id":"ce4bhlh2rcd13ifvqgig","pricing_plan_id":"cebpf4jnsgd1na2vs0mg"},{"bike_id":"6d7cfdcd-f061-4eee-b4e5-78d9b6729328","system_id":"levelo_inurba_marseille","lat":43.329925,"lon":5.438465,"is_reserved":false,"is_disabled":false,"rental_uris":{"android":"levelo://app?vid=6d7cfdcd-f061-4eee-b4e5-78d9b6729328","ios":"levelo://app?vid=6d7cfdcd-f061-4eee-b4e5-78d9b6729328"},"vehicle_type_id":"4","last_reported":1748531452,"current_range_meters":6000,"station_id":"","pricing_plan_id":"cebpf4jnsgd1na2vs0mg"},{"bike_id":"3f89dfc2-62c3-4894-b6ea-fcdace94bd04","system_id":"levelo_inurba_marseille","lat":43.2319,"lon":5.3555,"is_reserved":false,"is_disabled":false,"rental_uris":{"android":"levelo://app?vid=3f89dfc2-62c3-4894-b6ea-fcdace94bd04","ios":"levelo://app?vid=3f89dfc2-62c3-4894-b6ea-fcdace94bd04"},"vehicle_type_id":"4","last_reported":1748531452,"current_range_meters":6000,"station_id":"ce4bhu92rcd13ifvqi70","pricing_plan_id":"cebpf4jnsgd1na2vs0mg"},{"bike_id":"7623ec5a-b08c-4ca2-9837-38ee6bb9a821","system_id":"levelo_inurba_marseille","lat":43.28415,"lon":5.34989,"is_reserved":false,"is_disabled":false,"rental_uris":{"android":"levelo://app?vid=7623ec5a-b08c-4ca2-9837-38ee6bb9a821","ios":"levelo://app?vid=7623ec5a-b08c-4ca2-9837-38ee6bb9a821"},"vehicle_type_id":"4","last_reported":1748531452,"current_range_meters":6000,"station_id":"ce4bhbh2rcd13ifvqepg","pricing_plan_id":"cebpf4jnsgd1na2vs0mg"},{"bike_id":"c845178f-79e6-4dd8-a792-c5106c8309a8","system_id":"levelo_inurba_marseille","lat":43.28478,"lon":5.38422,"is_reserved":false,"is_disabled":false,"rental_uris":{"android":"levelo://app?vid=c845178f-79e6-4dd8-a792-c5106c8309a8","ios":"levelo://app?vid=c845178f-79e6-4dd8-a792-c5106c8309a8"},"vehicle_type_id":"4","last_reported":1748531452,"current_range_meters":6000,"station_id":"ce4bh512rcd13ifvqe3g","pricing_plan_id":"cebpf4jnsgd1na2vs0mg"},{"bike_id":"67faa85a-9056-489e-9b04-0fef25d3980a","system_id":"levelo_inurba_marseille","lat":43.269552,"lon":5.386278,"is_reserved":false,"is_disabled":false,"rental_uris":{"android":"levelo://app?vid=67faa85a-9056-489e-9b04-0fef25d3980a","ios":"levelo://app?vid=67faa85a-9056-489e-9b04-0fef25d3980a"},"vehicle_type_id":"4","last_reported":1748531452,"current_range_meters":6000,"station_id":"ce4bhh92rcd13ifvqfh0","pricing_plan_id":"cebpf4jnsgd1na2vs0mg"},{"bike_id":"9ee8e975-9dfc-4c43-8ef3-68d542624d2f","system_id":"levelo_inurba_marseille","lat":43.29321,"lon":5.3717,"is_reserved":false,"is_disabled":false,"rental_uris":{"android":"levelo://app?vid=9ee8e975-9dfc-4c43-8ef3-68d542624d2f","ios":"levelo://app?vid=9ee8e975-9dfc-4c43-8ef3-68d542624d2f"},"vehicle_type_id":"4","last_reported":1748531452,"current_range_meters":6400,"station_id":"ce4bgh92rcd13ifvqb40","pricing_plan_id":"cebpf4jnsgd1na2vs0mg"},{"bike_id":"0d27c8fb-aac3-4d65-aa1d-e457b391a890","system_id":"levelo_inurba_marseille","lat":43.24378,"lon":5.37057,"is_reserved":false,"is_disabled":false,"rental_uris":{"android":"levelo://app?vid=0d27c8fb-aac3-4d65-aa1d-e457b391a890","ios":"levelo://app?vid=0d27c8fb-aac3-4d65-aa1d-e457b391a890"},"vehicle_type_id":"4","last_reported":1748531452,"current_range_meters":6400,"station_id":"ce4bhhh2rcd13ifvqfk0","pricing_plan_id":"cebpf4jnsgd1na2vs0mg"},{"bike_id":"c0c5027f-c041-4b12-acfa-e6b17680071b","system_id":"levelo_inurba_marseille","lat":43.23793,"lon":5.43566,"is_reserved":false,"is_disabled":false,"rental_uris":{"android":"levelo://app?vid=c0c5027f-c041-4b12-acfa-e6b17680071b","ios":"levelo://app?vid=c0c5027f-c041-4b12-acfa-e6b17680071b"},"vehicle_type_id":"4","last_reported":1748531452,"current_range_meters":6400,"station_id":"","pricing_plan_id":"cebpf4jnsgd1na2vs0mg"},{"bike_id":"8e5b2d83-feb0-426b-ad4c-2d0980ecf587","system_id":"levelo_inurba_marseille","lat":43.29271,"lon":5.38442,"is_reserved":false,"is_disabled":false,"rental_uris":{"android":"levelo://app?vid=8e5b2d83-feb0-426b-ad4c-2d0980ecf587","ios":"levelo://app?vid=8e5b2d83-feb0-426b-ad4c-2d0980ecf587"},"vehicle_type_id":"4","last_reported":1748531452,"current_range_meters":6400,"station_id":"ce4bh692rcd13ifvqea0","pricing_plan_id":"cebpf4jnsgd1na2vs0mg"},{"bike_id":"87a92e3e-9e63-416d-b2ed-ed786f4b32d1","system_id":"levelo_inurba_marseille","lat":43.28157,"lon":5.42655,"is_reserved":false,"is_disabled":false,"rental_uris":{"android":"levelo://app?vid=87a92e3e-9e63-416d-b2ed-ed786f4b32d1","ios":"levelo://app?vid=87a92e3e-9e63-416d-b2ed-ed786f4b32d1"},"vehicle_type_id":"4","last_reported":1748531452,"current_range_meters":6400,"station_id":"ce4bhnh2rcd13ifvqgug","pricing_plan_id":"cebpf4jnsgd1na2vs0mg"},{"bike_id":"3f2293bf-9c7b-47b2-b599-bdca1b8a97dc","system_id":"levelo_inurba_marseille","lat":43.25496,"lon":5.37652,"is_reserved":false,"is_disabled":false,"rental_uris":{"android":"levelo://app?vid=3f2293bf-9c7b-47b2-b599-bdca1b8a97dc","ios":"levelo://app?vid=3f2293bf-9c7b-47b2-b599-bdca1b8a97dc"},"vehicle_type_id":"4","last_reported":1748531452,"current_range_meters":6400,"station_id":"ce4bhh12rcd13ifvqff0","pricing_plan_id":"cebpf4jnsgd1na2vs0mg"},{"bike_id":"09dd147f-4bf1-4e79-90a2-9f9d1bf4c433","system_id":"levelo_inurba_marseille","lat":43.241659,"lon":5.363898,"is_reserved":false,"is_disabled":false,"rental_uris":{"android":"levelo://app?vid=09dd147f-4bf1-4e79-90a2-9f9d1bf4c433","ios":"levelo://app?vid=09dd147f-4bf1-4e79-90a2-9f9d1bf4c433"},"vehicle_type_id":"4","last_reported":1748531452,"current_range_meters":6400,"station_id":"cpo36qri1sfpv3e86is0","pricing_plan_id":"cebpf4jnsgd1na2vs0mg"},{"bike_id":"f6a47009-c675-4b06-8efe-f673cb9fe3e8","system_id":"levelo_inurba_marseille","lat":43.26556,"lon":5.37296,"is_reserved":false,"is_disabled":false,"rental_uris":{"android":"levelo://app?vid=f6a47009-c675-4b06-8efe-f673cb9fe3e8","ios":"levelo://app?vid=f6a47009-c675-4b06-8efe-f673cb9fe3e8"},"vehicle_type_id":"4","last_reported":1748531452,"current_range_meters":6800,"station_id":"ce4bhg12rcd13ifvqf70","pricing_plan_id":"cebpf4jnsgd1na2vs0mg"},{"bike_id":"b6194222-a80b-43bc-b765-fba2143e9c5c","system_id":"levelo_inurba_marseille","lat":43.23194,"lon":5.35565,"is_reserved":false,"is_disabled":false,"rental_uris":{"android":"levelo://app?vid=b6194222-a80b-43bc-b765-fba2143e9c5c","ios":"levelo://app?vid=b6194222-a80b-43bc-b765-fba2143e9c5c"},"vehicle_type_id":"4","last_reported":1748531452,"current_range_meters":6800,"station_id":"ce4bhu92rcd13ifvqi70","pricing_plan_id":"cebpf4jnsgd1na2vs0mg"},{"bike_id":"77f2a78c-cfd3-4f76-8c88-9bf4a383893f","system_id":"levelo_inurba_marseille","lat":43.22938,"lon":5.3538,"is_reserved":false,"is_disabled":false,"rental_uris":{"android":"levelo://app?vid=77f2a78c-cfd3-4f76-8c88-9bf4a383893f","ios":"levelo://app?vid=77f2a78c-cfd3-4f76-8c88-9bf4a383893f"},"vehicle_type_id":"4","last_reported":1748531452,"current_range_meters":6800,"station_id":"cpo3532slgdg3j2ikp40","pricing_plan_id":"cebpf4jnsgd1na2vs0mg"},{"bike_id":"159ffec6-027c-402f-84b8-df9b916e98bc","system_id":"levelo_inurba_marseille","lat":43.28619,"lon":5.35108,"is_reserved":false,"is_disabled":false,"rental_uris":{"android":"levelo://app?vid=159ffec6-027c-402f-84b8-df9b916e98bc","ios":"levelo://app?vid=159ffec6-027c-402f-84b8-df9b916e98bc"},"vehicle_type_id":"4","last_reported":1748531452,"current_range_meters":6800,"station_id":"ce4bhch2rcd13ifvqeug","pricing_plan_id":"cebpf4jnsgd1na2vs0mg"},{"bike_id":"bf106879-ecde-48b6-8ced-379454d46ddc","system_id":"levelo_inurba_marseille","lat":43.26552,"lon":5.37295,"is_reserved":false,"is_disabled":false,"rental_uris":{"android":"levelo://app?vid=bf106879-ecde-48b6-8ced-379454d46ddc","ios":"levelo://app?vid=bf106879-ecde-48b6-8ced-379454d46ddc"},"vehicle_type_id":"4","last_reported":1748531452,"current_range_meters":6800,"station_id":"ce4bhg12rcd13ifvqf70","pricing_plan_id":"cebpf4jnsgd1na2vs0mg"},{"bike_id":"958316c6-f8cf-4565-97cb-5aa5f76e68a0","system_id":"levelo_inurba_marseille","lat":43.27051,"lon":5.40268,"is_reserved":false,"is_disabled":false,"rental_uris":{"android":"levelo://app?vid=958316c6-f8cf-4565-97cb-5aa5f76e68a0","ios":"levelo://app?vid=958316c6-f8cf-4565-97cb-5aa5f76e68a0"},"vehicle_type_id":"4","last_reported":1748531452,"current_range_meters":6800,"station_id":"ce4bhk92rcd13ifvqgc0","pricing_plan_id":"cebpf4jnsgd1na2vs0mg"},{"bike_id":"5986d3c8-eb72-4fee-ba24-1d7c1d21fcd7","system_id":"levelo_inurba_marseille","lat":43.26566,"lon":5.39015,"is_reserved":false,"is_disabled":false,"rental_uris":{"android":"levelo://app?vid=5986d3c8-eb72-4fee-ba24-1d7c1d21fcd7","ios":"levelo://app?vid=5986d3c8-eb72-4fee-ba24-1d7c1d21fcd7"},"vehicle_type_id":"4","last_reported":1748531452,"current_range_meters":7200,"station_id":"ce4bhe12rcd13ifvqf30","pricing_plan_id":"cebpf4jnsgd1na2vs0mg"},{"bike_id":"78353d3a-f046-4900-8502-614ce335636a","system_id":"levelo_inurba_marseille","lat":43.29054,"lon":5.35936,"is_reserved":false,"is_disabled":true,"rental_uris":{"android":"levelo://app?vid=78353d3a-f046-4900-8502-614ce335636a","ios":"levelo://app?vid=78353d3a-f046-4900-8502-614ce335636a"},"vehicle_type_id":"4","last_reported":1748531452,"current_range_meters":7200,"station_id":"ce4bha92rcd13ifvqeg0","pricing_plan_id":"cebpf4jnsgd1na2vs0mg"},{"bike_id":"1eed49fb-ce64-4ebd-9903-7d87835a2ccf","system_id":"levelo_inurba_marseille","lat":43.29769,"lon":5.46004,"is_reserved":false,"is_disabled":false,"rental_uris":{"android":"levelo://app?vid=1eed49fb-ce64-4ebd-9903-7d87835a2ccf","ios":"levelo://app?vid=1eed49fb-ce64-4ebd-9903-7d87835a2ccf"},"vehicle_type_id":"4","last_reported":1748531452,"current_range_meters":7200,"station_id":"","pricing_plan_id":"cebpf4jnsgd1na2vs0mg"},{"bike_id":"e3f8d37b-c467-493a-b2f2-80825f1337db","system_id":"levelo_inurba_marseille","lat":43.23182,"lon":5.39993,"is_reserved":false,"is_disabled":false,"rental_uris":{"android":"levelo://app?vid=e3f8d37b-c467-493a-b2f2-80825f1337db","ios":"levelo://app?vid=e3f8d37b-c467-493a-b2f2-80825f1337db"},"vehicle_type_id":"4","last_reported":1748531452,"current_range_meters":10800,"station_id":"ce4bhn12rcd13ifvqgqg","pricing_plan_id":"cebpf4jnsgd1na2vs0mg"},{"bike_id":"f929a435-e7ab-4033-af2d-8e9342ab509b","system_id":"levelo_inurba_marseille","lat":43.29367,"lon":5.37831,"is_reserved":false,"is_disabled":false,"rental_uris":{"android":"levelo://app?vid=f929a435-e7ab-4033-af2d-8e9342ab509b","ios":"levelo://app?vid=f929a435-e7ab-4033-af2d-8e9342ab509b"},"vehicle_type_id":"4","last_reported":1748531452,"current_range_meters":6800,"station_id":"","pricing_plan_id":"cebpf4jnsgd1na2vs0mg"},{"bike_id":"57b5f64c-bdd5-4a8d-b73a-f30035957fd1","system_id":"levelo_inurba_marseille","lat":43.302483,"lon":5.400628,"is_reserved":false,"is_disabled":true,"rental_uris":{"android":"levelo://app?vid=57b5f64c-bdd5-4a8d-b73a-f30035957fd1","ios":"levelo://app?vid=57b5f64c-bdd5-4a8d-b73a-f30035957fd1"},"vehicle_type_id":"4","last_reported":1748531452,"current_range_meters":7200,"station_id":"","pricing_plan_id":"cebpf4jnsgd1na2vs0mg"},{"bike_id":"f0e12869-ccfc-49f7-8bf1-87de5389d98e","system_id":"levelo_inurba_marseille","lat":43.27492,"lon":5.42454,"is_reserved":false,"is_disabled":false,"rental_uris":{"android":"levelo://app?vid=f0e12869-ccfc-49f7-8bf1-87de5389d98e","ios":"levelo://app?vid=f0e12869-ccfc-49f7-8bf1-87de5389d98e"},"vehicle_type_id":"4","last_reported":1748531452,"current_range_meters":7200,"station_id":"ce4bhn92rcd13ifvqgrg","pricing_plan_id":"cebpf4jnsgd1na2vs0mg"},{"bike_id":"c0d5ccd3-cc9b-42dc-bafd-57829be782b0","system_id":"levelo_inurba_marseille","lat":43.30802,"lon":5.43531,"is_reserved":false,"is_disabled":false,"rental_uris":{"android":"levelo://app?vid=c0d5ccd3-cc9b-42dc-bafd-57829be782b0","ios":"levelo://app?vid=c0d5ccd3-cc9b-42dc-bafd-57829be782b0"},"vehicle_type_id":"4","last_reported":1748531452,"current_range_meters":8400,"station_id":"ce4bhph2rcd13ifvqheg","pricing_plan_id":"cebpf4jnsgd1na2vs0mg"},{"bike_id":"513b31ef-05fe-42b4-af27-da1c216b5294","system_id":"levelo_inurba_marseille","lat":43.2862,"lon":5.35103,"is_reserved":false,"is_disabled":false,"rental_uris":{"android":"levelo://app?vid=513b31ef-05fe-42b4-af27-da1c216b5294","ios":"levelo://app?vid=513b31ef-05fe-42b4-af27-da1c216b5294"},"vehicle_type_id":"4","last_reported":1748531452,"current_range_meters":8000,"station_id":"ce4bhch2rcd13ifvqeug","pricing_plan_id":"cebpf4jnsgd1na2vs0mg"},{"bike_id":"8e0ad96c-e1bb-494c-b655-d63a68a4dc08","system_id":"levelo_inurba_marseille","lat":43.28413,"lon":5.34983,"is_reserved":false,"is_disabled":false,"rental_uris":{"android":"levelo://app?vid=8e0ad96c-e1bb-494c-b655-d63a68a4dc08","ios":"levelo://app?vid=8e0ad96c-e1bb-494c-b655-d63a68a4dc08"},"vehicle_type_id":"4","last_reported":1748531452,"current_range_meters":8000,"station_id":"ce4bhbh2rcd13ifvqepg","pricing_plan_id":"cebpf4jnsgd1na2vs0mg"},{"bike_id":"c7e2a24a-5dc7-46e6-a6c4-4edc64b9457e","system_id":"levelo_inurba_marseille","lat":43.29911,"lon":5.37478,"is_reserved":false,"is_disabled":false,"rental_uris":{"android":"levelo://app?vid=c7e2a24a-5dc7-46e6-a6c4-4edc64b9457e","ios":"levelo://app?vid=c7e2a24a-5dc7-46e6-a6c4-4edc64b9457e"},"vehicle_type_id":"4","last_reported":1748531452,"current_range_meters":8000,"station_id":"ce4bgjh2rcd13ifvqbg0","pricing_plan_id":"cebpf4jnsgd1na2vs0mg"},{"bike_id":"97f0d98a-b9cd-4369-81b9-9a95a6f222c8","system_id":"levelo_inurba_marseille","lat":43.25929,"lon":5.40908,"is_reserved":false,"is_disabled":false,"rental_uris":{"android":"levelo://app?vid=97f0d98a-b9cd-4369-81b9-9a95a6f222c8","ios":"levelo://app?vid=97f0d98a-b9cd-4369-81b9-9a95a6f222c8"},"vehicle_type_id":"4","last_reported":1748531452,"current_range_meters":8000,"station_id":"ce4bhm92rcd13ifvqglg","pricing_plan_id":"cebpf4jnsgd1na2vs0mg"},{"bike_id":"06fa7f58-77de-46f4-936a-4448f69929e3","system_id":"levelo_inurba_marseille","lat":43.31496,"lon":5.37308,"is_reserved":false,"is_disabled":false,"rental_uris":{"android":"levelo://app?vid=06fa7f58-77de-46f4-936a-4448f69929e3","ios":"levelo://app?vid=06fa7f58-77de-46f4-936a-4448f69929e3"},"vehicle_type_id":"4","last_reported":1748531452,"current_range_meters":8000,"station_id":"ce4bgt12rcd13ifvqcd0","pricing_plan_id":"cebpf4jnsgd1na2vs0mg"},{"bike_id":"2f650bb1-6027-4191-83d2-16315820a0a7","system_id":"levelo_inurba_marseille","lat":43.30006,"lon":5.37349,"is_reserved":false,"is_disabled":false,"rental_uris":{"android":"levelo://app?vid=2f650bb1-6027-4191-83d2-16315820a0a7","ios":"levelo://app?vid=2f650bb1-6027-4191-83d2-16315820a0a7"},"vehicle_type_id":"4","last_reported":1748531452,"current_range_meters":8000,"station_id":"","pricing_plan_id":"cebpf4jnsgd1na2vs0mg"},{"bike_id":"0bd424c3-8347-472f-b070-0d5551846b4f","system_id":"levelo_inurba_marseille","lat":43.29935,"lon":5.36551,"is_reserved":false,"is_disabled":false,"rental_uris":{"android":"levelo://app?vid=0bd424c3-8347-472f-b070-0d5551846b4f","ios":"levelo://app?vid=0bd424c3-8347-472f-b070-0d5551846b4f"},"vehicle_type_id":"4","last_reported":1748531452,"current_range_meters":8000,"station_id":"ce4bgm92rcd13ifvqbr0","pricing_plan_id":"cebpf4jnsgd1na2vs0mg"},{"bike_id":"84adab0f-96c1-4426-bc86-147d47e6151b","system_id":"levelo_inurba_marseille","lat":43.23191,"lon":5.35553,"is_reserved":false,"is_disabled":false,"rental_uris":{"android":"levelo://app?vid=84adab0f-96c1-4426-bc86-147d47e6151b","ios":"levelo://app?vid=84adab0f-96c1-4426-bc86-147d47e6151b"},"vehicle_type_id":"4","last_reported":1748531452,"current_range_meters":8400,"station_id":"ce4bhu92rcd13ifvqi70","pricing_plan_id":"cebpf4jnsgd1na2vs0mg"},{"bike_id":"c61d6114-7cc3-4956-bb3c-b4a6743a6b7b","system_id":"levelo_inurba_marseille","lat":43.26225,"lon":5.40445,"is_reserved":false,"is_disabled":false,"rental_uris":{"android":"levelo://app?vid=c61d6114-7cc3-4956-bb3c-b4a6743a6b7b","ios":"levelo://app?vid=c61d6114-7cc3-4956-bb3c-b4a6743a6b7b"},"vehicle_type_id":"4","last_reported":1748531452,"current_range_meters":8400,"station_id":"ce4bhmh2rcd13ifvqgmg","pricing_plan_id":"cebpf4jnsgd1na2vs0mg"},{"bike_id":"ccc3f24f-bec3-451f-9bb4-5770cd38e9fd","system_id":"levelo_inurba_marseille","lat":43.28425,"lon":5.35001,"is_reserved":false,"is_disabled":false,"rental_uris":{"android":"levelo://app?vid=ccc3f24f-bec3-451f-9bb4-5770cd38e9fd","ios":"levelo://app?vid=ccc3f24f-bec3-451f-9bb4-5770cd38e9fd"},"vehicle_type_id":"4","last_reported":1748531452,"current_range_meters":8400,"station_id":"ce4bhbh2rcd13ifvqepg","pricing_plan_id":"cebpf4jnsgd1na2vs0mg"},{"bike_id":"86f11208-7f90-4009-a976-cc81e2c7825f","system_id":"levelo_inurba_marseille","lat":43.241685,"lon":5.363992,"is_reserved":false,"is_disabled":false,"rental_uris":{"android":"levelo://app?vid=86f11208-7f90-4009-a976-cc81e2c7825f","ios":"levelo://app?vid=86f11208-7f90-4009-a976-cc81e2c7825f"},"vehicle_type_id":"4","last_reported":1748531452,"current_range_meters":8400,"station_id":"cpo36qri1sfpv3e86is0","pricing_plan_id":"cebpf4jnsgd1na2vs0mg"},{"bike_id":"11efe713-ed18-41e4-afcb-6538cda54c1b","system_id":"levelo_inurba_marseille","lat":43.2417,"lon":5.36435,"is_reserved":false,"is_disabled":false,"rental_uris":{"android":"levelo://app?vid=11efe713-ed18-41e4-afcb-6538cda54c1b","ios":"levelo://app?vid=11efe713-ed18-41e4-afcb-6538cda54c1b"},"vehicle_type_id":"4","last_reported":1748531452,"current_range_meters":8400,"station_id":"cpo36qri1sfpv3e86is0","pricing_plan_id":"cebpf4jnsgd1na2vs0mg"},{"bike_id":"6b8fcb4d-59a2-4393-93aa-3446f52231b1","system_id":"levelo_inurba_marseille","lat":43.24803,"lon":5.37461,"is_reserved":false,"is_disabled":false,"rental_uris":{"android":"levelo://app?vid=6b8fcb4d-59a2-4393-93aa-3446f52231b1","ios":"levelo://app?vid=6b8fcb4d-59a2-4393-93aa-3446f52231b1"},"vehicle_type_id":"4","last_reported":1748531452,"current_range_meters":2800,"station_id":"ce4bhgh2rcd13ifvqfb0","pricing_plan_id":"cebpf4jnsgd1na2vs0mg"},{"bike_id":"9945d976-dd13-474b-a1f4-abbd66460895","system_id":"levelo_inurba_marseille","lat":43.27384,"lon":5.36261,"is_reserved":false,"is_disabled":false,"rental_uris":{"android":"levelo://app?vid=9945d976-dd13-474b-a1f4-abbd66460895","ios":"levelo://app?vid=9945d976-dd13-474b-a1f4-abbd66460895"},"vehicle_type_id":"4","last_reported":1748531452,"current_range_meters":8400,"station_id":"ce4bhbh2rcd13ifvqeo0","pricing_plan_id":"cebpf4jnsgd1na2vs0mg"},{"bike_id":"3a547af5-ad20-4023-b6ea-1ce1f8a6b052","system_id":"levelo_inurba_marseille","lat":43.26561,"lon":5.39015,"is_reserved":false,"is_disabled":false,"rental_uris":{"android":"levelo://app?vid=3a547af5-ad20-4023-b6ea-1ce1f8a6b052","ios":"levelo://app?vid=3a547af5-ad20-4023-b6ea-1ce1f8a6b052"},"vehicle_type_id":"4","last_reported":1748531452,"current_range_meters":8400,"station_id":"ce4bhe12rcd13ifvqf30","pricing_plan_id":"cebpf4jnsgd1na2vs0mg"},{"bike_id":"8472c6ba-4097-4b01-afcd-c81b98519f37","system_id":"levelo_inurba_marseille","lat":43.25004,"lon":5.38934,"is_reserved":false,"is_disabled":false,"rental_uris":{"android":"levelo://app?vid=8472c6ba-4097-4b01-afcd-c81b98519f37","ios":"levelo://app?vid=8472c6ba-4097-4b01-afcd-c81b98519f37"},"vehicle_type_id":"4","last_reported":1748531452,"current_range_meters":8400,"station_id":"ce4bhgp2rcd13ifvqfd0","pricing_plan_id":"cebpf4jnsgd1na2vs0mg"},{"bike_id":"347add0d-fb47-4ed5-8e0d-b3a035dcbcaa","system_id":"levelo_inurba_marseille","lat":43.28628,"lon":5.35141,"is_reserved":false,"is_disabled":true,"rental_uris":{"android":"levelo://app?vid=347add0d-fb47-4ed5-8e0d-b3a035dcbcaa","ios":"levelo://app?vid=347add0d-fb47-4ed5-8e0d-b3a035dcbcaa"},"vehicle_type_id":"4","last_reported":1748531452,"current_range_meters":8400,"station_id":"ce4bhch2rcd13ifvqeug","pricing_plan_id":"cebpf4jnsgd1na2vs0mg"},{"bike_id":"2391522c-82e7-4e00-9983-9b1f2b173df5","system_id":"levelo_inurba_marseille","lat":43.28261,"lon":5.35073,"is_reserved":false,"is_disabled":false,"rental_uris":{"android":"levelo://app?vid=2391522c-82e7-4e00-9983-9b1f2b173df5","ios":"levelo://app?vid=2391522c-82e7-4e00-9983-9b1f2b173df5"},"vehicle_type_id":"4","last_reported":1748531452,"current_range_meters":8400,"station_id":"ce4bhbp2rcd13ifvqerg","pricing_plan_id":"cebpf4jnsgd1na2vs0mg"},{"bike_id":"22771043-09b1-43eb-91e0-5c845144e1e3","system_id":"levelo_inurba_marseille","lat":43.2761,"lon":5.40866,"is_reserved":false,"is_disabled":false,"rental_uris":{"android":"levelo://app?vid=22771043-09b1-43eb-91e0-5c845144e1e3","ios":"levelo://app?vid=22771043-09b1-43eb-91e0-5c845144e1e3"},"vehicle_type_id":"4","last_reported":1748531452,"current_range_meters":8800,"station_id":"","pricing_plan_id":"cebpf4jnsgd1na2vs0mg"},{"bike_id":"52d5fac3-b8b2-412f-9940-ac0c06f6478f","system_id":"levelo_inurba_marseille","lat":43.25242,"lon":5.37634,"is_reserved":false,"is_disabled":false,"rental_uris":{"android":"levelo://app?vid=52d5fac3-b8b2-412f-9940-ac0c06f6478f","ios":"levelo://app?vid=52d5fac3-b8b2-412f-9940-ac0c06f6478f"},"vehicle_type_id":"4","last_reported":1748531452,"current_range_meters":8800,"station_id":"","pricing_plan_id":"cebpf4jnsgd1na2vs0mg"},{"bike_id":"006bf057-246e-4a6b-8884-6746742f6a42","system_id":"levelo_inurba_marseille","lat":43.25511,"lon":5.37681,"is_reserved":false,"is_disabled":false,"rental_uris":{"android":"levelo://app?vid=006bf057-246e-4a6b-8884-6746742f6a42","ios":"levelo://app?vid=006bf057-246e-4a6b-8884-6746742f6a42"},"vehicle_type_id":"4","last_reported":1748531452,"current_range_meters":8800,"station_id":"ce4bhh12rcd13ifvqff0","pricing_plan_id":"cebpf4jnsgd1na2vs0mg"},{"bike_id":"a853e1c2-8d75-493a-840b-aaba88d28284","system_id":"levelo_inurba_marseille","lat":43.26235,"lon":5.37469,"is_reserved":false,"is_disabled":false,"rental_uris":{"android":"levelo://app?vid=a853e1c2-8d75-493a-840b-aaba88d28284","ios":"levelo://app?vid=a853e1c2-8d75-493a-840b-aaba88d28284"},"vehicle_type_id":"4","last_reported":1748531452,"current_range_meters":9200,"station_id":"ce4bhgp2rcd13ifvqfc0","pricing_plan_id":"cebpf4jnsgd1na2vs0mg"},{"bike_id":"ccff9994-1e06-4cea-bd4b-366cc27d6fc7","system_id":"levelo_inurba_marseille","lat":43.260266,"lon":5.37551,"is_reserved":false,"is_disabled":false,"rental_uris":{"android":"levelo://app?vid=ccff9994-1e06-4cea-bd4b-366cc27d6fc7","ios":"levelo://app?vid=ccff9994-1e06-4cea-bd4b-366cc27d6fc7"},"vehicle_type_id":"4","last_reported":1748531452,"current_range_meters":9200,"station_id":"ce4bhgh2rcd13ifvqfa0","pricing_plan_id":"cebpf4jnsgd1na2vs0mg"},{"bike_id":"bdb897c3-d857-471a-9c40-0955e6133c07","system_id":"levelo_inurba_marseille","lat":43.28615,"lon":5.35105,"is_reserved":false,"is_disabled":false,"rental_uris":{"android":"levelo://app?vid=bdb897c3-d857-471a-9c40-0955e6133c07","ios":"levelo://app?vid=bdb897c3-d857-471a-9c40-0955e6133c07"},"vehicle_type_id":"4","last_reported":1748531452,"current_range_meters":9200,"station_id":"ce4bhch2rcd13ifvqeug","pricing_plan_id":"cebpf4jnsgd1na2vs0mg"},{"bike_id":"fc4c343f-958e-4a35-92da-5e57bf95167f","system_id":"levelo_inurba_marseille","lat":43.31368,"lon":5.3849,"is_reserved":false,"is_disabled":false,"rental_uris":{"android":"levelo://app?vid=fc4c343f-958e-4a35-92da-5e57bf95167f","ios":"levelo://app?vid=fc4c343f-958e-4a35-92da-5e57bf95167f"},"vehicle_type_id":"4","last_reported":1748531452,"current_range_meters":11600,"station_id":"ce4bgt92rcd13ifvqcf0","pricing_plan_id":"cebpf4jnsgd1na2vs0mg"},{"bike_id":"82096069-64b7-4fa6-b4a8-82fb0677ee9e","system_id":"levelo_inurba_marseille","lat":43.23959,"lon":5.36664,"is_reserved":false,"is_disabled":false,"rental_uris":{"android":"levelo://app?vid=82096069-64b7-4fa6-b4a8-82fb0677ee9e","ios":"levelo://app?vid=82096069-64b7-4fa6-b4a8-82fb0677ee9e"},"vehicle_type_id":"4","last_reported":1748531452,"current_range_meters":9200,"station_id":"ce4bhi12rcd13ifvqfp0","pricing_plan_id":"cebpf4jnsgd1na2vs0mg"},{"bike_id":"24cd34e1-bb74-4352-90f7-805b9231f525","system_id":"levelo_inurba_marseille","lat":43.26386,"lon":5.42005,"is_reserved":false,"is_disabled":false,"rental_uris":{"android":"levelo://app?vid=24cd34e1-bb74-4352-90f7-805b9231f525","ios":"levelo://app?vid=24cd34e1-bb74-4352-90f7-805b9231f525"},"vehicle_type_id":"4","last_reported":1748531452,"current_range_meters":9200,"station_id":"","pricing_plan_id":"cebpf4jnsgd1na2vs0mg"},{"bike_id":"10a7f7f4-93f6-435d-b6ae-9ddb9206cfa5","system_id":"levelo_inurba_marseille","lat":43.23153,"lon":5.43712,"is_reserved":false,"is_disabled":false,"rental_uris":{"android":"levelo://app?vid=10a7f7f4-93f6-435d-b6ae-9ddb9206cfa5","ios":"levelo://app?vid=10a7f7f4-93f6-435d-b6ae-9ddb9206cfa5"},"vehicle_type_id":"4","last_reported":1748531452,"current_range_meters":8800,"station_id":"ce4bhmp2rcd13ifvqgog","pricing_plan_id":"cebpf4jnsgd1na2vs0mg"},{"bike_id":"b0a25b5c-b702-42c8-8351-55f4b646f479","system_id":"levelo_inurba_marseille","lat":43.27374,"lon":5.36258,"is_reserved":false,"is_disabled":false,"rental_uris":{"android":"levelo://app?vid=b0a25b5c-b702-42c8-8351-55f4b646f479","ios":"levelo://app?vid=b0a25b5c-b702-42c8-8351-55f4b646f479"},"vehicle_type_id":"4","last_reported":1748531452,"current_range_meters":9600,"station_id":"ce4bhbh2rcd13ifvqeo0","pricing_plan_id":"cebpf4jnsgd1na2vs0mg"},{"bike_id":"afc6d195-5a9c-4f51-a785-25b907e74ae1","system_id":"levelo_inurba_marseille","lat":43.30303,"lon":5.3921,"is_reserved":false,"is_disabled":false,"rental_uris":{"android":"levelo://app?vid=afc6d195-5a9c-4f51-a785-25b907e74ae1","ios":"levelo://app?vid=afc6d195-5a9c-4f51-a785-25b907e74ae1"},"vehicle_type_id":"4","last_reported":1748531452,"current_range_meters":9600,"station_id":"ce4bgkh2rcd13ifvqbk0","pricing_plan_id":"cebpf4jnsgd1na2vs0mg"},{"bike_id":"e2c52709-4576-4edc-909d-4009fa50a75c","system_id":"levelo_inurba_marseille","lat":43.29923,"lon":5.3747,"is_reserved":false,"is_disabled":false,"rental_uris":{"android":"levelo://app?vid=e2c52709-4576-4edc-909d-4009fa50a75c","ios":"levelo://app?vid=e2c52709-4576-4edc-909d-4009fa50a75c"},"vehicle_type_id":"4","last_reported":1748531452,"current_range_meters":10000,"station_id":"ce4bgjh2rcd13ifvqbg0","pricing_plan_id":"cebpf4jnsgd1na2vs0mg"},{"bike_id":"af1dc9b2-164b-4021-88df-830111ab755c","system_id":"levelo_inurba_marseille","lat":43.32357,"lon":5.36915,"is_reserved":false,"is_disabled":false,"rental_uris":{"android":"levelo://app?vid=af1dc9b2-164b-4021-88df-830111ab755c","ios":"levelo://app?vid=af1dc9b2-164b-4021-88df-830111ab755c"},"vehicle_type_id":"4","last_reported":1748531452,"current_range_meters":9600,"station_id":"","pricing_plan_id":"cebpf4jnsgd1na2vs0mg"},{"bike_id":"7ef9dcf7-719d-4b68-9f96-9bdabe26daa4","system_id":"levelo_inurba_marseille","lat":43.292198,"lon":5.359127,"is_reserved":false,"is_disabled":false,"rental_uris":{"android":"levelo://app?vid=7ef9dcf7-719d-4b68-9f96-9bdabe26daa4","ios":"levelo://app?vid=7ef9dcf7-719d-4b68-9f96-9bdabe26daa4"},"vehicle_type_id":"4","last_reported":1748531452,"current_range_meters":9600,"station_id":"ce4bgi12rcd13ifvqb70","pricing_plan_id":"cebpf4jnsgd1na2vs0mg"},{"bike_id":"5ae54f12-63cc-42f5-a307-5695f693bd34","system_id":"levelo_inurba_marseille","lat":43.24391,"lon":5.37063,"is_reserved":false,"is_disabled":false,"rental_uris":{"android":"levelo://app?vid=5ae54f12-63cc-42f5-a307-5695f693bd34","ios":"levelo://app?vid=5ae54f12-63cc-42f5-a307-5695f693bd34"},"vehicle_type_id":"4","last_reported":1748531452,"current_range_meters":9600,"station_id":"ce4bhhh2rcd13ifvqfk0","pricing_plan_id":"cebpf4jnsgd1na2vs0mg"},{"bike_id":"2b2c6e6c-9b3e-4840-9b0e-a40e9d93264b","system_id":"levelo_inurba_marseille","lat":43.28723,"lon":5.36089,"is_reserved":false,"is_disabled":false,"rental_uris":{"android":"levelo://app?vid=2b2c6e6c-9b3e-4840-9b0e-a40e9d93264b","ios":"levelo://app?vid=2b2c6e6c-9b3e-4840-9b0e-a40e9d93264b"},"vehicle_type_id":"4","last_reported":1748531452,"current_range_meters":9600,"station_id":"cki0cbj6b192h4jlfktg","pricing_plan_id":"cebpf4jnsgd1na2vs0mg"},{"bike_id":"6af3c224-0761-4800-a562-e06feca0d455","system_id":"levelo_inurba_marseille","lat":43.25006,"lon":5.38933,"is_reserved":false,"is_disabled":false,"rental_uris":{"android":"levelo://app?vid=6af3c224-0761-4800-a562-e06feca0d455","ios":"levelo://app?vid=6af3c224-0761-4800-a562-e06feca0d455"},"vehicle_type_id":"4","last_reported":1748531452,"current_range_meters":9600,"station_id":"ce4bhgp2rcd13ifvqfd0","pricing_plan_id":"cebpf4jnsgd1na2vs0mg"},{"bike_id":"1492e3c6-bf8f-4c20-86ad-978d836f6f2c","system_id":"levelo_inurba_marseille","lat":43.23156,"lon":5.43733,"is_reserved":false,"is_disabled":false,"rental_uris":{"android":"levelo://app?vid=1492e3c6-bf8f-4c20-86ad-978d836f6f2c","ios":"levelo://app?vid=1492e3c6-bf8f-4c20-86ad-978d836f6f2c"},"vehicle_type_id":"4","last_reported":1748531452,"current_range_meters":9600,"station_id":"ce4bhmp2rcd13ifvqgog","pricing_plan_id":"cebpf4jnsgd1na2vs0mg"},{"bike_id":"7358e83e-c793-4fa4-b28b-551c92b95f0a","system_id":"levelo_inurba_marseille","lat":43.23154,"lon":5.4372,"is_reserved":false,"is_disabled":false,"rental_uris":{"android":"levelo://app?vid=7358e83e-c793-4fa4-b28b-551c92b95f0a","ios":"levelo://app?vid=7358e83e-c793-4fa4-b28b-551c92b95f0a"},"vehicle_type_id":"4","last_reported":1748531452,"current_range_meters":9600,"station_id":"ce4bhmp2rcd13ifvqgog","pricing_plan_id":"cebpf4jnsgd1na2vs0mg"},{"bike_id":"f293ba09-4b7e-4261-9c45-5e8e5f6ff81c","system_id":"levelo_inurba_marseille","lat":43.30378,"lon":5.42485,"is_reserved":false,"is_disabled":false,"rental_uris":{"android":"levelo://app?vid=f293ba09-4b7e-4261-9c45-5e8e5f6ff81c","ios":"levelo://app?vid=f293ba09-4b7e-4261-9c45-5e8e5f6ff81c"},"vehicle_type_id":"4","last_reported":1748531452,"current_range_meters":10000,"station_id":"ce4bhoh2rcd13ifvqh6g","pricing_plan_id":"cebpf4jnsgd1na2vs0mg"},{"bike_id":"6d9fa702-19d9-445a-9211-9ed1eb5ea4b9","system_id":"levelo_inurba_marseille","lat":43.28636,"lon":5.35102,"is_reserved":false,"is_disabled":false,"rental_uris":{"android":"levelo://app?vid=6d9fa702-19d9-445a-9211-9ed1eb5ea4b9","ios":"levelo://app?vid=6d9fa702-19d9-445a-9211-9ed1eb5ea4b9"},"vehicle_type_id":"4","last_reported":1748531452,"current_range_meters":10000,"station_id":"ce4bhch2rcd13ifvqeug","pricing_plan_id":"cebpf4jnsgd1na2vs0mg"},{"bike_id":"f85c4e66-410c-4bdd-b72d-b9511fd1a353","system_id":"levelo_inurba_marseille","lat":43.27381,"lon":5.3626,"is_reserved":false,"is_disabled":false,"rental_uris":{"android":"levelo://app?vid=f85c4e66-410c-4bdd-b72d-b9511fd1a353","ios":"levelo://app?vid=f85c4e66-410c-4bdd-b72d-b9511fd1a353"},"vehicle_type_id":"4","last_reported":1748531452,"current_range_meters":10000,"station_id":"ce4bhbh2rcd13ifvqeo0","pricing_plan_id":"cebpf4jnsgd1na2vs0mg"},{"bike_id":"2e8c71e1-de17-4f42-a3a1-a99218603d98","system_id":"levelo_inurba_marseille","lat":43.28466,"lon":5.3588,"is_reserved":false,"is_disabled":false,"rental_uris":{"android":"levelo://app?vid=2e8c71e1-de17-4f42-a3a1-a99218603d98","ios":"levelo://app?vid=2e8c71e1-de17-4f42-a3a1-a99218603d98"},"vehicle_type_id":"4","last_reported":1748531452,"current_range_meters":10000,"station_id":"ce4bhah2rcd13ifvqei0","pricing_plan_id":"cebpf4jnsgd1na2vs0mg"},{"bike_id":"1daf19c2-1fe0-482f-b8c8-365a4ee657fc","system_id":"levelo_inurba_marseille","lat":43.28415,"lon":5.3499,"is_reserved":false,"is_disabled":false,"rental_uris":{"android":"levelo://app?vid=1daf19c2-1fe0-482f-b8c8-365a4ee657fc","ios":"levelo://app?vid=1daf19c2-1fe0-482f-b8c8-365a4ee657fc"},"vehicle_type_id":"4","last_reported":1748531452,"current_range_meters":10000,"station_id":"ce4bhbh2rcd13ifvqepg","pricing_plan_id":"cebpf4jnsgd1na2vs0mg"},{"bike_id":"f7d05fd7-18ec-4ada-9af2-2b5268182706","system_id":"levelo_inurba_marseille","lat":43.28,"lon":5.40012,"is_reserved":false,"is_disabled":false,"rental_uris":{"android":"levelo://app?vid=f7d05fd7-18ec-4ada-9af2-2b5268182706","ios":"levelo://app?vid=f7d05fd7-18ec-4ada-9af2-2b5268182706"},"vehicle_type_id":"4","last_reported":1748531452,"current_range_meters":10000,"station_id":"ce4bho92rcd13ifvqh4g","pricing_plan_id":"cebpf4jnsgd1na2vs0mg"},{"bike_id":"e608b2d5-d685-4238-86d0-496596df827c","system_id":"levelo_inurba_marseille","lat":43.26035,"lon":5.37547,"is_reserved":false,"is_disabled":false,"rental_uris":{"android":"levelo://app?vid=e608b2d5-d685-4238-86d0-496596df827c","ios":"levelo://app?vid=e608b2d5-d685-4238-86d0-496596df827c"},"vehicle_type_id":"4","last_reported":1748531452,"current_range_meters":9600,"station_id":"ce4bhgh2rcd13ifvqfa0","pricing_plan_id":"cebpf4jnsgd1na2vs0mg"},{"bike_id":"c5a22c65-3c58-4df0-8d94-f10dee63655a","system_id":"levelo_inurba_marseille","lat":43.29044,"lon":5.39961,"is_reserved":false,"is_disabled":false,"rental_uris":{"android":"levelo://app?vid=c5a22c65-3c58-4df0-8d94-f10dee63655a","ios":"levelo://app?vid=c5a22c65-3c58-4df0-8d94-f10dee63655a"},"vehicle_type_id":"4","last_reported":1748531452,"current_range_meters":10000,"station_id":"ce4bh392rcd13ifvqdm0","pricing_plan_id":"cebpf4jnsgd1na2vs0mg"},{"bike_id":"dc009045-7aef-4d17-bcae-67daeb608dc6","system_id":"levelo_inurba_marseille","lat":43.24176,"lon":5.36418,"is_reserved":false,"is_disabled":false,"rental_uris":{"android":"levelo://app?vid=dc009045-7aef-4d17-bcae-67daeb608dc6","ios":"levelo://app?vid=dc009045-7aef-4d17-bcae-67daeb608dc6"},"vehicle_type_id":"4","last_reported":1748531452,"current_range_meters":10000,"station_id":"cpo36qri1sfpv3e86is0","pricing_plan_id":"cebpf4jnsgd1na2vs0mg"},{"bike_id":"ac5f6473-3cd7-4624-b19b-a80b870aaab7","system_id":"levelo_inurba_marseille","lat":43.27381,"lon":5.36257,"is_reserved":false,"is_disabled":false,"rental_uris":{"android":"levelo://app?vid=ac5f6473-3cd7-4624-b19b-a80b870aaab7","ios":"levelo://app?vid=ac5f6473-3cd7-4624-b19b-a80b870aaab7"},"vehicle_type_id":"4","last_reported":1748531452,"current_range_meters":10000,"station_id":"ce4bhbh2rcd13ifvqeo0","pricing_plan_id":"cebpf4jnsgd1na2vs0mg"},{"bike_id":"ea65ba25-8345-4b4a-91da-84153fe7877f","system_id":"levelo_inurba_marseille","lat":43.23151,"lon":5.437543,"is_reserved":false,"is_disabled":false,"rental_uris":{"android":"levelo://app?vid=ea65ba25-8345-4b4a-91da-84153fe7877f","ios":"levelo://app?vid=ea65ba25-8345-4b4a-91da-84153fe7877f"},"vehicle_type_id":"4","last_reported":1748531452,"current_range_meters":10800,"station_id":"ce4bhmp2rcd13ifvqgog","pricing_plan_id":"cebpf4jnsgd1na2vs0mg"},{"bike_id":"11b196b0-bb2f-42a1-b9d1-f3db9a1a163c","system_id":"levelo_inurba_marseille","lat":43.28418,"lon":5.34984,"is_reserved":false,"is_disabled":false,"rental_uris":{"android":"levelo://app?vid=11b196b0-bb2f-42a1-b9d1-f3db9a1a163c","ios":"levelo://app?vid=11b196b0-bb2f-42a1-b9d1-f3db9a1a163c"},"vehicle_type_id":"4","last_reported":1748531452,"current_range_meters":10800,"station_id":"ce4bhbh2rcd13ifvqepg","pricing_plan_id":"cebpf4jnsgd1na2vs0mg"},{"bike_id":"d4128219-6b40-4819-b5ea-147e4151cd34","system_id":"levelo_inurba_marseille","lat":43.28854,"lon":5.35862,"is_reserved":false,"is_disabled":false,"rental_uris":{"android":"levelo://app?vid=d4128219-6b40-4819-b5ea-147e4151cd34","ios":"levelo://app?vid=d4128219-6b40-4819-b5ea-147e4151cd34"},"vehicle_type_id":"4","last_reported":1748531452,"current_range_meters":10800,"station_id":"ce4bhb12rcd13ifvqem0","pricing_plan_id":"cebpf4jnsgd1na2vs0mg"},{"bike_id":"4f28c650-21f0-48c4-9bf2-d324d32d2ed8","system_id":"levelo_inurba_marseille","lat":43.25501,"lon":5.37647,"is_reserved":false,"is_disabled":false,"rental_uris":{"android":"levelo://app?vid=4f28c650-21f0-48c4-9bf2-d324d32d2ed8","ios":"levelo://app?vid=4f28c650-21f0-48c4-9bf2-d324d32d2ed8"},"vehicle_type_id":"4","last_reported":1748531452,"current_range_meters":10800,"station_id":"ce4bhh12rcd13ifvqff0","pricing_plan_id":"cebpf4jnsgd1na2vs0mg"},{"bike_id":"f28793b1-6b2b-4e08-b5dc-2e9e4d4ce0cd","system_id":"levelo_inurba_marseille","lat":43.28264,"lon":5.350628,"is_reserved":false,"is_disabled":false,"rental_uris":{"android":"levelo://app?vid=f28793b1-6b2b-4e08-b5dc-2e9e4d4ce0cd","ios":"levelo://app?vid=f28793b1-6b2b-4e08-b5dc-2e9e4d4ce0cd"},"vehicle_type_id":"4","last_reported":1748531452,"current_range_meters":11200,"station_id":"ce4bhbp2rcd13ifvqerg","pricing_plan_id":"cebpf4jnsgd1na2vs0mg"},{"bike_id":"42dca157-bdb0-4361-8022-7979135f94aa","system_id":"levelo_inurba_marseille","lat":43.28583,"lon":5.36564,"is_reserved":false,"is_disabled":false,"rental_uris":{"android":"levelo://app?vid=42dca157-bdb0-4361-8022-7979135f94aa","ios":"levelo://app?vid=42dca157-bdb0-4361-8022-7979135f94aa"},"vehicle_type_id":"4","last_reported":1748531452,"current_range_meters":11200,"station_id":"","pricing_plan_id":"cebpf4jnsgd1na2vs0mg"},{"bike_id":"b181058a-6712-4a5f-b2eb-4e495664113a","system_id":"levelo_inurba_marseille","lat":43.282679,"lon":5.35074,"is_reserved":false,"is_disabled":false,"rental_uris":{"android":"levelo://app?vid=b181058a-6712-4a5f-b2eb-4e495664113a","ios":"levelo://app?vid=b181058a-6712-4a5f-b2eb-4e495664113a"},"vehicle_type_id":"4","last_reported":1748531452,"current_range_meters":11200,"station_id":"ce4bhbp2rcd13ifvqerg","pricing_plan_id":"cebpf4jnsgd1na2vs0mg"},{"bike_id":"b0f3ba33-b3f8-4eee-9f65-a4abd40b8d1d","system_id":"levelo_inurba_marseille","lat":43.27922,"lon":5.39575,"is_reserved":false,"is_disabled":false,"rental_uris":{"android":"levelo://app?vid=b0f3ba33-b3f8-4eee-9f65-a4abd40b8d1d","ios":"levelo://app?vid=b0f3ba33-b3f8-4eee-9f65-a4abd40b8d1d"},"vehicle_type_id":"4","last_reported":1748531452,"current_range_meters":11200,"station_id":"ce4bhf92rcd13ifvqf40","pricing_plan_id":"cebpf4jnsgd1na2vs0mg"},{"bike_id":"94ab50c5-5ed4-4425-a125-4254018f67e8","system_id":"levelo_inurba_marseille","lat":43.28611,"lon":5.35072,"is_reserved":false,"is_disabled":false,"rental_uris":{"android":"levelo://app?vid=94ab50c5-5ed4-4425-a125-4254018f67e8","ios":"levelo://app?vid=94ab50c5-5ed4-4425-a125-4254018f67e8"},"vehicle_type_id":"4","last_reported":1748531452,"current_range_meters":11200,"station_id":"ce4bhch2rcd13ifvqeug","pricing_plan_id":"cebpf4jnsgd1na2vs0mg"},{"bike_id":"e80a5456-1d93-4dd5-ba78-cc258228b819","system_id":"levelo_inurba_marseille","lat":43.29226,"lon":5.36065,"is_reserved":false,"is_disabled":false,"rental_uris":{"android":"levelo://app?vid=e80a5456-1d93-4dd5-ba78-cc258228b819","ios":"levelo://app?vid=e80a5456-1d93-4dd5-ba78-cc258228b819"},"vehicle_type_id":"4","last_reported":1748531452,"current_range_meters":11200,"station_id":"ce4bhbh2rcd13ifvqeqg","pricing_plan_id":"cebpf4jnsgd1na2vs0mg"},{"bike_id":"eafd9817-4a30-4749-a95e-3d21237a569d","system_id":"levelo_inurba_marseille","lat":43.241627,"lon":5.397193,"is_reserved":false,"is_disabled":false,"rental_uris":{"android":"levelo://app?vid=eafd9817-4a30-4749-a95e-3d21237a569d","ios":"levelo://app?vid=eafd9817-4a30-4749-a95e-3d21237a569d"},"vehicle_type_id":"4","last_reported":1748531452,"current_range_meters":11200,"station_id":"ce4bhn12rcd13ifvqgpg","pricing_plan_id":"cebpf4jnsgd1na2vs0mg"},{"bike_id":"0e009545-9acc-491d-b143-22cbd0096db4","system_id":"levelo_inurba_marseille","lat":43.33837,"lon":5.39251,"is_reserved":false,"is_disabled":false,"rental_uris":{"android":"levelo://app?vid=0e009545-9acc-491d-b143-22cbd0096db4","ios":"levelo://app?vid=0e009545-9acc-491d-b143-22cbd0096db4"},"vehicle_type_id":"4","last_reported":1748531452,"current_range_meters":11600,"station_id":"","pricing_plan_id":"cebpf4jnsgd1na2vs0mg"},{"bike_id":"3b523edd-d384-406b-83c0-d584e89a359d","system_id":"levelo_inurba_marseille","lat":43.23168,"lon":5.43698,"is_reserved":false,"is_disabled":false,"rental_uris":{"android":"levelo://app?vid=3b523edd-d384-406b-83c0-d584e89a359d","ios":"levelo://app?vid=3b523edd-d384-406b-83c0-d584e89a359d"},"vehicle_type_id":"4","last_reported":1748531452,"current_range_meters":11600,"station_id":"ce4bhmp2rcd13ifvqgog","pricing_plan_id":"cebpf4jnsgd1na2vs0mg"},{"bike_id":"3ea3ecce-622c-477b-97fb-8c92fdde9e2c","system_id":"levelo_inurba_marseille","lat":43.28646,"lon":5.35093,"is_reserved":false,"is_disabled":false,"rental_uris":{"android":"levelo://app?vid=3ea3ecce-622c-477b-97fb-8c92fdde9e2c","ios":"levelo://app?vid=3ea3ecce-622c-477b-97fb-8c92fdde9e2c"},"vehicle_type_id":"4","last_reported":1748531452,"current_range_meters":11600,"station_id":"ce4bhch2rcd13ifvqeug","pricing_plan_id":"cebpf4jnsgd1na2vs0mg"},{"bike_id":"799e1d6d-478a-40ad-929a-9bc3e8f71c80","system_id":"levelo_inurba_marseille","lat":43.23198,"lon":5.35552,"is_reserved":false,"is_disabled":false,"rental_uris":{"android":"levelo://app?vid=799e1d6d-478a-40ad-929a-9bc3e8f71c80","ios":"levelo://app?vid=799e1d6d-478a-40ad-929a-9bc3e8f71c80"},"vehicle_type_id":"4","last_reported":1748531452,"current_range_meters":11600,"station_id":"ce4bhu92rcd13ifvqi70","pricing_plan_id":"cebpf4jnsgd1na2vs0mg"},{"bike_id":"061b02ac-d49f-4205-b7ec-5de6a5986357","system_id":"levelo_inurba_marseille","lat":43.2738,"lon":5.36254,"is_reserved":false,"is_disabled":false,"rental_uris":{"android":"levelo://app?vid=061b02ac-d49f-4205-b7ec-5de6a5986357","ios":"levelo://app?vid=061b02ac-d49f-4205-b7ec-5de6a5986357"},"vehicle_type_id":"4","last_reported":1748531452,"current_range_meters":11600,"station_id":"ce4bhbh2rcd13ifvqeo0","pricing_plan_id":"cebpf4jnsgd1na2vs0mg"},{"bike_id":"4b512bb3-bd41-4ef3-862f-c5a79ad17f1a","system_id":"levelo_inurba_marseille","lat":43.25501,"lon":5.3766,"is_reserved":false,"is_disabled":false,"rental_uris":{"android":"levelo://app?vid=4b512bb3-bd41-4ef3-862f-c5a79ad17f1a","ios":"levelo://app?vid=4b512bb3-bd41-4ef3-862f-c5a79ad17f1a"},"vehicle_type_id":"4","last_reported":1748531452,"current_range_meters":11600,"station_id":"ce4bhh12rcd13ifvqff0","pricing_plan_id":"cebpf4jnsgd1na2vs0mg"},{"bike_id":"0320c70f-d564-4702-9b38-a1b4090b0944","system_id":"levelo_inurba_marseille","lat":43.29029,"lon":5.3865,"is_reserved":false,"is_disabled":true,"rental_uris":{"android":"levelo://app?vid=0320c70f-d564-4702-9b38-a1b4090b0944","ios":"levelo://app?vid=0320c70f-d564-4702-9b38-a1b4090b0944"},"vehicle_type_id":"4","last_reported":1748531452,"current_range_meters":12000,"station_id":"","pricing_plan_id":"cebpf4jnsgd1na2vs0mg"},{"bike_id":"e0ecd0a7-b2f7-4ae5-95c1-82373122f9b2","system_id":"levelo_inurba_marseille","lat":43.2844,"lon":5.39204,"is_reserved":false,"is_disabled":false,"rental_uris":{"android":"levelo://app?vid=e0ecd0a7-b2f7-4ae5-95c1-82373122f9b2","ios":"levelo://app?vid=e0ecd0a7-b2f7-4ae5-95c1-82373122f9b2"},"vehicle_type_id":"4","last_reported":1748531452,"current_range_meters":12000,"station_id":"ce4bhoh2rcd13ifvqh5g","pricing_plan_id":"cebpf4jnsgd1na2vs0mg"},{"bike_id":"ecbdbf46-9056-4a5f-bf09-cefcb2d2cd53","system_id":"levelo_inurba_marseille","lat":43.23194,"lon":5.35544,"is_reserved":false,"is_disabled":false,"rental_uris":{"android":"levelo://app?vid=ecbdbf46-9056-4a5f-bf09-cefcb2d2cd53","ios":"levelo://app?vid=ecbdbf46-9056-4a5f-bf09-cefcb2d2cd53"},"vehicle_type_id":"4","last_reported":1748531452,"current_range_meters":12000,"station_id":"ce4bhu92rcd13ifvqi70","pricing_plan_id":"cebpf4jnsgd1na2vs0mg"},{"bike_id":"bcb2d9a9-133e-44ad-af7d-7eed5bc448c6","system_id":"levelo_inurba_marseille","lat":43.28412,"lon":5.349813,"is_reserved":false,"is_disabled":false,"rental_uris":{"android":"levelo://app?vid=bcb2d9a9-133e-44ad-af7d-7eed5bc448c6","ios":"levelo://app?vid=bcb2d9a9-133e-44ad-af7d-7eed5bc448c6"},"vehicle_type_id":"4","last_reported":1748531452,"current_range_meters":12000,"station_id":"ce4bhbh2rcd13ifvqepg","pricing_plan_id":"cebpf4jnsgd1na2vs0mg"},{"bike_id":"944aea34-b40a-4a4b-8b74-c5eae48cc050","system_id":"levelo_inurba_marseille","lat":43.24405,"lon":5.37074,"is_reserved":false,"is_disabled":false,"rental_uris":{"android":"levelo://app?vid=944aea34-b40a-4a4b-8b74-c5eae48cc050","ios":"levelo://app?vid=944aea34-b40a-4a4b-8b74-c5eae48cc050"},"vehicle_type_id":"4","last_reported":1748531452,"current_range_meters":12400,"station_id":"ce4bhhh2rcd13ifvqfk0","pricing_plan_id":"cebpf4jnsgd1na2vs0mg"},{"bike_id":"f4ce79f6-76fa-481a-80ef-493b162f9b09","system_id":"levelo_inurba_marseille","lat":43.28306,"lon":5.35061,"is_reserved":false,"is_disabled":false,"rental_uris":{"android":"levelo://app?vid=f4ce79f6-76fa-481a-80ef-493b162f9b09","ios":"levelo://app?vid=f4ce79f6-76fa-481a-80ef-493b162f9b09"},"vehicle_type_id":"4","last_reported":1748531452,"current_range_meters":12400,"station_id":"ce4bhbp2rcd13ifvqerg","pricing_plan_id":"cebpf4jnsgd1na2vs0mg"},{"bike_id":"da279776-c099-4cdd-acd3-f802ffed4965","system_id":"levelo_inurba_marseille","lat":43.29562,"lon":5.42296,"is_reserved":false,"is_disabled":false,"rental_uris":{"android":"levelo://app?vid=da279776-c099-4cdd-acd3-f802ffed4965","ios":"levelo://app?vid=da279776-c099-4cdd-acd3-f802ffed4965"},"vehicle_type_id":"4","last_reported":1748531452,"current_range_meters":12400,"station_id":"ce4bhph2rcd13ifvqhdg","pricing_plan_id":"cebpf4jnsgd1na2vs0mg"},{"bike_id":"cec6f349-8676-4bef-8834-0e08a4234274","system_id":"levelo_inurba_marseille","lat":43.31726,"lon":5.42394,"is_reserved":false,"is_disabled":false,"rental_uris":{"android":"levelo://app?vid=cec6f349-8676-4bef-8834-0e08a4234274","ios":"levelo://app?vid=cec6f349-8676-4bef-8834-0e08a4234274"},"vehicle_type_id":"4","last_reported":1748531452,"current_range_meters":12400,"station_id":"ce4bhp92rcd13ifvqhbg","pricing_plan_id":"cebpf4jnsgd1na2vs0mg"},{"bike_id":"2a4463a2-5e35-4ba6-b2a0-f4ba53016fd6","system_id":"levelo_inurba_marseille","lat":43.24998,"lon":5.389335,"is_reserved":false,"is_disabled":false,"rental_uris":{"android":"levelo://app?vid=2a4463a2-5e35-4ba6-b2a0-f4ba53016fd6","ios":"levelo://app?vid=2a4463a2-5e35-4ba6-b2a0-f4ba53016fd6"},"vehicle_type_id":"4","last_reported":1748531452,"current_range_meters":12400,"station_id":"ce4bhgp2rcd13ifvqfd0","pricing_plan_id":"cebpf4jnsgd1na2vs0mg"},{"bike_id":"541d2f0a-b5f7-4ef1-8894-52b2843bac73","system_id":"levelo_inurba_marseille","lat":43.2621,"lon":5.37448,"is_reserved":false,"is_disabled":false,"rental_uris":{"android":"levelo://app?vid=541d2f0a-b5f7-4ef1-8894-52b2843bac73","ios":"levelo://app?vid=541d2f0a-b5f7-4ef1-8894-52b2843bac73"},"vehicle_type_id":"4","last_reported":1748531452,"current_range_meters":12400,"station_id":"ce4bhgp2rcd13ifvqfc0","pricing_plan_id":"cebpf4jnsgd1na2vs0mg"},{"bike_id":"0d97643e-7062-4693-8152-d590a59de61a","system_id":"levelo_inurba_marseille","lat":43.24393,"lon":5.37062,"is_reserved":false,"is_disabled":false,"rental_uris":{"android":"levelo://app?vid=0d97643e-7062-4693-8152-d590a59de61a","ios":"levelo://app?vid=0d97643e-7062-4693-8152-d590a59de61a"},"vehicle_type_id":"4","last_reported":1748531452,"current_range_meters":12400,"station_id":"ce4bhhh2rcd13ifvqfk0","pricing_plan_id":"cebpf4jnsgd1na2vs0mg"},{"bike_id":"a426f99b-d34a-41bf-bbda-59f7dfd6939b","system_id":"levelo_inurba_marseille","lat":43.255796,"lon":5.382262,"is_reserved":false,"is_disabled":false,"rental_uris":{"android":"levelo://app?vid=a426f99b-d34a-41bf-bbda-59f7dfd6939b","ios":"levelo://app?vid=a426f99b-d34a-41bf-bbda-59f7dfd6939b"},"vehicle_type_id":"4","last_reported":1748531452,"current_range_meters":12800,"station_id":"ce501612rcd8frsf0b60","pricing_plan_id":"cebpf4jnsgd1na2vs0mg"},{"bike_id":"bb44d196-d9e0-4306-be2a-c6bc58dafccc","system_id":"levelo_inurba_marseille","lat":43.270517,"lon":5.402657,"is_reserved":false,"is_disabled":false,"rental_uris":{"android":"levelo://app?vid=bb44d196-d9e0-4306-be2a-c6bc58dafccc","ios":"levelo://app?vid=bb44d196-d9e0-4306-be2a-c6bc58dafccc"},"vehicle_type_id":"4","last_reported":1748531452,"current_range_meters":12800,"station_id":"ce4bhk92rcd13ifvqgc0","pricing_plan_id":"cebpf4jnsgd1na2vs0mg"},{"bike_id":"5f411f71-41f3-487d-aced-b1365ad0f0d9","system_id":"levelo_inurba_marseille","lat":43.217586,"lon":5.346,"is_reserved":false,"is_disabled":false,"rental_uris":{"android":"levelo://app?vid=5f411f71-41f3-487d-aced-b1365ad0f0d9","ios":"levelo://app?vid=5f411f71-41f3-487d-aced-b1365ad0f0d9"},"vehicle_type_id":"4","last_reported":1748531452,"current_range_meters":12800,"station_id":"","pricing_plan_id":"cebpf4jnsgd1na2vs0mg"},{"bike_id":"584c682b-0b80-4b3a-a733-9b94b64baddf","system_id":"levelo_inurba_marseille","lat":43.28401,"lon":5.34989,"is_reserved":false,"is_disabled":false,"rental_uris":{"android":"levelo://app?vid=584c682b-0b80-4b3a-a733-9b94b64baddf","ios":"levelo://app?vid=584c682b-0b80-4b3a-a733-9b94b64baddf"},"vehicle_type_id":"4","last_reported":1748531452,"current_range_meters":12800,"station_id":"ce4bhbh2rcd13ifvqepg","pricing_plan_id":"cebpf4jnsgd1na2vs0mg"},{"bike_id":"f347a1b7-e27e-4b3a-a2e1-ca6ab0c17cac","system_id":"levelo_inurba_marseille","lat":43.27373,"lon":5.36257,"is_reserved":false,"is_disabled":false,"rental_uris":{"android":"levelo://app?vid=f347a1b7-e27e-4b3a-a2e1-ca6ab0c17cac","ios":"levelo://app?vid=f347a1b7-e27e-4b3a-a2e1-ca6ab0c17cac"},"vehicle_type_id":"4","last_reported":1748531452,"current_range_meters":12800,"station_id":"ce4bhbh2rcd13ifvqeo0","pricing_plan_id":"cebpf4jnsgd1na2vs0mg"},{"bike_id":"d10d29f7-70e6-4be8-bfb3-1f95c76520b4","system_id":"levelo_inurba_marseille","lat":43.241655,"lon":5.364055,"is_reserved":false,"is_disabled":false,"rental_uris":{"android":"levelo://app?vid=d10d29f7-70e6-4be8-bfb3-1f95c76520b4","ios":"levelo://app?vid=d10d29f7-70e6-4be8-bfb3-1f95c76520b4"},"vehicle_type_id":"4","last_reported":1748531452,"current_range_meters":12800,"station_id":"cpo36qri1sfpv3e86is0","pricing_plan_id":"cebpf4jnsgd1na2vs0mg"},{"bike_id":"b06bcc73-7852-4b3a-b35f-02e48b0c3631","system_id":"levelo_inurba_marseille","lat":43.24067,"lon":5.3777,"is_reserved":false,"is_disabled":false,"rental_uris":{"android":"levelo://app?vid=b06bcc73-7852-4b3a-b35f-02e48b0c3631","ios":"levelo://app?vid=b06bcc73-7852-4b3a-b35f-02e48b0c3631"},"vehicle_type_id":"4","last_reported":1748531452,"current_range_meters":12800,"station_id":"ce4bhnp2rcd13ifvqgvg","pricing_plan_id":"cebpf4jnsgd1na2vs0mg"},{"bike_id":"ef7294cd-b46b-41d6-af4c-11be176b91b3","system_id":"levelo_inurba_marseille","lat":43.32526,"lon":5.41461,"is_reserved":false,"is_disabled":false,"rental_uris":{"android":"levelo://app?vid=ef7294cd-b46b-41d6-af4c-11be176b91b3","ios":"levelo://app?vid=ef7294cd-b46b-41d6-af4c-11be176b91b3"},"vehicle_type_id":"4","last_reported":1748531452,"current_range_meters":12400,"station_id":"ce4bhq12rcd13ifvqhhg","pricing_plan_id":"cebpf4jnsgd1na2vs0mg"},{"bike_id":"f5733814-9732-4748-bcc9-3b2fac8e1564","system_id":"levelo_inurba_marseille","lat":43.31256,"lon":5.37829,"is_reserved":false,"is_disabled":false,"rental_uris":{"android":"levelo://app?vid=f5733814-9732-4748-bcc9-3b2fac8e1564","ios":"levelo://app?vid=f5733814-9732-4748-bcc9-3b2fac8e1564"},"vehicle_type_id":"4","last_reported":1748531452,"current_range_meters":12800,"station_id":"","pricing_plan_id":"cebpf4jnsgd1na2vs0mg"},{"bike_id":"0d91f0c3-565a-4332-85b8-cbfc64fbf6ed","system_id":"levelo_inurba_marseille","lat":43.24809,"lon":5.3746,"is_reserved":false,"is_disabled":false,"rental_uris":{"android":"levelo://app?vid=0d91f0c3-565a-4332-85b8-cbfc64fbf6ed","ios":"levelo://app?vid=0d91f0c3-565a-4332-85b8-cbfc64fbf6ed"},"vehicle_type_id":"4","last_reported":1748531452,"current_range_meters":12800,"station_id":"ce4bhgh2rcd13ifvqfb0","pricing_plan_id":"cebpf4jnsgd1na2vs0mg"},{"bike_id":"d83bc391-0718-49ae-9b9b-2595c3b5c7eb","system_id":"levelo_inurba_marseille","lat":43.26227,"lon":5.37451,"is_reserved":false,"is_disabled":false,"rental_uris":{"android":"levelo://app?vid=d83bc391-0718-49ae-9b9b-2595c3b5c7eb","ios":"levelo://app?vid=d83bc391-0718-49ae-9b9b-2595c3b5c7eb"},"vehicle_type_id":"4","last_reported":1748531452,"current_range_meters":12800,"station_id":"ce4bhgp2rcd13ifvqfc0","pricing_plan_id":"cebpf4jnsgd1na2vs0mg"},{"bike_id":"98683c69-96a3-4be6-9769-7926e84dc3c8","system_id":"levelo_inurba_marseille","lat":43.289469,"lon":5.363958,"is_reserved":false,"is_disabled":false,"rental_uris":{"android":"levelo://app?vid=98683c69-96a3-4be6-9769-7926e84dc3c8","ios":"levelo://app?vid=98683c69-96a3-4be6-9769-7926e84dc3c8"},"vehicle_type_id":"4","last_reported":1748531452,"current_range_meters":12400,"station_id":"ce4bhc92rcd13ifvqetg","pricing_plan_id":"cebpf4jnsgd1na2vs0mg"},{"bike_id":"7ff37228-6ae9-45f4-b1dd-6c3f3ecb4dfd","system_id":"levelo_inurba_marseille","lat":43.232,"lon":5.3555,"is_reserved":false,"is_disabled":false,"rental_uris":{"android":"levelo://app?vid=7ff37228-6ae9-45f4-b1dd-6c3f3ecb4dfd","ios":"levelo://app?vid=7ff37228-6ae9-45f4-b1dd-6c3f3ecb4dfd"},"vehicle_type_id":"4","last_reported":1748531452,"current_range_meters":13600,"station_id":"ce4bhu92rcd13ifvqi70","pricing_plan_id":"cebpf4jnsgd1na2vs0mg"},{"bike_id":"fb1a2a29-17d2-4c5e-a3c9-1b236cac01b0","system_id":"levelo_inurba_marseille","lat":43.27493,"lon":5.42455,"is_reserved":false,"is_disabled":false,"rental_uris":{"android":"levelo://app?vid=fb1a2a29-17d2-4c5e-a3c9-1b236cac01b0","ios":"levelo://app?vid=fb1a2a29-17d2-4c5e-a3c9-1b236cac01b0"},"vehicle_type_id":"4","last_reported":1748531452,"current_range_meters":13600,"station_id":"ce4bhn92rcd13ifvqgrg","pricing_plan_id":"cebpf4jnsgd1na2vs0mg"},{"bike_id":"852e1559-237a-4015-8629-8cf88e0180e8","system_id":"levelo_inurba_marseille","lat":43.26951,"lon":5.38623,"is_reserved":false,"is_disabled":false,"rental_uris":{"android":"levelo://app?vid=852e1559-237a-4015-8629-8cf88e0180e8","ios":"levelo://app?vid=852e1559-237a-4015-8629-8cf88e0180e8"},"vehicle_type_id":"4","last_reported":1748531452,"current_range_meters":13600,"station_id":"","pricing_plan_id":"cebpf4jnsgd1na2vs0mg"},{"bike_id":"e3bad3fb-ec83-4a5d-b44a-6b6cc695416b","system_id":"levelo_inurba_marseille","lat":43.2842,"lon":5.34994,"is_reserved":false,"is_disabled":false,"rental_uris":{"android":"levelo://app?vid=e3bad3fb-ec83-4a5d-b44a-6b6cc695416b","ios":"levelo://app?vid=e3bad3fb-ec83-4a5d-b44a-6b6cc695416b"},"vehicle_type_id":"4","last_reported":1748531452,"current_range_meters":13600,"station_id":"ce4bhbh2rcd13ifvqepg","pricing_plan_id":"cebpf4jnsgd1na2vs0mg"},{"bike_id":"0d238c6e-f742-4e51-a135-d557545f6796","system_id":"levelo_inurba_marseille","lat":43.2738,"lon":5.36253,"is_reserved":false,"is_disabled":false,"rental_uris":{"android":"levelo://app?vid=0d238c6e-f742-4e51-a135-d557545f6796","ios":"levelo://app?vid=0d238c6e-f742-4e51-a135-d557545f6796"},"vehicle_type_id":"4","last_reported":1748531452,"current_range_meters":13600,"station_id":"ce4bhbh2rcd13ifvqeo0","pricing_plan_id":"cebpf4jnsgd1na2vs0mg"},{"bike_id":"75335441-91af-4439-bdc7-4c5b964d0d9d","system_id":"levelo_inurba_marseille","lat":43.28937,"lon":5.36643,"is_reserved":false,"is_disabled":false,"rental_uris":{"android":"levelo://app?vid=75335441-91af-4439-bdc7-4c5b964d0d9d","ios":"levelo://app?vid=75335441-91af-4439-bdc7-4c5b964d0d9d"},"vehicle_type_id":"4","last_reported":1748531452,"current_range_meters":13600,"station_id":"ce4bhap2rcd13ifvqek0","pricing_plan_id":"cebpf4jnsgd1na2vs0mg"},{"bike_id":"f96d3350-c5bf-4b21-add4-93ecfdb5e9e5","system_id":"levelo_inurba_marseille","lat":43.26559,"lon":5.37301,"is_reserved":false,"is_disabled":false,"rental_uris":{"android":"levelo://app?vid=f96d3350-c5bf-4b21-add4-93ecfdb5e9e5","ios":"levelo://app?vid=f96d3350-c5bf-4b21-add4-93ecfdb5e9e5"},"vehicle_type_id":"4","last_reported":1748531452,"current_range_meters":13600,"station_id":"ce4bhg12rcd13ifvqf70","pricing_plan_id":"cebpf4jnsgd1na2vs0mg"},{"bike_id":"b89b780b-5a38-4eee-965d-22c515f21162","system_id":"levelo_inurba_marseille","lat":43.23194,"lon":5.35553,"is_reserved":false,"is_disabled":false,"rental_uris":{"android":"levelo://app?vid=b89b780b-5a38-4eee-965d-22c515f21162","ios":"levelo://app?vid=b89b780b-5a38-4eee-965d-22c515f21162"},"vehicle_type_id":"4","last_reported":1748531452,"current_range_meters":13600,"station_id":"ce4bhu92rcd13ifvqi70","pricing_plan_id":"cebpf4jnsgd1na2vs0mg"},{"bike_id":"18e30ef1-9c24-4afc-babd-72ab11ea247e","system_id":"levelo_inurba_marseille","lat":43.290039,"lon":5.356182,"is_reserved":false,"is_disabled":false,"rental_uris":{"android":"levelo://app?vid=18e30ef1-9c24-4afc-babd-72ab11ea247e","ios":"levelo://app?vid=18e30ef1-9c24-4afc-babd-72ab11ea247e"},"vehicle_type_id":"4","last_reported":1748531452,"current_range_meters":13600,"station_id":"ce4bhb92rcd13ifvqen0","pricing_plan_id":"cebpf4jnsgd1na2vs0mg"},{"bike_id":"7f9625fb-a2e6-409e-b394-6277c0d3b326","system_id":"levelo_inurba_marseille","lat":43.26217,"lon":5.37464,"is_reserved":false,"is_disabled":false,"rental_uris":{"android":"levelo://app?vid=7f9625fb-a2e6-409e-b394-6277c0d3b326","ios":"levelo://app?vid=7f9625fb-a2e6-409e-b394-6277c0d3b326"},"vehicle_type_id":"4","last_reported":1748531452,"current_range_meters":14000,"station_id":"ce4bhgp2rcd13ifvqfc0","pricing_plan_id":"cebpf4jnsgd1na2vs0mg"},{"bike_id":"a75866c0-48e6-48f4-a969-8e359a7341e9","system_id":"levelo_inurba_marseille","lat":43.26178,"lon":5.3745,"is_reserved":false,"is_disabled":false,"rental_uris":{"android":"levelo://app?vid=a75866c0-48e6-48f4-a969-8e359a7341e9","ios":"levelo://app?vid=a75866c0-48e6-48f4-a969-8e359a7341e9"},"vehicle_type_id":"4","last_reported":1748531452,"current_range_meters":14000,"station_id":"ce4bhgp2rcd13ifvqfc0","pricing_plan_id":"cebpf4jnsgd1na2vs0mg"},{"bike_id":"f2a3ae9a-8eab-4525-bffe-d9e833d653a9","system_id":"levelo_inurba_marseille","lat":43.2827,"lon":5.35066,"is_reserved":false,"is_disabled":false,"rental_uris":{"android":"levelo://app?vid=f2a3ae9a-8eab-4525-bffe-d9e833d653a9","ios":"levelo://app?vid=f2a3ae9a-8eab-4525-bffe-d9e833d653a9"},"vehicle_type_id":"4","last_reported":1748531452,"current_range_meters":14000,"station_id":"ce4bhbp2rcd13ifvqerg","pricing_plan_id":"cebpf4jnsgd1na2vs0mg"},{"bike_id":"81236259-d1b2-4677-bd0b-78a4bf1db647","system_id":"levelo_inurba_marseille","lat":43.26959,"lon":5.3864,"is_reserved":false,"is_disabled":false,"rental_uris":{"android":"levelo://app?vid=81236259-d1b2-4677-bd0b-78a4bf1db647","ios":"levelo://app?vid=81236259-d1b2-4677-bd0b-78a4bf1db647"},"vehicle_type_id":"4","last_reported":1748531452,"current_range_meters":14000,"station_id":"ce4bhh92rcd13ifvqfh0","pricing_plan_id":"cebpf4jnsgd1na2vs0mg"},{"bike_id":"026568ca-f554-4246-a986-c91a1d706ce7","system_id":"levelo_inurba_marseille","lat":43.30424,"lon":5.41297,"is_reserved":false,"is_disabled":false,"rental_uris":{"android":"levelo://app?vid=026568ca-f554-4246-a986-c91a1d706ce7","ios":"levelo://app?vid=026568ca-f554-4246-a986-c91a1d706ce7"},"vehicle_type_id":"4","last_reported":1748531452,"current_range_meters":14000,"station_id":"ce4bhop2rcd13ifvqh8g","pricing_plan_id":"cebpf4jnsgd1na2vs0mg"},{"bike_id":"e9cda520-c6f4-465d-ad7f-8c059b3dc45a","system_id":"levelo_inurba_marseille","lat":43.313967,"lon":5.383993,"is_reserved":false,"is_disabled":false,"rental_uris":{"android":"levelo://app?vid=e9cda520-c6f4-465d-ad7f-8c059b3dc45a","ios":"levelo://app?vid=e9cda520-c6f4-465d-ad7f-8c059b3dc45a"},"vehicle_type_id":"4","last_reported":1748531452,"current_range_meters":14000,"station_id":"","pricing_plan_id":"cebpf4jnsgd1na2vs0mg"},{"bike_id":"243329ec-61f4-47d0-ac7f-0dbb82dc38af","system_id":"levelo_inurba_marseille","lat":43.2606,"lon":5.3755,"is_reserved":false,"is_disabled":false,"rental_uris":{"android":"levelo://app?vid=243329ec-61f4-47d0-ac7f-0dbb82dc38af","ios":"levelo://app?vid=243329ec-61f4-47d0-ac7f-0dbb82dc38af"},"vehicle_type_id":"4","last_reported":1748531452,"current_range_meters":14000,"station_id":"ce4bhgh2rcd13ifvqfa0","pricing_plan_id":"cebpf4jnsgd1na2vs0mg"},{"bike_id":"ac499457-474d-4723-bb2a-b7ce4fea36dc","system_id":"levelo_inurba_marseille","lat":43.26564,"lon":5.37322,"is_reserved":false,"is_disabled":false,"rental_uris":{"android":"levelo://app?vid=ac499457-474d-4723-bb2a-b7ce4fea36dc","ios":"levelo://app?vid=ac499457-474d-4723-bb2a-b7ce4fea36dc"},"vehicle_type_id":"4","last_reported":1748531452,"current_range_meters":14000,"station_id":"ce4bhg12rcd13ifvqf70","pricing_plan_id":"cebpf4jnsgd1na2vs0mg"},{"bike_id":"bcb5f74e-9dd0-4985-b414-732f19015f6a","system_id":"levelo_inurba_marseille","lat":43.28413,"lon":5.35014,"is_reserved":false,"is_disabled":false,"rental_uris":{"android":"levelo://app?vid=bcb5f74e-9dd0-4985-b414-732f19015f6a","ios":"levelo://app?vid=bcb5f74e-9dd0-4985-b414-732f19015f6a"},"vehicle_type_id":"4","last_reported":1748531452,"current_range_meters":14000,"station_id":"ce4bhbh2rcd13ifvqepg","pricing_plan_id":"cebpf4jnsgd1na2vs0mg"},{"bike_id":"9a4c61ca-d6b9-4794-a6e5-000625ab06f5","system_id":"levelo_inurba_marseille","lat":43.28269,"lon":5.35076,"is_reserved":false,"is_disabled":false,"rental_uris":{"android":"levelo://app?vid=9a4c61ca-d6b9-4794-a6e5-000625ab06f5","ios":"levelo://app?vid=9a4c61ca-d6b9-4794-a6e5-000625ab06f5"},"vehicle_type_id":"4","last_reported":1748531452,"current_range_meters":14400,"station_id":"ce4bhbp2rcd13ifvqerg","pricing_plan_id":"cebpf4jnsgd1na2vs0mg"},{"bike_id":"a9dc40ac-a22e-42af-a8c5-94a19e3c7c94","system_id":"levelo_inurba_marseille","lat":43.2862,"lon":5.35111,"is_reserved":false,"is_disabled":false,"rental_uris":{"android":"levelo://app?vid=a9dc40ac-a22e-42af-a8c5-94a19e3c7c94","ios":"levelo://app?vid=a9dc40ac-a22e-42af-a8c5-94a19e3c7c94"},"vehicle_type_id":"4","last_reported":1748531452,"current_range_meters":14400,"station_id":"ce4bhch2rcd13ifvqeug","pricing_plan_id":"cebpf4jnsgd1na2vs0mg"},{"bike_id":"c6cdfc5e-4b54-46df-b044-1ad02723d36e","system_id":"levelo_inurba_marseille","lat":43.28458,"lon":5.39199,"is_reserved":false,"is_disabled":false,"rental_uris":{"android":"levelo://app?vid=c6cdfc5e-4b54-46df-b044-1ad02723d36e","ios":"levelo://app?vid=c6cdfc5e-4b54-46df-b044-1ad02723d36e"},"vehicle_type_id":"4","last_reported":1748531452,"current_range_meters":14400,"station_id":"ce4bhoh2rcd13ifvqh5g","pricing_plan_id":"cebpf4jnsgd1na2vs0mg"},{"bike_id":"59e6687b-b34d-4e97-ad31-63f476b7d586","system_id":"levelo_inurba_marseille","lat":43.24176,"lon":5.39723,"is_reserved":false,"is_disabled":false,"rental_uris":{"android":"levelo://app?vid=59e6687b-b34d-4e97-ad31-63f476b7d586","ios":"levelo://app?vid=59e6687b-b34d-4e97-ad31-63f476b7d586"},"vehicle_type_id":"4","last_reported":1748531452,"current_range_meters":14400,"station_id":"ce4bhn12rcd13ifvqgpg","pricing_plan_id":"cebpf4jnsgd1na2vs0mg"},{"bike_id":"91c1e0de-c3d7-43ec-8d80-b553c7f388e2","system_id":"levelo_inurba_marseille","lat":43.30321,"lon":5.40437,"is_reserved":false,"is_disabled":false,"rental_uris":{"android":"levelo://app?vid=91c1e0de-c3d7-43ec-8d80-b553c7f388e2","ios":"levelo://app?vid=91c1e0de-c3d7-43ec-8d80-b553c7f388e2"},"vehicle_type_id":"4","last_reported":1748531452,"current_range_meters":14400,"station_id":"ce4bh012rcd13ifvqd10","pricing_plan_id":"cebpf4jnsgd1na2vs0mg"},{"bike_id":"3427bb18-0eae-42d3-859b-d317a3a02d7c","system_id":"levelo_inurba_marseille","lat":43.30374,"lon":5.42493,"is_reserved":false,"is_disabled":false,"rental_uris":{"android":"levelo://app?vid=3427bb18-0eae-42d3-859b-d317a3a02d7c","ios":"levelo://app?vid=3427bb18-0eae-42d3-859b-d317a3a02d7c"},"vehicle_type_id":"4","last_reported":1748531452,"current_range_meters":14400,"station_id":"ce4bhoh2rcd13ifvqh6g","pricing_plan_id":"cebpf4jnsgd1na2vs0mg"},{"bike_id":"d453b4cb-9fdc-4dc7-99be-69b01faef401","system_id":"levelo_inurba_marseille","lat":43.2512,"lon":5.4034,"is_reserved":false,"is_disabled":false,"rental_uris":{"android":"levelo://app?vid=d453b4cb-9fdc-4dc7-99be-69b01faef401","ios":"levelo://app?vid=d453b4cb-9fdc-4dc7-99be-69b01faef401"},"vehicle_type_id":"4","last_reported":1748531452,"current_range_meters":14400,"station_id":"ce4bhlh2rcd13ifvqgig","pricing_plan_id":"cebpf4jnsgd1na2vs0mg"},{"bike_id":"052dd9b7-7c51-4850-bf24-f81e59e7545e","system_id":"levelo_inurba_marseille","lat":43.29708,"lon":5.36614,"is_reserved":false,"is_disabled":false,"rental_uris":{"android":"levelo://app?vid=052dd9b7-7c51-4850-bf24-f81e59e7545e","ios":"levelo://app?vid=052dd9b7-7c51-4850-bf24-f81e59e7545e"},"vehicle_type_id":"4","last_reported":1748531452,"current_range_meters":14400,"station_id":"ce4bgn12rcd13ifvqbt0","pricing_plan_id":"cebpf4jnsgd1na2vs0mg"},{"bike_id":"d7c15566-5f9d-47ca-8b50-5fd29416f2af","system_id":"levelo_inurba_marseille","lat":43.24169,"lon":5.36392,"is_reserved":false,"is_disabled":false,"rental_uris":{"android":"levelo://app?vid=d7c15566-5f9d-47ca-8b50-5fd29416f2af","ios":"levelo://app?vid=d7c15566-5f9d-47ca-8b50-5fd29416f2af"},"vehicle_type_id":"4","last_reported":1748531452,"current_range_meters":14800,"station_id":"cpo36qri1sfpv3e86is0","pricing_plan_id":"cebpf4jnsgd1na2vs0mg"},{"bike_id":"aad05be8-5ec1-4a17-87b3-07b4b7bb5dd8","system_id":"levelo_inurba_marseille","lat":43.30623,"lon":5.37238,"is_reserved":false,"is_disabled":false,"rental_uris":{"android":"levelo://app?vid=aad05be8-5ec1-4a17-87b3-07b4b7bb5dd8","ios":"levelo://app?vid=aad05be8-5ec1-4a17-87b3-07b4b7bb5dd8"},"vehicle_type_id":"4","last_reported":1748531452,"current_range_meters":14800,"station_id":"ce4bgqh2rcd13ifvqc4g","pricing_plan_id":"cebpf4jnsgd1na2vs0mg"},{"bike_id":"747224c9-7e52-4c58-9390-d943c4f5446c","system_id":"levelo_inurba_marseille","lat":43.27173,"lon":5.40999,"is_reserved":false,"is_disabled":false,"rental_uris":{"android":"levelo://app?vid=747224c9-7e52-4c58-9390-d943c4f5446c","ios":"levelo://app?vid=747224c9-7e52-4c58-9390-d943c4f5446c"},"vehicle_type_id":"4","last_reported":1748531452,"current_range_meters":14800,"station_id":"ce4bhl12rcd13ifvqgf0","pricing_plan_id":"cebpf4jnsgd1na2vs0mg"},{"bike_id":"bc9bfd7f-f772-40c5-91c6-84d9e082ed0c","system_id":"levelo_inurba_marseille","lat":43.27056,"lon":5.4026,"is_reserved":false,"is_disabled":false,"rental_uris":{"android":"levelo://app?vid=bc9bfd7f-f772-40c5-91c6-84d9e082ed0c","ios":"levelo://app?vid=bc9bfd7f-f772-40c5-91c6-84d9e082ed0c"},"vehicle_type_id":"4","last_reported":1748531452,"current_range_meters":14800,"station_id":"ce4bhk92rcd13ifvqgc0","pricing_plan_id":"cebpf4jnsgd1na2vs0mg"},{"bike_id":"6b77d8e2-6914-4f74-b37c-4eb29bd3731c","system_id":"levelo_inurba_marseille","lat":43.25969,"lon":5.40876,"is_reserved":false,"is_disabled":false,"rental_uris":{"android":"levelo://app?vid=6b77d8e2-6914-4f74-b37c-4eb29bd3731c","ios":"levelo://app?vid=6b77d8e2-6914-4f74-b37c-4eb29bd3731c"},"vehicle_type_id":"4","last_reported":1748531452,"current_range_meters":15200,"station_id":"","pricing_plan_id":"cebpf4jnsgd1na2vs0mg"},{"bike_id":"517c5907-c92e-4b88-8b70-46e89413c8c5","system_id":"levelo_inurba_marseille","lat":43.23151,"lon":5.437059,"is_reserved":false,"is_disabled":false,"rental_uris":{"android":"levelo://app?vid=517c5907-c92e-4b88-8b70-46e89413c8c5","ios":"levelo://app?vid=517c5907-c92e-4b88-8b70-46e89413c8c5"},"vehicle_type_id":"4","last_reported":1748531452,"current_range_meters":15200,"station_id":"ce4bhmp2rcd13ifvqgog","pricing_plan_id":"cebpf4jnsgd1na2vs0mg"},{"bike_id":"b96c15de-05db-4daa-89c1-f32501676f10","system_id":"levelo_inurba_marseille","lat":43.28422,"lon":5.34997,"is_reserved":false,"is_disabled":false,"rental_uris":{"android":"levelo://app?vid=b96c15de-05db-4daa-89c1-f32501676f10","ios":"levelo://app?vid=b96c15de-05db-4daa-89c1-f32501676f10"},"vehicle_type_id":"4","last_reported":1748531452,"current_range_meters":15200,"station_id":"ce4bhbh2rcd13ifvqepg","pricing_plan_id":"cebpf4jnsgd1na2vs0mg"},{"bike_id":"559ab57d-48fa-4d5b-abac-b2f461962054","system_id":"levelo_inurba_marseille","lat":43.28412,"lon":5.34979,"is_reserved":false,"is_disabled":false,"rental_uris":{"android":"levelo://app?vid=559ab57d-48fa-4d5b-abac-b2f461962054","ios":"levelo://app?vid=559ab57d-48fa-4d5b-abac-b2f461962054"},"vehicle_type_id":"4","last_reported":1748531452,"current_range_meters":15200,"station_id":"ce4bhbh2rcd13ifvqepg","pricing_plan_id":"cebpf4jnsgd1na2vs0mg"},{"bike_id":"48e26ea8-1795-4299-a1c4-724bbc46d8d5","system_id":"levelo_inurba_marseille","lat":43.28937,"lon":5.3665,"is_reserved":false,"is_disabled":false,"rental_uris":{"android":"levelo://app?vid=48e26ea8-1795-4299-a1c4-724bbc46d8d5","ios":"levelo://app?vid=48e26ea8-1795-4299-a1c4-724bbc46d8d5"},"vehicle_type_id":"4","last_reported":1748531452,"current_range_meters":15200,"station_id":"ce4bhap2rcd13ifvqek0","pricing_plan_id":"cebpf4jnsgd1na2vs0mg"},{"bike_id":"279aef9d-8440-405f-8556-f4e33a7ce61e","system_id":"levelo_inurba_marseille","lat":43.28421,"lon":5.34996,"is_reserved":false,"is_disabled":false,"rental_uris":{"android":"levelo://app?vid=279aef9d-8440-405f-8556-f4e33a7ce61e","ios":"levelo://app?vid=279aef9d-8440-405f-8556-f4e33a7ce61e"},"vehicle_type_id":"4","last_reported":1748531452,"current_range_meters":15200,"station_id":"ce4bhbh2rcd13ifvqepg","pricing_plan_id":"cebpf4jnsgd1na2vs0mg"},{"bike_id":"9a86381f-51bc-4d54-858d-d27c0e51d901","system_id":"levelo_inurba_marseille","lat":43.3073,"lon":5.42453,"is_reserved":false,"is_disabled":false,"rental_uris":{"android":"levelo://app?vid=9a86381f-51bc-4d54-858d-d27c0e51d901","ios":"levelo://app?vid=9a86381f-51bc-4d54-858d-d27c0e51d901"},"vehicle_type_id":"4","last_reported":1748531452,"current_range_meters":15200,"station_id":"st_cvj6ca6bvosntc0bfgr0","pricing_plan_id":"cebpf4jnsgd1na2vs0mg"},{"bike_id":"f61b7f73-84e3-4805-a73d-0334d49a8a59","system_id":"levelo_inurba_marseille","lat":43.231906,"lon":5.399853,"is_reserved":false,"is_disabled":false,"rental_uris":{"android":"levelo://app?vid=f61b7f73-84e3-4805-a73d-0334d49a8a59","ios":"levelo://app?vid=f61b7f73-84e3-4805-a73d-0334d49a8a59"},"vehicle_type_id":"4","last_reported":1748531452,"current_range_meters":16000,"station_id":"ce4bhn12rcd13ifvqgqg","pricing_plan_id":"cebpf4jnsgd1na2vs0mg"},{"bike_id":"4e4573c6-ce83-4f4a-8ae1-ec879b83bb17","system_id":"levelo_inurba_marseille","lat":43.25499,"lon":5.37648,"is_reserved":false,"is_disabled":false,"rental_uris":{"android":"levelo://app?vid=4e4573c6-ce83-4f4a-8ae1-ec879b83bb17","ios":"levelo://app?vid=4e4573c6-ce83-4f4a-8ae1-ec879b83bb17"},"vehicle_type_id":"4","last_reported":1748531452,"current_range_meters":16000,"station_id":"ce4bhh12rcd13ifvqff0","pricing_plan_id":"cebpf4jnsgd1na2vs0mg"},{"bike_id":"98bf983f-c073-4776-b5a1-9e337ad01995","system_id":"levelo_inurba_marseille","lat":43.28258,"lon":5.35069,"is_reserved":false,"is_disabled":false,"rental_uris":{"android":"levelo://app?vid=98bf983f-c073-4776-b5a1-9e337ad01995","ios":"levelo://app?vid=98bf983f-c073-4776-b5a1-9e337ad01995"},"vehicle_type_id":"4","last_reported":1748531452,"current_range_meters":16000,"station_id":"ce4bhbp2rcd13ifvqerg","pricing_plan_id":"cebpf4jnsgd1na2vs0mg"},{"bike_id":"81a86096-7693-4752-87e4-5c8242dbe7da","system_id":"levelo_inurba_marseille","lat":43.28846,"lon":5.35853,"is_reserved":false,"is_disabled":false,"rental_uris":{"android":"levelo://app?vid=81a86096-7693-4752-87e4-5c8242dbe7da","ios":"levelo://app?vid=81a86096-7693-4752-87e4-5c8242dbe7da"},"vehicle_type_id":"4","last_reported":1748531452,"current_range_meters":16000,"station_id":"ce4bhb12rcd13ifvqem0","pricing_plan_id":"cebpf4jnsgd1na2vs0mg"},{"bike_id":"9b64b2ae-778b-4457-84ca-596b80bae03d","system_id":"levelo_inurba_marseille","lat":43.28399,"lon":5.34989,"is_reserved":false,"is_disabled":false,"rental_uris":{"android":"levelo://app?vid=9b64b2ae-778b-4457-84ca-596b80bae03d","ios":"levelo://app?vid=9b64b2ae-778b-4457-84ca-596b80bae03d"},"vehicle_type_id":"4","last_reported":1748531452,"current_range_meters":16000,"station_id":"ce4bhbh2rcd13ifvqepg","pricing_plan_id":"cebpf4jnsgd1na2vs0mg"},{"bike_id":"5abf56c2-32c8-49ea-8d39-dd126dd234d9","system_id":"levelo_inurba_marseille","lat":43.26207,"lon":5.37442,"is_reserved":false,"is_disabled":false,"rental_uris":{"android":"levelo://app?vid=5abf56c2-32c8-49ea-8d39-dd126dd234d9","ios":"levelo://app?vid=5abf56c2-32c8-49ea-8d39-dd126dd234d9"},"vehicle_type_id":"4","last_reported":1748531452,"current_range_meters":16000,"station_id":"ce4bhgp2rcd13ifvqfc0","pricing_plan_id":"cebpf4jnsgd1na2vs0mg"},{"bike_id":"caac217f-7292-4c57-bfce-76d9beeb04c4","system_id":"levelo_inurba_marseille","lat":43.25497,"lon":5.37655,"is_reserved":false,"is_disabled":false,"rental_uris":{"android":"levelo://app?vid=caac217f-7292-4c57-bfce-76d9beeb04c4","ios":"levelo://app?vid=caac217f-7292-4c57-bfce-76d9beeb04c4"},"vehicle_type_id":"4","last_reported":1748531452,"current_range_meters":16000,"station_id":"ce4bhh12rcd13ifvqff0","pricing_plan_id":"cebpf4jnsgd1na2vs0mg"},{"bike_id":"06b7229a-a441-4a21-8a18-787b633469a3","system_id":"levelo_inurba_marseille","lat":43.2499,"lon":5.38912,"is_reserved":false,"is_disabled":false,"rental_uris":{"android":"levelo://app?vid=06b7229a-a441-4a21-8a18-787b633469a3","ios":"levelo://app?vid=06b7229a-a441-4a21-8a18-787b633469a3"},"vehicle_type_id":"4","last_reported":1748531452,"current_range_meters":16000,"station_id":"ce4bhgp2rcd13ifvqfd0","pricing_plan_id":"cebpf4jnsgd1na2vs0mg"},{"bike_id":"5c081b87-4dc4-49fd-bf3f-9a171b0fd8bd","system_id":"levelo_inurba_marseille","lat":43.31864,"lon":5.40917,"is_reserved":false,"is_disabled":false,"rental_uris":{"android":"levelo://app?vid=5c081b87-4dc4-49fd-bf3f-9a171b0fd8bd","ios":"levelo://app?vid=5c081b87-4dc4-49fd-bf3f-9a171b0fd8bd"},"vehicle_type_id":"4","last_reported":1748531452,"current_range_meters":16000,"station_id":"","pricing_plan_id":"cebpf4jnsgd1na2vs0mg"},{"bike_id":"c29f4392-81e7-4634-b67e-caaf40d30cb2","system_id":"levelo_inurba_marseille","lat":43.23196,"lon":5.35565,"is_reserved":false,"is_disabled":false,"rental_uris":{"android":"levelo://app?vid=c29f4392-81e7-4634-b67e-caaf40d30cb2","ios":"levelo://app?vid=c29f4392-81e7-4634-b67e-caaf40d30cb2"},"vehicle_type_id":"4","last_reported":1748531452,"current_range_meters":16000,"station_id":"ce4bhu92rcd13ifvqi70","pricing_plan_id":"cebpf4jnsgd1na2vs0mg"},{"bike_id":"207f8feb-a1a5-4651-bade-17e0403607dd","system_id":"levelo_inurba_marseille","lat":43.27623,"lon":5.36099,"is_reserved":false,"is_disabled":false,"rental_uris":{"android":"levelo://app?vid=207f8feb-a1a5-4651-bade-17e0403607dd","ios":"levelo://app?vid=207f8feb-a1a5-4651-bade-17e0403607dd"},"vehicle_type_id":"4","last_reported":1748531452,"current_range_meters":16400,"station_id":"ce4bgj92rcd13ifvqbe0","pricing_plan_id":"cebpf4jnsgd1na2vs0mg"},{"bike_id":"2f0b886c-8247-496f-bdc3-327761e32d8c","system_id":"levelo_inurba_marseille","lat":43.23176,"lon":5.43739,"is_reserved":false,"is_disabled":false,"rental_uris":{"android":"levelo://app?vid=2f0b886c-8247-496f-bdc3-327761e32d8c","ios":"levelo://app?vid=2f0b886c-8247-496f-bdc3-327761e32d8c"},"vehicle_type_id":"4","last_reported":1748531452,"current_range_meters":16400,"station_id":"ce4bhmp2rcd13ifvqgog","pricing_plan_id":"cebpf4jnsgd1na2vs0mg"},{"bike_id":"27fea17d-d78c-4bf9-87f1-4a5165cb9505","system_id":"levelo_inurba_marseille","lat":43.2623,"lon":5.37469,"is_reserved":false,"is_disabled":false,"rental_uris":{"android":"levelo://app?vid=27fea17d-d78c-4bf9-87f1-4a5165cb9505","ios":"levelo://app?vid=27fea17d-d78c-4bf9-87f1-4a5165cb9505"},"vehicle_type_id":"4","last_reported":1748531452,"current_range_meters":16400,"station_id":"","pricing_plan_id":"cebpf4jnsgd1na2vs0mg"},{"bike_id":"86bbb871-e61a-45cf-9cb0-48859fdf3c58","system_id":"levelo_inurba_marseille","lat":43.28607,"lon":5.35106,"is_reserved":false,"is_disabled":false,"rental_uris":{"android":"levelo://app?vid=86bbb871-e61a-45cf-9cb0-48859fdf3c58","ios":"levelo://app?vid=86bbb871-e61a-45cf-9cb0-48859fdf3c58"},"vehicle_type_id":"4","last_reported":1748531452,"current_range_meters":16400,"station_id":"ce4bhch2rcd13ifvqeug","pricing_plan_id":"cebpf4jnsgd1na2vs0mg"},{"bike_id":"ba3b259b-c9f3-4896-835f-f535bd3de204","system_id":"levelo_inurba_marseille","lat":43.30887,"lon":5.39663,"is_reserved":false,"is_disabled":false,"rental_uris":{"android":"levelo://app?vid=ba3b259b-c9f3-4896-835f-f535bd3de204","ios":"levelo://app?vid=ba3b259b-c9f3-4896-835f-f535bd3de204"},"vehicle_type_id":"4","last_reported":1748531452,"current_range_meters":16000,"station_id":"ce4bh012rcd13ifvqcv0","pricing_plan_id":"cebpf4jnsgd1na2vs0mg"},{"bike_id":"3ccfefeb-b5a3-4150-8cd7-fef26f5cc798","system_id":"levelo_inurba_marseille","lat":43.28445,"lon":5.35017,"is_reserved":false,"is_disabled":false,"rental_uris":{"android":"levelo://app?vid=3ccfefeb-b5a3-4150-8cd7-fef26f5cc798","ios":"levelo://app?vid=3ccfefeb-b5a3-4150-8cd7-fef26f5cc798"},"vehicle_type_id":"4","last_reported":1748531452,"current_range_meters":16400,"station_id":"ce4bhbh2rcd13ifvqepg","pricing_plan_id":"cebpf4jnsgd1na2vs0mg"},{"bike_id":"90ebddc6-d5da-4039-8a05-a547159a4e63","system_id":"levelo_inurba_marseille","lat":43.24164,"lon":5.36416,"is_reserved":false,"is_disabled":false,"rental_uris":{"android":"levelo://app?vid=90ebddc6-d5da-4039-8a05-a547159a4e63","ios":"levelo://app?vid=90ebddc6-d5da-4039-8a05-a547159a4e63"},"vehicle_type_id":"4","last_reported":1748531452,"current_range_meters":16400,"station_id":"cpo36qri1sfpv3e86is0","pricing_plan_id":"cebpf4jnsgd1na2vs0mg"},{"bike_id":"0fb2042e-c469-4720-ac0d-b92d0565ad26","system_id":"levelo_inurba_marseille","lat":43.21745,"lon":5.34613,"is_reserved":false,"is_disabled":false,"rental_uris":{"android":"levelo://app?vid=0fb2042e-c469-4720-ac0d-b92d0565ad26","ios":"levelo://app?vid=0fb2042e-c469-4720-ac0d-b92d0565ad26"},"vehicle_type_id":"4","last_reported":1748531452,"current_range_meters":16400,"station_id":"st_cvj6r9ubvosntc0bgbag","pricing_plan_id":"cebpf4jnsgd1na2vs0mg"},{"bike_id":"a828df87-5741-4b66-b47d-1ee3bbf1a098","system_id":"levelo_inurba_marseille","lat":43.25,"lon":5.3893,"is_reserved":false,"is_disabled":false,"rental_uris":{"android":"levelo://app?vid=a828df87-5741-4b66-b47d-1ee3bbf1a098","ios":"levelo://app?vid=a828df87-5741-4b66-b47d-1ee3bbf1a098"},"vehicle_type_id":"4","last_reported":1748531452,"current_range_meters":16400,"station_id":"ce4bhgp2rcd13ifvqfd0","pricing_plan_id":"cebpf4jnsgd1na2vs0mg"},{"bike_id":"7243d7c8-02f5-4392-89cf-8c360e846d55","system_id":"levelo_inurba_marseille","lat":43.25306,"lon":5.37829,"is_reserved":false,"is_disabled":false,"rental_uris":{"android":"levelo://app?vid=7243d7c8-02f5-4392-89cf-8c360e846d55","ios":"levelo://app?vid=7243d7c8-02f5-4392-89cf-8c360e846d55"},"vehicle_type_id":"4","last_reported":1748531452,"current_range_meters":16800,"station_id":"","pricing_plan_id":"cebpf4jnsgd1na2vs0mg"},{"bike_id":"3705ed82-03d9-43bd-8b70-c814d673dca4","system_id":"levelo_inurba_marseille","lat":43.26036,"lon":5.37548,"is_reserved":false,"is_disabled":false,"rental_uris":{"android":"levelo://app?vid=3705ed82-03d9-43bd-8b70-c814d673dca4","ios":"levelo://app?vid=3705ed82-03d9-43bd-8b70-c814d673dca4"},"vehicle_type_id":"4","last_reported":1748531452,"current_range_meters":16800,"station_id":"ce4bhgh2rcd13ifvqfa0","pricing_plan_id":"cebpf4jnsgd1na2vs0mg"},{"bike_id":"7190414d-81cf-453d-81bf-69c4cdaa0b28","system_id":"levelo_inurba_marseille","lat":43.2175,"lon":5.34614,"is_reserved":false,"is_disabled":false,"rental_uris":{"android":"levelo://app?vid=7190414d-81cf-453d-81bf-69c4cdaa0b28","ios":"levelo://app?vid=7190414d-81cf-453d-81bf-69c4cdaa0b28"},"vehicle_type_id":"4","last_reported":1748531452,"current_range_meters":16800,"station_id":"","pricing_plan_id":"cebpf4jnsgd1na2vs0mg"},{"bike_id":"aceae681-c577-47eb-81e0-0c36e829f6d5","system_id":"levelo_inurba_marseille","lat":43.284183,"lon":5.35006,"is_reserved":false,"is_disabled":false,"rental_uris":{"android":"levelo://app?vid=aceae681-c577-47eb-81e0-0c36e829f6d5","ios":"levelo://app?vid=aceae681-c577-47eb-81e0-0c36e829f6d5"},"vehicle_type_id":"4","last_reported":1748531452,"current_range_meters":16800,"station_id":"ce4bhbh2rcd13ifvqepg","pricing_plan_id":"cebpf4jnsgd1na2vs0mg"},{"bike_id":"076c051d-749a-414d-9e44-f58b512856cd","system_id":"levelo_inurba_marseille","lat":43.28424,"lon":5.34995,"is_reserved":false,"is_disabled":false,"rental_uris":{"android":"levelo://app?vid=076c051d-749a-414d-9e44-f58b512856cd","ios":"levelo://app?vid=076c051d-749a-414d-9e44-f58b512856cd"},"vehicle_type_id":"4","last_reported":1748531452,"current_range_meters":16800,"station_id":"ce4bhbh2rcd13ifvqepg","pricing_plan_id":"cebpf4jnsgd1na2vs0mg"},{"bike_id":"686f8160-a6fa-4fa0-88d6-ae56148ecdd6","system_id":"levelo_inurba_marseille","lat":43.24821,"lon":5.37461,"is_reserved":false,"is_disabled":false,"rental_uris":{"android":"levelo://app?vid=686f8160-a6fa-4fa0-88d6-ae56148ecdd6","ios":"levelo://app?vid=686f8160-a6fa-4fa0-88d6-ae56148ecdd6"},"vehicle_type_id":"4","last_reported":1748531452,"current_range_meters":16800,"station_id":"ce4bhgh2rcd13ifvqfb0","pricing_plan_id":"cebpf4jnsgd1na2vs0mg"},{"bike_id":"4d2cbd57-1209-4492-b522-0582c0ed5164","system_id":"levelo_inurba_marseille","lat":43.25503,"lon":5.37652,"is_reserved":false,"is_disabled":false,"rental_uris":{"android":"levelo://app?vid=4d2cbd57-1209-4492-b522-0582c0ed5164","ios":"levelo://app?vid=4d2cbd57-1209-4492-b522-0582c0ed5164"},"vehicle_type_id":"4","last_reported":1748531452,"current_range_meters":17200,"station_id":"ce4bhh12rcd13ifvqff0","pricing_plan_id":"cebpf4jnsgd1na2vs0mg"},{"bike_id":"4d214bca-45f8-4722-bfe1-27a94bf1c099","system_id":"levelo_inurba_marseille","lat":43.21757,"lon":5.34602,"is_reserved":false,"is_disabled":false,"rental_uris":{"android":"levelo://app?vid=4d214bca-45f8-4722-bfe1-27a94bf1c099","ios":"levelo://app?vid=4d214bca-45f8-4722-bfe1-27a94bf1c099"},"vehicle_type_id":"4","last_reported":1748531452,"current_range_meters":17200,"station_id":"st_cvj6r9ubvosntc0bgbag","pricing_plan_id":"cebpf4jnsgd1na2vs0mg"},{"bike_id":"4c7665fb-fd6a-433d-9989-7a05d2c0e266","system_id":"levelo_inurba_marseille","lat":43.282672,"lon":5.350739,"is_reserved":false,"is_disabled":false,"rental_uris":{"android":"levelo://app?vid=4c7665fb-fd6a-433d-9989-7a05d2c0e266","ios":"levelo://app?vid=4c7665fb-fd6a-433d-9989-7a05d2c0e266"},"vehicle_type_id":"4","last_reported":1748531452,"current_range_meters":17200,"station_id":"ce4bhbp2rcd13ifvqerg","pricing_plan_id":"cebpf4jnsgd1na2vs0mg"},{"bike_id":"b9fc76d8-1bdf-48f3-84a2-3e91d9ed74dc","system_id":"levelo_inurba_marseille","lat":43.30805,"lon":5.43553,"is_reserved":false,"is_disabled":false,"rental_uris":{"android":"levelo://app?vid=b9fc76d8-1bdf-48f3-84a2-3e91d9ed74dc","ios":"levelo://app?vid=b9fc76d8-1bdf-48f3-84a2-3e91d9ed74dc"},"vehicle_type_id":"4","last_reported":1748531452,"current_range_meters":17200,"station_id":"ce4bhph2rcd13ifvqheg","pricing_plan_id":"cebpf4jnsgd1na2vs0mg"},{"bike_id":"923e3e77-9081-4fc4-9c06-a9f360ccc8ac","system_id":"levelo_inurba_marseille","lat":43.21205,"lon":5.35107,"is_reserved":false,"is_disabled":false,"rental_uris":{"android":"levelo://app?vid=923e3e77-9081-4fc4-9c06-a9f360ccc8ac","ios":"levelo://app?vid=923e3e77-9081-4fc4-9c06-a9f360ccc8ac"},"vehicle_type_id":"4","last_reported":1748531452,"current_range_meters":17200,"station_id":"st_cvj6sg6p6f1abm77japg","pricing_plan_id":"cebpf4jnsgd1na2vs0mg"},{"bike_id":"05d5d538-0a42-4022-a974-7cb3c1e831b1","system_id":"levelo_inurba_marseille","lat":43.21198,"lon":5.35069,"is_reserved":false,"is_disabled":false,"rental_uris":{"android":"levelo://app?vid=05d5d538-0a42-4022-a974-7cb3c1e831b1","ios":"levelo://app?vid=05d5d538-0a42-4022-a974-7cb3c1e831b1"},"vehicle_type_id":"4","last_reported":1748531452,"current_range_meters":17200,"station_id":"st_cvj6sg6p6f1abm77japg","pricing_plan_id":"cebpf4jnsgd1na2vs0mg"},{"bike_id":"52175779-26a4-4b6e-86a9-496c348d3712","system_id":"levelo_inurba_marseille","lat":43.25118,"lon":5.40316,"is_reserved":false,"is_disabled":false,"rental_uris":{"android":"levelo://app?vid=52175779-26a4-4b6e-86a9-496c348d3712","ios":"levelo://app?vid=52175779-26a4-4b6e-86a9-496c348d3712"},"vehicle_type_id":"4","last_reported":1748531452,"current_range_meters":17200,"station_id":"ce4bhlh2rcd13ifvqgig","pricing_plan_id":"cebpf4jnsgd1na2vs0mg"},{"bike_id":"062ff17d-183d-42c7-851f-6f5c81dc90fc","system_id":"levelo_inurba_marseille","lat":43.21223,"lon":5.35079,"is_reserved":false,"is_disabled":false,"rental_uris":{"android":"levelo://app?vid=062ff17d-183d-42c7-851f-6f5c81dc90fc","ios":"levelo://app?vid=062ff17d-183d-42c7-851f-6f5c81dc90fc"},"vehicle_type_id":"4","last_reported":1748531452,"current_range_meters":17200,"station_id":"st_cvj6sg6p6f1abm77japg","pricing_plan_id":"cebpf4jnsgd1na2vs0mg"},{"bike_id":"1290eb42-6778-440f-85ed-ad3a652c3e7f","system_id":"levelo_inurba_marseille","lat":43.2417,"lon":5.36394,"is_reserved":false,"is_disabled":false,"rental_uris":{"android":"levelo://app?vid=1290eb42-6778-440f-85ed-ad3a652c3e7f","ios":"levelo://app?vid=1290eb42-6778-440f-85ed-ad3a652c3e7f"},"vehicle_type_id":"4","last_reported":1748531452,"current_range_meters":17200,"station_id":"cpo36qri1sfpv3e86is0","pricing_plan_id":"cebpf4jnsgd1na2vs0mg"},{"bike_id":"9e077e27-33c0-4331-96cc-ce43f93f1c2b","system_id":"levelo_inurba_marseille","lat":43.26756,"lon":5.37212,"is_reserved":false,"is_disabled":false,"rental_uris":{"android":"levelo://app?vid=9e077e27-33c0-4331-96cc-ce43f93f1c2b","ios":"levelo://app?vid=9e077e27-33c0-4331-96cc-ce43f93f1c2b"},"vehicle_type_id":"4","last_reported":1748531452,"current_range_meters":17200,"station_id":"","pricing_plan_id":"cebpf4jnsgd1na2vs0mg"},{"bike_id":"df8bef15-d86b-4719-aed1-bb8f2e889e95","system_id":"levelo_inurba_marseille","lat":43.29526,"lon":5.37508,"is_reserved":false,"is_disabled":false,"rental_uris":{"android":"levelo://app?vid=df8bef15-d86b-4719-aed1-bb8f2e889e95","ios":"levelo://app?vid=df8bef15-d86b-4719-aed1-bb8f2e889e95"},"vehicle_type_id":"4","last_reported":1748531452,"current_range_meters":17200,"station_id":"ce4bgkp2rcd13ifvqbmg","pricing_plan_id":"cebpf4jnsgd1na2vs0mg"},{"bike_id":"642f6059-de2c-4172-86e3-c25be04d3d2c","system_id":"levelo_inurba_marseille","lat":43.24819,"lon":5.37465,"is_reserved":false,"is_disabled":false,"rental_uris":{"android":"levelo://app?vid=642f6059-de2c-4172-86e3-c25be04d3d2c","ios":"levelo://app?vid=642f6059-de2c-4172-86e3-c25be04d3d2c"},"vehicle_type_id":"4","last_reported":1748531452,"current_range_meters":17200,"station_id":"ce4bhgh2rcd13ifvqfb0","pricing_plan_id":"cebpf4jnsgd1na2vs0mg"},{"bike_id":"2b4a476a-bb6e-419e-9798-2f55b6e4f4e9","system_id":"levelo_inurba_marseille","lat":43.27385,"lon":5.36264,"is_reserved":false,"is_disabled":false,"rental_uris":{"android":"levelo://app?vid=2b4a476a-bb6e-419e-9798-2f55b6e4f4e9","ios":"levelo://app?vid=2b4a476a-bb6e-419e-9798-2f55b6e4f4e9"},"vehicle_type_id":"4","last_reported":1748531452,"current_range_meters":17200,"station_id":"ce4bhbh2rcd13ifvqeo0","pricing_plan_id":"cebpf4jnsgd1na2vs0mg"},{"bike_id":"bf4a0959-f180-4d54-9913-5e4a1fd78137","system_id":"levelo_inurba_marseille","lat":43.21182,"lon":5.35116,"is_reserved":false,"is_disabled":false,"rental_uris":{"android":"levelo://app?vid=bf4a0959-f180-4d54-9913-5e4a1fd78137","ios":"levelo://app?vid=bf4a0959-f180-4d54-9913-5e4a1fd78137"},