{"last_updated":1760886508,"ttl":60,"version":"2.2","data":{"bikes":[{"bike_id":"95594cbc-16f5-4d3b-adb7-c6178d9ee48f","system_id":"levelo_inurba_marseille","lat":43.26951,"lon":5.38633,"is_reserved":false,"is_disabled":false,"rental_uris":{"android":"levelo://app?vid=95594cbc-16f5-4d3b-adb7-c6178d9ee48f","ios":"levelo://app?vid=95594cbc-16f5-4d3b-adb7-c6178d9ee48f"},"vehicle_type_id":"4","last_reported":1760886508,"current_range_meters":2800,"station_id":"ce4bhh92rcd13ifvqfh0","pricing_plan_id":"cebpf4jnsgd1na2vs0mg"},{"bike_id":"b8bccdd2-1d7a-4223-b308-d616701bf6ab","system_id":"levelo_inurba_marseille","lat":43.28589,"lon":5.37066,"is_reserved":false,"is_disabled":false,"rental_uris":{"android":"levelo://app?vid=b8bccdd2-1d7a-4223-b308-d616701bf6ab","ios":"levelo://app?vid=b8bccdd2-1d7a-4223-b308-d616701bf6ab"},"vehicle_type_id":"4","last_reported":1760886508,"current_range_meters":2800,"station_id":"ce4bht12rcd13ifvqi60","pricing_plan_id":"cebpf4jnsgd1na2vs0mg"},{"bike_id":"5fe6e873-dba1-40dd-bc65-77de126f2710","system_id":"levelo_inurba_marseille","lat":43.332893,"lon":5.395256,"is_reserved":false,"is_disabled":true,"rental_uris":{"android":"levelo://app?vid=5fe6e873-dba1-40dd-bc65-77de126f2710","ios":"levelo://app?vid=5fe6e873-dba1-40dd-bc65-77de126f2710"},"vehicle_type_id":"4","last_reported":1760886508,"current_range_meters":2800,"station_id":"","pricing_plan_id":"cebpf4jnsgd1na2vs0mg"},{"bike_id":"fc2d42ec-ea12-43ad-9446-d3df1836b91e","system_id":"levelo_inurba_marseille","lat":43.29003,"lon":5.35623,"is_reserved":false,"is_disabled":false,"rental_uris":{"android":"levelo://app?vid=fc2d42ec-ea12-43ad-9446-d3df1836b91e","ios":"levelo://app?vid=fc2d42ec-ea12-43ad-9446-d3df1836b91e"},"vehicle_type_id":"4","last_reported":1760886508,"current_range_meters":2800,"station_id":"ce4bhb92rcd13ifvqen0","pricing_plan_id":"cebpf4jnsgd1na2vs0mg"},{"bike_id":"a817b630-bbed-48d3-97f4-9bd571b9ebab","system_id":"levelo_inurba_marseille","lat":43.30258,"lon":5.36711,"is_reserved":false,"is_disabled":false,"rental_uris":{"android":"levelo://app?vid=a817b630-bbed-48d3-97f4-9bd571b9ebab","ios":"levelo://app?vid=a817b630-bbed-48d3-97f4-9bd571b9ebab"},"vehicle_type_id":"4","last_reported":1760886508,"current_range_meters":2800,"station_id":"","pricing_plan_id":"cebpf4jnsgd1na2vs0mg"},{"bike_id":"073ee30c-6b75-4664-80f6-12541b2f7e60","system_id":"levelo_inurba_marseille","lat":43.288379,"lon":5.358624,"is_reserved":false,"is_disabled":false,"rental_uris":{"android":"levelo://app?vid=073ee30c-6b75-4664-80f6-12541b2f7e60","ios":"levelo://app?vid=073ee30c-6b75-4664-80f6-12541b2f7e60"},"vehicle_type_id":"4","last_reported":1760886508,"current_range_meters":3200,"station_id":"","pricing_plan_id":"cebpf4jnsgd1na2vs0mg"},{"bike_id":"8ca86792-712f-49fb-b4f6-4bb7a772ac0e","system_id":"levelo_inurba_marseille","lat":43.29521,"lon":5.38538,"is_reserved":false,"is_disabled":false,"rental_uris":{"android":"levelo://app?vid=8ca86792-712f-49fb-b4f6-4bb7a772ac0e","ios":"levelo://app?vid=8ca86792-712f-49fb-b4f6-4bb7a772ac0e"},"vehicle_type_id":"4","last_reported":1760886508,"current_range_meters":3200,"station_id":"ce4bgih2rcd13ifvqba0","pricing_plan_id":"cebpf4jnsgd1na2vs0mg"},{"bike_id":"cea0f644-5b2f-4ccd-9097-8392c62825ae","system_id":"levelo_inurba_marseille","lat":43.28268,"lon":5.35058,"is_reserved":false,"is_disabled":false,"rental_uris":{"android":"levelo://app?vid=cea0f644-5b2f-4ccd-9097-8392c62825ae","ios":"levelo://app?vid=cea0f644-5b2f-4ccd-9097-8392c62825ae"},"vehicle_type_id":"4","last_reported":1760886508,"current_range_meters":3200,"station_id":"ce4bhbp2rcd13ifvqerg","pricing_plan_id":"cebpf4jnsgd1na2vs0mg"},{"bike_id":"23106cad-886f-404f-82e9-c2982189811d","system_id":"levelo_inurba_marseille","lat":43.27186,"lon":5.42718,"is_reserved":false,"is_disabled":false,"rental_uris":{"android":"levelo://app?vid=23106cad-886f-404f-82e9-c2982189811d","ios":"levelo://app?vid=23106cad-886f-404f-82e9-c2982189811d"},"vehicle_type_id":"4","last_reported":1760886508,"current_range_meters":3200,"station_id":"","pricing_plan_id":"cebpf4jnsgd1na2vs0mg"},{"bike_id":"b1a84abc-294d-4af2-9df0-d08d9e828002","system_id":"levelo_inurba_marseille","lat":43.31356,"lon":5.385,"is_reserved":false,"is_disabled":false,"rental_uris":{"android":"levelo://app?vid=b1a84abc-294d-4af2-9df0-d08d9e828002","ios":"levelo://app?vid=b1a84abc-294d-4af2-9df0-d08d9e828002"},"vehicle_type_id":"4","last_reported":1760886508,"current_range_meters":3200,"station_id":"ce4bgt92rcd13ifvqcf0","pricing_plan_id":"cebpf4jnsgd1na2vs0mg"},{"bike_id":"bfc58bd9-eba5-42ae-8a44-615446a58f86","system_id":"levelo_inurba_marseille","lat":43.231948,"lon":5.355531,"is_reserved":false,"is_disabled":false,"rental_uris":{"android":"levelo://app?vid=bfc58bd9-eba5-42ae-8a44-615446a58f86","ios":"levelo://app?vid=bfc58bd9-eba5-42ae-8a44-615446a58f86"},"vehicle_type_id":"4","last_reported":1760886508,"current_range_meters":3600,"station_id":"ce4bgs92rcd13ifvqcc0","pricing_plan_id":"cebpf4jnsgd1na2vs0mg"},{"bike_id":"620f19db-e929-4071-8a7a-fb5114fd2597","system_id":"levelo_inurba_marseille","lat":43.27316,"lon":5.39109,"is_reserved":false,"is_disabled":true,"rental_uris":{"android":"levelo://app?vid=620f19db-e929-4071-8a7a-fb5114fd2597","ios":"levelo://app?vid=620f19db-e929-4071-8a7a-fb5114fd2597"},"vehicle_type_id":"4","last_reported":1760886508,"current_range_meters":3600,"station_id":"ce4bhgp2rcd13ifvqfe0","pricing_plan_id":"cebpf4jnsgd1na2vs0mg"},{"bike_id":"359f8400-d69b-4e46-94ea-75fde917ee2b","system_id":"levelo_inurba_marseille","lat":43.29226,"lon":5.36067,"is_reserved":false,"is_disabled":false,"rental_uris":{"android":"levelo://app?vid=359f8400-d69b-4e46-94ea-75fde917ee2b","ios":"levelo://app?vid=359f8400-d69b-4e46-94ea-75fde917ee2b"},"vehicle_type_id":"4","last_reported":1760886508,"current_range_meters":3600,"station_id":"ce4bhbh2rcd13ifvqeqg","pricing_plan_id":"cebpf4jnsgd1na2vs0mg"},{"bike_id":"32d01b2a-d46e-4c6e-a49c-b20202d8474a","system_id":"levelo_inurba_marseille","lat":43.21745,"lon":5.346,"is_reserved":false,"is_disabled":false,"rental_uris":{"android":"levelo://app?vid=32d01b2a-d46e-4c6e-a49c-b20202d8474a","ios":"levelo://app?vid=32d01b2a-d46e-4c6e-a49c-b20202d8474a"},"vehicle_type_id":"4","last_reported":1760886508,"current_range_meters":4000,"station_id":"","pricing_plan_id":"cebpf4jnsgd1na2vs0mg"},{"bike_id":"d0057ba9-b233-440f-8490-e26f02f1a1dd","system_id":"levelo_inurba_marseille","lat":43.286519,"lon":5.363615,"is_reserved":false,"is_disabled":true,"rental_uris":{"android":"levelo://app?vid=d0057ba9-b233-440f-8490-e26f02f1a1dd","ios":"levelo://app?vid=d0057ba9-b233-440f-8490-e26f02f1a1dd"},"vehicle_type_id":"4","last_reported":1760886508,"current_range_meters":4000,"station_id":"ce4bhah2rcd13ifvqej0","pricing_plan_id":"cebpf4jnsgd1na2vs0mg"},{"bike_id":"6baddaec-fcd5-4bbd-999e-37665bb5b734","system_id":"levelo_inurba_marseille","lat":43.299358,"lon":5.374718,"is_reserved":false,"is_disabled":false,"rental_uris":{"android":"levelo://app?vid=6baddaec-fcd5-4bbd-999e-37665bb5b734","ios":"levelo://app?vid=6baddaec-fcd5-4bbd-999e-37665bb5b734"},"vehicle_type_id":"4","last_reported":1760886508,"current_range_meters":4000,"station_id":"ce4bgjh2rcd13ifvqbg0","pricing_plan_id":"cebpf4jnsgd1na2vs0mg"},{"bike_id":"da540c0e-39c9-4ef0-a466-f97a8d2a1619","system_id":"levelo_inurba_marseille","lat":43.294128,"lon":5.384756,"is_reserved":false,"is_disabled":false,"rental_uris":{"android":"levelo://app?vid=da540c0e-39c9-4ef0-a466-f97a8d2a1619","ios":"levelo://app?vid=da540c0e-39c9-4ef0-a466-f97a8d2a1619"},"vehicle_type_id":"4","last_reported":1760886508,"current_range_meters":4000,"station_id":"st_d3j3df2ikq2c7380ej80","pricing_plan_id":"cebpf4jnsgd1na2vs0mg"},{"bike_id":"42436d4c-ce3d-48f3-8ec4-a5c39d2bd0cc","system_id":"levelo_inurba_marseille","lat":43.29252,"lon":5.38451,"is_reserved":false,"is_disabled":false,"rental_uris":{"android":"levelo://app?vid=42436d4c-ce3d-48f3-8ec4-a5c39d2bd0cc","ios":"levelo://app?vid=42436d4c-ce3d-48f3-8ec4-a5c39d2bd0cc"},"vehicle_type_id":"4","last_reported":1760886508,"current_range_meters":4000,"station_id":"ce4bh692rcd13ifvqea0","pricing_plan_id":"cebpf4jnsgd1na2vs0mg"},{"bike_id":"22aad375-1080-4125-b1ed-4178fce43f47","system_id":"levelo_inurba_marseille","lat":43.29568,"lon":5.39983,"is_reserved":false,"is_disabled":false,"rental_uris":{"android":"levelo://app?vid=22aad375-1080-4125-b1ed-4178fce43f47","ios":"levelo://app?vid=22aad375-1080-4125-b1ed-4178fce43f47"},"vehicle_type_id":"4","last_reported":1760886508,"current_range_meters":4000,"station_id":"ce4bh312rcd13ifvqdj0","pricing_plan_id":"cebpf4jnsgd1na2vs0mg"},{"bike_id":"0e0c1d6f-eb49-428f-b51b-ffe2779d95b2","system_id":"levelo_inurba_marseille","lat":43.30543,"lon":5.36561,"is_reserved":false,"is_disabled":false,"rental_uris":{"android":"levelo://app?vid=0e0c1d6f-eb49-428f-b51b-ffe2779d95b2","ios":"levelo://app?vid=0e0c1d6f-eb49-428f-b51b-ffe2779d95b2"},"vehicle_type_id":"4","last_reported":1760886508,"current_range_meters":4400,"station_id":"ce4bgs12rcd13ifvqcag","pricing_plan_id":"cebpf4jnsgd1na2vs0mg"},{"bike_id":"036299be-df9b-4af3-9ed1-8a39be4a71a4","system_id":"levelo_inurba_marseille","lat":43.28226,"lon":5.39076,"is_reserved":false,"is_disabled":false,"rental_uris":{"android":"levelo://app?vid=036299be-df9b-4af3-9ed1-8a39be4a71a4","ios":"levelo://app?vid=036299be-df9b-4af3-9ed1-8a39be4a71a4"},"vehicle_type_id":"4","last_reported":1760886508,"current_range_meters":4400,"station_id":"ce4bhn92rcd13ifvqgsg","pricing_plan_id":"cebpf4jnsgd1na2vs0mg"},{"bike_id":"59a304a9-898f-49c3-a611-271fac36f187","system_id":"levelo_inurba_marseille","lat":43.29514,"lon":5.39417,"is_reserved":false,"is_disabled":false,"rental_uris":{"android":"levelo://app?vid=59a304a9-898f-49c3-a611-271fac36f187","ios":"levelo://app?vid=59a304a9-898f-49c3-a611-271fac36f187"},"vehicle_type_id":"4","last_reported":1760886508,"current_range_meters":4400,"station_id":"ce4bh292rcd13ifvqdf0","pricing_plan_id":"cebpf4jnsgd1na2vs0mg"},{"bike_id":"41942155-c028-41d2-9da5-da9a718711fd","system_id":"levelo_inurba_marseille","lat":43.21188,"lon":5.35081,"is_reserved":false,"is_disabled":true,"rental_uris":{"android":"levelo://app?vid=41942155-c028-41d2-9da5-da9a718711fd","ios":"levelo://app?vid=41942155-c028-41d2-9da5-da9a718711fd"},"vehicle_type_id":"4","last_reported":1760886508,"current_range_meters":4800,"station_id":"st_cvj6sg6p6f1abm77japg","pricing_plan_id":"cebpf4jnsgd1na2vs0mg"},{"bike_id":"cb58185e-701d-483f-b22e-e50dd1c6d211","system_id":"levelo_inurba_marseille","lat":43.292305,"lon":5.360465,"is_reserved":false,"is_disabled":false,"rental_uris":{"android":"levelo://app?vid=cb58185e-701d-483f-b22e-e50dd1c6d211","ios":"levelo://app?vid=cb58185e-701d-483f-b22e-e50dd1c6d211"},"vehicle_type_id":"4","last_reported":1760886508,"current_range_meters":4800,"station_id":"ce4bhbh2rcd13ifvqeqg","pricing_plan_id":"cebpf4jnsgd1na2vs0mg"},{"bike_id":"91b6b3bb-f752-409f-a59c-fda45187bd78","system_id":"levelo_inurba_marseille","lat":43.30763,"lon":5.42411,"is_reserved":false,"is_disabled":false,"rental_uris":{"android":"levelo://app?vid=91b6b3bb-f752-409f-a59c-fda45187bd78","ios":"levelo://app?vid=91b6b3bb-f752-409f-a59c-fda45187bd78"},"vehicle_type_id":"4","last_reported":1760886508,"current_range_meters":4800,"station_id":"st_cvj6ca6bvosntc0bfgr0","pricing_plan_id":"cebpf4jnsgd1na2vs0mg"},{"bike_id":"dea9c334-db82-4c3d-ab92-409ab43c515b","system_id":"levelo_inurba_marseille","lat":43.23965,"lon":5.36629,"is_reserved":false,"is_disabled":false,"rental_uris":{"android":"levelo://app?vid=dea9c334-db82-4c3d-ab92-409ab43c515b","ios":"levelo://app?vid=dea9c334-db82-4c3d-ab92-409ab43c515b"},"vehicle_type_id":"4","last_reported":1760886508,"current_range_meters":4800,"station_id":"ce4bhi12rcd13ifvqfp0","pricing_plan_id":"cebpf4jnsgd1na2vs0mg"},{"bike_id":"d8c83ed2-7ae1-4dd2-9a63-b62c96a83bd6","system_id":"levelo_inurba_marseille","lat":43.27912,"lon":5.39582,"is_reserved":false,"is_disabled":false,"rental_uris":{"android":"levelo://app?vid=d8c83ed2-7ae1-4dd2-9a63-b62c96a83bd6","ios":"levelo://app?vid=d8c83ed2-7ae1-4dd2-9a63-b62c96a83bd6"},"vehicle_type_id":"4","last_reported":1760886508,"current_range_meters":5600,"station_id":"ce4bhf92rcd13ifvqf40","pricing_plan_id":"cebpf4jnsgd1na2vs0mg"},{"bike_id":"924ac669-be8b-47aa-9a8e-6f22baf815eb","system_id":"levelo_inurba_marseille","lat":43.337692,"lon":5.374734,"is_reserved":false,"is_disabled":false,"rental_uris":{"android":"levelo://app?vid=924ac669-be8b-47aa-9a8e-6f22baf815eb","ios":"levelo://app?vid=924ac669-be8b-47aa-9a8e-6f22baf815eb"},"vehicle_type_id":"4","last_reported":1760886508,"current_range_meters":5600,"station_id":"","pricing_plan_id":"cebpf4jnsgd1na2vs0mg"},{"bike_id":"bfa5d6fa-5303-450c-8deb-bf365f94a097","system_id":"levelo_inurba_marseille","lat":43.21199,"lon":5.35087,"is_reserved":false,"is_disabled":false,"rental_uris":{"android":"levelo://app?vid=bfa5d6fa-5303-450c-8deb-bf365f94a097","ios":"levelo://app?vid=bfa5d6fa-5303-450c-8deb-bf365f94a097"},"vehicle_type_id":"4","last_reported":1760886508,"current_range_meters":5600,"station_id":"st_cvj6sg6p6f1abm77japg","pricing_plan_id":"cebpf4jnsgd1na2vs0mg"},{"bike_id":"e6cfe784-cb39-4f50-bc11-2e3c7639a4b7","system_id":"levelo_inurba_marseille","lat":43.2253,"lon":5.34835,"is_reserved":false,"is_disabled":false,"rental_uris":{"android":"levelo://app?vid=e6cfe784-cb39-4f50-bc11-2e3c7639a4b7","ios":"levelo://app?vid=e6cfe784-cb39-4f50-bc11-2e3c7639a4b7"},"vehicle_type_id":"4","last_reported":1760886508,"current_range_meters":6000,"station_id":"","pricing_plan_id":"cebpf4jnsgd1na2vs0mg"},{"bike_id":"1382b748-840e-4ecc-afc5-0fb4eeaeb841","system_id":"levelo_inurba_marseille","lat":43.30604,"lon":5.37486,"is_reserved":false,"is_disabled":false,"rental_uris":{"android":"levelo://app?vid=1382b748-840e-4ecc-afc5-0fb4eeaeb841","ios":"levelo://app?vid=1382b748-840e-4ecc-afc5-0fb4eeaeb841"},"vehicle_type_id":"4","last_reported":1760886508,"current_range_meters":6000,"station_id":"","pricing_plan_id":"cebpf4jnsgd1na2vs0mg"},{"bike_id":"61415c01-2520-4742-827d-55258aa71a70","system_id":"levelo_inurba_marseille","lat":43.22926,"lon":5.35388,"is_reserved":false,"is_disabled":false,"rental_uris":{"android":"levelo://app?vid=61415c01-2520-4742-827d-55258aa71a70","ios":"levelo://app?vid=61415c01-2520-4742-827d-55258aa71a70"},"vehicle_type_id":"4","last_reported":1760886508,"current_range_meters":6000,"station_id":"cpo3532slgdg3j2ikp40","pricing_plan_id":"cebpf4jnsgd1na2vs0mg"},{"bike_id":"f55709e0-4b78-4850-8db3-b4d73728152f","system_id":"levelo_inurba_marseille","lat":43.35143,"lon":5.36453,"is_reserved":false,"is_disabled":false,"rental_uris":{"android":"levelo://app?vid=f55709e0-4b78-4850-8db3-b4d73728152f","ios":"levelo://app?vid=f55709e0-4b78-4850-8db3-b4d73728152f"},"vehicle_type_id":"4","last_reported":1760886508,"current_range_meters":6000,"station_id":"","pricing_plan_id":"cebpf4jnsgd1na2vs0mg"},{"bike_id":"1458c914-aa3a-4a64-be51-43ee837aab74","system_id":"levelo_inurba_marseille","lat":43.286136,"lon":5.351083,"is_reserved":false,"is_disabled":false,"rental_uris":{"android":"levelo://app?vid=1458c914-aa3a-4a64-be51-43ee837aab74","ios":"levelo://app?vid=1458c914-aa3a-4a64-be51-43ee837aab74"},"vehicle_type_id":"4","last_reported":1760886508,"current_range_meters":6400,"station_id":"ce4bhch2rcd13ifvqeug","pricing_plan_id":"cebpf4jnsgd1na2vs0mg"},{"bike_id":"1aca3684-9812-49d5-a3a9-bbb6360231f4","system_id":"levelo_inurba_marseille","lat":43.290002,"lon":5.356078,"is_reserved":false,"is_disabled":false,"rental_uris":{"android":"levelo://app?vid=1aca3684-9812-49d5-a3a9-bbb6360231f4","ios":"levelo://app?vid=1aca3684-9812-49d5-a3a9-bbb6360231f4"},"vehicle_type_id":"4","last_reported":1760886508,"current_range_meters":6400,"station_id":"ce4bhb92rcd13ifvqen0","pricing_plan_id":"cebpf4jnsgd1na2vs0mg"},{"bike_id":"664a0561-7787-4963-923a-e3cdffcc37ec","system_id":"levelo_inurba_marseille","lat":43.23192,"lon":5.35559,"is_reserved":false,"is_disabled":false,"rental_uris":{"android":"levelo://app?vid=664a0561-7787-4963-923a-e3cdffcc37ec","ios":"levelo://app?vid=664a0561-7787-4963-923a-e3cdffcc37ec"},"vehicle_type_id":"4","last_reported":1760886508,"current_range_meters":6400,"station_id":"ce4bhu92rcd13ifvqi70","pricing_plan_id":"cebpf4jnsgd1na2vs0mg"},{"bike_id":"ef1d3efc-4e43-438c-8f55-8e29754b02e8","system_id":"levelo_inurba_marseille","lat":43.2889,"lon":5.46005,"is_reserved":false,"is_disabled":false,"rental_uris":{"android":"levelo://app?vid=ef1d3efc-4e43-438c-8f55-8e29754b02e8","ios":"levelo://app?vid=ef1d3efc-4e43-438c-8f55-8e29754b02e8"},"vehicle_type_id":"4","last_reported":1760886508,"current_range_meters":6400,"station_id":"","pricing_plan_id":"cebpf4jnsgd1na2vs0mg"},{"bike_id":"75b02a51-1325-435e-9661-29bb451a696a","system_id":"levelo_inurba_marseille","lat":43.31448,"lon":5.38488,"is_reserved":false,"is_disabled":false,"rental_uris":{"android":"levelo://app?vid=75b02a51-1325-435e-9661-29bb451a696a","ios":"levelo://app?vid=75b02a51-1325-435e-9661-29bb451a696a"},"vehicle_type_id":"4","last_reported":1760886508,"current_range_meters":6400,"station_id":"","pricing_plan_id":"cebpf4jnsgd1na2vs0mg"},{"bike_id":"f7c8f693-1cb9-4f45-a809-cd76181c6642","system_id":"levelo_inurba_marseille","lat":43.225949,"lon":5.348374,"is_reserved":false,"is_disabled":false,"rental_uris":{"android":"levelo://app?vid=f7c8f693-1cb9-4f45-a809-cd76181c6642","ios":"levelo://app?vid=f7c8f693-1cb9-4f45-a809-cd76181c6642"},"vehicle_type_id":"4","last_reported":1760886508,"current_range_meters":6400,"station_id":"ce4bhoh2rcd13ifvqh5g","pricing_plan_id":"cebpf4jnsgd1na2vs0mg"},{"bike_id":"fc98f019-2b4d-45f5-b664-5928e89fb440","system_id":"levelo_inurba_marseille","lat":43.21741,"lon":5.34608,"is_reserved":false,"is_disabled":false,"rental_uris":{"android":"levelo://app?vid=fc98f019-2b4d-45f5-b664-5928e89fb440","ios":"levelo://app?vid=fc98f019-2b4d-45f5-b664-5928e89fb440"},"vehicle_type_id":"4","last_reported":1760886508,"current_range_meters":6800,"station_id":"st_cvj6r9ubvosntc0bgbag","pricing_plan_id":"cebpf4jnsgd1na2vs0mg"},{"bike_id":"9ae7ca6c-cecb-4d78-b2ee-8eb35bf11f99","system_id":"levelo_inurba_marseille","lat":43.27962,"lon":5.38744,"is_reserved":false,"is_disabled":false,"rental_uris":{"android":"levelo://app?vid=9ae7ca6c-cecb-4d78-b2ee-8eb35bf11f99","ios":"levelo://app?vid=9ae7ca6c-cecb-4d78-b2ee-8eb35bf11f99"},"vehicle_type_id":"4","last_reported":1760886508,"current_range_meters":6800,"station_id":"ce4bhg12rcd13ifvqf80","pricing_plan_id":"cebpf4jnsgd1na2vs0mg"},{"bike_id":"e88307bb-5251-41ea-9c57-9680ee0b3a53","system_id":"levelo_inurba_marseille","lat":43.27305,"lon":5.39086,"is_reserved":false,"is_disabled":false,"rental_uris":{"android":"levelo://app?vid=e88307bb-5251-41ea-9c57-9680ee0b3a53","ios":"levelo://app?vid=e88307bb-5251-41ea-9c57-9680ee0b3a53"},"vehicle_type_id":"4","last_reported":1760886508,"current_range_meters":6800,"station_id":"ce4bhgp2rcd13ifvqfe0","pricing_plan_id":"cebpf4jnsgd1na2vs0mg"},{"bike_id":"425b3f60-7d3b-4f62-8ac3-f2f01565510b","system_id":"levelo_inurba_marseille","lat":43.22566,"lon":5.4162,"is_reserved":false,"is_disabled":false,"rental_uris":{"android":"levelo://app?vid=425b3f60-7d3b-4f62-8ac3-f2f01565510b","ios":"levelo://app?vid=425b3f60-7d3b-4f62-8ac3-f2f01565510b"},"vehicle_type_id":"4","last_reported":1760886508,"current_range_meters":7200,"station_id":"st_d2o4gvlbi1j2169b742g","pricing_plan_id":"cebpf4jnsgd1na2vs0mg"},{"bike_id":"576f212d-565d-4bc8-9b86-1c80386c4831","system_id":"levelo_inurba_marseille","lat":43.21732,"lon":5.34617,"is_reserved":false,"is_disabled":false,"rental_uris":{"android":"levelo://app?vid=576f212d-565d-4bc8-9b86-1c80386c4831","ios":"levelo://app?vid=576f212d-565d-4bc8-9b86-1c80386c4831"},"vehicle_type_id":"4","last_reported":1760886508,"current_range_meters":7200,"station_id":"st_cvj6r9ubvosntc0bgbag","pricing_plan_id":"cebpf4jnsgd1na2vs0mg"},{"bike_id":"0b170382-a38a-48fc-b060-b901de311f1a","system_id":"levelo_inurba_marseille","lat":43.33047,"lon":5.39024,"is_reserved":false,"is_disabled":true,"rental_uris":{"android":"levelo://app?vid=0b170382-a38a-48fc-b060-b901de311f1a","ios":"levelo://app?vid=0b170382-a38a-48fc-b060-b901de311f1a"},"vehicle_type_id":"4","last_reported":1760886508,"current_range_meters":7200,"station_id":"ce4bhr92rcd13ifvqhrg","pricing_plan_id":"cebpf4jnsgd1na2vs0mg"},{"bike_id":"676fd588-494b-4028-8203-f37ef89d1fbb","system_id":"levelo_inurba_marseille","lat":43.22562,"lon":5.41636,"is_reserved":false,"is_disabled":false,"rental_uris":{"android":"levelo://app?vid=676fd588-494b-4028-8203-f37ef89d1fbb","ios":"levelo://app?vid=676fd588-494b-4028-8203-f37ef89d1fbb"},"vehicle_type_id":"4","last_reported":1760886508,"current_range_meters":7200,"station_id":"st_d2o4gvlbi1j2169b742g","pricing_plan_id":"cebpf4jnsgd1na2vs0mg"},{"bike_id":"604ff636-2e9a-4999-822a-99c258ddc649","system_id":"levelo_inurba_marseille","lat":43.284002,"lon":5.375052,"is_reserved":false,"is_disabled":false,"rental_uris":{"android":"levelo://app?vid=604ff636-2e9a-4999-822a-99c258ddc649","ios":"levelo://app?vid=604ff636-2e9a-4999-822a-99c258ddc649"},"vehicle_type_id":"4","last_reported":1760886508,"current_range_meters":7200,"station_id":"ce4bha12rcd13ifvqee0","pricing_plan_id":"cebpf4jnsgd1na2vs0mg"},{"bike_id":"d1dca590-d9b7-4981-9cf7-a5f0332389c9","system_id":"levelo_inurba_marseille","lat":43.2416,"lon":5.36397,"is_reserved":false,"is_disabled":false,"rental_uris":{"android":"levelo://app?vid=d1dca590-d9b7-4981-9cf7-a5f0332389c9","ios":"levelo://app?vid=d1dca590-d9b7-4981-9cf7-a5f0332389c9"},"vehicle_type_id":"4","last_reported":1760886508,"current_range_meters":7200,"station_id":"cpo36qri1sfpv3e86is0","pricing_plan_id":"cebpf4jnsgd1na2vs0mg"},{"bike_id":"29deeaa9-e77a-408d-b13e-b6abc21d5df6","system_id":"levelo_inurba_marseille","lat":43.33155,"lon":5.36243,"is_reserved":false,"is_disabled":false,"rental_uris":{"android":"levelo://app?vid=29deeaa9-e77a-408d-b13e-b6abc21d5df6","ios":"levelo://app?vid=29deeaa9-e77a-408d-b13e-b6abc21d5df6"},"vehicle_type_id":"4","last_reported":1760886508,"current_range_meters":7200,"station_id":"","pricing_plan_id":"cebpf4jnsgd1na2vs0mg"},{"bike_id":"8ed29087-a39e-4151-84b7-6fb25800787f","system_id":"levelo_inurba_marseille","lat":43.30296,"lon":5.36916,"is_reserved":false,"is_disabled":false,"rental_uris":{"android":"levelo://app?vid=8ed29087-a39e-4151-84b7-6fb25800787f","ios":"levelo://app?vid=8ed29087-a39e-4151-84b7-6fb25800787f"},"vehicle_type_id":"4","last_reported":1760886508,"current_range_meters":7200,"station_id":"ce4bgqh2rcd13ifvqc5g","pricing_plan_id":"cebpf4jnsgd1na2vs0mg"},{"bike_id":"7294338b-7dce-479b-864e-4720fa193e38","system_id":"levelo_inurba_marseille","lat":43.28354,"lon":5.35537,"is_reserved":false,"is_disabled":false,"rental_uris":{"android":"levelo://app?vid=7294338b-7dce-479b-864e-4720fa193e38","ios":"levelo://app?vid=7294338b-7dce-479b-864e-4720fa193e38"},"vehicle_type_id":"4","last_reported":1760886508,"current_range_meters":8000,"station_id":"","pricing_plan_id":"cebpf4jnsgd1na2vs0mg"},{"bike_id":"383132c7-6568-4b3f-85e0-394f17b8ed8c","system_id":"levelo_inurba_marseille","lat":43.246426,"lon":5.388899,"is_reserved":false,"is_disabled":true,"rental_uris":{"android":"levelo://app?vid=383132c7-6568-4b3f-85e0-394f17b8ed8c","ios":"levelo://app?vid=383132c7-6568-4b3f-85e0-394f17b8ed8c"},"vehicle_type_id":"4","last_reported":1760886508,"current_range_meters":8000,"station_id":"ce4bhg12rcd13ifvqf60","pricing_plan_id":"cebpf4jnsgd1na2vs0mg"},{"bike_id":"c6227cff-120f-49c6-93a2-5454dd916cde","system_id":"levelo_inurba_marseille","lat":43.26552,"lon":5.37271,"is_reserved":false,"is_disabled":true,"rental_uris":{"android":"levelo://app?vid=c6227cff-120f-49c6-93a2-5454dd916cde","ios":"levelo://app?vid=c6227cff-120f-49c6-93a2-5454dd916cde"},"vehicle_type_id":"4","last_reported":1760886508,"current_range_meters":8000,"station_id":"ce4bhg12rcd13ifvqf70","pricing_plan_id":"cebpf4jnsgd1na2vs0mg"},{"bike_id":"9b35f520-b47c-4550-9804-23f27fab5ce9","system_id":"levelo_inurba_marseille","lat":43.254406,"lon":5.381384,"is_reserved":false,"is_disabled":true,"rental_uris":{"android":"levelo://app?vid=9b35f520-b47c-4550-9804-23f27fab5ce9","ios":"levelo://app?vid=9b35f520-b47c-4550-9804-23f27fab5ce9"},"vehicle_type_id":"4","last_reported":1760886508,"current_range_meters":8000,"station_id":"","pricing_plan_id":"cebpf4jnsgd1na2vs0mg"},{"bike_id":"5ec36f29-a595-43fb-81bc-e1f6ecf04525","system_id":"levelo_inurba_marseille","lat":43.21187,"lon":5.35088,"is_reserved":false,"is_disabled":true,"rental_uris":{"android":"levelo://app?vid=5ec36f29-a595-43fb-81bc-e1f6ecf04525","ios":"levelo://app?vid=5ec36f29-a595-43fb-81bc-e1f6ecf04525"},"vehicle_type_id":"4","last_reported":1760886508,"current_range_meters":8000,"station_id":"st_cvj6sg6p6f1abm77japg","pricing_plan_id":"cebpf4jnsgd1na2vs0mg"},{"bike_id":"8e6781bb-2e20-454e-8191-54182f17bdfc","system_id":"levelo_inurba_marseille","lat":43.21742,"lon":5.3462,"is_reserved":false,"is_disabled":true,"rental_uris":{"android":"levelo://app?vid=8e6781bb-2e20-454e-8191-54182f17bdfc","ios":"levelo://app?vid=8e6781bb-2e20-454e-8191-54182f17bdfc"},"vehicle_type_id":"4","last_reported":1760886508,"current_range_meters":8000,"station_id":"st_cvj6r9ubvosntc0bgbag","pricing_plan_id":"cebpf4jnsgd1na2vs0mg"},{"bike_id":"76d7ac04-4df6-428c-9fcc-43cc45e312fd","system_id":"levelo_inurba_marseille","lat":43.26561,"lon":5.39027,"is_reserved":false,"is_disabled":false,"rental_uris":{"android":"levelo://app?vid=76d7ac04-4df6-428c-9fcc-43cc45e312fd","ios":"levelo://app?vid=76d7ac04-4df6-428c-9fcc-43cc45e312fd"},"vehicle_type_id":"4","last_reported":1760886508,"current_range_meters":8000,"station_id":"ce4bhe12rcd13ifvqf30","pricing_plan_id":"cebpf4jnsgd1na2vs0mg"},{"bike_id":"dbf6360b-0814-49e8-a63c-e991882c13d6","system_id":"levelo_inurba_marseille","lat":43.28939,"lon":5.36374,"is_reserved":false,"is_disabled":false,"rental_uris":{"android":"levelo://app?vid=dbf6360b-0814-49e8-a63c-e991882c13d6","ios":"levelo://app?vid=dbf6360b-0814-49e8-a63c-e991882c13d6"},"vehicle_type_id":"4","last_reported":1760886508,"current_range_meters":8000,"station_id":"ce4bhc92rcd13ifvqetg","pricing_plan_id":"cebpf4jnsgd1na2vs0mg"},{"bike_id":"0a414463-fe1a-4833-8a11-178a3c2c879a","system_id":"levelo_inurba_marseille","lat":43.29852,"lon":5.37897,"is_reserved":false,"is_disabled":false,"rental_uris":{"android":"levelo://app?vid=0a414463-fe1a-4833-8a11-178a3c2c879a","ios":"levelo://app?vid=0a414463-fe1a-4833-8a11-178a3c2c879a"},"vehicle_type_id":"4","last_reported":1760886508,"current_range_meters":8400,"station_id":"","pricing_plan_id":"cebpf4jnsgd1na2vs0mg"},{"bike_id":"e7e8b93c-02d4-466b-82b5-3f4c4f15c2ae","system_id":"levelo_inurba_marseille","lat":43.28818,"lon":5.43849,"is_reserved":false,"is_disabled":false,"rental_uris":{"android":"levelo://app?vid=e7e8b93c-02d4-466b-82b5-3f4c4f15c2ae","ios":"levelo://app?vid=e7e8b93c-02d4-466b-82b5-3f4c4f15c2ae"},"vehicle_type_id":"4","last_reported":1760886508,"current_range_meters":8400,"station_id":"","pricing_plan_id":"cebpf4jnsgd1na2vs0mg"},{"bike_id":"245a030c-0c43-41f8-a4cc-088d55252b06","system_id":"levelo_inurba_marseille","lat":43.24459,"lon":5.36921,"is_reserved":false,"is_disabled":false,"rental_uris":{"android":"levelo://app?vid=245a030c-0c43-41f8-a4cc-088d55252b06","ios":"levelo://app?vid=245a030c-0c43-41f8-a4cc-088d55252b06"},"vehicle_type_id":"4","last_reported":1760886508,"current_range_meters":8400,"station_id":"","pricing_plan_id":"cebpf4jnsgd1na2vs0mg"},{"bike_id":"d896515e-79a9-4723-b496-b4c2e544b272","system_id":"levelo_inurba_marseille","lat":43.30635,"lon":5.40094,"is_reserved":false,"is_disabled":false,"rental_uris":{"android":"levelo://app?vid=d896515e-79a9-4723-b496-b4c2e544b272","ios":"levelo://app?vid=d896515e-79a9-4723-b496-b4c2e544b272"},"vehicle_type_id":"4","last_reported":1760886508,"current_range_meters":8400,"station_id":"ce4bh112rcd13ifvqda0","pricing_plan_id":"cebpf4jnsgd1na2vs0mg"},{"bike_id":"89ce4af6-1576-47d3-92e2-7c024ac0dc80","system_id":"levelo_inurba_marseille","lat":43.296468,"lon":5.381328,"is_reserved":false,"is_disabled":false,"rental_uris":{"android":"levelo://app?vid=89ce4af6-1576-47d3-92e2-7c024ac0dc80","ios":"levelo://app?vid=89ce4af6-1576-47d3-92e2-7c024ac0dc80"},"vehicle_type_id":"4","last_reported":1760886508,"current_range_meters":8400,"station_id":"","pricing_plan_id":"cebpf4jnsgd1na2vs0mg"},{"bike_id":"f56d133f-9215-416f-89d9-4587a8f58d4e","system_id":"levelo_inurba_marseille","lat":43.29543,"lon":5.37508,"is_reserved":false,"is_disabled":false,"rental_uris":{"android":"levelo://app?vid=f56d133f-9215-416f-89d9-4587a8f58d4e","ios":"levelo://app?vid=f56d133f-9215-416f-89d9-4587a8f58d4e"},"vehicle_type_id":"4","last_reported":1760886508,"current_range_meters":8800,"station_id":"ce4bgkp2rcd13ifvqbmg","pricing_plan_id":"cebpf4jnsgd1na2vs0mg"},{"bike_id":"ca67065b-6215-41e0-9764-ff600e43eca5","system_id":"levelo_inurba_marseille","lat":43.30512,"lon":5.3681,"is_reserved":false,"is_disabled":false,"rental_uris":{"android":"levelo://app?vid=ca67065b-6215-41e0-9764-ff600e43eca5","ios":"levelo://app?vid=ca67065b-6215-41e0-9764-ff600e43eca5"},"vehicle_type_id":"4","last_reported":1760886508,"current_range_meters":8800,"station_id":"","pricing_plan_id":"cebpf4jnsgd1na2vs0mg"},{"bike_id":"8d2a1c67-64de-4f20-9080-be5dce21c413","system_id":"levelo_inurba_marseille","lat":43.29546,"lon":5.42279,"is_reserved":false,"is_disabled":false,"rental_uris":{"android":"levelo://app?vid=8d2a1c67-64de-4f20-9080-be5dce21c413","ios":"levelo://app?vid=8d2a1c67-64de-4f20-9080-be5dce21c413"},"vehicle_type_id":"4","last_reported":1760886508,"current_range_meters":8800,"station_id":"ce4bhph2rcd13ifvqhdg","pricing_plan_id":"cebpf4jnsgd1na2vs0mg"},{"bike_id":"e8aff640-c8b1-4ace-93e6-f17277f4b670","system_id":"levelo_inurba_marseille","lat":43.303235,"lon":5.403302,"is_reserved":false,"is_disabled":false,"rental_uris":{"android":"levelo://app?vid=e8aff640-c8b1-4ace-93e6-f17277f4b670","ios":"levelo://app?vid=e8aff640-c8b1-4ace-93e6-f17277f4b670"},"vehicle_type_id":"4","last_reported":1760886508,"current_range_meters":8800,"station_id":"ce4bh012rcd13ifvqd10","pricing_plan_id":"cebpf4jnsgd1na2vs0mg"},{"bike_id":"31a3c348-ba2d-4479-b903-06d453b2daec","system_id":"levelo_inurba_marseille","lat":43.283569,"lon":5.381057,"is_reserved":false,"is_disabled":false,"rental_uris":{"android":"levelo://app?vid=31a3c348-ba2d-4479-b903-06d453b2daec","ios":"levelo://app?vid=31a3c348-ba2d-4479-b903-06d453b2daec"},"vehicle_type_id":"4","last_reported":1760886508,"current_range_meters":8800,"station_id":"ce4bh412rcd13ifvqdr0","pricing_plan_id":"cebpf4jnsgd1na2vs0mg"},{"bike_id":"b1db1391-3474-48f3-85bd-dfc79b190eda","system_id":"levelo_inurba_marseille","lat":43.292723,"lon":5.361311,"is_reserved":false,"is_disabled":false,"rental_uris":{"android":"levelo://app?vid=b1db1391-3474-48f3-85bd-dfc79b190eda","ios":"levelo://app?vid=b1db1391-3474-48f3-85bd-dfc79b190eda"},"vehicle_type_id":"4","last_reported":1760886508,"current_range_meters":8800,"station_id":"","pricing_plan_id":"cebpf4jnsgd1na2vs0mg"},{"bike_id":"847e9856-ae8a-4c49-a85a-fec204e571f6","system_id":"levelo_inurba_marseille","lat":43.29008,"lon":5.39035,"is_reserved":false,"is_disabled":false,"rental_uris":{"android":"levelo://app?vid=847e9856-ae8a-4c49-a85a-fec204e571f6","ios":"levelo://app?vid=847e9856-ae8a-4c49-a85a-fec204e571f6"},"vehicle_type_id":"4","last_reported":1760886508,"current_range_meters":9200,"station_id":"","pricing_plan_id":"cebpf4jnsgd1na2vs0mg"},{"bike_id":"83348da8-a4f5-46df-865e-64326525590d","system_id":"levelo_inurba_marseille","lat":43.2173,"lon":5.34606,"is_reserved":false,"is_disabled":false,"rental_uris":{"android":"levelo://app?vid=83348da8-a4f5-46df-865e-64326525590d","ios":"levelo://app?vid=83348da8-a4f5-46df-865e-64326525590d"},"vehicle_type_id":"4","last_reported":1760886508,"current_range_meters":9200,"station_id":"st_cvj6r9ubvosntc0bgbag","pricing_plan_id":"cebpf4jnsgd1na2vs0mg"},{"bike_id":"8fc39a68-750e-4904-a3b6-7d372c0a4269","system_id":"levelo_inurba_marseille","lat":43.32459,"lon":5.36572,"is_reserved":false,"is_disabled":false,"rental_uris":{"android":"levelo://app?vid=8fc39a68-750e-4904-a3b6-7d372c0a4269","ios":"levelo://app?vid=8fc39a68-750e-4904-a3b6-7d372c0a4269"},"vehicle_type_id":"4","last_reported":1760886508,"current_range_meters":9200,"station_id":"ce4bhs12rcd13ifvqhvg","pricing_plan_id":"cebpf4jnsgd1na2vs0mg"},{"bike_id":"0f8990f8-f9b4-47a4-b87d-03e1c2cf3231","system_id":"levelo_inurba_marseille","lat":43.29218,"lon":5.36065,"is_reserved":false,"is_disabled":false,"rental_uris":{"android":"levelo://app?vid=0f8990f8-f9b4-47a4-b87d-03e1c2cf3231","ios":"levelo://app?vid=0f8990f8-f9b4-47a4-b87d-03e1c2cf3231"},"vehicle_type_id":"4","last_reported":1760886508,"current_range_meters":9200,"station_id":"ce4bhbh2rcd13ifvqeqg","pricing_plan_id":"cebpf4jnsgd1na2vs0mg"},{"bike_id":"3586afa5-19c6-4385-ae3b-80726606c1bb","system_id":"levelo_inurba_marseille","lat":43.26386,"lon":5.39893,"is_reserved":false,"is_disabled":false,"rental_uris":{"android":"levelo://app?vid=3586afa5-19c6-4385-ae3b-80726606c1bb","ios":"levelo://app?vid=3586afa5-19c6-4385-ae3b-80726606c1bb"},"vehicle_type_id":"4","last_reported":1760886508,"current_range_meters":9200,"station_id":"","pricing_plan_id":"cebpf4jnsgd1na2vs0mg"},{"bike_id":"5b5accea-24a2-4b66-96aa-c4f4264ad971","system_id":"levelo_inurba_marseille","lat":43.28612,"lon":5.35105,"is_reserved":false,"is_disabled":false,"rental_uris":{"android":"levelo://app?vid=5b5accea-24a2-4b66-96aa-c4f4264ad971","ios":"levelo://app?vid=5b5accea-24a2-4b66-96aa-c4f4264ad971"},"vehicle_type_id":"4","last_reported":1760886508,"current_range_meters":9200,"station_id":"","pricing_plan_id":"cebpf4jnsgd1na2vs0mg"},{"bike_id":"e978660f-731d-4a95-8df5-e0a54d8fe8be","system_id":"levelo_inurba_marseille","lat":43.211846,"lon":5.350801,"is_reserved":false,"is_disabled":true,"rental_uris":{"android":"levelo://app?vid=e978660f-731d-4a95-8df5-e0a54d8fe8be","ios":"levelo://app?vid=e978660f-731d-4a95-8df5-e0a54d8fe8be"},"vehicle_type_id":"4","last_reported":1760886508,"current_range_meters":9200,"station_id":"st_cvj6sg6p6f1abm77japg","pricing_plan_id":"cebpf4jnsgd1na2vs0mg"},{"bike_id":"01631119-7160-4843-9224-8e6830b019a0","system_id":"levelo_inurba_marseille","lat":43.25927,"lon":5.4091,"is_reserved":false,"is_disabled":false,"rental_uris":{"android":"levelo://app?vid=01631119-7160-4843-9224-8e6830b019a0","ios":"levelo://app?vid=01631119-7160-4843-9224-8e6830b019a0"},"vehicle_type_id":"4","last_reported":1760886508,"current_range_meters":9200,"station_id":"ce4bhm92rcd13ifvqglg","pricing_plan_id":"cebpf4jnsgd1na2vs0mg"},{"bike_id":"4eb04008-b65c-4286-8cf9-56314c66ed7a","system_id":"levelo_inurba_marseille","lat":43.23189,"lon":5.35555,"is_reserved":false,"is_disabled":false,"rental_uris":{"android":"levelo://app?vid=4eb04008-b65c-4286-8cf9-56314c66ed7a","ios":"levelo://app?vid=4eb04008-b65c-4286-8cf9-56314c66ed7a"},"vehicle_type_id":"4","last_reported":1760886508,"current_range_meters":9200,"station_id":"ce4bhu92rcd13ifvqi70","pricing_plan_id":"cebpf4jnsgd1na2vs0mg"},{"bike_id":"3f13991a-43fd-4b49-b31a-f84d43d4b745","system_id":"levelo_inurba_marseille","lat":43.28977,"lon":5.37171,"is_reserved":false,"is_disabled":false,"rental_uris":{"android":"levelo://app?vid=3f13991a-43fd-4b49-b31a-f84d43d4b745","ios":"levelo://app?vid=3f13991a-43fd-4b49-b31a-f84d43d4b745"},"vehicle_type_id":"4","last_reported":1760886508,"current_range_meters":9600,"station_id":"","pricing_plan_id":"cebpf4jnsgd1na2vs0mg"},{"bike_id":"9dd1d8fe-c2a8-4a70-a175-61f5f9fe7fd2","system_id":"levelo_inurba_marseille","lat":43.31548,"lon":5.38849,"is_reserved":false,"is_disabled":false,"rental_uris":{"android":"levelo://app?vid=9dd1d8fe-c2a8-4a70-a175-61f5f9fe7fd2","ios":"levelo://app?vid=9dd1d8fe-c2a8-4a70-a175-61f5f9fe7fd2"},"vehicle_type_id":"4","last_reported":1760886508,"current_range_meters":9600,"station_id":"","pricing_plan_id":"cebpf4jnsgd1na2vs0mg"},{"bike_id":"03d42850-592e-450e-83bb-7381be9ec96c","system_id":"levelo_inurba_marseille","lat":43.298122,"lon":5.440688,"is_reserved":false,"is_disabled":false,"rental_uris":{"android":"levelo://app?vid=03d42850-592e-450e-83bb-7381be9ec96c","ios":"levelo://app?vid=03d42850-592e-450e-83bb-7381be9ec96c"},"vehicle_type_id":"4","last_reported":1760886508,"current_range_meters":9600,"station_id":"st_d3jp68qikq2c7381ktn0","pricing_plan_id":"cebpf4jnsgd1na2vs0mg"},{"bike_id":"9aca6410-dfe2-4f0b-8309-4bbe61aef318","system_id":"levelo_inurba_marseille","lat":43.33016,"lon":5.39047,"is_reserved":false,"is_disabled":false,"rental_uris":{"android":"levelo://app?vid=9aca6410-dfe2-4f0b-8309-4bbe61aef318","ios":"levelo://app?vid=9aca6410-dfe2-4f0b-8309-4bbe61aef318"},"vehicle_type_id":"4","last_reported":1760886508,"current_range_meters":9600,"station_id":"ce4bhr92rcd13ifvqhrg","pricing_plan_id":"cebpf4jnsgd1na2vs0mg"},{"bike_id":"7057ed9b-5e4a-4a04-877f-1ca1fea2ab3a","system_id":"levelo_inurba_marseille","lat":43.27305,"lon":5.39086,"is_reserved":false,"is_disabled":false,"rental_uris":{"android":"levelo://app?vid=7057ed9b-5e4a-4a04-877f-1ca1fea2ab3a","ios":"levelo://app?vid=7057ed9b-5e4a-4a04-877f-1ca1fea2ab3a"},"vehicle_type_id":"4","last_reported":1760886508,"current_range_meters":9600,"station_id":"ce4bhgp2rcd13ifvqfe0","pricing_plan_id":"cebpf4jnsgd1na2vs0mg"},{"bike_id":"341025ca-ef2d-442d-80ac-78ca83dc4a7c","system_id":"levelo_inurba_marseille","lat":43.29801,"lon":5.36198,"is_reserved":false,"is_disabled":false,"rental_uris":{"android":"levelo://app?vid=341025ca-ef2d-442d-80ac-78ca83dc4a7c","ios":"levelo://app?vid=341025ca-ef2d-442d-80ac-78ca83dc4a7c"},"vehicle_type_id":"4","last_reported":1760886508,"current_range_meters":9600,"station_id":"","pricing_plan_id":"cebpf4jnsgd1na2vs0mg"},{"bike_id":"e8d9b9ba-c79b-461a-980e-a9ef61a2c37c","system_id":"levelo_inurba_marseille","lat":43.323604,"lon":5.367507,"is_reserved":false,"is_disabled":false,"rental_uris":{"android":"levelo://app?vid=e8d9b9ba-c79b-461a-980e-a9ef61a2c37c","ios":"levelo://app?vid=e8d9b9ba-c79b-461a-980e-a9ef61a2c37c"},"vehicle_type_id":"4","last_reported":1760886508,"current_range_meters":9600,"station_id":"ce4bhsh2rcd13ifvqi2g","pricing_plan_id":"cebpf4jnsgd1na2vs0mg"},{"bike_id":"e96dd972-3e26-4dae-87a0-5fe3b5d60430","system_id":"levelo_inurba_marseille","lat":43.286164,"lon":5.351085,"is_reserved":false,"is_disabled":false,"rental_uris":{"android":"levelo://app?vid=e96dd972-3e26-4dae-87a0-5fe3b5d60430","ios":"levelo://app?vid=e96dd972-3e26-4dae-87a0-5fe3b5d60430"},"vehicle_type_id":"4","last_reported":1760886508,"current_range_meters":9600,"station_id":"ce4bhch2rcd13ifvqeug","pricing_plan_id":"cebpf4jnsgd1na2vs0mg"},{"bike_id":"0cb93f00-340b-43f3-a15d-bd51ead9bc6f","system_id":"levelo_inurba_marseille","lat":43.28551,"lon":5.37783,"is_reserved":false,"is_disabled":false,"rental_uris":{"android":"levelo://app?vid=0cb93f00-340b-43f3-a15d-bd51ead9bc6f","ios":"levelo://app?vid=0cb93f00-340b-43f3-a15d-bd51ead9bc6f"},"vehicle_type_id":"4","last_reported":1760886508,"current_range_meters":10000,"station_id":"","pricing_plan_id":"cebpf4jnsgd1na2vs0mg"},{"bike_id":"17c29a13-d72e-4300-a442-71245a8fc508","system_id":"levelo_inurba_marseille","lat":43.27059,"lon":5.40254,"is_reserved":false,"is_disabled":false,"rental_uris":{"android":"levelo://app?vid=17c29a13-d72e-4300-a442-71245a8fc508","ios":"levelo://app?vid=17c29a13-d72e-4300-a442-71245a8fc508"},"vehicle_type_id":"4","last_reported":1760886508,"current_range_meters":10000,"station_id":"ce4bhk92rcd13ifvqgc0","pricing_plan_id":"cebpf4jnsgd1na2vs0mg"},{"bike_id":"0e1d21f5-a961-49a7-93bc-178425654b66","system_id":"levelo_inurba_marseille","lat":43.29292,"lon":5.4013,"is_reserved":false,"is_disabled":false,"rental_uris":{"android":"levelo://app?vid=0e1d21f5-a961-49a7-93bc-178425654b66","ios":"levelo://app?vid=0e1d21f5-a961-49a7-93bc-178425654b66"},"vehicle_type_id":"4","last_reported":1760886508,"current_range_meters":10800,"station_id":"ce4bh312rcd13ifvqdk0","pricing_plan_id":"cebpf4jnsgd1na2vs0mg"},{"bike_id":"888728af-1647-45b9-a992-d45531c41d2c","system_id":"levelo_inurba_marseille","lat":43.22924,"lon":5.35372,"is_reserved":false,"is_disabled":true,"rental_uris":{"android":"levelo://app?vid=888728af-1647-45b9-a992-d45531c41d2c","ios":"levelo://app?vid=888728af-1647-45b9-a992-d45531c41d2c"},"vehicle_type_id":"4","last_reported":1760886508,"current_range_meters":10800,"station_id":"cpo3532slgdg3j2ikp40","pricing_plan_id":"cebpf4jnsgd1na2vs0mg"},{"bike_id":"6426e4fa-7f79-410d-acfa-0a51b3b2658a","system_id":"levelo_inurba_marseille","lat":43.312409,"lon":5.403981,"is_reserved":false,"is_disabled":false,"rental_uris":{"android":"levelo://app?vid=6426e4fa-7f79-410d-acfa-0a51b3b2658a","ios":"levelo://app?vid=6426e4fa-7f79-410d-acfa-0a51b3b2658a"},"vehicle_type_id":"4","last_reported":1760886508,"current_range_meters":10800,"station_id":"","pricing_plan_id":"cebpf4jnsgd1na2vs0mg"},{"bike_id":"365b1110-8604-4b2d-ad9b-3263b8a258f2","system_id":"levelo_inurba_marseille","lat":43.28655,"lon":5.3634,"is_reserved":false,"is_disabled":false,"rental_uris":{"android":"levelo://app?vid=365b1110-8604-4b2d-ad9b-3263b8a258f2","ios":"levelo://app?vid=365b1110-8604-4b2d-ad9b-3263b8a258f2"},"vehicle_type_id":"4","last_reported":1760886508,"current_range_meters":10800,"station_id":"ce4bhah2rcd13ifvqej0","pricing_plan_id":"cebpf4jnsgd1na2vs0mg"},{"bike_id":"334d2f87-2ccb-42c3-98c5-0730f58d566b","system_id":"levelo_inurba_marseille","lat":43.25717,"lon":5.41119,"is_reserved":false,"is_disabled":false,"rental_uris":{"android":"levelo://app?vid=334d2f87-2ccb-42c3-98c5-0730f58d566b","ios":"levelo://app?vid=334d2f87-2ccb-42c3-98c5-0730f58d566b"},"vehicle_type_id":"4","last_reported":1760886508,"current_range_meters":10800,"station_id":"ce4bhkp2rcd13ifvqgd0","pricing_plan_id":"cebpf4jnsgd1na2vs0mg"},{"bike_id":"13bdb8e7-b905-4c0d-bf71-e9e0227e8fc6","system_id":"levelo_inurba_marseille","lat":43.29223,"lon":5.3605,"is_reserved":false,"is_disabled":true,"rental_uris":{"android":"levelo://app?vid=13bdb8e7-b905-4c0d-bf71-e9e0227e8fc6","ios":"levelo://app?vid=13bdb8e7-b905-4c0d-bf71-e9e0227e8fc6"},"vehicle_type_id":"4","last_reported":1760886508,"current_range_meters":10800,"station_id":"ce4bhbh2rcd13ifvqeqg","pricing_plan_id":"cebpf4jnsgd1na2vs0mg"},{"bike_id":"d712d0ff-3096-41ad-87d0-b640167ff060","system_id":"levelo_inurba_marseille","lat":43.31541,"lon":5.38512,"is_reserved":false,"is_disabled":false,"rental_uris":{"android":"levelo://app?vid=d712d0ff-3096-41ad-87d0-b640167ff060","ios":"levelo://app?vid=d712d0ff-3096-41ad-87d0-b640167ff060"},"vehicle_type_id":"4","last_reported":1760886508,"current_range_meters":10800,"station_id":"","pricing_plan_id":"cebpf4jnsgd1na2vs0mg"},{"bike_id":"ac6d2c4d-74a8-443d-a9f9-0d9807feacda","system_id":"levelo_inurba_marseille","lat":43.33772,"lon":5.37469,"is_reserved":false,"is_disabled":false,"rental_uris":{"android":"levelo://app?vid=ac6d2c4d-74a8-443d-a9f9-0d9807feacda","ios":"levelo://app?vid=ac6d2c4d-74a8-443d-a9f9-0d9807feacda"},"vehicle_type_id":"4","last_reported":1760886508,"current_range_meters":10800,"station_id":"","pricing_plan_id":"cebpf4jnsgd1na2vs0mg"},{"bike_id":"d4b422e9-6a2f-4f3e-9dd2-8034ca4bd00a","system_id":"levelo_inurba_marseille","lat":43.32283,"lon":5.3827,"is_reserved":false,"is_disabled":false,"rental_uris":{"android":"levelo://app?vid=d4b422e9-6a2f-4f3e-9dd2-8034ca4bd00a","ios":"levelo://app?vid=d4b422e9-6a2f-4f3e-9dd2-8034ca4bd00a"},"vehicle_type_id":"4","last_reported":1760886508,"current_range_meters":10800,"station_id":"ce4bhr12rcd13ifvqhqg","pricing_plan_id":"cebpf4jnsgd1na2vs0mg"},{"bike_id":"74a0e418-9a8a-4d6c-82ac-4bcdbfc66662","system_id":"levelo_inurba_marseille","lat":43.2953,"lon":5.38551,"is_reserved":false,"is_disabled":true,"rental_uris":{"android":"levelo://app?vid=74a0e418-9a8a-4d6c-82ac-4bcdbfc66662","ios":"levelo://app?vid=74a0e418-9a8a-4d6c-82ac-4bcdbfc66662"},"vehicle_type_id":"4","last_reported":1760886508,"current_range_meters":11200,"station_id":"ce4bgih2rcd13ifvqba0","pricing_plan_id":"cebpf4jnsgd1na2vs0mg"},{"bike_id":"cf4c14bf-7635-4f96-a4b6-ee6481db3804","system_id":"levelo_inurba_marseille","lat":43.32293,"lon":5.38287,"is_reserved":false,"is_disabled":false,"rental_uris":{"android":"levelo://app?vid=cf4c14bf-7635-4f96-a4b6-ee6481db3804","ios":"levelo://app?vid=cf4c14bf-7635-4f96-a4b6-ee6481db3804"},"vehicle_type_id":"4","last_reported":1760886508,"current_range_meters":11200,"station_id":"ce4bhr12rcd13ifvqhqg","pricing_plan_id":"cebpf4jnsgd1na2vs0mg"},{"bike_id":"78f6d9e1-1583-4fe9-8f68-9dbcf558bfff","system_id":"levelo_inurba_marseille","lat":43.30327,"lon":5.40438,"is_reserved":false,"is_disabled":false,"rental_uris":{"android":"levelo://app?vid=78f6d9e1-1583-4fe9-8f68-9dbcf558bfff","ios":"levelo://app?vid=78f6d9e1-1583-4fe9-8f68-9dbcf558bfff"},"vehicle_type_id":"4","last_reported":1760886508,"current_range_meters":11200,"station_id":"ce4bh012rcd13ifvqd10","pricing_plan_id":"cebpf4jnsgd1na2vs0mg"},{"bike_id":"f5eda7fc-872e-4f8e-9d95-c0a57bf82381","system_id":"levelo_inurba_marseille","lat":43.292287,"lon":5.360602,"is_reserved":false,"is_disabled":false,"rental_uris":{"android":"levelo://app?vid=f5eda7fc-872e-4f8e-9d95-c0a57bf82381","ios":"levelo://app?vid=f5eda7fc-872e-4f8e-9d95-c0a57bf82381"},"vehicle_type_id":"4","last_reported":1760886508,"current_range_meters":11200,"station_id":"","pricing_plan_id":"cebpf4jnsgd1na2vs0mg"},{"bike_id":"706e7c2d-aeb4-49d1-af08-e4e28684d8b7","system_id":"levelo_inurba_marseille","lat":43.27689,"lon":5.388762,"is_reserved":false,"is_disabled":false,"rental_uris":{"android":"levelo://app?vid=706e7c2d-aeb4-49d1-af08-e4e28684d8b7","ios":"levelo://app?vid=706e7c2d-aeb4-49d1-af08-e4e28684d8b7"},"vehicle_type_id":"4","last_reported":1760886508,"current_range_meters":11200,"station_id":"ce4bhi12rcd13ifvqfo0","pricing_plan_id":"cebpf4jnsgd1na2vs0mg"},{"bike_id":"82c468a7-612e-4058-a058-48ce4c218b56","system_id":"levelo_inurba_marseille","lat":43.27069,"lon":5.42299,"is_reserved":false,"is_disabled":false,"rental_uris":{"android":"levelo://app?vid=82c468a7-612e-4058-a058-48ce4c218b56","ios":"levelo://app?vid=82c468a7-612e-4058-a058-48ce4c218b56"},"vehicle_type_id":"4","last_reported":1760886508,"current_range_meters":11200,"station_id":"ce4bhk92rcd13ifvqgb0","pricing_plan_id":"cebpf4jnsgd1na2vs0mg"},{"bike_id":"b4d730f9-3265-45ba-8d83-198d6ac366cd","system_id":"levelo_inurba_marseille","lat":43.29819,"lon":5.44062,"is_reserved":false,"is_disabled":false,"rental_uris":{"android":"levelo://app?vid=b4d730f9-3265-45ba-8d83-198d6ac366cd","ios":"levelo://app?vid=b4d730f9-3265-45ba-8d83-198d6ac366cd"},"vehicle_type_id":"4","last_reported":1760886508,"current_range_meters":11600,"station_id":"st_d3jp68qikq2c7381ktn0","pricing_plan_id":"cebpf4jnsgd1na2vs0mg"},{"bike_id":"904e696d-107d-446b-81ae-25f0e684c1e6","system_id":"levelo_inurba_marseille","lat":43.29002,"lon":5.35611,"is_reserved":false,"is_disabled":false,"rental_uris":{"android":"levelo://app?vid=904e696d-107d-446b-81ae-25f0e684c1e6","ios":"levelo://app?vid=904e696d-107d-446b-81ae-25f0e684c1e6"},"vehicle_type_id":"4","last_reported":1760886508,"current_range_meters":11600,"station_id":"ce4bhb92rcd13ifvqen0","pricing_plan_id":"cebpf4jnsgd1na2vs0mg"},{"bike_id":"5babfbf3-4bbf-4880-93cf-e83e968d1d24","system_id":"levelo_inurba_marseille","lat":43.26681,"lon":5.38259,"is_reserved":false,"is_disabled":false,"rental_uris":{"android":"levelo://app?vid=5babfbf3-4bbf-4880-93cf-e83e968d1d24","ios":"levelo://app?vid=5babfbf3-4bbf-4880-93cf-e83e968d1d24"},"vehicle_type_id":"4","last_reported":1760886508,"current_range_meters":11600,"station_id":"ce4bhg92rcd13ifvqf90","pricing_plan_id":"cebpf4jnsgd1na2vs0mg"},{"bike_id":"367c1051-7e4c-4903-8a1f-171c98150810","system_id":"levelo_inurba_marseille","lat":43.24171,"lon":5.36406,"is_reserved":false,"is_disabled":false,"rental_uris":{"android":"levelo://app?vid=367c1051-7e4c-4903-8a1f-171c98150810","ios":"levelo://app?vid=367c1051-7e4c-4903-8a1f-171c98150810"},"vehicle_type_id":"4","last_reported":1760886508,"current_range_meters":11600,"station_id":"cpo36qri1sfpv3e86is0","pricing_plan_id":"cebpf4jnsgd1na2vs0mg"},{"bike_id":"b9f4c452-f1a0-4b31-854c-2325a5b73556","system_id":"levelo_inurba_marseille","lat":43.21464,"lon":5.34316,"is_reserved":false,"is_disabled":false,"rental_uris":{"android":"levelo://app?vid=b9f4c452-f1a0-4b31-854c-2325a5b73556","ios":"levelo://app?vid=b9f4c452-f1a0-4b31-854c-2325a5b73556"},"vehicle_type_id":"4","last_reported":1760886508,"current_range_meters":11600,"station_id":"","pricing_plan_id":"cebpf4jnsgd1na2vs0mg"},{"bike_id":"5bd9155f-156c-49c8-8b0f-833732c1c592","system_id":"levelo_inurba_marseille","lat":43.285365,"lon":5.441027,"is_reserved":false,"is_disabled":false,"rental_uris":{"android":"levelo://app?vid=5bd9155f-156c-49c8-8b0f-833732c1c592","ios":"levelo://app?vid=5bd9155f-156c-49c8-8b0f-833732c1c592"},"vehicle_type_id":"4","last_reported":1760886508,"current_range_meters":12000,"station_id":"st_d3j3df2ikq2c7380ej80","pricing_plan_id":"cebpf4jnsgd1na2vs0mg"},{"bike_id":"81ca0cf9-7047-428a-9072-3e13596df636","system_id":"levelo_inurba_marseille","lat":43.29007,"lon":5.38571,"is_reserved":false,"is_disabled":true,"rental_uris":{"android":"levelo://app?vid=81ca0cf9-7047-428a-9072-3e13596df636","ios":"levelo://app?vid=81ca0cf9-7047-428a-9072-3e13596df636"},"vehicle_type_id":"4","last_reported":1760886508,"current_range_meters":12000,"station_id":"","pricing_plan_id":"cebpf4jnsgd1na2vs0mg"},{"bike_id":"8f6c99a9-2111-4ea5-ba4d-4bb0a3b06aa1","system_id":"levelo_inurba_marseille","lat":43.29806,"lon":5.44079,"is_reserved":false,"is_disabled":false,"rental_uris":{"android":"levelo://app?vid=8f6c99a9-2111-4ea5-ba4d-4bb0a3b06aa1","ios":"levelo://app?vid=8f6c99a9-2111-4ea5-ba4d-4bb0a3b06aa1"},"vehicle_type_id":"4","last_reported":1760886508,"current_range_meters":12000,"station_id":"st_d3jp68qikq2c7381ktn0","pricing_plan_id":"cebpf4jnsgd1na2vs0mg"},{"bike_id":"b6392ced-eaf4-4212-85d9-6b5d408a569b","system_id":"levelo_inurba_marseille","lat":43.27903,"lon":5.380072,"is_reserved":false,"is_disabled":false,"rental_uris":{"android":"levelo://app?vid=b6392ced-eaf4-4212-85d9-6b5d408a569b","ios":"levelo://app?vid=b6392ced-eaf4-4212-85d9-6b5d408a569b"},"vehicle_type_id":"4","last_reported":1760886508,"current_range_meters":12000,"station_id":"ce4bhf92rcd13ifvqf50","pricing_plan_id":"cebpf4jnsgd1na2vs0mg"},{"bike_id":"28be4cc9-89da-4216-a8af-2f68cb933d6b","system_id":"levelo_inurba_marseille","lat":43.29573,"lon":5.37496,"is_reserved":false,"is_disabled":false,"rental_uris":{"android":"levelo://app?vid=28be4cc9-89da-4216-a8af-2f68cb933d6b","ios":"levelo://app?vid=28be4cc9-89da-4216-a8af-2f68cb933d6b"},"vehicle_type_id":"4","last_reported":1760886508,"current_range_meters":12000,"station_id":"ce4bgh92rcd13ifvqb50","pricing_plan_id":"cebpf4jnsgd1na2vs0mg"},{"bike_id":"bfe94ad5-7191-4435-93d4-62255fc0cf8c","system_id":"levelo_inurba_marseille","lat":43.3026,"lon":5.40069,"is_reserved":false,"is_disabled":false,"rental_uris":{"android":"levelo://app?vid=bfe94ad5-7191-4435-93d4-62255fc0cf8c","ios":"levelo://app?vid=bfe94ad5-7191-4435-93d4-62255fc0cf8c"},"vehicle_type_id":"4","last_reported":1760886508,"current_range_meters":12400,"station_id":"ce4bgvh2rcd13ifvqcs0","pricing_plan_id":"cebpf4jnsgd1na2vs0mg"},{"bike_id":"c8ca1589-4662-403b-95f1-930ed78472ad","system_id":"levelo_inurba_marseille","lat":43.24945,"lon":5.40502,"is_reserved":false,"is_disabled":false,"rental_uris":{"android":"levelo://app?vid=c8ca1589-4662-403b-95f1-930ed78472ad","ios":"levelo://app?vid=c8ca1589-4662-403b-95f1-930ed78472ad"},"vehicle_type_id":"4","last_reported":1760886508,"current_range_meters":12400,"station_id":"st_d2ngiaodas8pm72gd1h0","pricing_plan_id":"cebpf4jnsgd1na2vs0mg"},{"bike_id":"33072f8a-fdd4-421e-bff0-051872342972","system_id":"levelo_inurba_marseille","lat":43.27986,"lon":5.41663,"is_reserved":false,"is_disabled":false,"rental_uris":{"android":"levelo://app?vid=33072f8a-fdd4-421e-bff0-051872342972","ios":"levelo://app?vid=33072f8a-fdd4-421e-bff0-051872342972"},"vehicle_type_id":"4","last_reported":1760886508,"current_range_meters":12400,"station_id":"ce4bho12rcd13ifvqh1g","pricing_plan_id":"cebpf4jnsgd1na2vs0mg"},{"bike_id":"06823d10-448a-46a3-8ad8-dc949861eab3","system_id":"levelo_inurba_marseille","lat":43.29713,"lon":5.37693,"is_reserved":false,"is_disabled":false,"rental_uris":{"android":"levelo://app?vid=06823d10-448a-46a3-8ad8-dc949861eab3","ios":"levelo://app?vid=06823d10-448a-46a3-8ad8-dc949861eab3"},"vehicle_type_id":"4","last_reported":1760886508,"current_range_meters":12400,"station_id":"ce4bgkh2rcd13ifvqbl0","pricing_plan_id":"cebpf4jnsgd1na2vs0mg"},{"bike_id":"86ce52f8-f590-4694-90e1-216ddc477b29","system_id":"levelo_inurba_marseille","lat":43.30968,"lon":5.3812,"is_reserved":false,"is_disabled":false,"rental_uris":{"android":"levelo://app?vid=86ce52f8-f590-4694-90e1-216ddc477b29","ios":"levelo://app?vid=86ce52f8-f590-4694-90e1-216ddc477b29"},"vehicle_type_id":"4","last_reported":1760886508,"current_range_meters":12400,"station_id":"","pricing_plan_id":"cebpf4jnsgd1na2vs0mg"},{"bike_id":"8cd818e3-a9e2-4f48-92b2-26306f507696","system_id":"levelo_inurba_marseille","lat":43.31349,"lon":5.37913,"is_reserved":false,"is_disabled":false,"rental_uris":{"android":"levelo://app?vid=8cd818e3-a9e2-4f48-92b2-26306f507696","ios":"levelo://app?vid=8cd818e3-a9e2-4f48-92b2-26306f507696"},"vehicle_type_id":"4","last_reported":1760886508,"current_range_meters":12400,"station_id":"","pricing_plan_id":"cebpf4jnsgd1na2vs0mg"},{"bike_id":"fbe586dc-ebc7-45f2-b699-4812fb9ca15d","system_id":"levelo_inurba_marseille","lat":43.254923,"lon":5.37659,"is_reserved":false,"is_disabled":true,"rental_uris":{"android":"levelo://app?vid=fbe586dc-ebc7-45f2-b699-4812fb9ca15d","ios":"levelo://app?vid=fbe586dc-ebc7-45f2-b699-4812fb9ca15d"},"vehicle_type_id":"4","last_reported":1760886508,"current_range_meters":12400,"station_id":"ce4bhh12rcd13ifvqff0","pricing_plan_id":"cebpf4jnsgd1na2vs0mg"},{"bike_id":"a2f48fc3-137e-4428-bf11-c0b10e454d98","system_id":"levelo_inurba_marseille","lat":43.30426,"lon":5.39756,"is_reserved":false,"is_disabled":false,"rental_uris":{"android":"levelo://app?vid=a2f48fc3-137e-4428-bf11-c0b10e454d98","ios":"levelo://app?vid=a2f48fc3-137e-4428-bf11-c0b10e454d98"},"vehicle_type_id":"4","last_reported":1760886508,"current_range_meters":12400,"station_id":"ce4bh092rcd13ifvqd20","pricing_plan_id":"cebpf4jnsgd1na2vs0mg"},{"bike_id":"35dfd4c4-b7bc-4f35-a17b-07bdaa124d26","system_id":"levelo_inurba_marseille","lat":43.29851,"lon":5.3629,"is_reserved":false,"is_disabled":false,"rental_uris":{"android":"levelo://app?vid=35dfd4c4-b7bc-4f35-a17b-07bdaa124d26","ios":"levelo://app?vid=35dfd4c4-b7bc-4f35-a17b-07bdaa124d26"},"vehicle_type_id":"4","last_reported":1760886508,"current_range_meters":12800,"station_id":"ce4bgpp2rcd13ifvqc3g","pricing_plan_id":"cebpf4jnsgd1na2vs0mg"},{"bike_id":"de4bec27-297c-4e65-9415-36d899af2286","system_id":"levelo_inurba_marseille","lat":43.25919,"lon":5.40918,"is_reserved":false,"is_disabled":false,"rental_uris":{"android":"levelo://app?vid=de4bec27-297c-4e65-9415-36d899af2286","ios":"levelo://app?vid=de4bec27-297c-4e65-9415-36d899af2286"},"vehicle_type_id":"4","last_reported":1760886508,"current_range_meters":12800,"station_id":"ce4bhm92rcd13ifvqglg","pricing_plan_id":"cebpf4jnsgd1na2vs0mg"},{"bike_id":"676d88a8-f06e-4192-886d-e52926318b91","system_id":"levelo_inurba_marseille","lat":43.21194,"lon":5.35074,"is_reserved":false,"is_disabled":false,"rental_uris":{"android":"levelo://app?vid=676d88a8-f06e-4192-886d-e52926318b91","ios":"levelo://app?vid=676d88a8-f06e-4192-886d-e52926318b91"},"vehicle_type_id":"4","last_reported":1760886508,"current_range_meters":12800,"station_id":"st_cvj6sg6p6f1abm77japg","pricing_plan_id":"cebpf4jnsgd1na2vs0mg"},{"bike_id":"85c1dfb6-c68e-45ff-9341-596e8a7a3d39","system_id":"levelo_inurba_marseille","lat":43.2784,"lon":5.39202,"is_reserved":false,"is_disabled":false,"rental_uris":{"android":"levelo://app?vid=85c1dfb6-c68e-45ff-9341-596e8a7a3d39","ios":"levelo://app?vid=85c1dfb6-c68e-45ff-9341-596e8a7a3d39"},"vehicle_type_id":"4","last_reported":1760886508,"current_range_meters":12800,"station_id":"ce4bhjp2rcd13ifvqga0","pricing_plan_id":"cebpf4jnsgd1na2vs0mg"},{"bike_id":"778ccbfb-369b-40e2-98f2-f17901dc7e11","system_id":"levelo_inurba_marseille","lat":43.2842,"lon":5.34981,"is_reserved":false,"is_disabled":true,"rental_uris":{"android":"levelo://app?vid=778ccbfb-369b-40e2-98f2-f17901dc7e11","ios":"levelo://app?vid=778ccbfb-369b-40e2-98f2-f17901dc7e11"},"vehicle_type_id":"4","last_reported":1760886508,"current_range_meters":12800,"station_id":"ce4bhbh2rcd13ifvqepg","pricing_plan_id":"cebpf4jnsgd1na2vs0mg"},{"bike_id":"0f787efd-37ca-4060-a03d-15d3c3ce389f","system_id":"levelo_inurba_marseille","lat":43.299974,"lon":5.37349,"is_reserved":false,"is_disabled":false,"rental_uris":{"android":"levelo://app?vid=0f787efd-37ca-4060-a03d-15d3c3ce389f","ios":"levelo://app?vid=0f787efd-37ca-4060-a03d-15d3c3ce389f"},"vehicle_type_id":"4","last_reported":1760886508,"current_range_meters":12800,"station_id":"","pricing_plan_id":"cebpf4jnsgd1na2vs0mg"},{"bike_id":"e79fd270-d40e-4c9e-885e-897de81d7390","system_id":"levelo_inurba_marseille","lat":43.286059,"lon":5.351033,"is_reserved":false,"is_disabled":false,"rental_uris":{"android":"levelo://app?vid=e79fd270-d40e-4c9e-885e-897de81d7390","ios":"levelo://app?vid=e79fd270-d40e-4c9e-885e-897de81d7390"},"vehicle_type_id":"4","last_reported":1760886508,"current_range_meters":13600,"station_id":"ce4bhch2rcd13ifvqeug","pricing_plan_id":"cebpf4jnsgd1na2vs0mg"},{"bike_id":"449291b3-5da2-41d1-a339-a8b920469f10","system_id":"levelo_inurba_marseille","lat":43.303348,"lon":5.400847,"is_reserved":false,"is_disabled":false,"rental_uris":{"android":"levelo://app?vid=449291b3-5da2-41d1-a339-a8b920469f10","ios":"levelo://app?vid=449291b3-5da2-41d1-a339-a8b920469f10"},"vehicle_type_id":"4","last_reported":1760886508,"current_range_meters":13600,"station_id":"","pricing_plan_id":"cebpf4jnsgd1na2vs0mg"},{"bike_id":"7fd36eea-805d-4dce-89b5-46f277eaf158","system_id":"levelo_inurba_marseille","lat":43.305097,"lon":5.366695,"is_reserved":false,"is_disabled":false,"rental_uris":{"android":"levelo://app?vid=7fd36eea-805d-4dce-89b5-46f277eaf158","ios":"levelo://app?vid=7fd36eea-805d-4dce-89b5-46f277eaf158"},"vehicle_type_id":"4","last_reported":1760886508,"current_range_meters":13600,"station_id":"","pricing_plan_id":"cebpf4jnsgd1na2vs0mg"},{"bike_id":"c22e92c8-3fe0-4c56-ab21-210e12f7f0b4","system_id":"levelo_inurba_marseille","lat":43.31942,"lon":5.41534,"is_reserved":false,"is_disabled":false,"rental_uris":{"android":"levelo://app?vid=c22e92c8-3fe0-4c56-ab21-210e12f7f0b4","ios":"levelo://app?vid=c22e92c8-3fe0-4c56-ab21-210e12f7f0b4"},"vehicle_type_id":"4","last_reported":1760886508,"current_range_meters":13600,"station_id":"","pricing_plan_id":"cebpf4jnsgd1na2vs0mg"},{"bike_id":"4935446d-b7f7-4e58-b2f0-f06c8c956078","system_id":"levelo_inurba_marseille","lat":43.296827,"lon":5.366162,"is_reserved":false,"is_disabled":false,"rental_uris":{"android":"levelo://app?vid=4935446d-b7f7-4e58-b2f0-f06c8c956078","ios":"levelo://app?vid=4935446d-b7f7-4e58-b2f0-f06c8c956078"},"vehicle_type_id":"4","last_reported":1760886508,"current_range_meters":13600,"station_id":"","pricing_plan_id":"cebpf4jnsgd1na2vs0mg"},{"bike_id":"423517e0-6945-4232-9767-0ef7ccbca5d2","system_id":"levelo_inurba_marseille","lat":43.30548,"lon":5.36534,"is_reserved":false,"is_disabled":false,"rental_uris":{"android":"levelo://app?vid=423517e0-6945-4232-9767-0ef7ccbca5d2","ios":"levelo://app?vid=423517e0-6945-4232-9767-0ef7ccbca5d2"},"vehicle_type_id":"4","last_reported":1760886508,"current_range_meters":13600,"station_id":"ce4bgs12rcd13ifvqcag","pricing_plan_id":"cebpf4jnsgd1na2vs0mg"},{"bike_id":"7975c10b-ba97-4ae7-8daa-64950d0cb9e8","system_id":"levelo_inurba_marseille","lat":43.29198,"lon":5.39324,"is_reserved":false,"is_disabled":false,"rental_uris":{"android":"levelo://app?vid=7975c10b-ba97-4ae7-8daa-64950d0cb9e8","ios":"levelo://app?vid=7975c10b-ba97-4ae7-8daa-64950d0cb9e8"},"vehicle_type_id":"4","last_reported":1760886508,"current_range_meters":13600,"station_id":"ce4bh192rcd13ifvqdd0","pricing_plan_id":"cebpf4jnsgd1na2vs0mg"},{"bike_id":"59aed43f-13a8-4014-b2c4-38bf40a4080c","system_id":"levelo_inurba_marseille","lat":43.26811,"lon":5.40253,"is_reserved":false,"is_disabled":true,"rental_uris":{"android":"levelo://app?vid=59aed43f-13a8-4014-b2c4-38bf40a4080c","ios":"levelo://app?vid=59aed43f-13a8-4014-b2c4-38bf40a4080c"},"vehicle_type_id":"4","last_reported":1760886508,"current_range_meters":14000,"station_id":"ce501612rcd8frsf0b60","pricing_plan_id":"cebpf4jnsgd1na2vs0mg"},{"bike_id":"74b16735-b4ae-43a7-98a5-175a3eadc868","system_id":"levelo_inurba_marseille","lat":43.28993,"lon":5.35612,"is_reserved":false,"is_disabled":false,"rental_uris":{"android":"levelo://app?vid=74b16735-b4ae-43a7-98a5-175a3eadc868","ios":"levelo://app?vid=74b16735-b4ae-43a7-98a5-175a3eadc868"},"vehicle_type_id":"4","last_reported":1760886508,"current_range_meters":14000,"station_id":"ce4bhb92rcd13ifvqen0","pricing_plan_id":"cebpf4jnsgd1na2vs0mg"},{"bike_id":"7a8ac50b-c3a4-490a-8f96-9c005f89ed5d","system_id":"levelo_inurba_marseille","lat":43.26521,"lon":5.39049,"is_reserved":false,"is_disabled":false,"rental_uris":{"android":"levelo://app?vid=7a8ac50b-c3a4-490a-8f96-9c005f89ed5d","ios":"levelo://app?vid=7a8ac50b-c3a4-490a-8f96-9c005f89ed5d"},"vehicle_type_id":"4","last_reported":1760886508,"current_range_meters":14000,"station_id":"","pricing_plan_id":"cebpf4jnsgd1na2vs0mg"},{"bike_id":"6c065587-f970-4c8d-a529-1ea57f0b7dae","system_id":"levelo_inurba_marseille","lat":43.23197,"lon":5.35557,"is_reserved":false,"is_disabled":false,"rental_uris":{"android":"levelo://app?vid=6c065587-f970-4c8d-a529-1ea57f0b7dae","ios":"levelo://app?vid=6c065587-f970-4c8d-a529-1ea57f0b7dae"},"vehicle_type_id":"4","last_reported":1760886508,"current_range_meters":14000,"station_id":"ce4bhu92rcd13ifvqi70","pricing_plan_id":"cebpf4jnsgd1na2vs0mg"},{"bike_id":"e015a312-f4e2-4fa5-962c-4dc7593461dd","system_id":"levelo_inurba_marseille","lat":43.27377,"lon":5.36251,"is_reserved":false,"is_disabled":false,"rental_uris":{"android":"levelo://app?vid=e015a312-f4e2-4fa5-962c-4dc7593461dd","ios":"levelo://app?vid=e015a312-f4e2-4fa5-962c-4dc7593461dd"},"vehicle_type_id":"4","last_reported":1760886508,"current_range_meters":14000,"station_id":"","pricing_plan_id":"cebpf4jnsgd1na2vs0mg"},{"bike_id":"44bf323c-252e-4119-820e-507dee8c378c","system_id":"levelo_inurba_marseille","lat":43.2595,"lon":5.41362,"is_reserved":false,"is_disabled":false,"rental_uris":{"android":"levelo://app?vid=44bf323c-252e-4119-820e-507dee8c378c","ios":"levelo://app?vid=44bf323c-252e-4119-820e-507dee8c378c"},"vehicle_type_id":"4","last_reported":1760886508,"current_range_meters":14000,"station_id":"","pricing_plan_id":"cebpf4jnsgd1na2vs0mg"},{"bike_id":"6f5458d3-9f2a-47d5-b18c-590daf6a6f7f","system_id":"levelo_inurba_marseille","lat":43.29181,"lon":5.35789,"is_reserved":false,"is_disabled":true,"rental_uris":{"android":"levelo://app?vid=6f5458d3-9f2a-47d5-b18c-590daf6a6f7f","ios":"levelo://app?vid=6f5458d3-9f2a-47d5-b18c-590daf6a6f7f"},"vehicle_type_id":"4","last_reported":1760886508,"current_range_meters":14400,"station_id":"ce4bhb12rcd13ifvqel0","pricing_plan_id":"cebpf4jnsgd1na2vs0mg"},{"bike_id":"679c3c1f-72e8-4456-b0d9-4c2ad9c70dd9","system_id":"levelo_inurba_marseille","lat":43.21195,"lon":5.35087,"is_reserved":false,"is_disabled":false,"rental_uris":{"android":"levelo://app?vid=679c3c1f-72e8-4456-b0d9-4c2ad9c70dd9","ios":"levelo://app?vid=679c3c1f-72e8-4456-b0d9-4c2ad9c70dd9"},"vehicle_type_id":"4","last_reported":1760886508,"current_range_meters":14400,"station_id":"st_cvj6sg6p6f1abm77japg","pricing_plan_id":"cebpf4jnsgd1na2vs0mg"},{"bike_id":"0a950a0d-01ce-40b2-be0e-ad7894fd72f2","system_id":"levelo_inurba_marseille","lat":43.321036,"lon":5.367714,"is_reserved":false,"is_disabled":true,"rental_uris":{"android":"levelo://app?vid=0a950a0d-01ce-40b2-be0e-ad7894fd72f2","ios":"levelo://app?vid=0a950a0d-01ce-40b2-be0e-ad7894fd72f2"},"vehicle_type_id":"4","last_reported":1760886508,"current_range_meters":14400,"station_id":"ce4bhrh2rcd13ifvqhug","pricing_plan_id":"cebpf4jnsgd1na2vs0mg"},{"bike_id":"9652283e-21f4-4490-ac9e-ffa9429f0005","system_id":"levelo_inurba_marseille","lat":43.29085,"lon":5.40551,"is_reserved":false,"is_disabled":false,"rental_uris":{"android":"levelo://app?vid=9652283e-21f4-4490-ac9e-ffa9429f0005","ios":"levelo://app?vid=9652283e-21f4-4490-ac9e-ffa9429f0005"},"vehicle_type_id":"4","last_reported":1760886508,"current_range_meters":14400,"station_id":"","pricing_plan_id":"cebpf4jnsgd1na2vs0mg"},{"bike_id":"9e7ec8e4-bf16-48ed-b31e-4be77f791775","system_id":"levelo_inurba_marseille","lat":43.26552,"lon":5.37288,"is_reserved":false,"is_disabled":false,"rental_uris":{"android":"levelo://app?vid=9e7ec8e4-bf16-48ed-b31e-4be77f791775","ios":"levelo://app?vid=9e7ec8e4-bf16-48ed-b31e-4be77f791775"},"vehicle_type_id":"4","last_reported":1760886508,"current_range_meters":14400,"station_id":"ce4bhg12rcd13ifvqf70","pricing_plan_id":"cebpf4jnsgd1na2vs0mg"},{"bike_id":"5a35347d-1dbb-434c-8651-0148cd77cd1e","system_id":"levelo_inurba_marseille","lat":43.31544,"lon":5.38798,"is_reserved":false,"is_disabled":false,"rental_uris":{"android":"levelo://app?vid=5a35347d-1dbb-434c-8651-0148cd77cd1e","ios":"levelo://app?vid=5a35347d-1dbb-434c-8651-0148cd77cd1e"},"vehicle_type_id":"4","last_reported":1760886508,"current_range_meters":14400,"station_id":"","pricing_plan_id":"cebpf4jnsgd1na2vs0mg"},{"bike_id":"d1668fd5-d05d-42a9-b5d1-4388db8ac6a3","system_id":"levelo_inurba_marseille","lat":43.31764,"lon":5.39029,"is_reserved":false,"is_disabled":false,"rental_uris":{"android":"levelo://app?vid=d1668fd5-d05d-42a9-b5d1-4388db8ac6a3","ios":"levelo://app?vid=d1668fd5-d05d-42a9-b5d1-4388db8ac6a3"},"vehicle_type_id":"4","last_reported":1760886508,"current_range_meters":14400,"station_id":"ce4bhqp2rcd13ifvqhng","pricing_plan_id":"cebpf4jnsgd1na2vs0mg"},{"bike_id":"8a24f873-4bc2-48d7-a32d-b706d8d51c30","system_id":"levelo_inurba_marseille","lat":43.23187,"lon":5.35562,"is_reserved":false,"is_disabled":false,"rental_uris":{"android":"levelo://app?vid=8a24f873-4bc2-48d7-a32d-b706d8d51c30","ios":"levelo://app?vid=8a24f873-4bc2-48d7-a32d-b706d8d51c30"},"vehicle_type_id":"4","last_reported":1760886508,"current_range_meters":14400,"station_id":"ce4bhu92rcd13ifvqi70","pricing_plan_id":"cebpf4jnsgd1na2vs0mg"},{"bike_id":"edeab634-8002-402b-b629-60fe297a3e79","system_id":"levelo_inurba_marseille","lat":43.21743,"lon":5.34624,"is_reserved":false,"is_disabled":false,"rental_uris":{"android":"levelo://app?vid=edeab634-8002-402b-b629-60fe297a3e79","ios":"levelo://app?vid=edeab634-8002-402b-b629-60fe297a3e79"},"vehicle_type_id":"4","last_reported":1760886508,"current_range_meters":14800,"station_id":"st_cvj6r9ubvosntc0bgbag","pricing_plan_id":"cebpf4jnsgd1na2vs0mg"},{"bike_id":"ab6b106f-a4de-43a2-813b-bfb55bf62288","system_id":"levelo_inurba_marseille","lat":43.2973,"lon":5.37162,"is_reserved":false,"is_disabled":false,"rental_uris":{"android":"levelo://app?vid=ab6b106f-a4de-43a2-813b-bfb55bf62288","ios":"levelo://app?vid=ab6b106f-a4de-43a2-813b-bfb55bf62288"},"vehicle_type_id":"4","last_reported":1760886508,"current_range_meters":14800,"station_id":"","pricing_plan_id":"cebpf4jnsgd1na2vs0mg"},{"bike_id":"777ba8a4-194e-40fb-b6c6-d32c2d6e4952","system_id":"levelo_inurba_marseille","lat":43.31077,"lon":5.38351,"is_reserved":false,"is_disabled":false,"rental_uris":{"android":"levelo://app?vid=777ba8a4-194e-40fb-b6c6-d32c2d6e4952","ios":"levelo://app?vid=777ba8a4-194e-40fb-b6c6-d32c2d6e4952"},"vehicle_type_id":"4","last_reported":1760886508,"current_range_meters":14800,"station_id":"ce4bgv92rcd13ifvqcr0","pricing_plan_id":"cebpf4jnsgd1na2vs0mg"},{"bike_id":"f1b8e04f-457e-461e-a0a7-0d512845fe50","system_id":"levelo_inurba_marseille","lat":43.339955,"lon":5.406468,"is_reserved":false,"is_disabled":false,"rental_uris":{"android":"levelo://app?vid=f1b8e04f-457e-461e-a0a7-0d512845fe50","ios":"levelo://app?vid=f1b8e04f-457e-461e-a0a7-0d512845fe50"},"vehicle_type_id":"4","last_reported":1760886508,"current_range_meters":14800,"station_id":"","pricing_plan_id":"cebpf4jnsgd1na2vs0mg"},{"bike_id":"7a855344-e964-43d8-8baf-834c6f603579","system_id":"levelo_inurba_marseille","lat":43.282631,"lon":5.350535,"is_reserved":false,"is_disabled":false,"rental_uris":{"android":"levelo://app?vid=7a855344-e964-43d8-8baf-834c6f603579","ios":"levelo://app?vid=7a855344-e964-43d8-8baf-834c6f603579"},"vehicle_type_id":"4","last_reported":1760886508,"current_range_meters":15200,"station_id":"ce4bhbp2rcd13ifvqerg","pricing_plan_id":"cebpf4jnsgd1na2vs0mg"},{"bike_id":"04e42174-1a68-4742-8941-b205e7e36bbb","system_id":"levelo_inurba_marseille","lat":43.27546,"lon":5.3598,"is_reserved":false,"is_disabled":false,"rental_uris":{"android":"levelo://app?vid=04e42174-1a68-4742-8941-b205e7e36bbb","ios":"levelo://app?vid=04e42174-1a68-4742-8941-b205e7e36bbb"},"vehicle_type_id":"4","last_reported":1760886508,"current_range_meters":15200,"station_id":"","pricing_plan_id":"cebpf4jnsgd1na2vs0mg"},{"bike_id":"4bbd6801-e86f-4670-a08c-5a08e1dabb92","system_id":"levelo_inurba_marseille","lat":43.29213,"lon":5.3806,"is_reserved":false,"is_disabled":false,"rental_uris":{"android":"levelo://app?vid=4bbd6801-e86f-4670-a08c-5a08e1dabb92","ios":"levelo://app?vid=4bbd6801-e86f-4670-a08c-5a08e1dabb92"},"vehicle_type_id":"4","last_reported":1760886508,"current_range_meters":15200,"station_id":"","pricing_plan_id":"cebpf4jnsgd1na2vs0mg"},{"bike_id":"d53915a5-cb32-4d85-872d-ff8f4394a80f","system_id":"levelo_inurba_marseille","lat":43.26684,"lon":5.38278,"is_reserved":false,"is_disabled":false,"rental_uris":{"android":"levelo://app?vid=d53915a5-cb32-4d85-872d-ff8f4394a80f","ios":"levelo://app?vid=d53915a5-cb32-4d85-872d-ff8f4394a80f"},"vehicle_type_id":"4","last_reported":1760886508,"current_range_meters":15200,"station_id":"ce4bhg92rcd13ifvqf90","pricing_plan_id":"cebpf4jnsgd1na2vs0mg"},{"bike_id":"a470e1e9-0594-4b5c-9b26-2114268fb06d","system_id":"levelo_inurba_marseille","lat":43.29852,"lon":5.36302,"is_reserved":false,"is_disabled":true,"rental_uris":{"android":"levelo://app?vid=a470e1e9-0594-4b5c-9b26-2114268fb06d","ios":"levelo://app?vid=a470e1e9-0594-4b5c-9b26-2114268fb06d"},"vehicle_type_id":"4","last_reported":1760886508,"current_range_meters":15200,"station_id":"ce4bgpp2rcd13ifvqc3g","pricing_plan_id":"cebpf4jnsgd1na2vs0mg"},{"bike_id":"da22a6bb-ece8-4168-87fa-39fdca8adc0a","system_id":"levelo_inurba_marseille","lat":43.248064,"lon":5.374574,"is_reserved":false,"is_disabled":false,"rental_uris":{"android":"levelo://app?vid=da22a6bb-ece8-4168-87fa-39fdca8adc0a","ios":"levelo://app?vid=da22a6bb-ece8-4168-87fa-39fdca8adc0a"},"vehicle_type_id":"4","last_reported":1760886508,"current_range_meters":15200,"station_id":"ce4bhgh2rcd13ifvqfb0","pricing_plan_id":"cebpf4jnsgd1na2vs0mg"},{"bike_id":"b5857373-087c-49f8-b9e0-58b76f0935c9","system_id":"levelo_inurba_marseille","lat":43.255022,"lon":5.376484,"is_reserved":false,"is_disabled":false,"rental_uris":{"android":"levelo://app?vid=b5857373-087c-49f8-b9e0-58b76f0935c9","ios":"levelo://app?vid=b5857373-087c-49f8-b9e0-58b76f0935c9"},"vehicle_type_id":"4","last_reported":1760886508,"current_range_meters":16000,"station_id":"ce4bhh12rcd13ifvqff0","pricing_plan_id":"cebpf4jnsgd1na2vs0mg"},{"bike_id":"e8e8adc4-2ab5-4760-8bce-a525d72ee538","system_id":"levelo_inurba_marseille","lat":43.2891,"lon":5.36662,"is_reserved":false,"is_disabled":false,"rental_uris":{"android":"levelo://app?vid=e8e8adc4-2ab5-4760-8bce-a525d72ee538","ios":"levelo://app?vid=e8e8adc4-2ab5-4760-8bce-a525d72ee538"},"vehicle_type_id":"4","last_reported":1760886508,"current_range_meters":16000,"station_id":"ce4bhap2rcd13ifvqek0","pricing_plan_id":"cebpf4jnsgd1na2vs0mg"},{"bike_id":"41a85817-ed1e-4bdd-824c-cd137b7ab815","system_id":"levelo_inurba_marseille","lat":43.312697,"lon":5.401678,"is_reserved":false,"is_disabled":false,"rental_uris":{"android":"levelo://app?vid=41a85817-ed1e-4bdd-824c-cd137b7ab815","ios":"levelo://app?vid=41a85817-ed1e-4bdd-824c-cd137b7ab815"},"vehicle_type_id":"4","last_reported":1760886508,"current_range_meters":16000,"station_id":"ce4bh092rcd13ifvqd30","pricing_plan_id":"cebpf4jnsgd1na2vs0mg"},{"bike_id":"9acfcdb9-7bf0-4991-8024-da3d8f37ea9e","system_id":"levelo_inurba_marseille","lat":43.28612,"lon":5.351,"is_reserved":false,"is_disabled":false,"rental_uris":{"android":"levelo://app?vid=9acfcdb9-7bf0-4991-8024-da3d8f37ea9e","ios":"levelo://app?vid=9acfcdb9-7bf0-4991-8024-da3d8f37ea9e"},"vehicle_type_id":"4","last_reported":1760886508,"current_range_meters":16000,"station_id":"ce4bhch2rcd13ifvqeug","pricing_plan_id":"cebpf4jnsgd1na2vs0mg"},{"bike_id":"4ca1a358-8c1c-4f7e-9010-0b012c65e17b","system_id":"levelo_inurba_marseille","lat":43.28765,"lon":5.38508,"is_reserved":false,"is_disabled":false,"rental_uris":{"android":"levelo://app?vid=4ca1a358-8c1c-4f7e-9010-0b012c65e17b","ios":"levelo://app?vid=4ca1a358-8c1c-4f7e-9010-0b012c65e17b"},"vehicle_type_id":"4","last_reported":1760886508,"current_range_meters":16000,"station_id":"","pricing_plan_id":"cebpf4jnsgd1na2vs0mg"},{"bike_id":"c342f8c7-5fc1-44ac-a8a7-185a55578898","system_id":"levelo_inurba_marseille","lat":43.23191,"lon":5.3555,"is_reserved":false,"is_disabled":false,"rental_uris":{"android":"levelo://app?vid=c342f8c7-5fc1-44ac-a8a7-185a55578898","ios":"levelo://app?vid=c342f8c7-5fc1-44ac-a8a7-185a55578898"},"vehicle_type_id":"4","last_reported":1760886508,"current_range_meters":16000,"station_id":"ce4bhu92rcd13ifvqi70","pricing_plan_id":"cebpf4jnsgd1na2vs0mg"},{"bike_id":"9aa893ee-1807-4639-a1a7-1714b8f2dc9d","system_id":"levelo_inurba_marseille","lat":43.274936,"lon":5.42438,"is_reserved":false,"is_disabled":false,"rental_uris":{"android":"levelo://app?vid=9aa893ee-1807-4639-a1a7-1714b8f2dc9d","ios":"levelo://app?vid=9aa893ee-1807-4639-a1a7-1714b8f2dc9d"},"vehicle_type_id":"4","last_reported":1760886508,"current_range_meters":16400,"station_id":"ce4bhn92rcd13ifvqgrg","pricing_plan_id":"cebpf4jnsgd1na2vs0mg"},{"bike_id":"c530e950-50a8-4b2f-81e6-a5f7e6f752e8","system_id":"levelo_inurba_marseille","lat":43.33759,"lon":5.37473,"is_reserved":false,"is_disabled":false,"rental_uris":{"android":"levelo://app?vid=c530e950-50a8-4b2f-81e6-a5f7e6f752e8","ios":"levelo://app?vid=c530e950-50a8-4b2f-81e6-a5f7e6f752e8"},"vehicle_type_id":"4","last_reported":1760886508,"current_range_meters":16400,"station_id":"","pricing_plan_id":"cebpf4jnsgd1na2vs0mg"},{"bike_id":"f9c8e874-f965-4f84-8f8c-9cbdb4518520","system_id":"levelo_inurba_marseille","lat":43.24655,"lon":5.38909,"is_reserved":false,"is_disabled":false,"rental_uris":{"android":"levelo://app?vid=f9c8e874-f965-4f84-8f8c-9cbdb4518520","ios":"levelo://app?vid=f9c8e874-f965-4f84-8f8c-9cbdb4518520"},"vehicle_type_id":"4","last_reported":1760886508,"current_range_meters":16400,"station_id":"ce4bhg12rcd13ifvqf60","pricing_plan_id":"cebpf4jnsgd1na2vs0mg"},{"bike_id":"fa49c9db-286d-4301-8e83-ad1b3c7073e7","system_id":"levelo_inurba_marseille","lat":43.31357,"lon":5.36707,"is_reserved":false,"is_disabled":false,"rental_uris":{"android":"levelo://app?vid=fa49c9db-286d-4301-8e83-ad1b3c7073e7","ios":"levelo://app?vid=fa49c9db-286d-4301-8e83-ad1b3c7073e7"},"vehicle_type_id":"4","last_reported":1760886508,"current_range_meters":16400,"station_id":"ce4bgr92rcd13ifvqc6g","pricing_plan_id":"cebpf4jnsgd1na2vs0mg"},{"bike_id":"ab98a7b0-1054-45f6-97f4-49dd75ad1af4","system_id":"levelo_inurba_marseille","lat":43.30635,"lon":5.40075,"is_reserved":false,"is_disabled":false,"rental_uris":{"android":"levelo://app?vid=ab98a7b0-1054-45f6-97f4-49dd75ad1af4","ios":"levelo://app?vid=ab98a7b0-1054-45f6-97f4-49dd75ad1af4"},"vehicle_type_id":"4","last_reported":1760886508,"current_range_meters":16400,"station_id":"ce4bh112rcd13ifvqda0","pricing_plan_id":"cebpf4jnsgd1na2vs0mg"},{"bike_id":"ac7adbbc-ed05-4374-a6d6-1a89edf3463e","system_id":"levelo_inurba_marseille","lat":43.31365,"lon":5.385,"is_reserved":false,"is_disabled":false,"rental_uris":{"android":"levelo://app?vid=ac7adbbc-ed05-4374-a6d6-1a89edf3463e","ios":"levelo://app?vid=ac7adbbc-ed05-4374-a6d6-1a89edf3463e"},"vehicle_type_id":"4","last_reported":1760886508,"current_range_meters":16800,"station_id":"ce4bgt92rcd13ifvqcf0","pricing_plan_id":"cebpf4jnsgd1na2vs0mg"},{"bike_id":"551b071f-6296-4762-bf09-1f1114253086","system_id":"levelo_inurba_marseille","lat":43.29992,"lon":5.3717,"is_reserved":false,"is_disabled":true,"rental_uris":{"android":"levelo://app?vid=551b071f-6296-4762-bf09-1f1114253086","ios":"levelo://app?vid=551b071f-6296-4762-bf09-1f1114253086"},"vehicle_type_id":"4","last_reported":1760886508,"current_range_meters":16800,"station_id":"ce4bgr92rcd13ifvqc7g","pricing_plan_id":"cebpf4jnsgd1na2vs0mg"},{"bike_id":"e343fae2-abdd-419f-add3-4252cf1a7c5a","system_id":"levelo_inurba_marseille","lat":43.30482,"lon":5.40078,"is_reserved":false,"is_disabled":false,"rental_uris":{"android":"levelo://app?vid=e343fae2-abdd-419f-add3-4252cf1a7c5a","ios":"levelo://app?vid=e343fae2-abdd-419f-add3-4252cf1a7c5a"},"vehicle_type_id":"4","last_reported":1760886508,"current_range_meters":16800,"station_id":"","pricing_plan_id":"cebpf4jnsgd1na2vs0mg"},{"bike_id":"6d9392ed-1417-4737-be7f-20b2cefaa83e","system_id":"levelo_inurba_marseille","lat":43.28615,"lon":5.37086,"is_reserved":false,"is_disabled":true,"rental_uris":{"android":"levelo://app?vid=6d9392ed-1417-4737-be7f-20b2cefaa83e","ios":"levelo://app?vid=6d9392ed-1417-4737-be7f-20b2cefaa83e"},"vehicle_type_id":"4","last_reported":1760886508,"current_range_meters":16800,"station_id":"ce4bht12rcd13ifvqi60","pricing_plan_id":"cebpf4jnsgd1na2vs0mg"},{"bike_id":"4edeb2da-4ef4-4ba8-9e23-908908040513","system_id":"levelo_inurba_marseille","lat":43.279075,"lon":5.380137,"is_reserved":false,"is_disabled":false,"rental_uris":{"android":"levelo://app?vid=4edeb2da-4ef4-4ba8-9e23-908908040513","ios":"levelo://app?vid=4edeb2da-4ef4-4ba8-9e23-908908040513"},"vehicle_type_id":"4","last_reported":1760886508,"current_range_meters":16800,"station_id":"ce4bhf92rcd13ifvqf50","pricing_plan_id":"cebpf4jnsgd1na2vs0mg"},{"bike_id":"70f3e386-8de2-4f0e-9df1-dc2e2cb58b09","system_id":"levelo_inurba_marseille","lat":43.2885,"lon":5.35842,"is_reserved":false,"is_disabled":false,"rental_uris":{"android":"levelo://app?vid=70f3e386-8de2-4f0e-9df1-dc2e2cb58b09","ios":"levelo://app?vid=70f3e386-8de2-4f0e-9df1-dc2e2cb58b09"},"vehicle_type_id":"4","last_reported":1760886508,"current_range_meters":16800,"station_id":"ce4bhb12rcd13ifvqem0","pricing_plan_id":"cebpf4jnsgd1na2vs0mg"},{"bike_id":"12d15f97-0e42-4e23-ba01-dc3ea57a2caa","system_id":"levelo_inurba_marseille","lat":43.29011,"lon":5.35608,"is_reserved":false,"is_disabled":false,"rental_uris":{"android":"levelo://app?vid=12d15f97-0e42-4e23-ba01-dc3ea57a2caa","ios":"levelo://app?vid=12d15f97-0e42-4e23-ba01-dc3ea57a2caa"},"vehicle_type_id":"4","last_reported":1760886508,"current_range_meters":17200,"station_id":"ce4bhb92rcd13ifvqen0","pricing_plan_id":"cebpf4jnsgd1na2vs0mg"},{"bike_id":"b7ddea43-28dc-4fbe-a7ed-b00d6badff2a","system_id":"levelo_inurba_marseille","lat":43.29029,"lon":5.3755,"is_reserved":false,"is_disabled":true,"rental_uris":{"android":"levelo://app?vid=b7ddea43-28dc-4fbe-a7ed-b00d6badff2a","ios":"levelo://app?vid=b7ddea43-28dc-4fbe-a7ed-b00d6badff2a"},"vehicle_type_id":"4","last_reported":1760886508,"current_range_meters":17200,"station_id":"ce4bh692rcd13ifvqe90","pricing_plan_id":"cebpf4jnsgd1na2vs0mg"},{"bike_id":"0000b6d3-e83a-4149-90d5-c0999f573ff8","system_id":"levelo_inurba_marseille","lat":43.32104,"lon":5.36788,"is_reserved":false,"is_disabled":false,"rental_uris":{"android":"levelo://app?vid=0000b6d3-e83a-4149-90d5-c0999f573ff8","ios":"levelo://app?vid=0000b6d3-e83a-4149-90d5-c0999f573ff8"},"vehicle_type_id":"4","last_reported":1760886508,"current_range_meters":17200,"station_id":"ce4bhrh2rcd13ifvqhug","pricing_plan_id":"cebpf4jnsgd1na2vs0mg"},{"bike_id":"ce83e9d8-1d73-4e69-a8df-61b7cda30759","system_id":"levelo_inurba_marseille","lat":43.3014,"lon":5.37412,"is_reserved":false,"is_disabled":false,"rental_uris":{"android":"levelo://app?vid=ce83e9d8-1d73-4e69-a8df-61b7cda30759","ios":"levelo://app?vid=ce83e9d8-1d73-4e69-a8df-61b7cda30759"},"vehicle_type_id":"4","last_reported":1760886508,"current_range_meters":17200,"station_id":"ce4bgs92rcd13ifvqcc0","pricing_plan_id":"cebpf4jnsgd1na2vs0mg"},{"bike_id":"348ab8cc-81cc-4702-b12d-7027572c1935","system_id":"levelo_inurba_marseille","lat":43.27376,"lon":5.36243,"is_reserved":false,"is_disabled":true,"rental_uris":{"android":"levelo://app?vid=348ab8cc-81cc-4702-b12d-7027572c1935","ios":"levelo://app?vid=348ab8cc-81cc-4702-b12d-7027572c1935"},"vehicle_type_id":"4","last_reported":1760886508,"current_range_meters":17200,"station_id":"ce4bhbh2rcd13ifvqeo0","pricing_plan_id":"cebpf4jnsgd1na2vs0mg"},{"bike_id":"8f5b4e3f-d0c8-438b-955e-3fd6c08bc9d3","system_id":"levelo_inurba_marseille","lat":43.2417,"lon":5.36398,"is_reserved":false,"is_disabled":false,"rental_uris":{"android":"levelo://app?vid=8f5b4e3f-d0c8-438b-955e-3fd6c08bc9d3","ios":"levelo://app?vid=8f5b4e3f-d0c8-438b-955e-3fd6c08bc9d3"},"vehicle_type_id":"4","last_reported":1760886508,"current_range_meters":17200,"station_id":"cpo36qri1sfpv3e86is0","pricing_plan_id":"cebpf4jnsgd1na2vs0mg"},{"bike_id":"c148fe2b-7b16-4557-99b6-c864592392b4","system_id":"levelo_inurba_marseille","lat":43.269302,"lon":5.389178,"is_reserved":false,"is_disabled":false,"rental_uris":{"android":"levelo://app?vid=c148fe2b-7b16-4557-99b6-c864592392b4","ios":"levelo://app?vid=c148fe2b-7b16-4557-99b6-c864592392b4"},"vehicle_type_id":"4","last_reported":1760886508,"current_range_meters":17200,"station_id":"ce4bhhh2rcd13ifvqfl0","pricing_plan_id":"cebpf4jnsgd1na2vs0mg"},{"bike_id":"43ca5278-8e17-4d21-b6f3-c648d784a3f4","system_id":"levelo_inurba_marseille","lat":43.290439,"lon":5.359055,"is_reserved":false,"is_disabled":false,"rental_uris":{"android":"levelo://app?vid=43ca5278-8e17-4d21-b6f3-c648d784a3f4","ios":"levelo://app?vid=43ca5278-8e17-4d21-b6f3-c648d784a3f4"},"vehicle_type_id":"4","last_reported":1760886508,"current_range_meters":17200,"station_id":"ce4bha92rcd13ifvqeg0","pricing_plan_id":"cebpf4jnsgd1na2vs0mg"},{"bike_id":"0598daf0-5094-4d95-a9b5-8377f4849c4c","system_id":"levelo_inurba_marseille","lat":43.31172,"lon":5.38723,"is_reserved":false,"is_disabled":false,"rental_uris":{"android":"levelo://app?vid=0598daf0-5094-4d95-a9b5-8377f4849c4c","ios":"levelo://app?vid=0598daf0-5094-4d95-a9b5-8377f4849c4c"},"vehicle_type_id":"4","last_reported":1760886508,"current_range_meters":17200,"station_id":"ce4bgv12rcd13ifvqcp0","pricing_plan_id":"cebpf4jnsgd1na2vs0mg"},{"bike_id":"025fccfe-2094-46be-826c-4f5aa194075f","system_id":"levelo_inurba_marseille","lat":43.262686,"lon":5.374234,"is_reserved":false,"is_disabled":false,"rental_uris":{"android":"levelo://app?vid=025fccfe-2094-46be-826c-4f5aa194075f","ios":"levelo://app?vid=025fccfe-2094-46be-826c-4f5aa194075f"},"vehicle_type_id":"4","last_reported":1760886508,"current_range_meters":17200,"station_id":"","pricing_plan_id":"cebpf4jnsgd1na2vs0mg"},{"bike_id":"9df81e88-3a0f-4b28-9eb8-f96062778ed0","system_id":"levelo_inurba_marseille","lat":43.30247,"lon":5.40068,"is_reserved":false,"is_disabled":true,"rental_uris":{"android":"levelo://app?vid=9df81e88-3a0f-4b28-9eb8-f96062778ed0","ios":"levelo://app?vid=9df81e88-3a0f-4b28-9eb8-f96062778ed0"},"vehicle_type_id":"4","last_reported":1760886508,"current_range_meters":17600,"station_id":"ce4bgvh2rcd13ifvqcs0","pricing_plan_id":"cebpf4jnsgd1na2vs0mg"},{"bike_id":"78fe83c7-5376-41e5-afa1-483e220954a6","system_id":"levelo_inurba_marseille","lat":43.291854,"lon":5.370639,"is_reserved":false,"is_disabled":false,"rental_uris":{"android":"levelo://app?vid=78fe83c7-5376-41e5-afa1-483e220954a6","ios":"levelo://app?vid=78fe83c7-5376-41e5-afa1-483e220954a6"},"vehicle_type_id":"4","last_reported":1760886508,"current_range_meters":17600,"station_id":"","pricing_plan_id":"cebpf4jnsgd1na2vs0mg"},{"bike_id":"bb211116-29a7-4e48-93ed-d4ab1a1c4665","system_id":"levelo_inurba_marseille","lat":43.25938,"lon":5.40896,"is_reserved":false,"is_disabled":false,"rental_uris":{"android":"levelo://app?vid=bb211116-29a7-4e48-93ed-d4ab1a1c4665","ios":"levelo://app?vid=bb211116-29a7-4e48-93ed-d4ab1a1c4665"},"vehicle_type_id":"4","last_reported":1760886508,"current_range_meters":17600,"station_id":"ce4bhm92rcd13ifvqglg","pricing_plan_id":"cebpf4jnsgd1na2vs0mg"},{"bike_id":"1284c9e6-3dd0-400c-87a7-9c7072741a5d","system_id":"levelo_inurba_marseille","lat":43.21745,"lon":5.34606,"is_reserved":false,"is_disabled":false,"rental_uris":{"android":"levelo://app?vid=1284c9e6-3dd0-400c-87a7-9c7072741a5d","ios":"levelo://app?vid=1284c9e6-3dd0-400c-87a7-9c7072741a5d"},"vehicle_type_id":"4","last_reported":1760886508,"current_range_meters":17600,"station_id":"st_cvj6r9ubvosntc0bgbag","pricing_plan_id":"cebpf4jnsgd1na2vs0mg"},{"bike_id":"1e17cb86-7789-4fec-a2ba-ee494da3acd1","system_id":"levelo_inurba_marseille","lat":43.23154,"lon":5.43709,"is_reserved":false,"is_disabled":false,"rental_uris":{"android":"levelo://app?vid=1e17cb86-7789-4fec-a2ba-ee494da3acd1","ios":"levelo://app?vid=1e17cb86-7789-4fec-a2ba-ee494da3acd1"},"vehicle_type_id":"4","last_reported":1760886508,"current_range_meters":17600,"station_id":"ce4bhmp2rcd13ifvqgog","pricing_plan_id":"cebpf4jnsgd1na2vs0mg"},{"bike_id":"b4a704ec-81e7-409f-9d3b-9461943d3f91","system_id":"levelo_inurba_marseille","lat":43.21744,"lon":5.34604,"is_reserved":false,"is_disabled":false,"rental_uris":{"android":"levelo://app?vid=b4a704ec-81e7-409f-9d3b-9461943d3f91","ios":"levelo://app?vid=b4a704ec-81e7-409f-9d3b-9461943d3f91"},"vehicle_type_id":"4","last_reported":1760886508,"current_range_meters":17600,"station_id":"st_cvj6r9ubvosntc0bgbag","pricing_plan_id":"cebpf4jnsgd1na2vs0mg"},{"bike_id":"6f6a3fcd-cb83-4912-8ff9-9e91b30e2220","system_id":"levelo_inurba_marseille","lat":43.27901,"lon":5.3801,"is_reserved":false,"is_disabled":false,"rental_uris":{"android":"levelo://app?vid=6f6a3fcd-cb83-4912-8ff9-9e91b30e2220","ios":"levelo://app?vid=6f6a3fcd-cb83-4912-8ff9-9e91b30e2220"},"vehicle_type_id":"4","last_reported":1760886508,"current_range_meters":17600,"station_id":"ce4bhf92rcd13ifvqf50","pricing_plan_id":"cebpf4jnsgd1na2vs0mg"},{"bike_id":"c38d4779-18e1-43c4-a71d-5d81c3a33a62","system_id":"levelo_inurba_marseille","lat":43.29799,"lon":5.38179,"is_reserved":false,"is_disabled":true,"rental_uris":{"android":"levelo://app?vid=c38d4779-18e1-43c4-a71d-5d81c3a33a62","ios":"levelo://app?vid=c38d4779-18e1-43c4-a71d-5d81c3a33a62"},"vehicle_type_id":"4","last_reported":1760886508,"current_range_meters":17600,"station_id":"","pricing_plan_id":"cebpf4jnsgd1na2vs0mg"},{"bike_id":"2e7fa235-6378-4ac8-9620-87ac56f337a8","system_id":"levelo_inurba_marseille","lat":43.24623,"lon":5.38908,"is_reserved":false,"is_disabled":false,"rental_uris":{"android":"levelo://app?vid=2e7fa235-6378-4ac8-9620-87ac56f337a8","ios":"levelo://app?vid=2e7fa235-6378-4ac8-9620-87ac56f337a8"},"vehicle_type_id":"4","last_reported":1760886508,"current_range_meters":17600,"station_id":"ce4bhg12rcd13ifvqf60","pricing_plan_id":"cebpf4jnsgd1na2vs0mg"},{"bike_id":"da1b05cc-c073-4fee-9ee8-63f671581960","system_id":"levelo_inurba_marseille","lat":43.289851,"lon":5.381291,"is_reserved":false,"is_disabled":false,"rental_uris":{"android":"levelo://app?vid=da1b05cc-c073-4fee-9ee8-63f671581960","ios":"levelo://app?vid=da1b05cc-c073-4fee-9ee8-63f671581960"},"vehicle_type_id":"4","last_reported":1760886508,"current_range_meters":17600,"station_id":"ce4bh392rcd13ifvqdl0","pricing_plan_id":"cebpf4jnsgd1na2vs0mg"},{"bike_id":"1236dd92-6c26-4c5e-a3bd-e3b32ac97260","system_id":"levelo_inurba_marseille","lat":43.28919,"lon":5.38407,"is_reserved":false,"is_disabled":false,"rental_uris":{"android":"levelo://app?vid=1236dd92-6c26-4c5e-a3bd-e3b32ac97260","ios":"levelo://app?vid=1236dd92-6c26-4c5e-a3bd-e3b32ac97260"},"vehicle_type_id":"4","last_reported":1760886508,"current_range_meters":17600,"station_id":"ce4bh612rcd13ifvqe6g","pricing_plan_id":"cebpf4jnsgd1na2vs0mg"},{"bike_id":"d981e572-b0d2-44b5-8e00-44979aef3a94","system_id":"levelo_inurba_marseille","lat":43.25496,"lon":5.3765,"is_reserved":false,"is_disabled":false,"rental_uris":{"android":"levelo://app?vid=d981e572-b0d2-44b5-8e00-44979aef3a94","ios":"levelo://app?vid=d981e572-b0d2-44b5-8e00-44979aef3a94"},"vehicle_type_id":"4","last_reported":1760886508,"current_range_meters":18000,"station_id":"ce4bhh12rcd13ifvqff0","pricing_plan_id":"cebpf4jnsgd1na2vs0mg"},{"bike_id":"d6318f9e-0184-4ff6-931a-ee0c5a28c2b7","system_id":"levelo_inurba_marseille","lat":43.2318,"lon":5.35565,"is_reserved":false,"is_disabled":false,"rental_uris":{"android":"levelo://app?vid=d6318f9e-0184-4ff6-931a-ee0c5a28c2b7","ios":"levelo://app?vid=d6318f9e-0184-4ff6-931a-ee0c5a28c2b7"},"vehicle_type_id":"4","last_reported":1760886508,"current_range_meters":18000,"station_id":"ce4bhu92rcd13ifvqi70","pricing_plan_id":"cebpf4jnsgd1na2vs0mg"},{"bike_id":"6e8ed827-a6f7-46f1-ad28-2f0468b71691","system_id":"levelo_inurba_marseille","lat":43.32102,"lon":5.36787,"is_reserved":false,"is_disabled":true,"rental_uris":{"android":"levelo://app?vid=6e8ed827-a6f7-46f1-ad28-2f0468b71691","ios":"levelo://app?vid=6e8ed827-a6f7-46f1-ad28-2f0468b71691"},"vehicle_type_id":"4","last_reported":1760886508,"current_range_meters":18000,"station_id":"ce4bhrh2rcd13ifvqhug","pricing_plan_id":"cebpf4jnsgd1na2vs0mg"},{"bike_id":"f6bcfd0e-b247-4a30-9443-2755b83baa73","system_id":"levelo_inurba_marseille","lat":43.28169,"lon":5.42649,"is_reserved":false,"is_disabled":false,"rental_uris":{"android":"levelo://app?vid=f6bcfd0e-b247-4a30-9443-2755b83baa73","ios":"levelo://app?vid=f6bcfd0e-b247-4a30-9443-2755b83baa73"},"vehicle_type_id":"4","last_reported":1760886508,"current_range_meters":18000,"station_id":"ce4bhnh2rcd13ifvqgug","pricing_plan_id":"cebpf4jnsgd1na2vs0mg"},{"bike_id":"faa3e668-6719-4125-8206-72a0a37494c0","system_id":"levelo_inurba_marseille","lat":43.26947,"lon":5.40241,"is_reserved":false,"is_disabled":true,"rental_uris":{"android":"levelo://app?vid=faa3e668-6719-4125-8206-72a0a37494c0","ios":"levelo://app?vid=faa3e668-6719-4125-8206-72a0a37494c0"},"vehicle_type_id":"4","last_reported":1760886508,"current_range_meters":18000,"station_id":"cjm6bp8fraef2m0cb0m0","pricing_plan_id":"cebpf4jnsgd1na2vs0mg"},{"bike_id":"793bd619-12af-4bc1-a674-b70d86b415bd","system_id":"levelo_inurba_marseille","lat":43.331387,"lon":5.391298,"is_reserved":false,"is_disabled":false,"rental_uris":{"android":"levelo://app?vid=793bd619-12af-4bc1-a674-b70d86b415bd","ios":"levelo://app?vid=793bd619-12af-4bc1-a674-b70d86b415bd"},"vehicle_type_id":"4","last_reported":1760886508,"current_range_meters":18000,"station_id":"","pricing_plan_id":"cebpf4jnsgd1na2vs0mg"},{"bike_id":"4afd0828-00a3-406f-aa22-9949a2274f31","system_id":"levelo_inurba_marseille","lat":43.24398,"lon":5.37058,"is_reserved":false,"is_disabled":false,"rental_uris":{"android":"levelo://app?vid=4afd0828-00a3-406f-aa22-9949a2274f31","ios":"levelo://app?vid=4afd0828-00a3-406f-aa22-9949a2274f31"},"vehicle_type_id":"4","last_reported":1760886508,"current_range_meters":18800,"station_id":"ce4bhhh2rcd13ifvqfk0","pricing_plan_id":"cebpf4jnsgd1na2vs0mg"},{"bike_id":"edde1d0d-b737-4be9-9661-5c7818fc5829","system_id":"levelo_inurba_marseille","lat":43.29532,"lon":5.375,"is_reserved":false,"is_disabled":false,"rental_uris":{"android":"levelo://app?vid=edde1d0d-b737-4be9-9661-5c7818fc5829","ios":"levelo://app?vid=edde1d0d-b737-4be9-9661-5c7818fc5829"},"vehicle_type_id":"4","last_reported":1760886508,"current_range_meters":18800,"station_id":"ce4bgkp2rcd13ifvqbmg","pricing_plan_id":"cebpf4jnsgd1na2vs0mg"},{"bike_id":"6e749a81-5b32-4f83-be54-446f2d8a3e2e","system_id":"levelo_inurba_marseille","lat":43.2842,"lon":5.34973,"is_reserved":false,"is_disabled":true,"rental_uris":{"android":"levelo://app?vid=6e749a81-5b32-4f83-be54-446f2d8a3e2e","ios":"levelo://app?vid=6e749a81-5b32-4f83-be54-446f2d8a3e2e"},"vehicle_type_id":"4","last_reported":1760886508,"current_range_meters":18800,"station_id":"ce4bhbh2rcd13ifvqepg","pricing_plan_id":"cebpf4jnsgd1na2vs0mg"},{"bike_id":"81fee18c-da25-4715-ae44-9f4e3a7b4702","system_id":"levelo_inurba_marseille","lat":43.28405,"lon":5.3495,"is_reserved":false,"is_disabled":false,"rental_uris":{"android":"levelo://app?vid=81fee18c-da25-4715-ae44-9f4e3a7b4702","ios":"levelo://app?vid=81fee18c-da25-4715-ae44-9f4e3a7b4702"},"vehicle_type_id":"4","last_reported":1760886508,"current_range_meters":18800,"station_id":"","pricing_plan_id":"cebpf4jnsgd1na2vs0mg"},{"bike_id":"4e7029f4-c634-415c-9f5c-e4be89b03f9d","system_id":"levelo_inurba_marseille","lat":43.29274,"lon":5.40115,"is_reserved":false,"is_disabled":false,"rental_uris":{"android":"levelo://app?vid=4e7029f4-c634-415c-9f5c-e4be89b03f9d","ios":"levelo://app?vid=4e7029f4-c634-415c-9f5c-e4be89b03f9d"},"vehicle_type_id":"4","last_reported":1760886508,"current_range_meters":18800,"station_id":"ce4bh312rcd13ifvqdk0","pricing_plan_id":"cebpf4jnsgd1na2vs0mg"},{"bike_id":"5767cc7b-e609-46b6-a9f9-bb84446076db","system_id":"levelo_inurba_marseille","lat":43.28427,"lon":5.34995,"is_reserved":false,"is_disabled":true,"rental_uris":{"android":"levelo://app?vid=5767cc7b-e609-46b6-a9f9-bb84446076db","ios":"levelo://app?vid=5767cc7b-e609-46b6-a9f9-bb84446076db"},"vehicle_type_id":"4","last_reported":1760886508,"current_range_meters":18800,"station_id":"ce4bhbh2rcd13ifvqepg","pricing_plan_id":"cebpf4jnsgd1na2vs0mg"},{"bike_id":"2e2c080b-b765-4134-827e-40a9326db3d4","system_id":"levelo_inurba_marseille","lat":43.27954,"lon":5.38723,"is_reserved":false,"is_disabled":false,"rental_uris":{"android":"levelo://app?vid=2e2c080b-b765-4134-827e-40a9326db3d4","ios":"levelo://app?vid=2e2c080b-b765-4134-827e-40a9326db3d4"},"vehicle_type_id":"4","last_reported":1760886508,"current_range_meters":18800,"station_id":"ce4bhg12rcd13ifvqf80","pricing_plan_id":"cebpf4jnsgd1na2vs0mg"},{"bike_id":"61b1ea90-dfa0-4484-b467-befc2da1c489","system_id":"levelo_inurba_marseille","lat":43.30501,"lon":5.367039,"is_reserved":false,"is_disabled":false,"rental_uris":{"android":"levelo://app?vid=61b1ea90-dfa0-4484-b467-befc2da1c489","ios":"levelo://app?vid=61b1ea90-dfa0-4484-b467-befc2da1c489"},"vehicle_type_id":"4","last_reported":1760886508,"current_range_meters":18800,"station_id":"ce4bgs12rcd13ifvqcag","pricing_plan_id":"cebpf4jnsgd1na2vs0mg"},{"bike_id":"c661d29a-4d33-4205-a8dc-f5b8b5764d76","system_id":"levelo_inurba_marseille","lat":43.292262,"lon":5.360099,"is_reserved":false,"is_disabled":false,"rental_uris":{"android":"levelo://app?vid=c661d29a-4d33-4205-a8dc-f5b8b5764d76","ios":"levelo://app?vid=c661d29a-4d33-4205-a8dc-f5b8b5764d76"},"vehicle_type_id":"4","last_reported":1760886508,"current_range_meters":18800,"station_id":"ce4bhb92rcd13ifvqen0","pricing_plan_id":"cebpf4jnsgd1na2vs0mg"},{"bike_id":"44def8bb-fc22-46bb-a308-b8e670ec5dfd","system_id":"levelo_inurba_marseille","lat":43.30131,"lon":5.37428,"is_reserved":false,"is_disabled":true,"rental_uris":{"android":"levelo://app?vid=44def8bb-fc22-46bb-a308-b8e670ec5dfd","ios":"levelo://app?vid=44def8bb-fc22-46bb-a308-b8e670ec5dfd"},"vehicle_type_id":"4","last_reported":1760886508,"current_range_meters":18800,"station_id":"ce4bgs92rcd13ifvqcc0","pricing_plan_id":"cebpf4jnsgd1na2vs0mg"},{"bike_id":"b7fad9ed-ce55-43f4-800b-68ecfae1b03c","system_id":"levelo_inurba_marseille","lat":43.28073,"lon":5.39664,"is_reserved":false,"is_disabled":false,"rental_uris":{"android":"levelo://app?vid=b7fad9ed-ce55-43f4-800b-68ecfae1b03c","ios":"levelo://app?vid=b7fad9ed-ce55-43f4-800b-68ecfae1b03c"},"vehicle_type_id":"4","last_reported":1760886508,"current_range_meters":18800,"station_id":"ce4bho12rcd13ifvqh2g","pricing_plan_id":"cebpf4jnsgd1na2vs0mg"},{"bike_id":"1ebdec84-ada6-4b3d-a421-2e4faed1dea2","system_id":"levelo_inurba_marseille","lat":43.21745,"lon":5.34605,"is_reserved":false,"is_disabled":false,"rental_uris":{"android":"levelo://app?vid=1ebdec84-ada6-4b3d-a421-2e4faed1dea2","ios":"levelo://app?vid=1ebdec84-ada6-4b3d-a421-2e4faed1dea2"},"vehicle_type_id":"4","last_reported":1760886508,"current_range_meters":18800,"station_id":"st_cvj6r9ubvosntc0bgbag","pricing_plan_id":"cebpf4jnsgd1na2vs0mg"},{"bike_id":"4d1f607c-56a6-44a9-a24d-721a00844c6d","system_id":"levelo_inurba_marseille","lat":43.24996,"lon":5.38932,"is_reserved":false,"is_disabled":false,"rental_uris":{"android":"levelo://app?vid=4d1f607c-56a6-44a9-a24d-721a00844c6d","ios":"levelo://app?vid=4d1f607c-56a6-44a9-a24d-721a00844c6d"},"vehicle_type_id":"4","last_reported":1760886508,"current_range_meters":19200,"station_id":"ce4bhgp2rcd13ifvqfd0","pricing_plan_id":"cebpf4jnsgd1na2vs0mg"},{"bike_id":"06c84d1b-6e81-4ab2-ab43-e166647822bc","system_id":"levelo_inurba_marseille","lat":43.289307,"lon":5.368482,"is_reserved":false,"is_disabled":false,"rental_uris":{"android":"levelo://app?vid=06c84d1b-6e81-4ab2-ab43-e166647822bc","ios":"levelo://app?vid=06c84d1b-6e81-4ab2-ab43-e166647822bc"},"vehicle_type_id":"4","last_reported":1760886508,"current_range_meters":19200,"station_id":"","pricing_plan_id":"cebpf4jnsgd1na2vs0mg"},{"bike_id":"490c187a-0098-44bd-9010-902ebf6f6ea9","system_id":"levelo_inurba_marseille","lat":43.28268,"lon":5.35072,"is_reserved":false,"is_disabled":true,"rental_uris":{"android":"levelo://app?vid=490c187a-0098-44bd-9010-902ebf6f6ea9","ios":"levelo://app?vid=490c187a-0098-44bd-9010-902ebf6f6ea9"},"vehicle_type_id":"4","last_reported":1760886508,"current_range_meters":19200,"station_id":"ce4bhbp2rcd13ifvqerg","pricing_plan_id":"cebpf4jnsgd1na2vs0mg"},{"bike_id":"239fc625-c459-40bf-b021-41dbfe58f972","system_id":"levelo_inurba_marseille","lat":43.25324,"lon":5.4217,"is_reserved":false,"is_disabled":false,"rental_uris":{"android":"levelo://app?vid=239fc625-c459-40bf-b021-41dbfe58f972","ios":"levelo://app?vid=239fc625-c459-40bf-b021-41dbfe58f972"},"vehicle_type_id":"4","last_reported":1760886508,"current_range_meters":19200,"station_id":"st_d2m65c5bi1j21697t3ng","pricing_plan_id":"cebpf4jnsgd1na2vs0mg"},{"bike_id":"6586f497-2c49-492b-b690-0670b6312733","system_id":"levelo_inurba_marseille","lat":43.29035,"lon":5.37565,"is_reserved":false,"is_disabled":false,"rental_uris":{"android":"levelo://app?vid=6586f497-2c49-492b-b690-0670b6312733","ios":"levelo://app?vid=6586f497-2c49-492b-b690-0670b6312733"},"vehicle_type_id":"4","last_reported":1760886508,"current_range_meters":19200,"station_id":"ce4bh692rcd13ifvqe90","pricing_plan_id":"cebpf4jnsgd1na2vs0mg"},{"bike_id":"8758806c-a775-4e20-b8bd-1fb9bd76f1c5","system_id":"levelo_inurba_marseille","lat":43.296666,"lon":5.387036,"is_reserved":false,"is_disabled":false,"rental_uris":{"android":"levelo://app?vid=8758806c-a775-4e20-b8bd-1fb9bd76f1c5","ios":"levelo://app?vid=8758806c-a775-4e20-b8bd-1fb9bd76f1c5"},"vehicle_type_id":"4","last_reported":1760886508,"current_range_meters":19200,"station_id":"","pricing_plan_id":"cebpf4jnsgd1na2vs0mg"},{"bike_id":"41b8dbb3-55e8-4d34-9fd3-8f4a52d30a28","system_id":"levelo_inurba_marseille","lat":43.28472,"lon":5.38421,"is_reserved":false,"is_disabled":true,"rental_uris":{"android":"levelo://app?vid=41b8dbb3-55e8-4d34-9fd3-8f4a52d30a28","ios":"levelo://app?vid=41b8dbb3-55e8-4d34-9fd3-8f4a52d30a28"},"vehicle_type_id":"4","last_reported":1760886508,"current_range_meters":19600,"station_id":"","pricing_plan_id":"cebpf4jnsgd1na2vs0mg"},