{"last_updated":1715879227,"ttl":30,"version":"2.2","data":{"bikes":[{"bike_id":"2127adb7-25f0-4a28-b047-ff6ce30b8c5b","system_id":"levelo_inurba_marseille","lat":43.312239,"lon":5.368562,"is_reserved":false,"is_disabled":false,"rental_uris":{"android":"levelo://app?vid=2127adb7-25f0-4a28-b047-ff6ce30b8c5b","ios":"levelo://app?vid=2127adb7-25f0-4a28-b047-ff6ce30b8c5b"},"vehicle_type_id":"4","last_reported":1715879227,"current_range_meters":7200,"station_id":"ce4bgl92rcd13ifvqbq0","pricing_plan_id":"cebpf4jnsgd1na2vs0mg"},{"bike_id":"92b5b30e-5b82-43ce-9ec7-6b8977a866fe","system_id":"levelo_inurba_marseille","lat":43.313104,"lon":5.369662,"is_reserved":false,"is_disabled":false,"rental_uris":{"android":"levelo://app?vid=92b5b30e-5b82-43ce-9ec7-6b8977a866fe","ios":"levelo://app?vid=92b5b30e-5b82-43ce-9ec7-6b8977a866fe"},"vehicle_type_id":"4","last_reported":1715879227,"current_range_meters":0,"station_id":"","pricing_plan_id":"cebpf4jnsgd1na2vs0mg"},{"bike_id":"48bfd408-3eb0-4845-a644-c68f821e0d1b","system_id":"levelo_inurba_marseille","lat":43.30855,"lon":5.36626,"is_reserved":false,"is_disabled":false,"rental_uris":{"android":"levelo://app?vid=48bfd408-3eb0-4845-a644-c68f821e0d1b","ios":"levelo://app?vid=48bfd408-3eb0-4845-a644-c68f821e0d1b"},"vehicle_type_id":"4","last_reported":1715879227,"current_range_meters":8400,"station_id":"","pricing_plan_id":"cebpf4jnsgd1na2vs0mg"},{"bike_id":"a8c343c7-b260-49df-ab14-7abbc922e16e","system_id":"levelo_inurba_marseille","lat":43.312239,"lon":5.368562,"is_reserved":false,"is_disabled":false,"rental_uris":{"android":"levelo://app?vid=a8c343c7-b260-49df-ab14-7abbc922e16e","ios":"levelo://app?vid=a8c343c7-b260-49df-ab14-7abbc922e16e"},"vehicle_type_id":"4","last_reported":1715879227,"current_range_meters":400,"station_id":"ce4bgl92rcd13ifvqbq0","pricing_plan_id":"cebpf4jnsgd1na2vs0mg"},{"bike_id":"1e6b373b-cc58-49fc-ae62-91ba6bb25737","system_id":"levelo_inurba_marseille","lat":43.314811,"lon":5.373104,"is_reserved":false,"is_disabled":false,"rental_uris":{"android":"levelo://app?vid=1e6b373b-cc58-49fc-ae62-91ba6bb25737","ios":"levelo://app?vid=1e6b373b-cc58-49fc-ae62-91ba6bb25737"},"vehicle_type_id":"4","last_reported":1715879227,"current_range_meters":31600,"station_id":"ce4bgt12rcd13ifvqcd0","pricing_plan_id":"cebpf4jnsgd1na2vs0mg"},{"bike_id":"d4467a90-6fc1-4e9d-a9b8-3c90bc98c982","system_id":"levelo_inurba_marseille","lat":43.30546,"lon":5.36716,"is_reserved":false,"is_disabled":false,"rental_uris":{"android":"levelo://app?vid=d4467a90-6fc1-4e9d-a9b8-3c90bc98c982","ios":"levelo://app?vid=d4467a90-6fc1-4e9d-a9b8-3c90bc98c982"},"vehicle_type_id":"4","last_reported":1715879227,"current_range_meters":7200,"station_id":"ce4bgrp2rcd13ifvqc9g","pricing_plan_id":"cebpf4jnsgd1na2vs0mg"},{"bike_id":"a6f0f121-77b3-4668-a80e-ce1b78b809c9","system_id":"levelo_inurba_marseille","lat":43.305528,"lon":5.365398,"is_reserved":false,"is_disabled":false,"rental_uris":{"android":"levelo://app?vid=a6f0f121-77b3-4668-a80e-ce1b78b809c9","ios":"levelo://app?vid=a6f0f121-77b3-4668-a80e-ce1b78b809c9"},"vehicle_type_id":"4","last_reported":1715879227,"current_range_meters":0,"station_id":"ce4bgs12rcd13ifvqcag","pricing_plan_id":"cebpf4jnsgd1na2vs0mg"},{"bike_id":"88917a79-6f1e-4bf7-a684-4f41680412f6","system_id":"levelo_inurba_marseille","lat":43.305706,"lon":5.365654,"is_reserved":false,"is_disabled":false,"rental_uris":{"android":"levelo://app?vid=88917a79-6f1e-4bf7-a684-4f41680412f6","ios":"levelo://app?vid=88917a79-6f1e-4bf7-a684-4f41680412f6"},"vehicle_type_id":"4","last_reported":1715879227,"current_range_meters":1600,"station_id":"ce4bgs12rcd13ifvqcag","pricing_plan_id":"cebpf4jnsgd1na2vs0mg"},{"bike_id":"aa252ccc-2479-4a6e-90af-380abf8bc76f","system_id":"levelo_inurba_marseille","lat":43.305706,"lon":5.365654,"is_reserved":false,"is_disabled":false,"rental_uris":{"android":"levelo://app?vid=aa252ccc-2479-4a6e-90af-380abf8bc76f","ios":"levelo://app?vid=aa252ccc-2479-4a6e-90af-380abf8bc76f"},"vehicle_type_id":"4","last_reported":1715879227,"current_range_meters":12800,"station_id":"ce4bgs12rcd13ifvqcag","pricing_plan_id":"cebpf4jnsgd1na2vs0mg"},{"bike_id":"26ab4e7d-31ff-421e-9735-ffd4a0029a5f","system_id":"levelo_inurba_marseille","lat":43.305706,"lon":5.365654,"is_reserved":false,"is_disabled":false,"rental_uris":{"android":"levelo://app?vid=26ab4e7d-31ff-421e-9735-ffd4a0029a5f","ios":"levelo://app?vid=26ab4e7d-31ff-421e-9735-ffd4a0029a5f"},"vehicle_type_id":"4","last_reported":1715879227,"current_range_meters":5600,"station_id":"ce4bgs12rcd13ifvqcag","pricing_plan_id":"cebpf4jnsgd1na2vs0mg"},{"bike_id":"c39ea295-bbc4-41ad-8f44-471cbba61fc1","system_id":"levelo_inurba_marseille","lat":43.311131,"lon":5.377651,"is_reserved":false,"is_disabled":false,"rental_uris":{"android":"levelo://app?vid=c39ea295-bbc4-41ad-8f44-471cbba61fc1","ios":"levelo://app?vid=c39ea295-bbc4-41ad-8f44-471cbba61fc1"},"vehicle_type_id":"4","last_reported":1715879227,"current_range_meters":18400,"station_id":"ce4bgt92rcd13ifvqcg0","pricing_plan_id":"cebpf4jnsgd1na2vs0mg"},{"bike_id":"72f9985c-5509-4e6c-bf92-65235239da08","system_id":"levelo_inurba_marseille","lat":43.311131,"lon":5.377651,"is_reserved":false,"is_disabled":false,"rental_uris":{"android":"levelo://app?vid=72f9985c-5509-4e6c-bf92-65235239da08","ios":"levelo://app?vid=72f9985c-5509-4e6c-bf92-65235239da08"},"vehicle_type_id":"4","last_reported":1715879227,"current_range_meters":31200,"station_id":"ce4bgt92rcd13ifvqcg0","pricing_plan_id":"cebpf4jnsgd1na2vs0mg"},{"bike_id":"33226fe4-7434-4f75-9e91-177f0fb9cc73","system_id":"levelo_inurba_marseille","lat":43.311125,"lon":5.377624,"is_reserved":false,"is_disabled":false,"rental_uris":{"android":"levelo://app?vid=33226fe4-7434-4f75-9e91-177f0fb9cc73","ios":"levelo://app?vid=33226fe4-7434-4f75-9e91-177f0fb9cc73"},"vehicle_type_id":"4","last_reported":1715879227,"current_range_meters":0,"station_id":"ce4bgt92rcd13ifvqcg0","pricing_plan_id":"cebpf4jnsgd1na2vs0mg"},{"bike_id":"fbe936b5-85e6-44f4-b633-7490ef409bc7","system_id":"levelo_inurba_marseille","lat":43.307945,"lon":5.376487,"is_reserved":false,"is_disabled":false,"rental_uris":{"android":"levelo://app?vid=fbe936b5-85e6-44f4-b633-7490ef409bc7","ios":"levelo://app?vid=fbe936b5-85e6-44f4-b633-7490ef409bc7"},"vehicle_type_id":"4","last_reported":1715879227,"current_range_meters":6800,"station_id":"ce4bgv92rcd13ifvqcq0","pricing_plan_id":"cebpf4jnsgd1na2vs0mg"},{"bike_id":"5ee65dcc-cff0-4ea0-8803-3b462f932768","system_id":"levelo_inurba_marseille","lat":43.307945,"lon":5.376487,"is_reserved":false,"is_disabled":false,"rental_uris":{"android":"levelo://app?vid=5ee65dcc-cff0-4ea0-8803-3b462f932768","ios":"levelo://app?vid=5ee65dcc-cff0-4ea0-8803-3b462f932768"},"vehicle_type_id":"4","last_reported":1715879227,"current_range_meters":5200,"station_id":"ce4bgv92rcd13ifvqcq0","pricing_plan_id":"cebpf4jnsgd1na2vs0mg"},{"bike_id":"91d04fcb-1f56-4fc1-bd4e-dbad95a98d1b","system_id":"levelo_inurba_marseille","lat":43.317075,"lon":5.377367,"is_reserved":false,"is_disabled":false,"rental_uris":{"android":"levelo://app?vid=91d04fcb-1f56-4fc1-bd4e-dbad95a98d1b","ios":"levelo://app?vid=91d04fcb-1f56-4fc1-bd4e-dbad95a98d1b"},"vehicle_type_id":"4","last_reported":1715879227,"current_range_meters":4800,"station_id":"ce4bgth2rcd13ifvqch0","pricing_plan_id":"cebpf4jnsgd1na2vs0mg"},{"bike_id":"1bf092e1-dd37-4004-a624-8b67252dbef0","system_id":"levelo_inurba_marseille","lat":43.317075,"lon":5.377367,"is_reserved":false,"is_disabled":false,"rental_uris":{"android":"levelo://app?vid=1bf092e1-dd37-4004-a624-8b67252dbef0","ios":"levelo://app?vid=1bf092e1-dd37-4004-a624-8b67252dbef0"},"vehicle_type_id":"4","last_reported":1715879227,"current_range_meters":18000,"station_id":"ce4bgth2rcd13ifvqch0","pricing_plan_id":"cebpf4jnsgd1na2vs0mg"},{"bike_id":"cce47b49-7424-471a-8818-889f31b1930c","system_id":"levelo_inurba_marseille","lat":43.317075,"lon":5.377367,"is_reserved":false,"is_disabled":false,"rental_uris":{"android":"levelo://app?vid=cce47b49-7424-471a-8818-889f31b1930c","ios":"levelo://app?vid=cce47b49-7424-471a-8818-889f31b1930c"},"vehicle_type_id":"4","last_reported":1715879227,"current_range_meters":29200,"station_id":"ce4bgth2rcd13ifvqch0","pricing_plan_id":"cebpf4jnsgd1na2vs0mg"},{"bike_id":"f4ebfa8d-dcd7-4217-b75b-64ea656c6b10","system_id":"levelo_inurba_marseille","lat":43.317075,"lon":5.377367,"is_reserved":false,"is_disabled":false,"rental_uris":{"android":"levelo://app?vid=f4ebfa8d-dcd7-4217-b75b-64ea656c6b10","ios":"levelo://app?vid=f4ebfa8d-dcd7-4217-b75b-64ea656c6b10"},"vehicle_type_id":"4","last_reported":1715879227,"current_range_meters":26000,"station_id":"ce4bgth2rcd13ifvqch0","pricing_plan_id":"cebpf4jnsgd1na2vs0mg"},{"bike_id":"d2291324-10d5-484e-8058-c8eadaa8dc49","system_id":"levelo_inurba_marseille","lat":43.288497,"lon":5.393089,"is_reserved":false,"is_disabled":false,"rental_uris":{"android":"levelo://app?vid=d2291324-10d5-484e-8058-c8eadaa8dc49","ios":"levelo://app?vid=d2291324-10d5-484e-8058-c8eadaa8dc49"},"vehicle_type_id":"4","last_reported":1715879227,"current_range_meters":5200,"station_id":"ce4bh2p2rcd13ifvqdi0","pricing_plan_id":"cebpf4jnsgd1na2vs0mg"},{"bike_id":"0b5cb51a-6d56-4b4e-a298-c74b72131b85","system_id":"levelo_inurba_marseille","lat":43.301939,"lon":5.366286,"is_reserved":false,"is_disabled":false,"rental_uris":{"android":"levelo://app?vid=0b5cb51a-6d56-4b4e-a298-c74b72131b85","ios":"levelo://app?vid=0b5cb51a-6d56-4b4e-a298-c74b72131b85"},"vehicle_type_id":"4","last_reported":1715879227,"current_range_meters":7200,"station_id":"ce4bgrh2rcd13ifvqc8g","pricing_plan_id":"cebpf4jnsgd1na2vs0mg"},{"bike_id":"dc30181c-2a8b-4044-b456-d005d66cf9a1","system_id":"levelo_inurba_marseille","lat":43.301939,"lon":5.366286,"is_reserved":false,"is_disabled":false,"rental_uris":{"android":"levelo://app?vid=dc30181c-2a8b-4044-b456-d005d66cf9a1","ios":"levelo://app?vid=dc30181c-2a8b-4044-b456-d005d66cf9a1"},"vehicle_type_id":"4","last_reported":1715879227,"current_range_meters":10400,"station_id":"ce4bgrh2rcd13ifvqc8g","pricing_plan_id":"cebpf4jnsgd1na2vs0mg"},{"bike_id":"092c9fcc-8cd1-4059-939a-e3ee1d8448ee","system_id":"levelo_inurba_marseille","lat":43.301769,"lon":5.36617,"is_reserved":false,"is_disabled":false,"rental_uris":{"android":"levelo://app?vid=092c9fcc-8cd1-4059-939a-e3ee1d8448ee","ios":"levelo://app?vid=092c9fcc-8cd1-4059-939a-e3ee1d8448ee"},"vehicle_type_id":"4","last_reported":1715879227,"current_range_meters":0,"station_id":"ce4bgrh2rcd13ifvqc8g","pricing_plan_id":"cebpf4jnsgd1na2vs0mg"},{"bike_id":"b545e35a-5ebb-42a1-99f8-ed498b235ac8","system_id":"levelo_inurba_marseille","lat":43.307979,"lon":5.381547,"is_reserved":false,"is_disabled":false,"rental_uris":{"android":"levelo://app?vid=b545e35a-5ebb-42a1-99f8-ed498b235ac8","ios":"levelo://app?vid=b545e35a-5ebb-42a1-99f8-ed498b235ac8"},"vehicle_type_id":"4","last_reported":1715879227,"current_range_meters":0,"station_id":"ce4bgt12rcd13ifvqce0","pricing_plan_id":"cebpf4jnsgd1na2vs0mg"},{"bike_id":"a8fdee03-3aca-4a39-b3a1-f72d10d3c59d","system_id":"levelo_inurba_marseille","lat":43.304606,"lon":5.379026,"is_reserved":false,"is_disabled":false,"rental_uris":{"android":"levelo://app?vid=a8fdee03-3aca-4a39-b3a1-f72d10d3c59d","ios":"levelo://app?vid=a8fdee03-3aca-4a39-b3a1-f72d10d3c59d"},"vehicle_type_id":"4","last_reported":1715879227,"current_range_meters":0,"station_id":"ce4bgup2rcd13ifvqcn0","pricing_plan_id":"cebpf4jnsgd1na2vs0mg"},{"bike_id":"72c6fd8a-656f-4ee1-8dee-09e8e2a1ee7c","system_id":"levelo_inurba_marseille","lat":43.313571,"lon":5.384829,"is_reserved":false,"is_disabled":false,"rental_uris":{"android":"levelo://app?vid=72c6fd8a-656f-4ee1-8dee-09e8e2a1ee7c","ios":"levelo://app?vid=72c6fd8a-656f-4ee1-8dee-09e8e2a1ee7c"},"vehicle_type_id":"4","last_reported":1715879227,"current_range_meters":1600,"station_id":"ce4bgt92rcd13ifvqcf0","pricing_plan_id":"cebpf4jnsgd1na2vs0mg"},{"bike_id":"9a11686b-ee6c-49ad-92a8-dcb7fd327d59","system_id":"levelo_inurba_marseille","lat":43.324771,"lon":5.36557,"is_reserved":false,"is_disabled":false,"rental_uris":{"android":"levelo://app?vid=9a11686b-ee6c-49ad-92a8-dcb7fd327d59","ios":"levelo://app?vid=9a11686b-ee6c-49ad-92a8-dcb7fd327d59"},"vehicle_type_id":"4","last_reported":1715879227,"current_range_meters":30400,"station_id":"ce4bhs12rcd13ifvqhvg","pricing_plan_id":"cebpf4jnsgd1na2vs0mg"},{"bike_id":"1dc34fd3-5c10-4699-a06b-4a9bc187d6a8","system_id":"levelo_inurba_marseille","lat":43.324771,"lon":5.36557,"is_reserved":false,"is_disabled":false,"rental_uris":{"android":"levelo://app?vid=1dc34fd3-5c10-4699-a06b-4a9bc187d6a8","ios":"levelo://app?vid=1dc34fd3-5c10-4699-a06b-4a9bc187d6a8"},"vehicle_type_id":"4","last_reported":1715879227,"current_range_meters":2400,"station_id":"ce4bhs12rcd13ifvqhvg","pricing_plan_id":"cebpf4jnsgd1na2vs0mg"},{"bike_id":"0945930a-2524-4d33-8a57-2fab6d15fbfc","system_id":"levelo_inurba_marseille","lat":43.324771,"lon":5.36557,"is_reserved":false,"is_disabled":false,"rental_uris":{"android":"levelo://app?vid=0945930a-2524-4d33-8a57-2fab6d15fbfc","ios":"levelo://app?vid=0945930a-2524-4d33-8a57-2fab6d15fbfc"},"vehicle_type_id":"4","last_reported":1715879227,"current_range_meters":19200,"station_id":"ce4bhs12rcd13ifvqhvg","pricing_plan_id":"cebpf4jnsgd1na2vs0mg"},{"bike_id":"1d42bf85-5061-47f2-b60a-a2cf2ce294df","system_id":"levelo_inurba_marseille","lat":43.324771,"lon":5.36557,"is_reserved":false,"is_disabled":false,"rental_uris":{"android":"levelo://app?vid=1d42bf85-5061-47f2-b60a-a2cf2ce294df","ios":"levelo://app?vid=1d42bf85-5061-47f2-b60a-a2cf2ce294df"},"vehicle_type_id":"4","last_reported":1715879227,"current_range_meters":6400,"station_id":"ce4bhs12rcd13ifvqhvg","pricing_plan_id":"cebpf4jnsgd1na2vs0mg"},{"bike_id":"db4dca04-8b3f-44a9-83a9-97cdd5a43ffd","system_id":"levelo_inurba_marseille","lat":43.324771,"lon":5.36557,"is_reserved":false,"is_disabled":false,"rental_uris":{"android":"levelo://app?vid=db4dca04-8b3f-44a9-83a9-97cdd5a43ffd","ios":"levelo://app?vid=db4dca04-8b3f-44a9-83a9-97cdd5a43ffd"},"vehicle_type_id":"4","last_reported":1715879227,"current_range_meters":20400,"station_id":"ce4bhs12rcd13ifvqhvg","pricing_plan_id":"cebpf4jnsgd1na2vs0mg"},{"bike_id":"de363a9b-b8dd-4f25-97c4-05ca23eea0b0","system_id":"levelo_inurba_marseille","lat":43.324771,"lon":5.36557,"is_reserved":false,"is_disabled":false,"rental_uris":{"android":"levelo://app?vid=de363a9b-b8dd-4f25-97c4-05ca23eea0b0","ios":"levelo://app?vid=de363a9b-b8dd-4f25-97c4-05ca23eea0b0"},"vehicle_type_id":"4","last_reported":1715879227,"current_range_meters":9200,"station_id":"ce4bhs12rcd13ifvqhvg","pricing_plan_id":"cebpf4jnsgd1na2vs0mg"},{"bike_id":"d35e1ce2-5388-4d38-badd-f847684c7e50","system_id":"levelo_inurba_marseille","lat":43.324771,"lon":5.36557,"is_reserved":false,"is_disabled":false,"rental_uris":{"android":"levelo://app?vid=d35e1ce2-5388-4d38-badd-f847684c7e50","ios":"levelo://app?vid=d35e1ce2-5388-4d38-badd-f847684c7e50"},"vehicle_type_id":"4","last_reported":1715879227,"current_range_meters":14400,"station_id":"ce4bhs12rcd13ifvqhvg","pricing_plan_id":"cebpf4jnsgd1na2vs0mg"},{"bike_id":"adbb1178-8581-429f-a6cb-94e233b41a29","system_id":"levelo_inurba_marseille","lat":43.324771,"lon":5.36557,"is_reserved":false,"is_disabled":false,"rental_uris":{"android":"levelo://app?vid=adbb1178-8581-429f-a6cb-94e233b41a29","ios":"levelo://app?vid=adbb1178-8581-429f-a6cb-94e233b41a29"},"vehicle_type_id":"4","last_reported":1715879227,"current_range_meters":12400,"station_id":"ce4bhs12rcd13ifvqhvg","pricing_plan_id":"cebpf4jnsgd1na2vs0mg"},{"bike_id":"4068cb99-41b7-441a-a80a-0b66c675f515","system_id":"levelo_inurba_marseille","lat":43.32491,"lon":5.36562,"is_reserved":false,"is_disabled":false,"rental_uris":{"android":"levelo://app?vid=4068cb99-41b7-441a-a80a-0b66c675f515","ios":"levelo://app?vid=4068cb99-41b7-441a-a80a-0b66c675f515"},"vehicle_type_id":"4","last_reported":1715879227,"current_range_meters":3200,"station_id":"ce4bhs12rcd13ifvqhvg","pricing_plan_id":"cebpf4jnsgd1na2vs0mg"},{"bike_id":"4aaabbe7-1810-4f71-a7bf-ce6fbaddfc44","system_id":"levelo_inurba_marseille","lat":43.324952,"lon":5.36561,"is_reserved":false,"is_disabled":false,"rental_uris":{"android":"levelo://app?vid=4aaabbe7-1810-4f71-a7bf-ce6fbaddfc44","ios":"levelo://app?vid=4aaabbe7-1810-4f71-a7bf-ce6fbaddfc44"},"vehicle_type_id":"4","last_reported":1715879227,"current_range_meters":11200,"station_id":"ce4bhs12rcd13ifvqhvg","pricing_plan_id":"cebpf4jnsgd1na2vs0mg"},{"bike_id":"e245ccd4-0856-4d73-a3cf-57afd768164d","system_id":"levelo_inurba_marseille","lat":43.302784,"lon":5.377158,"is_reserved":false,"is_disabled":false,"rental_uris":{"android":"levelo://app?vid=e245ccd4-0856-4d73-a3cf-57afd768164d","ios":"levelo://app?vid=e245ccd4-0856-4d73-a3cf-57afd768164d"},"vehicle_type_id":"4","last_reported":1715879227,"current_range_meters":0,"station_id":"ce4bguh2rcd13ifvqcj0","pricing_plan_id":"cebpf4jnsgd1na2vs0mg"},{"bike_id":"2e628343-0ee8-4e12-9daf-0599b06ed690","system_id":"levelo_inurba_marseille","lat":43.31996,"lon":5.38147,"is_reserved":false,"is_disabled":false,"rental_uris":{"android":"levelo://app?vid=2e628343-0ee8-4e12-9daf-0599b06ed690","ios":"levelo://app?vid=2e628343-0ee8-4e12-9daf-0599b06ed690"},"vehicle_type_id":"4","last_reported":1715879227,"current_range_meters":26800,"station_id":"ce4bhr12rcd13ifvqhpg","pricing_plan_id":"cebpf4jnsgd1na2vs0mg"},{"bike_id":"63fa3d9b-c220-4f9c-bfcb-4f6b0aacb59e","system_id":"levelo_inurba_marseille","lat":43.319935,"lon":5.381699,"is_reserved":false,"is_disabled":false,"rental_uris":{"android":"levelo://app?vid=63fa3d9b-c220-4f9c-bfcb-4f6b0aacb59e","ios":"levelo://app?vid=63fa3d9b-c220-4f9c-bfcb-4f6b0aacb59e"},"vehicle_type_id":"4","last_reported":1715879227,"current_range_meters":20400,"station_id":"ce4bhr12rcd13ifvqhpg","pricing_plan_id":"cebpf4jnsgd1na2vs0mg"},{"bike_id":"da335ed9-3925-4ec8-b8ba-c774f6366d5f","system_id":"levelo_inurba_marseille","lat":43.319935,"lon":5.381699,"is_reserved":false,"is_disabled":false,"rental_uris":{"android":"levelo://app?vid=da335ed9-3925-4ec8-b8ba-c774f6366d5f","ios":"levelo://app?vid=da335ed9-3925-4ec8-b8ba-c774f6366d5f"},"vehicle_type_id":"4","last_reported":1715879227,"current_range_meters":17200,"station_id":"ce4bhr12rcd13ifvqhpg","pricing_plan_id":"cebpf4jnsgd1na2vs0mg"},{"bike_id":"963eea78-bbfd-4d67-a882-1a9ef04ba7a4","system_id":"levelo_inurba_marseille","lat":43.319935,"lon":5.381699,"is_reserved":false,"is_disabled":false,"rental_uris":{"android":"levelo://app?vid=963eea78-bbfd-4d67-a882-1a9ef04ba7a4","ios":"levelo://app?vid=963eea78-bbfd-4d67-a882-1a9ef04ba7a4"},"vehicle_type_id":"4","last_reported":1715879227,"current_range_meters":5200,"station_id":"ce4bhr12rcd13ifvqhpg","pricing_plan_id":"cebpf4jnsgd1na2vs0mg"},{"bike_id":"16258643-5f01-47a6-b9de-af3a643d8019","system_id":"levelo_inurba_marseille","lat":43.319935,"lon":5.381699,"is_reserved":false,"is_disabled":false,"rental_uris":{"android":"levelo://app?vid=16258643-5f01-47a6-b9de-af3a643d8019","ios":"levelo://app?vid=16258643-5f01-47a6-b9de-af3a643d8019"},"vehicle_type_id":"4","last_reported":1715879227,"current_range_meters":31200,"station_id":"ce4bhr12rcd13ifvqhpg","pricing_plan_id":"cebpf4jnsgd1na2vs0mg"},{"bike_id":"e43c108e-d7fa-47da-9c29-4ce8297d8550","system_id":"levelo_inurba_marseille","lat":43.31996,"lon":5.38155,"is_reserved":false,"is_disabled":false,"rental_uris":{"android":"levelo://app?vid=e43c108e-d7fa-47da-9c29-4ce8297d8550","ios":"levelo://app?vid=e43c108e-d7fa-47da-9c29-4ce8297d8550"},"vehicle_type_id":"4","last_reported":1715879227,"current_range_meters":29200,"station_id":"ce4bhr12rcd13ifvqhpg","pricing_plan_id":"cebpf4jnsgd1na2vs0mg"},{"bike_id":"aa324bb1-a6ce-4300-aff6-8eb1c1612623","system_id":"levelo_inurba_marseille","lat":43.319992,"lon":5.381527,"is_reserved":false,"is_disabled":false,"rental_uris":{"android":"levelo://app?vid=aa324bb1-a6ce-4300-aff6-8eb1c1612623","ios":"levelo://app?vid=aa324bb1-a6ce-4300-aff6-8eb1c1612623"},"vehicle_type_id":"4","last_reported":1715879227,"current_range_meters":27200,"station_id":"ce4bhr12rcd13ifvqhpg","pricing_plan_id":"cebpf4jnsgd1na2vs0mg"},{"bike_id":"fcc35bd3-2e4e-401f-9a67-acf099a843a2","system_id":"levelo_inurba_marseille","lat":43.319935,"lon":5.381699,"is_reserved":false,"is_disabled":false,"rental_uris":{"android":"levelo://app?vid=fcc35bd3-2e4e-401f-9a67-acf099a843a2","ios":"levelo://app?vid=fcc35bd3-2e4e-401f-9a67-acf099a843a2"},"vehicle_type_id":"4","last_reported":1715879227,"current_range_meters":20000,"station_id":"ce4bhr12rcd13ifvqhpg","pricing_plan_id":"cebpf4jnsgd1na2vs0mg"},{"bike_id":"56222d48-ec25-417e-99a9-cb88bcc969c6","system_id":"levelo_inurba_marseille","lat":43.319935,"lon":5.381699,"is_reserved":false,"is_disabled":false,"rental_uris":{"android":"levelo://app?vid=56222d48-ec25-417e-99a9-cb88bcc969c6","ios":"levelo://app?vid=56222d48-ec25-417e-99a9-cb88bcc969c6"},"vehicle_type_id":"4","last_reported":1715879227,"current_range_meters":29600,"station_id":"ce4bhr12rcd13ifvqhpg","pricing_plan_id":"cebpf4jnsgd1na2vs0mg"},{"bike_id":"efcfae8b-ca29-4146-bba0-87c243697fe3","system_id":"levelo_inurba_marseille","lat":43.319935,"lon":5.381699,"is_reserved":false,"is_disabled":false,"rental_uris":{"android":"levelo://app?vid=efcfae8b-ca29-4146-bba0-87c243697fe3","ios":"levelo://app?vid=efcfae8b-ca29-4146-bba0-87c243697fe3"},"vehicle_type_id":"4","last_reported":1715879227,"current_range_meters":8000,"station_id":"ce4bhr12rcd13ifvqhpg","pricing_plan_id":"cebpf4jnsgd1na2vs0mg"},{"bike_id":"4b447902-d89e-4200-a44f-54feca7f5fa4","system_id":"levelo_inurba_marseille","lat":43.313571,"lon":5.384829,"is_reserved":false,"is_disabled":false,"rental_uris":{"android":"levelo://app?vid=4b447902-d89e-4200-a44f-54feca7f5fa4","ios":"levelo://app?vid=4b447902-d89e-4200-a44f-54feca7f5fa4"},"vehicle_type_id":"4","last_reported":1715879227,"current_range_meters":15600,"station_id":"ce4bgt92rcd13ifvqcf0","pricing_plan_id":"cebpf4jnsgd1na2vs0mg"},{"bike_id":"9e12629e-247a-4130-b10a-013cd4a761d6","system_id":"levelo_inurba_marseille","lat":43.313571,"lon":5.384829,"is_reserved":false,"is_disabled":false,"rental_uris":{"android":"levelo://app?vid=9e12629e-247a-4130-b10a-013cd4a761d6","ios":"levelo://app?vid=9e12629e-247a-4130-b10a-013cd4a761d6"},"vehicle_type_id":"4","last_reported":1715879227,"current_range_meters":23600,"station_id":"ce4bgt92rcd13ifvqcf0","pricing_plan_id":"cebpf4jnsgd1na2vs0mg"},{"bike_id":"70099826-f4e3-4290-945a-f7ee612c8588","system_id":"levelo_inurba_marseille","lat":43.313571,"lon":5.384829,"is_reserved":false,"is_disabled":false,"rental_uris":{"android":"levelo://app?vid=70099826-f4e3-4290-945a-f7ee612c8588","ios":"levelo://app?vid=70099826-f4e3-4290-945a-f7ee612c8588"},"vehicle_type_id":"4","last_reported":1715879227,"current_range_meters":30400,"station_id":"ce4bgt92rcd13ifvqcf0","pricing_plan_id":"cebpf4jnsgd1na2vs0mg"},{"bike_id":"86e7ad0f-684a-49e0-8cc2-899992ec5f02","system_id":"levelo_inurba_marseille","lat":43.313571,"lon":5.384829,"is_reserved":false,"is_disabled":false,"rental_uris":{"android":"levelo://app?vid=86e7ad0f-684a-49e0-8cc2-899992ec5f02","ios":"levelo://app?vid=86e7ad0f-684a-49e0-8cc2-899992ec5f02"},"vehicle_type_id":"4","last_reported":1715879227,"current_range_meters":4800,"station_id":"ce4bgt92rcd13ifvqcf0","pricing_plan_id":"cebpf4jnsgd1na2vs0mg"},{"bike_id":"693d27a1-4544-483b-9c88-5a0be2d300a0","system_id":"levelo_inurba_marseille","lat":43.31357,"lon":5.38498,"is_reserved":false,"is_disabled":false,"rental_uris":{"android":"levelo://app?vid=693d27a1-4544-483b-9c88-5a0be2d300a0","ios":"levelo://app?vid=693d27a1-4544-483b-9c88-5a0be2d300a0"},"vehicle_type_id":"4","last_reported":1715879227,"current_range_meters":10000,"station_id":"ce4bgt92rcd13ifvqcf0","pricing_plan_id":"cebpf4jnsgd1na2vs0mg"},{"bike_id":"8ee9d25b-d9cc-4b71-b3cd-c0c45c4a56ea","system_id":"levelo_inurba_marseille","lat":43.313571,"lon":5.384829,"is_reserved":false,"is_disabled":false,"rental_uris":{"android":"levelo://app?vid=8ee9d25b-d9cc-4b71-b3cd-c0c45c4a56ea","ios":"levelo://app?vid=8ee9d25b-d9cc-4b71-b3cd-c0c45c4a56ea"},"vehicle_type_id":"4","last_reported":1715879227,"current_range_meters":2800,"station_id":"ce4bgt92rcd13ifvqcf0","pricing_plan_id":"cebpf4jnsgd1na2vs0mg"},{"bike_id":"9b687163-f21f-44fb-85e4-01e42729d4d2","system_id":"levelo_inurba_marseille","lat":43.31365,"lon":5.38503,"is_reserved":false,"is_disabled":false,"rental_uris":{"android":"levelo://app?vid=9b687163-f21f-44fb-85e4-01e42729d4d2","ios":"levelo://app?vid=9b687163-f21f-44fb-85e4-01e42729d4d2"},"vehicle_type_id":"4","last_reported":1715879227,"current_range_meters":23600,"station_id":"ce4bgt92rcd13ifvqcf0","pricing_plan_id":"cebpf4jnsgd1na2vs0mg"},{"bike_id":"59435f40-df14-4a75-b5d1-d9bd348f22eb","system_id":"levelo_inurba_marseille","lat":43.299724,"lon":5.371829,"is_reserved":false,"is_disabled":false,"rental_uris":{"android":"levelo://app?vid=59435f40-df14-4a75-b5d1-d9bd348f22eb","ios":"levelo://app?vid=59435f40-df14-4a75-b5d1-d9bd348f22eb"},"vehicle_type_id":"4","last_reported":1715879227,"current_range_meters":0,"station_id":"ce4bgr92rcd13ifvqc7g","pricing_plan_id":"cebpf4jnsgd1na2vs0mg"},{"bike_id":"43073de8-65f3-4ee8-b3a5-2b947b59f685","system_id":"levelo_inurba_marseille","lat":43.299724,"lon":5.371829,"is_reserved":false,"is_disabled":false,"rental_uris":{"android":"levelo://app?vid=43073de8-65f3-4ee8-b3a5-2b947b59f685","ios":"levelo://app?vid=43073de8-65f3-4ee8-b3a5-2b947b59f685"},"vehicle_type_id":"4","last_reported":1715879227,"current_range_meters":1600,"station_id":"ce4bgr92rcd13ifvqc7g","pricing_plan_id":"cebpf4jnsgd1na2vs0mg"},{"bike_id":"6c60cc7e-a780-4545-aa6a-2997ffb7ce0e","system_id":"levelo_inurba_marseille","lat":43.299435,"lon":5.365321,"is_reserved":false,"is_disabled":false,"rental_uris":{"android":"levelo://app?vid=6c60cc7e-a780-4545-aa6a-2997ffb7ce0e","ios":"levelo://app?vid=6c60cc7e-a780-4545-aa6a-2997ffb7ce0e"},"vehicle_type_id":"4","last_reported":1715879227,"current_range_meters":0,"station_id":"ce4bgm92rcd13ifvqbr0","pricing_plan_id":"cebpf4jnsgd1na2vs0mg"},{"bike_id":"a69bd496-99e4-4e77-a420-94161e18b85a","system_id":"levelo_inurba_marseille","lat":43.299724,"lon":5.371829,"is_reserved":false,"is_disabled":false,"rental_uris":{"android":"levelo://app?vid=a69bd496-99e4-4e77-a420-94161e18b85a","ios":"levelo://app?vid=a69bd496-99e4-4e77-a420-94161e18b85a"},"vehicle_type_id":"4","last_reported":1715879227,"current_range_meters":400,"station_id":"ce4bgr92rcd13ifvqc7g","pricing_plan_id":"cebpf4jnsgd1na2vs0mg"},{"bike_id":"5f70b902-a40a-4f8f-bbce-1d1e18dbafa0","system_id":"levelo_inurba_marseille","lat":43.299729,"lon":5.371811,"is_reserved":false,"is_disabled":false,"rental_uris":{"android":"levelo://app?vid=5f70b902-a40a-4f8f-bbce-1d1e18dbafa0","ios":"levelo://app?vid=5f70b902-a40a-4f8f-bbce-1d1e18dbafa0"},"vehicle_type_id":"4","last_reported":1715879227,"current_range_meters":0,"station_id":"ce4bgr92rcd13ifvqc7g","pricing_plan_id":"cebpf4jnsgd1na2vs0mg"},{"bike_id":"ce87d23d-a16d-43d0-82e0-5735898ca014","system_id":"levelo_inurba_marseille","lat":43.299222,"lon":5.365554,"is_reserved":false,"is_disabled":false,"rental_uris":{"android":"levelo://app?vid=ce87d23d-a16d-43d0-82e0-5735898ca014","ios":"levelo://app?vid=ce87d23d-a16d-43d0-82e0-5735898ca014"},"vehicle_type_id":"4","last_reported":1715879227,"current_range_meters":0,"station_id":"ce4bgm92rcd13ifvqbr0","pricing_plan_id":"cebpf4jnsgd1na2vs0mg"},{"bike_id":"0c4eb777-e5e3-4e3a-851d-89925a8a8d85","system_id":"levelo_inurba_marseille","lat":43.305364,"lon":5.384119,"is_reserved":false,"is_disabled":false,"rental_uris":{"android":"levelo://app?vid=0c4eb777-e5e3-4e3a-851d-89925a8a8d85","ios":"levelo://app?vid=0c4eb777-e5e3-4e3a-851d-89925a8a8d85"},"vehicle_type_id":"4","last_reported":1715879227,"current_range_meters":31200,"station_id":"ce4bgg92rcd13ifvqb30","pricing_plan_id":"cebpf4jnsgd1na2vs0mg"},{"bike_id":"a8420d12-5ea1-4553-ba77-74153419b9a1","system_id":"levelo_inurba_marseille","lat":43.305364,"lon":5.384119,"is_reserved":false,"is_disabled":false,"rental_uris":{"android":"levelo://app?vid=a8420d12-5ea1-4553-ba77-74153419b9a1","ios":"levelo://app?vid=a8420d12-5ea1-4553-ba77-74153419b9a1"},"vehicle_type_id":"4","last_reported":1715879227,"current_range_meters":29200,"station_id":"ce4bgg92rcd13ifvqb30","pricing_plan_id":"cebpf4jnsgd1na2vs0mg"},{"bike_id":"2b17b79d-01a4-4868-a808-29f91887e1e0","system_id":"levelo_inurba_marseille","lat":43.311722,"lon":5.387247,"is_reserved":false,"is_disabled":false,"rental_uris":{"android":"levelo://app?vid=2b17b79d-01a4-4868-a808-29f91887e1e0","ios":"levelo://app?vid=2b17b79d-01a4-4868-a808-29f91887e1e0"},"vehicle_type_id":"4","last_reported":1715879227,"current_range_meters":25600,"station_id":"ce4bgv12rcd13ifvqcp0","pricing_plan_id":"cebpf4jnsgd1na2vs0mg"},{"bike_id":"db7a6f2a-907b-44f7-84ca-0372ec2406b9","system_id":"levelo_inurba_marseille","lat":43.299243,"lon":5.374807,"is_reserved":false,"is_disabled":false,"rental_uris":{"android":"levelo://app?vid=db7a6f2a-907b-44f7-84ca-0372ec2406b9","ios":"levelo://app?vid=db7a6f2a-907b-44f7-84ca-0372ec2406b9"},"vehicle_type_id":"4","last_reported":1715879227,"current_range_meters":2000,"station_id":"ce4bgjh2rcd13ifvqbg0","pricing_plan_id":"cebpf4jnsgd1na2vs0mg"},{"bike_id":"02bb1ab3-a09e-4be9-b58a-2298567d4842","system_id":"levelo_inurba_marseille","lat":43.299243,"lon":5.37481,"is_reserved":false,"is_disabled":false,"rental_uris":{"android":"levelo://app?vid=02bb1ab3-a09e-4be9-b58a-2298567d4842","ios":"levelo://app?vid=02bb1ab3-a09e-4be9-b58a-2298567d4842"},"vehicle_type_id":"4","last_reported":1715879227,"current_range_meters":5600,"station_id":"ce4bgjh2rcd13ifvqbg0","pricing_plan_id":"cebpf4jnsgd1na2vs0mg"},{"bike_id":"6c759cc5-8c3b-4f32-9194-fd44f6e565b7","system_id":"levelo_inurba_marseille","lat":43.311722,"lon":5.387247,"is_reserved":false,"is_disabled":false,"rental_uris":{"android":"levelo://app?vid=6c759cc5-8c3b-4f32-9194-fd44f6e565b7","ios":"levelo://app?vid=6c759cc5-8c3b-4f32-9194-fd44f6e565b7"},"vehicle_type_id":"4","last_reported":1715879227,"current_range_meters":0,"station_id":"ce4bgv12rcd13ifvqcp0","pricing_plan_id":"cebpf4jnsgd1na2vs0mg"},{"bike_id":"2eea6abd-99d7-42c8-b18d-faf4b38ea8a2","system_id":"levelo_inurba_marseille","lat":43.297794,"lon":5.370888,"is_reserved":false,"is_disabled":false,"rental_uris":{"android":"levelo://app?vid=2eea6abd-99d7-42c8-b18d-faf4b38ea8a2","ios":"levelo://app?vid=2eea6abd-99d7-42c8-b18d-faf4b38ea8a2"},"vehicle_type_id":"4","last_reported":1715879227,"current_range_meters":1600,"station_id":"ce4bgop2rcd13ifvqc1g","pricing_plan_id":"cebpf4jnsgd1na2vs0mg"},{"bike_id":"bd288bc3-0bc4-43ea-92cd-06743755bc0c","system_id":"levelo_inurba_marseille","lat":43.297818,"lon":5.371185,"is_reserved":false,"is_disabled":false,"rental_uris":{"android":"levelo://app?vid=bd288bc3-0bc4-43ea-92cd-06743755bc0c","ios":"levelo://app?vid=bd288bc3-0bc4-43ea-92cd-06743755bc0c"},"vehicle_type_id":"4","last_reported":1715879227,"current_range_meters":0,"station_id":"ce4bgop2rcd13ifvqc1g","pricing_plan_id":"cebpf4jnsgd1na2vs0mg"},{"bike_id":"56815445-0f8a-4347-a24f-f005cddedae1","system_id":"levelo_inurba_marseille","lat":43.322872,"lon":5.382756,"is_reserved":false,"is_disabled":false,"rental_uris":{"android":"levelo://app?vid=56815445-0f8a-4347-a24f-f005cddedae1","ios":"levelo://app?vid=56815445-0f8a-4347-a24f-f005cddedae1"},"vehicle_type_id":"4","last_reported":1715879227,"current_range_meters":31200,"station_id":"ce4bhr12rcd13ifvqhqg","pricing_plan_id":"cebpf4jnsgd1na2vs0mg"},{"bike_id":"ec71f9b3-93d7-4884-beb9-35431f349aa5","system_id":"levelo_inurba_marseille","lat":43.297774,"lon":5.370875,"is_reserved":false,"is_disabled":false,"rental_uris":{"android":"levelo://app?vid=ec71f9b3-93d7-4884-beb9-35431f349aa5","ios":"levelo://app?vid=ec71f9b3-93d7-4884-beb9-35431f349aa5"},"vehicle_type_id":"4","last_reported":1715879227,"current_range_meters":18800,"station_id":"ce4bgop2rcd13ifvqc1g","pricing_plan_id":"cebpf4jnsgd1na2vs0mg"},{"bike_id":"1e471816-8c97-4c4e-9efa-19d83afd8033","system_id":"levelo_inurba_marseille","lat":43.322872,"lon":5.382756,"is_reserved":false,"is_disabled":false,"rental_uris":{"android":"levelo://app?vid=1e471816-8c97-4c4e-9efa-19d83afd8033","ios":"levelo://app?vid=1e471816-8c97-4c4e-9efa-19d83afd8033"},"vehicle_type_id":"4","last_reported":1715879227,"current_range_meters":8400,"station_id":"ce4bhr12rcd13ifvqhqg","pricing_plan_id":"cebpf4jnsgd1na2vs0mg"},{"bike_id":"d025c4fe-48a8-4249-83cf-d9e6596fb70b","system_id":"levelo_inurba_marseille","lat":43.322872,"lon":5.382756,"is_reserved":false,"is_disabled":false,"rental_uris":{"android":"levelo://app?vid=d025c4fe-48a8-4249-83cf-d9e6596fb70b","ios":"levelo://app?vid=d025c4fe-48a8-4249-83cf-d9e6596fb70b"},"vehicle_type_id":"4","last_reported":1715879227,"current_range_meters":31200,"station_id":"ce4bhr12rcd13ifvqhqg","pricing_plan_id":"cebpf4jnsgd1na2vs0mg"},{"bike_id":"b28bbc93-a0ec-4363-b9ba-c2f9ab71726a","system_id":"levelo_inurba_marseille","lat":43.322872,"lon":5.382756,"is_reserved":false,"is_disabled":false,"rental_uris":{"android":"levelo://app?vid=b28bbc93-a0ec-4363-b9ba-c2f9ab71726a","ios":"levelo://app?vid=b28bbc93-a0ec-4363-b9ba-c2f9ab71726a"},"vehicle_type_id":"4","last_reported":1715879227,"current_range_meters":2000,"station_id":"ce4bhr12rcd13ifvqhqg","pricing_plan_id":"cebpf4jnsgd1na2vs0mg"},{"bike_id":"58cd6106-4536-485e-a638-ca9259e6880e","system_id":"levelo_inurba_marseille","lat":43.322872,"lon":5.382756,"is_reserved":false,"is_disabled":false,"rental_uris":{"android":"levelo://app?vid=58cd6106-4536-485e-a638-ca9259e6880e","ios":"levelo://app?vid=58cd6106-4536-485e-a638-ca9259e6880e"},"vehicle_type_id":"4","last_reported":1715879227,"current_range_meters":26400,"station_id":"ce4bhr12rcd13ifvqhqg","pricing_plan_id":"cebpf4jnsgd1na2vs0mg"},{"bike_id":"ff2ded99-8cdd-4631-8011-938a6822c164","system_id":"levelo_inurba_marseille","lat":43.32291,"lon":5.38273,"is_reserved":false,"is_disabled":false,"rental_uris":{"android":"levelo://app?vid=ff2ded99-8cdd-4631-8011-938a6822c164","ios":"levelo://app?vid=ff2ded99-8cdd-4631-8011-938a6822c164"},"vehicle_type_id":"4","last_reported":1715879227,"current_range_meters":28800,"station_id":"ce4bhr12rcd13ifvqhqg","pricing_plan_id":"cebpf4jnsgd1na2vs0mg"},{"bike_id":"51832c95-b633-4811-a03a-b3431cd66a37","system_id":"levelo_inurba_marseille","lat":43.297163,"lon":5.365866,"is_reserved":false,"is_disabled":false,"rental_uris":{"android":"levelo://app?vid=51832c95-b633-4811-a03a-b3431cd66a37","ios":"levelo://app?vid=51832c95-b633-4811-a03a-b3431cd66a37"},"vehicle_type_id":"4","last_reported":1715879227,"current_range_meters":800,"station_id":"ce4bgn12rcd13ifvqbt0","pricing_plan_id":"cebpf4jnsgd1na2vs0mg"},{"bike_id":"278ca35d-3427-49b1-b983-1b7e07ef8bcc","system_id":"levelo_inurba_marseille","lat":43.297163,"lon":5.365866,"is_reserved":false,"is_disabled":false,"rental_uris":{"android":"levelo://app?vid=278ca35d-3427-49b1-b983-1b7e07ef8bcc","ios":"levelo://app?vid=278ca35d-3427-49b1-b983-1b7e07ef8bcc"},"vehicle_type_id":"4","last_reported":1715879227,"current_range_meters":0,"station_id":"ce4bgn12rcd13ifvqbt0","pricing_plan_id":"cebpf4jnsgd1na2vs0mg"},{"bike_id":"efe112a2-6da9-40f7-9dad-eaf8fb7b60da","system_id":"levelo_inurba_marseille","lat":43.273613,"lon":5.362705,"is_reserved":false,"is_disabled":false,"rental_uris":{"android":"levelo://app?vid=efe112a2-6da9-40f7-9dad-eaf8fb7b60da","ios":"levelo://app?vid=efe112a2-6da9-40f7-9dad-eaf8fb7b60da"},"vehicle_type_id":"4","last_reported":1715879227,"current_range_meters":20000,"station_id":"ce4bhbh2rcd13ifvqeo0","pricing_plan_id":"cebpf4jnsgd1na2vs0mg"},{"bike_id":"9874c87b-7989-4894-935b-3b4df414d044","system_id":"levelo_inurba_marseille","lat":43.30207,"lon":5.38352,"is_reserved":false,"is_disabled":false,"rental_uris":{"android":"levelo://app?vid=9874c87b-7989-4894-935b-3b4df414d044","ios":"levelo://app?vid=9874c87b-7989-4894-935b-3b4df414d044"},"vehicle_type_id":"4","last_reported":1715879227,"current_range_meters":16800,"station_id":"ce4bh2h2rcd13ifvqdh0","pricing_plan_id":"cebpf4jnsgd1na2vs0mg"},{"bike_id":"c33c28f4-fc74-4663-9306-2b2e123697c4","system_id":"levelo_inurba_marseille","lat":43.2968,"lon":5.37291,"is_reserved":false,"is_disabled":false,"rental_uris":{"android":"levelo://app?vid=c33c28f4-fc74-4663-9306-2b2e123697c4","ios":"levelo://app?vid=c33c28f4-fc74-4663-9306-2b2e123697c4"},"vehicle_type_id":"4","last_reported":1715879227,"current_range_meters":22000,"station_id":"ce4bgk12rcd13ifvqbj0","pricing_plan_id":"cebpf4jnsgd1na2vs0mg"},{"bike_id":"02ae2e59-80ee-410c-9e70-ca865a4aa82e","system_id":"levelo_inurba_marseille","lat":43.29573,"lon":5.367355,"is_reserved":false,"is_disabled":false,"rental_uris":{"android":"levelo://app?vid=02ae2e59-80ee-410c-9e70-ca865a4aa82e","ios":"levelo://app?vid=02ae2e59-80ee-410c-9e70-ca865a4aa82e"},"vehicle_type_id":"4","last_reported":1715879227,"current_range_meters":3600,"station_id":"ce4bgph2rcd13ifvqc2g","pricing_plan_id":"cebpf4jnsgd1na2vs0mg"},{"bike_id":"3e0104e3-cd4e-4345-be1a-4d9c8bf01e44","system_id":"levelo_inurba_marseille","lat":43.29627,"lon":5.371675,"is_reserved":false,"is_disabled":false,"rental_uris":{"android":"levelo://app?vid=3e0104e3-cd4e-4345-be1a-4d9c8bf01e44","ios":"levelo://app?vid=3e0104e3-cd4e-4345-be1a-4d9c8bf01e44"},"vehicle_type_id":"4","last_reported":1715879227,"current_range_meters":0,"station_id":"ce4bgnh2rcd13ifvqc0g","pricing_plan_id":"cebpf4jnsgd1na2vs0mg"},{"bike_id":"c8a6e03c-dcb7-4ee2-8848-6bc04979c632","system_id":"levelo_inurba_marseille","lat":43.29619,"lon":5.3717,"is_reserved":false,"is_disabled":false,"rental_uris":{"android":"levelo://app?vid=c8a6e03c-dcb7-4ee2-8848-6bc04979c632","ios":"levelo://app?vid=c8a6e03c-dcb7-4ee2-8848-6bc04979c632"},"vehicle_type_id":"4","last_reported":1715879227,"current_range_meters":0,"station_id":"ce4bgnh2rcd13ifvqc0g","pricing_plan_id":"cebpf4jnsgd1na2vs0mg"},{"bike_id":"11e4825e-73c1-4246-ad52-bf54ca6f8f57","system_id":"levelo_inurba_marseille","lat":43.29573,"lon":5.367355,"is_reserved":false,"is_disabled":false,"rental_uris":{"android":"levelo://app?vid=11e4825e-73c1-4246-ad52-bf54ca6f8f57","ios":"levelo://app?vid=11e4825e-73c1-4246-ad52-bf54ca6f8f57"},"vehicle_type_id":"4","last_reported":1715879227,"current_range_meters":20400,"station_id":"ce4bgph2rcd13ifvqc2g","pricing_plan_id":"cebpf4jnsgd1na2vs0mg"},{"bike_id":"3686942d-393f-4bcf-ad0d-79d8c85bd89c","system_id":"levelo_inurba_marseille","lat":43.297276,"lon":5.377037,"is_reserved":false,"is_disabled":false,"rental_uris":{"android":"levelo://app?vid=3686942d-393f-4bcf-ad0d-79d8c85bd89c","ios":"levelo://app?vid=3686942d-393f-4bcf-ad0d-79d8c85bd89c"},"vehicle_type_id":"4","last_reported":1715879227,"current_range_meters":0,"station_id":"ce4bgkh2rcd13ifvqbl0","pricing_plan_id":"cebpf4jnsgd1na2vs0mg"},{"bike_id":"72f01625-6124-4f7a-bedc-309347008539","system_id":"levelo_inurba_marseille","lat":43.29717,"lon":5.37695,"is_reserved":false,"is_disabled":false,"rental_uris":{"android":"levelo://app?vid=72f01625-6124-4f7a-bedc-309347008539","ios":"levelo://app?vid=72f01625-6124-4f7a-bedc-309347008539"},"vehicle_type_id":"4","last_reported":1715879227,"current_range_meters":0,"station_id":"ce4bgkh2rcd13ifvqbl0","pricing_plan_id":"cebpf4jnsgd1na2vs0mg"},{"bike_id":"e0b2f64e-a6be-4d02-afc8-28de34052567","system_id":"levelo_inurba_marseille","lat":43.297099,"lon":5.376859,"is_reserved":false,"is_disabled":false,"rental_uris":{"android":"levelo://app?vid=e0b2f64e-a6be-4d02-afc8-28de34052567","ios":"levelo://app?vid=e0b2f64e-a6be-4d02-afc8-28de34052567"},"vehicle_type_id":"4","last_reported":1715879227,"current_range_meters":0,"station_id":"ce4bgkh2rcd13ifvqbl0","pricing_plan_id":"cebpf4jnsgd1na2vs0mg"},{"bike_id":"40da408c-eb0f-4e1f-88d6-04014cd138fe","system_id":"levelo_inurba_marseille","lat":43.29617,"lon":5.36034,"is_reserved":false,"is_disabled":false,"rental_uris":{"android":"levelo://app?vid=40da408c-eb0f-4e1f-88d6-04014cd138fe","ios":"levelo://app?vid=40da408c-eb0f-4e1f-88d6-04014cd138fe"},"vehicle_type_id":"4","last_reported":1715879227,"current_range_meters":1200,"station_id":"","pricing_plan_id":"cebpf4jnsgd1na2vs0mg"},{"bike_id":"1c69f3f1-e7cf-4cf7-98ad-69a78c112c33","system_id":"levelo_inurba_marseille","lat":43.309589,"lon":5.390258,"is_reserved":false,"is_disabled":false,"rental_uris":{"android":"levelo://app?vid=1c69f3f1-e7cf-4cf7-98ad-69a78c112c33","ios":"levelo://app?vid=1c69f3f1-e7cf-4cf7-98ad-69a78c112c33"},"vehicle_type_id":"4","last_reported":1715879227,"current_range_meters":8000,"station_id":"ce4bgup2rcd13ifvqco0","pricing_plan_id":"cebpf4jnsgd1na2vs0mg"},{"bike_id":"e70592e1-fb21-4124-aa7d-9ace9fbae0a0","system_id":"levelo_inurba_marseille","lat":43.309589,"lon":5.390258,"is_reserved":false,"is_disabled":false,"rental_uris":{"android":"levelo://app?vid=e70592e1-fb21-4124-aa7d-9ace9fbae0a0","ios":"levelo://app?vid=e70592e1-fb21-4124-aa7d-9ace9fbae0a0"},"vehicle_type_id":"4","last_reported":1715879227,"current_range_meters":10400,"station_id":"ce4bgup2rcd13ifvqco0","pricing_plan_id":"cebpf4jnsgd1na2vs0mg"},{"bike_id":"75ce5d75-61ad-4a45-8dd7-5c86fde0e44a","system_id":"levelo_inurba_marseille","lat":43.309589,"lon":5.390258,"is_reserved":false,"is_disabled":false,"rental_uris":{"android":"levelo://app?vid=75ce5d75-61ad-4a45-8dd7-5c86fde0e44a","ios":"levelo://app?vid=75ce5d75-61ad-4a45-8dd7-5c86fde0e44a"},"vehicle_type_id":"4","last_reported":1715879227,"current_range_meters":14400,"station_id":"ce4bgup2rcd13ifvqco0","pricing_plan_id":"cebpf4jnsgd1na2vs0mg"},{"bike_id":"68551e1e-0d46-469c-82ba-725f92909457","system_id":"levelo_inurba_marseille","lat":43.296921,"lon":5.376579,"is_reserved":false,"is_disabled":false,"rental_uris":{"android":"levelo://app?vid=68551e1e-0d46-469c-82ba-725f92909457","ios":"levelo://app?vid=68551e1e-0d46-469c-82ba-725f92909457"},"vehicle_type_id":"4","last_reported":1715879227,"current_range_meters":4800,"station_id":"ce4bgkh2rcd13ifvqbl0","pricing_plan_id":"cebpf4jnsgd1na2vs0mg"},{"bike_id":"07825401-8d2b-42a7-ac90-6cb0d0b9fdff","system_id":"levelo_inurba_marseille","lat":43.317557,"lon":5.390173,"is_reserved":false,"is_disabled":false,"rental_uris":{"android":"levelo://app?vid=07825401-8d2b-42a7-ac90-6cb0d0b9fdff","ios":"levelo://app?vid=07825401-8d2b-42a7-ac90-6cb0d0b9fdff"},"vehicle_type_id":"4","last_reported":1715879227,"current_range_meters":30000,"station_id":"ce4bhqp2rcd13ifvqhng","pricing_plan_id":"cebpf4jnsgd1na2vs0mg"},{"bike_id":"e7eaf825-14ba-4029-bc23-d08aea77ae17","system_id":"levelo_inurba_marseille","lat":43.309589,"lon":5.390258,"is_reserved":false,"is_disabled":false,"rental_uris":{"android":"levelo://app?vid=e7eaf825-14ba-4029-bc23-d08aea77ae17","ios":"levelo://app?vid=e7eaf825-14ba-4029-bc23-d08aea77ae17"},"vehicle_type_id":"4","last_reported":1715879227,"current_range_meters":11200,"station_id":"ce4bgup2rcd13ifvqco0","pricing_plan_id":"cebpf4jnsgd1na2vs0mg"},{"bike_id":"b9f25fac-bd54-4c33-9ac0-60381de1bb32","system_id":"levelo_inurba_marseille","lat":43.309589,"lon":5.390258,"is_reserved":false,"is_disabled":false,"rental_uris":{"android":"levelo://app?vid=b9f25fac-bd54-4c33-9ac0-60381de1bb32","ios":"levelo://app?vid=b9f25fac-bd54-4c33-9ac0-60381de1bb32"},"vehicle_type_id":"4","last_reported":1715879227,"current_range_meters":12000,"station_id":"ce4bgup2rcd13ifvqco0","pricing_plan_id":"cebpf4jnsgd1na2vs0mg"},{"bike_id":"0446c020-d9eb-41b8-bf5c-531e18d2aaad","system_id":"levelo_inurba_marseille","lat":43.309589,"lon":5.390258,"is_reserved":false,"is_disabled":false,"rental_uris":{"android":"levelo://app?vid=0446c020-d9eb-41b8-bf5c-531e18d2aaad","ios":"levelo://app?vid=0446c020-d9eb-41b8-bf5c-531e18d2aaad"},"vehicle_type_id":"4","last_reported":1715879227,"current_range_meters":5600,"station_id":"ce4bgup2rcd13ifvqco0","pricing_plan_id":"cebpf4jnsgd1na2vs0mg"},{"bike_id":"002261be-df7c-443a-86c6-b0288c455c8f","system_id":"levelo_inurba_marseille","lat":43.317557,"lon":5.390173,"is_reserved":false,"is_disabled":false,"rental_uris":{"android":"levelo://app?vid=002261be-df7c-443a-86c6-b0288c455c8f","ios":"levelo://app?vid=002261be-df7c-443a-86c6-b0288c455c8f"},"vehicle_type_id":"4","last_reported":1715879227,"current_range_meters":28800,"station_id":"ce4bhqp2rcd13ifvqhng","pricing_plan_id":"cebpf4jnsgd1na2vs0mg"},{"bike_id":"e11cd21e-70cd-4f14-aa11-bcd32a944b8b","system_id":"levelo_inurba_marseille","lat":43.317591,"lon":5.390147,"is_reserved":false,"is_disabled":false,"rental_uris":{"android":"levelo://app?vid=e11cd21e-70cd-4f14-aa11-bcd32a944b8b","ios":"levelo://app?vid=e11cd21e-70cd-4f14-aa11-bcd32a944b8b"},"vehicle_type_id":"4","last_reported":1715879227,"current_range_meters":24800,"station_id":"ce4bhqp2rcd13ifvqhng","pricing_plan_id":"cebpf4jnsgd1na2vs0mg"},{"bike_id":"66c129ba-a5a0-4b49-bfff-11f4cf6db156","system_id":"levelo_inurba_marseille","lat":43.31761,"lon":5.39015,"is_reserved":false,"is_disabled":false,"rental_uris":{"android":"levelo://app?vid=66c129ba-a5a0-4b49-bfff-11f4cf6db156","ios":"levelo://app?vid=66c129ba-a5a0-4b49-bfff-11f4cf6db156"},"vehicle_type_id":"4","last_reported":1715879227,"current_range_meters":31200,"station_id":"ce4bhqp2rcd13ifvqhng","pricing_plan_id":"cebpf4jnsgd1na2vs0mg"},{"bike_id":"e437e9b9-5725-478d-b03f-d687624af374","system_id":"levelo_inurba_marseille","lat":43.31759,"lon":5.39016,"is_reserved":false,"is_disabled":false,"rental_uris":{"android":"levelo://app?vid=e437e9b9-5725-478d-b03f-d687624af374","ios":"levelo://app?vid=e437e9b9-5725-478d-b03f-d687624af374"},"vehicle_type_id":"4","last_reported":1715879227,"current_range_meters":10000,"station_id":"ce4bhqp2rcd13ifvqhng","pricing_plan_id":"cebpf4jnsgd1na2vs0mg"},{"bike_id":"2d2a99f1-3039-4f76-b63d-6b680f57123e","system_id":"levelo_inurba_marseille","lat":43.3176,"lon":5.39016,"is_reserved":false,"is_disabled":false,"rental_uris":{"android":"levelo://app?vid=2d2a99f1-3039-4f76-b63d-6b680f57123e","ios":"levelo://app?vid=2d2a99f1-3039-4f76-b63d-6b680f57123e"},"vehicle_type_id":"4","last_reported":1715879227,"current_range_meters":20400,"station_id":"ce4bhqp2rcd13ifvqhng","pricing_plan_id":"cebpf4jnsgd1na2vs0mg"},{"bike_id":"6464396a-b944-4e7d-89f5-f7e51a5b96a0","system_id":"levelo_inurba_marseille","lat":43.317521,"lon":5.390214,"is_reserved":false,"is_disabled":false,"rental_uris":{"android":"levelo://app?vid=6464396a-b944-4e7d-89f5-f7e51a5b96a0","ios":"levelo://app?vid=6464396a-b944-4e7d-89f5-f7e51a5b96a0"},"vehicle_type_id":"4","last_reported":1715879227,"current_range_meters":28400,"station_id":"ce4bhqp2rcd13ifvqhng","pricing_plan_id":"cebpf4jnsgd1na2vs0mg"},{"bike_id":"01c13e3a-9f2e-4361-8878-4995e9699e1d","system_id":"levelo_inurba_marseille","lat":43.317766,"lon":5.390481,"is_reserved":false,"is_disabled":false,"rental_uris":{"android":"levelo://app?vid=01c13e3a-9f2e-4361-8878-4995e9699e1d","ios":"levelo://app?vid=01c13e3a-9f2e-4361-8878-4995e9699e1d"},"vehicle_type_id":"4","last_reported":1715879227,"current_range_meters":19200,"station_id":"ce4bhqp2rcd13ifvqhng","pricing_plan_id":"cebpf4jnsgd1na2vs0mg"},{"bike_id":"c7d941ca-67a5-44a5-84a3-b4e908f25b12","system_id":"levelo_inurba_marseille","lat":43.296277,"lon":5.377108,"is_reserved":false,"is_disabled":false,"rental_uris":{"android":"levelo://app?vid=c7d941ca-67a5-44a5-84a3-b4e908f25b12","ios":"levelo://app?vid=c7d941ca-67a5-44a5-84a3-b4e908f25b12"},"vehicle_type_id":"4","last_reported":1715879227,"current_range_meters":14000,"station_id":"ce4bgi92rcd13ifvqb90","pricing_plan_id":"cebpf4jnsgd1na2vs0mg"},{"bike_id":"781ef05a-c25f-452d-b847-609d73007190","system_id":"levelo_inurba_marseille","lat":43.297881,"lon":5.380862,"is_reserved":false,"is_disabled":false,"rental_uris":{"android":"levelo://app?vid=781ef05a-c25f-452d-b847-609d73007190","ios":"levelo://app?vid=781ef05a-c25f-452d-b847-609d73007190"},"vehicle_type_id":"4","last_reported":1715879227,"current_range_meters":0,"station_id":"ce4bgip2rcd13ifvqbb0","pricing_plan_id":"cebpf4jnsgd1na2vs0mg"},{"bike_id":"89ed2274-a70a-48c6-90e5-bcbb2b72452b","system_id":"levelo_inurba_marseille","lat":43.297928,"lon":5.381053,"is_reserved":false,"is_disabled":false,"rental_uris":{"android":"levelo://app?vid=89ed2274-a70a-48c6-90e5-bcbb2b72452b","ios":"levelo://app?vid=89ed2274-a70a-48c6-90e5-bcbb2b72452b"},"vehicle_type_id":"4","last_reported":1715879227,"current_range_meters":0,"station_id":"ce4bgip2rcd13ifvqbb0","pricing_plan_id":"cebpf4jnsgd1na2vs0mg"},{"bike_id":"009a05a0-994f-431d-86c1-7d151622b6f2","system_id":"levelo_inurba_marseille","lat":43.296277,"lon":5.377108,"is_reserved":false,"is_disabled":false,"rental_uris":{"android":"levelo://app?vid=009a05a0-994f-431d-86c1-7d151622b6f2","ios":"levelo://app?vid=009a05a0-994f-431d-86c1-7d151622b6f2"},"vehicle_type_id":"4","last_reported":1715879227,"current_range_meters":6400,"station_id":"ce4bgi92rcd13ifvqb90","pricing_plan_id":"cebpf4jnsgd1na2vs0mg"},{"bike_id":"6db5f68e-92e9-4fb9-acb9-039d649ffda2","system_id":"levelo_inurba_marseille","lat":43.296277,"lon":5.377108,"is_reserved":false,"is_disabled":false,"rental_uris":{"android":"levelo://app?vid=6db5f68e-92e9-4fb9-acb9-039d649ffda2","ios":"levelo://app?vid=6db5f68e-92e9-4fb9-acb9-039d649ffda2"},"vehicle_type_id":"4","last_reported":1715879227,"current_range_meters":3200,"station_id":"ce4bgi92rcd13ifvqb90","pricing_plan_id":"cebpf4jnsgd1na2vs0mg"},{"bike_id":"e89f9252-9bf0-429b-8e70-ab310f75c95c","system_id":"levelo_inurba_marseille","lat":43.29973,"lon":5.38486,"is_reserved":false,"is_disabled":false,"rental_uris":{"android":"levelo://app?vid=e89f9252-9bf0-429b-8e70-ab310f75c95c","ios":"levelo://app?vid=e89f9252-9bf0-429b-8e70-ab310f75c95c"},"vehicle_type_id":"4","last_reported":1715879227,"current_range_meters":0,"station_id":"ce4bgj92rcd13ifvqbd0","pricing_plan_id":"cebpf4jnsgd1na2vs0mg"},{"bike_id":"e2c6048d-22b7-4d1e-9ed9-9ff84997766c","system_id":"levelo_inurba_marseille","lat":43.29523,"lon":5.375,"is_reserved":false,"is_disabled":false,"rental_uris":{"android":"levelo://app?vid=e2c6048d-22b7-4d1e-9ed9-9ff84997766c","ios":"levelo://app?vid=e2c6048d-22b7-4d1e-9ed9-9ff84997766c"},"vehicle_type_id":"4","last_reported":1715879227,"current_range_meters":0,"station_id":"ce4bgkp2rcd13ifvqbmg","pricing_plan_id":"cebpf4jnsgd1na2vs0mg"},{"bike_id":"acaf848c-7013-4ffc-99dd-e5cb969d8697","system_id":"levelo_inurba_marseille","lat":43.299883,"lon":5.385272,"is_reserved":false,"is_disabled":false,"rental_uris":{"android":"levelo://app?vid=acaf848c-7013-4ffc-99dd-e5cb969d8697","ios":"levelo://app?vid=acaf848c-7013-4ffc-99dd-e5cb969d8697"},"vehicle_type_id":"4","last_reported":1715879227,"current_range_meters":0,"station_id":"ce4bgnh2rcd13ifvqc0g","pricing_plan_id":"cebpf4jnsgd1na2vs0mg"},{"bike_id":"95612baf-317f-4e5e-a280-b77fa2900d4d","system_id":"levelo_inurba_marseille","lat":43.299724,"lon":5.384848,"is_reserved":false,"is_disabled":false,"rental_uris":{"android":"levelo://app?vid=95612baf-317f-4e5e-a280-b77fa2900d4d","ios":"levelo://app?vid=95612baf-317f-4e5e-a280-b77fa2900d4d"},"vehicle_type_id":"4","last_reported":1715879227,"current_range_meters":2000,"station_id":"ce4bgj92rcd13ifvqbd0","pricing_plan_id":"cebpf4jnsgd1na2vs0mg"},{"bike_id":"452d7bf9-c8f4-498b-a769-9dd523a69d62","system_id":"levelo_inurba_marseille","lat":43.231793,"lon":5.400044,"is_reserved":false,"is_disabled":false,"rental_uris":{"android":"levelo://app?vid=452d7bf9-c8f4-498b-a769-9dd523a69d62","ios":"levelo://app?vid=452d7bf9-c8f4-498b-a769-9dd523a69d62"},"vehicle_type_id":"4","last_reported":1715879227,"current_range_meters":2000,"station_id":"ce4bhn12rcd13ifvqgqg","pricing_plan_id":"cebpf4jnsgd1na2vs0mg"},{"bike_id":"8d3cb6c5-a99f-4284-b3ab-680f993bda5d","system_id":"levelo_inurba_marseille","lat":43.29992,"lon":5.38555,"is_reserved":false,"is_disabled":false,"rental_uris":{"android":"levelo://app?vid=8d3cb6c5-a99f-4284-b3ab-680f993bda5d","ios":"levelo://app?vid=8d3cb6c5-a99f-4284-b3ab-680f993bda5d"},"vehicle_type_id":"4","last_reported":1715879227,"current_range_meters":5600,"station_id":"","pricing_plan_id":"cebpf4jnsgd1na2vs0mg"},{"bike_id":"1714363d-4721-4693-b457-887770a196b9","system_id":"levelo_inurba_marseille","lat":43.32367,"lon":5.388836,"is_reserved":false,"is_disabled":false,"rental_uris":{"android":"levelo://app?vid=1714363d-4721-4693-b457-887770a196b9","ios":"levelo://app?vid=1714363d-4721-4693-b457-887770a196b9"},"vehicle_type_id":"4","last_reported":1715879227,"current_range_meters":15200,"station_id":"ce4bhqp2rcd13ifvqhog","pricing_plan_id":"cebpf4jnsgd1na2vs0mg"},{"bike_id":"6347cb0f-7023-4e04-9be6-524318e451f8","system_id":"levelo_inurba_marseille","lat":43.32367,"lon":5.388836,"is_reserved":false,"is_disabled":false,"rental_uris":{"android":"levelo://app?vid=6347cb0f-7023-4e04-9be6-524318e451f8","ios":"levelo://app?vid=6347cb0f-7023-4e04-9be6-524318e451f8"},"vehicle_type_id":"4","last_reported":1715879227,"current_range_meters":6800,"station_id":"ce4bhqp2rcd13ifvqhog","pricing_plan_id":"cebpf4jnsgd1na2vs0mg"},{"bike_id":"b7137aab-18d6-4130-a190-e5dc15464c67","system_id":"levelo_inurba_marseille","lat":43.296347,"lon":5.381104,"is_reserved":false,"is_disabled":false,"rental_uris":{"android":"levelo://app?vid=b7137aab-18d6-4130-a190-e5dc15464c67","ios":"levelo://app?vid=b7137aab-18d6-4130-a190-e5dc15464c67"},"vehicle_type_id":"4","last_reported":1715879227,"current_range_meters":0,"station_id":"ce4bgl12rcd13ifvqbo0","pricing_plan_id":"cebpf4jnsgd1na2vs0mg"},{"bike_id":"2df417fb-6033-4345-ae8b-bd16dc3ee931","system_id":"levelo_inurba_marseille","lat":43.29605,"lon":5.38102,"is_reserved":false,"is_disabled":false,"rental_uris":{"android":"levelo://app?vid=2df417fb-6033-4345-ae8b-bd16dc3ee931","ios":"levelo://app?vid=2df417fb-6033-4345-ae8b-bd16dc3ee931"},"vehicle_type_id":"4","last_reported":1715879227,"current_range_meters":0,"station_id":"ce4bgl12rcd13ifvqbo0","pricing_plan_id":"cebpf4jnsgd1na2vs0mg"},{"bike_id":"e8645a37-f77a-46ad-b400-28947e3c5aa5","system_id":"levelo_inurba_marseille","lat":43.296036,"lon":5.381042,"is_reserved":false,"is_disabled":false,"rental_uris":{"android":"levelo://app?vid=e8645a37-f77a-46ad-b400-28947e3c5aa5","ios":"levelo://app?vid=e8645a37-f77a-46ad-b400-28947e3c5aa5"},"vehicle_type_id":"4","last_reported":1715879227,"current_range_meters":16000,"station_id":"ce4bgl12rcd13ifvqbo0","pricing_plan_id":"cebpf4jnsgd1na2vs0mg"},{"bike_id":"f8215682-a29d-453d-bd55-fd7263869fff","system_id":"levelo_inurba_marseille","lat":43.29602,"lon":5.381084,"is_reserved":false,"is_disabled":false,"rental_uris":{"android":"levelo://app?vid=f8215682-a29d-453d-bd55-fd7263869fff","ios":"levelo://app?vid=f8215682-a29d-453d-bd55-fd7263869fff"},"vehicle_type_id":"4","last_reported":1715879227,"current_range_meters":0,"station_id":"ce4bgl12rcd13ifvqbo0","pricing_plan_id":"cebpf4jnsgd1na2vs0mg"},{"bike_id":"f31b87ff-4bc3-48a5-95ab-ea3fc05ea4ce","system_id":"levelo_inurba_marseille","lat":43.293096,"lon":5.371703,"is_reserved":false,"is_disabled":false,"rental_uris":{"android":"levelo://app?vid=f31b87ff-4bc3-48a5-95ab-ea3fc05ea4ce","ios":"levelo://app?vid=f31b87ff-4bc3-48a5-95ab-ea3fc05ea4ce"},"vehicle_type_id":"4","last_reported":1715879227,"current_range_meters":29200,"station_id":"ce4bgh92rcd13ifvqb40","pricing_plan_id":"cebpf4jnsgd1na2vs0mg"},{"bike_id":"adfa594e-1e06-45ee-9f11-efa61a7ed339","system_id":"levelo_inurba_marseille","lat":43.29279,"lon":5.36834,"is_reserved":false,"is_disabled":false,"rental_uris":{"android":"levelo://app?vid=adfa594e-1e06-45ee-9f11-efa61a7ed339","ios":"levelo://app?vid=adfa594e-1e06-45ee-9f11-efa61a7ed339"},"vehicle_type_id":"4","last_reported":1715879227,"current_range_meters":20800,"station_id":"ce4bhbh2rcd13ifvqeo0","pricing_plan_id":"cebpf4jnsgd1na2vs0mg"},{"bike_id":"1ff8dfc1-8075-428a-b7e4-8811be68101d","system_id":"levelo_inurba_marseille","lat":43.293009,"lon":5.374584,"is_reserved":false,"is_disabled":false,"rental_uris":{"android":"levelo://app?vid=1ff8dfc1-8075-428a-b7e4-8811be68101d","ios":"levelo://app?vid=1ff8dfc1-8075-428a-b7e4-8811be68101d"},"vehicle_type_id":"4","last_reported":1715879227,"current_range_meters":27600,"station_id":"ce4bgi12rcd13ifvqb70","pricing_plan_id":"cebpf4jnsgd1na2vs0mg"},{"bike_id":"cb43a597-a1db-44df-a9fc-35c07c63afff","system_id":"levelo_inurba_marseille","lat":43.305994,"lon":5.393687,"is_reserved":false,"is_disabled":false,"rental_uris":{"android":"levelo://app?vid=cb43a597-a1db-44df-a9fc-35c07c63afff","ios":"levelo://app?vid=cb43a597-a1db-44df-a9fc-35c07c63afff"},"vehicle_type_id":"4","last_reported":1715879227,"current_range_meters":12800,"station_id":"ce4bh0p2rcd13ifvqd80","pricing_plan_id":"cebpf4jnsgd1na2vs0mg"},{"bike_id":"1a1618ab-7a07-48d5-91a2-d09beda31611","system_id":"levelo_inurba_marseille","lat":43.305994,"lon":5.393687,"is_reserved":false,"is_disabled":false,"rental_uris":{"android":"levelo://app?vid=1a1618ab-7a07-48d5-91a2-d09beda31611","ios":"levelo://app?vid=1a1618ab-7a07-48d5-91a2-d09beda31611"},"vehicle_type_id":"4","last_reported":1715879227,"current_range_meters":7200,"station_id":"ce4bh0p2rcd13ifvqd80","pricing_plan_id":"cebpf4jnsgd1na2vs0mg"},{"bike_id":"56afce32-4e05-4054-88a4-b1690c66269d","system_id":"levelo_inurba_marseille","lat":43.29294,"lon":5.37459,"is_reserved":false,"is_disabled":false,"rental_uris":{"android":"levelo://app?vid=56afce32-4e05-4054-88a4-b1690c66269d","ios":"levelo://app?vid=56afce32-4e05-4054-88a4-b1690c66269d"},"vehicle_type_id":"4","last_reported":1715879227,"current_range_meters":15200,"station_id":"","pricing_plan_id":"cebpf4jnsgd1na2vs0mg"},{"bike_id":"b5bf0b69-cd15-4b2b-998a-63ceb2957ea0","system_id":"levelo_inurba_marseille","lat":43.298681,"lon":5.397225,"is_reserved":false,"is_disabled":false,"rental_uris":{"android":"levelo://app?vid=b5bf0b69-cd15-4b2b-998a-63ceb2957ea0","ios":"levelo://app?vid=b5bf0b69-cd15-4b2b-998a-63ceb2957ea0"},"vehicle_type_id":"4","last_reported":1715879227,"current_range_meters":16800,"station_id":"ce4bh0h2rcd13ifvqd50","pricing_plan_id":"cebpf4jnsgd1na2vs0mg"},{"bike_id":"f98a2859-23cf-46d4-858f-3f462b917109","system_id":"levelo_inurba_marseille","lat":43.2936,"lon":5.37835,"is_reserved":false,"is_disabled":false,"rental_uris":{"android":"levelo://app?vid=f98a2859-23cf-46d4-858f-3f462b917109","ios":"levelo://app?vid=f98a2859-23cf-46d4-858f-3f462b917109"},"vehicle_type_id":"4","last_reported":1715879227,"current_range_meters":27200,"station_id":"ce4bgjh2rcd13ifvqbf0","pricing_plan_id":"cebpf4jnsgd1na2vs0mg"},{"bike_id":"6c3d8d6f-2476-497a-bd6e-7874ecc7fc85","system_id":"levelo_inurba_marseille","lat":43.298877,"lon":5.388351,"is_reserved":false,"is_disabled":false,"rental_uris":{"android":"levelo://app?vid=6c3d8d6f-2476-497a-bd6e-7874ecc7fc85","ios":"levelo://app?vid=6c3d8d6f-2476-497a-bd6e-7874ecc7fc85"},"vehicle_type_id":"4","last_reported":1715879227,"current_range_meters":8800,"station_id":"","pricing_plan_id":"cebpf4jnsgd1na2vs0mg"},{"bike_id":"d256af47-a9ef-4a49-afd7-e6240c9f9657","system_id":"levelo_inurba_marseille","lat":43.30117,"lon":5.39091,"is_reserved":false,"is_disabled":false,"rental_uris":{"android":"levelo://app?vid=d256af47-a9ef-4a49-afd7-e6240c9f9657","ios":"levelo://app?vid=d256af47-a9ef-4a49-afd7-e6240c9f9657"},"vehicle_type_id":"4","last_reported":1715879227,"current_range_meters":1600,"station_id":"ce4bh192rcd13ifvqdb0","pricing_plan_id":"cebpf4jnsgd1na2vs0mg"},{"bike_id":"9e0d6be9-1087-45f7-87fa-8066ff40b19f","system_id":"levelo_inurba_marseille","lat":43.29226,"lon":5.360551,"is_reserved":false,"is_disabled":false,"rental_uris":{"android":"levelo://app?vid=9e0d6be9-1087-45f7-87fa-8066ff40b19f","ios":"levelo://app?vid=9e0d6be9-1087-45f7-87fa-8066ff40b19f"},"vehicle_type_id":"4","last_reported":1715879227,"current_range_meters":0,"station_id":"ce4bhbh2rcd13ifvqeqg","pricing_plan_id":"cebpf4jnsgd1na2vs0mg"},{"bike_id":"970727bb-f06f-4095-bb5f-42584d6f944f","system_id":"levelo_inurba_marseille","lat":43.292311,"lon":5.360731,"is_reserved":false,"is_disabled":false,"rental_uris":{"android":"levelo://app?vid=970727bb-f06f-4095-bb5f-42584d6f944f","ios":"levelo://app?vid=970727bb-f06f-4095-bb5f-42584d6f944f"},"vehicle_type_id":"4","last_reported":1715879227,"current_range_meters":12400,"station_id":"ce4bhbh2rcd13ifvqeqg","pricing_plan_id":"cebpf4jnsgd1na2vs0mg"},{"bike_id":"5849c6c0-601e-47fb-8963-75664ef43afb","system_id":"levelo_inurba_marseille","lat":43.29223,"lon":5.36058,"is_reserved":false,"is_disabled":false,"rental_uris":{"android":"levelo://app?vid=5849c6c0-601e-47fb-8963-75664ef43afb","ios":"levelo://app?vid=5849c6c0-601e-47fb-8963-75664ef43afb"},"vehicle_type_id":"4","last_reported":1715879227,"current_range_meters":0,"station_id":"ce4bhbh2rcd13ifvqeqg","pricing_plan_id":"cebpf4jnsgd1na2vs0mg"},{"bike_id":"c828c89a-8657-4259-b7b4-410ba17ef887","system_id":"levelo_inurba_marseille","lat":43.292311,"lon":5.360731,"is_reserved":false,"is_disabled":false,"rental_uris":{"android":"levelo://app?vid=c828c89a-8657-4259-b7b4-410ba17ef887","ios":"levelo://app?vid=c828c89a-8657-4259-b7b4-410ba17ef887"},"vehicle_type_id":"4","last_reported":1715879227,"current_range_meters":0,"station_id":"ce4bhbh2rcd13ifvqeqg","pricing_plan_id":"cebpf4jnsgd1na2vs0mg"},{"bike_id":"9fa9a8e9-bff6-46b8-85e5-983f2a06ae3e","system_id":"levelo_inurba_marseille","lat":43.292311,"lon":5.360731,"is_reserved":false,"is_disabled":false,"rental_uris":{"android":"levelo://app?vid=9fa9a8e9-bff6-46b8-85e5-983f2a06ae3e","ios":"levelo://app?vid=9fa9a8e9-bff6-46b8-85e5-983f2a06ae3e"},"vehicle_type_id":"4","last_reported":1715879227,"current_range_meters":21600,"station_id":"ce4bhbh2rcd13ifvqeqg","pricing_plan_id":"cebpf4jnsgd1na2vs0mg"},{"bike_id":"a4a466a5-de35-43b3-bf0b-6cc7bca466a4","system_id":"levelo_inurba_marseille","lat":43.298764,"lon":5.388973,"is_reserved":false,"is_disabled":false,"rental_uris":{"android":"levelo://app?vid=a4a466a5-de35-43b3-bf0b-6cc7bca466a4","ios":"levelo://app?vid=a4a466a5-de35-43b3-bf0b-6cc7bca466a4"},"vehicle_type_id":"4","last_reported":1715879227,"current_range_meters":0,"station_id":"ce4bh392rcd13ifvqdl0","pricing_plan_id":"cebpf4jnsgd1na2vs0mg"},{"bike_id":"0d36c4b0-1460-4d5e-996d-9a6e278e0a85","system_id":"levelo_inurba_marseille","lat":43.291675,"lon":5.371583,"is_reserved":false,"is_disabled":false,"rental_uris":{"android":"levelo://app?vid=0d36c4b0-1460-4d5e-996d-9a6e278e0a85","ios":"levelo://app?vid=0d36c4b0-1460-4d5e-996d-9a6e278e0a85"},"vehicle_type_id":"4","last_reported":1715879227,"current_range_meters":11600,"station_id":"ce4bha92rcd13ifvqeh0","pricing_plan_id":"cebpf4jnsgd1na2vs0mg"},{"bike_id":"7f422619-545e-4076-bab3-6c31c2981667","system_id":"levelo_inurba_marseille","lat":43.291671,"lon":5.371575,"is_reserved":false,"is_disabled":false,"rental_uris":{"android":"levelo://app?vid=7f422619-545e-4076-bab3-6c31c2981667","ios":"levelo://app?vid=7f422619-545e-4076-bab3-6c31c2981667"},"vehicle_type_id":"4","last_reported":1715879227,"current_range_meters":19600,"station_id":"ce4bha92rcd13ifvqeh0","pricing_plan_id":"cebpf4jnsgd1na2vs0mg"},{"bike_id":"13a66164-e772-4f9e-b578-71c9271cc312","system_id":"levelo_inurba_marseille","lat":43.291675,"lon":5.371583,"is_reserved":false,"is_disabled":false,"rental_uris":{"android":"levelo://app?vid=13a66164-e772-4f9e-b578-71c9271cc312","ios":"levelo://app?vid=13a66164-e772-4f9e-b578-71c9271cc312"},"vehicle_type_id":"4","last_reported":1715879227,"current_range_meters":4000,"station_id":"ce4bha92rcd13ifvqeh0","pricing_plan_id":"cebpf4jnsgd1na2vs0mg"},{"bike_id":"83ae44ba-6215-4208-85d2-374bf57f20e3","system_id":"levelo_inurba_marseille","lat":43.291994,"lon":5.357886,"is_reserved":false,"is_disabled":false,"rental_uris":{"android":"levelo://app?vid=83ae44ba-6215-4208-85d2-374bf57f20e3","ios":"levelo://app?vid=83ae44ba-6215-4208-85d2-374bf57f20e3"},"vehicle_type_id":"4","last_reported":1715879227,"current_range_meters":22400,"station_id":"ce4bhb12rcd13ifvqel0","pricing_plan_id":"cebpf4jnsgd1na2vs0mg"},{"bike_id":"1bb6a15c-9cde-44b6-816c-9889ed8f1d66","system_id":"levelo_inurba_marseille","lat":43.291994,"lon":5.357886,"is_reserved":false,"is_disabled":false,"rental_uris":{"android":"levelo://app?vid=1bb6a15c-9cde-44b6-816c-9889ed8f1d66","ios":"levelo://app?vid=1bb6a15c-9cde-44b6-816c-9889ed8f1d66"},"vehicle_type_id":"4","last_reported":1715879227,"current_range_meters":8000,"station_id":"ce4bhb12rcd13ifvqel0","pricing_plan_id":"cebpf4jnsgd1na2vs0mg"},{"bike_id":"a75b5110-ae4f-4e5a-972d-d514bf0140cf","system_id":"levelo_inurba_marseille","lat":43.309038,"lon":5.396546,"is_reserved":false,"is_disabled":false,"rental_uris":{"android":"levelo://app?vid=a75b5110-ae4f-4e5a-972d-d514bf0140cf","ios":"levelo://app?vid=a75b5110-ae4f-4e5a-972d-d514bf0140cf"},"vehicle_type_id":"4","last_reported":1715879227,"current_range_meters":5200,"station_id":"ce4bh012rcd13ifvqcv0","pricing_plan_id":"cebpf4jnsgd1na2vs0mg"},{"bike_id":"6c098b0e-1558-44a3-9569-a3b0fcd73230","system_id":"levelo_inurba_marseille","lat":43.292005,"lon":5.357875,"is_reserved":false,"is_disabled":false,"rental_uris":{"android":"levelo://app?vid=6c098b0e-1558-44a3-9569-a3b0fcd73230","ios":"levelo://app?vid=6c098b0e-1558-44a3-9569-a3b0fcd73230"},"vehicle_type_id":"4","last_reported":1715879227,"current_range_meters":1200,"station_id":"ce4bhb12rcd13ifvqel0","pricing_plan_id":"cebpf4jnsgd1na2vs0mg"},{"bike_id":"73f38b64-884f-4ed5-b0f5-d8206522738d","system_id":"levelo_inurba_marseille","lat":43.292005,"lon":5.357875,"is_reserved":false,"is_disabled":false,"rental_uris":{"android":"levelo://app?vid=73f38b64-884f-4ed5-b0f5-d8206522738d","ios":"levelo://app?vid=73f38b64-884f-4ed5-b0f5-d8206522738d"},"vehicle_type_id":"4","last_reported":1715879227,"current_range_meters":0,"station_id":"ce4bhb12rcd13ifvqel0","pricing_plan_id":"cebpf4jnsgd1na2vs0mg"},{"bike_id":"e5a36c12-b6b8-44f9-835b-39e849630521","system_id":"levelo_inurba_marseille","lat":43.291994,"lon":5.357886,"is_reserved":false,"is_disabled":false,"rental_uris":{"android":"levelo://app?vid=e5a36c12-b6b8-44f9-835b-39e849630521","ios":"levelo://app?vid=e5a36c12-b6b8-44f9-835b-39e849630521"},"vehicle_type_id":"4","last_reported":1715879227,"current_range_meters":19200,"station_id":"ce4bhb12rcd13ifvqel0","pricing_plan_id":"cebpf4jnsgd1na2vs0mg"},{"bike_id":"42699531-42fa-4089-8941-1959d7835bdb","system_id":"levelo_inurba_marseille","lat":43.292005,"lon":5.357875,"is_reserved":false,"is_disabled":false,"rental_uris":{"android":"levelo://app?vid=42699531-42fa-4089-8941-1959d7835bdb","ios":"levelo://app?vid=42699531-42fa-4089-8941-1959d7835bdb"},"vehicle_type_id":"4","last_reported":1715879227,"current_range_meters":800,"station_id":"ce4bhb12rcd13ifvqel0","pricing_plan_id":"cebpf4jnsgd1na2vs0mg"},{"bike_id":"85e48b62-b0e6-4cfb-8bf1-5e93b8f2c84e","system_id":"levelo_inurba_marseille","lat":43.291994,"lon":5.357886,"is_reserved":false,"is_disabled":false,"rental_uris":{"android":"levelo://app?vid=85e48b62-b0e6-4cfb-8bf1-5e93b8f2c84e","ios":"levelo://app?vid=85e48b62-b0e6-4cfb-8bf1-5e93b8f2c84e"},"vehicle_type_id":"4","last_reported":1715879227,"current_range_meters":22400,"station_id":"ce4bhb12rcd13ifvqel0","pricing_plan_id":"cebpf4jnsgd1na2vs0mg"},{"bike_id":"5ea7f91e-a860-4f3a-a5a1-f9077937b0de","system_id":"levelo_inurba_marseille","lat":43.313208,"lon":5.396861,"is_reserved":false,"is_disabled":false,"rental_uris":{"android":"levelo://app?vid=5ea7f91e-a860-4f3a-a5a1-f9077937b0de","ios":"levelo://app?vid=5ea7f91e-a860-4f3a-a5a1-f9077937b0de"},"vehicle_type_id":"4","last_reported":1715879227,"current_range_meters":18800,"station_id":"ce4bgvp2rcd13ifvqcu0","pricing_plan_id":"cebpf4jnsgd1na2vs0mg"},{"bike_id":"b01f9a57-34dd-44e6-9389-5a0e476d0709","system_id":"levelo_inurba_marseille","lat":43.292005,"lon":5.357875,"is_reserved":false,"is_disabled":false,"rental_uris":{"android":"levelo://app?vid=b01f9a57-34dd-44e6-9389-5a0e476d0709","ios":"levelo://app?vid=b01f9a57-34dd-44e6-9389-5a0e476d0709"},"vehicle_type_id":"4","last_reported":1715879227,"current_range_meters":17200,"station_id":"ce4bhb12rcd13ifvqel0","pricing_plan_id":"cebpf4jnsgd1na2vs0mg"},{"bike_id":"04819f80-8a4f-4dc2-a9f6-30fa1f9480bf","system_id":"levelo_inurba_marseille","lat":43.292005,"lon":5.357875,"is_reserved":false,"is_disabled":false,"rental_uris":{"android":"levelo://app?vid=04819f80-8a4f-4dc2-a9f6-30fa1f9480bf","ios":"levelo://app?vid=04819f80-8a4f-4dc2-a9f6-30fa1f9480bf"},"vehicle_type_id":"4","last_reported":1715879227,"current_range_meters":19600,"station_id":"ce4bhb12rcd13ifvqel0","pricing_plan_id":"cebpf4jnsgd1na2vs0mg"},{"bike_id":"6d71357b-f5d6-4f92-9b69-fcb0b0509795","system_id":"levelo_inurba_marseille","lat":43.313291,"lon":5.396838,"is_reserved":false,"is_disabled":false,"rental_uris":{"android":"levelo://app?vid=6d71357b-f5d6-4f92-9b69-fcb0b0509795","ios":"levelo://app?vid=6d71357b-f5d6-4f92-9b69-fcb0b0509795"},"vehicle_type_id":"4","last_reported":1715879227,"current_range_meters":5200,"station_id":"ce4bgvp2rcd13ifvqcu0","pricing_plan_id":"cebpf4jnsgd1na2vs0mg"},{"bike_id":"e3c8177f-4dd5-4f55-b2ae-d14d7aa975b2","system_id":"levelo_inurba_marseille","lat":43.313291,"lon":5.396838,"is_reserved":false,"is_disabled":false,"rental_uris":{"android":"levelo://app?vid=e3c8177f-4dd5-4f55-b2ae-d14d7aa975b2","ios":"levelo://app?vid=e3c8177f-4dd5-4f55-b2ae-d14d7aa975b2"},"vehicle_type_id":"4","last_reported":1715879227,"current_range_meters":2400,"station_id":"ce4bgvp2rcd13ifvqcu0","pricing_plan_id":"cebpf4jnsgd1na2vs0mg"},{"bike_id":"ceece5e7-5e37-4cea-8704-c057bd413d30","system_id":"levelo_inurba_marseille","lat":43.3133,"lon":5.396926,"is_reserved":false,"is_disabled":false,"rental_uris":{"android":"levelo://app?vid=ceece5e7-5e37-4cea-8704-c057bd413d30","ios":"levelo://app?vid=ceece5e7-5e37-4cea-8704-c057bd413d30"},"vehicle_type_id":"4","last_reported":1715879227,"current_range_meters":31200,"station_id":"ce4bgvp2rcd13ifvqcu0","pricing_plan_id":"cebpf4jnsgd1na2vs0mg"},{"bike_id":"0728076e-d194-48ed-93a8-b83ed45b506e","system_id":"levelo_inurba_marseille","lat":43.313291,"lon":5.396838,"is_reserved":false,"is_disabled":false,"rental_uris":{"android":"levelo://app?vid=0728076e-d194-48ed-93a8-b83ed45b506e","ios":"levelo://app?vid=0728076e-d194-48ed-93a8-b83ed45b506e"},"vehicle_type_id":"4","last_reported":1715879227,"current_range_meters":6800,"station_id":"ce4bgvp2rcd13ifvqcu0","pricing_plan_id":"cebpf4jnsgd1na2vs0mg"},{"bike_id":"2a7fc048-9c72-4473-9559-98e295fa5686","system_id":"levelo_inurba_marseille","lat":43.31333,"lon":5.39693,"is_reserved":false,"is_disabled":false,"rental_uris":{"android":"levelo://app?vid=2a7fc048-9c72-4473-9559-98e295fa5686","ios":"levelo://app?vid=2a7fc048-9c72-4473-9559-98e295fa5686"},"vehicle_type_id":"4","last_reported":1715879227,"current_range_meters":11600,"station_id":"ce4bgvp2rcd13ifvqcu0","pricing_plan_id":"cebpf4jnsgd1na2vs0mg"},{"bike_id":"56e22268-09d6-47e8-a0ad-2309729de38a","system_id":"levelo_inurba_marseille","lat":43.313291,"lon":5.396838,"is_reserved":false,"is_disabled":false,"rental_uris":{"android":"levelo://app?vid=56e22268-09d6-47e8-a0ad-2309729de38a","ios":"levelo://app?vid=56e22268-09d6-47e8-a0ad-2309729de38a"},"vehicle_type_id":"4","last_reported":1715879227,"current_range_meters":31600,"station_id":"ce4bgvp2rcd13ifvqcu0","pricing_plan_id":"cebpf4jnsgd1na2vs0mg"},{"bike_id":"0970927a-40be-4739-95c7-4d5f75096227","system_id":"levelo_inurba_marseille","lat":43.31323,"lon":5.397,"is_reserved":false,"is_disabled":false,"rental_uris":{"android":"levelo://app?vid=0970927a-40be-4739-95c7-4d5f75096227","ios":"levelo://app?vid=0970927a-40be-4739-95c7-4d5f75096227"},"vehicle_type_id":"4","last_reported":1715879227,"current_range_meters":9200,"station_id":"ce4bgvp2rcd13ifvqcu0","pricing_plan_id":"cebpf4jnsgd1na2vs0mg"},{"bike_id":"df100c08-ce76-4bf1-9867-a426636c8fa0","system_id":"levelo_inurba_marseille","lat":43.313291,"lon":5.396838,"is_reserved":false,"is_disabled":false,"rental_uris":{"android":"levelo://app?vid=df100c08-ce76-4bf1-9867-a426636c8fa0","ios":"levelo://app?vid=df100c08-ce76-4bf1-9867-a426636c8fa0"},"vehicle_type_id":"4","last_reported":1715879227,"current_range_meters":27200,"station_id":"ce4bgvp2rcd13ifvqcu0","pricing_plan_id":"cebpf4jnsgd1na2vs0mg"},{"bike_id":"7bd7febc-0d5a-4434-9a53-894acfb0008f","system_id":"levelo_inurba_marseille","lat":43.29529,"lon":5.385581,"is_reserved":false,"is_disabled":false,"rental_uris":{"android":"levelo://app?vid=7bd7febc-0d5a-4434-9a53-894acfb0008f","ios":"levelo://app?vid=7bd7febc-0d5a-4434-9a53-894acfb0008f"},"vehicle_type_id":"4","last_reported":1715879227,"current_range_meters":21200,"station_id":"ce4bgih2rcd13ifvqba0","pricing_plan_id":"cebpf4jnsgd1na2vs0mg"},{"bike_id":"f928cbb4-4cf2-4a14-abad-b02a93727eec","system_id":"levelo_inurba_marseille","lat":43.29535,"lon":5.38543,"is_reserved":false,"is_disabled":false,"rental_uris":{"android":"levelo://app?vid=f928cbb4-4cf2-4a14-abad-b02a93727eec","ios":"levelo://app?vid=f928cbb4-4cf2-4a14-abad-b02a93727eec"},"vehicle_type_id":"4","last_reported":1715879227,"current_range_meters":19200,"station_id":"ce4bgih2rcd13ifvqba0","pricing_plan_id":"cebpf4jnsgd1na2vs0mg"},{"bike_id":"34a5d07b-d38f-4531-99a1-47e93501d99c","system_id":"levelo_inurba_marseille","lat":43.295317,"lon":5.38539,"is_reserved":false,"is_disabled":false,"rental_uris":{"android":"levelo://app?vid=34a5d07b-d38f-4531-99a1-47e93501d99c","ios":"levelo://app?vid=34a5d07b-d38f-4531-99a1-47e93501d99c"},"vehicle_type_id":"4","last_reported":1715879227,"current_range_meters":0,"station_id":"ce4bgih2rcd13ifvqba0","pricing_plan_id":"cebpf4jnsgd1na2vs0mg"},{"bike_id":"af246ff8-f252-4ff1-b342-04af6bbdf7bc","system_id":"levelo_inurba_marseille","lat":43.29529,"lon":5.385581,"is_reserved":false,"is_disabled":false,"rental_uris":{"android":"levelo://app?vid=af246ff8-f252-4ff1-b342-04af6bbdf7bc","ios":"levelo://app?vid=af246ff8-f252-4ff1-b342-04af6bbdf7bc"},"vehicle_type_id":"4","last_reported":1715879227,"current_range_meters":18400,"station_id":"ce4bgih2rcd13ifvqba0","pricing_plan_id":"cebpf4jnsgd1na2vs0mg"},{"bike_id":"e0c0d55a-ef66-442d-ab2d-cfc8b4535518","system_id":"levelo_inurba_marseille","lat":43.29535,"lon":5.38546,"is_reserved":false,"is_disabled":false,"rental_uris":{"android":"levelo://app?vid=e0c0d55a-ef66-442d-ab2d-cfc8b4535518","ios":"levelo://app?vid=e0c0d55a-ef66-442d-ab2d-cfc8b4535518"},"vehicle_type_id":"4","last_reported":1715879227,"current_range_meters":0,"station_id":"ce4bgih2rcd13ifvqba0","pricing_plan_id":"cebpf4jnsgd1na2vs0mg"},{"bike_id":"4a808442-1b1f-43b5-8c48-cf30087a0f0b","system_id":"levelo_inurba_marseille","lat":43.29529,"lon":5.385581,"is_reserved":false,"is_disabled":false,"rental_uris":{"android":"levelo://app?vid=4a808442-1b1f-43b5-8c48-cf30087a0f0b","ios":"levelo://app?vid=4a808442-1b1f-43b5-8c48-cf30087a0f0b"},"vehicle_type_id":"4","last_reported":1715879227,"current_range_meters":28800,"station_id":"ce4bgih2rcd13ifvqba0","pricing_plan_id":"cebpf4jnsgd1na2vs0mg"},{"bike_id":"067620a1-064e-4324-b4e8-b9dd2da4541b","system_id":"levelo_inurba_marseille","lat":43.29529,"lon":5.385581,"is_reserved":false,"is_disabled":false,"rental_uris":{"android":"levelo://app?vid=067620a1-064e-4324-b4e8-b9dd2da4541b","ios":"levelo://app?vid=067620a1-064e-4324-b4e8-b9dd2da4541b"},"vehicle_type_id":"4","last_reported":1715879227,"current_range_meters":12800,"station_id":"ce4bgih2rcd13ifvqba0","pricing_plan_id":"cebpf4jnsgd1na2vs0mg"},{"bike_id":"b198e882-ae02-4300-9003-ed7159cb7a82","system_id":"levelo_inurba_marseille","lat":43.29529,"lon":5.385581,"is_reserved":false,"is_disabled":false,"rental_uris":{"android":"levelo://app?vid=b198e882-ae02-4300-9003-ed7159cb7a82","ios":"levelo://app?vid=b198e882-ae02-4300-9003-ed7159cb7a82"},"vehicle_type_id":"4","last_reported":1715879227,"current_range_meters":24000,"station_id":"ce4bgih2rcd13ifvqba0","pricing_plan_id":"cebpf4jnsgd1na2vs0mg"},{"bike_id":"1c4eb84b-31a3-4da8-9c14-cfd73b60937b","system_id":"levelo_inurba_marseille","lat":43.29529,"lon":5.385581,"is_reserved":false,"is_disabled":false,"rental_uris":{"android":"levelo://app?vid=1c4eb84b-31a3-4da8-9c14-cfd73b60937b","ios":"levelo://app?vid=1c4eb84b-31a3-4da8-9c14-cfd73b60937b"},"vehicle_type_id":"4","last_reported":1715879227,"current_range_meters":19200,"station_id":"ce4bgih2rcd13ifvqba0","pricing_plan_id":"cebpf4jnsgd1na2vs0mg"},{"bike_id":"9b547336-c67f-4ed1-8181-dfb73e7b33be","system_id":"levelo_inurba_marseille","lat":43.290779,"lon":5.371482,"is_reserved":false,"is_disabled":false,"rental_uris":{"android":"levelo://app?vid=9b547336-c67f-4ed1-8181-dfb73e7b33be","ios":"levelo://app?vid=9b547336-c67f-4ed1-8181-dfb73e7b33be"},"vehicle_type_id":"4","last_reported":1715879227,"current_range_meters":17600,"station_id":"ce4bh5p2rcd13ifvqe4g","pricing_plan_id":"cebpf4jnsgd1na2vs0mg"},{"bike_id":"039dca6d-0ff4-4147-982c-a670b1b0b23c","system_id":"levelo_inurba_marseille","lat":43.29177,"lon":5.35601,"is_reserved":false,"is_disabled":false,"rental_uris":{"android":"levelo://app?vid=039dca6d-0ff4-4147-982c-a670b1b0b23c","ios":"levelo://app?vid=039dca6d-0ff4-4147-982c-a670b1b0b23c"},"vehicle_type_id":"4","last_reported":1715879227,"current_range_meters":11600,"station_id":"ce4bhch2rcd13ifvqeug","pricing_plan_id":"cebpf4jnsgd1na2vs0mg"},{"bike_id":"c94187b7-76d4-45e1-92ef-b1408ab81129","system_id":"levelo_inurba_marseille","lat":43.294162,"lon":5.386292,"is_reserved":false,"is_disabled":false,"rental_uris":{"android":"levelo://app?vid=c94187b7-76d4-45e1-92ef-b1408ab81129","ios":"levelo://app?vid=c94187b7-76d4-45e1-92ef-b1408ab81129"},"vehicle_type_id":"4","last_reported":1715879227,"current_range_meters":7200,"station_id":"ce4bh2h2rcd13ifvqdh0","pricing_plan_id":"cebpf4jnsgd1na2vs0mg"},{"bike_id":"27f1a742-da32-4d2e-8929-7b9cc04ab340","system_id":"levelo_inurba_marseille","lat":43.302008,"lon":5.394694,"is_reserved":false,"is_disabled":false,"rental_uris":{"android":"levelo://app?vid=27f1a742-da32-4d2e-8929-7b9cc04ab340","ios":"levelo://app?vid=27f1a742-da32-4d2e-8929-7b9cc04ab340"},"vehicle_type_id":"4","last_reported":1715879227,"current_range_meters":16800,"station_id":"ce4bh0p2rcd13ifvqd70","pricing_plan_id":"cebpf4jnsgd1na2vs0mg"},{"bike_id":"546480af-9be5-49e0-bd0a-fe47d3c5015c","system_id":"levelo_inurba_marseille","lat":43.294162,"lon":5.386292,"is_reserved":false,"is_disabled":false,"rental_uris":{"android":"levelo://app?vid=546480af-9be5-49e0-bd0a-fe47d3c5015c","ios":"levelo://app?vid=546480af-9be5-49e0-bd0a-fe47d3c5015c"},"vehicle_type_id":"4","last_reported":1715879227,"current_range_meters":20000,"station_id":"ce4bh2h2rcd13ifvqdh0","pricing_plan_id":"cebpf4jnsgd1na2vs0mg"},{"bike_id":"b61a8beb-15a9-439c-bae7-166b644f7bb0","system_id":"levelo_inurba_marseille","lat":43.294153,"lon":5.386305,"is_reserved":false,"is_disabled":false,"rental_uris":{"android":"levelo://app?vid=b61a8beb-15a9-439c-bae7-166b644f7bb0","ios":"levelo://app?vid=b61a8beb-15a9-439c-bae7-166b644f7bb0"},"vehicle_type_id":"4","last_reported":1715879227,"current_range_meters":18800,"station_id":"ce4bh2h2rcd13ifvqdh0","pricing_plan_id":"cebpf4jnsgd1na2vs0mg"},{"bike_id":"e83a5004-cb06-45e8-a8bc-bf2001e04900","system_id":"levelo_inurba_marseille","lat":43.290624,"lon":5.359245,"is_reserved":false,"is_disabled":false,"rental_uris":{"android":"levelo://app?vid=e83a5004-cb06-45e8-a8bc-bf2001e04900","ios":"levelo://app?vid=e83a5004-cb06-45e8-a8bc-bf2001e04900"},"vehicle_type_id":"4","last_reported":1715879227,"current_range_meters":3600,"station_id":"ce4bha92rcd13ifvqeg0","pricing_plan_id":"cebpf4jnsgd1na2vs0mg"},{"bike_id":"e43ffc9a-17e3-4b52-aee0-e682ca4ceaef","system_id":"levelo_inurba_marseille","lat":43.290624,"lon":5.359245,"is_reserved":false,"is_disabled":false,"rental_uris":{"android":"levelo://app?vid=e43ffc9a-17e3-4b52-aee0-e682ca4ceaef","ios":"levelo://app?vid=e43ffc9a-17e3-4b52-aee0-e682ca4ceaef"},"vehicle_type_id":"4","last_reported":1715879227,"current_range_meters":26400,"station_id":"ce4bha92rcd13ifvqeg0","pricing_plan_id":"cebpf4jnsgd1na2vs0mg"},{"bike_id":"2bf93466-e0ce-417f-84b3-e06e55542ac5","system_id":"levelo_inurba_marseille","lat":43.289184,"lon":5.366408,"is_reserved":false,"is_disabled":false,"rental_uris":{"android":"levelo://app?vid=2bf93466-e0ce-417f-84b3-e06e55542ac5","ios":"levelo://app?vid=2bf93466-e0ce-417f-84b3-e06e55542ac5"},"vehicle_type_id":"4","last_reported":1715879227,"current_range_meters":4800,"station_id":"ce4bhap2rcd13ifvqek0","pricing_plan_id":"cebpf4jnsgd1na2vs0mg"},{"bike_id":"6de0df1f-6be6-4721-9a39-ba5a0af853e9","system_id":"levelo_inurba_marseille","lat":43.294153,"lon":5.386305,"is_reserved":false,"is_disabled":false,"rental_uris":{"android":"levelo://app?vid=6de0df1f-6be6-4721-9a39-ba5a0af853e9","ios":"levelo://app?vid=6de0df1f-6be6-4721-9a39-ba5a0af853e9"},"vehicle_type_id":"4","last_reported":1715879227,"current_range_meters":8800,"station_id":"ce4bh2h2rcd13ifvqdh0","pricing_plan_id":"cebpf4jnsgd1na2vs0mg"},{"bike_id":"6f4111f0-e234-4d5f-9500-ccddd189226b","system_id":"levelo_inurba_marseille","lat":43.289184,"lon":5.366408,"is_reserved":false,"is_disabled":false,"rental_uris":{"android":"levelo://app?vid=6f4111f0-e234-4d5f-9500-ccddd189226b","ios":"levelo://app?vid=6f4111f0-e234-4d5f-9500-ccddd189226b"},"vehicle_type_id":"4","last_reported":1715879227,"current_range_meters":8400,"station_id":"ce4bhap2rcd13ifvqek0","pricing_plan_id":"cebpf4jnsgd1na2vs0mg"},{"bike_id":"e0eafe54-ef80-47e1-9405-e295550653fd","system_id":"levelo_inurba_marseille","lat":43.294162,"lon":5.386292,"is_reserved":false,"is_disabled":false,"rental_uris":{"android":"levelo://app?vid=e0eafe54-ef80-47e1-9405-e295550653fd","ios":"levelo://app?vid=e0eafe54-ef80-47e1-9405-e295550653fd"},"vehicle_type_id":"4","last_reported":1715879227,"current_range_meters":2800,"station_id":"ce4bh2h2rcd13ifvqdh0","pricing_plan_id":"cebpf4jnsgd1na2vs0mg"},{"bike_id":"e5861718-3469-46a3-a23b-b83fa0255d34","system_id":"levelo_inurba_marseille","lat":43.294162,"lon":5.386292,"is_reserved":false,"is_disabled":false,"rental_uris":{"android":"levelo://app?vid=e5861718-3469-46a3-a23b-b83fa0255d34","ios":"levelo://app?vid=e5861718-3469-46a3-a23b-b83fa0255d34"},"vehicle_type_id":"4","last_reported":1715879227,"current_range_meters":31200,"station_id":"ce4bh2h2rcd13ifvqdh0","pricing_plan_id":"cebpf4jnsgd1na2vs0mg"},{"bike_id":"7e1aa35c-6f23-4198-aecd-291f3eae51bc","system_id":"levelo_inurba_marseille","lat":43.294153,"lon":5.386305,"is_reserved":false,"is_disabled":false,"rental_uris":{"android":"levelo://app?vid=7e1aa35c-6f23-4198-aecd-291f3eae51bc","ios":"levelo://app?vid=7e1aa35c-6f23-4198-aecd-291f3eae51bc"},"vehicle_type_id":"4","last_reported":1715879227,"current_range_meters":20400,"station_id":"ce4bh2h2rcd13ifvqdh0","pricing_plan_id":"cebpf4jnsgd1na2vs0mg"},{"bike_id":"3545b8a4-e20e-48bd-8893-5b25b1a85723","system_id":"levelo_inurba_marseille","lat":43.294153,"lon":5.386305,"is_reserved":false,"is_disabled":false,"rental_uris":{"android":"levelo://app?vid=3545b8a4-e20e-48bd-8893-5b25b1a85723","ios":"levelo://app?vid=3545b8a4-e20e-48bd-8893-5b25b1a85723"},"vehicle_type_id":"4","last_reported":1715879227,"current_range_meters":8400,"station_id":"ce4bh2h2rcd13ifvqdh0","pricing_plan_id":"cebpf4jnsgd1na2vs0mg"},{"bike_id":"84606c26-bebb-49a7-b7c6-5d40eff2d7b4","system_id":"levelo_inurba_marseille","lat":43.294153,"lon":5.386305,"is_reserved":false,"is_disabled":false,"rental_uris":{"android":"levelo://app?vid=84606c26-bebb-49a7-b7c6-5d40eff2d7b4","ios":"levelo://app?vid=84606c26-bebb-49a7-b7c6-5d40eff2d7b4"},"vehicle_type_id":"4","last_reported":1715879227,"current_range_meters":21200,"station_id":"ce4bh2h2rcd13ifvqdh0","pricing_plan_id":"cebpf4jnsgd1na2vs0mg"},{"bike_id":"910ede77-2560-40aa-84f4-4c2b46d75a24","system_id":"levelo_inurba_marseille","lat":43.294153,"lon":5.386305,"is_reserved":false,"is_disabled":false,"rental_uris":{"android":"levelo://app?vid=910ede77-2560-40aa-84f4-4c2b46d75a24","ios":"levelo://app?vid=910ede77-2560-40aa-84f4-4c2b46d75a24"},"vehicle_type_id":"4","last_reported":1715879227,"current_range_meters":26400,"station_id":"ce4bh2h2rcd13ifvqdh0","pricing_plan_id":"cebpf4jnsgd1na2vs0mg"},{"bike_id":"83498fd9-acf3-4a50-9e22-6f928a020d23","system_id":"levelo_inurba_marseille","lat":43.294153,"lon":5.386305,"is_reserved":false,"is_disabled":false,"rental_uris":{"android":"levelo://app?vid=83498fd9-acf3-4a50-9e22-6f928a020d23","ios":"levelo://app?vid=83498fd9-acf3-4a50-9e22-6f928a020d23"},"vehicle_type_id":"4","last_reported":1715879227,"current_range_meters":22000,"station_id":"ce4bh2h2rcd13ifvqdh0","pricing_plan_id":"cebpf4jnsgd1na2vs0mg"},{"bike_id":"8cf6cbc2-c2f7-4d03-adf6-235560bb7fc5","system_id":"levelo_inurba_marseille","lat":43.294153,"lon":5.386305,"is_reserved":false,"is_disabled":false,"rental_uris":{"android":"levelo://app?vid=8cf6cbc2-c2f7-4d03-adf6-235560bb7fc5","ios":"levelo://app?vid=8cf6cbc2-c2f7-4d03-adf6-235560bb7fc5"},"vehicle_type_id":"4","last_reported":1715879227,"current_range_meters":2400,"station_id":"ce4bh2h2rcd13ifvqdh0","pricing_plan_id":"cebpf4jnsgd1na2vs0mg"},{"bike_id":"0c0cde63-e320-4472-a299-7b2be98415d7","system_id":"levelo_inurba_marseille","lat":43.290319,"lon":5.375732,"is_reserved":false,"is_disabled":false,"rental_uris":{"android":"levelo://app?vid=0c0cde63-e320-4472-a299-7b2be98415d7","ios":"levelo://app?vid=0c0cde63-e320-4472-a299-7b2be98415d7"},"vehicle_type_id":"4","last_reported":1715879227,"current_range_meters":18000,"station_id":"ce4bh692rcd13ifvqe90","pricing_plan_id":"cebpf4jnsgd1na2vs0mg"},{"bike_id":"84d9b358-6d06-4e9c-8b8e-38e2dbad1c73","system_id":"levelo_inurba_marseille","lat":43.294162,"lon":5.386292,"is_reserved":false,"is_disabled":false,"rental_uris":{"android":"levelo://app?vid=84d9b358-6d06-4e9c-8b8e-38e2dbad1c73","ios":"levelo://app?vid=84d9b358-6d06-4e9c-8b8e-38e2dbad1c73"},"vehicle_type_id":"4","last_reported":1715879227,"current_range_meters":0,"station_id":"ce4bh2h2rcd13ifvqdh0","pricing_plan_id":"cebpf4jnsgd1na2vs0mg"},{"bike_id":"ecd4c42e-2598-4b25-967a-f648f3a52df0","system_id":"levelo_inurba_marseille","lat":43.294153,"lon":5.386305,"is_reserved":false,"is_disabled":false,"rental_uris":{"android":"levelo://app?vid=ecd4c42e-2598-4b25-967a-f648f3a52df0","ios":"levelo://app?vid=ecd4c42e-2598-4b25-967a-f648f3a52df0"},"vehicle_type_id":"4","last_reported":1715879227,"current_range_meters":20800,"station_id":"ce4bh2h2rcd13ifvqdh0","pricing_plan_id":"cebpf4jnsgd1na2vs0mg"},{"bike_id":"2910759c-fc07-4295-8985-5c56a7aebf1c","system_id":"levelo_inurba_marseille","lat":43.294153,"lon":5.386305,"is_reserved":false,"is_disabled":false,"rental_uris":{"android":"levelo://app?vid=2910759c-fc07-4295-8985-5c56a7aebf1c","ios":"levelo://app?vid=2910759c-fc07-4295-8985-5c56a7aebf1c"},"vehicle_type_id":"4","last_reported":1715879227,"current_range_meters":1600,"station_id":"ce4bh2h2rcd13ifvqdh0","pricing_plan_id":"cebpf4jnsgd1na2vs0mg"},{"bike_id":"d362f880-3efa-4c66-8684-34f52d3bb5c6","system_id":"levelo_inurba_marseille","lat":43.294162,"lon":5.386292,"is_reserved":false,"is_disabled":false,"rental_uris":{"android":"levelo://app?vid=d362f880-3efa-4c66-8684-34f52d3bb5c6","ios":"levelo://app?vid=d362f880-3efa-4c66-8684-34f52d3bb5c6"},"vehicle_type_id":"4","last_reported":1715879227,"current_range_meters":3600,"station_id":"ce4bh2h2rcd13ifvqdh0","pricing_plan_id":"cebpf4jnsgd1na2vs0mg"},{"bike_id":"c032880f-84ff-4369-8248-ee283ce23bfd","system_id":"levelo_inurba_marseille","lat":43.294162,"lon":5.386292,"is_reserved":false,"is_disabled":false,"rental_uris":{"android":"levelo://app?vid=c032880f-84ff-4369-8248-ee283ce23bfd","ios":"levelo://app?vid=c032880f-84ff-4369-8248-ee283ce23bfd"},"vehicle_type_id":"4","last_reported":1715879227,"current_range_meters":0,"station_id":"ce4bh2h2rcd13ifvqdh0","pricing_plan_id":"cebpf4jnsgd1na2vs0mg"},{"bike_id":"a9f09b60-52a7-48f7-b1a4-c05da9ce350d","system_id":"levelo_inurba_marseille","lat":43.294162,"lon":5.386292,"is_reserved":false,"is_disabled":false,"rental_uris":{"android":"levelo://app?vid=a9f09b60-52a7-48f7-b1a4-c05da9ce350d","ios":"levelo://app?vid=a9f09b60-52a7-48f7-b1a4-c05da9ce350d"},"vehicle_type_id":"4","last_reported":1715879227,"current_range_meters":7600,"station_id":"ce4bh2h2rcd13ifvqdh0","pricing_plan_id":"cebpf4jnsgd1na2vs0mg"},{"bike_id":"60169b8b-1baa-4152-8b10-9b948b3a5ba7","system_id":"levelo_inurba_marseille","lat":43.289184,"lon":5.366408,"is_reserved":false,"is_disabled":false,"rental_uris":{"android":"levelo://app?vid=60169b8b-1baa-4152-8b10-9b948b3a5ba7","ios":"levelo://app?vid=60169b8b-1baa-4152-8b10-9b948b3a5ba7"},"vehicle_type_id":"4","last_reported":1715879227,"current_range_meters":400,"station_id":"ce4bhap2rcd13ifvqek0","pricing_plan_id":"cebpf4jnsgd1na2vs0mg"},{"bike_id":"9d683fcb-52db-41d8-a4eb-b459ebc1e251","system_id":"levelo_inurba_marseille","lat":43.294162,"lon":5.386292,"is_reserved":false,"is_disabled":false,"rental_uris":{"android":"levelo://app?vid=9d683fcb-52db-41d8-a4eb-b459ebc1e251","ios":"levelo://app?vid=9d683fcb-52db-41d8-a4eb-b459ebc1e251"},"vehicle_type_id":"4","last_reported":1715879227,"current_range_meters":12800,"station_id":"ce4bh2h2rcd13ifvqdh0","pricing_plan_id":"cebpf4jnsgd1na2vs0mg"},{"bike_id":"0172bdd9-d191-4c09-9217-a2e9c3f200c1","system_id":"levelo_inurba_marseille","lat":43.294162,"lon":5.386292,"is_reserved":false,"is_disabled":false,"rental_uris":{"android":"levelo://app?vid=0172bdd9-d191-4c09-9217-a2e9c3f200c1","ios":"levelo://app?vid=0172bdd9-d191-4c09-9217-a2e9c3f200c1"},"vehicle_type_id":"4","last_reported":1715879227,"current_range_meters":4400,"station_id":"ce4bh2h2rcd13ifvqdh0","pricing_plan_id":"cebpf4jnsgd1na2vs0mg"},{"bike_id":"d97f5ed8-cfc9-4214-9c07-ec99d64c608a","system_id":"levelo_inurba_marseille","lat":43.305035,"lon":5.397212,"is_reserved":false,"is_disabled":false,"rental_uris":{"android":"levelo://app?vid=d97f5ed8-cfc9-4214-9c07-ec99d64c608a","ios":"levelo://app?vid=d97f5ed8-cfc9-4214-9c07-ec99d64c608a"},"vehicle_type_id":"4","last_reported":1715879227,"current_range_meters":0,"station_id":"ce4bh012rcd13ifvqcv0","pricing_plan_id":"cebpf4jnsgd1na2vs0mg"},{"bike_id":"16e096c5-45d7-402f-879c-96409f34ff9e","system_id":"levelo_inurba_marseille","lat":43.289468,"lon":5.363719,"is_reserved":false,"is_disabled":false,"rental_uris":{"android":"levelo://app?vid=16e096c5-45d7-402f-879c-96409f34ff9e","ios":"levelo://app?vid=16e096c5-45d7-402f-879c-96409f34ff9e"},"vehicle_type_id":"4","last_reported":1715879227,"current_range_meters":5200,"station_id":"ce4bhc92rcd13ifvqetg","pricing_plan_id":"cebpf4jnsgd1na2vs0mg"},{"bike_id":"9cece8b2-9412-4b93-9886-44726b765c1b","system_id":"levelo_inurba_marseille","lat":43.289184,"lon":5.366408,"is_reserved":false,"is_disabled":false,"rental_uris":{"android":"levelo://app?vid=9cece8b2-9412-4b93-9886-44726b765c1b","ios":"levelo://app?vid=9cece8b2-9412-4b93-9886-44726b765c1b"},"vehicle_type_id":"4","last_reported":1715879227,"current_range_meters":9600,"station_id":"ce4bhap2rcd13ifvqek0","pricing_plan_id":"cebpf4jnsgd1na2vs0mg"},{"bike_id":"ef906e4f-fa14-48e1-90e7-96db0e9830ef","system_id":"levelo_inurba_marseille","lat":43.294153,"lon":5.386305,"is_reserved":false,"is_disabled":false,"rental_uris":{"android":"levelo://app?vid=ef906e4f-fa14-48e1-90e7-96db0e9830ef","ios":"levelo://app?vid=ef906e4f-fa14-48e1-90e7-96db0e9830ef"},"vehicle_type_id":"4","last_reported":1715879227,"current_range_meters":0,"station_id":"ce4bh2h2rcd13ifvqdh0","pricing_plan_id":"cebpf4jnsgd1na2vs0mg"},{"bike_id":"d62c6be6-a654-4982-9b32-ea4badb0a7ed","system_id":"levelo_inurba_marseille","lat":43.290336,"lon":5.386425,"is_reserved":false,"is_disabled":false,"rental_uris":{"android":"levelo://app?vid=d62c6be6-a654-4982-9b32-ea4badb0a7ed","ios":"levelo://app?vid=d62c6be6-a654-4982-9b32-ea4badb0a7ed"},"vehicle_type_id":"4","last_reported":1715879227,"current_range_meters":24000,"station_id":"ce4bh4p2rcd13ifvqe0g","pricing_plan_id":"cebpf4jnsgd1na2vs0mg"},{"bike_id":"0c14939f-2bac-4dfd-80d9-011a953a1766","system_id":"levelo_inurba_marseille","lat":43.295196,"lon":5.39397,"is_reserved":false,"is_disabled":false,"rental_uris":{"android":"levelo://app?vid=0c14939f-2bac-4dfd-80d9-011a953a1766","ios":"levelo://app?vid=0c14939f-2bac-4dfd-80d9-011a953a1766"},"vehicle_type_id":"4","last_reported":1715879227,"current_range_meters":18000,"station_id":"ce4bh292rcd13ifvqdf0","pricing_plan_id":"cebpf4jnsgd1na2vs0mg"},{"bike_id":"04010e52-8a0c-4f9c-ac90-36087d97aa3d","system_id":"levelo_inurba_marseille","lat":43.292644,"lon":5.384257,"is_reserved":false,"is_disabled":false,"rental_uris":{"android":"levelo://app?vid=04010e52-8a0c-4f9c-ac90-36087d97aa3d","ios":"levelo://app?vid=04010e52-8a0c-4f9c-ac90-36087d97aa3d"},"vehicle_type_id":"4","last_reported":1715879227,"current_range_meters":6800,"station_id":"ce4bh692rcd13ifvqea0","pricing_plan_id":"cebpf4jnsgd1na2vs0mg"},{"bike_id":"b2c2fd54-affa-48b6-8c30-93f7e1b32dbb","system_id":"levelo_inurba_marseille","lat":43.292642,"lon":5.384254,"is_reserved":false,"is_disabled":false,"rental_uris":{"android":"levelo://app?vid=b2c2fd54-affa-48b6-8c30-93f7e1b32dbb","ios":"levelo://app?vid=b2c2fd54-affa-48b6-8c30-93f7e1b32dbb"},"vehicle_type_id":"4","last_reported":1715879227,"current_range_meters":3600,"station_id":"ce4bh692rcd13ifvqea0","pricing_plan_id":"cebpf4jnsgd1na2vs0mg"},{"bike_id":"b95333da-1750-47dc-83d9-08d9380a013e","system_id":"levelo_inurba_marseille","lat":43.292642,"lon":5.384254,"is_reserved":false,"is_disabled":false,"rental_uris":{"android":"levelo://app?vid=b95333da-1750-47dc-83d9-08d9380a013e","ios":"levelo://app?vid=b95333da-1750-47dc-83d9-08d9380a013e"},"vehicle_type_id":"4","last_reported":1715879227,"current_range_meters":7200,"station_id":"ce4bh692rcd13ifvqea0","pricing_plan_id":"cebpf4jnsgd1na2vs0mg"},{"bike_id":"84015889-3b01-4e24-8086-642ca682a5ae","system_id":"levelo_inurba_marseille","lat":43.304274,"lon":5.397513,"is_reserved":false,"is_disabled":false,"rental_uris":{"android":"levelo://app?vid=84015889-3b01-4e24-8086-642ca682a5ae","ios":"levelo://app?vid=84015889-3b01-4e24-8086-642ca682a5ae"},"vehicle_type_id":"4","last_reported":1715879227,"current_range_meters":0,"station_id":"ce4bh092rcd13ifvqd20","pricing_plan_id":"cebpf4jnsgd1na2vs0mg"},{"bike_id":"0ec7c2de-d042-4350-a3cc-0e524adf0c0a","system_id":"levelo_inurba_marseille","lat":43.292642,"lon":5.384254,"is_reserved":false,"is_disabled":false,"rental_uris":{"android":"levelo://app?vid=0ec7c2de-d042-4350-a3cc-0e524adf0c0a","ios":"levelo://app?vid=0ec7c2de-d042-4350-a3cc-0e524adf0c0a"},"vehicle_type_id":"4","last_reported":1715879227,"current_range_meters":31600,"station_id":"ce4bh692rcd13ifvqea0","pricing_plan_id":"cebpf4jnsgd1na2vs0mg"},{"bike_id":"b71a7208-a165-499a-919e-94e11cf57fda","system_id":"levelo_inurba_marseille","lat":43.292642,"lon":5.384254,"is_reserved":false,"is_disabled":false,"rental_uris":{"android":"levelo://app?vid=b71a7208-a165-499a-919e-94e11cf57fda","ios":"levelo://app?vid=b71a7208-a165-499a-919e-94e11cf57fda"},"vehicle_type_id":"4","last_reported":1715879227,"current_range_meters":800,"station_id":"ce4bh692rcd13ifvqea0","pricing_plan_id":"cebpf4jnsgd1na2vs0mg"},{"bike_id":"0189b537-a456-4d70-9ca0-004925dfb48c","system_id":"levelo_inurba_marseille","lat":43.304296,"lon":5.397513,"is_reserved":false,"is_disabled":false,"rental_uris":{"android":"levelo://app?vid=0189b537-a456-4d70-9ca0-004925dfb48c","ios":"levelo://app?vid=0189b537-a456-4d70-9ca0-004925dfb48c"},"vehicle_type_id":"4","last_reported":1715879227,"current_range_meters":0,"station_id":"ce4bh092rcd13ifvqd20","pricing_plan_id":"cebpf4jnsgd1na2vs0mg"},{"bike_id":"b9b04ebf-fe0e-424c-9e1e-3a4bf506e18b","system_id":"levelo_inurba_marseille","lat":43.292662,"lon":5.384352,"is_reserved":false,"is_disabled":false,"rental_uris":{"android":"levelo://app?vid=b9b04ebf-fe0e-424c-9e1e-3a4bf506e18b","ios":"levelo://app?vid=b9b04ebf-fe0e-424c-9e1e-3a4bf506e18b"},"vehicle_type_id":"4","last_reported":1715879227,"current_range_meters":4000,"station_id":"ce4bh692rcd13ifvqea0","pricing_plan_id":"cebpf4jnsgd1na2vs0mg"},{"bike_id":"66a48970-d4ff-4858-b528-57ef4ad21b63","system_id":"levelo_inurba_marseille","lat":43.292642,"lon":5.384254,"is_reserved":false,"is_disabled":false,"rental_uris":{"android":"levelo://app?vid=66a48970-d4ff-4858-b528-57ef4ad21b63","ios":"levelo://app?vid=66a48970-d4ff-4858-b528-57ef4ad21b63"},"vehicle_type_id":"4","last_reported":1715879227,"current_range_meters":18400,"station_id":"ce4bh692rcd13ifvqea0","pricing_plan_id":"cebpf4jnsgd1na2vs0mg"},{"bike_id":"55b47da1-7126-4266-9221-b8b87cf89097","system_id":"levelo_inurba_marseille","lat":43.29275,"lon":5.38455,"is_reserved":false,"is_disabled":false,"rental_uris":{"android":"levelo://app?vid=55b47da1-7126-4266-9221-b8b87cf89097","ios":"levelo://app?vid=55b47da1-7126-4266-9221-b8b87cf89097"},"vehicle_type_id":"4","last_reported":1715879227,"current_range_meters":12400,"station_id":"","pricing_plan_id":"cebpf4jnsgd1na2vs0mg"},{"bike_id":"a9c81a4a-92fd-4661-b998-c8ff856970af","system_id":"levelo_inurba_marseille","lat":43.292644,"lon":5.384257,"is_reserved":false,"is_disabled":false,"rental_uris":{"android":"levelo://app?vid=a9c81a4a-92fd-4661-b998-c8ff856970af","ios":"levelo://app?vid=a9c81a4a-92fd-4661-b998-c8ff856970af"},"vehicle_type_id":"4","last_reported":1715879227,"current_range_meters":21600,"station_id":"ce4bh692rcd13ifvqea0","pricing_plan_id":"cebpf4jnsgd1na2vs0mg"},{"bike_id":"b740a65e-be1a-4adc-9df2-97706fc08635","system_id":"levelo_inurba_marseille","lat":43.292642,"lon":5.384254,"is_reserved":false,"is_disabled":false,"rental_uris":{"android":"levelo://app?vid=b740a65e-be1a-4adc-9df2-97706fc08635","ios":"levelo://app?vid=b740a65e-be1a-4adc-9df2-97706fc08635"},"vehicle_type_id":"4","last_reported":1715879227,"current_range_meters":8800,"station_id":"ce4bh692rcd13ifvqea0","pricing_plan_id":"cebpf4jnsgd1na2vs0mg"},{"bike_id":"de2510ff-6976-4575-b71f-19fedf67c269","system_id":"levelo_inurba_marseille","lat":43.292642,"lon":5.384254,"is_reserved":false,"is_disabled":false,"rental_uris":{"android":"levelo://app?vid=de2510ff-6976-4575-b71f-19fedf67c269","ios":"levelo://app?vid=de2510ff-6976-4575-b71f-19fedf67c269"},"vehicle_type_id":"4","last_reported":1715879227,"current_range_meters":9200,"station_id":"ce4bh692rcd13ifvqea0","pricing_plan_id":"cebpf4jnsgd1na2vs0mg"},{"bike_id":"c79020b5-d119-40e4-bea8-8fc59ef68c24","system_id":"levelo_inurba_marseille","lat":43.292661,"lon":5.384406,"is_reserved":false,"is_disabled":false,"rental_uris":{"android":"levelo://app?vid=c79020b5-d119-40e4-bea8-8fc59ef68c24","ios":"levelo://app?vid=c79020b5-d119-40e4-bea8-8fc59ef68c24"},"vehicle_type_id":"4","last_reported":1715879227,"current_range_meters":20000,"station_id":"ce4bh692rcd13ifvqea0","pricing_plan_id":"cebpf4jnsgd1na2vs0mg"},{"bike_id":"53e3c99e-125d-4c91-81ed-069104380e89","system_id":"levelo_inurba_marseille","lat":43.29267,"lon":5.384428,"is_reserved":false,"is_disabled":false,"rental_uris":{"android":"levelo://app?vid=53e3c99e-125d-4c91-81ed-069104380e89","ios":"levelo://app?vid=53e3c99e-125d-4c91-81ed-069104380e89"},"vehicle_type_id":"4","last_reported":1715879227,"current_range_meters":0,"station_id":"ce4bh692rcd13ifvqea0","pricing_plan_id":"cebpf4jnsgd1na2vs0mg"},{"bike_id":"1d902572-774c-4669-b7ff-40032d18e10a","system_id":"levelo_inurba_marseille","lat":43.292802,"lon":5.384711,"is_reserved":false,"is_disabled":false,"rental_uris":{"android":"levelo://app?vid=1d902572-774c-4669-b7ff-40032d18e10a","ios":"levelo://app?vid=1d902572-774c-4669-b7ff-40032d18e10a"},"vehicle_type_id":"4","last_reported":1715879227,"current_range_meters":6000,"station_id":"ce4bh692rcd13ifvqea0","pricing_plan_id":"cebpf4jnsgd1na2vs0mg"},{"bike_id":"4497dd3b-f7ed-49ae-a184-c6cdcca36c0c","system_id":"levelo_inurba_marseille","lat":43.292636,"lon":5.384364,"is_reserved":false,"is_disabled":false,"rental_uris":{"android":"levelo://app?vid=4497dd3b-f7ed-49ae-a184-c6cdcca36c0c","ios":"levelo://app?vid=4497dd3b-f7ed-49ae-a184-c6cdcca36c0c"},