{"last_updated":1773988866,"ttl":60,"version":"2.2","data":{"bikes":[{"bike_id":"44a01b35-6064-4ed9-a77f-f6589baf2186","system_id":"levelo_inurba_marseille","lat":43.28573,"lon":5.39502,"is_reserved":false,"is_disabled":false,"rental_uris":{"android":"levelo://app?vid=44a01b35-6064-4ed9-a77f-f6589baf2186","ios":"levelo://app?vid=44a01b35-6064-4ed9-a77f-f6589baf2186"},"vehicle_type_id":"4","last_reported":1773988867,"current_range_meters":400,"station_id":"ce4bh292rcd13ifvqdg0","pricing_plan_id":"cebpf4jnsgd1na2vs0mg"},{"bike_id":"c539bd65-0e65-469f-b4ed-962f8c4aff1f","system_id":"levelo_inurba_marseille","lat":43.28687,"lon":5.36356,"is_reserved":false,"is_disabled":false,"rental_uris":{"android":"levelo://app?vid=c539bd65-0e65-469f-b4ed-962f8c4aff1f","ios":"levelo://app?vid=c539bd65-0e65-469f-b4ed-962f8c4aff1f"},"vehicle_type_id":"4","last_reported":1773988867,"current_range_meters":1200,"station_id":"ce4bhah2rcd13ifvqej0","pricing_plan_id":"cebpf4jnsgd1na2vs0mg"},{"bike_id":"f8e52c65-5437-433b-9fe2-9907ea3317c0","system_id":"levelo_inurba_marseille","lat":43.29276,"lon":5.40118,"is_reserved":false,"is_disabled":false,"rental_uris":{"android":"levelo://app?vid=f8e52c65-5437-433b-9fe2-9907ea3317c0","ios":"levelo://app?vid=f8e52c65-5437-433b-9fe2-9907ea3317c0"},"vehicle_type_id":"4","last_reported":1773988867,"current_range_meters":1200,"station_id":"ce4bh312rcd13ifvqdk0","pricing_plan_id":"cebpf4jnsgd1na2vs0mg"},{"bike_id":"65fff7a0-d68a-4f4a-832e-47135e1e5497","system_id":"levelo_inurba_marseille","lat":43.30122,"lon":5.37429,"is_reserved":false,"is_disabled":false,"rental_uris":{"android":"levelo://app?vid=65fff7a0-d68a-4f4a-832e-47135e1e5497","ios":"levelo://app?vid=65fff7a0-d68a-4f4a-832e-47135e1e5497"},"vehicle_type_id":"4","last_reported":1773988867,"current_range_meters":1600,"station_id":"ce4bgs92rcd13ifvqcc0","pricing_plan_id":"cebpf4jnsgd1na2vs0mg"},{"bike_id":"4afef1f9-f7e7-4d56-91f5-f750030d6d75","system_id":"levelo_inurba_marseille","lat":43.24372,"lon":5.37088,"is_reserved":false,"is_disabled":false,"rental_uris":{"android":"levelo://app?vid=4afef1f9-f7e7-4d56-91f5-f750030d6d75","ios":"levelo://app?vid=4afef1f9-f7e7-4d56-91f5-f750030d6d75"},"vehicle_type_id":"4","last_reported":1773988867,"current_range_meters":2000,"station_id":"ce4bhhh2rcd13ifvqfk0","pricing_plan_id":"cebpf4jnsgd1na2vs0mg"},{"bike_id":"1c51670a-46e5-4a0c-9d9c-3c2806d077a8","system_id":"levelo_inurba_marseille","lat":43.29014,"lon":5.38123,"is_reserved":false,"is_disabled":true,"rental_uris":{"android":"levelo://app?vid=1c51670a-46e5-4a0c-9d9c-3c2806d077a8","ios":"levelo://app?vid=1c51670a-46e5-4a0c-9d9c-3c2806d077a8"},"vehicle_type_id":"4","last_reported":1773988867,"current_range_meters":2800,"station_id":"ce4bh4p2rcd13ifvqe1g","pricing_plan_id":"cebpf4jnsgd1na2vs0mg"},{"bike_id":"07f521f2-168c-437f-9ee7-8d100cdbdf6d","system_id":"levelo_inurba_marseille","lat":43.25581,"lon":5.38249,"is_reserved":false,"is_disabled":false,"rental_uris":{"android":"levelo://app?vid=07f521f2-168c-437f-9ee7-8d100cdbdf6d","ios":"levelo://app?vid=07f521f2-168c-437f-9ee7-8d100cdbdf6d"},"vehicle_type_id":"4","last_reported":1773988867,"current_range_meters":2800,"station_id":"ce4bhih2rcd13ifvqfs0","pricing_plan_id":"cebpf4jnsgd1na2vs0mg"},{"bike_id":"bd60a6ec-18d4-4476-ab1b-f354043c4b72","system_id":"levelo_inurba_marseille","lat":43.29789,"lon":5.42591,"is_reserved":false,"is_disabled":false,"rental_uris":{"android":"levelo://app?vid=bd60a6ec-18d4-4476-ab1b-f354043c4b72","ios":"levelo://app?vid=bd60a6ec-18d4-4476-ab1b-f354043c4b72"},"vehicle_type_id":"4","last_reported":1773988867,"current_range_meters":2800,"station_id":"","pricing_plan_id":"cebpf4jnsgd1na2vs0mg"},{"bike_id":"13ad50bf-7f2f-4ad1-a82f-209db682ff58","system_id":"levelo_inurba_marseille","lat":43.26578,"lon":5.39042,"is_reserved":false,"is_disabled":true,"rental_uris":{"android":"levelo://app?vid=13ad50bf-7f2f-4ad1-a82f-209db682ff58","ios":"levelo://app?vid=13ad50bf-7f2f-4ad1-a82f-209db682ff58"},"vehicle_type_id":"4","last_reported":1773988867,"current_range_meters":2800,"station_id":"ce4bhe12rcd13ifvqf30","pricing_plan_id":"cebpf4jnsgd1na2vs0mg"},{"bike_id":"8a854e0a-3b9f-471d-80f2-bfadb0595e6b","system_id":"levelo_inurba_marseille","lat":43.31546,"lon":5.38804,"is_reserved":false,"is_disabled":false,"rental_uris":{"android":"levelo://app?vid=8a854e0a-3b9f-471d-80f2-bfadb0595e6b","ios":"levelo://app?vid=8a854e0a-3b9f-471d-80f2-bfadb0595e6b"},"vehicle_type_id":"4","last_reported":1773988867,"current_range_meters":2800,"station_id":"","pricing_plan_id":"cebpf4jnsgd1na2vs0mg"},{"bike_id":"326041aa-dca3-4b10-8601-80dee4dd32bb","system_id":"levelo_inurba_marseille","lat":43.29496,"lon":5.43311,"is_reserved":false,"is_disabled":false,"rental_uris":{"android":"levelo://app?vid=326041aa-dca3-4b10-8601-80dee4dd32bb","ios":"levelo://app?vid=326041aa-dca3-4b10-8601-80dee4dd32bb"},"vehicle_type_id":"4","last_reported":1773988867,"current_range_meters":2800,"station_id":"st_d3j5ugp08ojc73fj9d10","pricing_plan_id":"cebpf4jnsgd1na2vs0mg"},{"bike_id":"95d31319-d36d-403e-adf6-0b51cdaa5b1b","system_id":"levelo_inurba_marseille","lat":43.3147,"lon":5.39265,"is_reserved":false,"is_disabled":true,"rental_uris":{"android":"levelo://app?vid=95d31319-d36d-403e-adf6-0b51cdaa5b1b","ios":"levelo://app?vid=95d31319-d36d-403e-adf6-0b51cdaa5b1b"},"vehicle_type_id":"4","last_reported":1773988867,"current_range_meters":2800,"station_id":"","pricing_plan_id":"cebpf4jnsgd1na2vs0mg"},{"bike_id":"db788ac8-559a-4613-b88b-dcde7cfa2610","system_id":"levelo_inurba_marseille","lat":43.27682,"lon":5.38919,"is_reserved":false,"is_disabled":false,"rental_uris":{"android":"levelo://app?vid=db788ac8-559a-4613-b88b-dcde7cfa2610","ios":"levelo://app?vid=db788ac8-559a-4613-b88b-dcde7cfa2610"},"vehicle_type_id":"4","last_reported":1773988867,"current_range_meters":2800,"station_id":"ce4bhi12rcd13ifvqfo0","pricing_plan_id":"cebpf4jnsgd1na2vs0mg"},{"bike_id":"0ee4ce16-829f-49ee-9a2a-4b4670dfbc6f","system_id":"levelo_inurba_marseille","lat":43.28488,"lon":5.48399,"is_reserved":false,"is_disabled":false,"rental_uris":{"android":"levelo://app?vid=0ee4ce16-829f-49ee-9a2a-4b4670dfbc6f","ios":"levelo://app?vid=0ee4ce16-829f-49ee-9a2a-4b4670dfbc6f"},"vehicle_type_id":"4","last_reported":1773988867,"current_range_meters":2800,"station_id":"st_d3svhcjqgbts73a3dn0g","pricing_plan_id":"cebpf4jnsgd1na2vs0mg"},{"bike_id":"6f0da953-2adc-429d-bb7c-360d8a3447c9","system_id":"levelo_inurba_marseille","lat":43.27501,"lon":5.41622,"is_reserved":false,"is_disabled":false,"rental_uris":{"android":"levelo://app?vid=6f0da953-2adc-429d-bb7c-360d8a3447c9","ios":"levelo://app?vid=6f0da953-2adc-429d-bb7c-360d8a3447c9"},"vehicle_type_id":"4","last_reported":1773988867,"current_range_meters":2800,"station_id":"st_d6im8g6chgec73a5pndg","pricing_plan_id":"cebpf4jnsgd1na2vs0mg"},{"bike_id":"4501febe-813d-4a2e-90b0-a8e767bdef3c","system_id":"levelo_inurba_marseille","lat":43.30791,"lon":5.37654,"is_reserved":false,"is_disabled":false,"rental_uris":{"android":"levelo://app?vid=4501febe-813d-4a2e-90b0-a8e767bdef3c","ios":"levelo://app?vid=4501febe-813d-4a2e-90b0-a8e767bdef3c"},"vehicle_type_id":"4","last_reported":1773988867,"current_range_meters":2800,"station_id":"ce4bgv92rcd13ifvqcq0","pricing_plan_id":"cebpf4jnsgd1na2vs0mg"},{"bike_id":"28025302-46d2-4169-9ce9-8e064c7a81fd","system_id":"levelo_inurba_marseille","lat":43.26382,"lon":5.41084,"is_reserved":false,"is_disabled":false,"rental_uris":{"android":"levelo://app?vid=28025302-46d2-4169-9ce9-8e064c7a81fd","ios":"levelo://app?vid=28025302-46d2-4169-9ce9-8e064c7a81fd"},"vehicle_type_id":"4","last_reported":1773988867,"current_range_meters":2800,"station_id":"","pricing_plan_id":"cebpf4jnsgd1na2vs0mg"},{"bike_id":"35215026-07c2-4c4e-a619-cd7cc3f630a9","system_id":"levelo_inurba_marseille","lat":43.27979,"lon":5.38713,"is_reserved":false,"is_disabled":false,"rental_uris":{"android":"levelo://app?vid=35215026-07c2-4c4e-a619-cd7cc3f630a9","ios":"levelo://app?vid=35215026-07c2-4c4e-a619-cd7cc3f630a9"},"vehicle_type_id":"4","last_reported":1773988867,"current_range_meters":2800,"station_id":"ce4bhg12rcd13ifvqf80","pricing_plan_id":"cebpf4jnsgd1na2vs0mg"},{"bike_id":"ba33ba89-1207-425f-ab68-ba09426260b7","system_id":"levelo_inurba_marseille","lat":43.29964,"lon":5.41315,"is_reserved":false,"is_disabled":false,"rental_uris":{"android":"levelo://app?vid=ba33ba89-1207-425f-ab68-ba09426260b7","ios":"levelo://app?vid=ba33ba89-1207-425f-ab68-ba09426260b7"},"vehicle_type_id":"4","last_reported":1773988867,"current_range_meters":2800,"station_id":"ce4bhp12rcd13ifvqh9g","pricing_plan_id":"cebpf4jnsgd1na2vs0mg"},{"bike_id":"c9cfc67c-4e42-4833-b4ab-11ad690d27f6","system_id":"levelo_inurba_marseille","lat":43.33024,"lon":5.39507,"is_reserved":false,"is_disabled":false,"rental_uris":{"android":"levelo://app?vid=c9cfc67c-4e42-4833-b4ab-11ad690d27f6","ios":"levelo://app?vid=c9cfc67c-4e42-4833-b4ab-11ad690d27f6"},"vehicle_type_id":"4","last_reported":1773988867,"current_range_meters":2800,"station_id":"","pricing_plan_id":"cebpf4jnsgd1na2vs0mg"},{"bike_id":"566f6741-178c-4dcf-bd6f-c0d5c8fce96b","system_id":"levelo_inurba_marseille","lat":43.23782,"lon":5.36632,"is_reserved":false,"is_disabled":false,"rental_uris":{"android":"levelo://app?vid=566f6741-178c-4dcf-bd6f-c0d5c8fce96b","ios":"levelo://app?vid=566f6741-178c-4dcf-bd6f-c0d5c8fce96b"},"vehicle_type_id":"4","last_reported":1773988867,"current_range_meters":2800,"station_id":"st_d3nk18o9ro0c73en2l3g","pricing_plan_id":"cebpf4jnsgd1na2vs0mg"},{"bike_id":"2f0354fc-31aa-4398-9c3e-f0f50b7b2184","system_id":"levelo_inurba_marseille","lat":43.24149,"lon":5.39752,"is_reserved":false,"is_disabled":false,"rental_uris":{"android":"levelo://app?vid=2f0354fc-31aa-4398-9c3e-f0f50b7b2184","ios":"levelo://app?vid=2f0354fc-31aa-4398-9c3e-f0f50b7b2184"},"vehicle_type_id":"4","last_reported":1773988867,"current_range_meters":3200,"station_id":"ce4bhn12rcd13ifvqgpg","pricing_plan_id":"cebpf4jnsgd1na2vs0mg"},{"bike_id":"86fd1abd-7522-44ab-8ff7-914e0be1ec60","system_id":"levelo_inurba_marseille","lat":43.29974,"lon":5.3718,"is_reserved":false,"is_disabled":false,"rental_uris":{"android":"levelo://app?vid=86fd1abd-7522-44ab-8ff7-914e0be1ec60","ios":"levelo://app?vid=86fd1abd-7522-44ab-8ff7-914e0be1ec60"},"vehicle_type_id":"4","last_reported":1773988867,"current_range_meters":3200,"station_id":"ce4bgr92rcd13ifvqc7g","pricing_plan_id":"cebpf4jnsgd1na2vs0mg"},{"bike_id":"69eb8448-c0e0-496f-831c-8ada77fd31e2","system_id":"levelo_inurba_marseille","lat":43.2306,"lon":5.35487,"is_reserved":false,"is_disabled":false,"rental_uris":{"android":"levelo://app?vid=69eb8448-c0e0-496f-831c-8ada77fd31e2","ios":"levelo://app?vid=69eb8448-c0e0-496f-831c-8ada77fd31e2"},"vehicle_type_id":"4","last_reported":1773988867,"current_range_meters":3200,"station_id":"cpo3342slgdg3j2ifvpg","pricing_plan_id":"cebpf4jnsgd1na2vs0mg"},{"bike_id":"6018d565-5c8a-4bab-ba5d-0061fbbaec08","system_id":"levelo_inurba_marseille","lat":43.22957,"lon":5.35381,"is_reserved":false,"is_disabled":false,"rental_uris":{"android":"levelo://app?vid=6018d565-5c8a-4bab-ba5d-0061fbbaec08","ios":"levelo://app?vid=6018d565-5c8a-4bab-ba5d-0061fbbaec08"},"vehicle_type_id":"4","last_reported":1773988867,"current_range_meters":3200,"station_id":"cpo3532slgdg3j2ikp40","pricing_plan_id":"cebpf4jnsgd1na2vs0mg"},{"bike_id":"3cc547a0-14de-43b9-a4f2-eaa02644aa94","system_id":"levelo_inurba_marseille","lat":43.28447,"lon":5.35884,"is_reserved":false,"is_disabled":false,"rental_uris":{"android":"levelo://app?vid=3cc547a0-14de-43b9-a4f2-eaa02644aa94","ios":"levelo://app?vid=3cc547a0-14de-43b9-a4f2-eaa02644aa94"},"vehicle_type_id":"4","last_reported":1773988867,"current_range_meters":3200,"station_id":"ce4bhah2rcd13ifvqei0","pricing_plan_id":"cebpf4jnsgd1na2vs0mg"},{"bike_id":"a424990f-3052-48e0-895c-8bd9a527cdb2","system_id":"levelo_inurba_marseille","lat":43.27958,"lon":5.41051,"is_reserved":false,"is_disabled":false,"rental_uris":{"android":"levelo://app?vid=a424990f-3052-48e0-895c-8bd9a527cdb2","ios":"levelo://app?vid=a424990f-3052-48e0-895c-8bd9a527cdb2"},"vehicle_type_id":"4","last_reported":1773988867,"current_range_meters":3200,"station_id":"ce4bhnp2rcd13ifvqh0g","pricing_plan_id":"cebpf4jnsgd1na2vs0mg"},{"bike_id":"02b51a77-354e-40bf-b6a1-4608f3c631a1","system_id":"levelo_inurba_marseille","lat":43.28868,"lon":5.35836,"is_reserved":false,"is_disabled":false,"rental_uris":{"android":"levelo://app?vid=02b51a77-354e-40bf-b6a1-4608f3c631a1","ios":"levelo://app?vid=02b51a77-354e-40bf-b6a1-4608f3c631a1"},"vehicle_type_id":"4","last_reported":1773988867,"current_range_meters":3200,"station_id":"ce4bhb12rcd13ifvqem0","pricing_plan_id":"cebpf4jnsgd1na2vs0mg"},{"bike_id":"5ca549f0-505a-4064-906b-4df4d9af1ca5","system_id":"levelo_inurba_marseille","lat":43.29369,"lon":5.37867,"is_reserved":false,"is_disabled":false,"rental_uris":{"android":"levelo://app?vid=5ca549f0-505a-4064-906b-4df4d9af1ca5","ios":"levelo://app?vid=5ca549f0-505a-4064-906b-4df4d9af1ca5"},"vehicle_type_id":"4","last_reported":1773988867,"current_range_meters":3200,"station_id":"ce4bgjh2rcd13ifvqbf0","pricing_plan_id":"cebpf4jnsgd1na2vs0mg"},{"bike_id":"89463e93-3249-46c3-8957-482e73418435","system_id":"levelo_inurba_marseille","lat":43.28613,"lon":5.35111,"is_reserved":false,"is_disabled":false,"rental_uris":{"android":"levelo://app?vid=89463e93-3249-46c3-8957-482e73418435","ios":"levelo://app?vid=89463e93-3249-46c3-8957-482e73418435"},"vehicle_type_id":"4","last_reported":1773988867,"current_range_meters":3200,"station_id":"ce4bhch2rcd13ifvqeug","pricing_plan_id":"cebpf4jnsgd1na2vs0mg"},{"bike_id":"cd554fde-b1e0-4bf1-ada3-428e906afea0","system_id":"levelo_inurba_marseille","lat":43.26578,"lon":5.39025,"is_reserved":false,"is_disabled":false,"rental_uris":{"android":"levelo://app?vid=cd554fde-b1e0-4bf1-ada3-428e906afea0","ios":"levelo://app?vid=cd554fde-b1e0-4bf1-ada3-428e906afea0"},"vehicle_type_id":"4","last_reported":1773988867,"current_range_meters":3200,"station_id":"ce4bhe12rcd13ifvqf30","pricing_plan_id":"cebpf4jnsgd1na2vs0mg"},{"bike_id":"ff15d011-374e-455f-8afd-ddf3bfc3962d","system_id":"levelo_inurba_marseille","lat":43.29035,"lon":5.39957,"is_reserved":false,"is_disabled":false,"rental_uris":{"android":"levelo://app?vid=ff15d011-374e-455f-8afd-ddf3bfc3962d","ios":"levelo://app?vid=ff15d011-374e-455f-8afd-ddf3bfc3962d"},"vehicle_type_id":"4","last_reported":1773988867,"current_range_meters":3200,"station_id":"ce4bh392rcd13ifvqdm0","pricing_plan_id":"cebpf4jnsgd1na2vs0mg"},{"bike_id":"46d5a887-e69e-4b92-9937-af16138c60d7","system_id":"levelo_inurba_marseille","lat":43.25553,"lon":5.38254,"is_reserved":false,"is_disabled":false,"rental_uris":{"android":"levelo://app?vid=46d5a887-e69e-4b92-9937-af16138c60d7","ios":"levelo://app?vid=46d5a887-e69e-4b92-9937-af16138c60d7"},"vehicle_type_id":"4","last_reported":1773988867,"current_range_meters":3200,"station_id":"ce4bhih2rcd13ifvqfs0","pricing_plan_id":"cebpf4jnsgd1na2vs0mg"},{"bike_id":"0d95785c-4e7a-431e-a0c0-c4b958228d38","system_id":"levelo_inurba_marseille","lat":43.30273,"lon":5.4009,"is_reserved":false,"is_disabled":false,"rental_uris":{"android":"levelo://app?vid=0d95785c-4e7a-431e-a0c0-c4b958228d38","ios":"levelo://app?vid=0d95785c-4e7a-431e-a0c0-c4b958228d38"},"vehicle_type_id":"4","last_reported":1773988867,"current_range_meters":3200,"station_id":"ce4bgvh2rcd13ifvqcs0","pricing_plan_id":"cebpf4jnsgd1na2vs0mg"},{"bike_id":"5d1e9979-c668-4065-aecd-df1d6c40419d","system_id":"levelo_inurba_marseille","lat":43.27501,"lon":5.416,"is_reserved":false,"is_disabled":false,"rental_uris":{"android":"levelo://app?vid=5d1e9979-c668-4065-aecd-df1d6c40419d","ios":"levelo://app?vid=5d1e9979-c668-4065-aecd-df1d6c40419d"},"vehicle_type_id":"4","last_reported":1773988867,"current_range_meters":3200,"station_id":"st_d6im8g6chgec73a5pndg","pricing_plan_id":"cebpf4jnsgd1na2vs0mg"},{"bike_id":"73e44213-1cd8-4593-a09e-a9c4a914a5d2","system_id":"levelo_inurba_marseille","lat":43.2848,"lon":5.48402,"is_reserved":false,"is_disabled":false,"rental_uris":{"android":"levelo://app?vid=73e44213-1cd8-4593-a09e-a9c4a914a5d2","ios":"levelo://app?vid=73e44213-1cd8-4593-a09e-a9c4a914a5d2"},"vehicle_type_id":"4","last_reported":1773988867,"current_range_meters":3200,"station_id":"st_d3svhcjqgbts73a3dn0g","pricing_plan_id":"cebpf4jnsgd1na2vs0mg"},{"bike_id":"3f5cd70c-7332-4c06-8cd6-f1e79c35bb0c","system_id":"levelo_inurba_marseille","lat":43.30385,"lon":5.42487,"is_reserved":false,"is_disabled":false,"rental_uris":{"android":"levelo://app?vid=3f5cd70c-7332-4c06-8cd6-f1e79c35bb0c","ios":"levelo://app?vid=3f5cd70c-7332-4c06-8cd6-f1e79c35bb0c"},"vehicle_type_id":"4","last_reported":1773988867,"current_range_meters":3200,"station_id":"ce4bhoh2rcd13ifvqh6g","pricing_plan_id":"cebpf4jnsgd1na2vs0mg"},{"bike_id":"61abe7b6-a1d5-4fb1-8e97-6efff73823a7","system_id":"levelo_inurba_marseille","lat":43.2379,"lon":5.36639,"is_reserved":false,"is_disabled":true,"rental_uris":{"android":"levelo://app?vid=61abe7b6-a1d5-4fb1-8e97-6efff73823a7","ios":"levelo://app?vid=61abe7b6-a1d5-4fb1-8e97-6efff73823a7"},"vehicle_type_id":"4","last_reported":1773988867,"current_range_meters":3600,"station_id":"st_d3nk18o9ro0c73en2l3g","pricing_plan_id":"cebpf4jnsgd1na2vs0mg"},{"bike_id":"e0666e0d-2b87-421d-a654-8a669cd5994c","system_id":"levelo_inurba_marseille","lat":43.28864,"lon":5.39308,"is_reserved":false,"is_disabled":false,"rental_uris":{"android":"levelo://app?vid=e0666e0d-2b87-421d-a654-8a669cd5994c","ios":"levelo://app?vid=e0666e0d-2b87-421d-a654-8a669cd5994c"},"vehicle_type_id":"4","last_reported":1773988867,"current_range_meters":3600,"station_id":"ce4bh2p2rcd13ifvqdi0","pricing_plan_id":"cebpf4jnsgd1na2vs0mg"},{"bike_id":"ed6051f8-d3e3-4dd8-b529-3dbcc1526735","system_id":"levelo_inurba_marseille","lat":43.29681,"lon":5.37295,"is_reserved":false,"is_disabled":false,"rental_uris":{"android":"levelo://app?vid=ed6051f8-d3e3-4dd8-b529-3dbcc1526735","ios":"levelo://app?vid=ed6051f8-d3e3-4dd8-b529-3dbcc1526735"},"vehicle_type_id":"4","last_reported":1773988867,"current_range_meters":3600,"station_id":"ce4bgk12rcd13ifvqbj0","pricing_plan_id":"cebpf4jnsgd1na2vs0mg"},{"bike_id":"719e9861-af82-4022-a2ea-bd7d6f00ff5f","system_id":"levelo_inurba_marseille","lat":43.28751,"lon":5.42529,"is_reserved":false,"is_disabled":true,"rental_uris":{"android":"levelo://app?vid=719e9861-af82-4022-a2ea-bd7d6f00ff5f","ios":"levelo://app?vid=719e9861-af82-4022-a2ea-bd7d6f00ff5f"},"vehicle_type_id":"4","last_reported":1773988867,"current_range_meters":3600,"station_id":"","pricing_plan_id":"cebpf4jnsgd1na2vs0mg"},{"bike_id":"cbc8599d-0f53-4276-b29f-85b323d36cb9","system_id":"levelo_inurba_marseille","lat":43.25488,"lon":5.37647,"is_reserved":false,"is_disabled":false,"rental_uris":{"android":"levelo://app?vid=cbc8599d-0f53-4276-b29f-85b323d36cb9","ios":"levelo://app?vid=cbc8599d-0f53-4276-b29f-85b323d36cb9"},"vehicle_type_id":"4","last_reported":1773988867,"current_range_meters":3600,"station_id":"ce4bhh12rcd13ifvqff0","pricing_plan_id":"cebpf4jnsgd1na2vs0mg"},{"bike_id":"8c29270d-5d11-446e-a3f0-f5c56ae9c816","system_id":"levelo_inurba_marseille","lat":43.27562,"lon":5.43285,"is_reserved":false,"is_disabled":false,"rental_uris":{"android":"levelo://app?vid=8c29270d-5d11-446e-a3f0-f5c56ae9c816","ios":"levelo://app?vid=8c29270d-5d11-446e-a3f0-f5c56ae9c816"},"vehicle_type_id":"4","last_reported":1773988867,"current_range_meters":3600,"station_id":"","pricing_plan_id":"cebpf4jnsgd1na2vs0mg"},{"bike_id":"3fd8ef50-88b4-42ca-93ad-316de6f9e9bc","system_id":"levelo_inurba_marseille","lat":43.28174,"lon":5.42649,"is_reserved":false,"is_disabled":false,"rental_uris":{"android":"levelo://app?vid=3fd8ef50-88b4-42ca-93ad-316de6f9e9bc","ios":"levelo://app?vid=3fd8ef50-88b4-42ca-93ad-316de6f9e9bc"},"vehicle_type_id":"4","last_reported":1773988867,"current_range_meters":3600,"station_id":"ce4bhnh2rcd13ifvqgug","pricing_plan_id":"cebpf4jnsgd1na2vs0mg"},{"bike_id":"80b7eb86-d44d-4945-8f3c-c36c8aeeddf5","system_id":"levelo_inurba_marseille","lat":43.28199,"lon":5.3907,"is_reserved":false,"is_disabled":false,"rental_uris":{"android":"levelo://app?vid=80b7eb86-d44d-4945-8f3c-c36c8aeeddf5","ios":"levelo://app?vid=80b7eb86-d44d-4945-8f3c-c36c8aeeddf5"},"vehicle_type_id":"4","last_reported":1773988867,"current_range_meters":3600,"station_id":"ce4bhn92rcd13ifvqgsg","pricing_plan_id":"cebpf4jnsgd1na2vs0mg"},{"bike_id":"caf5e45c-f3f2-43eb-99a6-b11ec33451e8","system_id":"levelo_inurba_marseille","lat":43.23969,"lon":5.36618,"is_reserved":false,"is_disabled":false,"rental_uris":{"android":"levelo://app?vid=caf5e45c-f3f2-43eb-99a6-b11ec33451e8","ios":"levelo://app?vid=caf5e45c-f3f2-43eb-99a6-b11ec33451e8"},"vehicle_type_id":"4","last_reported":1773988867,"current_range_meters":3600,"station_id":"ce4bhi12rcd13ifvqfp0","pricing_plan_id":"cebpf4jnsgd1na2vs0mg"},{"bike_id":"bebf81dd-d36c-4ba6-b588-ef688f7e3fce","system_id":"levelo_inurba_marseille","lat":43.28348,"lon":5.38101,"is_reserved":false,"is_disabled":false,"rental_uris":{"android":"levelo://app?vid=bebf81dd-d36c-4ba6-b588-ef688f7e3fce","ios":"levelo://app?vid=bebf81dd-d36c-4ba6-b588-ef688f7e3fce"},"vehicle_type_id":"4","last_reported":1773988867,"current_range_meters":3600,"station_id":"ce4bh412rcd13ifvqdr0","pricing_plan_id":"cebpf4jnsgd1na2vs0mg"},{"bike_id":"1e2f816c-1f69-4076-ad05-a43f4981fe03","system_id":"levelo_inurba_marseille","lat":43.27822,"lon":5.392,"is_reserved":false,"is_disabled":false,"rental_uris":{"android":"levelo://app?vid=1e2f816c-1f69-4076-ad05-a43f4981fe03","ios":"levelo://app?vid=1e2f816c-1f69-4076-ad05-a43f4981fe03"},"vehicle_type_id":"4","last_reported":1773988867,"current_range_meters":3600,"station_id":"ce4bhjp2rcd13ifvqga0","pricing_plan_id":"cebpf4jnsgd1na2vs0mg"},{"bike_id":"9861b16b-374b-4538-b5be-9a1846919c36","system_id":"levelo_inurba_marseille","lat":43.29038,"lon":5.35909,"is_reserved":false,"is_disabled":false,"rental_uris":{"android":"levelo://app?vid=9861b16b-374b-4538-b5be-9a1846919c36","ios":"levelo://app?vid=9861b16b-374b-4538-b5be-9a1846919c36"},"vehicle_type_id":"4","last_reported":1773988867,"current_range_meters":3600,"station_id":"ce4bha92rcd13ifvqeg0","pricing_plan_id":"cebpf4jnsgd1na2vs0mg"},{"bike_id":"f8002e32-7d40-48f8-99b3-a631b985eba5","system_id":"levelo_inurba_marseille","lat":43.337566,"lon":5.374557,"is_reserved":false,"is_disabled":false,"rental_uris":{"android":"levelo://app?vid=f8002e32-7d40-48f8-99b3-a631b985eba5","ios":"levelo://app?vid=f8002e32-7d40-48f8-99b3-a631b985eba5"},"vehicle_type_id":"4","last_reported":1773988867,"current_range_meters":4000,"station_id":"","pricing_plan_id":"cebpf4jnsgd1na2vs0mg"},{"bike_id":"8a484c72-23b3-466d-89da-f158ab0c41ca","system_id":"levelo_inurba_marseille","lat":43.31048,"lon":5.37179,"is_reserved":false,"is_disabled":true,"rental_uris":{"android":"levelo://app?vid=8a484c72-23b3-466d-89da-f158ab0c41ca","ios":"levelo://app?vid=8a484c72-23b3-466d-89da-f158ab0c41ca"},"vehicle_type_id":"4","last_reported":1773988867,"current_range_meters":4000,"station_id":"st_d4kl2rp97mjs73e7tdfg","pricing_plan_id":"cebpf4jnsgd1na2vs0mg"},{"bike_id":"25e92da5-158b-41cf-b722-ee80c70151d4","system_id":"levelo_inurba_marseille","lat":43.28276,"lon":5.35069,"is_reserved":false,"is_disabled":false,"rental_uris":{"android":"levelo://app?vid=25e92da5-158b-41cf-b722-ee80c70151d4","ios":"levelo://app?vid=25e92da5-158b-41cf-b722-ee80c70151d4"},"vehicle_type_id":"4","last_reported":1773988867,"current_range_meters":4000,"station_id":"ce4bhbp2rcd13ifvqerg","pricing_plan_id":"cebpf4jnsgd1na2vs0mg"},{"bike_id":"9f93d555-d079-4f3d-a456-8da7243da564","system_id":"levelo_inurba_marseille","lat":43.28415,"lon":5.37532,"is_reserved":false,"is_disabled":false,"rental_uris":{"android":"levelo://app?vid=9f93d555-d079-4f3d-a456-8da7243da564","ios":"levelo://app?vid=9f93d555-d079-4f3d-a456-8da7243da564"},"vehicle_type_id":"4","last_reported":1773988867,"current_range_meters":4000,"station_id":"ce4bh412rcd13ifvqds0","pricing_plan_id":"cebpf4jnsgd1na2vs0mg"},{"bike_id":"741ca2ef-c085-4c7a-a9dd-c998b701c041","system_id":"levelo_inurba_marseille","lat":43.3177,"lon":5.38995,"is_reserved":false,"is_disabled":false,"rental_uris":{"android":"levelo://app?vid=741ca2ef-c085-4c7a-a9dd-c998b701c041","ios":"levelo://app?vid=741ca2ef-c085-4c7a-a9dd-c998b701c041"},"vehicle_type_id":"4","last_reported":1773988867,"current_range_meters":4000,"station_id":"ce4bhqp2rcd13ifvqhng","pricing_plan_id":"cebpf4jnsgd1na2vs0mg"},{"bike_id":"653417a1-4b3e-4d39-9c57-a85e662a0357","system_id":"levelo_inurba_marseille","lat":43.32113,"lon":5.36769,"is_reserved":false,"is_disabled":false,"rental_uris":{"android":"levelo://app?vid=653417a1-4b3e-4d39-9c57-a85e662a0357","ios":"levelo://app?vid=653417a1-4b3e-4d39-9c57-a85e662a0357"},"vehicle_type_id":"4","last_reported":1773988867,"current_range_meters":4000,"station_id":"ce4bhrh2rcd13ifvqhug","pricing_plan_id":"cebpf4jnsgd1na2vs0mg"},{"bike_id":"abbf6d01-98c5-4c6a-8da3-f3a3ead823a7","system_id":"levelo_inurba_marseille","lat":43.3042,"lon":5.39738,"is_reserved":false,"is_disabled":false,"rental_uris":{"android":"levelo://app?vid=abbf6d01-98c5-4c6a-8da3-f3a3ead823a7","ios":"levelo://app?vid=abbf6d01-98c5-4c6a-8da3-f3a3ead823a7"},"vehicle_type_id":"4","last_reported":1773988867,"current_range_meters":4000,"station_id":"ce4bh092rcd13ifvqd20","pricing_plan_id":"cebpf4jnsgd1na2vs0mg"},{"bike_id":"fc7efc5d-1cfc-4478-be02-6cad154d8e35","system_id":"levelo_inurba_marseille","lat":43.28863,"lon":5.3931,"is_reserved":false,"is_disabled":false,"rental_uris":{"android":"levelo://app?vid=fc7efc5d-1cfc-4478-be02-6cad154d8e35","ios":"levelo://app?vid=fc7efc5d-1cfc-4478-be02-6cad154d8e35"},"vehicle_type_id":"4","last_reported":1773988867,"current_range_meters":4000,"station_id":"ce4bh2p2rcd13ifvqdi0","pricing_plan_id":"cebpf4jnsgd1na2vs0mg"},{"bike_id":"0e8cd5cc-c18c-4d31-9042-e2ffdf430415","system_id":"levelo_inurba_marseille","lat":43.31272,"lon":5.40183,"is_reserved":false,"is_disabled":false,"rental_uris":{"android":"levelo://app?vid=0e8cd5cc-c18c-4d31-9042-e2ffdf430415","ios":"levelo://app?vid=0e8cd5cc-c18c-4d31-9042-e2ffdf430415"},"vehicle_type_id":"4","last_reported":1773988867,"current_range_meters":4000,"station_id":"ce4bh092rcd13ifvqd30","pricing_plan_id":"cebpf4jnsgd1na2vs0mg"},{"bike_id":"e1fcda96-10f8-4416-a2de-b3c0381d6f12","system_id":"levelo_inurba_marseille","lat":43.27369,"lon":5.36254,"is_reserved":false,"is_disabled":true,"rental_uris":{"android":"levelo://app?vid=e1fcda96-10f8-4416-a2de-b3c0381d6f12","ios":"levelo://app?vid=e1fcda96-10f8-4416-a2de-b3c0381d6f12"},"vehicle_type_id":"4","last_reported":1773988867,"current_range_meters":4000,"station_id":"ce4bhbh2rcd13ifvqeo0","pricing_plan_id":"cebpf4jnsgd1na2vs0mg"},{"bike_id":"69dc0199-53d1-4a6e-ade3-580f2c888e49","system_id":"levelo_inurba_marseille","lat":43.24653,"lon":5.38888,"is_reserved":false,"is_disabled":false,"rental_uris":{"android":"levelo://app?vid=69dc0199-53d1-4a6e-ade3-580f2c888e49","ios":"levelo://app?vid=69dc0199-53d1-4a6e-ade3-580f2c888e49"},"vehicle_type_id":"4","last_reported":1773988867,"current_range_meters":4000,"station_id":"ce4bhg12rcd13ifvqf60","pricing_plan_id":"cebpf4jnsgd1na2vs0mg"},{"bike_id":"3cdb9282-92ea-46a0-a841-f2dd988ecc68","system_id":"levelo_inurba_marseille","lat":43.22986,"lon":5.35393,"is_reserved":false,"is_disabled":false,"rental_uris":{"android":"levelo://app?vid=3cdb9282-92ea-46a0-a841-f2dd988ecc68","ios":"levelo://app?vid=3cdb9282-92ea-46a0-a841-f2dd988ecc68"},"vehicle_type_id":"4","last_reported":1773988867,"current_range_meters":4000,"station_id":"cpo3532slgdg3j2ikp40","pricing_plan_id":"cebpf4jnsgd1na2vs0mg"},{"bike_id":"89b36531-931c-4715-9768-674a7724e393","system_id":"levelo_inurba_marseille","lat":43.30465,"lon":5.37912,"is_reserved":false,"is_disabled":false,"rental_uris":{"android":"levelo://app?vid=89b36531-931c-4715-9768-674a7724e393","ios":"levelo://app?vid=89b36531-931c-4715-9768-674a7724e393"},"vehicle_type_id":"4","last_reported":1773988867,"current_range_meters":4000,"station_id":"","pricing_plan_id":"cebpf4jnsgd1na2vs0mg"},{"bike_id":"1ed14975-ffc4-4856-bb43-9428d8562a11","system_id":"levelo_inurba_marseille","lat":43.28343,"lon":5.38097,"is_reserved":false,"is_disabled":false,"rental_uris":{"android":"levelo://app?vid=1ed14975-ffc4-4856-bb43-9428d8562a11","ios":"levelo://app?vid=1ed14975-ffc4-4856-bb43-9428d8562a11"},"vehicle_type_id":"4","last_reported":1773988867,"current_range_meters":4000,"station_id":"ce4bh412rcd13ifvqdr0","pricing_plan_id":"cebpf4jnsgd1na2vs0mg"},{"bike_id":"a0ae2982-85c4-4de7-b9eb-5ab3919346ff","system_id":"levelo_inurba_marseille","lat":43.23176,"lon":5.39993,"is_reserved":false,"is_disabled":false,"rental_uris":{"android":"levelo://app?vid=a0ae2982-85c4-4de7-b9eb-5ab3919346ff","ios":"levelo://app?vid=a0ae2982-85c4-4de7-b9eb-5ab3919346ff"},"vehicle_type_id":"4","last_reported":1773988867,"current_range_meters":4400,"station_id":"ce4bhn12rcd13ifvqgqg","pricing_plan_id":"cebpf4jnsgd1na2vs0mg"},{"bike_id":"24dc1ce5-2db6-421b-869a-69d6f082b300","system_id":"levelo_inurba_marseille","lat":43.29795,"lon":5.36251,"is_reserved":false,"is_disabled":false,"rental_uris":{"android":"levelo://app?vid=24dc1ce5-2db6-421b-869a-69d6f082b300","ios":"levelo://app?vid=24dc1ce5-2db6-421b-869a-69d6f082b300"},"vehicle_type_id":"4","last_reported":1773988867,"current_range_meters":4400,"station_id":"","pricing_plan_id":"cebpf4jnsgd1na2vs0mg"},{"bike_id":"8d66e104-e189-488e-b441-5ec1e13e5a5a","system_id":"levelo_inurba_marseille","lat":43.24539,"lon":5.39526,"is_reserved":false,"is_disabled":false,"rental_uris":{"android":"levelo://app?vid=8d66e104-e189-488e-b441-5ec1e13e5a5a","ios":"levelo://app?vid=8d66e104-e189-488e-b441-5ec1e13e5a5a"},"vehicle_type_id":"4","last_reported":1773988867,"current_range_meters":4400,"station_id":"ce4bhlp2rcd13ifvqgjg","pricing_plan_id":"cebpf4jnsgd1na2vs0mg"},{"bike_id":"cbabca52-9c4c-4348-9f04-38b450561923","system_id":"levelo_inurba_marseille","lat":43.28684,"lon":5.37419,"is_reserved":false,"is_disabled":false,"rental_uris":{"android":"levelo://app?vid=cbabca52-9c4c-4348-9f04-38b450561923","ios":"levelo://app?vid=cbabca52-9c4c-4348-9f04-38b450561923"},"vehicle_type_id":"4","last_reported":1773988867,"current_range_meters":4400,"station_id":"ce4bh3p2rcd13ifvqdq0","pricing_plan_id":"cebpf4jnsgd1na2vs0mg"},{"bike_id":"aff9c66b-eec4-4ea4-8209-91fb2f32675e","system_id":"levelo_inurba_marseille","lat":43.28165,"lon":5.4265,"is_reserved":false,"is_disabled":false,"rental_uris":{"android":"levelo://app?vid=aff9c66b-eec4-4ea4-8209-91fb2f32675e","ios":"levelo://app?vid=aff9c66b-eec4-4ea4-8209-91fb2f32675e"},"vehicle_type_id":"4","last_reported":1773988867,"current_range_meters":4400,"station_id":"ce4bhnh2rcd13ifvqgug","pricing_plan_id":"cebpf4jnsgd1na2vs0mg"},{"bike_id":"17a139df-17a2-4cb5-8cdc-aa40d036a00a","system_id":"levelo_inurba_marseille","lat":43.23791,"lon":5.36632,"is_reserved":false,"is_disabled":false,"rental_uris":{"android":"levelo://app?vid=17a139df-17a2-4cb5-8cdc-aa40d036a00a","ios":"levelo://app?vid=17a139df-17a2-4cb5-8cdc-aa40d036a00a"},"vehicle_type_id":"4","last_reported":1773988867,"current_range_meters":4400,"station_id":"st_d3nk18o9ro0c73en2l3g","pricing_plan_id":"cebpf4jnsgd1na2vs0mg"},{"bike_id":"13243d3c-36f1-423c-9b1a-5632aef121d8","system_id":"levelo_inurba_marseille","lat":43.337444,"lon":5.374475,"is_reserved":false,"is_disabled":false,"rental_uris":{"android":"levelo://app?vid=13243d3c-36f1-423c-9b1a-5632aef121d8","ios":"levelo://app?vid=13243d3c-36f1-423c-9b1a-5632aef121d8"},"vehicle_type_id":"4","last_reported":1773988867,"current_range_meters":4400,"station_id":"","pricing_plan_id":"cebpf4jnsgd1na2vs0mg"},{"bike_id":"82a2b933-8311-4ade-a5b0-f44c84d3e05d","system_id":"levelo_inurba_marseille","lat":43.29604,"lon":5.37505,"is_reserved":false,"is_disabled":false,"rental_uris":{"android":"levelo://app?vid=82a2b933-8311-4ade-a5b0-f44c84d3e05d","ios":"levelo://app?vid=82a2b933-8311-4ade-a5b0-f44c84d3e05d"},"vehicle_type_id":"4","last_reported":1773988867,"current_range_meters":4400,"station_id":"ce4bgh92rcd13ifvqb50","pricing_plan_id":"cebpf4jnsgd1na2vs0mg"},{"bike_id":"cf21a704-d1d6-45ac-b508-b7d48f023c9f","system_id":"levelo_inurba_marseille","lat":43.32124,"lon":5.36755,"is_reserved":false,"is_disabled":false,"rental_uris":{"android":"levelo://app?vid=cf21a704-d1d6-45ac-b508-b7d48f023c9f","ios":"levelo://app?vid=cf21a704-d1d6-45ac-b508-b7d48f023c9f"},"vehicle_type_id":"4","last_reported":1773988867,"current_range_meters":4800,"station_id":"ce4bhrh2rcd13ifvqhug","pricing_plan_id":"cebpf4jnsgd1na2vs0mg"},{"bike_id":"94c94e72-682f-458f-ae2c-50a237aed109","system_id":"levelo_inurba_marseille","lat":43.301419,"lon":5.380803,"is_reserved":false,"is_disabled":false,"rental_uris":{"android":"levelo://app?vid=94c94e72-682f-458f-ae2c-50a237aed109","ios":"levelo://app?vid=94c94e72-682f-458f-ae2c-50a237aed109"},"vehicle_type_id":"4","last_reported":1773988867,"current_range_meters":4800,"station_id":"ce4bgjp2rcd13ifvqbh0","pricing_plan_id":"cebpf4jnsgd1na2vs0mg"},{"bike_id":"dd2f7881-755c-4593-bb3a-7ba359f1b823","system_id":"levelo_inurba_marseille","lat":43.29093,"lon":5.38157,"is_reserved":false,"is_disabled":true,"rental_uris":{"android":"levelo://app?vid=dd2f7881-755c-4593-bb3a-7ba359f1b823","ios":"levelo://app?vid=dd2f7881-755c-4593-bb3a-7ba359f1b823"},"vehicle_type_id":"4","last_reported":1773988867,"current_range_meters":4800,"station_id":"ce4bh512rcd13ifvqe2g","pricing_plan_id":"cebpf4jnsgd1na2vs0mg"},{"bike_id":"fb9f1d22-8aec-4a54-b4db-79f30174e92d","system_id":"levelo_inurba_marseille","lat":43.30892,"lon":5.39665,"is_reserved":false,"is_disabled":false,"rental_uris":{"android":"levelo://app?vid=fb9f1d22-8aec-4a54-b4db-79f30174e92d","ios":"levelo://app?vid=fb9f1d22-8aec-4a54-b4db-79f30174e92d"},"vehicle_type_id":"4","last_reported":1773988867,"current_range_meters":4800,"station_id":"ce4bh012rcd13ifvqcv0","pricing_plan_id":"cebpf4jnsgd1na2vs0mg"},{"bike_id":"8498cbd8-a1d6-4a8d-a08b-8ebf64a2beb0","system_id":"levelo_inurba_marseille","lat":43.27054,"lon":5.4026,"is_reserved":false,"is_disabled":false,"rental_uris":{"android":"levelo://app?vid=8498cbd8-a1d6-4a8d-a08b-8ebf64a2beb0","ios":"levelo://app?vid=8498cbd8-a1d6-4a8d-a08b-8ebf64a2beb0"},"vehicle_type_id":"4","last_reported":1773988867,"current_range_meters":4800,"station_id":"ce4bhk92rcd13ifvqgc0","pricing_plan_id":"cebpf4jnsgd1na2vs0mg"},{"bike_id":"e5db9422-54d6-48cb-a2e4-94272185a22e","system_id":"levelo_inurba_marseille","lat":43.30286,"lon":5.37712,"is_reserved":false,"is_disabled":false,"rental_uris":{"android":"levelo://app?vid=e5db9422-54d6-48cb-a2e4-94272185a22e","ios":"levelo://app?vid=e5db9422-54d6-48cb-a2e4-94272185a22e"},"vehicle_type_id":"4","last_reported":1773988867,"current_range_meters":4800,"station_id":"ce4bguh2rcd13ifvqcj0","pricing_plan_id":"cebpf4jnsgd1na2vs0mg"},{"bike_id":"39426b8f-27c0-4528-86ab-7895721ecabd","system_id":"levelo_inurba_marseille","lat":43.29633,"lon":5.40614,"is_reserved":false,"is_disabled":false,"rental_uris":{"android":"levelo://app?vid=39426b8f-27c0-4528-86ab-7895721ecabd","ios":"levelo://app?vid=39426b8f-27c0-4528-86ab-7895721ecabd"},"vehicle_type_id":"4","last_reported":1773988867,"current_range_meters":4800,"station_id":"ce4bh0h2rcd13ifvqd60","pricing_plan_id":"cebpf4jnsgd1na2vs0mg"},{"bike_id":"78beea6e-fd38-45c1-919e-297e7a3c4aab","system_id":"levelo_inurba_marseille","lat":43.28619,"lon":5.37064,"is_reserved":false,"is_disabled":false,"rental_uris":{"android":"levelo://app?vid=78beea6e-fd38-45c1-919e-297e7a3c4aab","ios":"levelo://app?vid=78beea6e-fd38-45c1-919e-297e7a3c4aab"},"vehicle_type_id":"4","last_reported":1773988867,"current_range_meters":4800,"station_id":"ce4bht12rcd13ifvqi60","pricing_plan_id":"cebpf4jnsgd1na2vs0mg"},{"bike_id":"b89d795d-1c98-46d3-9f6b-d6f260b371c3","system_id":"levelo_inurba_marseille","lat":43.31481,"lon":5.37307,"is_reserved":false,"is_disabled":false,"rental_uris":{"android":"levelo://app?vid=b89d795d-1c98-46d3-9f6b-d6f260b371c3","ios":"levelo://app?vid=b89d795d-1c98-46d3-9f6b-d6f260b371c3"},"vehicle_type_id":"4","last_reported":1773988867,"current_range_meters":4800,"station_id":"ce4bgt12rcd13ifvqcd0","pricing_plan_id":"cebpf4jnsgd1na2vs0mg"},{"bike_id":"dd10efc5-28b9-436a-be78-8011941e89fc","system_id":"levelo_inurba_marseille","lat":43.28477,"lon":5.48396,"is_reserved":false,"is_disabled":false,"rental_uris":{"android":"levelo://app?vid=dd10efc5-28b9-436a-be78-8011941e89fc","ios":"levelo://app?vid=dd10efc5-28b9-436a-be78-8011941e89fc"},"vehicle_type_id":"4","last_reported":1773988867,"current_range_meters":4800,"station_id":"st_d3svhcjqgbts73a3dn0g","pricing_plan_id":"cebpf4jnsgd1na2vs0mg"},{"bike_id":"a7589a93-7e92-46e3-9adb-33c382fc7b2d","system_id":"levelo_inurba_marseille","lat":43.23963,"lon":5.3662,"is_reserved":false,"is_disabled":false,"rental_uris":{"android":"levelo://app?vid=a7589a93-7e92-46e3-9adb-33c382fc7b2d","ios":"levelo://app?vid=a7589a93-7e92-46e3-9adb-33c382fc7b2d"},"vehicle_type_id":"4","last_reported":1773988867,"current_range_meters":4800,"station_id":"ce4bhi12rcd13ifvqfp0","pricing_plan_id":"cebpf4jnsgd1na2vs0mg"},{"bike_id":"932f2828-5852-4fb2-9e6f-68c0b95d5736","system_id":"levelo_inurba_marseille","lat":43.29566,"lon":5.37536,"is_reserved":false,"is_disabled":false,"rental_uris":{"android":"levelo://app?vid=932f2828-5852-4fb2-9e6f-68c0b95d5736","ios":"levelo://app?vid=932f2828-5852-4fb2-9e6f-68c0b95d5736"},"vehicle_type_id":"4","last_reported":1773988867,"current_range_meters":4800,"station_id":"ce4bgh92rcd13ifvqb50","pricing_plan_id":"cebpf4jnsgd1na2vs0mg"},{"bike_id":"47b958a5-a9e9-4494-8472-abb0f760256b","system_id":"levelo_inurba_marseille","lat":43.23785,"lon":5.36626,"is_reserved":false,"is_disabled":false,"rental_uris":{"android":"levelo://app?vid=47b958a5-a9e9-4494-8472-abb0f760256b","ios":"levelo://app?vid=47b958a5-a9e9-4494-8472-abb0f760256b"},"vehicle_type_id":"4","last_reported":1773988867,"current_range_meters":4800,"station_id":"st_d3nk18o9ro0c73en2l3g","pricing_plan_id":"cebpf4jnsgd1na2vs0mg"},{"bike_id":"e9d13f0c-6991-43bb-a7f9-65572d2f1b97","system_id":"levelo_inurba_marseille","lat":43.301523,"lon":5.380479,"is_reserved":false,"is_disabled":false,"rental_uris":{"android":"levelo://app?vid=e9d13f0c-6991-43bb-a7f9-65572d2f1b97","ios":"levelo://app?vid=e9d13f0c-6991-43bb-a7f9-65572d2f1b97"},"vehicle_type_id":"4","last_reported":1773988867,"current_range_meters":4800,"station_id":"ce4bgjp2rcd13ifvqbh0","pricing_plan_id":"cebpf4jnsgd1na2vs0mg"},{"bike_id":"901df508-52f7-4d28-8460-c2850201844e","system_id":"levelo_inurba_marseille","lat":43.27321,"lon":5.39123,"is_reserved":false,"is_disabled":false,"rental_uris":{"android":"levelo://app?vid=901df508-52f7-4d28-8460-c2850201844e","ios":"levelo://app?vid=901df508-52f7-4d28-8460-c2850201844e"},"vehicle_type_id":"4","last_reported":1773988867,"current_range_meters":4800,"station_id":"ce4bhgp2rcd13ifvqfe0","pricing_plan_id":"cebpf4jnsgd1na2vs0mg"},{"bike_id":"3f9fb310-6fac-4137-b487-279ff0e33710","system_id":"levelo_inurba_marseille","lat":43.26027,"lon":5.37559,"is_reserved":false,"is_disabled":false,"rental_uris":{"android":"levelo://app?vid=3f9fb310-6fac-4137-b487-279ff0e33710","ios":"levelo://app?vid=3f9fb310-6fac-4137-b487-279ff0e33710"},"vehicle_type_id":"4","last_reported":1773988867,"current_range_meters":5600,"station_id":"ce4bhgh2rcd13ifvqfa0","pricing_plan_id":"cebpf4jnsgd1na2vs0mg"},{"bike_id":"24e02049-7d35-48ad-9eee-757709960f87","system_id":"levelo_inurba_marseille","lat":43.26031,"lon":5.3755,"is_reserved":false,"is_disabled":false,"rental_uris":{"android":"levelo://app?vid=24e02049-7d35-48ad-9eee-757709960f87","ios":"levelo://app?vid=24e02049-7d35-48ad-9eee-757709960f87"},"vehicle_type_id":"4","last_reported":1773988867,"current_range_meters":5600,"station_id":"ce4bhgh2rcd13ifvqfa0","pricing_plan_id":"cebpf4jnsgd1na2vs0mg"},{"bike_id":"da1c1c2c-15f1-4b15-badc-619bd1e4cf62","system_id":"levelo_inurba_marseille","lat":43.30416,"lon":5.3976,"is_reserved":false,"is_disabled":false,"rental_uris":{"android":"levelo://app?vid=da1c1c2c-15f1-4b15-badc-619bd1e4cf62","ios":"levelo://app?vid=da1c1c2c-15f1-4b15-badc-619bd1e4cf62"},"vehicle_type_id":"4","last_reported":1773988867,"current_range_meters":5600,"station_id":"ce4bh092rcd13ifvqd20","pricing_plan_id":"cebpf4jnsgd1na2vs0mg"},{"bike_id":"d5f7f0bf-c4f5-45e1-bf7d-f4959ca7505e","system_id":"levelo_inurba_marseille","lat":43.24404,"lon":5.37071,"is_reserved":false,"is_disabled":false,"rental_uris":{"android":"levelo://app?vid=d5f7f0bf-c4f5-45e1-bf7d-f4959ca7505e","ios":"levelo://app?vid=d5f7f0bf-c4f5-45e1-bf7d-f4959ca7505e"},"vehicle_type_id":"4","last_reported":1773988867,"current_range_meters":5600,"station_id":"ce4bhhh2rcd13ifvqfk0","pricing_plan_id":"cebpf4jnsgd1na2vs0mg"},{"bike_id":"0a99cb61-d4fb-47c5-8fde-a3fc942d52fd","system_id":"levelo_inurba_marseille","lat":43.30364,"lon":5.41891,"is_reserved":false,"is_disabled":false,"rental_uris":{"android":"levelo://app?vid=0a99cb61-d4fb-47c5-8fde-a3fc942d52fd","ios":"levelo://app?vid=0a99cb61-d4fb-47c5-8fde-a3fc942d52fd"},"vehicle_type_id":"4","last_reported":1773988867,"current_range_meters":5600,"station_id":"ce4bhop2rcd13ifvqh7g","pricing_plan_id":"cebpf4jnsgd1na2vs0mg"},{"bike_id":"b7e87515-c3ea-478e-bf01-a70f86b2f092","system_id":"levelo_inurba_marseille","lat":43.24174,"lon":5.36396,"is_reserved":false,"is_disabled":false,"rental_uris":{"android":"levelo://app?vid=b7e87515-c3ea-478e-bf01-a70f86b2f092","ios":"levelo://app?vid=b7e87515-c3ea-478e-bf01-a70f86b2f092"},"vehicle_type_id":"4","last_reported":1773988867,"current_range_meters":5600,"station_id":"cpo36qri1sfpv3e86is0","pricing_plan_id":"cebpf4jnsgd1na2vs0mg"},{"bike_id":"37eb1a2d-df05-401a-bf09-bb258f665fb1","system_id":"levelo_inurba_marseille","lat":43.28724,"lon":5.36085,"is_reserved":false,"is_disabled":false,"rental_uris":{"android":"levelo://app?vid=37eb1a2d-df05-401a-bf09-bb258f665fb1","ios":"levelo://app?vid=37eb1a2d-df05-401a-bf09-bb258f665fb1"},"vehicle_type_id":"4","last_reported":1773988867,"current_range_meters":5600,"station_id":"cki0cbj6b192h4jlfktg","pricing_plan_id":"cebpf4jnsgd1na2vs0mg"},{"bike_id":"1fa6ae88-4570-45b6-a22f-8f6c4c98f8a7","system_id":"levelo_inurba_marseille","lat":43.28412,"lon":5.37528,"is_reserved":false,"is_disabled":false,"rental_uris":{"android":"levelo://app?vid=1fa6ae88-4570-45b6-a22f-8f6c4c98f8a7","ios":"levelo://app?vid=1fa6ae88-4570-45b6-a22f-8f6c4c98f8a7"},"vehicle_type_id":"4","last_reported":1773988867,"current_range_meters":5600,"station_id":"ce4bh412rcd13ifvqds0","pricing_plan_id":"cebpf4jnsgd1na2vs0mg"},{"bike_id":"7fb26005-b04a-411f-ab89-80dcf676c1a9","system_id":"levelo_inurba_marseille","lat":43.28611,"lon":5.35113,"is_reserved":false,"is_disabled":false,"rental_uris":{"android":"levelo://app?vid=7fb26005-b04a-411f-ab89-80dcf676c1a9","ios":"levelo://app?vid=7fb26005-b04a-411f-ab89-80dcf676c1a9"},"vehicle_type_id":"4","last_reported":1773988867,"current_range_meters":5600,"station_id":"ce4bhch2rcd13ifvqeug","pricing_plan_id":"cebpf4jnsgd1na2vs0mg"},{"bike_id":"6a1da719-8966-4bdc-9ac9-61aa3f2bf6ec","system_id":"levelo_inurba_marseille","lat":43.31037,"lon":5.37187,"is_reserved":false,"is_disabled":false,"rental_uris":{"android":"levelo://app?vid=6a1da719-8966-4bdc-9ac9-61aa3f2bf6ec","ios":"levelo://app?vid=6a1da719-8966-4bdc-9ac9-61aa3f2bf6ec"},"vehicle_type_id":"4","last_reported":1773988867,"current_range_meters":5600,"station_id":"st_d4kl2rp97mjs73e7tdfg","pricing_plan_id":"cebpf4jnsgd1na2vs0mg"},{"bike_id":"efc7b843-aa30-4705-9b28-31f1aadd44e9","system_id":"levelo_inurba_marseille","lat":43.26557,"lon":5.37317,"is_reserved":false,"is_disabled":false,"rental_uris":{"android":"levelo://app?vid=efc7b843-aa30-4705-9b28-31f1aadd44e9","ios":"levelo://app?vid=efc7b843-aa30-4705-9b28-31f1aadd44e9"},"vehicle_type_id":"4","last_reported":1773988867,"current_range_meters":6000,"station_id":"ce4bhg12rcd13ifvqf70","pricing_plan_id":"cebpf4jnsgd1na2vs0mg"},{"bike_id":"31de91b8-2554-4f66-8bc6-9dfb581be216","system_id":"levelo_inurba_marseille","lat":43.28854,"lon":5.39328,"is_reserved":false,"is_disabled":false,"rental_uris":{"android":"levelo://app?vid=31de91b8-2554-4f66-8bc6-9dfb581be216","ios":"levelo://app?vid=31de91b8-2554-4f66-8bc6-9dfb581be216"},"vehicle_type_id":"4","last_reported":1773988867,"current_range_meters":6000,"station_id":"ce4bh2p2rcd13ifvqdi0","pricing_plan_id":"cebpf4jnsgd1na2vs0mg"},{"bike_id":"d51fe815-5335-4e1f-8e42-efe91c7e85aa","system_id":"levelo_inurba_marseille","lat":43.22935,"lon":5.35382,"is_reserved":false,"is_disabled":false,"rental_uris":{"android":"levelo://app?vid=d51fe815-5335-4e1f-8e42-efe91c7e85aa","ios":"levelo://app?vid=d51fe815-5335-4e1f-8e42-efe91c7e85aa"},"vehicle_type_id":"4","last_reported":1773988867,"current_range_meters":6000,"station_id":"cpo3532slgdg3j2ikp40","pricing_plan_id":"cebpf4jnsgd1na2vs0mg"},{"bike_id":"019df389-cbda-43a5-8b20-6e381d1c3786","system_id":"levelo_inurba_marseille","lat":43.30146,"lon":5.38112,"is_reserved":false,"is_disabled":false,"rental_uris":{"android":"levelo://app?vid=019df389-cbda-43a5-8b20-6e381d1c3786","ios":"levelo://app?vid=019df389-cbda-43a5-8b20-6e381d1c3786"},"vehicle_type_id":"4","last_reported":1773988867,"current_range_meters":6000,"station_id":"ce4bgjp2rcd13ifvqbh0","pricing_plan_id":"cebpf4jnsgd1na2vs0mg"},{"bike_id":"b656e6a2-bbf9-4119-931b-85f8dd2f28f2","system_id":"levelo_inurba_marseille","lat":43.30248,"lon":5.40071,"is_reserved":false,"is_disabled":false,"rental_uris":{"android":"levelo://app?vid=b656e6a2-bbf9-4119-931b-85f8dd2f28f2","ios":"levelo://app?vid=b656e6a2-bbf9-4119-931b-85f8dd2f28f2"},"vehicle_type_id":"4","last_reported":1773988867,"current_range_meters":6000,"station_id":"ce4bgvh2rcd13ifvqcs0","pricing_plan_id":"cebpf4jnsgd1na2vs0mg"},{"bike_id":"da74228f-ad83-4a1a-a4a4-8784714c55b1","system_id":"levelo_inurba_marseille","lat":43.31058,"lon":5.37186,"is_reserved":false,"is_disabled":false,"rental_uris":{"android":"levelo://app?vid=da74228f-ad83-4a1a-a4a4-8784714c55b1","ios":"levelo://app?vid=da74228f-ad83-4a1a-a4a4-8784714c55b1"},"vehicle_type_id":"4","last_reported":1773988867,"current_range_meters":6000,"station_id":"st_d4kl2rp97mjs73e7tdfg","pricing_plan_id":"cebpf4jnsgd1na2vs0mg"},{"bike_id":"be523ae7-f0fc-4e2a-970b-30a3029fa717","system_id":"levelo_inurba_marseille","lat":43.28487,"lon":5.48394,"is_reserved":false,"is_disabled":false,"rental_uris":{"android":"levelo://app?vid=be523ae7-f0fc-4e2a-970b-30a3029fa717","ios":"levelo://app?vid=be523ae7-f0fc-4e2a-970b-30a3029fa717"},"vehicle_type_id":"4","last_reported":1773988867,"current_range_meters":6000,"station_id":"st_d3svhcjqgbts73a3dn0g","pricing_plan_id":"cebpf4jnsgd1na2vs0mg"},{"bike_id":"15750178-4f9b-426f-bafa-493e04eb7e36","system_id":"levelo_inurba_marseille","lat":43.30802,"lon":5.40677,"is_reserved":false,"is_disabled":false,"rental_uris":{"android":"levelo://app?vid=15750178-4f9b-426f-bafa-493e04eb7e36","ios":"levelo://app?vid=15750178-4f9b-426f-bafa-493e04eb7e36"},"vehicle_type_id":"4","last_reported":1773988867,"current_range_meters":6000,"station_id":"","pricing_plan_id":"cebpf4jnsgd1na2vs0mg"},{"bike_id":"e401ae27-52e3-4017-90f4-dcbaf70fc562","system_id":"levelo_inurba_marseille","lat":43.27207,"lon":5.39211,"is_reserved":false,"is_disabled":false,"rental_uris":{"android":"levelo://app?vid=e401ae27-52e3-4017-90f4-dcbaf70fc562","ios":"levelo://app?vid=e401ae27-52e3-4017-90f4-dcbaf70fc562"},"vehicle_type_id":"4","last_reported":1773988867,"current_range_meters":6000,"station_id":"ce4bhhp2rcd13ifvqfm0","pricing_plan_id":"cebpf4jnsgd1na2vs0mg"},{"bike_id":"27cfd7f2-48c6-4fe4-9d82-e5b76120df75","system_id":"levelo_inurba_marseille","lat":43.29808,"lon":5.44075,"is_reserved":false,"is_disabled":false,"rental_uris":{"android":"levelo://app?vid=27cfd7f2-48c6-4fe4-9d82-e5b76120df75","ios":"levelo://app?vid=27cfd7f2-48c6-4fe4-9d82-e5b76120df75"},"vehicle_type_id":"4","last_reported":1773988867,"current_range_meters":6400,"station_id":"st_d3jp68qikq2c7381ktn0","pricing_plan_id":"cebpf4jnsgd1na2vs0mg"},{"bike_id":"52f6a6b9-7af9-4956-b458-baf5061e66bf","system_id":"levelo_inurba_marseille","lat":43.23342,"lon":5.44456,"is_reserved":false,"is_disabled":false,"rental_uris":{"android":"levelo://app?vid=52f6a6b9-7af9-4956-b458-baf5061e66bf","ios":"levelo://app?vid=52f6a6b9-7af9-4956-b458-baf5061e66bf"},"vehicle_type_id":"4","last_reported":1773988867,"current_range_meters":6400,"station_id":"","pricing_plan_id":"cebpf4jnsgd1na2vs0mg"},{"bike_id":"347a0133-45d3-4213-ae48-606f4453bbf3","system_id":"levelo_inurba_marseille","lat":43.2303,"lon":5.35517,"is_reserved":false,"is_disabled":false,"rental_uris":{"android":"levelo://app?vid=347a0133-45d3-4213-ae48-606f4453bbf3","ios":"levelo://app?vid=347a0133-45d3-4213-ae48-606f4453bbf3"},"vehicle_type_id":"4","last_reported":1773988867,"current_range_meters":6400,"station_id":"cpo3342slgdg3j2ifvpg","pricing_plan_id":"cebpf4jnsgd1na2vs0mg"},{"bike_id":"88f62a4c-1dd5-4d07-a59a-902271acdb70","system_id":"levelo_inurba_marseille","lat":43.28179,"lon":5.42645,"is_reserved":false,"is_disabled":false,"rental_uris":{"android":"levelo://app?vid=88f62a4c-1dd5-4d07-a59a-902271acdb70","ios":"levelo://app?vid=88f62a4c-1dd5-4d07-a59a-902271acdb70"},"vehicle_type_id":"4","last_reported":1773988867,"current_range_meters":6400,"station_id":"ce4bhnh2rcd13ifvqgug","pricing_plan_id":"cebpf4jnsgd1na2vs0mg"},{"bike_id":"2a46947c-d8af-4bbd-9279-06c678e5b3bf","system_id":"levelo_inurba_marseille","lat":43.31111,"lon":5.37755,"is_reserved":false,"is_disabled":false,"rental_uris":{"android":"levelo://app?vid=2a46947c-d8af-4bbd-9279-06c678e5b3bf","ios":"levelo://app?vid=2a46947c-d8af-4bbd-9279-06c678e5b3bf"},"vehicle_type_id":"4","last_reported":1773988867,"current_range_meters":6400,"station_id":"ce4bgt92rcd13ifvqcg0","pricing_plan_id":"cebpf4jnsgd1na2vs0mg"},{"bike_id":"ab4333b3-4a34-41e2-af7a-a9f91926a288","system_id":"levelo_inurba_marseille","lat":43.29591,"lon":5.39953,"is_reserved":false,"is_disabled":false,"rental_uris":{"android":"levelo://app?vid=ab4333b3-4a34-41e2-af7a-a9f91926a288","ios":"levelo://app?vid=ab4333b3-4a34-41e2-af7a-a9f91926a288"},"vehicle_type_id":"4","last_reported":1773988867,"current_range_meters":6400,"station_id":"ce4bh312rcd13ifvqdj0","pricing_plan_id":"cebpf4jnsgd1na2vs0mg"},{"bike_id":"b656aabe-7c73-4de4-a3ab-51dc49496f82","system_id":"levelo_inurba_marseille","lat":43.29307,"lon":5.37167,"is_reserved":false,"is_disabled":true,"rental_uris":{"android":"levelo://app?vid=b656aabe-7c73-4de4-a3ab-51dc49496f82","ios":"levelo://app?vid=b656aabe-7c73-4de4-a3ab-51dc49496f82"},"vehicle_type_id":"4","last_reported":1773988867,"current_range_meters":6800,"station_id":"ce4bgh92rcd13ifvqb40","pricing_plan_id":"cebpf4jnsgd1na2vs0mg"},{"bike_id":"320f3963-8b76-44c1-99a9-9a21ab101504","system_id":"levelo_inurba_marseille","lat":43.28727,"lon":5.40015,"is_reserved":false,"is_disabled":false,"rental_uris":{"android":"levelo://app?vid=320f3963-8b76-44c1-99a9-9a21ab101504","ios":"levelo://app?vid=320f3963-8b76-44c1-99a9-9a21ab101504"},"vehicle_type_id":"4","last_reported":1773988867,"current_range_meters":6800,"station_id":"ce4bho92rcd13ifvqh3g","pricing_plan_id":"cebpf4jnsgd1na2vs0mg"},{"bike_id":"0836c59c-4e19-4ca7-8410-a79df9dfcc6b","system_id":"levelo_inurba_marseille","lat":43.28534,"lon":5.44097,"is_reserved":false,"is_disabled":false,"rental_uris":{"android":"levelo://app?vid=0836c59c-4e19-4ca7-8410-a79df9dfcc6b","ios":"levelo://app?vid=0836c59c-4e19-4ca7-8410-a79df9dfcc6b"},"vehicle_type_id":"4","last_reported":1773988867,"current_range_meters":6800,"station_id":"st_d3j3df2ikq2c7380ej80","pricing_plan_id":"cebpf4jnsgd1na2vs0mg"},{"bike_id":"4d9e23d5-bd87-4727-8d57-c47ef2bf36a8","system_id":"levelo_inurba_marseille","lat":43.29182,"lon":5.35797,"is_reserved":false,"is_disabled":false,"rental_uris":{"android":"levelo://app?vid=4d9e23d5-bd87-4727-8d57-c47ef2bf36a8","ios":"levelo://app?vid=4d9e23d5-bd87-4727-8d57-c47ef2bf36a8"},"vehicle_type_id":"4","last_reported":1773988867,"current_range_meters":6800,"station_id":"ce4bhb12rcd13ifvqel0","pricing_plan_id":"cebpf4jnsgd1na2vs0mg"},{"bike_id":"b790cc6c-beda-4dcd-96dd-e541806c10fa","system_id":"levelo_inurba_marseille","lat":43.27486,"lon":5.41606,"is_reserved":false,"is_disabled":false,"rental_uris":{"android":"levelo://app?vid=b790cc6c-beda-4dcd-96dd-e541806c10fa","ios":"levelo://app?vid=b790cc6c-beda-4dcd-96dd-e541806c10fa"},"vehicle_type_id":"4","last_reported":1773988867,"current_range_meters":6800,"station_id":"st_d6im8g6chgec73a5pndg","pricing_plan_id":"cebpf4jnsgd1na2vs0mg"},{"bike_id":"addd9e53-bfde-4c2f-8c89-4a891b6a7add","system_id":"levelo_inurba_marseille","lat":43.31345,"lon":5.37919,"is_reserved":false,"is_disabled":false,"rental_uris":{"android":"levelo://app?vid=addd9e53-bfde-4c2f-8c89-4a891b6a7add","ios":"levelo://app?vid=addd9e53-bfde-4c2f-8c89-4a891b6a7add"},"vehicle_type_id":"4","last_reported":1773988867,"current_range_meters":6800,"station_id":"","pricing_plan_id":"cebpf4jnsgd1na2vs0mg"},{"bike_id":"8b699ea7-b22c-498f-80e0-9f808583494e","system_id":"levelo_inurba_marseille","lat":43.29583,"lon":5.42196,"is_reserved":false,"is_disabled":false,"rental_uris":{"android":"levelo://app?vid=8b699ea7-b22c-498f-80e0-9f808583494e","ios":"levelo://app?vid=8b699ea7-b22c-498f-80e0-9f808583494e"},"vehicle_type_id":"4","last_reported":1773988867,"current_range_meters":6800,"station_id":"","pricing_plan_id":"cebpf4jnsgd1na2vs0mg"},{"bike_id":"a7dd1c2f-1863-4db6-9064-755a90a3283b","system_id":"levelo_inurba_marseille","lat":43.29729,"lon":5.4259,"is_reserved":false,"is_disabled":false,"rental_uris":{"android":"levelo://app?vid=a7dd1c2f-1863-4db6-9064-755a90a3283b","ios":"levelo://app?vid=a7dd1c2f-1863-4db6-9064-755a90a3283b"},"vehicle_type_id":"4","last_reported":1773988867,"current_range_meters":6800,"station_id":"","pricing_plan_id":"cebpf4jnsgd1na2vs0mg"},{"bike_id":"8ba5e59c-1b23-4850-921f-9f05aa4326d2","system_id":"levelo_inurba_marseille","lat":43.32664,"lon":5.40967,"is_reserved":false,"is_disabled":false,"rental_uris":{"android":"levelo://app?vid=8ba5e59c-1b23-4850-921f-9f05aa4326d2","ios":"levelo://app?vid=8ba5e59c-1b23-4850-921f-9f05aa4326d2"},"vehicle_type_id":"4","last_reported":1773988867,"current_range_meters":6800,"station_id":"ce4bhpp2rcd13ifvqhgg","pricing_plan_id":"cebpf4jnsgd1na2vs0mg"},{"bike_id":"d03a2022-6922-4b85-aada-659333694e5e","system_id":"levelo_inurba_marseille","lat":43.31202,"lon":5.3871,"is_reserved":false,"is_disabled":true,"rental_uris":{"android":"levelo://app?vid=d03a2022-6922-4b85-aada-659333694e5e","ios":"levelo://app?vid=d03a2022-6922-4b85-aada-659333694e5e"},"vehicle_type_id":"4","last_reported":1773988867,"current_range_meters":6800,"station_id":"ce4bgv12rcd13ifvqcp0","pricing_plan_id":"cebpf4jnsgd1na2vs0mg"},{"bike_id":"d20fe808-e687-447e-bd57-e26f24a89071","system_id":"levelo_inurba_marseille","lat":43.24175,"lon":5.36399,"is_reserved":false,"is_disabled":false,"rental_uris":{"android":"levelo://app?vid=d20fe808-e687-447e-bd57-e26f24a89071","ios":"levelo://app?vid=d20fe808-e687-447e-bd57-e26f24a89071"},"vehicle_type_id":"4","last_reported":1773988867,"current_range_meters":6800,"station_id":"cpo36qri1sfpv3e86is0","pricing_plan_id":"cebpf4jnsgd1na2vs0mg"},{"bike_id":"33e015f6-34a2-44b9-a37e-fd5fd3630f6d","system_id":"levelo_inurba_marseille","lat":43.24172,"lon":5.36405,"is_reserved":false,"is_disabled":false,"rental_uris":{"android":"levelo://app?vid=33e015f6-34a2-44b9-a37e-fd5fd3630f6d","ios":"levelo://app?vid=33e015f6-34a2-44b9-a37e-fd5fd3630f6d"},"vehicle_type_id":"4","last_reported":1773988867,"current_range_meters":6800,"station_id":"cpo36qri1sfpv3e86is0","pricing_plan_id":"cebpf4jnsgd1na2vs0mg"},{"bike_id":"35b98144-a8e9-4b84-b91d-3513211f7aa1","system_id":"levelo_inurba_marseille","lat":43.24798,"lon":5.37462,"is_reserved":false,"is_disabled":false,"rental_uris":{"android":"levelo://app?vid=35b98144-a8e9-4b84-b91d-3513211f7aa1","ios":"levelo://app?vid=35b98144-a8e9-4b84-b91d-3513211f7aa1"},"vehicle_type_id":"4","last_reported":1773988867,"current_range_meters":6800,"station_id":"ce4bhgh2rcd13ifvqfb0","pricing_plan_id":"cebpf4jnsgd1na2vs0mg"},{"bike_id":"9949bb18-8490-4f62-a48b-c7fe28a932c3","system_id":"levelo_inurba_marseille","lat":43.25811,"lon":5.39453,"is_reserved":false,"is_disabled":false,"rental_uris":{"android":"levelo://app?vid=9949bb18-8490-4f62-a48b-c7fe28a932c3","ios":"levelo://app?vid=9949bb18-8490-4f62-a48b-c7fe28a932c3"},"vehicle_type_id":"4","last_reported":1773988867,"current_range_meters":6800,"station_id":"ce4bhip2rcd13ifvqft0","pricing_plan_id":"cebpf4jnsgd1na2vs0mg"},{"bike_id":"22dbebf7-889c-4196-a90d-63fc97997096","system_id":"levelo_inurba_marseille","lat":43.27969,"lon":5.41676,"is_reserved":false,"is_disabled":false,"rental_uris":{"android":"levelo://app?vid=22dbebf7-889c-4196-a90d-63fc97997096","ios":"levelo://app?vid=22dbebf7-889c-4196-a90d-63fc97997096"},"vehicle_type_id":"4","last_reported":1773988867,"current_range_meters":6800,"station_id":"ce4bho12rcd13ifvqh1g","pricing_plan_id":"cebpf4jnsgd1na2vs0mg"},{"bike_id":"4ebc5a1c-fa8c-44d8-a7fc-38229c55eb9d","system_id":"levelo_inurba_marseille","lat":43.2464,"lon":5.38911,"is_reserved":false,"is_disabled":false,"rental_uris":{"android":"levelo://app?vid=4ebc5a1c-fa8c-44d8-a7fc-38229c55eb9d","ios":"levelo://app?vid=4ebc5a1c-fa8c-44d8-a7fc-38229c55eb9d"},"vehicle_type_id":"4","last_reported":1773988867,"current_range_meters":6800,"station_id":"ce4bhg12rcd13ifvqf60","pricing_plan_id":"cebpf4jnsgd1na2vs0mg"},{"bike_id":"0e7f2681-5342-46bf-b38c-2de14a86654b","system_id":"levelo_inurba_marseille","lat":43.30788,"lon":5.37642,"is_reserved":false,"is_disabled":false,"rental_uris":{"android":"levelo://app?vid=0e7f2681-5342-46bf-b38c-2de14a86654b","ios":"levelo://app?vid=0e7f2681-5342-46bf-b38c-2de14a86654b"},"vehicle_type_id":"4","last_reported":1773988867,"current_range_meters":6800,"station_id":"ce4bgv92rcd13ifvqcq0","pricing_plan_id":"cebpf4jnsgd1na2vs0mg"},{"bike_id":"b3c6ee7e-839e-47ca-8bd1-12618e78dd87","system_id":"levelo_inurba_marseille","lat":43.23954,"lon":5.36618,"is_reserved":false,"is_disabled":true,"rental_uris":{"android":"levelo://app?vid=b3c6ee7e-839e-47ca-8bd1-12618e78dd87","ios":"levelo://app?vid=b3c6ee7e-839e-47ca-8bd1-12618e78dd87"},"vehicle_type_id":"4","last_reported":1773988867,"current_range_meters":6800,"station_id":"ce4bhi12rcd13ifvqfp0","pricing_plan_id":"cebpf4jnsgd1na2vs0mg"},{"bike_id":"1fc87fed-6040-40bc-99c6-6f694d257aa1","system_id":"levelo_inurba_marseille","lat":43.30946,"lon":5.40845,"is_reserved":false,"is_disabled":false,"rental_uris":{"android":"levelo://app?vid=1fc87fed-6040-40bc-99c6-6f694d257aa1","ios":"levelo://app?vid=1fc87fed-6040-40bc-99c6-6f694d257aa1"},"vehicle_type_id":"4","last_reported":1773988867,"current_range_meters":6800,"station_id":"","pricing_plan_id":"cebpf4jnsgd1na2vs0mg"},{"bike_id":"3bcd3f37-7909-4e8a-be03-a9562a2c0e45","system_id":"levelo_inurba_marseille","lat":43.28482,"lon":5.48395,"is_reserved":false,"is_disabled":false,"rental_uris":{"android":"levelo://app?vid=3bcd3f37-7909-4e8a-be03-a9562a2c0e45","ios":"levelo://app?vid=3bcd3f37-7909-4e8a-be03-a9562a2c0e45"},"vehicle_type_id":"4","last_reported":1773988867,"current_range_meters":7200,"station_id":"","pricing_plan_id":"cebpf4jnsgd1na2vs0mg"},{"bike_id":"efbc00d5-0f06-4030-b0b4-fac8e9f713e9","system_id":"levelo_inurba_marseille","lat":43.30145,"lon":5.38106,"is_reserved":false,"is_disabled":false,"rental_uris":{"android":"levelo://app?vid=efbc00d5-0f06-4030-b0b4-fac8e9f713e9","ios":"levelo://app?vid=efbc00d5-0f06-4030-b0b4-fac8e9f713e9"},"vehicle_type_id":"4","last_reported":1773988867,"current_range_meters":7200,"station_id":"ce4bgjp2rcd13ifvqbh0","pricing_plan_id":"cebpf4jnsgd1na2vs0mg"},{"bike_id":"3072c2b7-499e-4858-9501-6070c7badbaf","system_id":"levelo_inurba_marseille","lat":43.23978,"lon":5.36591,"is_reserved":false,"is_disabled":false,"rental_uris":{"android":"levelo://app?vid=3072c2b7-499e-4858-9501-6070c7badbaf","ios":"levelo://app?vid=3072c2b7-499e-4858-9501-6070c7badbaf"},"vehicle_type_id":"4","last_reported":1773988867,"current_range_meters":7200,"station_id":"ce4bhi12rcd13ifvqfp0","pricing_plan_id":"cebpf4jnsgd1na2vs0mg"},{"bike_id":"081a0881-89b6-4aec-8d87-38fd39de8439","system_id":"levelo_inurba_marseille","lat":43.28494,"lon":5.44121,"is_reserved":false,"is_disabled":false,"rental_uris":{"android":"levelo://app?vid=081a0881-89b6-4aec-8d87-38fd39de8439","ios":"levelo://app?vid=081a0881-89b6-4aec-8d87-38fd39de8439"},"vehicle_type_id":"4","last_reported":1773988867,"current_range_meters":7200,"station_id":"","pricing_plan_id":"cebpf4jnsgd1na2vs0mg"},{"bike_id":"69067704-4b9d-4067-8ddd-5b71f4ef1a8a","system_id":"levelo_inurba_marseille","lat":43.25875,"lon":5.40874,"is_reserved":false,"is_disabled":true,"rental_uris":{"android":"levelo://app?vid=69067704-4b9d-4067-8ddd-5b71f4ef1a8a","ios":"levelo://app?vid=69067704-4b9d-4067-8ddd-5b71f4ef1a8a"},"vehicle_type_id":"4","last_reported":1773988867,"current_range_meters":7200,"station_id":"","pricing_plan_id":"cebpf4jnsgd1na2vs0mg"},{"bike_id":"d5de8001-ad8d-4c3f-999b-ddd01ea91a20","system_id":"levelo_inurba_marseille","lat":43.254292,"lon":5.3796,"is_reserved":false,"is_disabled":false,"rental_uris":{"android":"levelo://app?vid=d5de8001-ad8d-4c3f-999b-ddd01ea91a20","ios":"levelo://app?vid=d5de8001-ad8d-4c3f-999b-ddd01ea91a20"},"vehicle_type_id":"4","last_reported":1773988867,"current_range_meters":7200,"station_id":"ce4bhih2rcd13ifvqfs0","pricing_plan_id":"cebpf4jnsgd1na2vs0mg"},{"bike_id":"cf025143-bb1e-4736-aae2-f535301f1e5e","system_id":"levelo_inurba_marseille","lat":43.30314,"lon":5.40443,"is_reserved":false,"is_disabled":false,"rental_uris":{"android":"levelo://app?vid=cf025143-bb1e-4736-aae2-f535301f1e5e","ios":"levelo://app?vid=cf025143-bb1e-4736-aae2-f535301f1e5e"},"vehicle_type_id":"4","last_reported":1773988867,"current_range_meters":7200,"station_id":"ce4bh012rcd13ifvqd10","pricing_plan_id":"cebpf4jnsgd1na2vs0mg"},{"bike_id":"042d28d3-0a6e-4ec5-9610-697965251099","system_id":"levelo_inurba_marseille","lat":43.28147,"lon":5.42661,"is_reserved":false,"is_disabled":false,"rental_uris":{"android":"levelo://app?vid=042d28d3-0a6e-4ec5-9610-697965251099","ios":"levelo://app?vid=042d28d3-0a6e-4ec5-9610-697965251099"},"vehicle_type_id":"4","last_reported":1773988867,"current_range_meters":7200,"station_id":"ce4bhnh2rcd13ifvqgug","pricing_plan_id":"cebpf4jnsgd1na2vs0mg"},{"bike_id":"ab7777b4-b45b-491a-a365-d4656afcdb32","system_id":"levelo_inurba_marseille","lat":43.28498,"lon":5.38567,"is_reserved":false,"is_disabled":false,"rental_uris":{"android":"levelo://app?vid=ab7777b4-b45b-491a-a365-d4656afcdb32","ios":"levelo://app?vid=ab7777b4-b45b-491a-a365-d4656afcdb32"},"vehicle_type_id":"4","last_reported":1773988867,"current_range_meters":7200,"station_id":"ce4bh8p2rcd13ifvqeb0","pricing_plan_id":"cebpf4jnsgd1na2vs0mg"},{"bike_id":"e08d225b-8f4a-4ce0-895d-d9f7f842408c","system_id":"levelo_inurba_marseille","lat":43.24164,"lon":5.36411,"is_reserved":false,"is_disabled":false,"rental_uris":{"android":"levelo://app?vid=e08d225b-8f4a-4ce0-895d-d9f7f842408c","ios":"levelo://app?vid=e08d225b-8f4a-4ce0-895d-d9f7f842408c"},"vehicle_type_id":"4","last_reported":1773988867,"current_range_meters":7200,"station_id":"cpo36qri1sfpv3e86is0","pricing_plan_id":"cebpf4jnsgd1na2vs0mg"},{"bike_id":"29705345-7a8e-4bdd-8b65-5ba8856c877f","system_id":"levelo_inurba_marseille","lat":43.30309,"lon":5.44968,"is_reserved":false,"is_disabled":false,"rental_uris":{"android":"levelo://app?vid=29705345-7a8e-4bdd-8b65-5ba8856c877f","ios":"levelo://app?vid=29705345-7a8e-4bdd-8b65-5ba8856c877f"},"vehicle_type_id":"4","last_reported":1773988867,"current_range_meters":7200,"station_id":"","pricing_plan_id":"cebpf4jnsgd1na2vs0mg"},{"bike_id":"dabf5957-36fb-46c3-aaab-f8cd689d8581","system_id":"levelo_inurba_marseille","lat":43.30548,"lon":5.38427,"is_reserved":false,"is_disabled":false,"rental_uris":{"android":"levelo://app?vid=dabf5957-36fb-46c3-aaab-f8cd689d8581","ios":"levelo://app?vid=dabf5957-36fb-46c3-aaab-f8cd689d8581"},"vehicle_type_id":"4","last_reported":1773988867,"current_range_meters":7200,"station_id":"ce4bgg92rcd13ifvqb30","pricing_plan_id":"cebpf4jnsgd1na2vs0mg"},{"bike_id":"778dccca-a702-4182-bbb1-44fc206fadf5","system_id":"levelo_inurba_marseille","lat":43.30187,"lon":5.36614,"is_reserved":false,"is_disabled":false,"rental_uris":{"android":"levelo://app?vid=778dccca-a702-4182-bbb1-44fc206fadf5","ios":"levelo://app?vid=778dccca-a702-4182-bbb1-44fc206fadf5"},"vehicle_type_id":"4","last_reported":1773988867,"current_range_meters":7200,"station_id":"ce4bgrh2rcd13ifvqc8g","pricing_plan_id":"cebpf4jnsgd1na2vs0mg"},{"bike_id":"f76be1bf-b839-4363-b725-31a2cfaf3f32","system_id":"levelo_inurba_marseille","lat":43.23786,"lon":5.3662,"is_reserved":false,"is_disabled":false,"rental_uris":{"android":"levelo://app?vid=f76be1bf-b839-4363-b725-31a2cfaf3f32","ios":"levelo://app?vid=f76be1bf-b839-4363-b725-31a2cfaf3f32"},"vehicle_type_id":"4","last_reported":1773988867,"current_range_meters":7200,"station_id":"st_d3nk18o9ro0c73en2l3g","pricing_plan_id":"cebpf4jnsgd1na2vs0mg"},{"bike_id":"e72a9de3-01fd-40b3-b264-12e48b63f0f6","system_id":"levelo_inurba_marseille","lat":43.30117,"lon":5.38108,"is_reserved":false,"is_disabled":false,"rental_uris":{"android":"levelo://app?vid=e72a9de3-01fd-40b3-b264-12e48b63f0f6","ios":"levelo://app?vid=e72a9de3-01fd-40b3-b264-12e48b63f0f6"},"vehicle_type_id":"4","last_reported":1773988867,"current_range_meters":7200,"station_id":"ce4bgjp2rcd13ifvqbh0","pricing_plan_id":"cebpf4jnsgd1na2vs0mg"},{"bike_id":"f2d4c0c2-780f-4ff3-ab99-2dad40289397","system_id":"levelo_inurba_marseille","lat":43.25257,"lon":5.42263,"is_reserved":false,"is_disabled":false,"rental_uris":{"android":"levelo://app?vid=f2d4c0c2-780f-4ff3-ab99-2dad40289397","ios":"levelo://app?vid=f2d4c0c2-780f-4ff3-ab99-2dad40289397"},"vehicle_type_id":"4","last_reported":1773988867,"current_range_meters":7200,"station_id":"","pricing_plan_id":"cebpf4jnsgd1na2vs0mg"},{"bike_id":"681f5372-2ff2-4dd0-a093-84c447cff888","system_id":"levelo_inurba_marseille","lat":43.22561,"lon":5.41624,"is_reserved":false,"is_disabled":false,"rental_uris":{"android":"levelo://app?vid=681f5372-2ff2-4dd0-a093-84c447cff888","ios":"levelo://app?vid=681f5372-2ff2-4dd0-a093-84c447cff888"},"vehicle_type_id":"4","last_reported":1773988867,"current_range_meters":7200,"station_id":"st_d2o4gvlbi1j2169b742g","pricing_plan_id":"cebpf4jnsgd1na2vs0mg"},{"bike_id":"50d20805-558f-4824-9750-3226693b96fd","system_id":"levelo_inurba_marseille","lat":43.28209,"lon":5.39032,"is_reserved":false,"is_disabled":false,"rental_uris":{"android":"levelo://app?vid=50d20805-558f-4824-9750-3226693b96fd","ios":"levelo://app?vid=50d20805-558f-4824-9750-3226693b96fd"},"vehicle_type_id":"4","last_reported":1773988867,"current_range_meters":8000,"station_id":"ce4bhn92rcd13ifvqgsg","pricing_plan_id":"cebpf4jnsgd1na2vs0mg"},{"bike_id":"bfd4f461-705e-4b99-926e-53c7cf89e0db","system_id":"levelo_inurba_marseille","lat":43.29608,"lon":5.37725,"is_reserved":false,"is_disabled":false,"rental_uris":{"android":"levelo://app?vid=bfd4f461-705e-4b99-926e-53c7cf89e0db","ios":"levelo://app?vid=bfd4f461-705e-4b99-926e-53c7cf89e0db"},"vehicle_type_id":"4","last_reported":1773988867,"current_range_meters":8000,"station_id":"ce4bgi92rcd13ifvqb90","pricing_plan_id":"cebpf4jnsgd1na2vs0mg"},{"bike_id":"12118d88-8157-4d76-ad00-12ce3bc20921","system_id":"levelo_inurba_marseille","lat":43.30845,"lon":5.37133,"is_reserved":false,"is_disabled":false,"rental_uris":{"android":"levelo://app?vid=12118d88-8157-4d76-ad00-12ce3bc20921","ios":"levelo://app?vid=12118d88-8157-4d76-ad00-12ce3bc20921"},"vehicle_type_id":"4","last_reported":1773988867,"current_range_meters":8000,"station_id":"","pricing_plan_id":"cebpf4jnsgd1na2vs0mg"},{"bike_id":"0264288d-82fa-4432-8751-6c08c0e54bb7","system_id":"levelo_inurba_marseille","lat":43.30288,"lon":5.42475,"is_reserved":false,"is_disabled":false,"rental_uris":{"android":"levelo://app?vid=0264288d-82fa-4432-8751-6c08c0e54bb7","ios":"levelo://app?vid=0264288d-82fa-4432-8751-6c08c0e54bb7"},"vehicle_type_id":"4","last_reported":1773988867,"current_range_meters":8000,"station_id":"","pricing_plan_id":"cebpf4jnsgd1na2vs0mg"},{"bike_id":"f553f73b-460e-420f-bf78-82f2ef2b2b88","system_id":"levelo_inurba_marseille","lat":43.31318,"lon":5.39706,"is_reserved":false,"is_disabled":false,"rental_uris":{"android":"levelo://app?vid=f553f73b-460e-420f-bf78-82f2ef2b2b88","ios":"levelo://app?vid=f553f73b-460e-420f-bf78-82f2ef2b2b88"},"vehicle_type_id":"4","last_reported":1773988867,"current_range_meters":8000,"station_id":"ce4bgvp2rcd13ifvqcu0","pricing_plan_id":"cebpf4jnsgd1na2vs0mg"},{"bike_id":"4962d21e-cde3-4527-bd5b-917c2eb4bb67","system_id":"levelo_inurba_marseille","lat":43.25566,"lon":5.38182,"is_reserved":false,"is_disabled":false,"rental_uris":{"android":"levelo://app?vid=4962d21e-cde3-4527-bd5b-917c2eb4bb67","ios":"levelo://app?vid=4962d21e-cde3-4527-bd5b-917c2eb4bb67"},"vehicle_type_id":"4","last_reported":1773988867,"current_range_meters":8000,"station_id":"ce4bhih2rcd13ifvqfs0","pricing_plan_id":"cebpf4jnsgd1na2vs0mg"},{"bike_id":"cda40aab-6d0c-4ce8-a550-2ace7ebf0b0e","system_id":"levelo_inurba_marseille","lat":43.28528,"lon":5.44104,"is_reserved":false,"is_disabled":false,"rental_uris":{"android":"levelo://app?vid=cda40aab-6d0c-4ce8-a550-2ace7ebf0b0e","ios":"levelo://app?vid=cda40aab-6d0c-4ce8-a550-2ace7ebf0b0e"},"vehicle_type_id":"4","last_reported":1773988867,"current_range_meters":8000,"station_id":"st_d3j3df2ikq2c7380ej80","pricing_plan_id":"cebpf4jnsgd1na2vs0mg"},{"bike_id":"dd74091b-705a-4531-bc39-afff2195d9a1","system_id":"levelo_inurba_marseille","lat":43.24808,"lon":5.37452,"is_reserved":false,"is_disabled":false,"rental_uris":{"android":"levelo://app?vid=dd74091b-705a-4531-bc39-afff2195d9a1","ios":"levelo://app?vid=dd74091b-705a-4531-bc39-afff2195d9a1"},"vehicle_type_id":"4","last_reported":1773988867,"current_range_meters":8000,"station_id":"ce4bhgh2rcd13ifvqfb0","pricing_plan_id":"cebpf4jnsgd1na2vs0mg"},{"bike_id":"7ef53374-9f12-4fa6-982c-f0d870b75443","system_id":"levelo_inurba_marseille","lat":43.2737,"lon":5.36266,"is_reserved":false,"is_disabled":false,"rental_uris":{"android":"levelo://app?vid=7ef53374-9f12-4fa6-982c-f0d870b75443","ios":"levelo://app?vid=7ef53374-9f12-4fa6-982c-f0d870b75443"},"vehicle_type_id":"4","last_reported":1773988867,"current_range_meters":8000,"station_id":"ce4bhbh2rcd13ifvqeo0","pricing_plan_id":"cebpf4jnsgd1na2vs0mg"},{"bike_id":"29ceb06a-4df8-4e2a-9dd9-b070e185b37f","system_id":"levelo_inurba_marseille","lat":43.28478,"lon":5.484,"is_reserved":false,"is_disabled":false,"rental_uris":{"android":"levelo://app?vid=29ceb06a-4df8-4e2a-9dd9-b070e185b37f","ios":"levelo://app?vid=29ceb06a-4df8-4e2a-9dd9-b070e185b37f"},"vehicle_type_id":"4","last_reported":1773988867,"current_range_meters":8000,"station_id":"st_d3svhcjqgbts73a3dn0g","pricing_plan_id":"cebpf4jnsgd1na2vs0mg"},{"bike_id":"dd83dbbe-152a-48a5-a9d8-8ef8abcaad9c","system_id":"levelo_inurba_marseille","lat":43.30792,"lon":5.38155,"is_reserved":false,"is_disabled":false,"rental_uris":{"android":"levelo://app?vid=dd83dbbe-152a-48a5-a9d8-8ef8abcaad9c","ios":"levelo://app?vid=dd83dbbe-152a-48a5-a9d8-8ef8abcaad9c"},"vehicle_type_id":"4","last_reported":1773988867,"current_range_meters":8000,"station_id":"ce4bgt12rcd13ifvqce0","pricing_plan_id":"cebpf4jnsgd1na2vs0mg"},{"bike_id":"e5eba928-e3a4-441b-9540-937747ee47b9","system_id":"levelo_inurba_marseille","lat":43.2257,"lon":5.41628,"is_reserved":false,"is_disabled":false,"rental_uris":{"android":"levelo://app?vid=e5eba928-e3a4-441b-9540-937747ee47b9","ios":"levelo://app?vid=e5eba928-e3a4-441b-9540-937747ee47b9"},"vehicle_type_id":"4","last_reported":1773988867,"current_range_meters":8000,"station_id":"st_d2o4gvlbi1j2169b742g","pricing_plan_id":"cebpf4jnsgd1na2vs0mg"},{"bike_id":"584ddabd-d142-4db7-b8d7-256b4914a1f0","system_id":"levelo_inurba_marseille","lat":43.2721,"lon":5.39187,"is_reserved":false,"is_disabled":false,"rental_uris":{"android":"levelo://app?vid=584ddabd-d142-4db7-b8d7-256b4914a1f0","ios":"levelo://app?vid=584ddabd-d142-4db7-b8d7-256b4914a1f0"},"vehicle_type_id":"4","last_reported":1773988867,"current_range_meters":8000,"station_id":"ce4bhhp2rcd13ifvqfm0","pricing_plan_id":"cebpf4jnsgd1na2vs0mg"},{"bike_id":"78ef72c9-6f66-4bf1-a8f0-404183378bc7","system_id":"levelo_inurba_marseille","lat":43.27998,"lon":5.40051,"is_reserved":false,"is_disabled":false,"rental_uris":{"android":"levelo://app?vid=78ef72c9-6f66-4bf1-a8f0-404183378bc7","ios":"levelo://app?vid=78ef72c9-6f66-4bf1-a8f0-404183378bc7"},"vehicle_type_id":"4","last_reported":1773988867,"current_range_meters":8000,"station_id":"ce4bho92rcd13ifvqh4g","pricing_plan_id":"cebpf4jnsgd1na2vs0mg"},{"bike_id":"5a36923c-83b0-4ac6-ad51-eb060d5b161e","system_id":"levelo_inurba_marseille","lat":43.30605,"lon":5.37226,"is_reserved":false,"is_disabled":false,"rental_uris":{"android":"levelo://app?vid=5a36923c-83b0-4ac6-ad51-eb060d5b161e","ios":"levelo://app?vid=5a36923c-83b0-4ac6-ad51-eb060d5b161e"},"vehicle_type_id":"4","last_reported":1773988867,"current_range_meters":8000,"station_id":"ce4bgqh2rcd13ifvqc4g","pricing_plan_id":"cebpf4jnsgd1na2vs0mg"},{"bike_id":"ebdbc8a1-f098-41a3-884e-8be9f91abff3","system_id":"levelo_inurba_marseille","lat":43.28857,"lon":5.35849,"is_reserved":false,"is_disabled":false,"rental_uris":{"android":"levelo://app?vid=ebdbc8a1-f098-41a3-884e-8be9f91abff3","ios":"levelo://app?vid=ebdbc8a1-f098-41a3-884e-8be9f91abff3"},"vehicle_type_id":"4","last_reported":1773988867,"current_range_meters":8000,"station_id":"ce4bhb12rcd13ifvqem0","pricing_plan_id":"cebpf4jnsgd1na2vs0mg"},{"bike_id":"c48440d7-f4d5-4be3-a842-7dc1a317748e","system_id":"levelo_inurba_marseille","lat":43.33942,"lon":5.35695,"is_reserved":false,"is_disabled":false,"rental_uris":{"android":"levelo://app?vid=c48440d7-f4d5-4be3-a842-7dc1a317748e","ios":"levelo://app?vid=c48440d7-f4d5-4be3-a842-7dc1a317748e"},"vehicle_type_id":"4","last_reported":1773988867,"current_range_meters":8000,"station_id":"","pricing_plan_id":"cebpf4jnsgd1na2vs0mg"},{"bike_id":"8721fee8-fce5-4528-8fb7-a9e8a2a6b808","system_id":"levelo_inurba_marseille","lat":43.31358,"lon":5.38495,"is_reserved":false,"is_disabled":false,"rental_uris":{"android":"levelo://app?vid=8721fee8-fce5-4528-8fb7-a9e8a2a6b808","ios":"levelo://app?vid=8721fee8-fce5-4528-8fb7-a9e8a2a6b808"},"vehicle_type_id":"4","last_reported":1773988867,"current_range_meters":8400,"station_id":"ce4bgt92rcd13ifvqcf0","pricing_plan_id":"cebpf4jnsgd1na2vs0mg"},{"bike_id":"96e89ea6-2246-4389-ba32-6e463a4ddf53","system_id":"levelo_inurba_marseille","lat":43.31369,"lon":5.38514,"is_reserved":false,"is_disabled":false,"rental_uris":{"android":"levelo://app?vid=96e89ea6-2246-4389-ba32-6e463a4ddf53","ios":"levelo://app?vid=96e89ea6-2246-4389-ba32-6e463a4ddf53"},"vehicle_type_id":"4","last_reported":1773988867,"current_range_meters":8400,"station_id":"ce4bgt92rcd13ifvqcf0","pricing_plan_id":"cebpf4jnsgd1na2vs0mg"},{"bike_id":"49e9d56c-9ec4-42b3-92c9-7f1e7cecb0e8","system_id":"levelo_inurba_marseille","lat":43.23762,"lon":5.36644,"is_reserved":false,"is_disabled":false,"rental_uris":{"android":"levelo://app?vid=49e9d56c-9ec4-42b3-92c9-7f1e7cecb0e8","ios":"levelo://app?vid=49e9d56c-9ec4-42b3-92c9-7f1e7cecb0e8"},"vehicle_type_id":"4","last_reported":1773988867,"current_range_meters":8400,"station_id":"st_d3nk18o9ro0c73en2l3g","pricing_plan_id":"cebpf4jnsgd1na2vs0mg"},{"bike_id":"f328e3b6-a38c-49fe-80e0-c552630893a5","system_id":"levelo_inurba_marseille","lat":43.22949,"lon":5.35357,"is_reserved":false,"is_disabled":false,"rental_uris":{"android":"levelo://app?vid=f328e3b6-a38c-49fe-80e0-c552630893a5","ios":"levelo://app?vid=f328e3b6-a38c-49fe-80e0-c552630893a5"},"vehicle_type_id":"4","last_reported":1773988867,"current_range_meters":8400,"station_id":"cpo3532slgdg3j2ikp40","pricing_plan_id":"cebpf4jnsgd1na2vs0mg"},{"bike_id":"a775511c-9985-4a58-8c4c-775aad7f3e36","system_id":"levelo_inurba_marseille","lat":43.29893,"lon":5.4367,"is_reserved":false,"is_disabled":false,"rental_uris":{"android":"levelo://app?vid=a775511c-9985-4a58-8c4c-775aad7f3e36","ios":"levelo://app?vid=a775511c-9985-4a58-8c4c-775aad7f3e36"},"vehicle_type_id":"4","last_reported":1773988867,"current_range_meters":8400,"station_id":"ce4bhpp2rcd13ifvqhfg","pricing_plan_id":"cebpf4jnsgd1na2vs0mg"},{"bike_id":"7986ed54-8e78-4c77-9130-45af89ddf599","system_id":"levelo_inurba_marseille","lat":43.262791,"lon":5.378837,"is_reserved":false,"is_disabled":true,"rental_uris":{"android":"levelo://app?vid=7986ed54-8e78-4c77-9130-45af89ddf599","ios":"levelo://app?vid=7986ed54-8e78-4c77-9130-45af89ddf599"},"vehicle_type_id":"4","last_reported":1773988867,"current_range_meters":8400,"station_id":"","pricing_plan_id":"cebpf4jnsgd1na2vs0mg"},{"bike_id":"6b38b1c6-26df-4687-9e45-481ab73a195b","system_id":"levelo_inurba_marseille","lat":43.2796,"lon":5.41675,"is_reserved":false,"is_disabled":false,"rental_uris":{"android":"levelo://app?vid=6b38b1c6-26df-4687-9e45-481ab73a195b","ios":"levelo://app?vid=6b38b1c6-26df-4687-9e45-481ab73a195b"},"vehicle_type_id":"4","last_reported":1773988867,"current_range_meters":8400,"station_id":"ce4bho12rcd13ifvqh1g","pricing_plan_id":"cebpf4jnsgd1na2vs0mg"},{"bike_id":"225f9316-7324-40e1-9e00-a16495c2f7dd","system_id":"levelo_inurba_marseille","lat":43.31719,"lon":5.3777,"is_reserved":false,"is_disabled":false,"rental_uris":{"android":"levelo://app?vid=225f9316-7324-40e1-9e00-a16495c2f7dd","ios":"levelo://app?vid=225f9316-7324-40e1-9e00-a16495c2f7dd"},"vehicle_type_id":"4","last_reported":1773988867,"current_range_meters":8400,"station_id":"ce4bgth2rcd13ifvqch0","pricing_plan_id":"cebpf4jnsgd1na2vs0mg"},{"bike_id":"b42f88c8-dc6d-4d9b-97bf-d39c2dc2340e","system_id":"levelo_inurba_marseille","lat":43.25816,"lon":5.39428,"is_reserved":false,"is_disabled":false,"rental_uris":{"android":"levelo://app?vid=b42f88c8-dc6d-4d9b-97bf-d39c2dc2340e","ios":"levelo://app?vid=b42f88c8-dc6d-4d9b-97bf-d39c2dc2340e"},"vehicle_type_id":"4","last_reported":1773988867,"current_range_meters":8400,"station_id":"ce4bhip2rcd13ifvqft0","pricing_plan_id":"cebpf4jnsgd1na2vs0mg"},{"bike_id":"5617b29b-8035-4ee2-87f2-1f5dd709853e","system_id":"levelo_inurba_marseille","lat":43.27068,"lon":5.42299,"is_reserved":false,"is_disabled":false,"rental_uris":{"android":"levelo://app?vid=5617b29b-8035-4ee2-87f2-1f5dd709853e","ios":"levelo://app?vid=5617b29b-8035-4ee2-87f2-1f5dd709853e"},"vehicle_type_id":"4","last_reported":1773988867,"current_range_meters":8400,"station_id":"ce4bhk92rcd13ifvqgb0","pricing_plan_id":"cebpf4jnsgd1na2vs0mg"},{"bike_id":"0f0ec3e7-954e-4cbf-8ae3-c6f7f4826e6a","system_id":"levelo_inurba_marseille","lat":43.28709,"lon":5.37951,"is_reserved":false,"is_disabled":true,"rental_uris":{"android":"levelo://app?vid=0f0ec3e7-954e-4cbf-8ae3-c6f7f4826e6a","ios":"levelo://app?vid=0f0ec3e7-954e-4cbf-8ae3-c6f7f4826e6a"},"vehicle_type_id":"4","last_reported":1773988867,"current_range_meters":8400,"station_id":"ce4bh9p2rcd13ifvqec0","pricing_plan_id":"cebpf4jnsgd1na2vs0mg"},{"bike_id":"89ad46cf-ad84-4e5e-be57-87ac2cebe69c","system_id":"levelo_inurba_marseille","lat":43.28485,"lon":5.48386,"is_reserved":false,"is_disabled":false,"rental_uris":{"android":"levelo://app?vid=89ad46cf-ad84-4e5e-be57-87ac2cebe69c","ios":"levelo://app?vid=89ad46cf-ad84-4e5e-be57-87ac2cebe69c"},"vehicle_type_id":"4","last_reported":1773988867,"current_range_meters":8400,"station_id":"st_d3svhcjqgbts73a3dn0g","pricing_plan_id":"cebpf4jnsgd1na2vs0mg"},{"bike_id":"8911e592-806c-4ca2-9551-dc6022173986","system_id":"levelo_inurba_marseille","lat":43.32106,"lon":5.36768,"is_reserved":false,"is_disabled":true,"rental_uris":{"android":"levelo://app?vid=8911e592-806c-4ca2-9551-dc6022173986","ios":"levelo://app?vid=8911e592-806c-4ca2-9551-dc6022173986"},"vehicle_type_id":"4","last_reported":1773988867,"current_range_meters":8400,"station_id":"ce4bhrh2rcd13ifvqhug","pricing_plan_id":"cebpf4jnsgd1na2vs0mg"},{"bike_id":"4e864c7e-8c56-4442-8a7f-711e53a22077","system_id":"levelo_inurba_marseille","lat":43.29261,"lon":5.38436,"is_reserved":false,"is_disabled":true,"rental_uris":{"android":"levelo://app?vid=4e864c7e-8c56-4442-8a7f-711e53a22077","ios":"levelo://app?vid=4e864c7e-8c56-4442-8a7f-711e53a22077"},"vehicle_type_id":"4","last_reported":1773988867,"current_range_meters":8400,"station_id":"ce4bh692rcd13ifvqea0","pricing_plan_id":"cebpf4jnsgd1na2vs0mg"},{"bike_id":"b1f54c1d-65b4-40f8-b62a-edcc7028f7f4","system_id":"levelo_inurba_marseille","lat":43.24646,"lon":5.39901,"is_reserved":false,"is_disabled":false,"rental_uris":{"android":"levelo://app?vid=b1f54c1d-65b4-40f8-b62a-edcc7028f7f4","ios":"levelo://app?vid=b1f54c1d-65b4-40f8-b62a-edcc7028f7f4"},"vehicle_type_id":"4","last_reported":1773988867,"current_range_meters":8400,"station_id":"","pricing_plan_id":"cebpf4jnsgd1na2vs0mg"},{"bike_id":"9e2308d9-37dd-470c-aa56-a0dd7a027efb","system_id":"levelo_inurba_marseille","lat":43.2952,"lon":5.37506,"is_reserved":false,"is_disabled":false,"rental_uris":{"android":"levelo://app?vid=9e2308d9-37dd-470c-aa56-a0dd7a027efb","ios":"levelo://app?vid=9e2308d9-37dd-470c-aa56-a0dd7a027efb"},"vehicle_type_id":"4","last_reported":1773988867,"current_range_meters":8400,"station_id":"ce4bgkp2rcd13ifvqbmg","pricing_plan_id":"cebpf4jnsgd1na2vs0mg"},{"bike_id":"646c7015-5400-49b6-9ecb-1fc782efa767","system_id":"levelo_inurba_marseille","lat":43.21762,"lon":5.34609,"is_reserved":false,"is_disabled":false,"rental_uris":{"android":"levelo://app?vid=646c7015-5400-49b6-9ecb-1fc782efa767","ios":"levelo://app?vid=646c7015-5400-49b6-9ecb-1fc782efa767"},"vehicle_type_id":"4","last_reported":1773988867,"current_range_meters":8400,"station_id":"st_cvj6r9ubvosntc0bgbag","pricing_plan_id":"cebpf4jnsgd1na2vs0mg"},{"bike_id":"b8fa8d19-875f-4e85-8200-e0645de7cfae","system_id":"levelo_inurba_marseille","lat":43.28427,"lon":5.37525,"is_reserved":false,"is_disabled":false,"rental_uris":{"android":"levelo://app?vid=b8fa8d19-875f-4e85-8200-e0645de7cfae","ios":"levelo://app?vid=b8fa8d19-875f-4e85-8200-e0645de7cfae"},"vehicle_type_id":"4","last_reported":1773988867,"current_range_meters":8400,"station_id":"ce4bh412rcd13ifvqds0","pricing_plan_id":"cebpf4jnsgd1na2vs0mg"},{"bike_id":"ab09d209-60f6-4303-8d09-86dc43261279","system_id":"levelo_inurba_marseille","lat":43.21194,"lon":5.35096,"is_reserved":false,"is_disabled":true,"rental_uris":{"android":"levelo://app?vid=ab09d209-60f6-4303-8d09-86dc43261279","ios":"levelo://app?vid=ab09d209-60f6-4303-8d09-86dc43261279"},"vehicle_type_id":"4","last_reported":1773988867,"current_range_meters":8400,"station_id":"st_cvj6sg6p6f1abm77japg","pricing_plan_id":"cebpf4jnsgd1na2vs0mg"},{"bike_id":"a6cf1fb5-5240-4a11-80b5-49444ab21804","system_id":"levelo_inurba_marseille","lat":43.30883,"lon":5.39652,"is_reserved":false,"is_disabled":false,"rental_uris":{"android":"levelo://app?vid=a6cf1fb5-5240-4a11-80b5-49444ab21804","ios":"levelo://app?vid=a6cf1fb5-5240-4a11-80b5-49444ab21804"},"vehicle_type_id":"4","last_reported":1773988867,"current_range_meters":8800,"station_id":"ce4bh012rcd13ifvqcv0","pricing_plan_id":"cebpf4jnsgd1na2vs0mg"},{"bike_id":"9ec1942c-b173-4801-9f27-3e6493805e2b","system_id":"levelo_inurba_marseille","lat":43.24653,"lon":5.38872,"is_reserved":false,"is_disabled":false,"rental_uris":{"android":"levelo://app?vid=9ec1942c-b173-4801-9f27-3e6493805e2b","ios":"levelo://app?vid=9ec1942c-b173-4801-9f27-3e6493805e2b"},"vehicle_type_id":"4","last_reported":1773988867,"current_range_meters":8800,"station_id":"ce4bhg12rcd13ifvqf60","pricing_plan_id":"cebpf4jnsgd1na2vs0mg"},{"bike_id":"53f48266-4564-420b-96ab-d243233055dc","system_id":"levelo_inurba_marseille","lat":43.28477,"lon":5.48399,"is_reserved":false,"is_disabled":false,"rental_uris":{"android":"levelo://app?vid=53f48266-4564-420b-96ab-d243233055dc","ios":"levelo://app?vid=53f48266-4564-420b-96ab-d243233055dc"},"vehicle_type_id":"4","last_reported":1773988867,"current_range_meters":8800,"station_id":"","pricing_plan_id":"cebpf4jnsgd1na2vs0mg"},{"bike_id":"e19c730d-a673-4302-9b78-2050168c95f1","system_id":"levelo_inurba_marseille","lat":43.25593,"lon":5.38222,"is_reserved":false,"is_disabled":false,"rental_uris":{"android":"levelo://app?vid=e19c730d-a673-4302-9b78-2050168c95f1","ios":"levelo://app?vid=e19c730d-a673-4302-9b78-2050168c95f1"},"vehicle_type_id":"4","last_reported":1773988867,"current_range_meters":8800,"station_id":"ce4bhih2rcd13ifvqfs0","pricing_plan_id":"cebpf4jnsgd1na2vs0mg"},{"bike_id":"de32e503-0025-418b-8c5b-6697cc2fa8f6","system_id":"levelo_inurba_marseille","lat":43.29607,"lon":5.37204,"is_reserved":false,"is_disabled":false,"rental_uris":{"android":"levelo://app?vid=de32e503-0025-418b-8c5b-6697cc2fa8f6","ios":"levelo://app?vid=de32e503-0025-418b-8c5b-6697cc2fa8f6"},"vehicle_type_id":"4","last_reported":1773988867,"current_range_meters":8800,"station_id":"ce4bgnh2rcd13ifvqc0g","pricing_plan_id":"cebpf4jnsgd1na2vs0mg"},{"bike_id":"8648ff3d-a49d-4491-be6c-bab3f9812603","system_id":"levelo_inurba_marseille","lat":43.2829,"lon":5.43851,"is_reserved":false,"is_disabled":false,"rental_uris":{"android":"levelo://app?vid=8648ff3d-a49d-4491-be6c-bab3f9812603","ios":"levelo://app?vid=8648ff3d-a49d-4491-be6c-bab3f9812603"},"vehicle_type_id":"4","last_reported":1773988867,"current_range_meters":8800,"station_id":"","pricing_plan_id":"cebpf4jnsgd1na2vs0mg"},{"bike_id":"91aa598b-3fb8-4341-b0c3-0da042590735","system_id":"levelo_inurba_marseille","lat":43.28543,"lon":5.44105,"is_reserved":false,"is_disabled":false,"rental_uris":{"android":"levelo://app?vid=91aa598b-3fb8-4341-b0c3-0da042590735","ios":"levelo://app?vid=91aa598b-3fb8-4341-b0c3-0da042590735"},"vehicle_type_id":"4","last_reported":1773988867,"current_range_meters":8800,"station_id":"st_d3j3df2ikq2c7380ej80","pricing_plan_id":"cebpf4jnsgd1na2vs0mg"},{"bike_id":"58c61ec3-d0cd-423a-9ce5-ddcd4cdbc15e","system_id":"levelo_inurba_marseille","lat":43.27445,"lon":5.39393,"is_reserved":false,"is_disabled":true,"rental_uris":{"android":"levelo://app?vid=58c61ec3-d0cd-423a-9ce5-ddcd4cdbc15e","ios":"levelo://app?vid=58c61ec3-d0cd-423a-9ce5-ddcd4cdbc15e"},"vehicle_type_id":"4","last_reported":1773988867,"current_range_meters":8800,"station_id":"ce4bhdp2rcd13ifvqf20","pricing_plan_id":"cebpf4jnsgd1na2vs0mg"},{"bike_id":"7fa64d84-cd92-4f02-a79d-c348b129b15f","system_id":"levelo_inurba_marseille","lat":43.24167,"lon":5.36401,"is_reserved":false,"is_disabled":false,"rental_uris":{"android":"levelo://app?vid=7fa64d84-cd92-4f02-a79d-c348b129b15f","ios":"levelo://app?vid=7fa64d84-cd92-4f02-a79d-c348b129b15f"},"vehicle_type_id":"4","last_reported":1773988867,"current_range_meters":8800,"station_id":"cpo36qri1sfpv3e86is0","pricing_plan_id":"cebpf4jnsgd1na2vs0mg"},{"bike_id":"59d2267f-7247-4a75-b01c-e6739320c121","system_id":"levelo_inurba_marseille","lat":43.28979,"lon":5.37832,"is_reserved":false,"is_disabled":true,"rental_uris":{"android":"levelo://app?vid=59d2267f-7247-4a75-b01c-e6739320c121","ios":"levelo://app?vid=59d2267f-7247-4a75-b01c-e6739320c121"},"vehicle_type_id":"4","last_reported":1773988867,"current_range_meters":8800,"station_id":"ce4bh9p2rcd13ifvqed0","pricing_plan_id":"cebpf4jnsgd1na2vs0mg"},{"bike_id":"a8eb9133-cb99-4e58-a689-d05b4da528a5","system_id":"levelo_inurba_marseille","lat":43.33766,"lon":5.3748,"is_reserved":false,"is_disabled":true,"rental_uris":{"android":"levelo://app?vid=a8eb9133-cb99-4e58-a689-d05b4da528a5","ios":"levelo://app?vid=a8eb9133-cb99-4e58-a689-d05b4da528a5"},"vehicle_type_id":"4","last_reported":1773988867,"current_range_meters":8800,"station_id":"","pricing_plan_id":"cebpf4jnsgd1na2vs0mg"},{"bike_id":"a545c754-e350-45a1-864b-ec76871d3bf7","system_id":"levelo_inurba_marseille","lat":43.21762,"lon":5.34624,"is_reserved":false,"is_disabled":true,"rental_uris":{"android":"levelo://app?vid=a545c754-e350-45a1-864b-ec76871d3bf7","ios":"levelo://app?vid=a545c754-e350-45a1-864b-ec76871d3bf7"},"vehicle_type_id":"4","last_reported":1773988867,"current_range_meters":8800,"station_id":"","pricing_plan_id":"cebpf4jnsgd1na2vs0mg"},{"bike_id":"4095cc82-97c8-42e6-951b-6d5e487ff5fa","system_id":"levelo_inurba_marseille","lat":43.27416,"lon":5.39414,"is_reserved":false,"is_disabled":false,"rental_uris":{"android":"levelo://app?vid=4095cc82-97c8-42e6-951b-6d5e487ff5fa","ios":"levelo://app?vid=4095cc82-97c8-42e6-951b-6d5e487ff5fa"},"vehicle_type_id":"4","last_reported":1773988867,"current_range_meters":9200,"station_id":"ce4bhdp2rcd13ifvqf20","pricing_plan_id":"cebpf4jnsgd1na2vs0mg"},{"bike_id":"912e5f30-2e0b-48a9-85db-a984611241c9","system_id":"levelo_inurba_marseille","lat":43.29829,"lon":5.44082,"is_reserved":false,"is_disabled":false,"rental_uris":{"android":"levelo://app?vid=912e5f30-2e0b-48a9-85db-a984611241c9","ios":"levelo://app?vid=912e5f30-2e0b-48a9-85db-a984611241c9"},"vehicle_type_id":"4","last_reported":1773988867,"current_range_meters":9200,"station_id":"","pricing_plan_id":"cebpf4jnsgd1na2vs0mg"},{"bike_id":"9d7f0d62-95fb-47bf-9489-0dc53abbe67e","system_id":"levelo_inurba_marseille","lat":43.28338,"lon":5.3812,"is_reserved":false,"is_disabled":false,"rental_uris":{"android":"levelo://app?vid=9d7f0d62-95fb-47bf-9489-0dc53abbe67e","ios":"levelo://app?vid=9d7f0d62-95fb-47bf-9489-0dc53abbe67e"},"vehicle_type_id":"4","last_reported":1773988867,"current_range_meters":9200,"station_id":"ce4bh412rcd13ifvqdr0","pricing_plan_id":"cebpf4jnsgd1na2vs0mg"},{"bike_id":"d2bd2a12-f56e-42ab-a72b-340da8d9934d","system_id":"levelo_inurba_marseille","lat":43.2833,"lon":5.38101,"is_reserved":false,"is_disabled":false,"rental_uris":{"android":"levelo://app?vid=d2bd2a12-f56e-42ab-a72b-340da8d9934d","ios":"levelo://app?vid=d2bd2a12-f56e-42ab-a72b-340da8d9934d"},"vehicle_type_id":"4","last_reported":1773988867,"current_range_meters":9200,"station_id":"ce4bh412rcd13ifvqdr0","pricing_plan_id":"cebpf4jnsgd1na2vs0mg"},{"bike_id":"bce3e484-f2d4-4d8b-b536-0eaec628a484","system_id":"levelo_inurba_marseille","lat":43.29618,"lon":5.37707,"is_reserved":false,"is_disabled":true,"rental_uris":{"android":"levelo://app?vid=bce3e484-f2d4-4d8b-b536-0eaec628a484","ios":"levelo://app?vid=bce3e484-f2d4-4d8b-b536-0eaec628a484"},"vehicle_type_id":"4","last_reported":1773988867,"current_range_meters":9200,"station_id":"ce4bgi92rcd13ifvqb90","pricing_plan_id":"cebpf4jnsgd1na2vs0mg"},{"bike_id":"5c37a49c-ab60-4c11-8a61-6592ff444186","system_id":"levelo_inurba_marseille","lat":43.27908,"lon":5.39175,"is_reserved":false,"is_disabled":false,"rental_uris":{"android":"levelo://app?vid=5c37a49c-ab60-4c11-8a61-6592ff444186","ios":"levelo://app?vid=5c37a49c-ab60-4c11-8a61-6592ff444186"},"vehicle_type_id":"4","last_reported":1773988867,"current_range_meters":9200,"station_id":"","pricing_plan_id":"cebpf4jnsgd1na2vs0mg"},{"bike_id":"97dc21d4-f745-4c2a-b0a9-0abdf5c15159","system_id":"levelo_inurba_marseille","lat":43.31099,"lon":5.37745,"is_reserved":false,"is_disabled":false,"rental_uris":{"android":"levelo://app?vid=97dc21d4-f745-4c2a-b0a9-0abdf5c15159","ios":"levelo://app?vid=97dc21d4-f745-4c2a-b0a9-0abdf5c15159"},"vehicle_type_id":"4","last_reported":1773988867,"current_range_meters":9200,"station_id":"ce4bgt92rcd13ifvqcg0","pricing_plan_id":"cebpf4jnsgd1na2vs0mg"},{"bike_id":"d00ce6b1-d263-4644-9ac8-801c3d34ac19","system_id":"levelo_inurba_marseille","lat":43.22568,"lon":5.41631,"is_reserved":false,"is_disabled":false,"rental_uris":{"android":"levelo://app?vid=d00ce6b1-d263-4644-9ac8-801c3d34ac19","ios":"levelo://app?vid=d00ce6b1-d263-4644-9ac8-801c3d34ac19"},"vehicle_type_id":"4","last_reported":1773988867,"current_range_meters":9200,"station_id":"st_d2o4gvlbi1j2169b742g","pricing_plan_id":"cebpf4jnsgd1na2vs0mg"},{"bike_id":"1b491845-a098-414f-bdf6-ed8b8d983f9f","system_id":"levelo_inurba_marseille","lat":43.27218,"lon":5.3918,"is_reserved":false,"is_disabled":false,"rental_uris":{"android":"levelo://app?vid=1b491845-a098-414f-bdf6-ed8b8d983f9f","ios":"levelo://app?vid=1b491845-a098-414f-bdf6-ed8b8d983f9f"},"vehicle_type_id":"4","last_reported":1773988867,"current_range_meters":9200,"station_id":"ce4bhhp2rcd13ifvqfm0","pricing_plan_id":"cebpf4jnsgd1na2vs0mg"},{"bike_id":"a8c8307b-e1e9-4950-a785-578e1a82f805","system_id":"levelo_inurba_marseille","lat":43.31278,"lon":5.37791,"is_reserved":false,"is_disabled":false,"rental_uris":{"android":"levelo://app?vid=a8c8307b-e1e9-4950-a785-578e1a82f805","ios":"levelo://app?vid=a8c8307b-e1e9-4950-a785-578e1a82f805"},"vehicle_type_id":"4","last_reported":1773988867,"current_range_meters":9200,"station_id":"","pricing_plan_id":"cebpf4jnsgd1na2vs0mg"},{"bike_id":"962e3e51-db50-4f61-a079-9b1c6a103eb5","system_id":"levelo_inurba_marseille","lat":43.30963,"lon":5.36814,"is_reserved":false,"is_disabled":false,"rental_uris":{"android":"levelo://app?vid=962e3e51-db50-4f61-a079-9b1c6a103eb5","ios":"levelo://app?vid=962e3e51-db50-4f61-a079-9b1c6a103eb5"},"vehicle_type_id":"4","last_reported":1773988867,"current_range_meters":9200,"station_id":"","pricing_plan_id":"cebpf4jnsgd1na2vs0mg"},{"bike_id":"30a20fc8-cac8-4a4d-a9f0-25190d1b77de","system_id":"levelo_inurba_marseille","lat":43.29685,"lon":5.36619,"is_reserved":false,"is_disabled":false,"rental_uris":{"android":"levelo://app?vid=30a20fc8-cac8-4a4d-a9f0-25190d1b77de","ios":"levelo://app?vid=30a20fc8-cac8-4a4d-a9f0-25190d1b77de"},"vehicle_type_id":"4","last_reported":1773988867,"current_range_meters":9200,"station_id":"ce4bgn12rcd13ifvqbt0","pricing_plan_id":"cebpf4jnsgd1na2vs0mg"},{"bike_id":"92669afb-dca4-450c-9c1e-d835c51f94c5","system_id":"levelo_inurba_marseille","lat":43.28937,"lon":5.36646,"is_reserved":false,"is_disabled":false,"rental_uris":{"android":"levelo://app?vid=92669afb-dca4-450c-9c1e-d835c51f94c5","ios":"levelo://app?vid=92669afb-dca4-450c-9c1e-d835c51f94c5"},"vehicle_type_id":"4","last_reported":1773988867,"current_range_meters":9200,"station_id":"ce4bhap2rcd13ifvqek0","pricing_plan_id":"cebpf4jnsgd1na2vs0mg"},{"bike_id":"978d120c-bd83-4ea4-a68b-a9e6a4f77d9e","system_id":"levelo_inurba_marseille","lat":43.28478,"lon":5.38549,"is_reserved":false,"is_disabled":false,"rental_uris":{"android":"levelo://app?vid=978d120c-bd83-4ea4-a68b-a9e6a4f77d9e","ios":"levelo://app?vid=978d120c-bd83-4ea4-a68b-a9e6a4f77d9e"},"vehicle_type_id":"4","last_reported":1773988867,"current_range_meters":9200,"station_id":"ce4bh8p2rcd13ifvqeb0","pricing_plan_id":"cebpf4jnsgd1na2vs0mg"},{"bike_id":"e05d1ed7-bbc1-4b39-bce6-dc34bf6cb512","system_id":"levelo_inurba_marseille","lat":43.24106,"lon":5.3765,"is_reserved":false,"is_disabled":false,"rental_uris":{"android":"levelo://app?vid=e05d1ed7-bbc1-4b39-bce6-dc34bf6cb512","ios":"levelo://app?vid=e05d1ed7-bbc1-4b39-bce6-dc34bf6cb512"},"vehicle_type_id":"4","last_reported":1773988867,"current_range_meters":9200,"station_id":"","pricing_plan_id":"cebpf4jnsgd1na2vs0mg"},{"bike_id":"a0a8b89a-e7d1-49b1-81d7-3414ac7dcdfb","system_id":"levelo_inurba_marseille","lat":43.28428,"lon":5.37527,"is_reserved":false,"is_disabled":false,"rental_uris":{"android":"levelo://app?vid=a0a8b89a-e7d1-49b1-81d7-3414ac7dcdfb","ios":"levelo://app?vid=a0a8b89a-e7d1-49b1-81d7-3414ac7dcdfb"},"vehicle_type_id":"4","last_reported":1773988867,"current_range_meters":9200,"station_id":"ce4bh412rcd13ifvqds0","pricing_plan_id":"cebpf4jnsgd1na2vs0mg"},{"bike_id":"5f0eb78c-acfa-4b0f-9513-e3e5d6ad3ae3","system_id":"levelo_inurba_marseille","lat":43.28684,"lon":5.37387,"is_reserved":false,"is_disabled":false,"rental_uris":{"android":"levelo://app?vid=5f0eb78c-acfa-4b0f-9513-e3e5d6ad3ae3","ios":"levelo://app?vid=5f0eb78c-acfa-4b0f-9513-e3e5d6ad3ae3"},"vehicle_type_id":"4","last_reported":1773988867,"current_range_meters":9600,"station_id":"ce4bh3p2rcd13ifvqdq0","pricing_plan_id":"cebpf4jnsgd1na2vs0mg"},{"bike_id":"d98676a3-493e-49af-8b89-e7d7e5b495a4","system_id":"levelo_inurba_marseille","lat":43.30531,"lon":5.36693,"is_reserved":false,"is_disabled":false,"rental_uris":{"android":"levelo://app?vid=d98676a3-493e-49af-8b89-e7d7e5b495a4","ios":"levelo://app?vid=d98676a3-493e-49af-8b89-e7d7e5b495a4"},"vehicle_type_id":"4","last_reported":1773988867,"current_range_meters":9600,"station_id":"ce4bgrp2rcd13ifvqc9g","pricing_plan_id":"cebpf4jnsgd1na2vs0mg"},{"bike_id":"e2420c11-4646-4145-aa2e-baedb91a43dc","system_id":"levelo_inurba_marseille","lat":43.32334,"lon":5.36856,"is_reserved":false,"is_disabled":false,"rental_uris":{"android":"levelo://app?vid=e2420c11-4646-4145-aa2e-baedb91a43dc","ios":"levelo://app?vid=e2420c11-4646-4145-aa2e-baedb91a43dc"},"vehicle_type_id":"4","last_reported":1773988867,"current_range_meters":9600,"station_id":"","pricing_plan_id":"cebpf4jnsgd1na2vs0mg"},{"bike_id":"d4c6f501-fff5-4202-ab66-c28212c8a314","system_id":"levelo_inurba_marseille","lat":43.2318,"lon":5.39982,"is_reserved":false,"is_disabled":true,"rental_uris":{"android":"levelo://app?vid=d4c6f501-fff5-4202-ab66-c28212c8a314","ios":"levelo://app?vid=d4c6f501-fff5-4202-ab66-c28212c8a314"},"vehicle_type_id":"4","last_reported":1773988867,"current_range_meters":9600,"station_id":"ce4bhn12rcd13ifvqgqg","pricing_plan_id":"cebpf4jnsgd1na2vs0mg"},{"bike_id":"831b551a-c64b-43ce-85aa-63159cdbf772","system_id":"levelo_inurba_marseille","lat":43.28277,"lon":5.35073,"is_reserved":false,"is_disabled":false,"rental_uris":{"android":"levelo://app?vid=831b551a-c64b-43ce-85aa-63159cdbf772","ios":"levelo://app?vid=831b551a-c64b-43ce-85aa-63159cdbf772"},"vehicle_type_id":"4","last_reported":1773988867,"current_range_meters":9600,"station_id":"ce4bhbp2rcd13ifvqerg","pricing_plan_id":"cebpf4jnsgd1na2vs0mg"},{"bike_id":"f3414e99-2d7c-4b03-96db-df8c1c6d3f2b","system_id":"levelo_inurba_marseille","lat":43.28477,"lon":5.48408,"is_reserved":false,"is_disabled":false,"rental_uris":{"android":"levelo://app?vid=f3414e99-2d7c-4b03-96db-df8c1c6d3f2b","ios":"levelo://app?vid=f3414e99-2d7c-4b03-96db-df8c1c6d3f2b"},"vehicle_type_id":"4","last_reported":1773988867,"current_range_meters":9600,"station_id":"","pricing_plan_id":"cebpf4jnsgd1na2vs0mg"},{"bike_id":"29ae5a93-160a-41dc-bc0f-8cde074233b5","system_id":"levelo_inurba_marseille","lat":43.29353,"lon":5.37862,"is_reserved":false,"is_disabled":false,"rental_uris":{"android":"levelo://app?vid=29ae5a93-160a-41dc-bc0f-8cde074233b5","ios":"levelo://app?vid=29ae5a93-160a-41dc-bc0f-8cde074233b5"},"vehicle_type_id":"4","last_reported":1773988867,"current_range_meters":9600,"station_id":"ce4bgjh2rcd13ifvqbf0","pricing_plan_id":"cebpf4jnsgd1na2vs0mg"},{"bike_id":"bfa999de-7a32-454a-b31e-f99ace51a3fc","system_id":"levelo_inurba_marseille","lat":43.2848,"lon":5.48403,"is_reserved":false,"is_disabled":false,"rental_uris":{"android":"levelo://app?vid=bfa999de-7a32-454a-b31e-f99ace51a3fc","ios":"levelo://app?vid=bfa999de-7a32-454a-b31e-f99ace51a3fc"},"vehicle_type_id":"4","last_reported":1773988867,"current_range_meters":9600,"station_id":"","pricing_plan_id":"cebpf4jnsgd1na2vs0mg"},{"bike_id":"7f166c91-9eb1-4dc8-a940-85d8139ad9d9","system_id":"levelo_inurba_marseille","lat":43.23971,"lon":5.36619,"is_reserved":false,"is_disabled":false,"rental_uris":{"android":"levelo://app?vid=7f166c91-9eb1-4dc8-a940-85d8139ad9d9","ios":"levelo://app?vid=7f166c91-9eb1-4dc8-a940-85d8139ad9d9"},"vehicle_type_id":"4","last_reported":1773988867,"current_range_meters":9600,"station_id":"ce4bhi12rcd13ifvqfp0","pricing_plan_id":"cebpf4jnsgd1na2vs0mg"},{"bike_id":"6d385325-547b-42f0-a53e-4903e923f44c","system_id":"levelo_inurba_marseille","lat":43.24664,"lon":5.38158,"is_reserved":false,"is_disabled":false,"rental_uris":{"android":"levelo://app?vid=6d385325-547b-42f0-a53e-4903e923f44c","ios":"levelo://app?vid=6d385325-547b-42f0-a53e-4903e923f44c"},