{"last_updated":1714774018,"ttl":30,"version":"2.2","data":{"bikes":[{"bike_id":"98ae3155-780f-470b-a5ed-f52a352d6d9f","system_id":"levelo_inurba_marseille","lat":43.313336,"lon":5.367037,"is_reserved":false,"is_disabled":false,"rental_uris":{"android":"levelo://app?vid=98ae3155-780f-470b-a5ed-f52a352d6d9f","ios":"levelo://app?vid=98ae3155-780f-470b-a5ed-f52a352d6d9f"},"vehicle_type_id":"4","last_reported":1714774018,"current_range_meters":0,"station_id":"ce4bgr92rcd13ifvqc6g","pricing_plan_id":"cebpf4jnsgd1na2vs0mg"},{"bike_id":"69008581-b196-4d93-97d2-394f5c35a235","system_id":"levelo_inurba_marseille","lat":43.313391,"lon":5.36706,"is_reserved":false,"is_disabled":false,"rental_uris":{"android":"levelo://app?vid=69008581-b196-4d93-97d2-394f5c35a235","ios":"levelo://app?vid=69008581-b196-4d93-97d2-394f5c35a235"},"vehicle_type_id":"4","last_reported":1714774018,"current_range_meters":31200,"station_id":"ce4bgr92rcd13ifvqc6g","pricing_plan_id":"cebpf4jnsgd1na2vs0mg"},{"bike_id":"c4df4862-8961-45b9-9dd5-a5a527ff1014","system_id":"levelo_inurba_marseille","lat":43.312239,"lon":5.368562,"is_reserved":false,"is_disabled":false,"rental_uris":{"android":"levelo://app?vid=c4df4862-8961-45b9-9dd5-a5a527ff1014","ios":"levelo://app?vid=c4df4862-8961-45b9-9dd5-a5a527ff1014"},"vehicle_type_id":"4","last_reported":1714774018,"current_range_meters":800,"station_id":"ce4bgl92rcd13ifvqbq0","pricing_plan_id":"cebpf4jnsgd1na2vs0mg"},{"bike_id":"cb33896f-f5db-45e5-9908-8bdeb5cabca0","system_id":"levelo_inurba_marseille","lat":43.309076,"lon":5.368465,"is_reserved":false,"is_disabled":false,"rental_uris":{"android":"levelo://app?vid=cb33896f-f5db-45e5-9908-8bdeb5cabca0","ios":"levelo://app?vid=cb33896f-f5db-45e5-9908-8bdeb5cabca0"},"vehicle_type_id":"4","last_reported":1714774018,"current_range_meters":13200,"station_id":"ce4bgn92rcd13ifvqbvg","pricing_plan_id":"cebpf4jnsgd1na2vs0mg"},{"bike_id":"5831e16b-4e08-4cae-ac81-686195f8e670","system_id":"levelo_inurba_marseille","lat":43.309076,"lon":5.368465,"is_reserved":false,"is_disabled":false,"rental_uris":{"android":"levelo://app?vid=5831e16b-4e08-4cae-ac81-686195f8e670","ios":"levelo://app?vid=5831e16b-4e08-4cae-ac81-686195f8e670"},"vehicle_type_id":"4","last_reported":1714774018,"current_range_meters":3200,"station_id":"ce4bgn92rcd13ifvqbvg","pricing_plan_id":"cebpf4jnsgd1na2vs0mg"},{"bike_id":"ef0c74d2-2d88-4dc8-9663-ed41e14699fa","system_id":"levelo_inurba_marseille","lat":43.3089,"lon":5.36672,"is_reserved":false,"is_disabled":false,"rental_uris":{"android":"levelo://app?vid=ef0c74d2-2d88-4dc8-9663-ed41e14699fa","ios":"levelo://app?vid=ef0c74d2-2d88-4dc8-9663-ed41e14699fa"},"vehicle_type_id":"4","last_reported":1714774018,"current_range_meters":22800,"station_id":"","pricing_plan_id":"cebpf4jnsgd1na2vs0mg"},{"bike_id":"11f40c3d-2ddb-4019-987c-79d16c140bca","system_id":"levelo_inurba_marseille","lat":43.314811,"lon":5.373103,"is_reserved":false,"is_disabled":false,"rental_uris":{"android":"levelo://app?vid=11f40c3d-2ddb-4019-987c-79d16c140bca","ios":"levelo://app?vid=11f40c3d-2ddb-4019-987c-79d16c140bca"},"vehicle_type_id":"4","last_reported":1714774018,"current_range_meters":14800,"station_id":"ce4bgt12rcd13ifvqcd0","pricing_plan_id":"cebpf4jnsgd1na2vs0mg"},{"bike_id":"71138fa3-f539-4196-a21f-fb5fb249eb7e","system_id":"levelo_inurba_marseille","lat":43.31486,"lon":5.37308,"is_reserved":false,"is_disabled":false,"rental_uris":{"android":"levelo://app?vid=71138fa3-f539-4196-a21f-fb5fb249eb7e","ios":"levelo://app?vid=71138fa3-f539-4196-a21f-fb5fb249eb7e"},"vehicle_type_id":"4","last_reported":1714774018,"current_range_meters":0,"station_id":"ce4bgt12rcd13ifvqcd0","pricing_plan_id":"cebpf4jnsgd1na2vs0mg"},{"bike_id":"f4732869-18ac-4b31-aa60-9bfd79c55270","system_id":"levelo_inurba_marseille","lat":43.314811,"lon":5.373103,"is_reserved":false,"is_disabled":false,"rental_uris":{"android":"levelo://app?vid=f4732869-18ac-4b31-aa60-9bfd79c55270","ios":"levelo://app?vid=f4732869-18ac-4b31-aa60-9bfd79c55270"},"vehicle_type_id":"4","last_reported":1714774018,"current_range_meters":30800,"station_id":"ce4bgt12rcd13ifvqcd0","pricing_plan_id":"cebpf4jnsgd1na2vs0mg"},{"bike_id":"f1c0d4b0-4687-4b38-8481-65726d9fc76e","system_id":"levelo_inurba_marseille","lat":43.309039,"lon":5.371797,"is_reserved":false,"is_disabled":false,"rental_uris":{"android":"levelo://app?vid=f1c0d4b0-4687-4b38-8481-65726d9fc76e","ios":"levelo://app?vid=f1c0d4b0-4687-4b38-8481-65726d9fc76e"},"vehicle_type_id":"4","last_reported":1714774018,"current_range_meters":2000,"station_id":"ce4bguh2rcd13ifvqckg","pricing_plan_id":"cebpf4jnsgd1na2vs0mg"},{"bike_id":"347476af-1919-436b-bc2b-91323c37a594","system_id":"levelo_inurba_marseille","lat":43.309039,"lon":5.371797,"is_reserved":false,"is_disabled":false,"rental_uris":{"android":"levelo://app?vid=347476af-1919-436b-bc2b-91323c37a594","ios":"levelo://app?vid=347476af-1919-436b-bc2b-91323c37a594"},"vehicle_type_id":"4","last_reported":1714774018,"current_range_meters":0,"station_id":"ce4bguh2rcd13ifvqckg","pricing_plan_id":"cebpf4jnsgd1na2vs0mg"},{"bike_id":"f484057d-25f9-4f72-8d2f-7b3a9b962718","system_id":"levelo_inurba_marseille","lat":43.309034,"lon":5.371783,"is_reserved":false,"is_disabled":false,"rental_uris":{"android":"levelo://app?vid=f484057d-25f9-4f72-8d2f-7b3a9b962718","ios":"levelo://app?vid=f484057d-25f9-4f72-8d2f-7b3a9b962718"},"vehicle_type_id":"4","last_reported":1714774018,"current_range_meters":0,"station_id":"ce4bguh2rcd13ifvqckg","pricing_plan_id":"cebpf4jnsgd1na2vs0mg"},{"bike_id":"c2debd6b-5e63-4796-bc0f-f5ad938a9d44","system_id":"levelo_inurba_marseille","lat":43.309034,"lon":5.371783,"is_reserved":false,"is_disabled":false,"rental_uris":{"android":"levelo://app?vid=c2debd6b-5e63-4796-bc0f-f5ad938a9d44","ios":"levelo://app?vid=c2debd6b-5e63-4796-bc0f-f5ad938a9d44"},"vehicle_type_id":"4","last_reported":1714774018,"current_range_meters":0,"station_id":"ce4bguh2rcd13ifvqckg","pricing_plan_id":"cebpf4jnsgd1na2vs0mg"},{"bike_id":"deb9e2af-c173-4c67-a0c9-5d2924863615","system_id":"levelo_inurba_marseille","lat":43.309034,"lon":5.371783,"is_reserved":false,"is_disabled":false,"rental_uris":{"android":"levelo://app?vid=deb9e2af-c173-4c67-a0c9-5d2924863615","ios":"levelo://app?vid=deb9e2af-c173-4c67-a0c9-5d2924863615"},"vehicle_type_id":"4","last_reported":1714774018,"current_range_meters":6000,"station_id":"ce4bguh2rcd13ifvqckg","pricing_plan_id":"cebpf4jnsgd1na2vs0mg"},{"bike_id":"7be61336-76bd-4e57-b73f-49e91af258ac","system_id":"levelo_inurba_marseille","lat":43.31436,"lon":5.37452,"is_reserved":false,"is_disabled":false,"rental_uris":{"android":"levelo://app?vid=7be61336-76bd-4e57-b73f-49e91af258ac","ios":"levelo://app?vid=7be61336-76bd-4e57-b73f-49e91af258ac"},"vehicle_type_id":"4","last_reported":1714774018,"current_range_meters":2800,"station_id":"","pricing_plan_id":"cebpf4jnsgd1na2vs0mg"},{"bike_id":"469c901f-1d47-439c-a6d9-3eb39f352939","system_id":"levelo_inurba_marseille","lat":43.30537,"lon":5.367345,"is_reserved":false,"is_disabled":false,"rental_uris":{"android":"levelo://app?vid=469c901f-1d47-439c-a6d9-3eb39f352939","ios":"levelo://app?vid=469c901f-1d47-439c-a6d9-3eb39f352939"},"vehicle_type_id":"4","last_reported":1714774018,"current_range_meters":22800,"station_id":"ce4bgrp2rcd13ifvqc9g","pricing_plan_id":"cebpf4jnsgd1na2vs0mg"},{"bike_id":"3cf652ba-d582-49f3-89c8-bff11616375c","system_id":"levelo_inurba_marseille","lat":43.30537,"lon":5.367345,"is_reserved":false,"is_disabled":false,"rental_uris":{"android":"levelo://app?vid=3cf652ba-d582-49f3-89c8-bff11616375c","ios":"levelo://app?vid=3cf652ba-d582-49f3-89c8-bff11616375c"},"vehicle_type_id":"4","last_reported":1714774018,"current_range_meters":19600,"station_id":"ce4bgrp2rcd13ifvqc9g","pricing_plan_id":"cebpf4jnsgd1na2vs0mg"},{"bike_id":"be892193-0351-414a-a3a8-48e64bf7a8ac","system_id":"levelo_inurba_marseille","lat":43.30536,"lon":5.36545,"is_reserved":false,"is_disabled":false,"rental_uris":{"android":"levelo://app?vid=be892193-0351-414a-a3a8-48e64bf7a8ac","ios":"levelo://app?vid=be892193-0351-414a-a3a8-48e64bf7a8ac"},"vehicle_type_id":"4","last_reported":1714774018,"current_range_meters":13600,"station_id":"ce4bgs12rcd13ifvqcag","pricing_plan_id":"cebpf4jnsgd1na2vs0mg"},{"bike_id":"99337341-147e-40bf-a6d5-a1b584425226","system_id":"levelo_inurba_marseille","lat":43.30527,"lon":5.3653,"is_reserved":false,"is_disabled":false,"rental_uris":{"android":"levelo://app?vid=99337341-147e-40bf-a6d5-a1b584425226","ios":"levelo://app?vid=99337341-147e-40bf-a6d5-a1b584425226"},"vehicle_type_id":"4","last_reported":1714774018,"current_range_meters":6400,"station_id":"ce4bgs12rcd13ifvqcag","pricing_plan_id":"cebpf4jnsgd1na2vs0mg"},{"bike_id":"4df4033d-1987-484c-b565-257d9db6d22f","system_id":"levelo_inurba_marseille","lat":43.305714,"lon":5.365633,"is_reserved":false,"is_disabled":false,"rental_uris":{"android":"levelo://app?vid=4df4033d-1987-484c-b565-257d9db6d22f","ios":"levelo://app?vid=4df4033d-1987-484c-b565-257d9db6d22f"},"vehicle_type_id":"4","last_reported":1714774018,"current_range_meters":13200,"station_id":"ce4bgs12rcd13ifvqcag","pricing_plan_id":"cebpf4jnsgd1na2vs0mg"},{"bike_id":"0ce8c431-1ec1-4cfb-9950-a6fc353fb152","system_id":"levelo_inurba_marseille","lat":43.305989,"lon":5.37225,"is_reserved":false,"is_disabled":false,"rental_uris":{"android":"levelo://app?vid=0ce8c431-1ec1-4cfb-9950-a6fc353fb152","ios":"levelo://app?vid=0ce8c431-1ec1-4cfb-9950-a6fc353fb152"},"vehicle_type_id":"4","last_reported":1714774018,"current_range_meters":18800,"station_id":"ce4bgqh2rcd13ifvqc4g","pricing_plan_id":"cebpf4jnsgd1na2vs0mg"},{"bike_id":"430c7868-bc49-4b80-b2da-a278a6a3ac54","system_id":"levelo_inurba_marseille","lat":43.311131,"lon":5.377651,"is_reserved":false,"is_disabled":false,"rental_uris":{"android":"levelo://app?vid=430c7868-bc49-4b80-b2da-a278a6a3ac54","ios":"levelo://app?vid=430c7868-bc49-4b80-b2da-a278a6a3ac54"},"vehicle_type_id":"4","last_reported":1714774018,"current_range_meters":5200,"station_id":"ce4bgt92rcd13ifvqcg0","pricing_plan_id":"cebpf4jnsgd1na2vs0mg"},{"bike_id":"b86359a0-b192-404a-81e2-5e8bb528d818","system_id":"levelo_inurba_marseille","lat":43.311131,"lon":5.377651,"is_reserved":false,"is_disabled":false,"rental_uris":{"android":"levelo://app?vid=b86359a0-b192-404a-81e2-5e8bb528d818","ios":"levelo://app?vid=b86359a0-b192-404a-81e2-5e8bb528d818"},"vehicle_type_id":"4","last_reported":1714774018,"current_range_meters":9600,"station_id":"ce4bgt92rcd13ifvqcg0","pricing_plan_id":"cebpf4jnsgd1na2vs0mg"},{"bike_id":"2b24a726-4896-46e2-a43c-a69976633517","system_id":"levelo_inurba_marseille","lat":43.311131,"lon":5.377651,"is_reserved":false,"is_disabled":false,"rental_uris":{"android":"levelo://app?vid=2b24a726-4896-46e2-a43c-a69976633517","ios":"levelo://app?vid=2b24a726-4896-46e2-a43c-a69976633517"},"vehicle_type_id":"4","last_reported":1714774018,"current_range_meters":13600,"station_id":"ce4bgt92rcd13ifvqcg0","pricing_plan_id":"cebpf4jnsgd1na2vs0mg"},{"bike_id":"1690ade3-f258-4077-9c3c-0a858ba89d0e","system_id":"levelo_inurba_marseille","lat":43.31119,"lon":5.37768,"is_reserved":false,"is_disabled":false,"rental_uris":{"android":"levelo://app?vid=1690ade3-f258-4077-9c3c-0a858ba89d0e","ios":"levelo://app?vid=1690ade3-f258-4077-9c3c-0a858ba89d0e"},"vehicle_type_id":"4","last_reported":1714774018,"current_range_meters":0,"station_id":"ce4bgt92rcd13ifvqcg0","pricing_plan_id":"cebpf4jnsgd1na2vs0mg"},{"bike_id":"9934b240-73e2-4c68-affe-da3e9e536ef9","system_id":"levelo_inurba_marseille","lat":43.311125,"lon":5.377624,"is_reserved":false,"is_disabled":false,"rental_uris":{"android":"levelo://app?vid=9934b240-73e2-4c68-affe-da3e9e536ef9","ios":"levelo://app?vid=9934b240-73e2-4c68-affe-da3e9e536ef9"},"vehicle_type_id":"4","last_reported":1714774018,"current_range_meters":31200,"station_id":"ce4bgt92rcd13ifvqcg0","pricing_plan_id":"cebpf4jnsgd1na2vs0mg"},{"bike_id":"496321d1-8a52-431f-9445-aefc2cc10381","system_id":"levelo_inurba_marseille","lat":43.311131,"lon":5.377651,"is_reserved":false,"is_disabled":false,"rental_uris":{"android":"levelo://app?vid=496321d1-8a52-431f-9445-aefc2cc10381","ios":"levelo://app?vid=496321d1-8a52-431f-9445-aefc2cc10381"},"vehicle_type_id":"4","last_reported":1714774018,"current_range_meters":25600,"station_id":"ce4bgt92rcd13ifvqcg0","pricing_plan_id":"cebpf4jnsgd1na2vs0mg"},{"bike_id":"91a27c5d-d76a-4099-b85a-0c0fae0bbcee","system_id":"levelo_inurba_marseille","lat":43.311125,"lon":5.377624,"is_reserved":false,"is_disabled":false,"rental_uris":{"android":"levelo://app?vid=91a27c5d-d76a-4099-b85a-0c0fae0bbcee","ios":"levelo://app?vid=91a27c5d-d76a-4099-b85a-0c0fae0bbcee"},"vehicle_type_id":"4","last_reported":1714774018,"current_range_meters":24000,"station_id":"ce4bgt92rcd13ifvqcg0","pricing_plan_id":"cebpf4jnsgd1na2vs0mg"},{"bike_id":"31db974c-c28c-454c-ab80-0933c1dd6ed3","system_id":"levelo_inurba_marseille","lat":43.307945,"lon":5.376487,"is_reserved":false,"is_disabled":false,"rental_uris":{"android":"levelo://app?vid=31db974c-c28c-454c-ab80-0933c1dd6ed3","ios":"levelo://app?vid=31db974c-c28c-454c-ab80-0933c1dd6ed3"},"vehicle_type_id":"4","last_reported":1714774018,"current_range_meters":25600,"station_id":"ce4bgv92rcd13ifvqcq0","pricing_plan_id":"cebpf4jnsgd1na2vs0mg"},{"bike_id":"a89702c4-f7b1-4a22-9488-7e92337af37c","system_id":"levelo_inurba_marseille","lat":43.307945,"lon":5.376487,"is_reserved":false,"is_disabled":false,"rental_uris":{"android":"levelo://app?vid=a89702c4-f7b1-4a22-9488-7e92337af37c","ios":"levelo://app?vid=a89702c4-f7b1-4a22-9488-7e92337af37c"},"vehicle_type_id":"4","last_reported":1714774018,"current_range_meters":11600,"station_id":"ce4bgv92rcd13ifvqcq0","pricing_plan_id":"cebpf4jnsgd1na2vs0mg"},{"bike_id":"0b7adaa5-d1d7-4cd1-8c16-0eb3e5fcedda","system_id":"levelo_inurba_marseille","lat":43.311131,"lon":5.377651,"is_reserved":false,"is_disabled":false,"rental_uris":{"android":"levelo://app?vid=0b7adaa5-d1d7-4cd1-8c16-0eb3e5fcedda","ios":"levelo://app?vid=0b7adaa5-d1d7-4cd1-8c16-0eb3e5fcedda"},"vehicle_type_id":"4","last_reported":1714774018,"current_range_meters":4800,"station_id":"ce4bgt92rcd13ifvqcg0","pricing_plan_id":"cebpf4jnsgd1na2vs0mg"},{"bike_id":"e502e0fc-e20e-463c-a897-caaaf0e4bf8e","system_id":"levelo_inurba_marseille","lat":43.308012,"lon":5.381511,"is_reserved":false,"is_disabled":false,"rental_uris":{"android":"levelo://app?vid=e502e0fc-e20e-463c-a897-caaaf0e4bf8e","ios":"levelo://app?vid=e502e0fc-e20e-463c-a897-caaaf0e4bf8e"},"vehicle_type_id":"4","last_reported":1714774018,"current_range_meters":0,"station_id":"ce4bgt12rcd13ifvqce0","pricing_plan_id":"cebpf4jnsgd1na2vs0mg"},{"bike_id":"9f75e496-236b-4501-93c9-18ca058e14b9","system_id":"levelo_inurba_marseille","lat":43.317075,"lon":5.377367,"is_reserved":false,"is_disabled":false,"rental_uris":{"android":"levelo://app?vid=9f75e496-236b-4501-93c9-18ca058e14b9","ios":"levelo://app?vid=9f75e496-236b-4501-93c9-18ca058e14b9"},"vehicle_type_id":"4","last_reported":1714774018,"current_range_meters":6800,"station_id":"ce4bgth2rcd13ifvqch0","pricing_plan_id":"cebpf4jnsgd1na2vs0mg"},{"bike_id":"147735a4-2e2c-4a6b-9c5a-21eb219cc018","system_id":"levelo_inurba_marseille","lat":43.317075,"lon":5.377367,"is_reserved":false,"is_disabled":false,"rental_uris":{"android":"levelo://app?vid=147735a4-2e2c-4a6b-9c5a-21eb219cc018","ios":"levelo://app?vid=147735a4-2e2c-4a6b-9c5a-21eb219cc018"},"vehicle_type_id":"4","last_reported":1714774018,"current_range_meters":14000,"station_id":"ce4bgth2rcd13ifvqch0","pricing_plan_id":"cebpf4jnsgd1na2vs0mg"},{"bike_id":"79941350-30c4-4ec5-9dd2-151c4381308c","system_id":"levelo_inurba_marseille","lat":43.317075,"lon":5.377367,"is_reserved":false,"is_disabled":false,"rental_uris":{"android":"levelo://app?vid=79941350-30c4-4ec5-9dd2-151c4381308c","ios":"levelo://app?vid=79941350-30c4-4ec5-9dd2-151c4381308c"},"vehicle_type_id":"4","last_reported":1714774018,"current_range_meters":10800,"station_id":"ce4bgth2rcd13ifvqch0","pricing_plan_id":"cebpf4jnsgd1na2vs0mg"},{"bike_id":"99d66f7b-2ebe-4936-92b5-2748601520c9","system_id":"levelo_inurba_marseille","lat":43.317075,"lon":5.377367,"is_reserved":false,"is_disabled":false,"rental_uris":{"android":"levelo://app?vid=99d66f7b-2ebe-4936-92b5-2748601520c9","ios":"levelo://app?vid=99d66f7b-2ebe-4936-92b5-2748601520c9"},"vehicle_type_id":"4","last_reported":1714774018,"current_range_meters":20400,"station_id":"ce4bgth2rcd13ifvqch0","pricing_plan_id":"cebpf4jnsgd1na2vs0mg"},{"bike_id":"c43d6d98-27d6-46a6-ad6f-5b7ca9f08b92","system_id":"levelo_inurba_marseille","lat":43.317075,"lon":5.377367,"is_reserved":false,"is_disabled":false,"rental_uris":{"android":"levelo://app?vid=c43d6d98-27d6-46a6-ad6f-5b7ca9f08b92","ios":"levelo://app?vid=c43d6d98-27d6-46a6-ad6f-5b7ca9f08b92"},"vehicle_type_id":"4","last_reported":1714774018,"current_range_meters":5200,"station_id":"ce4bgth2rcd13ifvqch0","pricing_plan_id":"cebpf4jnsgd1na2vs0mg"},{"bike_id":"8599d56c-6194-4da9-99cc-569362fc6b88","system_id":"levelo_inurba_marseille","lat":43.303046,"lon":5.368981,"is_reserved":false,"is_disabled":false,"rental_uris":{"android":"levelo://app?vid=8599d56c-6194-4da9-99cc-569362fc6b88","ios":"levelo://app?vid=8599d56c-6194-4da9-99cc-569362fc6b88"},"vehicle_type_id":"4","last_reported":1714774018,"current_range_meters":12400,"station_id":"ce4bgqh2rcd13ifvqc5g","pricing_plan_id":"cebpf4jnsgd1na2vs0mg"},{"bike_id":"2edc0395-823f-4683-aed8-bb3bc5ec1d8f","system_id":"levelo_inurba_marseille","lat":43.303046,"lon":5.368981,"is_reserved":false,"is_disabled":false,"rental_uris":{"android":"levelo://app?vid=2edc0395-823f-4683-aed8-bb3bc5ec1d8f","ios":"levelo://app?vid=2edc0395-823f-4683-aed8-bb3bc5ec1d8f"},"vehicle_type_id":"4","last_reported":1714774018,"current_range_meters":16400,"station_id":"ce4bgqh2rcd13ifvqc5g","pricing_plan_id":"cebpf4jnsgd1na2vs0mg"},{"bike_id":"b69324dc-9b34-44cd-a934-5ed0c57198df","system_id":"levelo_inurba_marseille","lat":43.303046,"lon":5.368981,"is_reserved":false,"is_disabled":false,"rental_uris":{"android":"levelo://app?vid=b69324dc-9b34-44cd-a934-5ed0c57198df","ios":"levelo://app?vid=b69324dc-9b34-44cd-a934-5ed0c57198df"},"vehicle_type_id":"4","last_reported":1714774018,"current_range_meters":9600,"station_id":"ce4bgqh2rcd13ifvqc5g","pricing_plan_id":"cebpf4jnsgd1na2vs0mg"},{"bike_id":"e122a721-421d-4d3a-8577-e5a76308d588","system_id":"levelo_inurba_marseille","lat":43.315289,"lon":5.380349,"is_reserved":false,"is_disabled":false,"rental_uris":{"android":"levelo://app?vid=e122a721-421d-4d3a-8577-e5a76308d588","ios":"levelo://app?vid=e122a721-421d-4d3a-8577-e5a76308d588"},"vehicle_type_id":"4","last_reported":1714774018,"current_range_meters":14000,"station_id":"ce4bhsp2rcd13ifvqi50","pricing_plan_id":"cebpf4jnsgd1na2vs0mg"},{"bike_id":"998272b4-3a8a-43d1-8102-7f21194a824f","system_id":"levelo_inurba_marseille","lat":43.315293,"lon":5.380349,"is_reserved":false,"is_disabled":false,"rental_uris":{"android":"levelo://app?vid=998272b4-3a8a-43d1-8102-7f21194a824f","ios":"levelo://app?vid=998272b4-3a8a-43d1-8102-7f21194a824f"},"vehicle_type_id":"4","last_reported":1714774018,"current_range_meters":6400,"station_id":"ce4bhsp2rcd13ifvqi50","pricing_plan_id":"cebpf4jnsgd1na2vs0mg"},{"bike_id":"843a2394-f12b-430a-94a5-9de3545f59fd","system_id":"levelo_inurba_marseille","lat":43.315293,"lon":5.380349,"is_reserved":false,"is_disabled":false,"rental_uris":{"android":"levelo://app?vid=843a2394-f12b-430a-94a5-9de3545f59fd","ios":"levelo://app?vid=843a2394-f12b-430a-94a5-9de3545f59fd"},"vehicle_type_id":"4","last_reported":1714774018,"current_range_meters":31200,"station_id":"ce4bhsp2rcd13ifvqi50","pricing_plan_id":"cebpf4jnsgd1na2vs0mg"},{"bike_id":"8868dd8f-c75e-48ef-a209-bf77b08abb92","system_id":"levelo_inurba_marseille","lat":43.315289,"lon":5.380349,"is_reserved":false,"is_disabled":false,"rental_uris":{"android":"levelo://app?vid=8868dd8f-c75e-48ef-a209-bf77b08abb92","ios":"levelo://app?vid=8868dd8f-c75e-48ef-a209-bf77b08abb92"},"vehicle_type_id":"4","last_reported":1714774018,"current_range_meters":31200,"station_id":"ce4bhsp2rcd13ifvqi50","pricing_plan_id":"cebpf4jnsgd1na2vs0mg"},{"bike_id":"bc56b1fc-fdaa-405b-8ab7-76d1696e5de8","system_id":"levelo_inurba_marseille","lat":43.315289,"lon":5.380349,"is_reserved":false,"is_disabled":false,"rental_uris":{"android":"levelo://app?vid=bc56b1fc-fdaa-405b-8ab7-76d1696e5de8","ios":"levelo://app?vid=bc56b1fc-fdaa-405b-8ab7-76d1696e5de8"},"vehicle_type_id":"4","last_reported":1714774018,"current_range_meters":30400,"station_id":"ce4bhsp2rcd13ifvqi50","pricing_plan_id":"cebpf4jnsgd1na2vs0mg"},{"bike_id":"742a3dac-15c5-4959-903e-fe0445dce0f4","system_id":"levelo_inurba_marseille","lat":43.3026,"lon":5.36554,"is_reserved":false,"is_disabled":false,"rental_uris":{"android":"levelo://app?vid=742a3dac-15c5-4959-903e-fe0445dce0f4","ios":"levelo://app?vid=742a3dac-15c5-4959-903e-fe0445dce0f4"},"vehicle_type_id":"4","last_reported":1714774018,"current_range_meters":12400,"station_id":"","pricing_plan_id":"cebpf4jnsgd1na2vs0mg"},{"bike_id":"4a12fe43-233d-4932-8f8c-98005063d081","system_id":"levelo_inurba_marseille","lat":43.3025,"lon":5.36555,"is_reserved":false,"is_disabled":false,"rental_uris":{"android":"levelo://app?vid=4a12fe43-233d-4932-8f8c-98005063d081","ios":"levelo://app?vid=4a12fe43-233d-4932-8f8c-98005063d081"},"vehicle_type_id":"4","last_reported":1714774018,"current_range_meters":8400,"station_id":"","pricing_plan_id":"cebpf4jnsgd1na2vs0mg"},{"bike_id":"bbf5118e-d69b-4dac-aaf6-f2cf0f3a692f","system_id":"levelo_inurba_marseille","lat":43.308012,"lon":5.381511,"is_reserved":false,"is_disabled":false,"rental_uris":{"android":"levelo://app?vid=bbf5118e-d69b-4dac-aaf6-f2cf0f3a692f","ios":"levelo://app?vid=bbf5118e-d69b-4dac-aaf6-f2cf0f3a692f"},"vehicle_type_id":"4","last_reported":1714774018,"current_range_meters":14000,"station_id":"ce4bgt12rcd13ifvqce0","pricing_plan_id":"cebpf4jnsgd1na2vs0mg"},{"bike_id":"7424d312-8042-46a7-93a1-0f2b2bca3a05","system_id":"levelo_inurba_marseille","lat":43.308012,"lon":5.381511,"is_reserved":false,"is_disabled":false,"rental_uris":{"android":"levelo://app?vid=7424d312-8042-46a7-93a1-0f2b2bca3a05","ios":"levelo://app?vid=7424d312-8042-46a7-93a1-0f2b2bca3a05"},"vehicle_type_id":"4","last_reported":1714774018,"current_range_meters":0,"station_id":"ce4bgt12rcd13ifvqce0","pricing_plan_id":"cebpf4jnsgd1na2vs0mg"},{"bike_id":"667c3e66-4226-40ee-8161-27fae8346197","system_id":"levelo_inurba_marseille","lat":43.308012,"lon":5.381511,"is_reserved":false,"is_disabled":false,"rental_uris":{"android":"levelo://app?vid=667c3e66-4226-40ee-8161-27fae8346197","ios":"levelo://app?vid=667c3e66-4226-40ee-8161-27fae8346197"},"vehicle_type_id":"4","last_reported":1714774018,"current_range_meters":19200,"station_id":"ce4bgt12rcd13ifvqce0","pricing_plan_id":"cebpf4jnsgd1na2vs0mg"},{"bike_id":"b7d88c95-a8bf-4eee-894e-db9a1a631375","system_id":"levelo_inurba_marseille","lat":43.30463,"lon":5.37895,"is_reserved":false,"is_disabled":false,"rental_uris":{"android":"levelo://app?vid=b7d88c95-a8bf-4eee-894e-db9a1a631375","ios":"levelo://app?vid=b7d88c95-a8bf-4eee-894e-db9a1a631375"},"vehicle_type_id":"4","last_reported":1714774018,"current_range_meters":2400,"station_id":"ce4bgup2rcd13ifvqcn0","pricing_plan_id":"cebpf4jnsgd1na2vs0mg"},{"bike_id":"34baa4d6-a523-496d-b988-eda377da6b9b","system_id":"levelo_inurba_marseille","lat":43.30463,"lon":5.37899,"is_reserved":false,"is_disabled":false,"rental_uris":{"android":"levelo://app?vid=34baa4d6-a523-496d-b988-eda377da6b9b","ios":"levelo://app?vid=34baa4d6-a523-496d-b988-eda377da6b9b"},"vehicle_type_id":"4","last_reported":1714774018,"current_range_meters":28400,"station_id":"ce4bgup2rcd13ifvqcn0","pricing_plan_id":"cebpf4jnsgd1na2vs0mg"},{"bike_id":"d39d311e-53ed-4a64-9b21-5b5f6b368764","system_id":"levelo_inurba_marseille","lat":43.324771,"lon":5.36557,"is_reserved":false,"is_disabled":false,"rental_uris":{"android":"levelo://app?vid=d39d311e-53ed-4a64-9b21-5b5f6b368764","ios":"levelo://app?vid=d39d311e-53ed-4a64-9b21-5b5f6b368764"},"vehicle_type_id":"4","last_reported":1714774018,"current_range_meters":15200,"station_id":"ce4bhs12rcd13ifvqhvg","pricing_plan_id":"cebpf4jnsgd1na2vs0mg"},{"bike_id":"80c86ad0-f001-4ddb-a58a-82fae0cdabc1","system_id":"levelo_inurba_marseille","lat":43.300879,"lon":5.370039,"is_reserved":false,"is_disabled":false,"rental_uris":{"android":"levelo://app?vid=80c86ad0-f001-4ddb-a58a-82fae0cdabc1","ios":"levelo://app?vid=80c86ad0-f001-4ddb-a58a-82fae0cdabc1"},"vehicle_type_id":"4","last_reported":1714774018,"current_range_meters":20400,"station_id":"ce4bhbp2rcd13ifvqesg","pricing_plan_id":"cebpf4jnsgd1na2vs0mg"},{"bike_id":"f1810f30-de1d-43db-99e3-9ac794fc962f","system_id":"levelo_inurba_marseille","lat":43.32478,"lon":5.3656,"is_reserved":false,"is_disabled":false,"rental_uris":{"android":"levelo://app?vid=f1810f30-de1d-43db-99e3-9ac794fc962f","ios":"levelo://app?vid=f1810f30-de1d-43db-99e3-9ac794fc962f"},"vehicle_type_id":"4","last_reported":1714774018,"current_range_meters":0,"station_id":"ce4bhs12rcd13ifvqhvg","pricing_plan_id":"cebpf4jnsgd1na2vs0mg"},{"bike_id":"dff9f089-e9ad-49de-be1b-ef405955dfcc","system_id":"levelo_inurba_marseille","lat":43.32478,"lon":5.36556,"is_reserved":false,"is_disabled":false,"rental_uris":{"android":"levelo://app?vid=dff9f089-e9ad-49de-be1b-ef405955dfcc","ios":"levelo://app?vid=dff9f089-e9ad-49de-be1b-ef405955dfcc"},"vehicle_type_id":"4","last_reported":1714774018,"current_range_meters":7600,"station_id":"ce4bhs12rcd13ifvqhvg","pricing_plan_id":"cebpf4jnsgd1na2vs0mg"},{"bike_id":"0fdc7add-ba2e-4869-8c0c-d31af864f4d3","system_id":"levelo_inurba_marseille","lat":43.324771,"lon":5.36557,"is_reserved":false,"is_disabled":false,"rental_uris":{"android":"levelo://app?vid=0fdc7add-ba2e-4869-8c0c-d31af864f4d3","ios":"levelo://app?vid=0fdc7add-ba2e-4869-8c0c-d31af864f4d3"},"vehicle_type_id":"4","last_reported":1714774018,"current_range_meters":21600,"station_id":"ce4bhs12rcd13ifvqhvg","pricing_plan_id":"cebpf4jnsgd1na2vs0mg"},{"bike_id":"46ddee76-99a1-44b8-8282-c8d365225419","system_id":"levelo_inurba_marseille","lat":43.32484,"lon":5.36565,"is_reserved":false,"is_disabled":false,"rental_uris":{"android":"levelo://app?vid=46ddee76-99a1-44b8-8282-c8d365225419","ios":"levelo://app?vid=46ddee76-99a1-44b8-8282-c8d365225419"},"vehicle_type_id":"4","last_reported":1714774018,"current_range_meters":3200,"station_id":"ce4bhs12rcd13ifvqhvg","pricing_plan_id":"cebpf4jnsgd1na2vs0mg"},{"bike_id":"4ecf1310-b05d-4109-8ee3-de0bb58656b7","system_id":"levelo_inurba_marseille","lat":43.32484,"lon":5.36565,"is_reserved":false,"is_disabled":false,"rental_uris":{"android":"levelo://app?vid=4ecf1310-b05d-4109-8ee3-de0bb58656b7","ios":"levelo://app?vid=4ecf1310-b05d-4109-8ee3-de0bb58656b7"},"vehicle_type_id":"4","last_reported":1714774018,"current_range_meters":8800,"station_id":"ce4bhs12rcd13ifvqhvg","pricing_plan_id":"cebpf4jnsgd1na2vs0mg"},{"bike_id":"ae2a2cb3-b925-4c94-87d6-cedaefaea00b","system_id":"levelo_inurba_marseille","lat":43.324771,"lon":5.36557,"is_reserved":false,"is_disabled":false,"rental_uris":{"android":"levelo://app?vid=ae2a2cb3-b925-4c94-87d6-cedaefaea00b","ios":"levelo://app?vid=ae2a2cb3-b925-4c94-87d6-cedaefaea00b"},"vehicle_type_id":"4","last_reported":1714774018,"current_range_meters":26000,"station_id":"ce4bhs12rcd13ifvqhvg","pricing_plan_id":"cebpf4jnsgd1na2vs0mg"},{"bike_id":"c9f81f15-290b-43d3-ac09-210ea497e19c","system_id":"levelo_inurba_marseille","lat":43.324771,"lon":5.36557,"is_reserved":false,"is_disabled":false,"rental_uris":{"android":"levelo://app?vid=c9f81f15-290b-43d3-ac09-210ea497e19c","ios":"levelo://app?vid=c9f81f15-290b-43d3-ac09-210ea497e19c"},"vehicle_type_id":"4","last_reported":1714774018,"current_range_meters":13200,"station_id":"ce4bhs12rcd13ifvqhvg","pricing_plan_id":"cebpf4jnsgd1na2vs0mg"},{"bike_id":"e0baa39e-cffd-4823-bd93-a1ffe73b5a4c","system_id":"levelo_inurba_marseille","lat":43.32487,"lon":5.36553,"is_reserved":false,"is_disabled":false,"rental_uris":{"android":"levelo://app?vid=e0baa39e-cffd-4823-bd93-a1ffe73b5a4c","ios":"levelo://app?vid=e0baa39e-cffd-4823-bd93-a1ffe73b5a4c"},"vehicle_type_id":"4","last_reported":1714774018,"current_range_meters":0,"station_id":"ce4bhs12rcd13ifvqhvg","pricing_plan_id":"cebpf4jnsgd1na2vs0mg"},{"bike_id":"b0823445-1a25-4002-b6ce-d5585de184f7","system_id":"levelo_inurba_marseille","lat":43.324771,"lon":5.36557,"is_reserved":false,"is_disabled":false,"rental_uris":{"android":"levelo://app?vid=b0823445-1a25-4002-b6ce-d5585de184f7","ios":"levelo://app?vid=b0823445-1a25-4002-b6ce-d5585de184f7"},"vehicle_type_id":"4","last_reported":1714774018,"current_range_meters":12800,"station_id":"ce4bhs12rcd13ifvqhvg","pricing_plan_id":"cebpf4jnsgd1na2vs0mg"},{"bike_id":"256c823b-b7bb-46dd-a050-7771d5cf3f00","system_id":"levelo_inurba_marseille","lat":43.302784,"lon":5.377158,"is_reserved":false,"is_disabled":false,"rental_uris":{"android":"levelo://app?vid=256c823b-b7bb-46dd-a050-7771d5cf3f00","ios":"levelo://app?vid=256c823b-b7bb-46dd-a050-7771d5cf3f00"},"vehicle_type_id":"4","last_reported":1714774018,"current_range_meters":23200,"station_id":"ce4bguh2rcd13ifvqcj0","pricing_plan_id":"cebpf4jnsgd1na2vs0mg"},{"bike_id":"e8abf879-fab1-433a-9910-13fd46a76e73","system_id":"levelo_inurba_marseille","lat":43.310804,"lon":5.38359,"is_reserved":false,"is_disabled":false,"rental_uris":{"android":"levelo://app?vid=e8abf879-fab1-433a-9910-13fd46a76e73","ios":"levelo://app?vid=e8abf879-fab1-433a-9910-13fd46a76e73"},"vehicle_type_id":"4","last_reported":1714774018,"current_range_meters":2400,"station_id":"ce4bgv92rcd13ifvqcr0","pricing_plan_id":"cebpf4jnsgd1na2vs0mg"},{"bike_id":"57ac3197-d7e6-4e3b-854e-1dd01b51e4d3","system_id":"levelo_inurba_marseille","lat":43.302784,"lon":5.377158,"is_reserved":false,"is_disabled":false,"rental_uris":{"android":"levelo://app?vid=57ac3197-d7e6-4e3b-854e-1dd01b51e4d3","ios":"levelo://app?vid=57ac3197-d7e6-4e3b-854e-1dd01b51e4d3"},"vehicle_type_id":"4","last_reported":1714774018,"current_range_meters":28000,"station_id":"ce4bguh2rcd13ifvqcj0","pricing_plan_id":"cebpf4jnsgd1na2vs0mg"},{"bike_id":"4bd725df-d867-4fbd-9803-6d9b367d2dc1","system_id":"levelo_inurba_marseille","lat":43.302784,"lon":5.377158,"is_reserved":false,"is_disabled":false,"rental_uris":{"android":"levelo://app?vid=4bd725df-d867-4fbd-9803-6d9b367d2dc1","ios":"levelo://app?vid=4bd725df-d867-4fbd-9803-6d9b367d2dc1"},"vehicle_type_id":"4","last_reported":1714774018,"current_range_meters":20400,"station_id":"ce4bguh2rcd13ifvqcj0","pricing_plan_id":"cebpf4jnsgd1na2vs0mg"},{"bike_id":"666f777e-6deb-423d-9df9-302495ad7a41","system_id":"levelo_inurba_marseille","lat":43.30143,"lon":5.37413,"is_reserved":false,"is_disabled":false,"rental_uris":{"android":"levelo://app?vid=666f777e-6deb-423d-9df9-302495ad7a41","ios":"levelo://app?vid=666f777e-6deb-423d-9df9-302495ad7a41"},"vehicle_type_id":"4","last_reported":1714774018,"current_range_meters":2400,"station_id":"ce4bgs92rcd13ifvqcc0","pricing_plan_id":"cebpf4jnsgd1na2vs0mg"},{"bike_id":"6fd06229-356a-4d04-9ce9-287d1231fd1d","system_id":"levelo_inurba_marseille","lat":43.302784,"lon":5.377158,"is_reserved":false,"is_disabled":false,"rental_uris":{"android":"levelo://app?vid=6fd06229-356a-4d04-9ce9-287d1231fd1d","ios":"levelo://app?vid=6fd06229-356a-4d04-9ce9-287d1231fd1d"},"vehicle_type_id":"4","last_reported":1714774018,"current_range_meters":17200,"station_id":"ce4bguh2rcd13ifvqcj0","pricing_plan_id":"cebpf4jnsgd1na2vs0mg"},{"bike_id":"4421eb03-1f6b-4efb-bf0b-4c2f1e9274d1","system_id":"levelo_inurba_marseille","lat":43.302784,"lon":5.377158,"is_reserved":false,"is_disabled":false,"rental_uris":{"android":"levelo://app?vid=4421eb03-1f6b-4efb-bf0b-4c2f1e9274d1","ios":"levelo://app?vid=4421eb03-1f6b-4efb-bf0b-4c2f1e9274d1"},"vehicle_type_id":"4","last_reported":1714774018,"current_range_meters":4800,"station_id":"ce4bguh2rcd13ifvqcj0","pricing_plan_id":"cebpf4jnsgd1na2vs0mg"},{"bike_id":"f821cae5-8336-40b5-9be5-4c154d507450","system_id":"levelo_inurba_marseille","lat":43.302784,"lon":5.377158,"is_reserved":false,"is_disabled":false,"rental_uris":{"android":"levelo://app?vid=f821cae5-8336-40b5-9be5-4c154d507450","ios":"levelo://app?vid=f821cae5-8336-40b5-9be5-4c154d507450"},"vehicle_type_id":"4","last_reported":1714774018,"current_range_meters":10400,"station_id":"ce4bguh2rcd13ifvqcj0","pricing_plan_id":"cebpf4jnsgd1na2vs0mg"},{"bike_id":"bc4eb17e-a53c-498e-bc73-99f588939a2d","system_id":"levelo_inurba_marseille","lat":43.30142,"lon":5.3742,"is_reserved":false,"is_disabled":false,"rental_uris":{"android":"levelo://app?vid=bc4eb17e-a53c-498e-bc73-99f588939a2d","ios":"levelo://app?vid=bc4eb17e-a53c-498e-bc73-99f588939a2d"},"vehicle_type_id":"4","last_reported":1714774018,"current_range_meters":4400,"station_id":"ce4bgs92rcd13ifvqcc0","pricing_plan_id":"cebpf4jnsgd1na2vs0mg"},{"bike_id":"bfb5273c-9031-48eb-a2b7-34acd4c02283","system_id":"levelo_inurba_marseille","lat":43.301429,"lon":5.37413,"is_reserved":false,"is_disabled":false,"rental_uris":{"android":"levelo://app?vid=bfb5273c-9031-48eb-a2b7-34acd4c02283","ios":"levelo://app?vid=bfb5273c-9031-48eb-a2b7-34acd4c02283"},"vehicle_type_id":"4","last_reported":1714774018,"current_range_meters":0,"station_id":"ce4bgs92rcd13ifvqcc0","pricing_plan_id":"cebpf4jnsgd1na2vs0mg"},{"bike_id":"acfb76e9-30d6-482f-bd91-d4a0f67944df","system_id":"levelo_inurba_marseille","lat":43.301429,"lon":5.37413,"is_reserved":false,"is_disabled":false,"rental_uris":{"android":"levelo://app?vid=acfb76e9-30d6-482f-bd91-d4a0f67944df","ios":"levelo://app?vid=acfb76e9-30d6-482f-bd91-d4a0f67944df"},"vehicle_type_id":"4","last_reported":1714774018,"current_range_meters":31200,"station_id":"ce4bgs92rcd13ifvqcc0","pricing_plan_id":"cebpf4jnsgd1na2vs0mg"},{"bike_id":"0d08a466-6e9f-49b7-8f58-29ada7342f71","system_id":"levelo_inurba_marseille","lat":43.31997,"lon":5.38147,"is_reserved":false,"is_disabled":false,"rental_uris":{"android":"levelo://app?vid=0d08a466-6e9f-49b7-8f58-29ada7342f71","ios":"levelo://app?vid=0d08a466-6e9f-49b7-8f58-29ada7342f71"},"vehicle_type_id":"4","last_reported":1714774018,"current_range_meters":8000,"station_id":"ce4bhr12rcd13ifvqhpg","pricing_plan_id":"cebpf4jnsgd1na2vs0mg"},{"bike_id":"b6bfd86b-3faa-445d-b153-91b257debdaf","system_id":"levelo_inurba_marseille","lat":43.313571,"lon":5.384829,"is_reserved":false,"is_disabled":false,"rental_uris":{"android":"levelo://app?vid=b6bfd86b-3faa-445d-b153-91b257debdaf","ios":"levelo://app?vid=b6bfd86b-3faa-445d-b153-91b257debdaf"},"vehicle_type_id":"4","last_reported":1714774018,"current_range_meters":12000,"station_id":"ce4bgt92rcd13ifvqcf0","pricing_plan_id":"cebpf4jnsgd1na2vs0mg"},{"bike_id":"887eb9a7-1ffd-4f1a-a44a-691280294353","system_id":"levelo_inurba_marseille","lat":43.313571,"lon":5.384829,"is_reserved":false,"is_disabled":false,"rental_uris":{"android":"levelo://app?vid=887eb9a7-1ffd-4f1a-a44a-691280294353","ios":"levelo://app?vid=887eb9a7-1ffd-4f1a-a44a-691280294353"},"vehicle_type_id":"4","last_reported":1714774018,"current_range_meters":0,"station_id":"ce4bgt92rcd13ifvqcf0","pricing_plan_id":"cebpf4jnsgd1na2vs0mg"},{"bike_id":"9c142007-55dd-464e-b265-b76e3dc8b378","system_id":"levelo_inurba_marseille","lat":43.30143,"lon":5.37413,"is_reserved":false,"is_disabled":false,"rental_uris":{"android":"levelo://app?vid=9c142007-55dd-464e-b265-b76e3dc8b378","ios":"levelo://app?vid=9c142007-55dd-464e-b265-b76e3dc8b378"},"vehicle_type_id":"4","last_reported":1714774018,"current_range_meters":15200,"station_id":"ce4bgs92rcd13ifvqcc0","pricing_plan_id":"cebpf4jnsgd1na2vs0mg"},{"bike_id":"3449befa-619d-4cba-ba62-688b91480228","system_id":"levelo_inurba_marseille","lat":43.299724,"lon":5.371829,"is_reserved":false,"is_disabled":false,"rental_uris":{"android":"levelo://app?vid=3449befa-619d-4cba-ba62-688b91480228","ios":"levelo://app?vid=3449befa-619d-4cba-ba62-688b91480228"},"vehicle_type_id":"4","last_reported":1714774018,"current_range_meters":18000,"station_id":"ce4bgr92rcd13ifvqc7g","pricing_plan_id":"cebpf4jnsgd1na2vs0mg"},{"bike_id":"51820e21-6aaf-4968-a553-e2fe0996a5c6","system_id":"levelo_inurba_marseille","lat":43.299724,"lon":5.371829,"is_reserved":false,"is_disabled":false,"rental_uris":{"android":"levelo://app?vid=51820e21-6aaf-4968-a553-e2fe0996a5c6","ios":"levelo://app?vid=51820e21-6aaf-4968-a553-e2fe0996a5c6"},"vehicle_type_id":"4","last_reported":1714774018,"current_range_meters":14000,"station_id":"ce4bgr92rcd13ifvqc7g","pricing_plan_id":"cebpf4jnsgd1na2vs0mg"},{"bike_id":"59d6220e-8db2-4ef3-b04b-c03d12af0089","system_id":"levelo_inurba_marseille","lat":43.299724,"lon":5.371829,"is_reserved":false,"is_disabled":false,"rental_uris":{"android":"levelo://app?vid=59d6220e-8db2-4ef3-b04b-c03d12af0089","ios":"levelo://app?vid=59d6220e-8db2-4ef3-b04b-c03d12af0089"},"vehicle_type_id":"4","last_reported":1714774018,"current_range_meters":22800,"station_id":"ce4bgr92rcd13ifvqc7g","pricing_plan_id":"cebpf4jnsgd1na2vs0mg"},{"bike_id":"c50d0ef3-2c6b-4ad8-983c-1f3d49d5bc6d","system_id":"levelo_inurba_marseille","lat":43.299724,"lon":5.371829,"is_reserved":false,"is_disabled":false,"rental_uris":{"android":"levelo://app?vid=c50d0ef3-2c6b-4ad8-983c-1f3d49d5bc6d","ios":"levelo://app?vid=c50d0ef3-2c6b-4ad8-983c-1f3d49d5bc6d"},"vehicle_type_id":"4","last_reported":1714774018,"current_range_meters":30400,"station_id":"ce4bgr92rcd13ifvqc7g","pricing_plan_id":"cebpf4jnsgd1na2vs0mg"},{"bike_id":"1b45a14a-a789-4a8c-9d99-063d14e88a2b","system_id":"levelo_inurba_marseille","lat":43.298433,"lon":5.362774,"is_reserved":false,"is_disabled":false,"rental_uris":{"android":"levelo://app?vid=1b45a14a-a789-4a8c-9d99-063d14e88a2b","ios":"levelo://app?vid=1b45a14a-a789-4a8c-9d99-063d14e88a2b"},"vehicle_type_id":"4","last_reported":1714774018,"current_range_meters":2000,"station_id":"ce4bgpp2rcd13ifvqc3g","pricing_plan_id":"cebpf4jnsgd1na2vs0mg"},{"bike_id":"dc2d3a4f-8e5d-4420-8162-33ae06b66bd6","system_id":"levelo_inurba_marseille","lat":43.305364,"lon":5.384119,"is_reserved":false,"is_disabled":false,"rental_uris":{"android":"levelo://app?vid=dc2d3a4f-8e5d-4420-8162-33ae06b66bd6","ios":"levelo://app?vid=dc2d3a4f-8e5d-4420-8162-33ae06b66bd6"},"vehicle_type_id":"4","last_reported":1714774018,"current_range_meters":31200,"station_id":"ce4bgg92rcd13ifvqb30","pricing_plan_id":"cebpf4jnsgd1na2vs0mg"},{"bike_id":"d0cf08c3-507e-436d-b7a6-19abb7316949","system_id":"levelo_inurba_marseille","lat":43.29847,"lon":5.36278,"is_reserved":false,"is_disabled":false,"rental_uris":{"android":"levelo://app?vid=d0cf08c3-507e-436d-b7a6-19abb7316949","ios":"levelo://app?vid=d0cf08c3-507e-436d-b7a6-19abb7316949"},"vehicle_type_id":"4","last_reported":1714774018,"current_range_meters":18000,"station_id":"ce4bgpp2rcd13ifvqc3g","pricing_plan_id":"cebpf4jnsgd1na2vs0mg"},{"bike_id":"a5b7ff84-5ab2-42f1-af0b-3aa2dabd8da6","system_id":"levelo_inurba_marseille","lat":43.305364,"lon":5.384119,"is_reserved":false,"is_disabled":false,"rental_uris":{"android":"levelo://app?vid=a5b7ff84-5ab2-42f1-af0b-3aa2dabd8da6","ios":"levelo://app?vid=a5b7ff84-5ab2-42f1-af0b-3aa2dabd8da6"},"vehicle_type_id":"4","last_reported":1714774018,"current_range_meters":24400,"station_id":"ce4bgg92rcd13ifvqb30","pricing_plan_id":"cebpf4jnsgd1na2vs0mg"},{"bike_id":"2483d83f-4ec2-485c-8577-090d52f4fe40","system_id":"levelo_inurba_marseille","lat":43.305364,"lon":5.384119,"is_reserved":false,"is_disabled":false,"rental_uris":{"android":"levelo://app?vid=2483d83f-4ec2-485c-8577-090d52f4fe40","ios":"levelo://app?vid=2483d83f-4ec2-485c-8577-090d52f4fe40"},"vehicle_type_id":"4","last_reported":1714774018,"current_range_meters":26800,"station_id":"ce4bgg92rcd13ifvqb30","pricing_plan_id":"cebpf4jnsgd1na2vs0mg"},{"bike_id":"723ab91d-b6d3-43be-8524-74ec8622a35f","system_id":"levelo_inurba_marseille","lat":43.311722,"lon":5.387247,"is_reserved":false,"is_disabled":false,"rental_uris":{"android":"levelo://app?vid=723ab91d-b6d3-43be-8524-74ec8622a35f","ios":"levelo://app?vid=723ab91d-b6d3-43be-8524-74ec8622a35f"},"vehicle_type_id":"4","last_reported":1714774018,"current_range_meters":20800,"station_id":"ce4bgv12rcd13ifvqcp0","pricing_plan_id":"cebpf4jnsgd1na2vs0mg"},{"bike_id":"361b70f6-8661-40f5-a3e5-3741d98aa3f8","system_id":"levelo_inurba_marseille","lat":43.299243,"lon":5.374807,"is_reserved":false,"is_disabled":false,"rental_uris":{"android":"levelo://app?vid=361b70f6-8661-40f5-a3e5-3741d98aa3f8","ios":"levelo://app?vid=361b70f6-8661-40f5-a3e5-3741d98aa3f8"},"vehicle_type_id":"4","last_reported":1714774018,"current_range_meters":4800,"station_id":"ce4bgjh2rcd13ifvqbg0","pricing_plan_id":"cebpf4jnsgd1na2vs0mg"},{"bike_id":"555a5a61-e1ce-4845-a284-6d354e09f249","system_id":"levelo_inurba_marseille","lat":43.311722,"lon":5.387247,"is_reserved":false,"is_disabled":false,"rental_uris":{"android":"levelo://app?vid=555a5a61-e1ce-4845-a284-6d354e09f249","ios":"levelo://app?vid=555a5a61-e1ce-4845-a284-6d354e09f249"},"vehicle_type_id":"4","last_reported":1714774018,"current_range_meters":23200,"station_id":"ce4bgv12rcd13ifvqcp0","pricing_plan_id":"cebpf4jnsgd1na2vs0mg"},{"bike_id":"b62405c6-ccb2-4b09-8783-f8b744bceec9","system_id":"levelo_inurba_marseille","lat":43.311722,"lon":5.387247,"is_reserved":false,"is_disabled":false,"rental_uris":{"android":"levelo://app?vid=b62405c6-ccb2-4b09-8783-f8b744bceec9","ios":"levelo://app?vid=b62405c6-ccb2-4b09-8783-f8b744bceec9"},"vehicle_type_id":"4","last_reported":1714774018,"current_range_meters":26800,"station_id":"ce4bgv12rcd13ifvqcp0","pricing_plan_id":"cebpf4jnsgd1na2vs0mg"},{"bike_id":"8ed3db0c-c058-4196-9277-091fba2785ab","system_id":"levelo_inurba_marseille","lat":43.311722,"lon":5.387247,"is_reserved":false,"is_disabled":false,"rental_uris":{"android":"levelo://app?vid=8ed3db0c-c058-4196-9277-091fba2785ab","ios":"levelo://app?vid=8ed3db0c-c058-4196-9277-091fba2785ab"},"vehicle_type_id":"4","last_reported":1714774018,"current_range_meters":10800,"station_id":"ce4bgv12rcd13ifvqcp0","pricing_plan_id":"cebpf4jnsgd1na2vs0mg"},{"bike_id":"f9337986-4cf2-47c1-be3a-cfb17bae1a4f","system_id":"levelo_inurba_marseille","lat":43.311722,"lon":5.387247,"is_reserved":false,"is_disabled":false,"rental_uris":{"android":"levelo://app?vid=f9337986-4cf2-47c1-be3a-cfb17bae1a4f","ios":"levelo://app?vid=f9337986-4cf2-47c1-be3a-cfb17bae1a4f"},"vehicle_type_id":"4","last_reported":1714774018,"current_range_meters":25200,"station_id":"ce4bgv12rcd13ifvqcp0","pricing_plan_id":"cebpf4jnsgd1na2vs0mg"},{"bike_id":"bf4acb4c-d38a-427d-940e-57842c74ee30","system_id":"levelo_inurba_marseille","lat":43.311722,"lon":5.387247,"is_reserved":false,"is_disabled":false,"rental_uris":{"android":"levelo://app?vid=bf4acb4c-d38a-427d-940e-57842c74ee30","ios":"levelo://app?vid=bf4acb4c-d38a-427d-940e-57842c74ee30"},"vehicle_type_id":"4","last_reported":1714774018,"current_range_meters":5600,"station_id":"ce4bgv12rcd13ifvqcp0","pricing_plan_id":"cebpf4jnsgd1na2vs0mg"},{"bike_id":"eb421157-6de9-47f7-b2a5-5ae88ce632f3","system_id":"levelo_inurba_marseille","lat":43.311722,"lon":5.387247,"is_reserved":false,"is_disabled":false,"rental_uris":{"android":"levelo://app?vid=eb421157-6de9-47f7-b2a5-5ae88ce632f3","ios":"levelo://app?vid=eb421157-6de9-47f7-b2a5-5ae88ce632f3"},"vehicle_type_id":"4","last_reported":1714774018,"current_range_meters":27200,"station_id":"ce4bgv12rcd13ifvqcp0","pricing_plan_id":"cebpf4jnsgd1na2vs0mg"},{"bike_id":"ba4d4fc8-0eef-480a-a664-759486ad6179","system_id":"levelo_inurba_marseille","lat":43.311722,"lon":5.387247,"is_reserved":false,"is_disabled":false,"rental_uris":{"android":"levelo://app?vid=ba4d4fc8-0eef-480a-a664-759486ad6179","ios":"levelo://app?vid=ba4d4fc8-0eef-480a-a664-759486ad6179"},"vehicle_type_id":"4","last_reported":1714774018,"current_range_meters":4800,"station_id":"ce4bgv12rcd13ifvqcp0","pricing_plan_id":"cebpf4jnsgd1na2vs0mg"},{"bike_id":"7f6d6379-d6a8-4247-a627-f53182167b24","system_id":"levelo_inurba_marseille","lat":43.311722,"lon":5.387247,"is_reserved":false,"is_disabled":false,"rental_uris":{"android":"levelo://app?vid=7f6d6379-d6a8-4247-a627-f53182167b24","ios":"levelo://app?vid=7f6d6379-d6a8-4247-a627-f53182167b24"},"vehicle_type_id":"4","last_reported":1714774018,"current_range_meters":5600,"station_id":"ce4bgv12rcd13ifvqcp0","pricing_plan_id":"cebpf4jnsgd1na2vs0mg"},{"bike_id":"37ec529b-209a-4ee2-9135-cec3258dd8a0","system_id":"levelo_inurba_marseille","lat":43.311722,"lon":5.387247,"is_reserved":false,"is_disabled":false,"rental_uris":{"android":"levelo://app?vid=37ec529b-209a-4ee2-9135-cec3258dd8a0","ios":"levelo://app?vid=37ec529b-209a-4ee2-9135-cec3258dd8a0"},"vehicle_type_id":"4","last_reported":1714774018,"current_range_meters":20800,"station_id":"ce4bgv12rcd13ifvqcp0","pricing_plan_id":"cebpf4jnsgd1na2vs0mg"},{"bike_id":"982d5251-bf6a-4a9c-bebb-13273f6b98a1","system_id":"levelo_inurba_marseille","lat":43.31179,"lon":5.38715,"is_reserved":false,"is_disabled":false,"rental_uris":{"android":"levelo://app?vid=982d5251-bf6a-4a9c-bebb-13273f6b98a1","ios":"levelo://app?vid=982d5251-bf6a-4a9c-bebb-13273f6b98a1"},"vehicle_type_id":"4","last_reported":1714774018,"current_range_meters":0,"station_id":"ce4bgv12rcd13ifvqcp0","pricing_plan_id":"cebpf4jnsgd1na2vs0mg"},{"bike_id":"77aaeb51-e4ab-4731-845b-a5d9b3fa3250","system_id":"levelo_inurba_marseille","lat":43.311722,"lon":5.387247,"is_reserved":false,"is_disabled":false,"rental_uris":{"android":"levelo://app?vid=77aaeb51-e4ab-4731-845b-a5d9b3fa3250","ios":"levelo://app?vid=77aaeb51-e4ab-4731-845b-a5d9b3fa3250"},"vehicle_type_id":"4","last_reported":1714774018,"current_range_meters":25600,"station_id":"ce4bgv12rcd13ifvqcp0","pricing_plan_id":"cebpf4jnsgd1na2vs0mg"},{"bike_id":"6d9ebd2f-77bc-435c-8759-475831492500","system_id":"levelo_inurba_marseille","lat":43.311722,"lon":5.387247,"is_reserved":false,"is_disabled":false,"rental_uris":{"android":"levelo://app?vid=6d9ebd2f-77bc-435c-8759-475831492500","ios":"levelo://app?vid=6d9ebd2f-77bc-435c-8759-475831492500"},"vehicle_type_id":"4","last_reported":1714774018,"current_range_meters":31200,"station_id":"ce4bgv12rcd13ifvqcp0","pricing_plan_id":"cebpf4jnsgd1na2vs0mg"},{"bike_id":"a1c8dcb4-18aa-420d-b0de-dc9af6fe06c1","system_id":"levelo_inurba_marseille","lat":43.311722,"lon":5.387247,"is_reserved":false,"is_disabled":false,"rental_uris":{"android":"levelo://app?vid=a1c8dcb4-18aa-420d-b0de-dc9af6fe06c1","ios":"levelo://app?vid=a1c8dcb4-18aa-420d-b0de-dc9af6fe06c1"},"vehicle_type_id":"4","last_reported":1714774018,"current_range_meters":31200,"station_id":"ce4bgv12rcd13ifvqcp0","pricing_plan_id":"cebpf4jnsgd1na2vs0mg"},{"bike_id":"3d4d792b-8cdf-4380-8ce0-4952c066a680","system_id":"levelo_inurba_marseille","lat":43.31164,"lon":5.38718,"is_reserved":false,"is_disabled":false,"rental_uris":{"android":"levelo://app?vid=3d4d792b-8cdf-4380-8ce0-4952c066a680","ios":"levelo://app?vid=3d4d792b-8cdf-4380-8ce0-4952c066a680"},"vehicle_type_id":"4","last_reported":1714774018,"current_range_meters":11600,"station_id":"ce4bgv12rcd13ifvqcp0","pricing_plan_id":"cebpf4jnsgd1na2vs0mg"},{"bike_id":"e33984e7-6666-4381-a2aa-de9816751723","system_id":"levelo_inurba_marseille","lat":43.299243,"lon":5.37481,"is_reserved":false,"is_disabled":false,"rental_uris":{"android":"levelo://app?vid=e33984e7-6666-4381-a2aa-de9816751723","ios":"levelo://app?vid=e33984e7-6666-4381-a2aa-de9816751723"},"vehicle_type_id":"4","last_reported":1714774018,"current_range_meters":0,"station_id":"ce4bgjh2rcd13ifvqbg0","pricing_plan_id":"cebpf4jnsgd1na2vs0mg"},{"bike_id":"96ba951d-82c5-4b0e-9914-409ccfe675fe","system_id":"levelo_inurba_marseille","lat":43.311722,"lon":5.387247,"is_reserved":false,"is_disabled":false,"rental_uris":{"android":"levelo://app?vid=96ba951d-82c5-4b0e-9914-409ccfe675fe","ios":"levelo://app?vid=96ba951d-82c5-4b0e-9914-409ccfe675fe"},"vehicle_type_id":"4","last_reported":1714774018,"current_range_meters":24400,"station_id":"ce4bgv12rcd13ifvqcp0","pricing_plan_id":"cebpf4jnsgd1na2vs0mg"},{"bike_id":"67a77d0a-ffff-4bde-9839-a5c73f026ffb","system_id":"levelo_inurba_marseille","lat":43.29807,"lon":5.36338,"is_reserved":false,"is_disabled":false,"rental_uris":{"android":"levelo://app?vid=67a77d0a-ffff-4bde-9839-a5c73f026ffb","ios":"levelo://app?vid=67a77d0a-ffff-4bde-9839-a5c73f026ffb"},"vehicle_type_id":"4","last_reported":1714774018,"current_range_meters":0,"station_id":"","pricing_plan_id":"cebpf4jnsgd1na2vs0mg"},{"bike_id":"419a2b5c-4238-4e2c-8bf0-24105af66f38","system_id":"levelo_inurba_marseille","lat":43.322872,"lon":5.382756,"is_reserved":false,"is_disabled":false,"rental_uris":{"android":"levelo://app?vid=419a2b5c-4238-4e2c-8bf0-24105af66f38","ios":"levelo://app?vid=419a2b5c-4238-4e2c-8bf0-24105af66f38"},"vehicle_type_id":"4","last_reported":1714774018,"current_range_meters":7600,"station_id":"ce4bhr12rcd13ifvqhqg","pricing_plan_id":"cebpf4jnsgd1na2vs0mg"},{"bike_id":"69fde129-74e3-4f3c-a0f7-dac086e4a3ae","system_id":"levelo_inurba_marseille","lat":43.322872,"lon":5.382756,"is_reserved":false,"is_disabled":false,"rental_uris":{"android":"levelo://app?vid=69fde129-74e3-4f3c-a0f7-dac086e4a3ae","ios":"levelo://app?vid=69fde129-74e3-4f3c-a0f7-dac086e4a3ae"},"vehicle_type_id":"4","last_reported":1714774018,"current_range_meters":12800,"station_id":"ce4bhr12rcd13ifvqhqg","pricing_plan_id":"cebpf4jnsgd1na2vs0mg"},{"bike_id":"14eddade-44a2-4c4b-8f32-fc2a6ba4aa96","system_id":"levelo_inurba_marseille","lat":43.32286,"lon":5.38268,"is_reserved":false,"is_disabled":false,"rental_uris":{"android":"levelo://app?vid=14eddade-44a2-4c4b-8f32-fc2a6ba4aa96","ios":"levelo://app?vid=14eddade-44a2-4c4b-8f32-fc2a6ba4aa96"},"vehicle_type_id":"4","last_reported":1714774018,"current_range_meters":2400,"station_id":"ce4bhr12rcd13ifvqhqg","pricing_plan_id":"cebpf4jnsgd1na2vs0mg"},{"bike_id":"ee5d5f57-aa9f-4035-ad0b-fffa8eb347a1","system_id":"levelo_inurba_marseille","lat":43.322872,"lon":5.382756,"is_reserved":false,"is_disabled":false,"rental_uris":{"android":"levelo://app?vid=ee5d5f57-aa9f-4035-ad0b-fffa8eb347a1","ios":"levelo://app?vid=ee5d5f57-aa9f-4035-ad0b-fffa8eb347a1"},"vehicle_type_id":"4","last_reported":1714774018,"current_range_meters":29600,"station_id":"ce4bhr12rcd13ifvqhqg","pricing_plan_id":"cebpf4jnsgd1na2vs0mg"},{"bike_id":"20e0b06a-25d4-4137-9fd3-d07bb00f838c","system_id":"levelo_inurba_marseille","lat":43.322872,"lon":5.382756,"is_reserved":false,"is_disabled":false,"rental_uris":{"android":"levelo://app?vid=20e0b06a-25d4-4137-9fd3-d07bb00f838c","ios":"levelo://app?vid=20e0b06a-25d4-4137-9fd3-d07bb00f838c"},"vehicle_type_id":"4","last_reported":1714774018,"current_range_meters":30000,"station_id":"ce4bhr12rcd13ifvqhqg","pricing_plan_id":"cebpf4jnsgd1na2vs0mg"},{"bike_id":"24bfce79-49c0-4d56-bbb7-b05564436c1b","system_id":"levelo_inurba_marseille","lat":43.322872,"lon":5.382756,"is_reserved":false,"is_disabled":false,"rental_uris":{"android":"levelo://app?vid=24bfce79-49c0-4d56-bbb7-b05564436c1b","ios":"levelo://app?vid=24bfce79-49c0-4d56-bbb7-b05564436c1b"},"vehicle_type_id":"4","last_reported":1714774018,"current_range_meters":24800,"station_id":"ce4bhr12rcd13ifvqhqg","pricing_plan_id":"cebpf4jnsgd1na2vs0mg"},{"bike_id":"bf05c7e9-e88e-4c69-88f7-f629dd1b5787","system_id":"levelo_inurba_marseille","lat":43.322872,"lon":5.382756,"is_reserved":false,"is_disabled":false,"rental_uris":{"android":"levelo://app?vid=bf05c7e9-e88e-4c69-88f7-f629dd1b5787","ios":"levelo://app?vid=bf05c7e9-e88e-4c69-88f7-f629dd1b5787"},"vehicle_type_id":"4","last_reported":1714774018,"current_range_meters":0,"station_id":"ce4bhr12rcd13ifvqhqg","pricing_plan_id":"cebpf4jnsgd1na2vs0mg"},{"bike_id":"d15c365d-48f4-41ec-8a15-8c93a9cf008b","system_id":"levelo_inurba_marseille","lat":43.322872,"lon":5.382756,"is_reserved":false,"is_disabled":false,"rental_uris":{"android":"levelo://app?vid=d15c365d-48f4-41ec-8a15-8c93a9cf008b","ios":"levelo://app?vid=d15c365d-48f4-41ec-8a15-8c93a9cf008b"},"vehicle_type_id":"4","last_reported":1714774018,"current_range_meters":29200,"station_id":"ce4bhr12rcd13ifvqhqg","pricing_plan_id":"cebpf4jnsgd1na2vs0mg"},{"bike_id":"4ee0ab39-dc17-4565-a2f0-8aaae4e31d2a","system_id":"levelo_inurba_marseille","lat":43.296131,"lon":5.370773,"is_reserved":false,"is_disabled":false,"rental_uris":{"android":"levelo://app?vid=4ee0ab39-dc17-4565-a2f0-8aaae4e31d2a","ios":"levelo://app?vid=4ee0ab39-dc17-4565-a2f0-8aaae4e31d2a"},"vehicle_type_id":"4","last_reported":1714774018,"current_range_meters":4000,"station_id":"ce4bgnh2rcd13ifvqc0g","pricing_plan_id":"cebpf4jnsgd1na2vs0mg"},{"bike_id":"20d99301-0dfe-4fa2-a8b1-05297836445f","system_id":"levelo_inurba_marseille","lat":43.337168,"lon":5.391825,"is_reserved":false,"is_disabled":false,"rental_uris":{"android":"levelo://app?vid=20d99301-0dfe-4fa2-a8b1-05297836445f","ios":"levelo://app?vid=20d99301-0dfe-4fa2-a8b1-05297836445f"},"vehicle_type_id":"4","last_reported":1714774018,"current_range_meters":28400,"station_id":"ce4bhr92rcd13ifvqhsg","pricing_plan_id":"cebpf4jnsgd1na2vs0mg"},{"bike_id":"45bf115d-e908-4dd8-8b6b-d1bb0c07c369","system_id":"levelo_inurba_marseille","lat":43.296129,"lon":5.370777,"is_reserved":false,"is_disabled":false,"rental_uris":{"android":"levelo://app?vid=45bf115d-e908-4dd8-8b6b-d1bb0c07c369","ios":"levelo://app?vid=45bf115d-e908-4dd8-8b6b-d1bb0c07c369"},"vehicle_type_id":"4","last_reported":1714774018,"current_range_meters":21600,"station_id":"ce4bgnh2rcd13ifvqc0g","pricing_plan_id":"cebpf4jnsgd1na2vs0mg"},{"bike_id":"561bc95b-49b0-4a42-b386-44925f62e6ff","system_id":"levelo_inurba_marseille","lat":43.299028,"lon":5.381509,"is_reserved":false,"is_disabled":false,"rental_uris":{"android":"levelo://app?vid=561bc95b-49b0-4a42-b386-44925f62e6ff","ios":"levelo://app?vid=561bc95b-49b0-4a42-b386-44925f62e6ff"},"vehicle_type_id":"4","last_reported":1714774018,"current_range_meters":5200,"station_id":"ce4bgj12rcd13ifvqbc0","pricing_plan_id":"cebpf4jnsgd1na2vs0mg"},{"bike_id":"8a503fec-35d7-472f-8a82-c8f1bb4dde26","system_id":"levelo_inurba_marseille","lat":43.299028,"lon":5.381509,"is_reserved":false,"is_disabled":false,"rental_uris":{"android":"levelo://app?vid=8a503fec-35d7-472f-8a82-c8f1bb4dde26","ios":"levelo://app?vid=8a503fec-35d7-472f-8a82-c8f1bb4dde26"},"vehicle_type_id":"4","last_reported":1714774018,"current_range_meters":1200,"station_id":"ce4bgj12rcd13ifvqbc0","pricing_plan_id":"cebpf4jnsgd1na2vs0mg"},{"bike_id":"b1eeafc1-314d-4f64-b9c0-747b8ef2136c","system_id":"levelo_inurba_marseille","lat":43.299028,"lon":5.381509,"is_reserved":false,"is_disabled":false,"rental_uris":{"android":"levelo://app?vid=b1eeafc1-314d-4f64-b9c0-747b8ef2136c","ios":"levelo://app?vid=b1eeafc1-314d-4f64-b9c0-747b8ef2136c"},"vehicle_type_id":"4","last_reported":1714774018,"current_range_meters":16800,"station_id":"ce4bgj12rcd13ifvqbc0","pricing_plan_id":"cebpf4jnsgd1na2vs0mg"},{"bike_id":"f27cbc90-2c48-4f1a-935f-d8e862417fbb","system_id":"levelo_inurba_marseille","lat":43.299028,"lon":5.381509,"is_reserved":false,"is_disabled":false,"rental_uris":{"android":"levelo://app?vid=f27cbc90-2c48-4f1a-935f-d8e862417fbb","ios":"levelo://app?vid=f27cbc90-2c48-4f1a-935f-d8e862417fbb"},"vehicle_type_id":"4","last_reported":1714774018,"current_range_meters":400,"station_id":"ce4bgj12rcd13ifvqbc0","pricing_plan_id":"cebpf4jnsgd1na2vs0mg"},{"bike_id":"966c3a13-80a2-4265-be17-eafd266a791d","system_id":"levelo_inurba_marseille","lat":43.299028,"lon":5.381509,"is_reserved":false,"is_disabled":false,"rental_uris":{"android":"levelo://app?vid=966c3a13-80a2-4265-be17-eafd266a791d","ios":"levelo://app?vid=966c3a13-80a2-4265-be17-eafd266a791d"},"vehicle_type_id":"4","last_reported":1714774018,"current_range_meters":19200,"station_id":"ce4bgj12rcd13ifvqbc0","pricing_plan_id":"cebpf4jnsgd1na2vs0mg"},{"bike_id":"dfa4cf12-dfce-41ed-bfc7-3dc1fc79a521","system_id":"levelo_inurba_marseille","lat":43.299028,"lon":5.381509,"is_reserved":false,"is_disabled":false,"rental_uris":{"android":"levelo://app?vid=dfa4cf12-dfce-41ed-bfc7-3dc1fc79a521","ios":"levelo://app?vid=dfa4cf12-dfce-41ed-bfc7-3dc1fc79a521"},"vehicle_type_id":"4","last_reported":1714774018,"current_range_meters":6000,"station_id":"ce4bgj12rcd13ifvqbc0","pricing_plan_id":"cebpf4jnsgd1na2vs0mg"},{"bike_id":"4fc7412a-6baa-4e66-b127-0922cc7d0213","system_id":"levelo_inurba_marseille","lat":43.299028,"lon":5.381509,"is_reserved":false,"is_disabled":false,"rental_uris":{"android":"levelo://app?vid=4fc7412a-6baa-4e66-b127-0922cc7d0213","ios":"levelo://app?vid=4fc7412a-6baa-4e66-b127-0922cc7d0213"},"vehicle_type_id":"4","last_reported":1714774018,"current_range_meters":25200,"station_id":"ce4bgj12rcd13ifvqbc0","pricing_plan_id":"cebpf4jnsgd1na2vs0mg"},{"bike_id":"f63f85f1-b481-45b7-904c-b5dc0cd26a33","system_id":"levelo_inurba_marseille","lat":43.309589,"lon":5.390258,"is_reserved":false,"is_disabled":false,"rental_uris":{"android":"levelo://app?vid=f63f85f1-b481-45b7-904c-b5dc0cd26a33","ios":"levelo://app?vid=f63f85f1-b481-45b7-904c-b5dc0cd26a33"},"vehicle_type_id":"4","last_reported":1714774018,"current_range_meters":21600,"station_id":"ce4bgup2rcd13ifvqco0","pricing_plan_id":"cebpf4jnsgd1na2vs0mg"},{"bike_id":"5037ecba-f260-41f1-a68e-ccd0373520dc","system_id":"levelo_inurba_marseille","lat":43.309589,"lon":5.390258,"is_reserved":false,"is_disabled":false,"rental_uris":{"android":"levelo://app?vid=5037ecba-f260-41f1-a68e-ccd0373520dc","ios":"levelo://app?vid=5037ecba-f260-41f1-a68e-ccd0373520dc"},"vehicle_type_id":"4","last_reported":1714774018,"current_range_meters":0,"station_id":"ce4bgup2rcd13ifvqco0","pricing_plan_id":"cebpf4jnsgd1na2vs0mg"},{"bike_id":"275037ca-b9e7-4498-858f-649730157fbd","system_id":"levelo_inurba_marseille","lat":43.309589,"lon":5.390258,"is_reserved":false,"is_disabled":false,"rental_uris":{"android":"levelo://app?vid=275037ca-b9e7-4498-858f-649730157fbd","ios":"levelo://app?vid=275037ca-b9e7-4498-858f-649730157fbd"},"vehicle_type_id":"4","last_reported":1714774018,"current_range_meters":31200,"station_id":"ce4bgup2rcd13ifvqco0","pricing_plan_id":"cebpf4jnsgd1na2vs0mg"},{"bike_id":"e90da5c5-551a-40e0-ad5d-21790f5ea408","system_id":"levelo_inurba_marseille","lat":43.299028,"lon":5.381509,"is_reserved":false,"is_disabled":false,"rental_uris":{"android":"levelo://app?vid=e90da5c5-551a-40e0-ad5d-21790f5ea408","ios":"levelo://app?vid=e90da5c5-551a-40e0-ad5d-21790f5ea408"},"vehicle_type_id":"4","last_reported":1714774018,"current_range_meters":11600,"station_id":"ce4bgj12rcd13ifvqbc0","pricing_plan_id":"cebpf4jnsgd1na2vs0mg"},{"bike_id":"c28caed4-5cba-44e5-b0da-16222e7b4786","system_id":"levelo_inurba_marseille","lat":43.296921,"lon":5.376579,"is_reserved":false,"is_disabled":false,"rental_uris":{"android":"levelo://app?vid=c28caed4-5cba-44e5-b0da-16222e7b4786","ios":"levelo://app?vid=c28caed4-5cba-44e5-b0da-16222e7b4786"},"vehicle_type_id":"4","last_reported":1714774018,"current_range_meters":800,"station_id":"ce4bgkh2rcd13ifvqbl0","pricing_plan_id":"cebpf4jnsgd1na2vs0mg"},{"bike_id":"8342e0a4-f969-42e3-bab6-635654b6e385","system_id":"levelo_inurba_marseille","lat":43.317557,"lon":5.390173,"is_reserved":false,"is_disabled":false,"rental_uris":{"android":"levelo://app?vid=8342e0a4-f969-42e3-bab6-635654b6e385","ios":"levelo://app?vid=8342e0a4-f969-42e3-bab6-635654b6e385"},"vehicle_type_id":"4","last_reported":1714774018,"current_range_meters":19200,"station_id":"ce4bhqp2rcd13ifvqhng","pricing_plan_id":"cebpf4jnsgd1na2vs0mg"},{"bike_id":"faf594fe-6442-4e3d-8bf9-52889a83cc0f","system_id":"levelo_inurba_marseille","lat":43.317557,"lon":5.390173,"is_reserved":false,"is_disabled":false,"rental_uris":{"android":"levelo://app?vid=faf594fe-6442-4e3d-8bf9-52889a83cc0f","ios":"levelo://app?vid=faf594fe-6442-4e3d-8bf9-52889a83cc0f"},"vehicle_type_id":"4","last_reported":1714774018,"current_range_meters":28800,"station_id":"ce4bhqp2rcd13ifvqhng","pricing_plan_id":"cebpf4jnsgd1na2vs0mg"},{"bike_id":"c32ee75c-98ad-4424-af67-c22fe3ed9a30","system_id":"levelo_inurba_marseille","lat":43.317557,"lon":5.390173,"is_reserved":false,"is_disabled":false,"rental_uris":{"android":"levelo://app?vid=c32ee75c-98ad-4424-af67-c22fe3ed9a30","ios":"levelo://app?vid=c32ee75c-98ad-4424-af67-c22fe3ed9a30"},"vehicle_type_id":"4","last_reported":1714774018,"current_range_meters":6400,"station_id":"ce4bhqp2rcd13ifvqhng","pricing_plan_id":"cebpf4jnsgd1na2vs0mg"},{"bike_id":"165cfbcc-b269-4f37-8842-fda900dbaa6e","system_id":"levelo_inurba_marseille","lat":43.317557,"lon":5.390173,"is_reserved":false,"is_disabled":false,"rental_uris":{"android":"levelo://app?vid=165cfbcc-b269-4f37-8842-fda900dbaa6e","ios":"levelo://app?vid=165cfbcc-b269-4f37-8842-fda900dbaa6e"},"vehicle_type_id":"4","last_reported":1714774018,"current_range_meters":19600,"station_id":"ce4bhqp2rcd13ifvqhng","pricing_plan_id":"cebpf4jnsgd1na2vs0mg"},{"bike_id":"3f8869ab-9ec3-47e0-b114-b27821d34dc5","system_id":"levelo_inurba_marseille","lat":43.31759,"lon":5.39017,"is_reserved":false,"is_disabled":false,"rental_uris":{"android":"levelo://app?vid=3f8869ab-9ec3-47e0-b114-b27821d34dc5","ios":"levelo://app?vid=3f8869ab-9ec3-47e0-b114-b27821d34dc5"},"vehicle_type_id":"4","last_reported":1714774018,"current_range_meters":2800,"station_id":"ce4bhqp2rcd13ifvqhng","pricing_plan_id":"cebpf4jnsgd1na2vs0mg"},{"bike_id":"ce69f143-0cb3-4e36-995e-37d60055d325","system_id":"levelo_inurba_marseille","lat":43.317557,"lon":5.390173,"is_reserved":false,"is_disabled":false,"rental_uris":{"android":"levelo://app?vid=ce69f143-0cb3-4e36-995e-37d60055d325","ios":"levelo://app?vid=ce69f143-0cb3-4e36-995e-37d60055d325"},"vehicle_type_id":"4","last_reported":1714774018,"current_range_meters":13200,"station_id":"ce4bhqp2rcd13ifvqhng","pricing_plan_id":"cebpf4jnsgd1na2vs0mg"},{"bike_id":"ed35472a-5121-4a33-a108-610704d40653","system_id":"levelo_inurba_marseille","lat":43.317557,"lon":5.390173,"is_reserved":false,"is_disabled":false,"rental_uris":{"android":"levelo://app?vid=ed35472a-5121-4a33-a108-610704d40653","ios":"levelo://app?vid=ed35472a-5121-4a33-a108-610704d40653"},"vehicle_type_id":"4","last_reported":1714774018,"current_range_meters":0,"station_id":"ce4bhqp2rcd13ifvqhng","pricing_plan_id":"cebpf4jnsgd1na2vs0mg"},{"bike_id":"951189b6-0f1a-4204-b7d6-62e2ae9d51e0","system_id":"levelo_inurba_marseille","lat":43.298037,"lon":5.381066,"is_reserved":false,"is_disabled":false,"rental_uris":{"android":"levelo://app?vid=951189b6-0f1a-4204-b7d6-62e2ae9d51e0","ios":"levelo://app?vid=951189b6-0f1a-4204-b7d6-62e2ae9d51e0"},"vehicle_type_id":"4","last_reported":1714774018,"current_range_meters":9200,"station_id":"ce4bgip2rcd13ifvqbb0","pricing_plan_id":"cebpf4jnsgd1na2vs0mg"},{"bike_id":"2c4c6e3e-2cc6-44b5-be81-4cd461b32220","system_id":"levelo_inurba_marseille","lat":43.298037,"lon":5.381066,"is_reserved":false,"is_disabled":false,"rental_uris":{"android":"levelo://app?vid=2c4c6e3e-2cc6-44b5-be81-4cd461b32220","ios":"levelo://app?vid=2c4c6e3e-2cc6-44b5-be81-4cd461b32220"},"vehicle_type_id":"4","last_reported":1714774018,"current_range_meters":12000,"station_id":"ce4bgip2rcd13ifvqbb0","pricing_plan_id":"cebpf4jnsgd1na2vs0mg"},{"bike_id":"1666142f-efce-4257-8a27-925280cf3657","system_id":"levelo_inurba_marseille","lat":43.298037,"lon":5.381066,"is_reserved":false,"is_disabled":false,"rental_uris":{"android":"levelo://app?vid=1666142f-efce-4257-8a27-925280cf3657","ios":"levelo://app?vid=1666142f-efce-4257-8a27-925280cf3657"},"vehicle_type_id":"4","last_reported":1714774018,"current_range_meters":13600,"station_id":"ce4bgip2rcd13ifvqbb0","pricing_plan_id":"cebpf4jnsgd1na2vs0mg"},{"bike_id":"5259daaa-555d-46eb-8d0e-3a50342e6251","system_id":"levelo_inurba_marseille","lat":43.298037,"lon":5.381066,"is_reserved":false,"is_disabled":false,"rental_uris":{"android":"levelo://app?vid=5259daaa-555d-46eb-8d0e-3a50342e6251","ios":"levelo://app?vid=5259daaa-555d-46eb-8d0e-3a50342e6251"},"vehicle_type_id":"4","last_reported":1714774018,"current_range_meters":31200,"station_id":"ce4bgip2rcd13ifvqbb0","pricing_plan_id":"cebpf4jnsgd1na2vs0mg"},{"bike_id":"7fc58230-8ec3-4827-9bbf-28115e196007","system_id":"levelo_inurba_marseille","lat":43.297884,"lon":5.380812,"is_reserved":false,"is_disabled":false,"rental_uris":{"android":"levelo://app?vid=7fc58230-8ec3-4827-9bbf-28115e196007","ios":"levelo://app?vid=7fc58230-8ec3-4827-9bbf-28115e196007"},"vehicle_type_id":"4","last_reported":1714774018,"current_range_meters":31200,"station_id":"ce4bgip2rcd13ifvqbb0","pricing_plan_id":"cebpf4jnsgd1na2vs0mg"},{"bike_id":"ac45ecd7-de09-42d7-b0ba-5fe9097edff7","system_id":"levelo_inurba_marseille","lat":43.298037,"lon":5.381066,"is_reserved":false,"is_disabled":false,"rental_uris":{"android":"levelo://app?vid=ac45ecd7-de09-42d7-b0ba-5fe9097edff7","ios":"levelo://app?vid=ac45ecd7-de09-42d7-b0ba-5fe9097edff7"},"vehicle_type_id":"4","last_reported":1714774018,"current_range_meters":16800,"station_id":"ce4bgip2rcd13ifvqbb0","pricing_plan_id":"cebpf4jnsgd1na2vs0mg"},{"bike_id":"bd82ef70-f15b-4792-a466-fad7942a7cbe","system_id":"levelo_inurba_marseille","lat":43.29773,"lon":5.38066,"is_reserved":false,"is_disabled":false,"rental_uris":{"android":"levelo://app?vid=bd82ef70-f15b-4792-a466-fad7942a7cbe","ios":"levelo://app?vid=bd82ef70-f15b-4792-a466-fad7942a7cbe"},"vehicle_type_id":"4","last_reported":1714774018,"current_range_meters":15200,"station_id":"ce4bgip2rcd13ifvqbb0","pricing_plan_id":"cebpf4jnsgd1na2vs0mg"},{"bike_id":"fd7dc234-9362-47c7-904b-dc6675a3cfc8","system_id":"levelo_inurba_marseille","lat":43.297887,"lon":5.381094,"is_reserved":false,"is_disabled":false,"rental_uris":{"android":"levelo://app?vid=fd7dc234-9362-47c7-904b-dc6675a3cfc8","ios":"levelo://app?vid=fd7dc234-9362-47c7-904b-dc6675a3cfc8"},"vehicle_type_id":"4","last_reported":1714774018,"current_range_meters":20800,"station_id":"ce4bgip2rcd13ifvqbb0","pricing_plan_id":"cebpf4jnsgd1na2vs0mg"},{"bike_id":"0069441b-e430-48ba-9a27-f95343e520ed","system_id":"levelo_inurba_marseille","lat":43.29788,"lon":5.38109,"is_reserved":false,"is_disabled":false,"rental_uris":{"android":"levelo://app?vid=0069441b-e430-48ba-9a27-f95343e520ed","ios":"levelo://app?vid=0069441b-e430-48ba-9a27-f95343e520ed"},"vehicle_type_id":"4","last_reported":1714774018,"current_range_meters":31200,"station_id":"ce4bgip2rcd13ifvqbb0","pricing_plan_id":"cebpf4jnsgd1na2vs0mg"},{"bike_id":"d9663889-855b-4f0c-a0de-b3fa32897cdb","system_id":"levelo_inurba_marseille","lat":43.304278,"lon":5.388868,"is_reserved":false,"is_disabled":false,"rental_uris":{"android":"levelo://app?vid=d9663889-855b-4f0c-a0de-b3fa32897cdb","ios":"levelo://app?vid=d9663889-855b-4f0c-a0de-b3fa32897cdb"},"vehicle_type_id":"4","last_reported":1714774018,"current_range_meters":6000,"station_id":"ce4bgk12rcd13ifvqbi0","pricing_plan_id":"cebpf4jnsgd1na2vs0mg"},{"bike_id":"3d1dba52-1f8d-4657-b07a-84ad583002af","system_id":"levelo_inurba_marseille","lat":43.30433,"lon":5.38895,"is_reserved":false,"is_disabled":false,"rental_uris":{"android":"levelo://app?vid=3d1dba52-1f8d-4657-b07a-84ad583002af","ios":"levelo://app?vid=3d1dba52-1f8d-4657-b07a-84ad583002af"},"vehicle_type_id":"4","last_reported":1714774018,"current_range_meters":20400,"station_id":"ce4bgk12rcd13ifvqbi0","pricing_plan_id":"cebpf4jnsgd1na2vs0mg"},{"bike_id":"1cbcdd0f-efc8-4900-a6af-7f06c5ca2a2d","system_id":"levelo_inurba_marseille","lat":43.304278,"lon":5.388868,"is_reserved":false,"is_disabled":false,"rental_uris":{"android":"levelo://app?vid=1cbcdd0f-efc8-4900-a6af-7f06c5ca2a2d","ios":"levelo://app?vid=1cbcdd0f-efc8-4900-a6af-7f06c5ca2a2d"},"vehicle_type_id":"4","last_reported":1714774018,"current_range_meters":7200,"station_id":"ce4bgk12rcd13ifvqbi0","pricing_plan_id":"cebpf4jnsgd1na2vs0mg"},{"bike_id":"b95509ab-b3c4-4aa8-b61b-c502a62ed776","system_id":"levelo_inurba_marseille","lat":43.296263,"lon":5.377094,"is_reserved":false,"is_disabled":false,"rental_uris":{"android":"levelo://app?vid=b95509ab-b3c4-4aa8-b61b-c502a62ed776","ios":"levelo://app?vid=b95509ab-b3c4-4aa8-b61b-c502a62ed776"},"vehicle_type_id":"4","last_reported":1714774018,"current_range_meters":3200,"station_id":"ce4bgi92rcd13ifvqb90","pricing_plan_id":"cebpf4jnsgd1na2vs0mg"},{"bike_id":"600d0051-2ac0-404d-b96c-9b8d0812b407","system_id":"levelo_inurba_marseille","lat":43.304278,"lon":5.388868,"is_reserved":false,"is_disabled":false,"rental_uris":{"android":"levelo://app?vid=600d0051-2ac0-404d-b96c-9b8d0812b407","ios":"levelo://app?vid=600d0051-2ac0-404d-b96c-9b8d0812b407"},"vehicle_type_id":"4","last_reported":1714774018,"current_range_meters":27600,"station_id":"ce4bgk12rcd13ifvqbi0","pricing_plan_id":"cebpf4jnsgd1na2vs0mg"},{"bike_id":"56de596a-376a-415f-902e-64d735046b72","system_id":"levelo_inurba_marseille","lat":43.296263,"lon":5.377094,"is_reserved":false,"is_disabled":false,"rental_uris":{"android":"levelo://app?vid=56de596a-376a-415f-902e-64d735046b72","ios":"levelo://app?vid=56de596a-376a-415f-902e-64d735046b72"},"vehicle_type_id":"4","last_reported":1714774018,"current_range_meters":17600,"station_id":"ce4bgi92rcd13ifvqb90","pricing_plan_id":"cebpf4jnsgd1na2vs0mg"},{"bike_id":"d2506bfd-5ef0-42e5-bd07-4965d17f1689","system_id":"levelo_inurba_marseille","lat":43.296263,"lon":5.377094,"is_reserved":false,"is_disabled":false,"rental_uris":{"android":"levelo://app?vid=d2506bfd-5ef0-42e5-bd07-4965d17f1689","ios":"levelo://app?vid=d2506bfd-5ef0-42e5-bd07-4965d17f1689"},"vehicle_type_id":"4","last_reported":1714774018,"current_range_meters":0,"station_id":"ce4bgi92rcd13ifvqb90","pricing_plan_id":"cebpf4jnsgd1na2vs0mg"},{"bike_id":"9d8c5811-38f7-45c3-83b9-fde46415794c","system_id":"levelo_inurba_marseille","lat":43.29973,"lon":5.3848,"is_reserved":false,"is_disabled":false,"rental_uris":{"android":"levelo://app?vid=9d8c5811-38f7-45c3-83b9-fde46415794c","ios":"levelo://app?vid=9d8c5811-38f7-45c3-83b9-fde46415794c"},"vehicle_type_id":"4","last_reported":1714774018,"current_range_meters":0,"station_id":"ce4bgj92rcd13ifvqbd0","pricing_plan_id":"cebpf4jnsgd1na2vs0mg"},{"bike_id":"0e361f5d-f499-48ee-a725-5b404fbec2bf","system_id":"levelo_inurba_marseille","lat":43.29512,"lon":5.37513,"is_reserved":false,"is_disabled":false,"rental_uris":{"android":"levelo://app?vid=0e361f5d-f499-48ee-a725-5b404fbec2bf","ios":"levelo://app?vid=0e361f5d-f499-48ee-a725-5b404fbec2bf"},"vehicle_type_id":"4","last_reported":1714774018,"current_range_meters":5200,"station_id":"ce4bgkp2rcd13ifvqbmg","pricing_plan_id":"cebpf4jnsgd1na2vs0mg"},{"bike_id":"83114130-60a3-4e7c-8c47-2ec4f65591df","system_id":"levelo_inurba_marseille","lat":43.32365,"lon":5.38875,"is_reserved":false,"is_disabled":false,"rental_uris":{"android":"levelo://app?vid=83114130-60a3-4e7c-8c47-2ec4f65591df","ios":"levelo://app?vid=83114130-60a3-4e7c-8c47-2ec4f65591df"},"vehicle_type_id":"4","last_reported":1714774018,"current_range_meters":0,"station_id":"ce4bhqp2rcd13ifvqhog","pricing_plan_id":"cebpf4jnsgd1na2vs0mg"},{"bike_id":"ac8668e1-e249-40ea-b0e6-d73636acbb50","system_id":"levelo_inurba_marseille","lat":43.32367,"lon":5.388836,"is_reserved":false,"is_disabled":false,"rental_uris":{"android":"levelo://app?vid=ac8668e1-e249-40ea-b0e6-d73636acbb50","ios":"levelo://app?vid=ac8668e1-e249-40ea-b0e6-d73636acbb50"},"vehicle_type_id":"4","last_reported":1714774018,"current_range_meters":0,"station_id":"ce4bhqp2rcd13ifvqhog","pricing_plan_id":"cebpf4jnsgd1na2vs0mg"},{"bike_id":"ec5399c7-4bcf-4957-ae0c-f370694eaab6","system_id":"levelo_inurba_marseille","lat":43.32362,"lon":5.38882,"is_reserved":false,"is_disabled":false,"rental_uris":{"android":"levelo://app?vid=ec5399c7-4bcf-4957-ae0c-f370694eaab6","ios":"levelo://app?vid=ec5399c7-4bcf-4957-ae0c-f370694eaab6"},"vehicle_type_id":"4","last_reported":1714774018,"current_range_meters":2400,"station_id":"ce4bhqp2rcd13ifvqhog","pricing_plan_id":"cebpf4jnsgd1na2vs0mg"},{"bike_id":"78141cd7-b778-4dab-b370-90618f44f9c5","system_id":"levelo_inurba_marseille","lat":43.32367,"lon":5.388836,"is_reserved":false,"is_disabled":false,"rental_uris":{"android":"levelo://app?vid=78141cd7-b778-4dab-b370-90618f44f9c5","ios":"levelo://app?vid=78141cd7-b778-4dab-b370-90618f44f9c5"},"vehicle_type_id":"4","last_reported":1714774018,"current_range_meters":0,"station_id":"ce4bhqp2rcd13ifvqhog","pricing_plan_id":"cebpf4jnsgd1na2vs0mg"},{"bike_id":"c7a9bec9-a9b9-4925-9cc2-f3f62ea602b7","system_id":"levelo_inurba_marseille","lat":43.32367,"lon":5.388836,"is_reserved":false,"is_disabled":false,"rental_uris":{"android":"levelo://app?vid=c7a9bec9-a9b9-4925-9cc2-f3f62ea602b7","ios":"levelo://app?vid=c7a9bec9-a9b9-4925-9cc2-f3f62ea602b7"},"vehicle_type_id":"4","last_reported":1714774018,"current_range_meters":2800,"station_id":"ce4bhqp2rcd13ifvqhog","pricing_plan_id":"cebpf4jnsgd1na2vs0mg"},{"bike_id":"48151189-ca5c-42a5-914a-1f363fba7703","system_id":"levelo_inurba_marseille","lat":43.32367,"lon":5.388836,"is_reserved":false,"is_disabled":false,"rental_uris":{"android":"levelo://app?vid=48151189-ca5c-42a5-914a-1f363fba7703","ios":"levelo://app?vid=48151189-ca5c-42a5-914a-1f363fba7703"},"vehicle_type_id":"4","last_reported":1714774018,"current_range_meters":16000,"station_id":"ce4bhqp2rcd13ifvqhog","pricing_plan_id":"cebpf4jnsgd1na2vs0mg"},{"bike_id":"cc6aa342-dee0-4fe4-b6b8-e3922a465e05","system_id":"levelo_inurba_marseille","lat":43.29602,"lon":5.381084,"is_reserved":false,"is_disabled":false,"rental_uris":{"android":"levelo://app?vid=cc6aa342-dee0-4fe4-b6b8-e3922a465e05","ios":"levelo://app?vid=cc6aa342-dee0-4fe4-b6b8-e3922a465e05"},"vehicle_type_id":"4","last_reported":1714774018,"current_range_meters":8400,"station_id":"ce4bgl12rcd13ifvqbo0","pricing_plan_id":"cebpf4jnsgd1na2vs0mg"},{"bike_id":"310dffa5-46db-441c-8d33-9bd2ff4f67a0","system_id":"levelo_inurba_marseille","lat":43.29601,"lon":5.381084,"is_reserved":false,"is_disabled":false,"rental_uris":{"android":"levelo://app?vid=310dffa5-46db-441c-8d33-9bd2ff4f67a0","ios":"levelo://app?vid=310dffa5-46db-441c-8d33-9bd2ff4f67a0"},"vehicle_type_id":"4","last_reported":1714774018,"current_range_meters":8400,"station_id":"ce4bgl12rcd13ifvqbo0","pricing_plan_id":"cebpf4jnsgd1na2vs0mg"},{"bike_id":"4923e8aa-529c-4b69-9a46-a0c32eb0535e","system_id":"levelo_inurba_marseille","lat":43.29602,"lon":5.381084,"is_reserved":false,"is_disabled":false,"rental_uris":{"android":"levelo://app?vid=4923e8aa-529c-4b69-9a46-a0c32eb0535e","ios":"levelo://app?vid=4923e8aa-529c-4b69-9a46-a0c32eb0535e"},"vehicle_type_id":"4","last_reported":1714774018,"current_range_meters":19200,"station_id":"ce4bgl12rcd13ifvqbo0","pricing_plan_id":"cebpf4jnsgd1na2vs0mg"},{"bike_id":"e0053895-d9cc-4d86-bb5c-6b31f9558a81","system_id":"levelo_inurba_marseille","lat":43.29594,"lon":5.38096,"is_reserved":false,"is_disabled":false,"rental_uris":{"android":"levelo://app?vid=e0053895-d9cc-4d86-bb5c-6b31f9558a81","ios":"levelo://app?vid=e0053895-d9cc-4d86-bb5c-6b31f9558a81"},"vehicle_type_id":"4","last_reported":1714774018,"current_range_meters":2800,"station_id":"ce4bgl12rcd13ifvqbo0","pricing_plan_id":"cebpf4jnsgd1na2vs0mg"},{"bike_id":"31b63daa-8468-4f9c-ab96-0552f4f18eb3","system_id":"levelo_inurba_marseille","lat":43.311722,"lon":5.387247,"is_reserved":false,"is_disabled":false,"rental_uris":{"android":"levelo://app?vid=31b63daa-8468-4f9c-ab96-0552f4f18eb3","ios":"levelo://app?vid=31b63daa-8468-4f9c-ab96-0552f4f18eb3"},"vehicle_type_id":"4","last_reported":1714774018,"current_range_meters":22800,"station_id":"ce4bgv12rcd13ifvqcp0","pricing_plan_id":"cebpf4jnsgd1na2vs0mg"},{"bike_id":"606a2261-42b7-4945-a278-f571ecfe0a47","system_id":"levelo_inurba_marseille","lat":43.293259,"lon":5.371586,"is_reserved":false,"is_disabled":false,"rental_uris":{"android":"levelo://app?vid=606a2261-42b7-4945-a278-f571ecfe0a47","ios":"levelo://app?vid=606a2261-42b7-4945-a278-f571ecfe0a47"},"vehicle_type_id":"4","last_reported":1714774018,"current_range_meters":13600,"station_id":"ce4bgh92rcd13ifvqb40","pricing_plan_id":"cebpf4jnsgd1na2vs0mg"},{"bike_id":"cb348d13-be9a-4fa4-886c-ca3a91895b37","system_id":"levelo_inurba_marseille","lat":43.293259,"lon":5.371586,"is_reserved":false,"is_disabled":false,"rental_uris":{"android":"levelo://app?vid=cb348d13-be9a-4fa4-886c-ca3a91895b37","ios":"levelo://app?vid=cb348d13-be9a-4fa4-886c-ca3a91895b37"},"vehicle_type_id":"4","last_reported":1714774018,"current_range_meters":0,"station_id":"ce4bgh92rcd13ifvqb40","pricing_plan_id":"cebpf4jnsgd1na2vs0mg"},{"bike_id":"660e3d3c-7da1-4a57-ac07-f7325f34c44d","system_id":"levelo_inurba_marseille","lat":43.293259,"lon":5.371586,"is_reserved":false,"is_disabled":false,"rental_uris":{"android":"levelo://app?vid=660e3d3c-7da1-4a57-ac07-f7325f34c44d","ios":"levelo://app?vid=660e3d3c-7da1-4a57-ac07-f7325f34c44d"},"vehicle_type_id":"4","last_reported":1714774018,"current_range_meters":17600,"station_id":"ce4bgh92rcd13ifvqb40","pricing_plan_id":"cebpf4jnsgd1na2vs0mg"},{"bike_id":"97e08b3e-28ae-41e1-86f0-59dee2cd7142","system_id":"levelo_inurba_marseille","lat":43.293259,"lon":5.371586,"is_reserved":false,"is_disabled":false,"rental_uris":{"android":"levelo://app?vid=97e08b3e-28ae-41e1-86f0-59dee2cd7142","ios":"levelo://app?vid=97e08b3e-28ae-41e1-86f0-59dee2cd7142"},"vehicle_type_id":"4","last_reported":1714774018,"current_range_meters":400,"station_id":"ce4bgh92rcd13ifvqb40","pricing_plan_id":"cebpf4jnsgd1na2vs0mg"},{"bike_id":"69cb49b4-00e4-4e4d-9846-5a421b4c030c","system_id":"levelo_inurba_marseille","lat":43.293259,"lon":5.371586,"is_reserved":false,"is_disabled":false,"rental_uris":{"android":"levelo://app?vid=69cb49b4-00e4-4e4d-9846-5a421b4c030c","ios":"levelo://app?vid=69cb49b4-00e4-4e4d-9846-5a421b4c030c"},"vehicle_type_id":"4","last_reported":1714774018,"current_range_meters":0,"station_id":"ce4bgh92rcd13ifvqb40","pricing_plan_id":"cebpf4jnsgd1na2vs0mg"},{"bike_id":"5088975e-b178-48c6-801f-4dd8aa4cdfdd","system_id":"levelo_inurba_marseille","lat":43.29305,"lon":5.37166,"is_reserved":false,"is_disabled":false,"rental_uris":{"android":"levelo://app?vid=5088975e-b178-48c6-801f-4dd8aa4cdfdd","ios":"levelo://app?vid=5088975e-b178-48c6-801f-4dd8aa4cdfdd"},"vehicle_type_id":"4","last_reported":1714774018,"current_range_meters":800,"station_id":"ce4bgh92rcd13ifvqb40","pricing_plan_id":"cebpf4jnsgd1na2vs0mg"},{"bike_id":"7e33e575-519c-4bfb-8f9a-d9153e4cb0ec","system_id":"levelo_inurba_marseille","lat":43.292749,"lon":5.368402,"is_reserved":false,"is_disabled":false,"rental_uris":{"android":"levelo://app?vid=7e33e575-519c-4bfb-8f9a-d9153e4cb0ec","ios":"levelo://app?vid=7e33e575-519c-4bfb-8f9a-d9153e4cb0ec"},"vehicle_type_id":"4","last_reported":1714774018,"current_range_meters":24000,"station_id":"ce4bhbp2rcd13ifvqesg","pricing_plan_id":"cebpf4jnsgd1na2vs0mg"},{"bike_id":"e88dd12d-f19a-45f0-a59d-d2b01261138f","system_id":"levelo_inurba_marseille","lat":43.293249,"lon":5.371578,"is_reserved":false,"is_disabled":false,"rental_uris":{"android":"levelo://app?vid=e88dd12d-f19a-45f0-a59d-d2b01261138f","ios":"levelo://app?vid=e88dd12d-f19a-45f0-a59d-d2b01261138f"},"vehicle_type_id":"4","last_reported":1714774018,"current_range_meters":14400,"station_id":"ce4bgh92rcd13ifvqb40","pricing_plan_id":"cebpf4jnsgd1na2vs0mg"},{"bike_id":"797f33ab-6816-4034-9cc0-137813fb7adf","system_id":"levelo_inurba_marseille","lat":43.293249,"lon":5.371578,"is_reserved":false,"is_disabled":false,"rental_uris":{"android":"levelo://app?vid=797f33ab-6816-4034-9cc0-137813fb7adf","ios":"levelo://app?vid=797f33ab-6816-4034-9cc0-137813fb7adf"},"vehicle_type_id":"4","last_reported":1714774018,"current_range_meters":17600,"station_id":"ce4bgh92rcd13ifvqb40","pricing_plan_id":"cebpf4jnsgd1na2vs0mg"},{"bike_id":"25566470-5e53-4c6d-b2ac-6f9b2eac6522","system_id":"levelo_inurba_marseille","lat":43.293259,"lon":5.371586,"is_reserved":false,"is_disabled":false,"rental_uris":{"android":"levelo://app?vid=25566470-5e53-4c6d-b2ac-6f9b2eac6522","ios":"levelo://app?vid=25566470-5e53-4c6d-b2ac-6f9b2eac6522"},"vehicle_type_id":"4","last_reported":1714774018,"current_range_meters":15600,"station_id":"ce4bgh92rcd13ifvqb40","pricing_plan_id":"cebpf4jnsgd1na2vs0mg"},{"bike_id":"fa790f02-a787-4497-a037-9a83ae5d2cd7","system_id":"levelo_inurba_marseille","lat":43.293259,"lon":5.371586,"is_reserved":false,"is_disabled":false,"rental_uris":{"android":"levelo://app?vid=fa790f02-a787-4497-a037-9a83ae5d2cd7","ios":"levelo://app?vid=fa790f02-a787-4497-a037-9a83ae5d2cd7"},"vehicle_type_id":"4","last_reported":1714774018,"current_range_meters":21600,"station_id":"ce4bgh92rcd13ifvqb40","pricing_plan_id":"cebpf4jnsgd1na2vs0mg"},{"bike_id":"3798cf92-c1a3-43af-a257-654f401eab6d","system_id":"levelo_inurba_marseille","lat":43.292749,"lon":5.368398,"is_reserved":false,"is_disabled":false,"rental_uris":{"android":"levelo://app?vid=3798cf92-c1a3-43af-a257-654f401eab6d","ios":"levelo://app?vid=3798cf92-c1a3-43af-a257-654f401eab6d"},"vehicle_type_id":"4","last_reported":1714774018,"current_range_meters":17600,"station_id":"ce4bhbp2rcd13ifvqesg","pricing_plan_id":"cebpf4jnsgd1na2vs0mg"},{"bike_id":"fdc72370-5d5a-42ac-8dcf-9e183228cfcf","system_id":"levelo_inurba_marseille","lat":43.292749,"lon":5.368402,"is_reserved":false,"is_disabled":false,"rental_uris":{"android":"levelo://app?vid=fdc72370-5d5a-42ac-8dcf-9e183228cfcf","ios":"levelo://app?vid=fdc72370-5d5a-42ac-8dcf-9e183228cfcf"},"vehicle_type_id":"4","last_reported":1714774018,"current_range_meters":30800,"station_id":"ce4bhbp2rcd13ifvqesg","pricing_plan_id":"cebpf4jnsgd1na2vs0mg"},{"bike_id":"a1fb853f-04f8-499d-8ec7-7a158a6fdd42","system_id":"levelo_inurba_marseille","lat":43.29302,"lon":5.37173,"is_reserved":false,"is_disabled":false,"rental_uris":{"android":"levelo://app?vid=a1fb853f-04f8-499d-8ec7-7a158a6fdd42","ios":"levelo://app?vid=a1fb853f-04f8-499d-8ec7-7a158a6fdd42"},"vehicle_type_id":"4","last_reported":1714774018,"current_range_meters":0,"station_id":"ce4bgh92rcd13ifvqb40","pricing_plan_id":"cebpf4jnsgd1na2vs0mg"},{"bike_id":"4d0b2878-e701-4e8c-8643-68cd9810e9fc","system_id":"levelo_inurba_marseille","lat":43.292749,"lon":5.368402,"is_reserved":false,"is_disabled":false,"rental_uris":{"android":"levelo://app?vid=4d0b2878-e701-4e8c-8643-68cd9810e9fc","ios":"levelo://app?vid=4d0b2878-e701-4e8c-8643-68cd9810e9fc"},"vehicle_type_id":"4","last_reported":1714774018,"current_range_meters":14400,"station_id":"ce4bhbp2rcd13ifvqesg","pricing_plan_id":"cebpf4jnsgd1na2vs0mg"},{"bike_id":"69aa5d1e-a279-4db5-a135-4a72155a99de","system_id":"levelo_inurba_marseille","lat":43.29301,"lon":5.37174,"is_reserved":false,"is_disabled":false,"rental_uris":{"android":"levelo://app?vid=69aa5d1e-a279-4db5-a135-4a72155a99de","ios":"levelo://app?vid=69aa5d1e-a279-4db5-a135-4a72155a99de"},"vehicle_type_id":"4","last_reported":1714774018,"current_range_meters":5600,"station_id":"ce4bgh92rcd13ifvqb40","pricing_plan_id":"cebpf4jnsgd1na2vs0mg"},{"bike_id":"12f2b0e7-d427-41c0-bc9d-c4da780bb370","system_id":"levelo_inurba_marseille","lat":43.293,"lon":5.37173,"is_reserved":false,"is_disabled":false,"rental_uris":{"android":"levelo://app?vid=12f2b0e7-d427-41c0-bc9d-c4da780bb370","ios":"levelo://app?vid=12f2b0e7-d427-41c0-bc9d-c4da780bb370"},"vehicle_type_id":"4","last_reported":1714774018,"current_range_meters":28000,"station_id":"ce4bgh92rcd13ifvqb40","pricing_plan_id":"cebpf4jnsgd1na2vs0mg"},{"bike_id":"fda48e49-eae9-4203-8d7a-e31285ee5b8f","system_id":"levelo_inurba_marseille","lat":43.292995,"lon":5.371715,"is_reserved":false,"is_disabled":false,"rental_uris":{"android":"levelo://app?vid=fda48e49-eae9-4203-8d7a-e31285ee5b8f","ios":"levelo://app?vid=fda48e49-eae9-4203-8d7a-e31285ee5b8f"},"vehicle_type_id":"4","last_reported":1714774018,"current_range_meters":4800,"station_id":"ce4bgh92rcd13ifvqb40","pricing_plan_id":"cebpf4jnsgd1na2vs0mg"},{"bike_id":"0707b84e-00af-4fbb-8228-f280cb261bc0","system_id":"levelo_inurba_marseille","lat":43.292749,"lon":5.368402,"is_reserved":false,"is_disabled":false,"rental_uris":{"android":"levelo://app?vid=0707b84e-00af-4fbb-8228-f280cb261bc0","ios":"levelo://app?vid=0707b84e-00af-4fbb-8228-f280cb261bc0"},"vehicle_type_id":"4","last_reported":1714774018,"current_range_meters":20400,"station_id":"ce4bhbp2rcd13ifvqesg","pricing_plan_id":"cebpf4jnsgd1na2vs0mg"},{"bike_id":"b928624d-1440-4ebc-acbd-2e9e3da1baeb","system_id":"levelo_inurba_marseille","lat":43.292749,"lon":5.368398,"is_reserved":false,"is_disabled":false,"rental_uris":{"android":"levelo://app?vid=b928624d-1440-4ebc-acbd-2e9e3da1baeb","ios":"levelo://app?vid=b928624d-1440-4ebc-acbd-2e9e3da1baeb"},"vehicle_type_id":"4","last_reported":1714774018,"current_range_meters":24000,"station_id":"ce4bhbp2rcd13ifvqesg","pricing_plan_id":"cebpf4jnsgd1na2vs0mg"},{"bike_id":"ca7c7619-f4f1-4bbc-8c1f-198ddf894fbe","system_id":"levelo_inurba_marseille","lat":43.29297,"lon":5.37173,"is_reserved":false,"is_disabled":false,"rental_uris":{"android":"levelo://app?vid=ca7c7619-f4f1-4bbc-8c1f-198ddf894fbe","ios":"levelo://app?vid=ca7c7619-f4f1-4bbc-8c1f-198ddf894fbe"},"vehicle_type_id":"4","last_reported":1714774018,"current_range_meters":28400,"station_id":"ce4bgh92rcd13ifvqb40","pricing_plan_id":"cebpf4jnsgd1na2vs0mg"},{"bike_id":"cf27026d-2d9c-4c45-97da-52823a7eb677","system_id":"levelo_inurba_marseille","lat":43.292749,"lon":5.368402,"is_reserved":false,"is_disabled":false,"rental_uris":{"android":"levelo://app?vid=cf27026d-2d9c-4c45-97da-52823a7eb677","ios":"levelo://app?vid=cf27026d-2d9c-4c45-97da-52823a7eb677"},"vehicle_type_id":"4","last_reported":1714774018,"current_range_meters":30800,"station_id":"ce4bhbp2rcd13ifvqesg","pricing_plan_id":"cebpf4jnsgd1na2vs0mg"},{"bike_id":"09f7cb5d-9edd-47d2-a04e-f1b90dc48fc4","system_id":"levelo_inurba_marseille","lat":43.292749,"lon":5.368402,"is_reserved":false,"is_disabled":false,"rental_uris":{"android":"levelo://app?vid=09f7cb5d-9edd-47d2-a04e-f1b90dc48fc4","ios":"levelo://app?vid=09f7cb5d-9edd-47d2-a04e-f1b90dc48fc4"},"vehicle_type_id":"4","last_reported":1714774018,"current_range_meters":29200,"station_id":"ce4bhbp2rcd13ifvqesg","pricing_plan_id":"cebpf4jnsgd1na2vs0mg"},{"bike_id":"14c19423-91ee-4cc0-bba0-cfead40d3efb","system_id":"levelo_inurba_marseille","lat":43.292749,"lon":5.368402,"is_reserved":false,"is_disabled":false,"rental_uris":{"android":"levelo://app?vid=14c19423-91ee-4cc0-bba0-cfead40d3efb","ios":"levelo://app?vid=14c19423-91ee-4cc0-bba0-cfead40d3efb"},"vehicle_type_id":"4","last_reported":1714774018,"current_range_meters":8000,"station_id":"ce4bhbp2rcd13ifvqesg","pricing_plan_id":"cebpf4jnsgd1na2vs0mg"},{"bike_id":"b3bb1d1d-ca6c-4c04-9a39-ba9d720066bb","system_id":"levelo_inurba_marseille","lat":43.292749,"lon":5.368402,"is_reserved":false,"is_disabled":false,"rental_uris":{"android":"levelo://app?vid=b3bb1d1d-ca6c-4c04-9a39-ba9d720066bb","ios":"levelo://app?vid=b3bb1d1d-ca6c-4c04-9a39-ba9d720066bb"},"vehicle_type_id":"4","last_reported":1714774018,"current_range_meters":400,"station_id":"ce4bhbp2rcd13ifvqesg","pricing_plan_id":"cebpf4jnsgd1na2vs0mg"},{"bike_id":"04026e39-f48f-4ebd-86fe-d6c90956ecb9","system_id":"levelo_inurba_marseille","lat":43.289184,"lon":5.366408,"is_reserved":false,"is_disabled":false,"rental_uris":{"android":"levelo://app?vid=04026e39-f48f-4ebd-86fe-d6c90956ecb9","ios":"levelo://app?vid=04026e39-f48f-4ebd-86fe-d6c90956ecb9"},"vehicle_type_id":"4","last_reported":1714774018,"current_range_meters":25600,"station_id":"ce4bhap2rcd13ifvqek0","pricing_plan_id":"cebpf4jnsgd1na2vs0mg"},{"bike_id":"c7b78ce2-658b-43d2-9b20-3acf204d1c41","system_id":"levelo_inurba_marseille","lat":43.30311,"lon":5.39191,"is_reserved":false,"is_disabled":false,"rental_uris":{"android":"levelo://app?vid=c7b78ce2-658b-43d2-9b20-3acf204d1c41","ios":"levelo://app?vid=c7b78ce2-658b-43d2-9b20-3acf204d1c41"},"vehicle_type_id":"4","last_reported":1714774018,"current_range_meters":0,"station_id":"ce4bgkh2rcd13ifvqbk0","pricing_plan_id":"cebpf4jnsgd1na2vs0mg"},{"bike_id":"44d1dc06-df7a-417f-93a3-25b0ce4fe310","system_id":"levelo_inurba_marseille","lat":43.302992,"lon":5.392136,"is_reserved":false,"is_disabled":false,"rental_uris":{"android":"levelo://app?vid=44d1dc06-df7a-417f-93a3-25b0ce4fe310","ios":"levelo://app?vid=44d1dc06-df7a-417f-93a3-25b0ce4fe310"},"vehicle_type_id":"4","last_reported":1714774018,"current_range_meters":0,"station_id":"ce4bgkh2rcd13ifvqbk0","pricing_plan_id":"cebpf4jnsgd1na2vs0mg"},{"bike_id":"95cbc8cb-85aa-4dcd-826b-813cc1f0dc39","system_id":"levelo_inurba_marseille","lat":43.298764,"lon":5.388973,"is_reserved":false,"is_disabled":false,"rental_uris":{"android":"levelo://app?vid=95cbc8cb-85aa-4dcd-826b-813cc1f0dc39","ios":"levelo://app?vid=95cbc8cb-85aa-4dcd-826b-813cc1f0dc39"},"vehicle_type_id":"4","last_reported":1714774018,"current_range_meters":18400,"station_id":"ce4bh392rcd13ifvqdl0","pricing_plan_id":"cebpf4jnsgd1na2vs0mg"},{"bike_id":"97d1ca0f-5513-49aa-b598-8f72950138a2","system_id":"levelo_inurba_marseille","lat":43.29275,"lon":5.37471,"is_reserved":false,"is_disabled":false,"rental_uris":{"android":"levelo://app?vid=97d1ca0f-5513-49aa-b598-8f72950138a2","ios":"levelo://app?vid=97d1ca0f-5513-49aa-b598-8f72950138a2"},"vehicle_type_id":"4","last_reported":1714774018,"current_range_meters":16800,"station_id":"ce4bgi12rcd13ifvqb70","pricing_plan_id":"cebpf4jnsgd1na2vs0mg"},{"bike_id":"5b719c67-8230-4164-b9fa-24c64eb18ad5","system_id":"levelo_inurba_marseille","lat":43.302992,"lon":5.392136,"is_reserved":false,"is_disabled":false,"rental_uris":{"android":"levelo://app?vid=5b719c67-8230-4164-b9fa-24c64eb18ad5","ios":"levelo://app?vid=5b719c67-8230-4164-b9fa-24c64eb18ad5"},"vehicle_type_id":"4","last_reported":1714774018,"current_range_meters":0,"station_id":"ce4bgkh2rcd13ifvqbk0","pricing_plan_id":"cebpf4jnsgd1na2vs0mg"},{"bike_id":"f4e60c4f-a974-4ddd-a692-ffcf0611f00a","system_id":"levelo_inurba_marseille","lat":43.296866,"lon":5.385543,"is_reserved":false,"is_disabled":false,"rental_uris":{"android":"levelo://app?vid=f4e60c4f-a974-4ddd-a692-ffcf0611f00a","ios":"levelo://app?vid=f4e60c4f-a974-4ddd-a692-ffcf0611f00a"},"vehicle_type_id":"4","last_reported":1714774018,"current_range_meters":7200,"station_id":"","pricing_plan_id":"cebpf4jnsgd1na2vs0mg"},{"bike_id":"9878c034-303b-41ee-b001-30d372946c63","system_id":"levelo_inurba_marseille","lat":43.30085,"lon":5.390856,"is_reserved":false,"is_disabled":false,"rental_uris":{"android":"levelo://app?vid=9878c034-303b-41ee-b001-30d372946c63","ios":"levelo://app?vid=9878c034-303b-41ee-b001-30d372946c63"},"vehicle_type_id":"4","last_reported":1714774018,"current_range_meters":4000,"station_id":"ce4bh192rcd13ifvqdb0","pricing_plan_id":"cebpf4jnsgd1na2vs0mg"},{"bike_id":"df5126ec-d1dd-4178-88c1-6d77a06b6da0","system_id":"levelo_inurba_marseille","lat":43.292311,"lon":5.360731,"is_reserved":false,"is_disabled":false,"rental_uris":{"android":"levelo://app?vid=df5126ec-d1dd-4178-88c1-6d77a06b6da0","ios":"levelo://app?vid=df5126ec-d1dd-4178-88c1-6d77a06b6da0"},"vehicle_type_id":"4","last_reported":1714774018,"current_range_meters":30000,"station_id":"ce4bhbh2rcd13ifvqeqg","pricing_plan_id":"cebpf4jnsgd1na2vs0mg"},{"bike_id":"3658ac57-c593-40e2-9456-9f57472755ac","system_id":"levelo_inurba_marseille","lat":43.29894,"lon":5.38899,"is_reserved":false,"is_disabled":false,"rental_uris":{"android":"levelo://app?vid=3658ac57-c593-40e2-9456-9f57472755ac","ios":"levelo://app?vid=3658ac57-c593-40e2-9456-9f57472755ac"},"vehicle_type_id":"4","last_reported":1714774018,"current_range_meters":15600,"station_id":"ce4bh392rcd13ifvqdl0","pricing_plan_id":"cebpf4jnsgd1na2vs0mg"},{"bike_id":"9dbdecfc-3e17-4d65-892c-1ff9c3444ae4","system_id":"levelo_inurba_marseille","lat":43.298764,"lon":5.388973,"is_reserved":false,"is_disabled":false,"rental_uris":{"android":"levelo://app?vid=9dbdecfc-3e17-4d65-892c-1ff9c3444ae4","ios":"levelo://app?vid=9dbdecfc-3e17-4d65-892c-1ff9c3444ae4"},"vehicle_type_id":"4","last_reported":1714774018,"current_range_meters":28400,"station_id":"ce4bh392rcd13ifvqdl0","pricing_plan_id":"cebpf4jnsgd1na2vs0mg"},{"bike_id":"9d5d91d3-b15d-4c9f-bd74-4244ec656023","system_id":"levelo_inurba_marseille","lat":43.298764,"lon":5.388973,"is_reserved":false,"is_disabled":false,"rental_uris":{"android":"levelo://app?vid=9d5d91d3-b15d-4c9f-bd74-4244ec656023","ios":"levelo://app?vid=9d5d91d3-b15d-4c9f-bd74-4244ec656023"},"vehicle_type_id":"4","last_reported":1714774018,"current_range_meters":11600,"station_id":"ce4bh392rcd13ifvqdl0","pricing_plan_id":"cebpf4jnsgd1na2vs0mg"},{"bike_id":"1d658414-06e3-44f7-aedc-b2a592b428dc","system_id":"levelo_inurba_marseille","lat":43.291671,"lon":5.371575,"is_reserved":false,"is_disabled":false,"rental_uris":{"android":"levelo://app?vid=1d658414-06e3-44f7-aedc-b2a592b428dc","ios":"levelo://app?vid=1d658414-06e3-44f7-aedc-b2a592b428dc"},"vehicle_type_id":"4","last_reported":1714774018,"current_range_meters":21600,"station_id":"ce4bha92rcd13ifvqeh0","pricing_plan_id":"cebpf4jnsgd1na2vs0mg"},{"bike_id":"5f94854c-fc58-4851-979e-0192f44eeff0","system_id":"levelo_inurba_marseille","lat":43.298764,"lon":5.388973,"is_reserved":false,"is_disabled":false,"rental_uris":{"android":"levelo://app?vid=5f94854c-fc58-4851-979e-0192f44eeff0","ios":"levelo://app?vid=5f94854c-fc58-4851-979e-0192f44eeff0"},"vehicle_type_id":"4","last_reported":1714774018,"current_range_meters":13600,"station_id":"ce4bh392rcd13ifvqdl0","pricing_plan_id":"cebpf4jnsgd1na2vs0mg"},{"bike_id":"fc2cdb7e-59ea-43e9-a0ef-22383bb5fb02","system_id":"levelo_inurba_marseille","lat":43.291675,"lon":5.371583,"is_reserved":false,"is_disabled":false,"rental_uris":{"android":"levelo://app?vid=fc2cdb7e-59ea-43e9-a0ef-22383bb5fb02","ios":"levelo://app?vid=fc2cdb7e-59ea-43e9-a0ef-22383bb5fb02"},"vehicle_type_id":"4","last_reported":1714774018,"current_range_meters":8800,"station_id":"ce4bha92rcd13ifvqeh0","pricing_plan_id":"cebpf4jnsgd1na2vs0mg"},{"bike_id":"2839e58b-77cd-40fc-9264-9d532b38dcb4","system_id":"levelo_inurba_marseille","lat":43.291675,"lon":5.371583,"is_reserved":false,"is_disabled":false,"rental_uris":{"android":"levelo://app?vid=2839e58b-77cd-40fc-9264-9d532b38dcb4","ios":"levelo://app?vid=2839e58b-77cd-40fc-9264-9d532b38dcb4"},"vehicle_type_id":"4","last_reported":1714774018,"current_range_meters":8000,"station_id":"ce4bha92rcd13ifvqeh0","pricing_plan_id":"cebpf4jnsgd1na2vs0mg"},{"bike_id":"957f1dfb-f4e4-4bfd-93f3-02665beb9c99","system_id":"levelo_inurba_marseille","lat":43.291671,"lon":5.371575,"is_reserved":false,"is_disabled":false,"rental_uris":{"android":"levelo://app?vid=957f1dfb-f4e4-4bfd-93f3-02665beb9c99","ios":"levelo://app?vid=957f1dfb-f4e4-4bfd-93f3-02665beb9c99"},"vehicle_type_id":"4","last_reported":1714774018,"current_range_meters":0,"station_id":"ce4bha92rcd13ifvqeh0","pricing_plan_id":"cebpf4jnsgd1na2vs0mg"},{"bike_id":"04f9a260-24b0-47e1-badb-d60e48f1ce31","system_id":"levelo_inurba_marseille","lat":43.29877,"lon":5.38907,"is_reserved":false,"is_disabled":false,"rental_uris":{"android":"levelo://app?vid=04f9a260-24b0-47e1-badb-d60e48f1ce31","ios":"levelo://app?vid=04f9a260-24b0-47e1-badb-d60e48f1ce31"},"vehicle_type_id":"4","last_reported":1714774018,"current_range_meters":0,"station_id":"ce4bh392rcd13ifvqdl0","pricing_plan_id":"cebpf4jnsgd1na2vs0mg"},{"bike_id":"0df7de0b-8536-487f-abf2-15163790ff3c","system_id":"levelo_inurba_marseille","lat":43.291675,"lon":5.371583,"is_reserved":false,"is_disabled":false,"rental_uris":{"android":"levelo://app?vid=0df7de0b-8536-487f-abf2-15163790ff3c","ios":"levelo://app?vid=0df7de0b-8536-487f-abf2-15163790ff3c"},"vehicle_type_id":"4","last_reported":1714774018,"current_range_meters":25200,"station_id":"ce4bha92rcd13ifvqeh0","pricing_plan_id":"cebpf4jnsgd1na2vs0mg"},{"bike_id":"3d75b456-c8d6-4f52-bfb1-f0d0ddbe155a","system_id":"levelo_inurba_marseille","lat":43.298764,"lon":5.388973,"is_reserved":false,"is_disabled":false,"rental_uris":{"android":"levelo://app?vid=3d75b456-c8d6-4f52-bfb1-f0d0ddbe155a","ios":"levelo://app?vid=3d75b456-c8d6-4f52-bfb1-f0d0ddbe155a"},"vehicle_type_id":"4","last_reported":1714774018,"current_range_meters":6000,"station_id":"ce4bh392rcd13ifvqdl0","pricing_plan_id":"cebpf4jnsgd1na2vs0mg"},{"bike_id":"923ff71b-79ea-49cf-b59f-0410d00249f0","system_id":"levelo_inurba_marseille","lat":43.29875,"lon":5.38913,"is_reserved":false,"is_disabled":false,"rental_uris":{"android":"levelo://app?vid=923ff71b-79ea-49cf-b59f-0410d00249f0","ios":"levelo://app?vid=923ff71b-79ea-49cf-b59f-0410d00249f0"},"vehicle_type_id":"4","last_reported":1714774018,"current_range_meters":22400,"station_id":"ce4bh392rcd13ifvqdl0","pricing_plan_id":"cebpf4jnsgd1na2vs0mg"},{"bike_id":"2a8569ce-361a-4acc-9083-d413688bbe8b","system_id":"levelo_inurba_marseille","lat":43.291671,"lon":5.371575,"is_reserved":false,"is_disabled":false,"rental_uris":{"android":"levelo://app?vid=2a8569ce-361a-4acc-9083-d413688bbe8b","ios":"levelo://app?vid=2a8569ce-361a-4acc-9083-d413688bbe8b"},"vehicle_type_id":"4","last_reported":1714774018,"current_range_meters":1200,"station_id":"ce4bha92rcd13ifvqeh0","pricing_plan_id":"cebpf4jnsgd1na2vs0mg"},{"bike_id":"1f12f441-a44e-45ed-b104-500b18941ff4","system_id":"levelo_inurba_marseille","lat":43.298764,"lon":5.388973,"is_reserved":false,"is_disabled":false,"rental_uris":{"android":"levelo://app?vid=1f12f441-a44e-45ed-b104-500b18941ff4","ios":"levelo://app?vid=1f12f441-a44e-45ed-b104-500b18941ff4"},"vehicle_type_id":"4","last_reported":1714774018,"current_range_meters":9200,"station_id":"ce4bh392rcd13ifvqdl0","pricing_plan_id":"cebpf4jnsgd1na2vs0mg"},{"bike_id":"47728cf3-3927-46c9-936f-22878868414e","system_id":"levelo_inurba_marseille","lat":43.309038,"lon":5.396546,"is_reserved":false,"is_disabled":false,"rental_uris":{"android":"levelo://app?vid=47728cf3-3927-46c9-936f-22878868414e","ios":"levelo://app?vid=47728cf3-3927-46c9-936f-22878868414e"},"vehicle_type_id":"4","last_reported":1714774018,"current_range_meters":0,"station_id":"ce4bh012rcd13ifvqcv0","pricing_plan_id":"cebpf4jnsgd1na2vs0mg"},{"bike_id":"a34e01b3-6732-4de2-b794-18393006c47f","system_id":"levelo_inurba_marseille","lat":43.313291,"lon":5.396838,"is_reserved":false,"is_disabled":false,"rental_uris":{"android":"levelo://app?vid=a34e01b3-6732-4de2-b794-18393006c47f","ios":"levelo://app?vid=a34e01b3-6732-4de2-b794-18393006c47f"},"vehicle_type_id":"4","last_reported":1714774018,"current_range_meters":0,"station_id":"ce4bgvp2rcd13ifvqcu0","pricing_plan_id":"cebpf4jnsgd1na2vs0mg"},{"bike_id":"cf990ba8-b350-48c0-bda3-dc7cbfeefb60","system_id":"levelo_inurba_marseille","lat":43.313291,"lon":5.396838,"is_reserved":false,"is_disabled":false,"rental_uris":{"android":"levelo://app?vid=cf990ba8-b350-48c0-bda3-dc7cbfeefb60","ios":"levelo://app?vid=cf990ba8-b350-48c0-bda3-dc7cbfeefb60"},"vehicle_type_id":"4","last_reported":1714774018,"current_range_meters":18800,"station_id":"ce4bgvp2rcd13ifvqcu0","pricing_plan_id":"cebpf4jnsgd1na2vs0mg"},{"bike_id":"2906e482-c8bb-458f-9f57-adfc800b650a","system_id":"levelo_inurba_marseille","lat":43.313291,"lon":5.396838,"is_reserved":false,"is_disabled":false,"rental_uris":{"android":"levelo://app?vid=2906e482-c8bb-458f-9f57-adfc800b650a","ios":"levelo://app?vid=2906e482-c8bb-458f-9f57-adfc800b650a"},"vehicle_type_id":"4","last_reported":1714774018,"current_range_meters":2800,"station_id":"ce4bgvp2rcd13ifvqcu0","pricing_plan_id":"cebpf4jnsgd1na2vs0mg"},{"bike_id":"b50505aa-91f0-40ae-90ca-c882e659c75e","system_id":"levelo_inurba_marseille","lat":43.309047,"lon":5.396551,"is_reserved":false,"is_disabled":false,"rental_uris":{"android":"levelo://app?vid=b50505aa-91f0-40ae-90ca-c882e659c75e","ios":"levelo://app?vid=b50505aa-91f0-40ae-90ca-c882e659c75e"},"vehicle_type_id":"4","last_reported":1714774018,"current_range_meters":11200,"station_id":"ce4bh012rcd13ifvqcv0","pricing_plan_id":"cebpf4jnsgd1na2vs0mg"},{"bike_id":"b93e2cdd-2aa4-47a9-9281-607114dbac53","system_id":"levelo_inurba_marseille","lat":43.309038,"lon":5.396546,"is_reserved":false,"is_disabled":false,"rental_uris":{"android":"levelo://app?vid=b93e2cdd-2aa4-47a9-9281-607114dbac53","ios":"levelo://app?vid=b93e2cdd-2aa4-47a9-9281-607114dbac53"},