{"last_updated":1748283213,"ttl":60,"version":"2.2","data":{"bikes":[{"bike_id":"c0b9fd4f-e181-46ce-b0bf-f5119973334f","system_id":"levelo_inurba_marseille","lat":43.33771,"lon":5.37424,"is_reserved":false,"is_disabled":true,"rental_uris":{"android":"levelo://app?vid=c0b9fd4f-e181-46ce-b0bf-f5119973334f","ios":"levelo://app?vid=c0b9fd4f-e181-46ce-b0bf-f5119973334f"},"vehicle_type_id":"4","last_reported":1748283213,"current_range_meters":0,"station_id":"","pricing_plan_id":"cebpf4jnsgd1na2vs0mg"},{"bike_id":"cd3479a6-a621-4d06-973e-9a921ffbd027","system_id":"levelo_inurba_marseille","lat":43.265568,"lon":5.40326,"is_reserved":false,"is_disabled":true,"rental_uris":{"android":"levelo://app?vid=cd3479a6-a621-4d06-973e-9a921ffbd027","ios":"levelo://app?vid=cd3479a6-a621-4d06-973e-9a921ffbd027"},"vehicle_type_id":"4","last_reported":1748283213,"current_range_meters":0,"station_id":"","pricing_plan_id":"cebpf4jnsgd1na2vs0mg"},{"bike_id":"6b31d584-7ec8-4d7f-974f-dd6b8b914518","system_id":"levelo_inurba_marseille","lat":43.27091,"lon":5.3923,"is_reserved":false,"is_disabled":true,"rental_uris":{"android":"levelo://app?vid=6b31d584-7ec8-4d7f-974f-dd6b8b914518","ios":"levelo://app?vid=6b31d584-7ec8-4d7f-974f-dd6b8b914518"},"vehicle_type_id":"4","last_reported":1748283213,"current_range_meters":0,"station_id":"","pricing_plan_id":"cebpf4jnsgd1na2vs0mg"},{"bike_id":"68dd4df3-b4ab-477d-ba1f-083f8077ecbb","system_id":"levelo_inurba_marseille","lat":43.25639,"lon":5.37522,"is_reserved":false,"is_disabled":true,"rental_uris":{"android":"levelo://app?vid=68dd4df3-b4ab-477d-ba1f-083f8077ecbb","ios":"levelo://app?vid=68dd4df3-b4ab-477d-ba1f-083f8077ecbb"},"vehicle_type_id":"4","last_reported":1748283213,"current_range_meters":0,"station_id":"","pricing_plan_id":"cebpf4jnsgd1na2vs0mg"},{"bike_id":"3fe3d6c4-138a-47df-b6b4-e6f19e8f7d46","system_id":"levelo_inurba_marseille","lat":43.21411,"lon":5.34114,"is_reserved":false,"is_disabled":true,"rental_uris":{"android":"levelo://app?vid=3fe3d6c4-138a-47df-b6b4-e6f19e8f7d46","ios":"levelo://app?vid=3fe3d6c4-138a-47df-b6b4-e6f19e8f7d46"},"vehicle_type_id":"4","last_reported":1748283213,"current_range_meters":0,"station_id":"","pricing_plan_id":"cebpf4jnsgd1na2vs0mg"},{"bike_id":"fd133867-b5d2-4fd2-aa0a-382781ea3f5a","system_id":"levelo_inurba_marseille","lat":43.29097,"lon":5.43267,"is_reserved":false,"is_disabled":true,"rental_uris":{"android":"levelo://app?vid=fd133867-b5d2-4fd2-aa0a-382781ea3f5a","ios":"levelo://app?vid=fd133867-b5d2-4fd2-aa0a-382781ea3f5a"},"vehicle_type_id":"4","last_reported":1748283213,"current_range_meters":0,"station_id":"","pricing_plan_id":"cebpf4jnsgd1na2vs0mg"},{"bike_id":"15dcdbbd-a41e-43eb-9ed6-26ec15ce7a50","system_id":"levelo_inurba_marseille","lat":43.21411,"lon":5.34113,"is_reserved":false,"is_disabled":true,"rental_uris":{"android":"levelo://app?vid=15dcdbbd-a41e-43eb-9ed6-26ec15ce7a50","ios":"levelo://app?vid=15dcdbbd-a41e-43eb-9ed6-26ec15ce7a50"},"vehicle_type_id":"4","last_reported":1748283213,"current_range_meters":0,"station_id":"","pricing_plan_id":"cebpf4jnsgd1na2vs0mg"},{"bike_id":"f9fb40c0-1fcd-48cb-8e26-3f2dc0fb2451","system_id":"levelo_inurba_marseille","lat":43.33751,"lon":5.37509,"is_reserved":false,"is_disabled":true,"rental_uris":{"android":"levelo://app?vid=f9fb40c0-1fcd-48cb-8e26-3f2dc0fb2451","ios":"levelo://app?vid=f9fb40c0-1fcd-48cb-8e26-3f2dc0fb2451"},"vehicle_type_id":"4","last_reported":1748283213,"current_range_meters":0,"station_id":"","pricing_plan_id":"cebpf4jnsgd1na2vs0mg"},{"bike_id":"d9b5650d-9652-4389-81c8-9e7dd1dc104a","system_id":"levelo_inurba_marseille","lat":43.30942,"lon":5.37137,"is_reserved":false,"is_disabled":true,"rental_uris":{"android":"levelo://app?vid=d9b5650d-9652-4389-81c8-9e7dd1dc104a","ios":"levelo://app?vid=d9b5650d-9652-4389-81c8-9e7dd1dc104a"},"vehicle_type_id":"4","last_reported":1748283213,"current_range_meters":0,"station_id":"","pricing_plan_id":"cebpf4jnsgd1na2vs0mg"},{"bike_id":"e9dd3aa4-b5e7-4480-926d-d7f537719bfa","system_id":"levelo_inurba_marseille","lat":43.230331,"lon":5.401847,"is_reserved":false,"is_disabled":true,"rental_uris":{"android":"levelo://app?vid=e9dd3aa4-b5e7-4480-926d-d7f537719bfa","ios":"levelo://app?vid=e9dd3aa4-b5e7-4480-926d-d7f537719bfa"},"vehicle_type_id":"4","last_reported":1748283213,"current_range_meters":0,"station_id":"","pricing_plan_id":"cebpf4jnsgd1na2vs0mg"},{"bike_id":"dcd075ea-b4af-4d6d-90b2-1236858b7bc1","system_id":"levelo_inurba_marseille","lat":43.27609,"lon":5.35873,"is_reserved":false,"is_disabled":true,"rental_uris":{"android":"levelo://app?vid=dcd075ea-b4af-4d6d-90b2-1236858b7bc1","ios":"levelo://app?vid=dcd075ea-b4af-4d6d-90b2-1236858b7bc1"},"vehicle_type_id":"4","last_reported":1748283213,"current_range_meters":0,"station_id":"","pricing_plan_id":"cebpf4jnsgd1na2vs0mg"},{"bike_id":"1a3aa433-ad39-4045-983a-d2009450e3d4","system_id":"levelo_inurba_marseille","lat":43.31702,"lon":5.377505,"is_reserved":false,"is_disabled":true,"rental_uris":{"android":"levelo://app?vid=1a3aa433-ad39-4045-983a-d2009450e3d4","ios":"levelo://app?vid=1a3aa433-ad39-4045-983a-d2009450e3d4"},"vehicle_type_id":"4","last_reported":1748283213,"current_range_meters":0,"station_id":"ce4bgth2rcd13ifvqch0","pricing_plan_id":"cebpf4jnsgd1na2vs0mg"},{"bike_id":"eee33d96-590a-4411-9c1a-8016ac70c7a1","system_id":"levelo_inurba_marseille","lat":43.31072,"lon":5.38349,"is_reserved":false,"is_disabled":true,"rental_uris":{"android":"levelo://app?vid=eee33d96-590a-4411-9c1a-8016ac70c7a1","ios":"levelo://app?vid=eee33d96-590a-4411-9c1a-8016ac70c7a1"},"vehicle_type_id":"4","last_reported":1748283213,"current_range_meters":0,"station_id":"ce4bgv92rcd13ifvqcr0","pricing_plan_id":"cebpf4jnsgd1na2vs0mg"},{"bike_id":"707f2066-754a-4ae8-85d2-6121e8e153c5","system_id":"levelo_inurba_marseille","lat":43.30932,"lon":5.40142,"is_reserved":false,"is_disabled":true,"rental_uris":{"android":"levelo://app?vid=707f2066-754a-4ae8-85d2-6121e8e153c5","ios":"levelo://app?vid=707f2066-754a-4ae8-85d2-6121e8e153c5"},"vehicle_type_id":"4","last_reported":1748283213,"current_range_meters":0,"station_id":"ce4bgvp2rcd13ifvqct0","pricing_plan_id":"cebpf4jnsgd1na2vs0mg"},{"bike_id":"3f669f7c-2b85-4ca1-ba3c-b90fadefb450","system_id":"levelo_inurba_marseille","lat":43.28426,"lon":5.37517,"is_reserved":false,"is_disabled":true,"rental_uris":{"android":"levelo://app?vid=3f669f7c-2b85-4ca1-ba3c-b90fadefb450","ios":"levelo://app?vid=3f669f7c-2b85-4ca1-ba3c-b90fadefb450"},"vehicle_type_id":"4","last_reported":1748283213,"current_range_meters":0,"station_id":"ce4bh412rcd13ifvqds0","pricing_plan_id":"cebpf4jnsgd1na2vs0mg"},{"bike_id":"01564a58-6331-44ee-b592-f157e29b634b","system_id":"levelo_inurba_marseille","lat":43.2905,"lon":5.35929,"is_reserved":false,"is_disabled":true,"rental_uris":{"android":"levelo://app?vid=01564a58-6331-44ee-b592-f157e29b634b","ios":"levelo://app?vid=01564a58-6331-44ee-b592-f157e29b634b"},"vehicle_type_id":"4","last_reported":1748283213,"current_range_meters":0,"station_id":"ce4bha92rcd13ifvqeg0","pricing_plan_id":"cebpf4jnsgd1na2vs0mg"},{"bike_id":"fabfe1e1-ec3a-4931-8270-bb01839f77f2","system_id":"levelo_inurba_marseille","lat":43.28661,"lon":5.36338,"is_reserved":false,"is_disabled":true,"rental_uris":{"android":"levelo://app?vid=fabfe1e1-ec3a-4931-8270-bb01839f77f2","ios":"levelo://app?vid=fabfe1e1-ec3a-4931-8270-bb01839f77f2"},"vehicle_type_id":"4","last_reported":1748283213,"current_range_meters":0,"station_id":"ce4bhah2rcd13ifvqej0","pricing_plan_id":"cebpf4jnsgd1na2vs0mg"},{"bike_id":"4d6157f4-5526-4fb3-a88e-2ea958c3228a","system_id":"levelo_inurba_marseille","lat":43.29007,"lon":5.35615,"is_reserved":false,"is_disabled":false,"rental_uris":{"android":"levelo://app?vid=4d6157f4-5526-4fb3-a88e-2ea958c3228a","ios":"levelo://app?vid=4d6157f4-5526-4fb3-a88e-2ea958c3228a"},"vehicle_type_id":"4","last_reported":1748283213,"current_range_meters":0,"station_id":"ce4bhb92rcd13ifvqen0","pricing_plan_id":"cebpf4jnsgd1na2vs0mg"},{"bike_id":"fa9040cb-6f75-4844-b106-1e6202cc5853","system_id":"levelo_inurba_marseille","lat":43.29886,"lon":5.43671,"is_reserved":false,"is_disabled":true,"rental_uris":{"android":"levelo://app?vid=fa9040cb-6f75-4844-b106-1e6202cc5853","ios":"levelo://app?vid=fa9040cb-6f75-4844-b106-1e6202cc5853"},"vehicle_type_id":"4","last_reported":1748283213,"current_range_meters":0,"station_id":"ce4bhpp2rcd13ifvqhfg","pricing_plan_id":"cebpf4jnsgd1na2vs0mg"},{"bike_id":"0debc554-72e6-4b6b-a9f6-30d6b4d3ceda","system_id":"levelo_inurba_marseille","lat":43.3414,"lon":5.40902,"is_reserved":false,"is_disabled":true,"rental_uris":{"android":"levelo://app?vid=0debc554-72e6-4b6b-a9f6-30d6b4d3ceda","ios":"levelo://app?vid=0debc554-72e6-4b6b-a9f6-30d6b4d3ceda"},"vehicle_type_id":"4","last_reported":1748283213,"current_range_meters":0,"station_id":"ce4bhqh2rcd13ifvqhlg","pricing_plan_id":"cebpf4jnsgd1na2vs0mg"},{"bike_id":"cdeaa374-71ec-4bf7-80a7-959fcdf40cb2","system_id":"levelo_inurba_marseille","lat":43.32361,"lon":5.3889,"is_reserved":false,"is_disabled":true,"rental_uris":{"android":"levelo://app?vid=cdeaa374-71ec-4bf7-80a7-959fcdf40cb2","ios":"levelo://app?vid=cdeaa374-71ec-4bf7-80a7-959fcdf40cb2"},"vehicle_type_id":"4","last_reported":1748283213,"current_range_meters":0,"station_id":"ce4bhqp2rcd13ifvqhog","pricing_plan_id":"cebpf4jnsgd1na2vs0mg"},{"bike_id":"7c7a4a80-74c5-4390-888e-19ef0412b19c","system_id":"levelo_inurba_marseille","lat":43.24605,"lon":5.40415,"is_reserved":false,"is_disabled":true,"rental_uris":{"android":"levelo://app?vid=7c7a4a80-74c5-4390-888e-19ef0412b19c","ios":"levelo://app?vid=7c7a4a80-74c5-4390-888e-19ef0412b19c"},"vehicle_type_id":"4","last_reported":1748283213,"current_range_meters":400,"station_id":"","pricing_plan_id":"cebpf4jnsgd1na2vs0mg"},{"bike_id":"8bd89de4-9de9-44cf-a230-e6b7bcf1f9b7","system_id":"levelo_inurba_marseille","lat":43.30956,"lon":5.39025,"is_reserved":false,"is_disabled":true,"rental_uris":{"android":"levelo://app?vid=8bd89de4-9de9-44cf-a230-e6b7bcf1f9b7","ios":"levelo://app?vid=8bd89de4-9de9-44cf-a230-e6b7bcf1f9b7"},"vehicle_type_id":"4","last_reported":1748283213,"current_range_meters":400,"station_id":"ce4bgup2rcd13ifvqco0","pricing_plan_id":"cebpf4jnsgd1na2vs0mg"},{"bike_id":"ac9ae4f4-1459-467e-a5c3-bb93bb0ce989","system_id":"levelo_inurba_marseille","lat":43.31166,"lon":5.38715,"is_reserved":false,"is_disabled":true,"rental_uris":{"android":"levelo://app?vid=ac9ae4f4-1459-467e-a5c3-bb93bb0ce989","ios":"levelo://app?vid=ac9ae4f4-1459-467e-a5c3-bb93bb0ce989"},"vehicle_type_id":"4","last_reported":1748283213,"current_range_meters":400,"station_id":"ce4bgv12rcd13ifvqcp0","pricing_plan_id":"cebpf4jnsgd1na2vs0mg"},{"bike_id":"ebb9ec34-b32a-4346-98c4-cc7776e6a1fd","system_id":"levelo_inurba_marseille","lat":43.28506,"lon":5.38525,"is_reserved":false,"is_disabled":true,"rental_uris":{"android":"levelo://app?vid=ebb9ec34-b32a-4346-98c4-cc7776e6a1fd","ios":"levelo://app?vid=ebb9ec34-b32a-4346-98c4-cc7776e6a1fd"},"vehicle_type_id":"4","last_reported":1748283213,"current_range_meters":400,"station_id":"ce4bh8p2rcd13ifvqeb0","pricing_plan_id":"cebpf4jnsgd1na2vs0mg"},{"bike_id":"4c8de99a-9ed2-4a70-b21b-961139a10cac","system_id":"levelo_inurba_marseille","lat":43.28281,"lon":5.35078,"is_reserved":false,"is_disabled":true,"rental_uris":{"android":"levelo://app?vid=4c8de99a-9ed2-4a70-b21b-961139a10cac","ios":"levelo://app?vid=4c8de99a-9ed2-4a70-b21b-961139a10cac"},"vehicle_type_id":"4","last_reported":1748283213,"current_range_meters":400,"station_id":"ce4bhbp2rcd13ifvqerg","pricing_plan_id":"cebpf4jnsgd1na2vs0mg"},{"bike_id":"0b6ac02b-d5a0-42ee-a345-6fbb6390ba67","system_id":"levelo_inurba_marseille","lat":43.26207,"lon":5.37443,"is_reserved":false,"is_disabled":true,"rental_uris":{"android":"levelo://app?vid=0b6ac02b-d5a0-42ee-a345-6fbb6390ba67","ios":"levelo://app?vid=0b6ac02b-d5a0-42ee-a345-6fbb6390ba67"},"vehicle_type_id":"4","last_reported":1748283213,"current_range_meters":400,"station_id":"ce4bhgp2rcd13ifvqfc0","pricing_plan_id":"cebpf4jnsgd1na2vs0mg"},{"bike_id":"3bc23382-e794-4248-9d4e-081511a11057","system_id":"levelo_inurba_marseille","lat":43.27213,"lon":5.39184,"is_reserved":false,"is_disabled":true,"rental_uris":{"android":"levelo://app?vid=3bc23382-e794-4248-9d4e-081511a11057","ios":"levelo://app?vid=3bc23382-e794-4248-9d4e-081511a11057"},"vehicle_type_id":"4","last_reported":1748283213,"current_range_meters":400,"station_id":"ce4bhhp2rcd13ifvqfm0","pricing_plan_id":"cebpf4jnsgd1na2vs0mg"},{"bike_id":"3c4da755-f86c-41f0-94c8-175fbaf5657f","system_id":"levelo_inurba_marseille","lat":43.32343,"lon":5.406137,"is_reserved":false,"is_disabled":true,"rental_uris":{"android":"levelo://app?vid=3c4da755-f86c-41f0-94c8-175fbaf5657f","ios":"levelo://app?vid=3c4da755-f86c-41f0-94c8-175fbaf5657f"},"vehicle_type_id":"4","last_reported":1748283213,"current_range_meters":400,"station_id":"ce4bhq92rcd13ifvqhjg","pricing_plan_id":"cebpf4jnsgd1na2vs0mg"},{"bike_id":"72ad9868-761b-4a37-af76-42e509317dcd","system_id":"levelo_inurba_marseille","lat":43.2317,"lon":5.35561,"is_reserved":false,"is_disabled":true,"rental_uris":{"android":"levelo://app?vid=72ad9868-761b-4a37-af76-42e509317dcd","ios":"levelo://app?vid=72ad9868-761b-4a37-af76-42e509317dcd"},"vehicle_type_id":"4","last_reported":1748283213,"current_range_meters":400,"station_id":"ce4bhu92rcd13ifvqi70","pricing_plan_id":"cebpf4jnsgd1na2vs0mg"},{"bike_id":"1a54e525-23f8-4d55-ba07-d899acd8988a","system_id":"levelo_inurba_marseille","lat":43.28419,"lon":5.34999,"is_reserved":false,"is_disabled":true,"rental_uris":{"android":"levelo://app?vid=1a54e525-23f8-4d55-ba07-d899acd8988a","ios":"levelo://app?vid=1a54e525-23f8-4d55-ba07-d899acd8988a"},"vehicle_type_id":"4","last_reported":1748283213,"current_range_meters":800,"station_id":"ce4bhbh2rcd13ifvqepg","pricing_plan_id":"cebpf4jnsgd1na2vs0mg"},{"bike_id":"191fb08d-7818-4521-b873-30004135d975","system_id":"levelo_inurba_marseille","lat":43.291931,"lon":5.357995,"is_reserved":false,"is_disabled":true,"rental_uris":{"android":"levelo://app?vid=191fb08d-7818-4521-b873-30004135d975","ios":"levelo://app?vid=191fb08d-7818-4521-b873-30004135d975"},"vehicle_type_id":"4","last_reported":1748283213,"current_range_meters":1200,"station_id":"ce4bhb12rcd13ifvqel0","pricing_plan_id":"cebpf4jnsgd1na2vs0mg"},{"bike_id":"09e9011b-9946-4bba-a11c-2e7b691c9de8","system_id":"levelo_inurba_marseille","lat":43.31994,"lon":5.38164,"is_reserved":false,"is_disabled":true,"rental_uris":{"android":"levelo://app?vid=09e9011b-9946-4bba-a11c-2e7b691c9de8","ios":"levelo://app?vid=09e9011b-9946-4bba-a11c-2e7b691c9de8"},"vehicle_type_id":"4","last_reported":1748283213,"current_range_meters":1200,"station_id":"ce4bhr12rcd13ifvqhpg","pricing_plan_id":"cebpf4jnsgd1na2vs0mg"},{"bike_id":"3581c28c-41f2-4cb7-b494-0448776c0438","system_id":"levelo_inurba_marseille","lat":43.296311,"lon":5.360296,"is_reserved":false,"is_disabled":true,"rental_uris":{"android":"levelo://app?vid=3581c28c-41f2-4cb7-b494-0448776c0438","ios":"levelo://app?vid=3581c28c-41f2-4cb7-b494-0448776c0438"},"vehicle_type_id":"4","last_reported":1748283213,"current_range_meters":1600,"station_id":"","pricing_plan_id":"cebpf4jnsgd1na2vs0mg"},{"bike_id":"d7b0828e-f0d7-4a7b-8e5a-6d28e878be59","system_id":"levelo_inurba_marseille","lat":43.23231,"lon":5.39999,"is_reserved":false,"is_disabled":true,"rental_uris":{"android":"levelo://app?vid=d7b0828e-f0d7-4a7b-8e5a-6d28e878be59","ios":"levelo://app?vid=d7b0828e-f0d7-4a7b-8e5a-6d28e878be59"},"vehicle_type_id":"4","last_reported":1748283213,"current_range_meters":1600,"station_id":"","pricing_plan_id":"cebpf4jnsgd1na2vs0mg"},{"bike_id":"3f8be1cb-12a7-4f9a-bc4e-528971884890","system_id":"levelo_inurba_marseille","lat":43.23964,"lon":5.36623,"is_reserved":false,"is_disabled":true,"rental_uris":{"android":"levelo://app?vid=3f8be1cb-12a7-4f9a-bc4e-528971884890","ios":"levelo://app?vid=3f8be1cb-12a7-4f9a-bc4e-528971884890"},"vehicle_type_id":"4","last_reported":1748283213,"current_range_meters":1600,"station_id":"ce4bhi12rcd13ifvqfp0","pricing_plan_id":"cebpf4jnsgd1na2vs0mg"},{"bike_id":"d56dbe37-195b-4ba3-981b-14966d0e7779","system_id":"levelo_inurba_marseille","lat":43.28156,"lon":5.4264,"is_reserved":false,"is_disabled":true,"rental_uris":{"android":"levelo://app?vid=d56dbe37-195b-4ba3-981b-14966d0e7779","ios":"levelo://app?vid=d56dbe37-195b-4ba3-981b-14966d0e7779"},"vehicle_type_id":"4","last_reported":1748283213,"current_range_meters":1600,"station_id":"ce4bhnh2rcd13ifvqgug","pricing_plan_id":"cebpf4jnsgd1na2vs0mg"},{"bike_id":"3fb85001-888b-4639-8981-19ceb1111a17","system_id":"levelo_inurba_marseille","lat":43.29902,"lon":5.43662,"is_reserved":false,"is_disabled":true,"rental_uris":{"android":"levelo://app?vid=3fb85001-888b-4639-8981-19ceb1111a17","ios":"levelo://app?vid=3fb85001-888b-4639-8981-19ceb1111a17"},"vehicle_type_id":"4","last_reported":1748283213,"current_range_meters":1600,"station_id":"ce4bhpp2rcd13ifvqhfg","pricing_plan_id":"cebpf4jnsgd1na2vs0mg"},{"bike_id":"0639adc7-0b07-4d84-b38c-59af76e4352d","system_id":"levelo_inurba_marseille","lat":43.29225,"lon":5.36075,"is_reserved":false,"is_disabled":false,"rental_uris":{"android":"levelo://app?vid=0639adc7-0b07-4d84-b38c-59af76e4352d","ios":"levelo://app?vid=0639adc7-0b07-4d84-b38c-59af76e4352d"},"vehicle_type_id":"4","last_reported":1748283213,"current_range_meters":2000,"station_id":"ce4bhbh2rcd13ifvqeqg","pricing_plan_id":"cebpf4jnsgd1na2vs0mg"},{"bike_id":"135c0ba5-3572-4ad6-8288-879effdebe03","system_id":"levelo_inurba_marseille","lat":43.29529,"lon":5.39029,"is_reserved":false,"is_disabled":false,"rental_uris":{"android":"levelo://app?vid=135c0ba5-3572-4ad6-8288-879effdebe03","ios":"levelo://app?vid=135c0ba5-3572-4ad6-8288-879effdebe03"},"vehicle_type_id":"4","last_reported":1748283213,"current_range_meters":2800,"station_id":"ce4bh3p2rcd13ifvqdp0","pricing_plan_id":"cebpf4jnsgd1na2vs0mg"},{"bike_id":"428968c4-4a11-4fae-a190-500844c34e6d","system_id":"levelo_inurba_marseille","lat":43.23184,"lon":5.39982,"is_reserved":false,"is_disabled":false,"rental_uris":{"android":"levelo://app?vid=428968c4-4a11-4fae-a190-500844c34e6d","ios":"levelo://app?vid=428968c4-4a11-4fae-a190-500844c34e6d"},"vehicle_type_id":"4","last_reported":1748283213,"current_range_meters":2800,"station_id":"ce4bhn12rcd13ifvqgqg","pricing_plan_id":"cebpf4jnsgd1na2vs0mg"},{"bike_id":"192dc2ab-50e8-4002-823f-4aab8f9263f5","system_id":"levelo_inurba_marseille","lat":43.232,"lon":5.35539,"is_reserved":false,"is_disabled":false,"rental_uris":{"android":"levelo://app?vid=192dc2ab-50e8-4002-823f-4aab8f9263f5","ios":"levelo://app?vid=192dc2ab-50e8-4002-823f-4aab8f9263f5"},"vehicle_type_id":"4","last_reported":1748283213,"current_range_meters":2800,"station_id":"ce4bhu92rcd13ifvqi70","pricing_plan_id":"cebpf4jnsgd1na2vs0mg"},{"bike_id":"df231429-681f-49f7-ba82-877c764cfac7","system_id":"levelo_inurba_marseille","lat":43.2418,"lon":5.36394,"is_reserved":false,"is_disabled":false,"rental_uris":{"android":"levelo://app?vid=df231429-681f-49f7-ba82-877c764cfac7","ios":"levelo://app?vid=df231429-681f-49f7-ba82-877c764cfac7"},"vehicle_type_id":"4","last_reported":1748283213,"current_range_meters":2800,"station_id":"cpo36qri1sfpv3e86is0","pricing_plan_id":"cebpf4jnsgd1na2vs0mg"},{"bike_id":"a8f44543-1fb7-45c9-a9a6-1baeaf183599","system_id":"levelo_inurba_marseille","lat":43.29406,"lon":5.38618,"is_reserved":false,"is_disabled":false,"rental_uris":{"android":"levelo://app?vid=a8f44543-1fb7-45c9-a9a6-1baeaf183599","ios":"levelo://app?vid=a8f44543-1fb7-45c9-a9a6-1baeaf183599"},"vehicle_type_id":"4","last_reported":1748283213,"current_range_meters":3200,"station_id":"ce4bh2h2rcd13ifvqdh0","pricing_plan_id":"cebpf4jnsgd1na2vs0mg"},{"bike_id":"26765515-ea7a-44e0-8a07-8dca2c8b6e7f","system_id":"levelo_inurba_marseille","lat":43.2318,"lon":5.39992,"is_reserved":false,"is_disabled":false,"rental_uris":{"android":"levelo://app?vid=26765515-ea7a-44e0-8a07-8dca2c8b6e7f","ios":"levelo://app?vid=26765515-ea7a-44e0-8a07-8dca2c8b6e7f"},"vehicle_type_id":"4","last_reported":1748283213,"current_range_meters":3200,"station_id":"ce4bhn12rcd13ifvqgqg","pricing_plan_id":"cebpf4jnsgd1na2vs0mg"},{"bike_id":"985dfe2e-48ab-4438-8b44-7034bccf028e","system_id":"levelo_inurba_marseille","lat":43.26996,"lon":5.39832,"is_reserved":false,"is_disabled":false,"rental_uris":{"android":"levelo://app?vid=985dfe2e-48ab-4438-8b44-7034bccf028e","ios":"levelo://app?vid=985dfe2e-48ab-4438-8b44-7034bccf028e"},"vehicle_type_id":"4","last_reported":1748283213,"current_range_meters":3600,"station_id":"","pricing_plan_id":"cebpf4jnsgd1na2vs0mg"},{"bike_id":"d9fa0449-e47c-4bbe-a91c-4939cab5d888","system_id":"levelo_inurba_marseille","lat":43.28534,"lon":5.426216,"is_reserved":false,"is_disabled":false,"rental_uris":{"android":"levelo://app?vid=d9fa0449-e47c-4bbe-a91c-4939cab5d888","ios":"levelo://app?vid=d9fa0449-e47c-4bbe-a91c-4939cab5d888"},"vehicle_type_id":"4","last_reported":1748283213,"current_range_meters":3600,"station_id":"","pricing_plan_id":"cebpf4jnsgd1na2vs0mg"},{"bike_id":"60be7095-43d5-49ff-a46f-8805ea04a490","system_id":"levelo_inurba_marseille","lat":43.31063,"lon":5.38345,"is_reserved":false,"is_disabled":false,"rental_uris":{"android":"levelo://app?vid=60be7095-43d5-49ff-a46f-8805ea04a490","ios":"levelo://app?vid=60be7095-43d5-49ff-a46f-8805ea04a490"},"vehicle_type_id":"4","last_reported":1748283213,"current_range_meters":3600,"station_id":"ce4bgv92rcd13ifvqcr0","pricing_plan_id":"cebpf4jnsgd1na2vs0mg"},{"bike_id":"2634de74-52eb-493a-bf57-07951150729c","system_id":"levelo_inurba_marseille","lat":43.24393,"lon":5.37058,"is_reserved":false,"is_disabled":false,"rental_uris":{"android":"levelo://app?vid=2634de74-52eb-493a-bf57-07951150729c","ios":"levelo://app?vid=2634de74-52eb-493a-bf57-07951150729c"},"vehicle_type_id":"4","last_reported":1748283213,"current_range_meters":3600,"station_id":"ce4bhhh2rcd13ifvqfk0","pricing_plan_id":"cebpf4jnsgd1na2vs0mg"},{"bike_id":"da453a88-f81b-4e0f-9781-5a7f6c1d364c","system_id":"levelo_inurba_marseille","lat":43.337499,"lon":5.374469,"is_reserved":false,"is_disabled":false,"rental_uris":{"android":"levelo://app?vid=da453a88-f81b-4e0f-9781-5a7f6c1d364c","ios":"levelo://app?vid=da453a88-f81b-4e0f-9781-5a7f6c1d364c"},"vehicle_type_id":"4","last_reported":1748283213,"current_range_meters":4000,"station_id":"","pricing_plan_id":"cebpf4jnsgd1na2vs0mg"},{"bike_id":"885afd4b-e62a-4134-abcb-8bd07a3ead49","system_id":"levelo_inurba_marseille","lat":43.29361,"lon":5.37837,"is_reserved":false,"is_disabled":false,"rental_uris":{"android":"levelo://app?vid=885afd4b-e62a-4134-abcb-8bd07a3ead49","ios":"levelo://app?vid=885afd4b-e62a-4134-abcb-8bd07a3ead49"},"vehicle_type_id":"4","last_reported":1748283213,"current_range_meters":4000,"station_id":"ce4bgjh2rcd13ifvqbf0","pricing_plan_id":"cebpf4jnsgd1na2vs0mg"},{"bike_id":"4945e3c8-288b-4a06-b102-6a61ab3fe4a8","system_id":"levelo_inurba_marseille","lat":43.30432,"lon":5.38882,"is_reserved":false,"is_disabled":false,"rental_uris":{"android":"levelo://app?vid=4945e3c8-288b-4a06-b102-6a61ab3fe4a8","ios":"levelo://app?vid=4945e3c8-288b-4a06-b102-6a61ab3fe4a8"},"vehicle_type_id":"4","last_reported":1748283213,"current_range_meters":4000,"station_id":"ce4bgk12rcd13ifvqbi0","pricing_plan_id":"cebpf4jnsgd1na2vs0mg"},{"bike_id":"be0619ee-3954-4f09-a747-6a7f56f69fe6","system_id":"levelo_inurba_marseille","lat":43.28941,"lon":5.36662,"is_reserved":false,"is_disabled":false,"rental_uris":{"android":"levelo://app?vid=be0619ee-3954-4f09-a747-6a7f56f69fe6","ios":"levelo://app?vid=be0619ee-3954-4f09-a747-6a7f56f69fe6"},"vehicle_type_id":"4","last_reported":1748283213,"current_range_meters":4000,"station_id":"ce4bhap2rcd13ifvqek0","pricing_plan_id":"cebpf4jnsgd1na2vs0mg"},{"bike_id":"5e3a421e-cf49-47cf-a7dd-90c41fc5520c","system_id":"levelo_inurba_marseille","lat":43.25084,"lon":5.39523,"is_reserved":false,"is_disabled":false,"rental_uris":{"android":"levelo://app?vid=5e3a421e-cf49-47cf-a7dd-90c41fc5520c","ios":"levelo://app?vid=5e3a421e-cf49-47cf-a7dd-90c41fc5520c"},"vehicle_type_id":"4","last_reported":1748283213,"current_range_meters":4000,"station_id":"ce4bhm12rcd13ifvqgkg","pricing_plan_id":"cebpf4jnsgd1na2vs0mg"},{"bike_id":"144f49de-0708-48c1-97c8-b11a3cd27c23","system_id":"levelo_inurba_marseille","lat":43.299316,"lon":5.365597,"is_reserved":false,"is_disabled":false,"rental_uris":{"android":"levelo://app?vid=144f49de-0708-48c1-97c8-b11a3cd27c23","ios":"levelo://app?vid=144f49de-0708-48c1-97c8-b11a3cd27c23"},"vehicle_type_id":"4","last_reported":1748283213,"current_range_meters":4400,"station_id":"ce4bgm92rcd13ifvqbr0","pricing_plan_id":"cebpf4jnsgd1na2vs0mg"},{"bike_id":"0c3d0417-29bc-442f-bdc6-cb4637e19fec","system_id":"levelo_inurba_marseille","lat":43.290252,"lon":5.38645,"is_reserved":false,"is_disabled":false,"rental_uris":{"android":"levelo://app?vid=0c3d0417-29bc-442f-bdc6-cb4637e19fec","ios":"levelo://app?vid=0c3d0417-29bc-442f-bdc6-cb4637e19fec"},"vehicle_type_id":"4","last_reported":1748283213,"current_range_meters":4400,"station_id":"ce4bh4p2rcd13ifvqe0g","pricing_plan_id":"cebpf4jnsgd1na2vs0mg"},{"bike_id":"98ebf65e-e651-43eb-bbd4-161cddcbd829","system_id":"levelo_inurba_marseille","lat":43.284768,"lon":5.384156,"is_reserved":false,"is_disabled":false,"rental_uris":{"android":"levelo://app?vid=98ebf65e-e651-43eb-bbd4-161cddcbd829","ios":"levelo://app?vid=98ebf65e-e651-43eb-bbd4-161cddcbd829"},"vehicle_type_id":"4","last_reported":1748283213,"current_range_meters":4400,"station_id":"ce4bh512rcd13ifvqe3g","pricing_plan_id":"cebpf4jnsgd1na2vs0mg"},{"bike_id":"2494ffea-0564-4743-ba5f-c81a48715cac","system_id":"levelo_inurba_marseille","lat":43.26805,"lon":5.39415,"is_reserved":false,"is_disabled":false,"rental_uris":{"android":"levelo://app?vid=2494ffea-0564-4743-ba5f-c81a48715cac","ios":"levelo://app?vid=2494ffea-0564-4743-ba5f-c81a48715cac"},"vehicle_type_id":"4","last_reported":1748283213,"current_range_meters":4400,"station_id":"ce4bhh12rcd13ifvqfg0","pricing_plan_id":"cebpf4jnsgd1na2vs0mg"},{"bike_id":"cb62924f-2311-4684-a177-51bc51698deb","system_id":"levelo_inurba_marseille","lat":43.28151,"lon":5.42641,"is_reserved":false,"is_disabled":false,"rental_uris":{"android":"levelo://app?vid=cb62924f-2311-4684-a177-51bc51698deb","ios":"levelo://app?vid=cb62924f-2311-4684-a177-51bc51698deb"},"vehicle_type_id":"4","last_reported":1748283213,"current_range_meters":4400,"station_id":"ce4bhnh2rcd13ifvqgug","pricing_plan_id":"cebpf4jnsgd1na2vs0mg"},{"bike_id":"561b23d3-bd73-468d-bff5-6de23349fd52","system_id":"levelo_inurba_marseille","lat":43.2793,"lon":5.4104,"is_reserved":false,"is_disabled":false,"rental_uris":{"android":"levelo://app?vid=561b23d3-bd73-468d-bff5-6de23349fd52","ios":"levelo://app?vid=561b23d3-bd73-468d-bff5-6de23349fd52"},"vehicle_type_id":"4","last_reported":1748283213,"current_range_meters":4400,"station_id":"ce4bhnp2rcd13ifvqh0g","pricing_plan_id":"cebpf4jnsgd1na2vs0mg"},{"bike_id":"84c1370e-57a5-48a3-8209-795b03165653","system_id":"levelo_inurba_marseille","lat":43.28725,"lon":5.36091,"is_reserved":false,"is_disabled":false,"rental_uris":{"android":"levelo://app?vid=84c1370e-57a5-48a3-8209-795b03165653","ios":"levelo://app?vid=84c1370e-57a5-48a3-8209-795b03165653"},"vehicle_type_id":"4","last_reported":1748283213,"current_range_meters":4400,"station_id":"cki0cbj6b192h4jlfktg","pricing_plan_id":"cebpf4jnsgd1na2vs0mg"},{"bike_id":"a74c77f4-4dfb-4bb4-80f4-e925cd556c9c","system_id":"levelo_inurba_marseille","lat":43.28462,"lon":5.35891,"is_reserved":false,"is_disabled":false,"rental_uris":{"android":"levelo://app?vid=a74c77f4-4dfb-4bb4-80f4-e925cd556c9c","ios":"levelo://app?vid=a74c77f4-4dfb-4bb4-80f4-e925cd556c9c"},"vehicle_type_id":"4","last_reported":1748283213,"current_range_meters":4800,"station_id":"ce4bhah2rcd13ifvqei0","pricing_plan_id":"cebpf4jnsgd1na2vs0mg"},{"bike_id":"f148fcf4-b3dc-4c28-8295-905d1ea537ec","system_id":"levelo_inurba_marseille","lat":43.25491,"lon":5.37653,"is_reserved":false,"is_disabled":false,"rental_uris":{"android":"levelo://app?vid=f148fcf4-b3dc-4c28-8295-905d1ea537ec","ios":"levelo://app?vid=f148fcf4-b3dc-4c28-8295-905d1ea537ec"},"vehicle_type_id":"4","last_reported":1748283213,"current_range_meters":4800,"station_id":"ce4bhh12rcd13ifvqff0","pricing_plan_id":"cebpf4jnsgd1na2vs0mg"},{"bike_id":"a58d4ecf-adc8-4b6b-82e7-4bf3409b00a5","system_id":"levelo_inurba_marseille","lat":43.23997,"lon":5.36602,"is_reserved":false,"is_disabled":false,"rental_uris":{"android":"levelo://app?vid=a58d4ecf-adc8-4b6b-82e7-4bf3409b00a5","ios":"levelo://app?vid=a58d4ecf-adc8-4b6b-82e7-4bf3409b00a5"},"vehicle_type_id":"4","last_reported":1748283213,"current_range_meters":4800,"station_id":"ce4bhi12rcd13ifvqfp0","pricing_plan_id":"cebpf4jnsgd1na2vs0mg"},{"bike_id":"fbf44674-74d5-4106-bee3-4b7f0c029530","system_id":"levelo_inurba_marseille","lat":43.25585,"lon":5.38244,"is_reserved":false,"is_disabled":false,"rental_uris":{"android":"levelo://app?vid=fbf44674-74d5-4106-bee3-4b7f0c029530","ios":"levelo://app?vid=fbf44674-74d5-4106-bee3-4b7f0c029530"},"vehicle_type_id":"4","last_reported":1748283213,"current_range_meters":4800,"station_id":"ce4bhih2rcd13ifvqfs0","pricing_plan_id":"cebpf4jnsgd1na2vs0mg"},{"bike_id":"30f4e044-6674-42cd-9e56-6e9cc7467547","system_id":"levelo_inurba_marseille","lat":43.30356,"lon":5.4188,"is_reserved":false,"is_disabled":false,"rental_uris":{"android":"levelo://app?vid=30f4e044-6674-42cd-9e56-6e9cc7467547","ios":"levelo://app?vid=30f4e044-6674-42cd-9e56-6e9cc7467547"},"vehicle_type_id":"4","last_reported":1748283213,"current_range_meters":4800,"station_id":"ce4bhop2rcd13ifvqh7g","pricing_plan_id":"cebpf4jnsgd1na2vs0mg"},{"bike_id":"dab7ee0d-f820-455c-89c6-13e25f106faf","system_id":"levelo_inurba_marseille","lat":43.32369,"lon":5.42053,"is_reserved":false,"is_disabled":false,"rental_uris":{"android":"levelo://app?vid=dab7ee0d-f820-455c-89c6-13e25f106faf","ios":"levelo://app?vid=dab7ee0d-f820-455c-89c6-13e25f106faf"},"vehicle_type_id":"4","last_reported":1748283213,"current_range_meters":5600,"station_id":"","pricing_plan_id":"cebpf4jnsgd1na2vs0mg"},{"bike_id":"6855135c-85c8-4d16-9178-8450739d31b2","system_id":"levelo_inurba_marseille","lat":43.31044,"lon":5.37917,"is_reserved":false,"is_disabled":false,"rental_uris":{"android":"levelo://app?vid=6855135c-85c8-4d16-9178-8450739d31b2","ios":"levelo://app?vid=6855135c-85c8-4d16-9178-8450739d31b2"},"vehicle_type_id":"4","last_reported":1748283213,"current_range_meters":5600,"station_id":"","pricing_plan_id":"cebpf4jnsgd1na2vs0mg"},{"bike_id":"4541d709-4e13-42ed-8386-1862adc1d87c","system_id":"levelo_inurba_marseille","lat":43.299316,"lon":5.365586,"is_reserved":false,"is_disabled":false,"rental_uris":{"android":"levelo://app?vid=4541d709-4e13-42ed-8386-1862adc1d87c","ios":"levelo://app?vid=4541d709-4e13-42ed-8386-1862adc1d87c"},"vehicle_type_id":"4","last_reported":1748283213,"current_range_meters":5600,"station_id":"ce4bgm92rcd13ifvqbr0","pricing_plan_id":"cebpf4jnsgd1na2vs0mg"},{"bike_id":"a3b17c5f-9e07-4165-8bbc-9a6c43c3ca10","system_id":"levelo_inurba_marseille","lat":43.27376,"lon":5.36253,"is_reserved":false,"is_disabled":false,"rental_uris":{"android":"levelo://app?vid=a3b17c5f-9e07-4165-8bbc-9a6c43c3ca10","ios":"levelo://app?vid=a3b17c5f-9e07-4165-8bbc-9a6c43c3ca10"},"vehicle_type_id":"4","last_reported":1748283213,"current_range_meters":5600,"station_id":"ce4bhbh2rcd13ifvqeo0","pricing_plan_id":"cebpf4jnsgd1na2vs0mg"},{"bike_id":"3d5cbef3-45ac-4469-94ed-d29c0fcde010","system_id":"levelo_inurba_marseille","lat":43.28944,"lon":5.36409,"is_reserved":false,"is_disabled":false,"rental_uris":{"android":"levelo://app?vid=3d5cbef3-45ac-4469-94ed-d29c0fcde010","ios":"levelo://app?vid=3d5cbef3-45ac-4469-94ed-d29c0fcde010"},"vehicle_type_id":"4","last_reported":1748283213,"current_range_meters":5600,"station_id":"ce4bhc92rcd13ifvqetg","pricing_plan_id":"cebpf4jnsgd1na2vs0mg"},{"bike_id":"68e380b7-8637-4080-8e24-271811f29a50","system_id":"levelo_inurba_marseille","lat":43.2396,"lon":5.36635,"is_reserved":false,"is_disabled":false,"rental_uris":{"android":"levelo://app?vid=68e380b7-8637-4080-8e24-271811f29a50","ios":"levelo://app?vid=68e380b7-8637-4080-8e24-271811f29a50"},"vehicle_type_id":"4","last_reported":1748283213,"current_range_meters":5600,"station_id":"ce4bhi12rcd13ifvqfp0","pricing_plan_id":"cebpf4jnsgd1na2vs0mg"},{"bike_id":"d3a8c8e6-cf72-4dba-ae5e-00aee97defad","system_id":"levelo_inurba_marseille","lat":43.24072,"lon":5.37744,"is_reserved":false,"is_disabled":false,"rental_uris":{"android":"levelo://app?vid=d3a8c8e6-cf72-4dba-ae5e-00aee97defad","ios":"levelo://app?vid=d3a8c8e6-cf72-4dba-ae5e-00aee97defad"},"vehicle_type_id":"4","last_reported":1748283213,"current_range_meters":5600,"station_id":"ce4bhnp2rcd13ifvqgvg","pricing_plan_id":"cebpf4jnsgd1na2vs0mg"},{"bike_id":"f1672d1c-0696-4898-920d-5cf5b7ec99d9","system_id":"levelo_inurba_marseille","lat":43.27997,"lon":5.40009,"is_reserved":false,"is_disabled":false,"rental_uris":{"android":"levelo://app?vid=f1672d1c-0696-4898-920d-5cf5b7ec99d9","ios":"levelo://app?vid=f1672d1c-0696-4898-920d-5cf5b7ec99d9"},"vehicle_type_id":"4","last_reported":1748283213,"current_range_meters":5600,"station_id":"ce4bho92rcd13ifvqh4g","pricing_plan_id":"cebpf4jnsgd1na2vs0mg"},{"bike_id":"ed3b489a-79a2-43c7-ab37-01542efc6dc9","system_id":"levelo_inurba_marseille","lat":43.32364,"lon":5.38885,"is_reserved":false,"is_disabled":false,"rental_uris":{"android":"levelo://app?vid=ed3b489a-79a2-43c7-ab37-01542efc6dc9","ios":"levelo://app?vid=ed3b489a-79a2-43c7-ab37-01542efc6dc9"},"vehicle_type_id":"4","last_reported":1748283213,"current_range_meters":5600,"station_id":"ce4bhqp2rcd13ifvqhog","pricing_plan_id":"cebpf4jnsgd1na2vs0mg"},{"bike_id":"9024acd8-cd51-43c9-8552-490ba9888969","system_id":"levelo_inurba_marseille","lat":43.28621,"lon":5.37051,"is_reserved":false,"is_disabled":false,"rental_uris":{"android":"levelo://app?vid=9024acd8-cd51-43c9-8552-490ba9888969","ios":"levelo://app?vid=9024acd8-cd51-43c9-8552-490ba9888969"},"vehicle_type_id":"4","last_reported":1748283213,"current_range_meters":5600,"station_id":"ce4bht12rcd13ifvqi60","pricing_plan_id":"cebpf4jnsgd1na2vs0mg"},{"bike_id":"0b0dceeb-bff8-40e2-83ca-823611033ba6","system_id":"levelo_inurba_marseille","lat":43.31555,"lon":5.3689,"is_reserved":false,"is_disabled":false,"rental_uris":{"android":"levelo://app?vid=0b0dceeb-bff8-40e2-83ca-823611033ba6","ios":"levelo://app?vid=0b0dceeb-bff8-40e2-83ca-823611033ba6"},"vehicle_type_id":"4","last_reported":1748283213,"current_range_meters":6000,"station_id":"","pricing_plan_id":"cebpf4jnsgd1na2vs0mg"},{"bike_id":"6abb9ab4-3976-4e3e-b994-f2f72ee02055","system_id":"levelo_inurba_marseille","lat":43.31769,"lon":5.36537,"is_reserved":false,"is_disabled":false,"rental_uris":{"android":"levelo://app?vid=6abb9ab4-3976-4e3e-b994-f2f72ee02055","ios":"levelo://app?vid=6abb9ab4-3976-4e3e-b994-f2f72ee02055"},"vehicle_type_id":"4","last_reported":1748283213,"current_range_meters":6000,"station_id":"","pricing_plan_id":"cebpf4jnsgd1na2vs0mg"},{"bike_id":"868b4b79-3eb1-4e6e-ae7c-30cd8f1594c6","system_id":"levelo_inurba_marseille","lat":43.30544,"lon":5.38434,"is_reserved":false,"is_disabled":false,"rental_uris":{"android":"levelo://app?vid=868b4b79-3eb1-4e6e-ae7c-30cd8f1594c6","ios":"levelo://app?vid=868b4b79-3eb1-4e6e-ae7c-30cd8f1594c6"},"vehicle_type_id":"4","last_reported":1748283213,"current_range_meters":6000,"station_id":"ce4bgg92rcd13ifvqb30","pricing_plan_id":"cebpf4jnsgd1na2vs0mg"},{"bike_id":"878a1a2d-740d-458a-953e-42d8787767ec","system_id":"levelo_inurba_marseille","lat":43.30885,"lon":5.39651,"is_reserved":false,"is_disabled":false,"rental_uris":{"android":"levelo://app?vid=878a1a2d-740d-458a-953e-42d8787767ec","ios":"levelo://app?vid=878a1a2d-740d-458a-953e-42d8787767ec"},"vehicle_type_id":"4","last_reported":1748283213,"current_range_meters":6000,"station_id":"ce4bh012rcd13ifvqcv0","pricing_plan_id":"cebpf4jnsgd1na2vs0mg"},{"bike_id":"d2f6b88b-979d-490c-a258-4fe2e1e819d8","system_id":"levelo_inurba_marseille","lat":43.29129,"lon":5.38102,"is_reserved":false,"is_disabled":false,"rental_uris":{"android":"levelo://app?vid=d2f6b88b-979d-490c-a258-4fe2e1e819d8","ios":"levelo://app?vid=d2f6b88b-979d-490c-a258-4fe2e1e819d8"},"vehicle_type_id":"4","last_reported":1748283213,"current_range_meters":6000,"station_id":"ce4bh512rcd13ifvqe2g","pricing_plan_id":"cebpf4jnsgd1na2vs0mg"},{"bike_id":"7e401798-b5f9-4698-a965-fed1f1a8d96c","system_id":"levelo_inurba_marseille","lat":43.284446,"lon":5.392079,"is_reserved":false,"is_disabled":false,"rental_uris":{"android":"levelo://app?vid=7e401798-b5f9-4698-a965-fed1f1a8d96c","ios":"levelo://app?vid=7e401798-b5f9-4698-a965-fed1f1a8d96c"},"vehicle_type_id":"4","last_reported":1748283213,"current_range_meters":6000,"station_id":"ce4bhoh2rcd13ifvqh5g","pricing_plan_id":"cebpf4jnsgd1na2vs0mg"},{"bike_id":"7c471f1b-e0de-4590-8b4f-44f7cc0ea79f","system_id":"levelo_inurba_marseille","lat":43.30642,"lon":5.40095,"is_reserved":false,"is_disabled":false,"rental_uris":{"android":"levelo://app?vid=7c471f1b-e0de-4590-8b4f-44f7cc0ea79f","ios":"levelo://app?vid=7c471f1b-e0de-4590-8b4f-44f7cc0ea79f"},"vehicle_type_id":"4","last_reported":1748283213,"current_range_meters":6400,"station_id":"ce4bh112rcd13ifvqda0","pricing_plan_id":"cebpf4jnsgd1na2vs0mg"},{"bike_id":"92e0ae3e-f51d-49c7-ad3b-7b2505cd4c16","system_id":"levelo_inurba_marseille","lat":43.292,"lon":5.3931,"is_reserved":false,"is_disabled":false,"rental_uris":{"android":"levelo://app?vid=92e0ae3e-f51d-49c7-ad3b-7b2505cd4c16","ios":"levelo://app?vid=92e0ae3e-f51d-49c7-ad3b-7b2505cd4c16"},"vehicle_type_id":"4","last_reported":1748283213,"current_range_meters":6400,"station_id":"ce4bh192rcd13ifvqdd0","pricing_plan_id":"cebpf4jnsgd1na2vs0mg"},{"bike_id":"7400e729-a0a8-4c1f-9e02-40ccd8291b25","system_id":"levelo_inurba_marseille","lat":43.28343,"lon":5.38101,"is_reserved":false,"is_disabled":false,"rental_uris":{"android":"levelo://app?vid=7400e729-a0a8-4c1f-9e02-40ccd8291b25","ios":"levelo://app?vid=7400e729-a0a8-4c1f-9e02-40ccd8291b25"},"vehicle_type_id":"4","last_reported":1748283213,"current_range_meters":6400,"station_id":"ce4bh412rcd13ifvqdr0","pricing_plan_id":"cebpf4jnsgd1na2vs0mg"},{"bike_id":"7df24165-31a0-45db-b6dc-07619ee07204","system_id":"levelo_inurba_marseille","lat":43.28662,"lon":5.36353,"is_reserved":false,"is_disabled":false,"rental_uris":{"android":"levelo://app?vid=7df24165-31a0-45db-b6dc-07619ee07204","ios":"levelo://app?vid=7df24165-31a0-45db-b6dc-07619ee07204"},"vehicle_type_id":"4","last_reported":1748283213,"current_range_meters":6400,"station_id":"ce4bhah2rcd13ifvqej0","pricing_plan_id":"cebpf4jnsgd1na2vs0mg"},{"bike_id":"88b738cd-fb9f-4288-9f29-f7da3e94edac","system_id":"levelo_inurba_marseille","lat":43.28609,"lon":5.37064,"is_reserved":false,"is_disabled":false,"rental_uris":{"android":"levelo://app?vid=88b738cd-fb9f-4288-9f29-f7da3e94edac","ios":"levelo://app?vid=88b738cd-fb9f-4288-9f29-f7da3e94edac"},"vehicle_type_id":"4","last_reported":1748283213,"current_range_meters":6400,"station_id":"ce4bht12rcd13ifvqi60","pricing_plan_id":"cebpf4jnsgd1na2vs0mg"},{"bike_id":"ab485184-dee6-4278-8ed8-78cb97c31dd5","system_id":"levelo_inurba_marseille","lat":43.2921,"lon":5.35824,"is_reserved":false,"is_disabled":false,"rental_uris":{"android":"levelo://app?vid=ab485184-dee6-4278-8ed8-78cb97c31dd5","ios":"levelo://app?vid=ab485184-dee6-4278-8ed8-78cb97c31dd5"},"vehicle_type_id":"4","last_reported":1748283213,"current_range_meters":6800,"station_id":"","pricing_plan_id":"cebpf4jnsgd1na2vs0mg"},{"bike_id":"f04ff582-e146-4092-9553-9c27b92b9370","system_id":"levelo_inurba_marseille","lat":43.27617,"lon":5.36101,"is_reserved":false,"is_disabled":false,"rental_uris":{"android":"levelo://app?vid=f04ff582-e146-4092-9553-9c27b92b9370","ios":"levelo://app?vid=f04ff582-e146-4092-9553-9c27b92b9370"},"vehicle_type_id":"4","last_reported":1748283213,"current_range_meters":6800,"station_id":"ce4bgj92rcd13ifvqbe0","pricing_plan_id":"cebpf4jnsgd1na2vs0mg"},{"bike_id":"cea9e870-ee3a-425a-aa4e-f8f7e88b8495","system_id":"levelo_inurba_marseille","lat":43.29618,"lon":5.37152,"is_reserved":false,"is_disabled":false,"rental_uris":{"android":"levelo://app?vid=cea9e870-ee3a-425a-aa4e-f8f7e88b8495","ios":"levelo://app?vid=cea9e870-ee3a-425a-aa4e-f8f7e88b8495"},"vehicle_type_id":"4","last_reported":1748283213,"current_range_meters":6800,"station_id":"ce4bgnh2rcd13ifvqc0g","pricing_plan_id":"cebpf4jnsgd1na2vs0mg"},{"bike_id":"1c52a0af-e680-4b6c-b7ed-618bdbcd143b","system_id":"levelo_inurba_marseille","lat":43.30937,"lon":5.40143,"is_reserved":false,"is_disabled":false,"rental_uris":{"android":"levelo://app?vid=1c52a0af-e680-4b6c-b7ed-618bdbcd143b","ios":"levelo://app?vid=1c52a0af-e680-4b6c-b7ed-618bdbcd143b"},"vehicle_type_id":"4","last_reported":1748283213,"current_range_meters":6800,"station_id":"ce4bgvp2rcd13ifvqct0","pricing_plan_id":"cebpf4jnsgd1na2vs0mg"},{"bike_id":"a8cb1264-cdb5-4a16-b3ed-636f9d4282bd","system_id":"levelo_inurba_marseille","lat":43.288392,"lon":5.392855,"is_reserved":false,"is_disabled":false,"rental_uris":{"android":"levelo://app?vid=a8cb1264-cdb5-4a16-b3ed-636f9d4282bd","ios":"levelo://app?vid=a8cb1264-cdb5-4a16-b3ed-636f9d4282bd"},"vehicle_type_id":"4","last_reported":1748283213,"current_range_meters":6800,"station_id":"ce4bh2p2rcd13ifvqdi0","pricing_plan_id":"cebpf4jnsgd1na2vs0mg"},{"bike_id":"40c9eb1b-4c3a-48a5-ac08-a6ce1e30a6f1","system_id":"levelo_inurba_marseille","lat":43.284058,"lon":5.375088,"is_reserved":false,"is_disabled":false,"rental_uris":{"android":"levelo://app?vid=40c9eb1b-4c3a-48a5-ac08-a6ce1e30a6f1","ios":"levelo://app?vid=40c9eb1b-4c3a-48a5-ac08-a6ce1e30a6f1"},"vehicle_type_id":"4","last_reported":1748283213,"current_range_meters":6800,"station_id":"ce4bh412rcd13ifvqds0","pricing_plan_id":"cebpf4jnsgd1na2vs0mg"},{"bike_id":"3d85872d-cbc6-45cb-b46d-6b3972359259","system_id":"levelo_inurba_marseille","lat":43.28946,"lon":5.3664,"is_reserved":false,"is_disabled":false,"rental_uris":{"android":"levelo://app?vid=3d85872d-cbc6-45cb-b46d-6b3972359259","ios":"levelo://app?vid=3d85872d-cbc6-45cb-b46d-6b3972359259"},"vehicle_type_id":"4","last_reported":1748283213,"current_range_meters":6800,"station_id":"ce4bhap2rcd13ifvqek0","pricing_plan_id":"cebpf4jnsgd1na2vs0mg"},{"bike_id":"20aedc1a-3258-494a-9b0e-5afc4945dd89","system_id":"levelo_inurba_marseille","lat":43.23175,"lon":5.39973,"is_reserved":false,"is_disabled":false,"rental_uris":{"android":"levelo://app?vid=20aedc1a-3258-494a-9b0e-5afc4945dd89","ios":"levelo://app?vid=20aedc1a-3258-494a-9b0e-5afc4945dd89"},"vehicle_type_id":"4","last_reported":1748283213,"current_range_meters":6800,"station_id":"ce4bhn12rcd13ifvqgqg","pricing_plan_id":"cebpf4jnsgd1na2vs0mg"},{"bike_id":"bdcb3e2f-f700-404a-95a8-4136157f3fa6","system_id":"levelo_inurba_marseille","lat":43.27945,"lon":5.41048,"is_reserved":false,"is_disabled":false,"rental_uris":{"android":"levelo://app?vid=bdcb3e2f-f700-404a-95a8-4136157f3fa6","ios":"levelo://app?vid=bdcb3e2f-f700-404a-95a8-4136157f3fa6"},"vehicle_type_id":"4","last_reported":1748283213,"current_range_meters":6800,"station_id":"ce4bhnp2rcd13ifvqh0g","pricing_plan_id":"cebpf4jnsgd1na2vs0mg"},{"bike_id":"3fad9f6c-d63e-429a-a4d4-9ca3ebe16f8b","system_id":"levelo_inurba_marseille","lat":43.27994,"lon":5.40018,"is_reserved":false,"is_disabled":false,"rental_uris":{"android":"levelo://app?vid=3fad9f6c-d63e-429a-a4d4-9ca3ebe16f8b","ios":"levelo://app?vid=3fad9f6c-d63e-429a-a4d4-9ca3ebe16f8b"},"vehicle_type_id":"4","last_reported":1748283213,"current_range_meters":6800,"station_id":"ce4bho92rcd13ifvqh4g","pricing_plan_id":"cebpf4jnsgd1na2vs0mg"},{"bike_id":"05e8dbf3-05b0-483f-9b67-35f878ee6570","system_id":"levelo_inurba_marseille","lat":43.30424,"lon":5.413,"is_reserved":false,"is_disabled":false,"rental_uris":{"android":"levelo://app?vid=05e8dbf3-05b0-483f-9b67-35f878ee6570","ios":"levelo://app?vid=05e8dbf3-05b0-483f-9b67-35f878ee6570"},"vehicle_type_id":"4","last_reported":1748283213,"current_range_meters":6800,"station_id":"ce4bhop2rcd13ifvqh8g","pricing_plan_id":"cebpf4jnsgd1na2vs0mg"},{"bike_id":"5abb8a77-fbf0-4d21-805b-29790cff0e49","system_id":"levelo_inurba_marseille","lat":43.31102,"lon":5.42456,"is_reserved":false,"is_disabled":false,"rental_uris":{"android":"levelo://app?vid=5abb8a77-fbf0-4d21-805b-29790cff0e49","ios":"levelo://app?vid=5abb8a77-fbf0-4d21-805b-29790cff0e49"},"vehicle_type_id":"4","last_reported":1748283213,"current_range_meters":6800,"station_id":"ce4bhp92rcd13ifvqhag","pricing_plan_id":"cebpf4jnsgd1na2vs0mg"},{"bike_id":"753d9a20-6f63-4169-8562-8829f8d76b81","system_id":"levelo_inurba_marseille","lat":43.30139,"lon":5.37421,"is_reserved":false,"is_disabled":false,"rental_uris":{"android":"levelo://app?vid=753d9a20-6f63-4169-8562-8829f8d76b81","ios":"levelo://app?vid=753d9a20-6f63-4169-8562-8829f8d76b81"},"vehicle_type_id":"4","last_reported":1748283213,"current_range_meters":7200,"station_id":"ce4bgs92rcd13ifvqcc0","pricing_plan_id":"cebpf4jnsgd1na2vs0mg"},{"bike_id":"3fa79984-f977-4e37-ba77-65d0780dad7c","system_id":"levelo_inurba_marseille","lat":43.31168,"lon":5.38711,"is_reserved":false,"is_disabled":false,"rental_uris":{"android":"levelo://app?vid=3fa79984-f977-4e37-ba77-65d0780dad7c","ios":"levelo://app?vid=3fa79984-f977-4e37-ba77-65d0780dad7c"},"vehicle_type_id":"4","last_reported":1748283213,"current_range_meters":7200,"station_id":"ce4bgv12rcd13ifvqcp0","pricing_plan_id":"cebpf4jnsgd1na2vs0mg"},{"bike_id":"4eeac909-c83c-4b7b-b3cf-9b35155754a6","system_id":"levelo_inurba_marseille","lat":43.28422,"lon":5.34992,"is_reserved":false,"is_disabled":false,"rental_uris":{"android":"levelo://app?vid=4eeac909-c83c-4b7b-b3cf-9b35155754a6","ios":"levelo://app?vid=4eeac909-c83c-4b7b-b3cf-9b35155754a6"},"vehicle_type_id":"4","last_reported":1748283213,"current_range_meters":7200,"station_id":"ce4bhbh2rcd13ifvqepg","pricing_plan_id":"cebpf4jnsgd1na2vs0mg"},{"bike_id":"6b74d4bd-18fd-4a0c-8c6c-0f315913d09b","system_id":"levelo_inurba_marseille","lat":43.26191,"lon":5.37442,"is_reserved":false,"is_disabled":false,"rental_uris":{"android":"levelo://app?vid=6b74d4bd-18fd-4a0c-8c6c-0f315913d09b","ios":"levelo://app?vid=6b74d4bd-18fd-4a0c-8c6c-0f315913d09b"},"vehicle_type_id":"4","last_reported":1748283213,"current_range_meters":7200,"station_id":"ce4bhgp2rcd13ifvqfc0","pricing_plan_id":"cebpf4jnsgd1na2vs0mg"},{"bike_id":"903ad40f-a46a-4960-8003-d46293b51c12","system_id":"levelo_inurba_marseille","lat":43.32351,"lon":5.405997,"is_reserved":false,"is_disabled":false,"rental_uris":{"android":"levelo://app?vid=903ad40f-a46a-4960-8003-d46293b51c12","ios":"levelo://app?vid=903ad40f-a46a-4960-8003-d46293b51c12"},"vehicle_type_id":"4","last_reported":1748283213,"current_range_meters":7200,"station_id":"ce4bhq92rcd13ifvqhjg","pricing_plan_id":"cebpf4jnsgd1na2vs0mg"},{"bike_id":"23f9fa98-7cbd-468c-a823-5a703cfbc29b","system_id":"levelo_inurba_marseille","lat":43.231524,"lon":5.437144,"is_reserved":false,"is_disabled":false,"rental_uris":{"android":"levelo://app?vid=23f9fa98-7cbd-468c-a823-5a703cfbc29b","ios":"levelo://app?vid=23f9fa98-7cbd-468c-a823-5a703cfbc29b"},"vehicle_type_id":"4","last_reported":1748283213,"current_range_meters":8000,"station_id":"","pricing_plan_id":"cebpf4jnsgd1na2vs0mg"},{"bike_id":"af02aa73-68b2-498b-ad6a-9a50456db18d","system_id":"levelo_inurba_marseille","lat":43.29481,"lon":5.35832,"is_reserved":false,"is_disabled":false,"rental_uris":{"android":"levelo://app?vid=af02aa73-68b2-498b-ad6a-9a50456db18d","ios":"levelo://app?vid=af02aa73-68b2-498b-ad6a-9a50456db18d"},"vehicle_type_id":"4","last_reported":1748283213,"current_range_meters":8000,"station_id":"","pricing_plan_id":"cebpf4jnsgd1na2vs0mg"},{"bike_id":"dabc077c-bf8d-431d-a5ea-dcd441e9b7b1","system_id":"levelo_inurba_marseille","lat":43.24892,"lon":5.39731,"is_reserved":false,"is_disabled":false,"rental_uris":{"android":"levelo://app?vid=dabc077c-bf8d-431d-a5ea-dcd441e9b7b1","ios":"levelo://app?vid=dabc077c-bf8d-431d-a5ea-dcd441e9b7b1"},"vehicle_type_id":"4","last_reported":1748283213,"current_range_meters":8000,"station_id":"","pricing_plan_id":"cebpf4jnsgd1na2vs0mg"},{"bike_id":"a0b13f1d-d58b-4847-a082-e8e5db62999e","system_id":"levelo_inurba_marseille","lat":43.30139,"lon":5.38767,"is_reserved":false,"is_disabled":false,"rental_uris":{"android":"levelo://app?vid=a0b13f1d-d58b-4847-a082-e8e5db62999e","ios":"levelo://app?vid=a0b13f1d-d58b-4847-a082-e8e5db62999e"},"vehicle_type_id":"4","last_reported":1748283213,"current_range_meters":8000,"station_id":"ce4bghh2rcd13ifvqb60","pricing_plan_id":"cebpf4jnsgd1na2vs0mg"},{"bike_id":"1b1bab21-37f3-4bfa-985c-f8093da0db87","system_id":"levelo_inurba_marseille","lat":43.30326,"lon":5.40446,"is_reserved":false,"is_disabled":false,"rental_uris":{"android":"levelo://app?vid=1b1bab21-37f3-4bfa-985c-f8093da0db87","ios":"levelo://app?vid=1b1bab21-37f3-4bfa-985c-f8093da0db87"},"vehicle_type_id":"4","last_reported":1748283213,"current_range_meters":8000,"station_id":"ce4bh012rcd13ifvqd10","pricing_plan_id":"cebpf4jnsgd1na2vs0mg"},{"bike_id":"e9496718-b841-4999-823d-28c5bee5d6f1","system_id":"levelo_inurba_marseille","lat":43.26544,"lon":5.39004,"is_reserved":false,"is_disabled":false,"rental_uris":{"android":"levelo://app?vid=e9496718-b841-4999-823d-28c5bee5d6f1","ios":"levelo://app?vid=e9496718-b841-4999-823d-28c5bee5d6f1"},"vehicle_type_id":"4","last_reported":1748283213,"current_range_meters":8000,"station_id":"ce4bhe12rcd13ifvqf30","pricing_plan_id":"cebpf4jnsgd1na2vs0mg"},{"bike_id":"190b4e7f-8c19-4594-a55b-6ee5c67f377e","system_id":"levelo_inurba_marseille","lat":43.26026,"lon":5.3755,"is_reserved":false,"is_disabled":false,"rental_uris":{"android":"levelo://app?vid=190b4e7f-8c19-4594-a55b-6ee5c67f377e","ios":"levelo://app?vid=190b4e7f-8c19-4594-a55b-6ee5c67f377e"},"vehicle_type_id":"4","last_reported":1748283213,"current_range_meters":8000,"station_id":"ce4bhgh2rcd13ifvqfa0","pricing_plan_id":"cebpf4jnsgd1na2vs0mg"},{"bike_id":"e5e036d5-91cd-41ca-916e-a86d296a6267","system_id":"levelo_inurba_marseille","lat":43.255759,"lon":5.38238,"is_reserved":false,"is_disabled":false,"rental_uris":{"android":"levelo://app?vid=e5e036d5-91cd-41ca-916e-a86d296a6267","ios":"levelo://app?vid=e5e036d5-91cd-41ca-916e-a86d296a6267"},"vehicle_type_id":"4","last_reported":1748283213,"current_range_meters":8000,"station_id":"ce4bhih2rcd13ifvqfs0","pricing_plan_id":"cebpf4jnsgd1na2vs0mg"},{"bike_id":"e1a05f52-41b6-4905-a906-7e3ecbe8ddfd","system_id":"levelo_inurba_marseille","lat":43.251103,"lon":5.403227,"is_reserved":false,"is_disabled":false,"rental_uris":{"android":"levelo://app?vid=e1a05f52-41b6-4905-a906-7e3ecbe8ddfd","ios":"levelo://app?vid=e1a05f52-41b6-4905-a906-7e3ecbe8ddfd"},"vehicle_type_id":"4","last_reported":1748283213,"current_range_meters":8000,"station_id":"ce4bhlh2rcd13ifvqgig","pricing_plan_id":"cebpf4jnsgd1na2vs0mg"},{"bike_id":"02df8f1c-f2fa-44e6-b542-2b07f6d8c528","system_id":"levelo_inurba_marseille","lat":43.28075,"lon":5.39654,"is_reserved":false,"is_disabled":false,"rental_uris":{"android":"levelo://app?vid=02df8f1c-f2fa-44e6-b542-2b07f6d8c528","ios":"levelo://app?vid=02df8f1c-f2fa-44e6-b542-2b07f6d8c528"},"vehicle_type_id":"4","last_reported":1748283213,"current_range_meters":8000,"station_id":"ce4bho12rcd13ifvqh2g","pricing_plan_id":"cebpf4jnsgd1na2vs0mg"},{"bike_id":"cf194408-e44f-4ff4-9685-66efb8a79c3d","system_id":"levelo_inurba_marseille","lat":43.241717,"lon":5.363903,"is_reserved":false,"is_disabled":false,"rental_uris":{"android":"levelo://app?vid=cf194408-e44f-4ff4-9685-66efb8a79c3d","ios":"levelo://app?vid=cf194408-e44f-4ff4-9685-66efb8a79c3d"},"vehicle_type_id":"4","last_reported":1748283213,"current_range_meters":8000,"station_id":"cpo36qri1sfpv3e86is0","pricing_plan_id":"cebpf4jnsgd1na2vs0mg"},{"bike_id":"6b1e6fdc-6d53-4f01-a1fa-6638d227094f","system_id":"levelo_inurba_marseille","lat":43.24666,"lon":5.38159,"is_reserved":false,"is_disabled":false,"rental_uris":{"android":"levelo://app?vid=6b1e6fdc-6d53-4f01-a1fa-6638d227094f","ios":"levelo://app?vid=6b1e6fdc-6d53-4f01-a1fa-6638d227094f"},"vehicle_type_id":"4","last_reported":1748283213,"current_range_meters":8400,"station_id":"","pricing_plan_id":"cebpf4jnsgd1na2vs0mg"},{"bike_id":"d328b393-4635-4ce9-afd2-e36f2a11611e","system_id":"levelo_inurba_marseille","lat":43.26021,"lon":5.41741,"is_reserved":false,"is_disabled":false,"rental_uris":{"android":"levelo://app?vid=d328b393-4635-4ce9-afd2-e36f2a11611e","ios":"levelo://app?vid=d328b393-4635-4ce9-afd2-e36f2a11611e"},"vehicle_type_id":"4","last_reported":1748283213,"current_range_meters":8400,"station_id":"","pricing_plan_id":"cebpf4jnsgd1na2vs0mg"},{"bike_id":"b8a416ce-e7d1-4481-b4fb-29bc7829425f","system_id":"levelo_inurba_marseille","lat":43.29881,"lon":5.39727,"is_reserved":false,"is_disabled":false,"rental_uris":{"android":"levelo://app?vid=b8a416ce-e7d1-4481-b4fb-29bc7829425f","ios":"levelo://app?vid=b8a416ce-e7d1-4481-b4fb-29bc7829425f"},"vehicle_type_id":"4","last_reported":1748283213,"current_range_meters":8400,"station_id":"ce4bh0h2rcd13ifvqd50","pricing_plan_id":"cebpf4jnsgd1na2vs0mg"},{"bike_id":"09f80947-41ba-41c4-8da9-0363dac5f050","system_id":"levelo_inurba_marseille","lat":43.28409,"lon":5.37511,"is_reserved":false,"is_disabled":false,"rental_uris":{"android":"levelo://app?vid=09f80947-41ba-41c4-8da9-0363dac5f050","ios":"levelo://app?vid=09f80947-41ba-41c4-8da9-0363dac5f050"},"vehicle_type_id":"4","last_reported":1748283213,"current_range_meters":8400,"station_id":"ce4bh412rcd13ifvqds0","pricing_plan_id":"cebpf4jnsgd1na2vs0mg"},{"bike_id":"0aa7a9c7-4985-4484-8767-4009cf0eace8","system_id":"levelo_inurba_marseille","lat":43.280365,"lon":5.369472,"is_reserved":false,"is_disabled":false,"rental_uris":{"android":"levelo://app?vid=0aa7a9c7-4985-4484-8767-4009cf0eace8","ios":"levelo://app?vid=0aa7a9c7-4985-4484-8767-4009cf0eace8"},"vehicle_type_id":"4","last_reported":1748283213,"current_range_meters":8400,"station_id":"ce4bha12rcd13ifvqef0","pricing_plan_id":"cebpf4jnsgd1na2vs0mg"},{"bike_id":"4cb9ccdb-4a1d-4a30-9caa-5cabd26c28f9","system_id":"levelo_inurba_marseille","lat":43.24178,"lon":5.39733,"is_reserved":false,"is_disabled":false,"rental_uris":{"android":"levelo://app?vid=4cb9ccdb-4a1d-4a30-9caa-5cabd26c28f9","ios":"levelo://app?vid=4cb9ccdb-4a1d-4a30-9caa-5cabd26c28f9"},"vehicle_type_id":"4","last_reported":1748283213,"current_range_meters":8400,"station_id":"ce4bhn12rcd13ifvqgpg","pricing_plan_id":"cebpf4jnsgd1na2vs0mg"},{"bike_id":"f8df2e97-c68d-41bd-945a-99495cf612d7","system_id":"levelo_inurba_marseille","lat":43.23197,"lon":5.39987,"is_reserved":false,"is_disabled":false,"rental_uris":{"android":"levelo://app?vid=f8df2e97-c68d-41bd-945a-99495cf612d7","ios":"levelo://app?vid=f8df2e97-c68d-41bd-945a-99495cf612d7"},"vehicle_type_id":"4","last_reported":1748283213,"current_range_meters":8400,"station_id":"ce4bhn12rcd13ifvqgqg","pricing_plan_id":"cebpf4jnsgd1na2vs0mg"},{"bike_id":"d8359cc8-4590-4e8a-afe4-742c5f07927c","system_id":"levelo_inurba_marseille","lat":43.325112,"lon":5.414768,"is_reserved":false,"is_disabled":false,"rental_uris":{"android":"levelo://app?vid=d8359cc8-4590-4e8a-afe4-742c5f07927c","ios":"levelo://app?vid=d8359cc8-4590-4e8a-afe4-742c5f07927c"},"vehicle_type_id":"4","last_reported":1748283213,"current_range_meters":8400,"station_id":"ce4bhq12rcd13ifvqhhg","pricing_plan_id":"cebpf4jnsgd1na2vs0mg"},{"bike_id":"6118e291-5626-43e6-ac1f-560e7bbc3b11","system_id":"levelo_inurba_marseille","lat":43.3228,"lon":5.38284,"is_reserved":false,"is_disabled":false,"rental_uris":{"android":"levelo://app?vid=6118e291-5626-43e6-ac1f-560e7bbc3b11","ios":"levelo://app?vid=6118e291-5626-43e6-ac1f-560e7bbc3b11"},"vehicle_type_id":"4","last_reported":1748283213,"current_range_meters":8400,"station_id":"ce4bhr12rcd13ifvqhqg","pricing_plan_id":"cebpf4jnsgd1na2vs0mg"},{"bike_id":"fc56555b-396d-4667-b896-0ad86036e39e","system_id":"levelo_inurba_marseille","lat":43.25915,"lon":5.38031,"is_reserved":false,"is_disabled":false,"rental_uris":{"android":"levelo://app?vid=fc56555b-396d-4667-b896-0ad86036e39e","ios":"levelo://app?vid=fc56555b-396d-4667-b896-0ad86036e39e"},"vehicle_type_id":"4","last_reported":1748283213,"current_range_meters":8800,"station_id":"","pricing_plan_id":"cebpf4jnsgd1na2vs0mg"},{"bike_id":"a4aef2b9-b7e8-4e2d-8340-592d28bc6c85","system_id":"levelo_inurba_marseille","lat":43.337654,"lon":5.37434,"is_reserved":false,"is_disabled":false,"rental_uris":{"android":"levelo://app?vid=a4aef2b9-b7e8-4e2d-8340-592d28bc6c85","ios":"levelo://app?vid=a4aef2b9-b7e8-4e2d-8340-592d28bc6c85"},"vehicle_type_id":"4","last_reported":1748283213,"current_range_meters":8800,"station_id":"","pricing_plan_id":"cebpf4jnsgd1na2vs0mg"},{"bike_id":"efd698cb-2450-498f-9f0b-bfc662548e61","system_id":"levelo_inurba_marseille","lat":43.26558,"lon":5.403262,"is_reserved":false,"is_disabled":false,"rental_uris":{"android":"levelo://app?vid=efd698cb-2450-498f-9f0b-bfc662548e61","ios":"levelo://app?vid=efd698cb-2450-498f-9f0b-bfc662548e61"},"vehicle_type_id":"4","last_reported":1748283213,"current_range_meters":8800,"station_id":"","pricing_plan_id":"cebpf4jnsgd1na2vs0mg"},{"bike_id":"87e93ea2-9f64-4ee5-add1-b424472d823c","system_id":"levelo_inurba_marseille","lat":43.29199,"lon":5.3931,"is_reserved":false,"is_disabled":false,"rental_uris":{"android":"levelo://app?vid=87e93ea2-9f64-4ee5-add1-b424472d823c","ios":"levelo://app?vid=87e93ea2-9f64-4ee5-add1-b424472d823c"},"vehicle_type_id":"4","last_reported":1748283213,"current_range_meters":8800,"station_id":"ce4bh192rcd13ifvqdd0","pricing_plan_id":"cebpf4jnsgd1na2vs0mg"},{"bike_id":"9b279bc6-2604-424f-abde-732dd4aa26f0","system_id":"levelo_inurba_marseille","lat":43.24389,"lon":5.37061,"is_reserved":false,"is_disabled":false,"rental_uris":{"android":"levelo://app?vid=9b279bc6-2604-424f-abde-732dd4aa26f0","ios":"levelo://app?vid=9b279bc6-2604-424f-abde-732dd4aa26f0"},"vehicle_type_id":"4","last_reported":1748283213,"current_range_meters":8800,"station_id":"ce4bhhh2rcd13ifvqfk0","pricing_plan_id":"cebpf4jnsgd1na2vs0mg"},{"bike_id":"9db12a7c-f305-4021-ace1-ab46a8630b4c","system_id":"levelo_inurba_marseille","lat":43.24655,"lon":5.38164,"is_reserved":false,"is_disabled":false,"rental_uris":{"android":"levelo://app?vid=9db12a7c-f305-4021-ace1-ab46a8630b4c","ios":"levelo://app?vid=9db12a7c-f305-4021-ace1-ab46a8630b4c"},"vehicle_type_id":"4","last_reported":1748283213,"current_range_meters":8800,"station_id":"ce4bhih2rcd13ifvqfr0","pricing_plan_id":"cebpf4jnsgd1na2vs0mg"},{"bike_id":"6dab6c0c-61a2-4782-bde2-909445c0c07b","system_id":"levelo_inurba_marseille","lat":43.25938,"lon":5.40914,"is_reserved":false,"is_disabled":false,"rental_uris":{"android":"levelo://app?vid=6dab6c0c-61a2-4782-bde2-909445c0c07b","ios":"levelo://app?vid=6dab6c0c-61a2-4782-bde2-909445c0c07b"},"vehicle_type_id":"4","last_reported":1748283213,"current_range_meters":8800,"station_id":"ce4bhm92rcd13ifvqglg","pricing_plan_id":"cebpf4jnsgd1na2vs0mg"},{"bike_id":"8738710a-eb6a-499c-b366-0a46905a3c2e","system_id":"levelo_inurba_marseille","lat":43.27994,"lon":5.40007,"is_reserved":false,"is_disabled":false,"rental_uris":{"android":"levelo://app?vid=8738710a-eb6a-499c-b366-0a46905a3c2e","ios":"levelo://app?vid=8738710a-eb6a-499c-b366-0a46905a3c2e"},"vehicle_type_id":"4","last_reported":1748283213,"current_range_meters":8800,"station_id":"ce4bho92rcd13ifvqh4g","pricing_plan_id":"cebpf4jnsgd1na2vs0mg"},{"bike_id":"517b76cb-f5d2-41d1-a63d-139a113f9aa8","system_id":"levelo_inurba_marseille","lat":43.283521,"lon":5.381008,"is_reserved":false,"is_disabled":false,"rental_uris":{"android":"levelo://app?vid=517b76cb-f5d2-41d1-a63d-139a113f9aa8","ios":"levelo://app?vid=517b76cb-f5d2-41d1-a63d-139a113f9aa8"},"vehicle_type_id":"4","last_reported":1748283213,"current_range_meters":9200,"station_id":"","pricing_plan_id":"cebpf4jnsgd1na2vs0mg"},{"bike_id":"9123ece4-73b1-461a-ba67-6e77719d38ff","system_id":"levelo_inurba_marseille","lat":43.3013,"lon":5.38778,"is_reserved":false,"is_disabled":false,"rental_uris":{"android":"levelo://app?vid=9123ece4-73b1-461a-ba67-6e77719d38ff","ios":"levelo://app?vid=9123ece4-73b1-461a-ba67-6e77719d38ff"},"vehicle_type_id":"4","last_reported":1748283213,"current_range_meters":9200,"station_id":"ce4bghh2rcd13ifvqb60","pricing_plan_id":"cebpf4jnsgd1na2vs0mg"},{"bike_id":"ba7c406c-660d-4810-bd9a-42301248dc53","system_id":"levelo_inurba_marseille","lat":43.30195,"lon":5.36622,"is_reserved":false,"is_disabled":false,"rental_uris":{"android":"levelo://app?vid=ba7c406c-660d-4810-bd9a-42301248dc53","ios":"levelo://app?vid=ba7c406c-660d-4810-bd9a-42301248dc53"},"vehicle_type_id":"4","last_reported":1748283213,"current_range_meters":9200,"station_id":"ce4bgrh2rcd13ifvqc8g","pricing_plan_id":"cebpf4jnsgd1na2vs0mg"},{"bike_id":"c185ea79-8e13-4878-b80c-11c83617757c","system_id":"levelo_inurba_marseille","lat":43.31374,"lon":5.38504,"is_reserved":false,"is_disabled":false,"rental_uris":{"android":"levelo://app?vid=c185ea79-8e13-4878-b80c-11c83617757c","ios":"levelo://app?vid=c185ea79-8e13-4878-b80c-11c83617757c"},"vehicle_type_id":"4","last_reported":1748283213,"current_range_meters":9200,"station_id":"ce4bgt92rcd13ifvqcf0","pricing_plan_id":"cebpf4jnsgd1na2vs0mg"},{"bike_id":"1e21139e-b570-47f5-b884-28406cfb8560","system_id":"levelo_inurba_marseille","lat":43.29422,"lon":5.38622,"is_reserved":false,"is_disabled":false,"rental_uris":{"android":"levelo://app?vid=1e21139e-b570-47f5-b884-28406cfb8560","ios":"levelo://app?vid=1e21139e-b570-47f5-b884-28406cfb8560"},"vehicle_type_id":"4","last_reported":1748283213,"current_range_meters":9200,"station_id":"ce4bh2h2rcd13ifvqdh0","pricing_plan_id":"cebpf4jnsgd1na2vs0mg"},{"bike_id":"d1e3b115-e032-4cc7-bf1d-32c1143a5baa","system_id":"levelo_inurba_marseille","lat":43.28922,"lon":5.38398,"is_reserved":false,"is_disabled":false,"rental_uris":{"android":"levelo://app?vid=d1e3b115-e032-4cc7-bf1d-32c1143a5baa","ios":"levelo://app?vid=d1e3b115-e032-4cc7-bf1d-32c1143a5baa"},"vehicle_type_id":"4","last_reported":1748283213,"current_range_meters":9200,"station_id":"ce4bh612rcd13ifvqe6g","pricing_plan_id":"cebpf4jnsgd1na2vs0mg"},{"bike_id":"d9e198c8-ab07-4277-8145-77e1f6d12383","system_id":"levelo_inurba_marseille","lat":43.26211,"lon":5.37444,"is_reserved":false,"is_disabled":false,"rental_uris":{"android":"levelo://app?vid=d9e198c8-ab07-4277-8145-77e1f6d12383","ios":"levelo://app?vid=d9e198c8-ab07-4277-8145-77e1f6d12383"},"vehicle_type_id":"4","last_reported":1748283213,"current_range_meters":9200,"station_id":"ce4bhgp2rcd13ifvqfc0","pricing_plan_id":"cebpf4jnsgd1na2vs0mg"},{"bike_id":"1cd94d4a-0ad1-418a-bf7f-c1ae80d4112b","system_id":"levelo_inurba_marseille","lat":43.23964,"lon":5.36627,"is_reserved":false,"is_disabled":false,"rental_uris":{"android":"levelo://app?vid=1cd94d4a-0ad1-418a-bf7f-c1ae80d4112b","ios":"levelo://app?vid=1cd94d4a-0ad1-418a-bf7f-c1ae80d4112b"},"vehicle_type_id":"4","last_reported":1748283213,"current_range_meters":9200,"station_id":"ce4bhi12rcd13ifvqfp0","pricing_plan_id":"cebpf4jnsgd1na2vs0mg"},{"bike_id":"a70f517f-c4e8-4bf2-95cb-85cb5c3f2caa","system_id":"levelo_inurba_marseille","lat":43.27493,"lon":5.42447,"is_reserved":false,"is_disabled":false,"rental_uris":{"android":"levelo://app?vid=a70f517f-c4e8-4bf2-95cb-85cb5c3f2caa","ios":"levelo://app?vid=a70f517f-c4e8-4bf2-95cb-85cb5c3f2caa"},"vehicle_type_id":"4","last_reported":1748283213,"current_range_meters":9200,"station_id":"ce4bhn92rcd13ifvqgrg","pricing_plan_id":"cebpf4jnsgd1na2vs0mg"},{"bike_id":"755099d0-d77b-4fc5-a6f3-ef8634799310","system_id":"levelo_inurba_marseille","lat":43.21753,"lon":5.34588,"is_reserved":false,"is_disabled":false,"rental_uris":{"android":"levelo://app?vid=755099d0-d77b-4fc5-a6f3-ef8634799310","ios":"levelo://app?vid=755099d0-d77b-4fc5-a6f3-ef8634799310"},"vehicle_type_id":"4","last_reported":1748283213,"current_range_meters":9200,"station_id":"st_cvj6r9ubvosntc0bgbag","pricing_plan_id":"cebpf4jnsgd1na2vs0mg"},{"bike_id":"b744080c-dd77-486d-9609-00c9cf60c1ad","system_id":"levelo_inurba_marseille","lat":43.236289,"lon":5.391889,"is_reserved":false,"is_disabled":false,"rental_uris":{"android":"levelo://app?vid=b744080c-dd77-486d-9609-00c9cf60c1ad","ios":"levelo://app?vid=b744080c-dd77-486d-9609-00c9cf60c1ad"},"vehicle_type_id":"4","last_reported":1748283213,"current_range_meters":9600,"station_id":"","pricing_plan_id":"cebpf4jnsgd1na2vs0mg"},{"bike_id":"6a4612f8-d511-472f-9784-e69bac545256","system_id":"levelo_inurba_marseille","lat":43.29008,"lon":5.36641,"is_reserved":false,"is_disabled":false,"rental_uris":{"android":"levelo://app?vid=6a4612f8-d511-472f-9784-e69bac545256","ios":"levelo://app?vid=6a4612f8-d511-472f-9784-e69bac545256"},"vehicle_type_id":"4","last_reported":1748283213,"current_range_meters":9600,"station_id":"","pricing_plan_id":"cebpf4jnsgd1na2vs0mg"},{"bike_id":"5cb86f28-c0eb-4953-b066-f91dd9420135","system_id":"levelo_inurba_marseille","lat":43.3107,"lon":5.38343,"is_reserved":false,"is_disabled":false,"rental_uris":{"android":"levelo://app?vid=5cb86f28-c0eb-4953-b066-f91dd9420135","ios":"levelo://app?vid=5cb86f28-c0eb-4953-b066-f91dd9420135"},"vehicle_type_id":"4","last_reported":1748283213,"current_range_meters":9600,"station_id":"ce4bgv92rcd13ifvqcr0","pricing_plan_id":"cebpf4jnsgd1na2vs0mg"},{"bike_id":"e3392b61-347c-4f5f-806f-0a6d6fe7a391","system_id":"levelo_inurba_marseille","lat":43.282351,"lon":5.350815,"is_reserved":false,"is_disabled":false,"rental_uris":{"android":"levelo://app?vid=e3392b61-347c-4f5f-806f-0a6d6fe7a391","ios":"levelo://app?vid=e3392b61-347c-4f5f-806f-0a6d6fe7a391"},"vehicle_type_id":"4","last_reported":1748283213,"current_range_meters":9600,"station_id":"ce4bhah2rcd13ifvqei0","pricing_plan_id":"cebpf4jnsgd1na2vs0mg"},{"bike_id":"cdd31df2-29f3-4be6-85a3-15f707379932","system_id":"levelo_inurba_marseille","lat":43.26026,"lon":5.37549,"is_reserved":false,"is_disabled":false,"rental_uris":{"android":"levelo://app?vid=cdd31df2-29f3-4be6-85a3-15f707379932","ios":"levelo://app?vid=cdd31df2-29f3-4be6-85a3-15f707379932"},"vehicle_type_id":"4","last_reported":1748283213,"current_range_meters":9600,"station_id":"ce4bhgh2rcd13ifvqfa0","pricing_plan_id":"cebpf4jnsgd1na2vs0mg"},{"bike_id":"fa4db432-72c8-4f57-8e49-99a768fb1fe0","system_id":"levelo_inurba_marseille","lat":43.27558,"lon":5.38428,"is_reserved":false,"is_disabled":false,"rental_uris":{"android":"levelo://app?vid=fa4db432-72c8-4f57-8e49-99a768fb1fe0","ios":"levelo://app?vid=fa4db432-72c8-4f57-8e49-99a768fb1fe0"},"vehicle_type_id":"4","last_reported":1748283213,"current_range_meters":9600,"station_id":"ce4bhh92rcd13ifvqfi0","pricing_plan_id":"cebpf4jnsgd1na2vs0mg"},{"bike_id":"e0c25e07-4c7a-4f3c-b21c-026342f4ce53","system_id":"levelo_inurba_marseille","lat":43.23955,"lon":5.36638,"is_reserved":false,"is_disabled":false,"rental_uris":{"android":"levelo://app?vid=e0c25e07-4c7a-4f3c-b21c-026342f4ce53","ios":"levelo://app?vid=e0c25e07-4c7a-4f3c-b21c-026342f4ce53"},"vehicle_type_id":"4","last_reported":1748283213,"current_range_meters":9600,"station_id":"ce4bhi12rcd13ifvqfp0","pricing_plan_id":"cebpf4jnsgd1na2vs0mg"},{"bike_id":"761918e0-d6a0-4f40-96ce-babda69bc7f4","system_id":"levelo_inurba_marseille","lat":43.22941,"lon":5.35381,"is_reserved":false,"is_disabled":false,"rental_uris":{"android":"levelo://app?vid=761918e0-d6a0-4f40-96ce-babda69bc7f4","ios":"levelo://app?vid=761918e0-d6a0-4f40-96ce-babda69bc7f4"},"vehicle_type_id":"4","last_reported":1748283213,"current_range_meters":9600,"station_id":"cpo3532slgdg3j2ikp40","pricing_plan_id":"cebpf4jnsgd1na2vs0mg"},{"bike_id":"105849da-5a2f-4eda-9c36-1906963bc3d4","system_id":"levelo_inurba_marseille","lat":43.26559,"lon":5.40324,"is_reserved":false,"is_disabled":false,"rental_uris":{"android":"levelo://app?vid=105849da-5a2f-4eda-9c36-1906963bc3d4","ios":"levelo://app?vid=105849da-5a2f-4eda-9c36-1906963bc3d4"},"vehicle_type_id":"4","last_reported":1748283213,"current_range_meters":10000,"station_id":"","pricing_plan_id":"cebpf4jnsgd1na2vs0mg"},{"bike_id":"016f5009-610f-4466-8eee-78060d187960","system_id":"levelo_inurba_marseille","lat":43.28616,"lon":5.35099,"is_reserved":false,"is_disabled":false,"rental_uris":{"android":"levelo://app?vid=016f5009-610f-4466-8eee-78060d187960","ios":"levelo://app?vid=016f5009-610f-4466-8eee-78060d187960"},"vehicle_type_id":"4","last_reported":1748283213,"current_range_meters":10000,"station_id":"ce4bhch2rcd13ifvqeug","pricing_plan_id":"cebpf4jnsgd1na2vs0mg"},{"bike_id":"e3ca188a-03d8-490d-a49d-09a17dc07dc1","system_id":"levelo_inurba_marseille","lat":43.24649,"lon":5.38899,"is_reserved":false,"is_disabled":false,"rental_uris":{"android":"levelo://app?vid=e3ca188a-03d8-490d-a49d-09a17dc07dc1","ios":"levelo://app?vid=e3ca188a-03d8-490d-a49d-09a17dc07dc1"},"vehicle_type_id":"4","last_reported":1748283213,"current_range_meters":10000,"station_id":"ce4bhg12rcd13ifvqf60","pricing_plan_id":"cebpf4jnsgd1na2vs0mg"},{"bike_id":"b92c5ab3-58da-48e6-a472-b396542d4017","system_id":"levelo_inurba_marseille","lat":43.25491,"lon":5.37612,"is_reserved":false,"is_disabled":false,"rental_uris":{"android":"levelo://app?vid=b92c5ab3-58da-48e6-a472-b396542d4017","ios":"levelo://app?vid=b92c5ab3-58da-48e6-a472-b396542d4017"},"vehicle_type_id":"4","last_reported":1748283213,"current_range_meters":10000,"station_id":"ce4bhh12rcd13ifvqff0","pricing_plan_id":"cebpf4jnsgd1na2vs0mg"},{"bike_id":"095b4901-d697-46ba-8c2d-4d8f866868d9","system_id":"levelo_inurba_marseille","lat":43.29903,"lon":5.43666,"is_reserved":false,"is_disabled":false,"rental_uris":{"android":"levelo://app?vid=095b4901-d697-46ba-8c2d-4d8f866868d9","ios":"levelo://app?vid=095b4901-d697-46ba-8c2d-4d8f866868d9"},"vehicle_type_id":"4","last_reported":1748283213,"current_range_meters":10000,"station_id":"ce4bhpp2rcd13ifvqhfg","pricing_plan_id":"cebpf4jnsgd1na2vs0mg"},{"bike_id":"dc14c348-e737-4600-a44a-ad35f765402b","system_id":"levelo_inurba_marseille","lat":43.30896,"lon":5.39678,"is_reserved":false,"is_disabled":false,"rental_uris":{"android":"levelo://app?vid=dc14c348-e737-4600-a44a-ad35f765402b","ios":"levelo://app?vid=dc14c348-e737-4600-a44a-ad35f765402b"},"vehicle_type_id":"4","last_reported":1748283213,"current_range_meters":10800,"station_id":"ce4bh012rcd13ifvqcv0","pricing_plan_id":"cebpf4jnsgd1na2vs0mg"},{"bike_id":"4661e59f-4017-457b-8d40-084f59302350","system_id":"levelo_inurba_marseille","lat":43.23189,"lon":5.39985,"is_reserved":false,"is_disabled":false,"rental_uris":{"android":"levelo://app?vid=4661e59f-4017-457b-8d40-084f59302350","ios":"levelo://app?vid=4661e59f-4017-457b-8d40-084f59302350"},"vehicle_type_id":"4","last_reported":1748283213,"current_range_meters":10800,"station_id":"ce4bhn12rcd13ifvqgqg","pricing_plan_id":"cebpf4jnsgd1na2vs0mg"},{"bike_id":"665c5819-fd88-4c0b-95b6-9a4273210575","system_id":"levelo_inurba_marseille","lat":43.27952,"lon":5.41036,"is_reserved":false,"is_disabled":false,"rental_uris":{"android":"levelo://app?vid=665c5819-fd88-4c0b-95b6-9a4273210575","ios":"levelo://app?vid=665c5819-fd88-4c0b-95b6-9a4273210575"},"vehicle_type_id":"4","last_reported":1748283213,"current_range_meters":10800,"station_id":"ce4bhnp2rcd13ifvqh0g","pricing_plan_id":"cebpf4jnsgd1na2vs0mg"},{"bike_id":"1595f793-bba1-4147-9a6c-f3e65f014358","system_id":"levelo_inurba_marseille","lat":43.290253,"lon":5.386487,"is_reserved":false,"is_disabled":false,"rental_uris":{"android":"levelo://app?vid=1595f793-bba1-4147-9a6c-f3e65f014358","ios":"levelo://app?vid=1595f793-bba1-4147-9a6c-f3e65f014358"},"vehicle_type_id":"4","last_reported":1748283213,"current_range_meters":11200,"station_id":"ce4bh4p2rcd13ifvqe0g","pricing_plan_id":"cebpf4jnsgd1na2vs0mg"},{"bike_id":"b34e8ec6-7485-439d-99cb-8686af8f676d","system_id":"levelo_inurba_marseille","lat":43.28931,"lon":5.36634,"is_reserved":false,"is_disabled":false,"rental_uris":{"android":"levelo://app?vid=b34e8ec6-7485-439d-99cb-8686af8f676d","ios":"levelo://app?vid=b34e8ec6-7485-439d-99cb-8686af8f676d"},"vehicle_type_id":"4","last_reported":1748283213,"current_range_meters":11200,"station_id":"ce4bhap2rcd13ifvqek0","pricing_plan_id":"cebpf4jnsgd1na2vs0mg"},{"bike_id":"ae6e6868-2635-4f49-b7c1-b03759c58ec7","system_id":"levelo_inurba_marseille","lat":43.2731,"lon":5.41578,"is_reserved":false,"is_disabled":false,"rental_uris":{"android":"levelo://app?vid=ae6e6868-2635-4f49-b7c1-b03759c58ec7","ios":"levelo://app?vid=ae6e6868-2635-4f49-b7c1-b03759c58ec7"},"vehicle_type_id":"4","last_reported":1748283213,"current_range_meters":11600,"station_id":"","pricing_plan_id":"cebpf4jnsgd1na2vs0mg"},{"bike_id":"34fff8c5-a201-414f-b7a4-b52d5144c306","system_id":"levelo_inurba_marseille","lat":43.254969,"lon":5.37649,"is_reserved":false,"is_disabled":false,"rental_uris":{"android":"levelo://app?vid=34fff8c5-a201-414f-b7a4-b52d5144c306","ios":"levelo://app?vid=34fff8c5-a201-414f-b7a4-b52d5144c306"},"vehicle_type_id":"4","last_reported":1748283213,"current_range_meters":11600,"station_id":"","pricing_plan_id":"cebpf4jnsgd1na2vs0mg"},{"bike_id":"b9af30b4-3448-4fe5-bf0b-b43b3fd99315","system_id":"levelo_inurba_marseille","lat":43.29715,"lon":5.36614,"is_reserved":false,"is_disabled":false,"rental_uris":{"android":"levelo://app?vid=b9af30b4-3448-4fe5-bf0b-b43b3fd99315","ios":"levelo://app?vid=b9af30b4-3448-4fe5-bf0b-b43b3fd99315"},"vehicle_type_id":"4","last_reported":1748283213,"current_range_meters":11600,"station_id":"ce4bgn12rcd13ifvqbt0","pricing_plan_id":"cebpf4jnsgd1na2vs0mg"},{"bike_id":"ed7c79f0-c730-45e5-a644-de3c10db3919","system_id":"levelo_inurba_marseille","lat":43.31374,"lon":5.385,"is_reserved":false,"is_disabled":false,"rental_uris":{"android":"levelo://app?vid=ed7c79f0-c730-45e5-a644-de3c10db3919","ios":"levelo://app?vid=ed7c79f0-c730-45e5-a644-de3c10db3919"},"vehicle_type_id":"4","last_reported":1748283213,"current_range_meters":11600,"station_id":"ce4bgt92rcd13ifvqcf0","pricing_plan_id":"cebpf4jnsgd1na2vs0mg"},{"bike_id":"b191b5e5-57a9-49a5-a2b1-103b01a5a46b","system_id":"levelo_inurba_marseille","lat":43.28946,"lon":5.36638,"is_reserved":false,"is_disabled":false,"rental_uris":{"android":"levelo://app?vid=b191b5e5-57a9-49a5-a2b1-103b01a5a46b","ios":"levelo://app?vid=b191b5e5-57a9-49a5-a2b1-103b01a5a46b"},"vehicle_type_id":"4","last_reported":1748283213,"current_range_meters":11600,"station_id":"ce4bhap2rcd13ifvqek0","pricing_plan_id":"cebpf4jnsgd1na2vs0mg"},{"bike_id":"713b17ce-2a34-496e-afc3-b779233c755e","system_id":"levelo_inurba_marseille","lat":43.2885,"lon":5.35844,"is_reserved":false,"is_disabled":false,"rental_uris":{"android":"levelo://app?vid=713b17ce-2a34-496e-afc3-b779233c755e","ios":"levelo://app?vid=713b17ce-2a34-496e-afc3-b779233c755e"},"vehicle_type_id":"4","last_reported":1748283213,"current_range_meters":11600,"station_id":"ce4bhb12rcd13ifvqem0","pricing_plan_id":"cebpf4jnsgd1na2vs0mg"},{"bike_id":"10b19120-4ddc-4b40-86f1-7903b54c88a2","system_id":"levelo_inurba_marseille","lat":43.27909,"lon":5.39578,"is_reserved":false,"is_disabled":false,"rental_uris":{"android":"levelo://app?vid=10b19120-4ddc-4b40-86f1-7903b54c88a2","ios":"levelo://app?vid=10b19120-4ddc-4b40-86f1-7903b54c88a2"},"vehicle_type_id":"4","last_reported":1748283213,"current_range_meters":11600,"station_id":"ce4bhf92rcd13ifvqf40","pricing_plan_id":"cebpf4jnsgd1na2vs0mg"},{"bike_id":"5148f8b2-1ecb-4c76-b37d-928f8d5cde64","system_id":"levelo_inurba_marseille","lat":43.323216,"lon":5.367916,"is_reserved":false,"is_disabled":false,"rental_uris":{"android":"levelo://app?vid=5148f8b2-1ecb-4c76-b37d-928f8d5cde64","ios":"levelo://app?vid=5148f8b2-1ecb-4c76-b37d-928f8d5cde64"},"vehicle_type_id":"4","last_reported":1748283213,"current_range_meters":11600,"station_id":"ce4bhsh2rcd13ifvqi2g","pricing_plan_id":"cebpf4jnsgd1na2vs0mg"},{"bike_id":"703efa96-4975-49b1-b738-68b9a24613ed","system_id":"levelo_inurba_marseille","lat":43.30881,"lon":5.39654,"is_reserved":false,"is_disabled":false,"rental_uris":{"android":"levelo://app?vid=703efa96-4975-49b1-b738-68b9a24613ed","ios":"levelo://app?vid=703efa96-4975-49b1-b738-68b9a24613ed"},"vehicle_type_id":"4","last_reported":1748283213,"current_range_meters":12000,"station_id":"ce4bh012rcd13ifvqcv0","pricing_plan_id":"cebpf4jnsgd1na2vs0mg"},{"bike_id":"8e8d7bbc-5407-4ad4-8186-6de69817b122","system_id":"levelo_inurba_marseille","lat":43.28866,"lon":5.35844,"is_reserved":false,"is_disabled":false,"rental_uris":{"android":"levelo://app?vid=8e8d7bbc-5407-4ad4-8186-6de69817b122","ios":"levelo://app?vid=8e8d7bbc-5407-4ad4-8186-6de69817b122"},"vehicle_type_id":"4","last_reported":1748283213,"current_range_meters":12000,"station_id":"ce4bhb12rcd13ifvqem0","pricing_plan_id":"cebpf4jnsgd1na2vs0mg"},{"bike_id":"f94c4faa-bfa7-4cdb-b742-18afb4d58561","system_id":"levelo_inurba_marseille","lat":43.28426,"lon":5.34988,"is_reserved":false,"is_disabled":false,"rental_uris":{"android":"levelo://app?vid=f94c4faa-bfa7-4cdb-b742-18afb4d58561","ios":"levelo://app?vid=f94c4faa-bfa7-4cdb-b742-18afb4d58561"},"vehicle_type_id":"4","last_reported":1748283213,"current_range_meters":12000,"station_id":"ce4bhbh2rcd13ifvqepg","pricing_plan_id":"cebpf4jnsgd1na2vs0mg"},{"bike_id":"c22afc35-4ab4-4e86-b75e-bc3e591d9eac","system_id":"levelo_inurba_marseille","lat":43.24997,"lon":5.38934,"is_reserved":false,"is_disabled":false,"rental_uris":{"android":"levelo://app?vid=c22afc35-4ab4-4e86-b75e-bc3e591d9eac","ios":"levelo://app?vid=c22afc35-4ab4-4e86-b75e-bc3e591d9eac"},"vehicle_type_id":"4","last_reported":1748283213,"current_range_meters":12000,"station_id":"ce4bhgp2rcd13ifvqfd0","pricing_plan_id":"cebpf4jnsgd1na2vs0mg"},{"bike_id":"292af771-cb3d-4ca0-a424-c9012dc36893","system_id":"levelo_inurba_marseille","lat":43.26505,"lon":5.39533,"is_reserved":false,"is_disabled":false,"rental_uris":{"android":"levelo://app?vid=292af771-cb3d-4ca0-a424-c9012dc36893","ios":"levelo://app?vid=292af771-cb3d-4ca0-a424-c9012dc36893"},"vehicle_type_id":"4","last_reported":1748283213,"current_range_meters":12000,"station_id":"ce4bhi12rcd13ifvqfq0","pricing_plan_id":"cebpf4jnsgd1na2vs0mg"},{"bike_id":"6f8ff3fe-9bb4-4e82-9b38-3978b50af32a","system_id":"levelo_inurba_marseille","lat":43.25725,"lon":5.41118,"is_reserved":false,"is_disabled":false,"rental_uris":{"android":"levelo://app?vid=6f8ff3fe-9bb4-4e82-9b38-3978b50af32a","ios":"levelo://app?vid=6f8ff3fe-9bb4-4e82-9b38-3978b50af32a"},"vehicle_type_id":"4","last_reported":1748283213,"current_range_meters":12000,"station_id":"ce4bhkp2rcd13ifvqgd0","pricing_plan_id":"cebpf4jnsgd1na2vs0mg"},{"bike_id":"bb2cdf19-9333-4e3a-ad34-562f6e067f35","system_id":"levelo_inurba_marseille","lat":43.2509,"lon":5.39519,"is_reserved":false,"is_disabled":false,"rental_uris":{"android":"levelo://app?vid=bb2cdf19-9333-4e3a-ad34-562f6e067f35","ios":"levelo://app?vid=bb2cdf19-9333-4e3a-ad34-562f6e067f35"},"vehicle_type_id":"4","last_reported":1748283213,"current_range_meters":12000,"station_id":"ce4bhm12rcd13ifvqgkg","pricing_plan_id":"cebpf4jnsgd1na2vs0mg"},{"bike_id":"e9335050-386d-4c7d-b148-0f6185591d70","system_id":"levelo_inurba_marseille","lat":43.28155,"lon":5.42633,"is_reserved":false,"is_disabled":false,"rental_uris":{"android":"levelo://app?vid=e9335050-386d-4c7d-b148-0f6185591d70","ios":"levelo://app?vid=e9335050-386d-4c7d-b148-0f6185591d70"},"vehicle_type_id":"4","last_reported":1748283213,"current_range_meters":12000,"station_id":"ce4bhnh2rcd13ifvqgug","pricing_plan_id":"cebpf4jnsgd1na2vs0mg"},{"bike_id":"1a0998e5-8bb9-474f-a827-53cad24c9e8f","system_id":"levelo_inurba_marseille","lat":43.32043,"lon":5.44949,"is_reserved":false,"is_disabled":false,"rental_uris":{"android":"levelo://app?vid=1a0998e5-8bb9-474f-a827-53cad24c9e8f","ios":"levelo://app?vid=1a0998e5-8bb9-474f-a827-53cad24c9e8f"},"vehicle_type_id":"4","last_reported":1748283213,"current_range_meters":12400,"station_id":"","pricing_plan_id":"cebpf4jnsgd1na2vs0mg"},{"bike_id":"2b11c958-97d9-4807-b6f6-51cd0b20227e","system_id":"levelo_inurba_marseille","lat":43.31748,"lon":5.37263,"is_reserved":false,"is_disabled":false,"rental_uris":{"android":"levelo://app?vid=2b11c958-97d9-4807-b6f6-51cd0b20227e","ios":"levelo://app?vid=2b11c958-97d9-4807-b6f6-51cd0b20227e"},"vehicle_type_id":"4","last_reported":1748283213,"current_range_meters":12400,"station_id":"","pricing_plan_id":"cebpf4jnsgd1na2vs0mg"},{"bike_id":"8243e6fc-e320-4059-b250-a282e921ea3b","system_id":"levelo_inurba_marseille","lat":43.29973,"lon":5.38493,"is_reserved":false,"is_disabled":false,"rental_uris":{"android":"levelo://app?vid=8243e6fc-e320-4059-b250-a282e921ea3b","ios":"levelo://app?vid=8243e6fc-e320-4059-b250-a282e921ea3b"},"vehicle_type_id":"4","last_reported":1748283213,"current_range_meters":12400,"station_id":"ce4bgj92rcd13ifvqbd0","pricing_plan_id":"cebpf4jnsgd1na2vs0mg"},{"bike_id":"c3fcf503-2c49-4c01-b401-6b35ada3f59b","system_id":"levelo_inurba_marseille","lat":43.30299,"lon":5.39215,"is_reserved":false,"is_disabled":false,"rental_uris":{"android":"levelo://app?vid=c3fcf503-2c49-4c01-b401-6b35ada3f59b","ios":"levelo://app?vid=c3fcf503-2c49-4c01-b401-6b35ada3f59b"},"vehicle_type_id":"4","last_reported":1748283213,"current_range_meters":12400,"station_id":"ce4bgkh2rcd13ifvqbk0","pricing_plan_id":"cebpf4jnsgd1na2vs0mg"},{"bike_id":"22162bc2-30bf-45e2-a74f-669316d3a304","system_id":"levelo_inurba_marseille","lat":43.29809,"lon":5.40396,"is_reserved":false,"is_disabled":false,"rental_uris":{"android":"levelo://app?vid=22162bc2-30bf-45e2-a74f-669316d3a304","ios":"levelo://app?vid=22162bc2-30bf-45e2-a74f-669316d3a304"},"vehicle_type_id":"4","last_reported":1748283213,"current_range_meters":12400,"station_id":"ce4bh112rcd13ifvqd90","pricing_plan_id":"cebpf4jnsgd1na2vs0mg"},{"bike_id":"cf873593-679c-4235-882e-d30565fc33d1","system_id":"levelo_inurba_marseille","lat":43.28701,"lon":5.37397,"is_reserved":false,"is_disabled":false,"rental_uris":{"android":"levelo://app?vid=cf873593-679c-4235-882e-d30565fc33d1","ios":"levelo://app?vid=cf873593-679c-4235-882e-d30565fc33d1"},"vehicle_type_id":"4","last_reported":1748283213,"current_range_meters":12400,"station_id":"ce4bh3p2rcd13ifvqdq0","pricing_plan_id":"cebpf4jnsgd1na2vs0mg"},{"bike_id":"129fd6f2-750c-4584-aa84-e2119aafdfca","system_id":"levelo_inurba_marseille","lat":43.28418,"lon":5.34985,"is_reserved":false,"is_disabled":false,"rental_uris":{"android":"levelo://app?vid=129fd6f2-750c-4584-aa84-e2119aafdfca","ios":"levelo://app?vid=129fd6f2-750c-4584-aa84-e2119aafdfca"},"vehicle_type_id":"4","last_reported":1748283213,"current_range_meters":12400,"station_id":"ce4bhbh2rcd13ifvqepg","pricing_plan_id":"cebpf4jnsgd1na2vs0mg"},{"bike_id":"b2f38940-3a11-4b84-b51b-07c1311964cc","system_id":"levelo_inurba_marseille","lat":43.28151,"lon":5.42646,"is_reserved":false,"is_disabled":false,"rental_uris":{"android":"levelo://app?vid=b2f38940-3a11-4b84-b51b-07c1311964cc","ios":"levelo://app?vid=b2f38940-3a11-4b84-b51b-07c1311964cc"},"vehicle_type_id":"4","last_reported":1748283213,"current_range_meters":12400,"station_id":"ce4bhnh2rcd13ifvqgug","pricing_plan_id":"cebpf4jnsgd1na2vs0mg"},{"bike_id":"8a45606e-2096-4a22-88d7-26c191e9986d","system_id":"levelo_inurba_marseille","lat":43.33031,"lon":5.39052,"is_reserved":false,"is_disabled":false,"rental_uris":{"android":"levelo://app?vid=8a45606e-2096-4a22-88d7-26c191e9986d","ios":"levelo://app?vid=8a45606e-2096-4a22-88d7-26c191e9986d"},"vehicle_type_id":"4","last_reported":1748283213,"current_range_meters":12400,"station_id":"ce4bhr92rcd13ifvqhrg","pricing_plan_id":"cebpf4jnsgd1na2vs0mg"},{"bike_id":"b9cc60af-6f4b-4b6e-b6f7-2e3940d6cac7","system_id":"levelo_inurba_marseille","lat":43.28612,"lon":5.3706,"is_reserved":false,"is_disabled":false,"rental_uris":{"android":"levelo://app?vid=b9cc60af-6f4b-4b6e-b6f7-2e3940d6cac7","ios":"levelo://app?vid=b9cc60af-6f4b-4b6e-b6f7-2e3940d6cac7"},"vehicle_type_id":"4","last_reported":1748283213,"current_range_meters":12400,"station_id":"ce4bht12rcd13ifvqi60","pricing_plan_id":"cebpf4jnsgd1na2vs0mg"},{"bike_id":"a1ad37e9-65f1-44b3-b04a-e507016277ae","system_id":"levelo_inurba_marseille","lat":43.30927,"lon":5.40145,"is_reserved":false,"is_disabled":false,"rental_uris":{"android":"levelo://app?vid=a1ad37e9-65f1-44b3-b04a-e507016277ae","ios":"levelo://app?vid=a1ad37e9-65f1-44b3-b04a-e507016277ae"},"vehicle_type_id":"4","last_reported":1748283213,"current_range_meters":12800,"station_id":"ce4bgvp2rcd13ifvqct0","pricing_plan_id":"cebpf4jnsgd1na2vs0mg"},{"bike_id":"46adbf76-7561-4877-b501-902e69ecdf9a","system_id":"levelo_inurba_marseille","lat":43.28566,"lon":5.39499,"is_reserved":false,"is_disabled":false,"rental_uris":{"android":"levelo://app?vid=46adbf76-7561-4877-b501-902e69ecdf9a","ios":"levelo://app?vid=46adbf76-7561-4877-b501-902e69ecdf9a"},"vehicle_type_id":"4","last_reported":1748283213,"current_range_meters":12800,"station_id":"ce4bh292rcd13ifvqdg0","pricing_plan_id":"cebpf4jnsgd1na2vs0mg"},{"bike_id":"6a5a8b52-5f11-4f11-b968-c0a527f77f5a","system_id":"levelo_inurba_marseille","lat":43.25864,"lon":5.39896,"is_reserved":false,"is_disabled":false,"rental_uris":{"android":"levelo://app?vid=6a5a8b52-5f11-4f11-b968-c0a527f77f5a","ios":"levelo://app?vid=6a5a8b52-5f11-4f11-b968-c0a527f77f5a"},"vehicle_type_id":"4","last_reported":1748283213,"current_range_meters":12800,"station_id":"ce4bhl92rcd13ifvqghg","pricing_plan_id":"cebpf4jnsgd1na2vs0mg"},{"bike_id":"42468a61-16bf-4710-9b9b-05de4aa301eb","system_id":"levelo_inurba_marseille","lat":43.26803,"lon":5.40269,"is_reserved":false,"is_disabled":false,"rental_uris":{"android":"levelo://app?vid=42468a61-16bf-4710-9b9b-05de4aa301eb","ios":"levelo://app?vid=42468a61-16bf-4710-9b9b-05de4aa301eb"},"vehicle_type_id":"4","last_reported":1748283213,"current_range_meters":12800,"station_id":"ce501612rcd8frsf0b60","pricing_plan_id":"cebpf4jnsgd1na2vs0mg"},{"bike_id":"7fe58150-2862-48d7-853a-5e884fdf189b","system_id":"levelo_inurba_marseille","lat":43.2926,"lon":5.40906,"is_reserved":false,"is_disabled":false,"rental_uris":{"android":"levelo://app?vid=7fe58150-2862-48d7-853a-5e884fdf189b","ios":"levelo://app?vid=7fe58150-2862-48d7-853a-5e884fdf189b"},"vehicle_type_id":"4","last_reported":1748283213,"current_range_meters":13600,"station_id":"ce4bh192rcd13ifvqdc0","pricing_plan_id":"cebpf4jnsgd1na2vs0mg"},{"bike_id":"ac29b01a-dde7-450b-aeb2-1144330aae04","system_id":"levelo_inurba_marseille","lat":43.2893,"lon":5.38394,"is_reserved":false,"is_disabled":false,"rental_uris":{"android":"levelo://app?vid=ac29b01a-dde7-450b-aeb2-1144330aae04","ios":"levelo://app?vid=ac29b01a-dde7-450b-aeb2-1144330aae04"},"vehicle_type_id":"4","last_reported":1748283213,"current_range_meters":13600,"station_id":"ce4bh612rcd13ifvqe6g","pricing_plan_id":"cebpf4jnsgd1na2vs0mg"},{"bike_id":"e03a0d5e-b227-420d-969f-f1f548321079","system_id":"levelo_inurba_marseille","lat":43.28925,"lon":5.36649,"is_reserved":false,"is_disabled":false,"rental_uris":{"android":"levelo://app?vid=e03a0d5e-b227-420d-969f-f1f548321079","ios":"levelo://app?vid=e03a0d5e-b227-420d-969f-f1f548321079"},"vehicle_type_id":"4","last_reported":1748283213,"current_range_meters":13600,"station_id":"ce4bhap2rcd13ifvqek0","pricing_plan_id":"cebpf4jnsgd1na2vs0mg"},{"bike_id":"1a775a5e-1792-4706-b4f6-ec50ef749d53","system_id":"levelo_inurba_marseille","lat":43.255796,"lon":5.38223,"is_reserved":false,"is_disabled":false,"rental_uris":{"android":"levelo://app?vid=1a775a5e-1792-4706-b4f6-ec50ef749d53","ios":"levelo://app?vid=1a775a5e-1792-4706-b4f6-ec50ef749d53"},"vehicle_type_id":"4","last_reported":1748283213,"current_range_meters":13600,"station_id":"ce4bhih2rcd13ifvqfs0","pricing_plan_id":"cebpf4jnsgd1na2vs0mg"},{"bike_id":"5c8fa425-24af-4180-9479-cbf2cf5deb5b","system_id":"levelo_inurba_marseille","lat":43.262058,"lon":5.379327,"is_reserved":false,"is_disabled":false,"rental_uris":{"android":"levelo://app?vid=5c8fa425-24af-4180-9479-cbf2cf5deb5b","ios":"levelo://app?vid=5c8fa425-24af-4180-9479-cbf2cf5deb5b"},"vehicle_type_id":"4","last_reported":1748283213,"current_range_meters":13600,"station_id":"ce4bhjp2rcd13ifvqg90","pricing_plan_id":"cebpf4jnsgd1na2vs0mg"},{"bike_id":"e3796306-c419-4017-930f-972bfadb87d8","system_id":"levelo_inurba_marseille","lat":43.27057,"lon":5.42277,"is_reserved":false,"is_disabled":false,"rental_uris":{"android":"levelo://app?vid=e3796306-c419-4017-930f-972bfadb87d8","ios":"levelo://app?vid=e3796306-c419-4017-930f-972bfadb87d8"},"vehicle_type_id":"4","last_reported":1748283213,"current_range_meters":13600,"station_id":"ce4bhk92rcd13ifvqgb0","pricing_plan_id":"cebpf4jnsgd1na2vs0mg"},{"bike_id":"9d620a38-79f2-48a9-a476-7621b24e022f","system_id":"levelo_inurba_marseille","lat":43.3302,"lon":5.39053,"is_reserved":false,"is_disabled":false,"rental_uris":{"android":"levelo://app?vid=9d620a38-79f2-48a9-a476-7621b24e022f","ios":"levelo://app?vid=9d620a38-79f2-48a9-a476-7621b24e022f"},"vehicle_type_id":"4","last_reported":1748283213,"current_range_meters":13600,"station_id":"ce4bhr92rcd13ifvqhrg","pricing_plan_id":"cebpf4jnsgd1na2vs0mg"},{"bike_id":"f5b1aa50-af32-4b67-af03-fc8d46feddb5","system_id":"levelo_inurba_marseille","lat":43.292694,"lon":5.401271,"is_reserved":false,"is_disabled":false,"rental_uris":{"android":"levelo://app?vid=f5b1aa50-af32-4b67-af03-fc8d46feddb5","ios":"levelo://app?vid=f5b1aa50-af32-4b67-af03-fc8d46feddb5"},"vehicle_type_id":"4","last_reported":1748283213,"current_range_meters":14000,"station_id":"","pricing_plan_id":"cebpf4jnsgd1na2vs0mg"},{"bike_id":"d888e6c8-548c-486d-9d21-35b1ac366105","system_id":"levelo_inurba_marseille","lat":43.27633,"lon":5.36144,"is_reserved":false,"is_disabled":false,"rental_uris":{"android":"levelo://app?vid=d888e6c8-548c-486d-9d21-35b1ac366105","ios":"levelo://app?vid=d888e6c8-548c-486d-9d21-35b1ac366105"},"vehicle_type_id":"4","last_reported":1748283213,"current_range_meters":14000,"station_id":"ce4bgj92rcd13ifvqbe0","pricing_plan_id":"cebpf4jnsgd1na2vs0mg"},{"bike_id":"0237028e-a193-4fdd-a735-03c8dd5fe1e9","system_id":"levelo_inurba_marseille","lat":43.30424,"lon":5.38891,"is_reserved":false,"is_disabled":false,"rental_uris":{"android":"levelo://app?vid=0237028e-a193-4fdd-a735-03c8dd5fe1e9","ios":"levelo://app?vid=0237028e-a193-4fdd-a735-03c8dd5fe1e9"},"vehicle_type_id":"4","last_reported":1748283213,"current_range_meters":14000,"station_id":"ce4bgk12rcd13ifvqbi0","pricing_plan_id":"cebpf4jnsgd1na2vs0mg"},{"bike_id":"06357a04-3c6d-4c3d-9e5e-c3887619bbf4","system_id":"levelo_inurba_marseille","lat":43.28399,"lon":5.37521,"is_reserved":false,"is_disabled":false,"rental_uris":{"android":"levelo://app?vid=06357a04-3c6d-4c3d-9e5e-c3887619bbf4","ios":"levelo://app?vid=06357a04-3c6d-4c3d-9e5e-c3887619bbf4"},"vehicle_type_id":"4","last_reported":1748283213,"current_range_meters":14000,"station_id":"ce4bh412rcd13ifvqds0","pricing_plan_id":"cebpf4jnsgd1na2vs0mg"},{"bike_id":"1b99d262-cb83-46db-ada0-e92fd26f533e","system_id":"levelo_inurba_marseille","lat":43.23942,"lon":5.36656,"is_reserved":false,"is_disabled":false,"rental_uris":{"android":"levelo://app?vid=1b99d262-cb83-46db-ada0-e92fd26f533e","ios":"levelo://app?vid=1b99d262-cb83-46db-ada0-e92fd26f533e"},"vehicle_type_id":"4","last_reported":1748283213,"current_range_meters":14000,"station_id":"ce4bhi12rcd13ifvqfp0","pricing_plan_id":"cebpf4jnsgd1na2vs0mg"},{"bike_id":"49ac47d0-d96c-48cf-9710-caeaf60bd4cd","system_id":"levelo_inurba_marseille","lat":43.257206,"lon":5.411224,"is_reserved":false,"is_disabled":false,"rental_uris":{"android":"levelo://app?vid=49ac47d0-d96c-48cf-9710-caeaf60bd4cd","ios":"levelo://app?vid=49ac47d0-d96c-48cf-9710-caeaf60bd4cd"},"vehicle_type_id":"4","last_reported":1748283213,"current_range_meters":14000,"station_id":"ce4bhkp2rcd13ifvqgd0","pricing_plan_id":"cebpf4jnsgd1na2vs0mg"},{"bike_id":"1b93f618-501a-441a-ac25-2913e761841a","system_id":"levelo_inurba_marseille","lat":43.330453,"lon":5.390253,"is_reserved":false,"is_disabled":false,"rental_uris":{"android":"levelo://app?vid=1b93f618-501a-441a-ac25-2913e761841a","ios":"levelo://app?vid=1b93f618-501a-441a-ac25-2913e761841a"},"vehicle_type_id":"4","last_reported":1748283213,"current_range_meters":14000,"station_id":"ce4bhr92rcd13ifvqhrg","pricing_plan_id":"cebpf4jnsgd1na2vs0mg"},{"bike_id":"e6c65de3-7d92-4979-809c-6677188473c0","system_id":"levelo_inurba_marseille","lat":43.337684,"lon":5.37432,"is_reserved":false,"is_disabled":false,"rental_uris":{"android":"levelo://app?vid=e6c65de3-7d92-4979-809c-6677188473c0","ios":"levelo://app?vid=e6c65de3-7d92-4979-809c-6677188473c0"},"vehicle_type_id":"4","last_reported":1748283213,"current_range_meters":14400,"station_id":"","pricing_plan_id":"cebpf4jnsgd1na2vs0mg"},{"bike_id":"6ef27e84-462a-46f9-afe5-e09b209cc7f0","system_id":"levelo_inurba_marseille","lat":43.331148,"lon":5.362025,"is_reserved":false,"is_disabled":false,"rental_uris":{"android":"levelo://app?vid=6ef27e84-462a-46f9-afe5-e09b209cc7f0","ios":"levelo://app?vid=6ef27e84-462a-46f9-afe5-e09b209cc7f0"},"vehicle_type_id":"4","last_reported":1748283213,"current_range_meters":14400,"station_id":"","pricing_plan_id":"cebpf4jnsgd1na2vs0mg"},{"bike_id":"eb060acd-d403-4c33-9f13-e709466da355","system_id":"levelo_inurba_marseille","lat":43.296143,"lon":5.377079,"is_reserved":false,"is_disabled":false,"rental_uris":{"android":"levelo://app?vid=eb060acd-d403-4c33-9f13-e709466da355","ios":"levelo://app?vid=eb060acd-d403-4c33-9f13-e709466da355"},"vehicle_type_id":"4","last_reported":1748283213,"current_range_meters":14400,"station_id":"","pricing_plan_id":"cebpf4jnsgd1na2vs0mg"},{"bike_id":"361d2a26-f4df-41d9-92b4-0e3f4ba05680","system_id":"levelo_inurba_marseille","lat":43.29812,"lon":5.40398,"is_reserved":false,"is_disabled":false,"rental_uris":{"android":"levelo://app?vid=361d2a26-f4df-41d9-92b4-0e3f4ba05680","ios":"levelo://app?vid=361d2a26-f4df-41d9-92b4-0e3f4ba05680"},"vehicle_type_id":"4","last_reported":1748283213,"current_range_meters":14400,"station_id":"ce4bh112rcd13ifvqd90","pricing_plan_id":"cebpf4jnsgd1na2vs0mg"},{"bike_id":"ac20fe0c-3a29-4b86-b8e7-27236d6f92d1","system_id":"levelo_inurba_marseille","lat":43.28861,"lon":5.35833,"is_reserved":false,"is_disabled":false,"rental_uris":{"android":"levelo://app?vid=ac20fe0c-3a29-4b86-b8e7-27236d6f92d1","ios":"levelo://app?vid=ac20fe0c-3a29-4b86-b8e7-27236d6f92d1"},"vehicle_type_id":"4","last_reported":1748283213,"current_range_meters":14400,"station_id":"ce4bhb12rcd13ifvqem0","pricing_plan_id":"cebpf4jnsgd1na2vs0mg"},{"bike_id":"2a046dee-b3af-48c9-9659-b7d30ba20af5","system_id":"levelo_inurba_marseille","lat":43.24337,"lon":5.37992,"is_reserved":false,"is_disabled":false,"rental_uris":{"android":"levelo://app?vid=2a046dee-b3af-48c9-9659-b7d30ba20af5","ios":"levelo://app?vid=2a046dee-b3af-48c9-9659-b7d30ba20af5"},"vehicle_type_id":"4","last_reported":1748283213,"current_range_meters":14800,"station_id":"","pricing_plan_id":"cebpf4jnsgd1na2vs0mg"},{"bike_id":"4484fcb0-994d-4ce5-9352-e633b3e4a51c","system_id":"levelo_inurba_marseille","lat":43.30135,"lon":5.3878,"is_reserved":false,"is_disabled":false,"rental_uris":{"android":"levelo://app?vid=4484fcb0-994d-4ce5-9352-e633b3e4a51c","ios":"levelo://app?vid=4484fcb0-994d-4ce5-9352-e633b3e4a51c"},"vehicle_type_id":"4","last_reported":1748283213,"current_range_meters":14800,"station_id":"ce4bghh2rcd13ifvqb60","pricing_plan_id":"cebpf4jnsgd1na2vs0mg"},{"bike_id":"932ead5d-4b51-46fc-8f15-1f02874b0289","system_id":"levelo_inurba_marseille","lat":43.30322,"lon":5.40442,"is_reserved":false,"is_disabled":false,"rental_uris":{"android":"levelo://app?vid=932ead5d-4b51-46fc-8f15-1f02874b0289","ios":"levelo://app?vid=932ead5d-4b51-46fc-8f15-1f02874b0289"},"vehicle_type_id":"4","last_reported":1748283213,"current_range_meters":14800,"station_id":"ce4bh012rcd13ifvqd10","pricing_plan_id":"cebpf4jnsgd1na2vs0mg"},{"bike_id":"3be1c968-eb16-47a2-ac33-87103ec110c7","system_id":"levelo_inurba_marseille","lat":43.2887,"lon":5.35827,"is_reserved":false,"is_disabled":false,"rental_uris":{"android":"levelo://app?vid=3be1c968-eb16-47a2-ac33-87103ec110c7","ios":"levelo://app?vid=3be1c968-eb16-47a2-ac33-87103ec110c7"},"vehicle_type_id":"4","last_reported":1748283213,"current_range_meters":14800,"station_id":"ce4bhb12rcd13ifvqem0","pricing_plan_id":"cebpf4jnsgd1na2vs0mg"},{"bike_id":"b44407f1-92fa-4043-9e02-ec4301b2efe9","system_id":"levelo_inurba_marseille","lat":43.24652,"lon":5.38898,"is_reserved":false,"is_disabled":false,"rental_uris":{"android":"levelo://app?vid=b44407f1-92fa-4043-9e02-ec4301b2efe9","ios":"levelo://app?vid=b44407f1-92fa-4043-9e02-ec4301b2efe9"},"vehicle_type_id":"4","last_reported":1748283213,"current_range_meters":14800,"station_id":"ce4bhg12rcd13ifvqf60","pricing_plan_id":"cebpf4jnsgd1na2vs0mg"},{"bike_id":"d5da7f3a-4011-49ff-8618-92d087aebed0","system_id":"levelo_inurba_marseille","lat":43.2454,"lon":5.39531,"is_reserved":false,"is_disabled":false,"rental_uris":{"android":"levelo://app?vid=d5da7f3a-4011-49ff-8618-92d087aebed0","ios":"levelo://app?vid=d5da7f3a-4011-49ff-8618-92d087aebed0"},"vehicle_type_id":"4","last_reported":1748283213,"current_range_meters":14800,"station_id":"ce4bhlp2rcd13ifvqgjg","pricing_plan_id":"cebpf4jnsgd1na2vs0mg"},{"bike_id":"bdbda5ef-1739-4e23-8fd0-487e5c72a0e6","system_id":"levelo_inurba_marseille","lat":43.25087,"lon":5.39519,"is_reserved":false,"is_disabled":false,"rental_uris":{"android":"levelo://app?vid=bdbda5ef-1739-4e23-8fd0-487e5c72a0e6","ios":"levelo://app?vid=bdbda5ef-1739-4e23-8fd0-487e5c72a0e6"},"vehicle_type_id":"4","last_reported":1748283213,"current_range_meters":14800,"station_id":"ce4bhm12rcd13ifvqgkg","pricing_plan_id":"cebpf4jnsgd1na2vs0mg"},{"bike_id":"8c0269bb-f3e9-4202-bdef-2816f24b6c68","system_id":"levelo_inurba_marseille","lat":43.307937,"lon":5.43527,"is_reserved":false,"is_disabled":false,"rental_uris":{"android":"levelo://app?vid=8c0269bb-f3e9-4202-bdef-2816f24b6c68","ios":"levelo://app?vid=8c0269bb-f3e9-4202-bdef-2816f24b6c68"},"vehicle_type_id":"4","last_reported":1748283213,"current_range_meters":14800,"station_id":"ce4bhph2rcd13ifvqheg","pricing_plan_id":"cebpf4jnsgd1na2vs0mg"},{"bike_id":"1a1870e2-b5ca-41dd-a4b7-5143c0bbe515","system_id":"levelo_inurba_marseille","lat":43.2293,"lon":5.35369,"is_reserved":false,"is_disabled":false,"rental_uris":{"android":"levelo://app?vid=1a1870e2-b5ca-41dd-a4b7-5143c0bbe515","ios":"levelo://app?vid=1a1870e2-b5ca-41dd-a4b7-5143c0bbe515"},"vehicle_type_id":"4","last_reported":1748283213,"current_range_meters":14800,"station_id":"cpo3532slgdg3j2ikp40","pricing_plan_id":"cebpf4jnsgd1na2vs0mg"},{"bike_id":"6d93b40b-61f9-4db6-9105-28c2ac1cb474","system_id":"levelo_inurba_marseille","lat":43.2762,"lon":5.36125,"is_reserved":false,"is_disabled":false,"rental_uris":{"android":"levelo://app?vid=6d93b40b-61f9-4db6-9105-28c2ac1cb474","ios":"levelo://app?vid=6d93b40b-61f9-4db6-9105-28c2ac1cb474"},"vehicle_type_id":"4","last_reported":1748283213,"current_range_meters":15200,"station_id":"ce4bgj92rcd13ifvqbe0","pricing_plan_id":"cebpf4jnsgd1na2vs0mg"},{"bike_id":"4e062767-adcf-4078-a189-a93b764a0563","system_id":"levelo_inurba_marseille","lat":43.28942,"lon":5.36638,"is_reserved":false,"is_disabled":false,"rental_uris":{"android":"levelo://app?vid=4e062767-adcf-4078-a189-a93b764a0563","ios":"levelo://app?vid=4e062767-adcf-4078-a189-a93b764a0563"},"vehicle_type_id":"4","last_reported":1748283213,"current_range_meters":15200,"station_id":"ce4bhap2rcd13ifvqek0","pricing_plan_id":"cebpf4jnsgd1na2vs0mg"},{"bike_id":"f75ff62a-59f0-4e74-8c1a-77a1a7ee9151","system_id":"levelo_inurba_marseille","lat":43.28941,"lon":5.36375,"is_reserved":false,"is_disabled":false,"rental_uris":{"android":"levelo://app?vid=f75ff62a-59f0-4e74-8c1a-77a1a7ee9151","ios":"levelo://app?vid=f75ff62a-59f0-4e74-8c1a-77a1a7ee9151"},"vehicle_type_id":"4","last_reported":1748283213,"current_range_meters":15200,"station_id":"ce4bhc92rcd13ifvqetg","pricing_plan_id":"cebpf4jnsgd1na2vs0mg"},