{"last_updated":1776884297,"ttl":60,"version":"2.2","data":{"bikes":[{"bike_id":"afe6c9ff-8c7f-40d2-96bc-86354113b443","system_id":"levelo_inurba_marseille","lat":43.2848,"lon":5.48387,"is_reserved":false,"is_disabled":false,"rental_uris":{"android":"levelo://app?vid=afe6c9ff-8c7f-40d2-96bc-86354113b443","ios":"levelo://app?vid=afe6c9ff-8c7f-40d2-96bc-86354113b443"},"vehicle_type_id":"4","last_reported":1776884297,"current_range_meters":2800,"station_id":"","pricing_plan_id":"cebpf4jnsgd1na2vs0mg"},{"bike_id":"d7a7f8c1-390e-47a2-9d08-34bb7fc6e8a1","system_id":"levelo_inurba_marseille","lat":43.27555,"lon":5.3842,"is_reserved":false,"is_disabled":false,"rental_uris":{"android":"levelo://app?vid=d7a7f8c1-390e-47a2-9d08-34bb7fc6e8a1","ios":"levelo://app?vid=d7a7f8c1-390e-47a2-9d08-34bb7fc6e8a1"},"vehicle_type_id":"4","last_reported":1776884297,"current_range_meters":2800,"station_id":"ce4bhh92rcd13ifvqfi0","pricing_plan_id":"cebpf4jnsgd1na2vs0mg"},{"bike_id":"3c89d143-3bfb-4753-a182-535ee5f95997","system_id":"levelo_inurba_marseille","lat":43.2319,"lon":5.39983,"is_reserved":false,"is_disabled":true,"rental_uris":{"android":"levelo://app?vid=3c89d143-3bfb-4753-a182-535ee5f95997","ios":"levelo://app?vid=3c89d143-3bfb-4753-a182-535ee5f95997"},"vehicle_type_id":"4","last_reported":1776884297,"current_range_meters":2800,"station_id":"ce4bhn12rcd13ifvqgqg","pricing_plan_id":"cebpf4jnsgd1na2vs0mg"},{"bike_id":"205a7e4b-4837-4ebb-be79-26220f0c5601","system_id":"levelo_inurba_marseille","lat":43.23374,"lon":5.41239,"is_reserved":false,"is_disabled":false,"rental_uris":{"android":"levelo://app?vid=205a7e4b-4837-4ebb-be79-26220f0c5601","ios":"levelo://app?vid=205a7e4b-4837-4ebb-be79-26220f0c5601"},"vehicle_type_id":"4","last_reported":1776884297,"current_range_meters":2800,"station_id":"st_d75pvndhf9lc73cqq3eg","pricing_plan_id":"cebpf4jnsgd1na2vs0mg"},{"bike_id":"30cfa579-6713-4ed7-b4f0-02b7ba344c3f","system_id":"levelo_inurba_marseille","lat":43.28542,"lon":5.35814,"is_reserved":false,"is_disabled":false,"rental_uris":{"android":"levelo://app?vid=30cfa579-6713-4ed7-b4f0-02b7ba344c3f","ios":"levelo://app?vid=30cfa579-6713-4ed7-b4f0-02b7ba344c3f"},"vehicle_type_id":"4","last_reported":1776884297,"current_range_meters":2800,"station_id":"","pricing_plan_id":"cebpf4jnsgd1na2vs0mg"},{"bike_id":"5d21535e-a9f6-48a0-a422-5e2c39cf573a","system_id":"levelo_inurba_marseille","lat":43.26218,"lon":5.40459,"is_reserved":false,"is_disabled":false,"rental_uris":{"android":"levelo://app?vid=5d21535e-a9f6-48a0-a422-5e2c39cf573a","ios":"levelo://app?vid=5d21535e-a9f6-48a0-a422-5e2c39cf573a"},"vehicle_type_id":"4","last_reported":1776884297,"current_range_meters":2800,"station_id":"ce4bhmh2rcd13ifvqgmg","pricing_plan_id":"cebpf4jnsgd1na2vs0mg"},{"bike_id":"88617e39-c4cf-4108-911d-b042c7effac3","system_id":"levelo_inurba_marseille","lat":43.2901,"lon":5.35603,"is_reserved":false,"is_disabled":false,"rental_uris":{"android":"levelo://app?vid=88617e39-c4cf-4108-911d-b042c7effac3","ios":"levelo://app?vid=88617e39-c4cf-4108-911d-b042c7effac3"},"vehicle_type_id":"4","last_reported":1776884297,"current_range_meters":2800,"station_id":"ce4bhb92rcd13ifvqen0","pricing_plan_id":"cebpf4jnsgd1na2vs0mg"},{"bike_id":"30d39619-50d9-4b66-a38c-c9f4beed8f6d","system_id":"levelo_inurba_marseille","lat":43.28314,"lon":5.38941,"is_reserved":false,"is_disabled":false,"rental_uris":{"android":"levelo://app?vid=30d39619-50d9-4b66-a38c-c9f4beed8f6d","ios":"levelo://app?vid=30d39619-50d9-4b66-a38c-c9f4beed8f6d"},"vehicle_type_id":"4","last_reported":1776884297,"current_range_meters":2800,"station_id":"","pricing_plan_id":"cebpf4jnsgd1na2vs0mg"},{"bike_id":"b49b7594-ebcd-49fe-ab3e-4b1990d61db2","system_id":"levelo_inurba_marseille","lat":43.28616,"lon":5.37052,"is_reserved":false,"is_disabled":false,"rental_uris":{"android":"levelo://app?vid=b49b7594-ebcd-49fe-ab3e-4b1990d61db2","ios":"levelo://app?vid=b49b7594-ebcd-49fe-ab3e-4b1990d61db2"},"vehicle_type_id":"4","last_reported":1776884297,"current_range_meters":2800,"station_id":"ce4bht12rcd13ifvqi60","pricing_plan_id":"cebpf4jnsgd1na2vs0mg"},{"bike_id":"2b123a1b-0c07-4996-98ec-8d29605aea29","system_id":"levelo_inurba_marseille","lat":43.30326,"lon":5.40426,"is_reserved":false,"is_disabled":false,"rental_uris":{"android":"levelo://app?vid=2b123a1b-0c07-4996-98ec-8d29605aea29","ios":"levelo://app?vid=2b123a1b-0c07-4996-98ec-8d29605aea29"},"vehicle_type_id":"4","last_reported":1776884297,"current_range_meters":3200,"station_id":"ce4bh012rcd13ifvqd10","pricing_plan_id":"cebpf4jnsgd1na2vs0mg"},{"bike_id":"733a8168-6cb3-483f-9af1-218730c2ca18","system_id":"levelo_inurba_marseille","lat":43.30948,"lon":5.39044,"is_reserved":false,"is_disabled":false,"rental_uris":{"android":"levelo://app?vid=733a8168-6cb3-483f-9af1-218730c2ca18","ios":"levelo://app?vid=733a8168-6cb3-483f-9af1-218730c2ca18"},"vehicle_type_id":"4","last_reported":1776884297,"current_range_meters":3200,"station_id":"ce4bh092rcd13ifvqd20","pricing_plan_id":"cebpf4jnsgd1na2vs0mg"},{"bike_id":"2d40a836-133e-4df4-8e94-64278280c4e2","system_id":"levelo_inurba_marseille","lat":43.2846,"lon":5.48391,"is_reserved":false,"is_disabled":false,"rental_uris":{"android":"levelo://app?vid=2d40a836-133e-4df4-8e94-64278280c4e2","ios":"levelo://app?vid=2d40a836-133e-4df4-8e94-64278280c4e2"},"vehicle_type_id":"4","last_reported":1776884297,"current_range_meters":3200,"station_id":"","pricing_plan_id":"cebpf4jnsgd1na2vs0mg"},{"bike_id":"53398df8-835b-4ed2-bf08-039bd71fda25","system_id":"levelo_inurba_marseille","lat":43.25928,"lon":5.38592,"is_reserved":false,"is_disabled":false,"rental_uris":{"android":"levelo://app?vid=53398df8-835b-4ed2-bf08-039bd71fda25","ios":"levelo://app?vid=53398df8-835b-4ed2-bf08-039bd71fda25"},"vehicle_type_id":"4","last_reported":1776884297,"current_range_meters":3600,"station_id":"","pricing_plan_id":"cebpf4jnsgd1na2vs0mg"},{"bike_id":"f1b7c027-89dd-4952-9699-d06e2018eec9","system_id":"levelo_inurba_marseille","lat":43.29777,"lon":5.37107,"is_reserved":false,"is_disabled":false,"rental_uris":{"android":"levelo://app?vid=f1b7c027-89dd-4952-9699-d06e2018eec9","ios":"levelo://app?vid=f1b7c027-89dd-4952-9699-d06e2018eec9"},"vehicle_type_id":"4","last_reported":1776884297,"current_range_meters":3600,"station_id":"ce4bgop2rcd13ifvqc1g","pricing_plan_id":"cebpf4jnsgd1na2vs0mg"},{"bike_id":"1327f68a-39d3-4c4a-a6ac-9fb12ab8c19a","system_id":"levelo_inurba_marseille","lat":43.31738,"lon":5.39016,"is_reserved":false,"is_disabled":false,"rental_uris":{"android":"levelo://app?vid=1327f68a-39d3-4c4a-a6ac-9fb12ab8c19a","ios":"levelo://app?vid=1327f68a-39d3-4c4a-a6ac-9fb12ab8c19a"},"vehicle_type_id":"4","last_reported":1776884297,"current_range_meters":3600,"station_id":"ce4bhqp2rcd13ifvqhng","pricing_plan_id":"cebpf4jnsgd1na2vs0mg"},{"bike_id":"0d8d31a6-7c63-4544-9b2b-92e3d4ebd662","system_id":"levelo_inurba_marseille","lat":43.28846,"lon":5.35846,"is_reserved":false,"is_disabled":false,"rental_uris":{"android":"levelo://app?vid=0d8d31a6-7c63-4544-9b2b-92e3d4ebd662","ios":"levelo://app?vid=0d8d31a6-7c63-4544-9b2b-92e3d4ebd662"},"vehicle_type_id":"4","last_reported":1776884297,"current_range_meters":3600,"station_id":"ce4bhb12rcd13ifvqem0","pricing_plan_id":"cebpf4jnsgd1na2vs0mg"},{"bike_id":"4f7d7286-2f7f-4d35-b7b1-3194c548e1b9","system_id":"levelo_inurba_marseille","lat":43.31218,"lon":5.36872,"is_reserved":false,"is_disabled":false,"rental_uris":{"android":"levelo://app?vid=4f7d7286-2f7f-4d35-b7b1-3194c548e1b9","ios":"levelo://app?vid=4f7d7286-2f7f-4d35-b7b1-3194c548e1b9"},"vehicle_type_id":"4","last_reported":1776884297,"current_range_meters":3600,"station_id":"ce4bgl92rcd13ifvqbq0","pricing_plan_id":"cebpf4jnsgd1na2vs0mg"},{"bike_id":"e7694cb7-b694-47b3-b787-ee6b3d265867","system_id":"levelo_inurba_marseille","lat":43.28862,"lon":5.4251,"is_reserved":false,"is_disabled":false,"rental_uris":{"android":"levelo://app?vid=e7694cb7-b694-47b3-b787-ee6b3d265867","ios":"levelo://app?vid=e7694cb7-b694-47b3-b787-ee6b3d265867"},"vehicle_type_id":"4","last_reported":1776884297,"current_range_meters":3600,"station_id":"st_d3b462108ojc7389ooeg","pricing_plan_id":"cebpf4jnsgd1na2vs0mg"},{"bike_id":"b8ecd6af-cc0a-4926-b9cc-37652d45b66d","system_id":"levelo_inurba_marseille","lat":43.26375,"lon":5.41059,"is_reserved":false,"is_disabled":false,"rental_uris":{"android":"levelo://app?vid=b8ecd6af-cc0a-4926-b9cc-37652d45b66d","ios":"levelo://app?vid=b8ecd6af-cc0a-4926-b9cc-37652d45b66d"},"vehicle_type_id":"4","last_reported":1776884297,"current_range_meters":3600,"station_id":"st_d4e5ca6na9uc73bfl5fg","pricing_plan_id":"cebpf4jnsgd1na2vs0mg"},{"bike_id":"38beb424-acf7-48d4-b078-191af591978d","system_id":"levelo_inurba_marseille","lat":43.30797,"lon":5.38142,"is_reserved":false,"is_disabled":false,"rental_uris":{"android":"levelo://app?vid=38beb424-acf7-48d4-b078-191af591978d","ios":"levelo://app?vid=38beb424-acf7-48d4-b078-191af591978d"},"vehicle_type_id":"4","last_reported":1776884297,"current_range_meters":4000,"station_id":"ce4bgt12rcd13ifvqce0","pricing_plan_id":"cebpf4jnsgd1na2vs0mg"},{"bike_id":"d8281bcd-cc4e-4582-9878-8b9d78a13f62","system_id":"levelo_inurba_marseille","lat":43.28476,"lon":5.384172,"is_reserved":false,"is_disabled":false,"rental_uris":{"android":"levelo://app?vid=d8281bcd-cc4e-4582-9878-8b9d78a13f62","ios":"levelo://app?vid=d8281bcd-cc4e-4582-9878-8b9d78a13f62"},"vehicle_type_id":"4","last_reported":1776884297,"current_range_meters":4000,"station_id":"ce4bh512rcd13ifvqe3g","pricing_plan_id":"cebpf4jnsgd1na2vs0mg"},{"bike_id":"0364bba6-ae2f-4903-afe5-44eb14521b92","system_id":"levelo_inurba_marseille","lat":43.2757,"lon":5.38426,"is_reserved":false,"is_disabled":false,"rental_uris":{"android":"levelo://app?vid=0364bba6-ae2f-4903-afe5-44eb14521b92","ios":"levelo://app?vid=0364bba6-ae2f-4903-afe5-44eb14521b92"},"vehicle_type_id":"4","last_reported":1776884297,"current_range_meters":4000,"station_id":"ce4bhh92rcd13ifvqfi0","pricing_plan_id":"cebpf4jnsgd1na2vs0mg"},{"bike_id":"09d4b501-f576-4b9b-afbd-3e6fbba293ab","system_id":"levelo_inurba_marseille","lat":43.28861,"lon":5.42538,"is_reserved":false,"is_disabled":false,"rental_uris":{"android":"levelo://app?vid=09d4b501-f576-4b9b-afbd-3e6fbba293ab","ios":"levelo://app?vid=09d4b501-f576-4b9b-afbd-3e6fbba293ab"},"vehicle_type_id":"4","last_reported":1776884297,"current_range_meters":4000,"station_id":"st_d3b462108ojc7389ooeg","pricing_plan_id":"cebpf4jnsgd1na2vs0mg"},{"bike_id":"7aea2240-32f9-4c2f-acec-273ffe099474","system_id":"levelo_inurba_marseille","lat":43.24664,"lon":5.38151,"is_reserved":false,"is_disabled":false,"rental_uris":{"android":"levelo://app?vid=7aea2240-32f9-4c2f-acec-273ffe099474","ios":"levelo://app?vid=7aea2240-32f9-4c2f-acec-273ffe099474"},"vehicle_type_id":"4","last_reported":1776884297,"current_range_meters":4400,"station_id":"ce4bhih2rcd13ifvqfr0","pricing_plan_id":"cebpf4jnsgd1na2vs0mg"},{"bike_id":"be5c4907-57d0-4c67-8ff7-ac26938c6076","system_id":"levelo_inurba_marseille","lat":43.28255,"lon":5.40704,"is_reserved":false,"is_disabled":false,"rental_uris":{"android":"levelo://app?vid=be5c4907-57d0-4c67-8ff7-ac26938c6076","ios":"levelo://app?vid=be5c4907-57d0-4c67-8ff7-ac26938c6076"},"vehicle_type_id":"4","last_reported":1776884297,"current_range_meters":4400,"station_id":"","pricing_plan_id":"cebpf4jnsgd1na2vs0mg"},{"bike_id":"909929ad-6150-4e90-9010-fc5021f6e58c","system_id":"levelo_inurba_marseille","lat":43.27198,"lon":5.40095,"is_reserved":false,"is_disabled":false,"rental_uris":{"android":"levelo://app?vid=909929ad-6150-4e90-9010-fc5021f6e58c","ios":"levelo://app?vid=909929ad-6150-4e90-9010-fc5021f6e58c"},"vehicle_type_id":"4","last_reported":1776884297,"current_range_meters":4400,"station_id":"","pricing_plan_id":"cebpf4jnsgd1na2vs0mg"},{"bike_id":"aab32f4a-45c2-4e79-b64f-497f5e362f6f","system_id":"levelo_inurba_marseille","lat":43.28718,"lon":5.37939,"is_reserved":false,"is_disabled":false,"rental_uris":{"android":"levelo://app?vid=aab32f4a-45c2-4e79-b64f-497f5e362f6f","ios":"levelo://app?vid=aab32f4a-45c2-4e79-b64f-497f5e362f6f"},"vehicle_type_id":"4","last_reported":1776884297,"current_range_meters":4400,"station_id":"ce4bh9p2rcd13ifvqec0","pricing_plan_id":"cebpf4jnsgd1na2vs0mg"},{"bike_id":"d9be86bb-6c4e-4c05-bc60-e02431cbb916","system_id":"levelo_inurba_marseille","lat":43.31896,"lon":5.36801,"is_reserved":false,"is_disabled":false,"rental_uris":{"android":"levelo://app?vid=d9be86bb-6c4e-4c05-bc60-e02431cbb916","ios":"levelo://app?vid=d9be86bb-6c4e-4c05-bc60-e02431cbb916"},"vehicle_type_id":"4","last_reported":1776884297,"current_range_meters":4400,"station_id":"st_d6o2h0d0559c73evc1b0","pricing_plan_id":"cebpf4jnsgd1na2vs0mg"},{"bike_id":"9ddea934-1dd4-4536-93fe-f4ef51114a63","system_id":"levelo_inurba_marseille","lat":43.30212,"lon":5.3946,"is_reserved":false,"is_disabled":false,"rental_uris":{"android":"levelo://app?vid=9ddea934-1dd4-4536-93fe-f4ef51114a63","ios":"levelo://app?vid=9ddea934-1dd4-4536-93fe-f4ef51114a63"},"vehicle_type_id":"4","last_reported":1776884297,"current_range_meters":4400,"station_id":"ce4bh0p2rcd13ifvqd70","pricing_plan_id":"cebpf4jnsgd1na2vs0mg"},{"bike_id":"6762af8f-5387-458d-b8d1-d9dbd22a127c","system_id":"levelo_inurba_marseille","lat":43.28873,"lon":5.42522,"is_reserved":false,"is_disabled":false,"rental_uris":{"android":"levelo://app?vid=6762af8f-5387-458d-b8d1-d9dbd22a127c","ios":"levelo://app?vid=6762af8f-5387-458d-b8d1-d9dbd22a127c"},"vehicle_type_id":"4","last_reported":1776884297,"current_range_meters":4400,"station_id":"st_d3b462108ojc7389ooeg","pricing_plan_id":"cebpf4jnsgd1na2vs0mg"},{"bike_id":"7dcb273f-c358-4982-8d37-99e2c336a8ce","system_id":"levelo_inurba_marseille","lat":43.29191,"lon":5.35802,"is_reserved":false,"is_disabled":false,"rental_uris":{"android":"levelo://app?vid=7dcb273f-c358-4982-8d37-99e2c336a8ce","ios":"levelo://app?vid=7dcb273f-c358-4982-8d37-99e2c336a8ce"},"vehicle_type_id":"4","last_reported":1776884297,"current_range_meters":4400,"station_id":"ce4bhb12rcd13ifvqel0","pricing_plan_id":"cebpf4jnsgd1na2vs0mg"},{"bike_id":"d204400f-8745-41a5-b8f3-30b0d4c8bfb2","system_id":"levelo_inurba_marseille","lat":43.31891,"lon":5.36803,"is_reserved":false,"is_disabled":false,"rental_uris":{"android":"levelo://app?vid=d204400f-8745-41a5-b8f3-30b0d4c8bfb2","ios":"levelo://app?vid=d204400f-8745-41a5-b8f3-30b0d4c8bfb2"},"vehicle_type_id":"4","last_reported":1776884297,"current_range_meters":4400,"station_id":"st_d6o2h0d0559c73evc1b0","pricing_plan_id":"cebpf4jnsgd1na2vs0mg"},{"bike_id":"46802080-6872-4888-a961-087730684668","system_id":"levelo_inurba_marseille","lat":43.28366,"lon":5.3861,"is_reserved":false,"is_disabled":false,"rental_uris":{"android":"levelo://app?vid=46802080-6872-4888-a961-087730684668","ios":"levelo://app?vid=46802080-6872-4888-a961-087730684668"},"vehicle_type_id":"4","last_reported":1776884297,"current_range_meters":4800,"station_id":"ce4bh492rcd13ifvqdvg","pricing_plan_id":"cebpf4jnsgd1na2vs0mg"},{"bike_id":"c750cd90-b9fb-4726-ae6a-fea3a4b4304e","system_id":"levelo_inurba_marseille","lat":43.291682,"lon":5.371544,"is_reserved":false,"is_disabled":false,"rental_uris":{"android":"levelo://app?vid=c750cd90-b9fb-4726-ae6a-fea3a4b4304e","ios":"levelo://app?vid=c750cd90-b9fb-4726-ae6a-fea3a4b4304e"},"vehicle_type_id":"4","last_reported":1776884297,"current_range_meters":4800,"station_id":"ce4bha92rcd13ifvqeh0","pricing_plan_id":"cebpf4jnsgd1na2vs0mg"},{"bike_id":"659d95b4-d76d-4fc7-93d0-9728055ab99d","system_id":"levelo_inurba_marseille","lat":43.29799,"lon":5.38105,"is_reserved":false,"is_disabled":false,"rental_uris":{"android":"levelo://app?vid=659d95b4-d76d-4fc7-93d0-9728055ab99d","ios":"levelo://app?vid=659d95b4-d76d-4fc7-93d0-9728055ab99d"},"vehicle_type_id":"4","last_reported":1776884297,"current_range_meters":4800,"station_id":"ce4bgip2rcd13ifvqbb0","pricing_plan_id":"cebpf4jnsgd1na2vs0mg"},{"bike_id":"36e7aa08-bcb4-4084-bd85-f41ade11c368","system_id":"levelo_inurba_marseille","lat":43.2886,"lon":5.42538,"is_reserved":false,"is_disabled":false,"rental_uris":{"android":"levelo://app?vid=36e7aa08-bcb4-4084-bd85-f41ade11c368","ios":"levelo://app?vid=36e7aa08-bcb4-4084-bd85-f41ade11c368"},"vehicle_type_id":"4","last_reported":1776884297,"current_range_meters":4800,"station_id":"st_d3b462108ojc7389ooeg","pricing_plan_id":"cebpf4jnsgd1na2vs0mg"},{"bike_id":"31194ab8-a64a-404b-899d-c6077dc9cfbd","system_id":"levelo_inurba_marseille","lat":43.30781,"lon":5.37643,"is_reserved":false,"is_disabled":false,"rental_uris":{"android":"levelo://app?vid=31194ab8-a64a-404b-899d-c6077dc9cfbd","ios":"levelo://app?vid=31194ab8-a64a-404b-899d-c6077dc9cfbd"},"vehicle_type_id":"4","last_reported":1776884297,"current_range_meters":4800,"station_id":"ce4bgv92rcd13ifvqcq0","pricing_plan_id":"cebpf4jnsgd1na2vs0mg"},{"bike_id":"243b5968-4729-4058-8326-f247fdd739c5","system_id":"levelo_inurba_marseille","lat":43.29502,"lon":5.39415,"is_reserved":false,"is_disabled":false,"rental_uris":{"android":"levelo://app?vid=243b5968-4729-4058-8326-f247fdd739c5","ios":"levelo://app?vid=243b5968-4729-4058-8326-f247fdd739c5"},"vehicle_type_id":"4","last_reported":1776884297,"current_range_meters":4800,"station_id":"ce4bh292rcd13ifvqdf0","pricing_plan_id":"cebpf4jnsgd1na2vs0mg"},{"bike_id":"6843e882-7c36-4091-90e8-5bc86219a69e","system_id":"levelo_inurba_marseille","lat":43.30598,"lon":5.37233,"is_reserved":false,"is_disabled":false,"rental_uris":{"android":"levelo://app?vid=6843e882-7c36-4091-90e8-5bc86219a69e","ios":"levelo://app?vid=6843e882-7c36-4091-90e8-5bc86219a69e"},"vehicle_type_id":"4","last_reported":1776884297,"current_range_meters":4800,"station_id":"ce4bgqh2rcd13ifvqc4g","pricing_plan_id":"cebpf4jnsgd1na2vs0mg"},{"bike_id":"a5932d33-7fe4-4ab5-ab73-558a4a420627","system_id":"levelo_inurba_marseille","lat":43.24439,"lon":5.40056,"is_reserved":false,"is_disabled":false,"rental_uris":{"android":"levelo://app?vid=a5932d33-7fe4-4ab5-ab73-558a4a420627","ios":"levelo://app?vid=a5932d33-7fe4-4ab5-ab73-558a4a420627"},"vehicle_type_id":"4","last_reported":1776884297,"current_range_meters":4800,"station_id":"","pricing_plan_id":"cebpf4jnsgd1na2vs0mg"},{"bike_id":"7cfbb905-e1ee-4612-b749-abac80e04228","system_id":"levelo_inurba_marseille","lat":43.3132,"lon":5.39683,"is_reserved":false,"is_disabled":false,"rental_uris":{"android":"levelo://app?vid=7cfbb905-e1ee-4612-b749-abac80e04228","ios":"levelo://app?vid=7cfbb905-e1ee-4612-b749-abac80e04228"},"vehicle_type_id":"4","last_reported":1776884297,"current_range_meters":4800,"station_id":"ce4bgvp2rcd13ifvqcu0","pricing_plan_id":"cebpf4jnsgd1na2vs0mg"},{"bike_id":"acdf65c9-5803-4463-907b-94a8f0ee93e4","system_id":"levelo_inurba_marseille","lat":43.28857,"lon":5.42518,"is_reserved":false,"is_disabled":false,"rental_uris":{"android":"levelo://app?vid=acdf65c9-5803-4463-907b-94a8f0ee93e4","ios":"levelo://app?vid=acdf65c9-5803-4463-907b-94a8f0ee93e4"},"vehicle_type_id":"4","last_reported":1776884297,"current_range_meters":4800,"station_id":"st_d3b462108ojc7389ooeg","pricing_plan_id":"cebpf4jnsgd1na2vs0mg"},{"bike_id":"7667da32-6518-4ca0-a8d9-649eadce9421","system_id":"levelo_inurba_marseille","lat":43.29774,"lon":5.38096,"is_reserved":false,"is_disabled":false,"rental_uris":{"android":"levelo://app?vid=7667da32-6518-4ca0-a8d9-649eadce9421","ios":"levelo://app?vid=7667da32-6518-4ca0-a8d9-649eadce9421"},"vehicle_type_id":"4","last_reported":1776884297,"current_range_meters":5600,"station_id":"ce4bgip2rcd13ifvqbb0","pricing_plan_id":"cebpf4jnsgd1na2vs0mg"},{"bike_id":"7556c328-861d-4330-8127-01ddadce3d64","system_id":"levelo_inurba_marseille","lat":43.3037,"lon":5.42489,"is_reserved":false,"is_disabled":false,"rental_uris":{"android":"levelo://app?vid=7556c328-861d-4330-8127-01ddadce3d64","ios":"levelo://app?vid=7556c328-861d-4330-8127-01ddadce3d64"},"vehicle_type_id":"4","last_reported":1776884297,"current_range_meters":5600,"station_id":"ce4bhoh2rcd13ifvqh6g","pricing_plan_id":"cebpf4jnsgd1na2vs0mg"},{"bike_id":"ab441cdc-9cd1-4c8e-b69e-34bb46fece34","system_id":"levelo_inurba_marseille","lat":43.29391,"lon":5.363,"is_reserved":false,"is_disabled":false,"rental_uris":{"android":"levelo://app?vid=ab441cdc-9cd1-4c8e-b69e-34bb46fece34","ios":"levelo://app?vid=ab441cdc-9cd1-4c8e-b69e-34bb46fece34"},"vehicle_type_id":"4","last_reported":1776884297,"current_range_meters":5600,"station_id":"","pricing_plan_id":"cebpf4jnsgd1na2vs0mg"},{"bike_id":"3ddb5174-c50c-4964-ba54-898026491bc0","system_id":"levelo_inurba_marseille","lat":43.29869,"lon":5.38912,"is_reserved":false,"is_disabled":false,"rental_uris":{"android":"levelo://app?vid=3ddb5174-c50c-4964-ba54-898026491bc0","ios":"levelo://app?vid=3ddb5174-c50c-4964-ba54-898026491bc0"},"vehicle_type_id":"4","last_reported":1776884297,"current_range_meters":5600,"station_id":"ce4bh392rcd13ifvqdl0","pricing_plan_id":"cebpf4jnsgd1na2vs0mg"},{"bike_id":"63dc8bdc-9afb-4d89-8dbc-6eca23d62090","system_id":"levelo_inurba_marseille","lat":43.30256,"lon":5.40061,"is_reserved":false,"is_disabled":false,"rental_uris":{"android":"levelo://app?vid=63dc8bdc-9afb-4d89-8dbc-6eca23d62090","ios":"levelo://app?vid=63dc8bdc-9afb-4d89-8dbc-6eca23d62090"},"vehicle_type_id":"4","last_reported":1776884297,"current_range_meters":5600,"station_id":"ce4bgvh2rcd13ifvqcs0","pricing_plan_id":"cebpf4jnsgd1na2vs0mg"},{"bike_id":"8194a0ff-2824-43c5-8a22-527fdaa0a136","system_id":"levelo_inurba_marseille","lat":43.27357,"lon":5.40889,"is_reserved":false,"is_disabled":false,"rental_uris":{"android":"levelo://app?vid=8194a0ff-2824-43c5-8a22-527fdaa0a136","ios":"levelo://app?vid=8194a0ff-2824-43c5-8a22-527fdaa0a136"},"vehicle_type_id":"4","last_reported":1776884297,"current_range_meters":5600,"station_id":"","pricing_plan_id":"cebpf4jnsgd1na2vs0mg"},{"bike_id":"087476b7-2274-4efa-ba87-1ee05a4f829c","system_id":"levelo_inurba_marseille","lat":43.30652,"lon":5.40078,"is_reserved":false,"is_disabled":false,"rental_uris":{"android":"levelo://app?vid=087476b7-2274-4efa-ba87-1ee05a4f829c","ios":"levelo://app?vid=087476b7-2274-4efa-ba87-1ee05a4f829c"},"vehicle_type_id":"4","last_reported":1776884297,"current_range_meters":5600,"station_id":"ce4bh112rcd13ifvqda0","pricing_plan_id":"cebpf4jnsgd1na2vs0mg"},{"bike_id":"7d3818a7-6cd7-4afb-a5c5-6557eac8aaaa","system_id":"levelo_inurba_marseille","lat":43.29813,"lon":5.38075,"is_reserved":false,"is_disabled":false,"rental_uris":{"android":"levelo://app?vid=7d3818a7-6cd7-4afb-a5c5-6557eac8aaaa","ios":"levelo://app?vid=7d3818a7-6cd7-4afb-a5c5-6557eac8aaaa"},"vehicle_type_id":"4","last_reported":1776884297,"current_range_meters":5600,"station_id":"ce4bgip2rcd13ifvqbb0","pricing_plan_id":"cebpf4jnsgd1na2vs0mg"},{"bike_id":"f3a0e42d-d6f1-4b31-afb5-c4667c8f968c","system_id":"levelo_inurba_marseille","lat":43.29513,"lon":5.39038,"is_reserved":false,"is_disabled":false,"rental_uris":{"android":"levelo://app?vid=f3a0e42d-d6f1-4b31-afb5-c4667c8f968c","ios":"levelo://app?vid=f3a0e42d-d6f1-4b31-afb5-c4667c8f968c"},"vehicle_type_id":"4","last_reported":1776884297,"current_range_meters":5600,"station_id":"ce4bh3p2rcd13ifvqdp0","pricing_plan_id":"cebpf4jnsgd1na2vs0mg"},{"bike_id":"536fa38a-c1bc-4652-b1fd-ef3ff74def6b","system_id":"levelo_inurba_marseille","lat":43.28845,"lon":5.42508,"is_reserved":false,"is_disabled":false,"rental_uris":{"android":"levelo://app?vid=536fa38a-c1bc-4652-b1fd-ef3ff74def6b","ios":"levelo://app?vid=536fa38a-c1bc-4652-b1fd-ef3ff74def6b"},"vehicle_type_id":"4","last_reported":1776884297,"current_range_meters":5600,"station_id":"st_d3b462108ojc7389ooeg","pricing_plan_id":"cebpf4jnsgd1na2vs0mg"},{"bike_id":"440aef3d-02a1-447a-986c-1d3cc74e2e9f","system_id":"levelo_inurba_marseille","lat":43.28618,"lon":5.35102,"is_reserved":false,"is_disabled":false,"rental_uris":{"android":"levelo://app?vid=440aef3d-02a1-447a-986c-1d3cc74e2e9f","ios":"levelo://app?vid=440aef3d-02a1-447a-986c-1d3cc74e2e9f"},"vehicle_type_id":"4","last_reported":1776884297,"current_range_meters":5600,"station_id":"ce4bhch2rcd13ifvqeug","pricing_plan_id":"cebpf4jnsgd1na2vs0mg"},{"bike_id":"d3fafc95-41fb-4f9c-8ea6-553ab0f42fc8","system_id":"levelo_inurba_marseille","lat":43.29306,"lon":5.371742,"is_reserved":false,"is_disabled":false,"rental_uris":{"android":"levelo://app?vid=d3fafc95-41fb-4f9c-8ea6-553ab0f42fc8","ios":"levelo://app?vid=d3fafc95-41fb-4f9c-8ea6-553ab0f42fc8"},"vehicle_type_id":"4","last_reported":1776884297,"current_range_meters":5600,"station_id":"ce4bgh92rcd13ifvqb40","pricing_plan_id":"cebpf4jnsgd1na2vs0mg"},{"bike_id":"5d6e3bca-f411-4c31-8a9e-f6ca6091ec78","system_id":"levelo_inurba_marseille","lat":43.28399,"lon":5.3751,"is_reserved":false,"is_disabled":false,"rental_uris":{"android":"levelo://app?vid=5d6e3bca-f411-4c31-8a9e-f6ca6091ec78","ios":"levelo://app?vid=5d6e3bca-f411-4c31-8a9e-f6ca6091ec78"},"vehicle_type_id":"4","last_reported":1776884297,"current_range_meters":6000,"station_id":"ce4bh412rcd13ifvqds0","pricing_plan_id":"cebpf4jnsgd1na2vs0mg"},{"bike_id":"73d436be-8bb5-400c-b5b8-edfd7e8d5913","system_id":"levelo_inurba_marseille","lat":43.337444,"lon":5.374475,"is_reserved":false,"is_disabled":false,"rental_uris":{"android":"levelo://app?vid=73d436be-8bb5-400c-b5b8-edfd7e8d5913","ios":"levelo://app?vid=73d436be-8bb5-400c-b5b8-edfd7e8d5913"},"vehicle_type_id":"4","last_reported":1776884297,"current_range_meters":6000,"station_id":"ce4bhgp2rcd13ifvqfc0","pricing_plan_id":"cebpf4jnsgd1na2vs0mg"},{"bike_id":"ba8faadf-6c0c-429c-910a-dff36b3ef975","system_id":"levelo_inurba_marseille","lat":43.2623,"lon":5.38772,"is_reserved":false,"is_disabled":false,"rental_uris":{"android":"levelo://app?vid=ba8faadf-6c0c-429c-910a-dff36b3ef975","ios":"levelo://app?vid=ba8faadf-6c0c-429c-910a-dff36b3ef975"},"vehicle_type_id":"4","last_reported":1776884297,"current_range_meters":6000,"station_id":"","pricing_plan_id":"cebpf4jnsgd1na2vs0mg"},{"bike_id":"32dfd18e-e0d0-467c-aca4-253472993898","system_id":"levelo_inurba_marseille","lat":43.28474,"lon":5.38412,"is_reserved":false,"is_disabled":false,"rental_uris":{"android":"levelo://app?vid=32dfd18e-e0d0-467c-aca4-253472993898","ios":"levelo://app?vid=32dfd18e-e0d0-467c-aca4-253472993898"},"vehicle_type_id":"4","last_reported":1776884297,"current_range_meters":6000,"station_id":"ce4bh512rcd13ifvqe3g","pricing_plan_id":"cebpf4jnsgd1na2vs0mg"},{"bike_id":"0618c7b6-2150-45b5-9647-727f3eefe639","system_id":"levelo_inurba_marseille","lat":43.29011,"lon":5.38654,"is_reserved":false,"is_disabled":false,"rental_uris":{"android":"levelo://app?vid=0618c7b6-2150-45b5-9647-727f3eefe639","ios":"levelo://app?vid=0618c7b6-2150-45b5-9647-727f3eefe639"},"vehicle_type_id":"4","last_reported":1776884297,"current_range_meters":6000,"station_id":"ce4bh4p2rcd13ifvqe0g","pricing_plan_id":"cebpf4jnsgd1na2vs0mg"},{"bike_id":"7185d8ec-9dc6-41c8-947f-9d3b0aaeb86b","system_id":"levelo_inurba_marseille","lat":43.23891,"lon":5.37463,"is_reserved":false,"is_disabled":true,"rental_uris":{"android":"levelo://app?vid=7185d8ec-9dc6-41c8-947f-9d3b0aaeb86b","ios":"levelo://app?vid=7185d8ec-9dc6-41c8-947f-9d3b0aaeb86b"},"vehicle_type_id":"4","last_reported":1776884297,"current_range_meters":6000,"station_id":"st_d6sm7csbq4hs73f8fpjg","pricing_plan_id":"cebpf4jnsgd1na2vs0mg"},{"bike_id":"882e84be-aff7-44fe-8e03-e10b9edfe543","system_id":"levelo_inurba_marseille","lat":43.29549,"lon":5.37556,"is_reserved":false,"is_disabled":true,"rental_uris":{"android":"levelo://app?vid=882e84be-aff7-44fe-8e03-e10b9edfe543","ios":"levelo://app?vid=882e84be-aff7-44fe-8e03-e10b9edfe543"},"vehicle_type_id":"4","last_reported":1776884297,"current_range_meters":6000,"station_id":"","pricing_plan_id":"cebpf4jnsgd1na2vs0mg"},{"bike_id":"1b9f3033-b460-4e1f-a438-9ab71168e18f","system_id":"levelo_inurba_marseille","lat":43.2892,"lon":5.36646,"is_reserved":false,"is_disabled":false,"rental_uris":{"android":"levelo://app?vid=1b9f3033-b460-4e1f-a438-9ab71168e18f","ios":"levelo://app?vid=1b9f3033-b460-4e1f-a438-9ab71168e18f"},"vehicle_type_id":"4","last_reported":1776884297,"current_range_meters":6400,"station_id":"ce4bhap2rcd13ifvqek0","pricing_plan_id":"cebpf4jnsgd1na2vs0mg"},{"bike_id":"c8a11b44-89ac-4487-9a99-53163ec5fd68","system_id":"levelo_inurba_marseille","lat":43.24989,"lon":5.38932,"is_reserved":false,"is_disabled":false,"rental_uris":{"android":"levelo://app?vid=c8a11b44-89ac-4487-9a99-53163ec5fd68","ios":"levelo://app?vid=c8a11b44-89ac-4487-9a99-53163ec5fd68"},"vehicle_type_id":"4","last_reported":1776884297,"current_range_meters":6400,"station_id":"ce4bhgp2rcd13ifvqfd0","pricing_plan_id":"cebpf4jnsgd1na2vs0mg"},{"bike_id":"04257b95-4499-46e1-a4e3-88ab526291ba","system_id":"levelo_inurba_marseille","lat":43.28468,"lon":5.48384,"is_reserved":false,"is_disabled":false,"rental_uris":{"android":"levelo://app?vid=04257b95-4499-46e1-a4e3-88ab526291ba","ios":"levelo://app?vid=04257b95-4499-46e1-a4e3-88ab526291ba"},"vehicle_type_id":"4","last_reported":1776884297,"current_range_meters":6400,"station_id":"","pricing_plan_id":"cebpf4jnsgd1na2vs0mg"},{"bike_id":"fe450047-0a49-4639-91e2-adf40561d801","system_id":"levelo_inurba_marseille","lat":43.2863,"lon":5.35093,"is_reserved":false,"is_disabled":false,"rental_uris":{"android":"levelo://app?vid=fe450047-0a49-4639-91e2-adf40561d801","ios":"levelo://app?vid=fe450047-0a49-4639-91e2-adf40561d801"},"vehicle_type_id":"4","last_reported":1776884297,"current_range_meters":6400,"station_id":"ce4bhch2rcd13ifvqeug","pricing_plan_id":"cebpf4jnsgd1na2vs0mg"},{"bike_id":"30c33986-0430-483f-9fb8-bcd3421739e0","system_id":"levelo_inurba_marseille","lat":43.27337,"lon":5.36258,"is_reserved":false,"is_disabled":false,"rental_uris":{"android":"levelo://app?vid=30c33986-0430-483f-9fb8-bcd3421739e0","ios":"levelo://app?vid=30c33986-0430-483f-9fb8-bcd3421739e0"},"vehicle_type_id":"4","last_reported":1776884297,"current_range_meters":6400,"station_id":"ce4bhbh2rcd13ifvqeo0","pricing_plan_id":"cebpf4jnsgd1na2vs0mg"},{"bike_id":"741ec748-06b3-454b-8687-4601dbe79e98","system_id":"levelo_inurba_marseille","lat":43.29224,"lon":5.36021,"is_reserved":false,"is_disabled":false,"rental_uris":{"android":"levelo://app?vid=741ec748-06b3-454b-8687-4601dbe79e98","ios":"levelo://app?vid=741ec748-06b3-454b-8687-4601dbe79e98"},"vehicle_type_id":"4","last_reported":1776884297,"current_range_meters":6400,"station_id":"ce4bhbh2rcd13ifvqeqg","pricing_plan_id":"cebpf4jnsgd1na2vs0mg"},{"bike_id":"7b5e30de-02f6-4665-a232-2e830e432076","system_id":"levelo_inurba_marseille","lat":43.29164,"lon":5.37164,"is_reserved":false,"is_disabled":false,"rental_uris":{"android":"levelo://app?vid=7b5e30de-02f6-4665-a232-2e830e432076","ios":"levelo://app?vid=7b5e30de-02f6-4665-a232-2e830e432076"},"vehicle_type_id":"4","last_reported":1776884297,"current_range_meters":6400,"station_id":"ce4bha92rcd13ifvqeh0","pricing_plan_id":"cebpf4jnsgd1na2vs0mg"},{"bike_id":"ff422c07-4472-471c-ab0d-dcb023acae97","system_id":"levelo_inurba_marseille","lat":43.30604,"lon":5.37155,"is_reserved":false,"is_disabled":false,"rental_uris":{"android":"levelo://app?vid=ff422c07-4472-471c-ab0d-dcb023acae97","ios":"levelo://app?vid=ff422c07-4472-471c-ab0d-dcb023acae97"},"vehicle_type_id":"4","last_reported":1776884297,"current_range_meters":6400,"station_id":"","pricing_plan_id":"cebpf4jnsgd1na2vs0mg"},{"bike_id":"5eafbc47-443d-49fa-aa78-0040f6a6647a","system_id":"levelo_inurba_marseille","lat":43.23155,"lon":5.43711,"is_reserved":false,"is_disabled":false,"rental_uris":{"android":"levelo://app?vid=5eafbc47-443d-49fa-aa78-0040f6a6647a","ios":"levelo://app?vid=5eafbc47-443d-49fa-aa78-0040f6a6647a"},"vehicle_type_id":"4","last_reported":1776884297,"current_range_meters":6400,"station_id":"ce4bhmp2rcd13ifvqgog","pricing_plan_id":"cebpf4jnsgd1na2vs0mg"},{"bike_id":"3fed0f8f-97fd-4b0a-b71b-b1097a1293dd","system_id":"levelo_inurba_marseille","lat":43.27199,"lon":5.39192,"is_reserved":false,"is_disabled":false,"rental_uris":{"android":"levelo://app?vid=3fed0f8f-97fd-4b0a-b71b-b1097a1293dd","ios":"levelo://app?vid=3fed0f8f-97fd-4b0a-b71b-b1097a1293dd"},"vehicle_type_id":"4","last_reported":1776884297,"current_range_meters":6400,"station_id":"ce4bhhp2rcd13ifvqfm0","pricing_plan_id":"cebpf4jnsgd1na2vs0mg"},{"bike_id":"53ac9b94-d2b8-401a-8133-9009372f217e","system_id":"levelo_inurba_marseille","lat":43.28468,"lon":5.48394,"is_reserved":false,"is_disabled":false,"rental_uris":{"android":"levelo://app?vid=53ac9b94-d2b8-401a-8133-9009372f217e","ios":"levelo://app?vid=53ac9b94-d2b8-401a-8133-9009372f217e"},"vehicle_type_id":"4","last_reported":1776884297,"current_range_meters":6400,"station_id":"","pricing_plan_id":"cebpf4jnsgd1na2vs0mg"},{"bike_id":"5b3f94f9-9543-4f85-a3da-3eb93206ad3a","system_id":"levelo_inurba_marseille","lat":43.30215,"lon":5.39463,"is_reserved":false,"is_disabled":false,"rental_uris":{"android":"levelo://app?vid=5b3f94f9-9543-4f85-a3da-3eb93206ad3a","ios":"levelo://app?vid=5b3f94f9-9543-4f85-a3da-3eb93206ad3a"},"vehicle_type_id":"4","last_reported":1776884297,"current_range_meters":6400,"station_id":"ce4bh0p2rcd13ifvqd70","pricing_plan_id":"cebpf4jnsgd1na2vs0mg"},{"bike_id":"afddf26b-a760-4e62-b8bd-805072a4017f","system_id":"levelo_inurba_marseille","lat":43.299329,"lon":5.365526,"is_reserved":false,"is_disabled":false,"rental_uris":{"android":"levelo://app?vid=afddf26b-a760-4e62-b8bd-805072a4017f","ios":"levelo://app?vid=afddf26b-a760-4e62-b8bd-805072a4017f"},"vehicle_type_id":"4","last_reported":1776884297,"current_range_meters":6400,"station_id":"ce4bgm92rcd13ifvqbr0","pricing_plan_id":"cebpf4jnsgd1na2vs0mg"},{"bike_id":"1c4db81e-e54e-450a-b910-a202dc639503","system_id":"levelo_inurba_marseille","lat":43.28473,"lon":5.48404,"is_reserved":false,"is_disabled":false,"rental_uris":{"android":"levelo://app?vid=1c4db81e-e54e-450a-b910-a202dc639503","ios":"levelo://app?vid=1c4db81e-e54e-450a-b910-a202dc639503"},"vehicle_type_id":"4","last_reported":1776884297,"current_range_meters":6800,"station_id":"","pricing_plan_id":"cebpf4jnsgd1na2vs0mg"},{"bike_id":"8c33dcad-8792-4b7f-9ebc-77429e11d6b0","system_id":"levelo_inurba_marseille","lat":43.32493,"lon":5.3657,"is_reserved":false,"is_disabled":false,"rental_uris":{"android":"levelo://app?vid=8c33dcad-8792-4b7f-9ebc-77429e11d6b0","ios":"levelo://app?vid=8c33dcad-8792-4b7f-9ebc-77429e11d6b0"},"vehicle_type_id":"4","last_reported":1776884297,"current_range_meters":6800,"station_id":"ce4bhs12rcd13ifvqhvg","pricing_plan_id":"cebpf4jnsgd1na2vs0mg"},{"bike_id":"fc83597b-c92a-4d6b-9ec3-85cccb5b70a7","system_id":"levelo_inurba_marseille","lat":43.31933,"lon":5.3679,"is_reserved":false,"is_disabled":false,"rental_uris":{"android":"levelo://app?vid=fc83597b-c92a-4d6b-9ec3-85cccb5b70a7","ios":"levelo://app?vid=fc83597b-c92a-4d6b-9ec3-85cccb5b70a7"},"vehicle_type_id":"4","last_reported":1776884297,"current_range_meters":6800,"station_id":"st_d6o2h0d0559c73evc1b0","pricing_plan_id":"cebpf4jnsgd1na2vs0mg"},{"bike_id":"bd3c6b3e-d299-464a-9a96-a94e112dc80d","system_id":"levelo_inurba_marseille","lat":43.29869,"lon":5.3624,"is_reserved":false,"is_disabled":false,"rental_uris":{"android":"levelo://app?vid=bd3c6b3e-d299-464a-9a96-a94e112dc80d","ios":"levelo://app?vid=bd3c6b3e-d299-464a-9a96-a94e112dc80d"},"vehicle_type_id":"4","last_reported":1776884297,"current_range_meters":6800,"station_id":"ce4bgpp2rcd13ifvqc3g","pricing_plan_id":"cebpf4jnsgd1na2vs0mg"},{"bike_id":"376bc06d-a12e-4bc9-92f7-5f4ed47ecae7","system_id":"levelo_inurba_marseille","lat":43.2767,"lon":5.38901,"is_reserved":false,"is_disabled":false,"rental_uris":{"android":"levelo://app?vid=376bc06d-a12e-4bc9-92f7-5f4ed47ecae7","ios":"levelo://app?vid=376bc06d-a12e-4bc9-92f7-5f4ed47ecae7"},"vehicle_type_id":"4","last_reported":1776884297,"current_range_meters":6800,"station_id":"ce4bhi12rcd13ifvqfo0","pricing_plan_id":"cebpf4jnsgd1na2vs0mg"},{"bike_id":"c7ff1d8c-9f80-4101-92ef-2f0b68fb525f","system_id":"levelo_inurba_marseille","lat":43.27609,"lon":5.39505,"is_reserved":false,"is_disabled":false,"rental_uris":{"android":"levelo://app?vid=c7ff1d8c-9f80-4101-92ef-2f0b68fb525f","ios":"levelo://app?vid=c7ff1d8c-9f80-4101-92ef-2f0b68fb525f"},"vehicle_type_id":"4","last_reported":1776884297,"current_range_meters":6800,"station_id":"","pricing_plan_id":"cebpf4jnsgd1na2vs0mg"},{"bike_id":"7bcba6ec-2fa4-4918-9a73-fea85a6638d3","system_id":"levelo_inurba_marseille","lat":43.27813,"lon":5.40494,"is_reserved":false,"is_disabled":false,"rental_uris":{"android":"levelo://app?vid=7bcba6ec-2fa4-4918-9a73-fea85a6638d3","ios":"levelo://app?vid=7bcba6ec-2fa4-4918-9a73-fea85a6638d3"},"vehicle_type_id":"4","last_reported":1776884297,"current_range_meters":6800,"station_id":"","pricing_plan_id":"cebpf4jnsgd1na2vs0mg"},{"bike_id":"2d55dcb6-939b-4f02-b41f-c34266fa9e7a","system_id":"levelo_inurba_marseille","lat":43.29191,"lon":5.3933,"is_reserved":false,"is_disabled":true,"rental_uris":{"android":"levelo://app?vid=2d55dcb6-939b-4f02-b41f-c34266fa9e7a","ios":"levelo://app?vid=2d55dcb6-939b-4f02-b41f-c34266fa9e7a"},"vehicle_type_id":"4","last_reported":1776884297,"current_range_meters":6800,"station_id":"ce4bh192rcd13ifvqdd0","pricing_plan_id":"cebpf4jnsgd1na2vs0mg"},{"bike_id":"968535b5-098b-49ce-84df-44fae92578bd","system_id":"levelo_inurba_marseille","lat":43.30581,"lon":5.37239,"is_reserved":false,"is_disabled":false,"rental_uris":{"android":"levelo://app?vid=968535b5-098b-49ce-84df-44fae92578bd","ios":"levelo://app?vid=968535b5-098b-49ce-84df-44fae92578bd"},"vehicle_type_id":"4","last_reported":1776884297,"current_range_meters":6800,"station_id":"ce4bgqh2rcd13ifvqc4g","pricing_plan_id":"cebpf4jnsgd1na2vs0mg"},{"bike_id":"a94d236d-eba8-4733-81ef-6d7a05120d94","system_id":"levelo_inurba_marseille","lat":43.24866,"lon":5.39401,"is_reserved":false,"is_disabled":false,"rental_uris":{"android":"levelo://app?vid=a94d236d-eba8-4733-81ef-6d7a05120d94","ios":"levelo://app?vid=a94d236d-eba8-4733-81ef-6d7a05120d94"},"vehicle_type_id":"4","last_reported":1776884297,"current_range_meters":6800,"station_id":"","pricing_plan_id":"cebpf4jnsgd1na2vs0mg"},{"bike_id":"6a5bbe70-48a0-4392-9136-9a0675f9bf10","system_id":"levelo_inurba_marseille","lat":43.26552,"lon":5.40317,"is_reserved":false,"is_disabled":true,"rental_uris":{"android":"levelo://app?vid=6a5bbe70-48a0-4392-9136-9a0675f9bf10","ios":"levelo://app?vid=6a5bbe70-48a0-4392-9136-9a0675f9bf10"},"vehicle_type_id":"4","last_reported":1776884297,"current_range_meters":6800,"station_id":"ce4bhmp2rcd13ifvqgng","pricing_plan_id":"cebpf4jnsgd1na2vs0mg"},{"bike_id":"e894a4f9-57b8-404c-a053-fa8ff9222667","system_id":"levelo_inurba_marseille","lat":43.28623,"lon":5.39851,"is_reserved":false,"is_disabled":true,"rental_uris":{"android":"levelo://app?vid=e894a4f9-57b8-404c-a053-fa8ff9222667","ios":"levelo://app?vid=e894a4f9-57b8-404c-a053-fa8ff9222667"},"vehicle_type_id":"4","last_reported":1776884297,"current_range_meters":6800,"station_id":"st_d4a7ka997mjs738ck50g","pricing_plan_id":"cebpf4jnsgd1na2vs0mg"},{"bike_id":"6b23908a-27fc-400a-b1b6-9daa8d6ab014","system_id":"levelo_inurba_marseille","lat":43.33707,"lon":5.39819,"is_reserved":false,"is_disabled":false,"rental_uris":{"android":"levelo://app?vid=6b23908a-27fc-400a-b1b6-9daa8d6ab014","ios":"levelo://app?vid=6b23908a-27fc-400a-b1b6-9daa8d6ab014"},"vehicle_type_id":"4","last_reported":1776884297,"current_range_meters":6800,"station_id":"","pricing_plan_id":"cebpf4jnsgd1na2vs0mg"},{"bike_id":"b503e929-2eef-4eef-a040-d0b506525994","system_id":"levelo_inurba_marseille","lat":43.29784,"lon":5.38075,"is_reserved":false,"is_disabled":false,"rental_uris":{"android":"levelo://app?vid=b503e929-2eef-4eef-a040-d0b506525994","ios":"levelo://app?vid=b503e929-2eef-4eef-a040-d0b506525994"},"vehicle_type_id":"4","last_reported":1776884297,"current_range_meters":6800,"station_id":"ce4bgip2rcd13ifvqbb0","pricing_plan_id":"cebpf4jnsgd1na2vs0mg"},{"bike_id":"6e65063f-6ad0-42e1-a760-7d153009481e","system_id":"levelo_inurba_marseille","lat":43.29272,"lon":5.3762,"is_reserved":false,"is_disabled":false,"rental_uris":{"android":"levelo://app?vid=6e65063f-6ad0-42e1-a760-7d153009481e","ios":"levelo://app?vid=6e65063f-6ad0-42e1-a760-7d153009481e"},"vehicle_type_id":"4","last_reported":1776884297,"current_range_meters":6800,"station_id":"ce4bgi12rcd13ifvqb80","pricing_plan_id":"cebpf4jnsgd1na2vs0mg"},{"bike_id":"6ee75b1e-3389-452c-805f-052a7231f6b2","system_id":"levelo_inurba_marseille","lat":43.28869,"lon":5.42513,"is_reserved":false,"is_disabled":false,"rental_uris":{"android":"levelo://app?vid=6ee75b1e-3389-452c-805f-052a7231f6b2","ios":"levelo://app?vid=6ee75b1e-3389-452c-805f-052a7231f6b2"},"vehicle_type_id":"4","last_reported":1776884297,"current_range_meters":7200,"station_id":"st_d3b462108ojc7389ooeg","pricing_plan_id":"cebpf4jnsgd1na2vs0mg"},{"bike_id":"7b477510-f637-48a3-8d07-151b6fdaa492","system_id":"levelo_inurba_marseille","lat":43.30138,"lon":5.39884,"is_reserved":false,"is_disabled":false,"rental_uris":{"android":"levelo://app?vid=7b477510-f637-48a3-8d07-151b6fdaa492","ios":"levelo://app?vid=7b477510-f637-48a3-8d07-151b6fdaa492"},"vehicle_type_id":"4","last_reported":1776884297,"current_range_meters":7200,"station_id":"ce4bh0h2rcd13ifvqd40","pricing_plan_id":"cebpf4jnsgd1na2vs0mg"},{"bike_id":"1ac32573-35ca-4b15-a3f0-b178fc7d1a24","system_id":"levelo_inurba_marseille","lat":43.23371,"lon":5.41238,"is_reserved":false,"is_disabled":false,"rental_uris":{"android":"levelo://app?vid=1ac32573-35ca-4b15-a3f0-b178fc7d1a24","ios":"levelo://app?vid=1ac32573-35ca-4b15-a3f0-b178fc7d1a24"},"vehicle_type_id":"4","last_reported":1776884297,"current_range_meters":7200,"station_id":"st_d75pvndhf9lc73cqq3eg","pricing_plan_id":"cebpf4jnsgd1na2vs0mg"},{"bike_id":"5c47d5b4-05d2-4ac8-8349-3679806a805a","system_id":"levelo_inurba_marseille","lat":43.27183,"lon":5.40973,"is_reserved":false,"is_disabled":false,"rental_uris":{"android":"levelo://app?vid=5c47d5b4-05d2-4ac8-8349-3679806a805a","ios":"levelo://app?vid=5c47d5b4-05d2-4ac8-8349-3679806a805a"},"vehicle_type_id":"4","last_reported":1776884297,"current_range_meters":7200,"station_id":"ce4bhl12rcd13ifvqgf0","pricing_plan_id":"cebpf4jnsgd1na2vs0mg"},{"bike_id":"afef3d94-3151-4274-828c-5c795862f2bc","system_id":"levelo_inurba_marseille","lat":43.29536,"lon":5.38543,"is_reserved":false,"is_disabled":false,"rental_uris":{"android":"levelo://app?vid=afef3d94-3151-4274-828c-5c795862f2bc","ios":"levelo://app?vid=afef3d94-3151-4274-828c-5c795862f2bc"},"vehicle_type_id":"4","last_reported":1776884297,"current_range_meters":7200,"station_id":"ce4bgih2rcd13ifvqba0","pricing_plan_id":"cebpf4jnsgd1na2vs0mg"},{"bike_id":"b0292b57-bc6e-4d3d-855f-2c85d8c85123","system_id":"levelo_inurba_marseille","lat":43.29321,"lon":5.36256,"is_reserved":false,"is_disabled":false,"rental_uris":{"android":"levelo://app?vid=b0292b57-bc6e-4d3d-855f-2c85d8c85123","ios":"levelo://app?vid=b0292b57-bc6e-4d3d-855f-2c85d8c85123"},"vehicle_type_id":"4","last_reported":1776884297,"current_range_meters":7200,"station_id":"","pricing_plan_id":"cebpf4jnsgd1na2vs0mg"},{"bike_id":"57140358-0cf2-4a5b-9680-5638c8f909bb","system_id":"levelo_inurba_marseille","lat":43.29189,"lon":5.39329,"is_reserved":false,"is_disabled":false,"rental_uris":{"android":"levelo://app?vid=57140358-0cf2-4a5b-9680-5638c8f909bb","ios":"levelo://app?vid=57140358-0cf2-4a5b-9680-5638c8f909bb"},"vehicle_type_id":"4","last_reported":1776884297,"current_range_meters":7200,"station_id":"ce4bh192rcd13ifvqdd0","pricing_plan_id":"cebpf4jnsgd1na2vs0mg"},{"bike_id":"50918bbe-8b4a-4832-b89d-ffef40c798ba","system_id":"levelo_inurba_marseille","lat":43.32353,"lon":5.36754,"is_reserved":false,"is_disabled":false,"rental_uris":{"android":"levelo://app?vid=50918bbe-8b4a-4832-b89d-ffef40c798ba","ios":"levelo://app?vid=50918bbe-8b4a-4832-b89d-ffef40c798ba"},"vehicle_type_id":"4","last_reported":1776884297,"current_range_meters":7200,"station_id":"ce4bhsh2rcd13ifvqi2g","pricing_plan_id":"cebpf4jnsgd1na2vs0mg"},{"bike_id":"1f218a43-cd16-4bde-8ac9-44ec5949fe85","system_id":"levelo_inurba_marseille","lat":43.29527,"lon":5.38535,"is_reserved":false,"is_disabled":false,"rental_uris":{"android":"levelo://app?vid=1f218a43-cd16-4bde-8ac9-44ec5949fe85","ios":"levelo://app?vid=1f218a43-cd16-4bde-8ac9-44ec5949fe85"},"vehicle_type_id":"4","last_reported":1776884297,"current_range_meters":7200,"station_id":"ce4bgih2rcd13ifvqba0","pricing_plan_id":"cebpf4jnsgd1na2vs0mg"},{"bike_id":"b07df4a8-3a84-4a6f-8930-a25b3ebe2fc3","system_id":"levelo_inurba_marseille","lat":43.3102,"lon":5.37718,"is_reserved":false,"is_disabled":false,"rental_uris":{"android":"levelo://app?vid=b07df4a8-3a84-4a6f-8930-a25b3ebe2fc3","ios":"levelo://app?vid=b07df4a8-3a84-4a6f-8930-a25b3ebe2fc3"},"vehicle_type_id":"4","last_reported":1776884297,"current_range_meters":7200,"station_id":"","pricing_plan_id":"cebpf4jnsgd1na2vs0mg"},{"bike_id":"d1fda486-70ba-4609-b998-7713b50defe1","system_id":"levelo_inurba_marseille","lat":43.27032,"lon":5.40065,"is_reserved":false,"is_disabled":false,"rental_uris":{"android":"levelo://app?vid=d1fda486-70ba-4609-b998-7713b50defe1","ios":"levelo://app?vid=d1fda486-70ba-4609-b998-7713b50defe1"},"vehicle_type_id":"4","last_reported":1776884297,"current_range_meters":7200,"station_id":"","pricing_plan_id":"cebpf4jnsgd1na2vs0mg"},{"bike_id":"29705f2a-ce6f-452f-8162-a3d24bdd8487","system_id":"levelo_inurba_marseille","lat":43.28454,"lon":5.39191,"is_reserved":false,"is_disabled":false,"rental_uris":{"android":"levelo://app?vid=29705f2a-ce6f-452f-8162-a3d24bdd8487","ios":"levelo://app?vid=29705f2a-ce6f-452f-8162-a3d24bdd8487"},"vehicle_type_id":"4","last_reported":1776884297,"current_range_meters":7200,"station_id":"ce4bhoh2rcd13ifvqh5g","pricing_plan_id":"cebpf4jnsgd1na2vs0mg"},{"bike_id":"97640678-22eb-456e-8a6b-8940edbd10ca","system_id":"levelo_inurba_marseille","lat":43.23914,"lon":5.41486,"is_reserved":false,"is_disabled":false,"rental_uris":{"android":"levelo://app?vid=97640678-22eb-456e-8a6b-8940edbd10ca","ios":"levelo://app?vid=97640678-22eb-456e-8a6b-8940edbd10ca"},"vehicle_type_id":"4","last_reported":1776884297,"current_range_meters":7200,"station_id":"","pricing_plan_id":"cebpf4jnsgd1na2vs0mg"},{"bike_id":"031edc34-ec0c-42fe-997e-5e9b2ec2a0bc","system_id":"levelo_inurba_marseille","lat":43.29774,"lon":5.37115,"is_reserved":false,"is_disabled":false,"rental_uris":{"android":"levelo://app?vid=031edc34-ec0c-42fe-997e-5e9b2ec2a0bc","ios":"levelo://app?vid=031edc34-ec0c-42fe-997e-5e9b2ec2a0bc"},"vehicle_type_id":"4","last_reported":1776884297,"current_range_meters":7200,"station_id":"ce4bgop2rcd13ifvqc1g","pricing_plan_id":"cebpf4jnsgd1na2vs0mg"},{"bike_id":"99dcc08c-320c-446b-addf-b1b474d8b357","system_id":"levelo_inurba_marseille","lat":43.2808,"lon":5.3964,"is_reserved":false,"is_disabled":false,"rental_uris":{"android":"levelo://app?vid=99dcc08c-320c-446b-addf-b1b474d8b357","ios":"levelo://app?vid=99dcc08c-320c-446b-addf-b1b474d8b357"},"vehicle_type_id":"4","last_reported":1776884297,"current_range_meters":7200,"station_id":"ce4bho12rcd13ifvqh2g","pricing_plan_id":"cebpf4jnsgd1na2vs0mg"},{"bike_id":"6b907305-57b3-4b1e-afd8-37913be1f185","system_id":"levelo_inurba_marseille","lat":43.29916,"lon":5.38152,"is_reserved":false,"is_disabled":false,"rental_uris":{"android":"levelo://app?vid=6b907305-57b3-4b1e-afd8-37913be1f185","ios":"levelo://app?vid=6b907305-57b3-4b1e-afd8-37913be1f185"},"vehicle_type_id":"4","last_reported":1776884297,"current_range_meters":7200,"station_id":"ce4bgj12rcd13ifvqbc0","pricing_plan_id":"cebpf4jnsgd1na2vs0mg"},{"bike_id":"bd72b1e4-f25f-4a1b-9ff3-ec6aef1a98e0","system_id":"levelo_inurba_marseille","lat":43.2867,"lon":5.38667,"is_reserved":false,"is_disabled":false,"rental_uris":{"android":"levelo://app?vid=bd72b1e4-f25f-4a1b-9ff3-ec6aef1a98e0","ios":"levelo://app?vid=bd72b1e4-f25f-4a1b-9ff3-ec6aef1a98e0"},"vehicle_type_id":"4","last_reported":1776884297,"current_range_meters":7200,"station_id":"ce4bh492rcd13ifvqdug","pricing_plan_id":"cebpf4jnsgd1na2vs0mg"},{"bike_id":"cfcc8dcf-6816-46a1-945d-fdf5ccf50752","system_id":"levelo_inurba_marseille","lat":43.3094,"lon":5.41194,"is_reserved":false,"is_disabled":false,"rental_uris":{"android":"levelo://app?vid=cfcc8dcf-6816-46a1-945d-fdf5ccf50752","ios":"levelo://app?vid=cfcc8dcf-6816-46a1-945d-fdf5ccf50752"},"vehicle_type_id":"4","last_reported":1776884297,"current_range_meters":7200,"station_id":"","pricing_plan_id":"cebpf4jnsgd1na2vs0mg"},{"bike_id":"5dcf5797-1a80-4364-9dce-59a66e203c0a","system_id":"levelo_inurba_marseille","lat":43.30526,"lon":5.38432,"is_reserved":false,"is_disabled":false,"rental_uris":{"android":"levelo://app?vid=5dcf5797-1a80-4364-9dce-59a66e203c0a","ios":"levelo://app?vid=5dcf5797-1a80-4364-9dce-59a66e203c0a"},"vehicle_type_id":"4","last_reported":1776884297,"current_range_meters":7200,"station_id":"ce4bgg92rcd13ifvqb30","pricing_plan_id":"cebpf4jnsgd1na2vs0mg"},{"bike_id":"873038f8-52d6-4618-968d-d955136c8dae","system_id":"levelo_inurba_marseille","lat":43.28085,"lon":5.37861,"is_reserved":false,"is_disabled":true,"rental_uris":{"android":"levelo://app?vid=873038f8-52d6-4618-968d-d955136c8dae","ios":"levelo://app?vid=873038f8-52d6-4618-968d-d955136c8dae"},"vehicle_type_id":"4","last_reported":1776884297,"current_range_meters":7200,"station_id":"ce4bha12rcd13ifvqee0","pricing_plan_id":"cebpf4jnsgd1na2vs0mg"},{"bike_id":"059b4ad8-665d-46df-9a3f-e9b9a20a1c99","system_id":"levelo_inurba_marseille","lat":43.33532,"lon":5.37467,"is_reserved":false,"is_disabled":false,"rental_uris":{"android":"levelo://app?vid=059b4ad8-665d-46df-9a3f-e9b9a20a1c99","ios":"levelo://app?vid=059b4ad8-665d-46df-9a3f-e9b9a20a1c99"},"vehicle_type_id":"4","last_reported":1776884297,"current_range_meters":7200,"station_id":"st_d46tts09ee8s73dlu43g","pricing_plan_id":"cebpf4jnsgd1na2vs0mg"},{"bike_id":"faf9535a-bce1-4796-967b-116ea7429902","system_id":"levelo_inurba_marseille","lat":43.29779,"lon":5.39337,"is_reserved":false,"is_disabled":false,"rental_uris":{"android":"levelo://app?vid=faf9535a-bce1-4796-967b-116ea7429902","ios":"levelo://app?vid=faf9535a-bce1-4796-967b-116ea7429902"},"vehicle_type_id":"4","last_reported":1776884297,"current_range_meters":8000,"station_id":"chh1huq6cuj3fo74tm60","pricing_plan_id":"cebpf4jnsgd1na2vs0mg"},{"bike_id":"03b714fc-d600-4ef7-a461-b7b6354d1f22","system_id":"levelo_inurba_marseille","lat":43.2954,"lon":5.39032,"is_reserved":false,"is_disabled":false,"rental_uris":{"android":"levelo://app?vid=03b714fc-d600-4ef7-a461-b7b6354d1f22","ios":"levelo://app?vid=03b714fc-d600-4ef7-a461-b7b6354d1f22"},"vehicle_type_id":"4","last_reported":1776884297,"current_range_meters":8000,"station_id":"ce4bh3p2rcd13ifvqdp0","pricing_plan_id":"cebpf4jnsgd1na2vs0mg"},{"bike_id":"4a630963-d321-44fb-8306-1032c1df46cd","system_id":"levelo_inurba_marseille","lat":43.27076,"lon":5.42274,"is_reserved":false,"is_disabled":false,"rental_uris":{"android":"levelo://app?vid=4a630963-d321-44fb-8306-1032c1df46cd","ios":"levelo://app?vid=4a630963-d321-44fb-8306-1032c1df46cd"},"vehicle_type_id":"4","last_reported":1776884297,"current_range_meters":8000,"station_id":"ce4bhk92rcd13ifvqgb0","pricing_plan_id":"cebpf4jnsgd1na2vs0mg"},{"bike_id":"d029b96e-b789-40db-b6cf-9ba9a983048f","system_id":"levelo_inurba_marseille","lat":43.3014,"lon":5.38779,"is_reserved":false,"is_disabled":false,"rental_uris":{"android":"levelo://app?vid=d029b96e-b789-40db-b6cf-9ba9a983048f","ios":"levelo://app?vid=d029b96e-b789-40db-b6cf-9ba9a983048f"},"vehicle_type_id":"4","last_reported":1776884297,"current_range_meters":8000,"station_id":"ce4bghh2rcd13ifvqb60","pricing_plan_id":"cebpf4jnsgd1na2vs0mg"},{"bike_id":"4b238495-9e17-4e30-ba10-f38ba953e732","system_id":"levelo_inurba_marseille","lat":43.29764,"lon":5.37103,"is_reserved":false,"is_disabled":false,"rental_uris":{"android":"levelo://app?vid=4b238495-9e17-4e30-ba10-f38ba953e732","ios":"levelo://app?vid=4b238495-9e17-4e30-ba10-f38ba953e732"},"vehicle_type_id":"4","last_reported":1776884297,"current_range_meters":8000,"station_id":"ce4bgop2rcd13ifvqc1g","pricing_plan_id":"cebpf4jnsgd1na2vs0mg"},{"bike_id":"f8d46f57-68ae-42a5-9479-ae67d8834276","system_id":"levelo_inurba_marseille","lat":43.29975,"lon":5.37085,"is_reserved":false,"is_disabled":false,"rental_uris":{"android":"levelo://app?vid=f8d46f57-68ae-42a5-9479-ae67d8834276","ios":"levelo://app?vid=f8d46f57-68ae-42a5-9479-ae67d8834276"},"vehicle_type_id":"4","last_reported":1776884297,"current_range_meters":8000,"station_id":"","pricing_plan_id":"cebpf4jnsgd1na2vs0mg"},{"bike_id":"a36ceb06-d998-45e4-a518-3187bdec2dec","system_id":"levelo_inurba_marseille","lat":43.23959,"lon":5.36626,"is_reserved":false,"is_disabled":false,"rental_uris":{"android":"levelo://app?vid=a36ceb06-d998-45e4-a518-3187bdec2dec","ios":"levelo://app?vid=a36ceb06-d998-45e4-a518-3187bdec2dec"},"vehicle_type_id":"4","last_reported":1776884297,"current_range_meters":8000,"station_id":"ce4bhi12rcd13ifvqfp0","pricing_plan_id":"cebpf4jnsgd1na2vs0mg"},{"bike_id":"2ac15ea7-1904-4a69-9f5e-f4cb7754354f","system_id":"levelo_inurba_marseille","lat":43.24066,"lon":5.37767,"is_reserved":false,"is_disabled":false,"rental_uris":{"android":"levelo://app?vid=2ac15ea7-1904-4a69-9f5e-f4cb7754354f","ios":"levelo://app?vid=2ac15ea7-1904-4a69-9f5e-f4cb7754354f"},"vehicle_type_id":"4","last_reported":1776884297,"current_range_meters":8000,"station_id":"ce4bhnp2rcd13ifvqgvg","pricing_plan_id":"cebpf4jnsgd1na2vs0mg"},{"bike_id":"38dd2460-cbcd-49d7-956b-3dd2158e97b1","system_id":"levelo_inurba_marseille","lat":43.25114,"lon":5.40331,"is_reserved":false,"is_disabled":false,"rental_uris":{"android":"levelo://app?vid=38dd2460-cbcd-49d7-956b-3dd2158e97b1","ios":"levelo://app?vid=38dd2460-cbcd-49d7-956b-3dd2158e97b1"},"vehicle_type_id":"4","last_reported":1776884297,"current_range_meters":8000,"station_id":"ce4bhlh2rcd13ifvqgig","pricing_plan_id":"cebpf4jnsgd1na2vs0mg"},{"bike_id":"0d8738c8-efd5-4f83-bedf-81eb9a1d6096","system_id":"levelo_inurba_marseille","lat":43.33166,"lon":5.36172,"is_reserved":false,"is_disabled":false,"rental_uris":{"android":"levelo://app?vid=0d8738c8-efd5-4f83-bedf-81eb9a1d6096","ios":"levelo://app?vid=0d8738c8-efd5-4f83-bedf-81eb9a1d6096"},"vehicle_type_id":"4","last_reported":1776884297,"current_range_meters":8000,"station_id":"","pricing_plan_id":"cebpf4jnsgd1na2vs0mg"},{"bike_id":"aa3d5a99-64bb-4996-8662-bfd3c15dc0fe","system_id":"levelo_inurba_marseille","lat":43.30135,"lon":5.39872,"is_reserved":false,"is_disabled":false,"rental_uris":{"android":"levelo://app?vid=aa3d5a99-64bb-4996-8662-bfd3c15dc0fe","ios":"levelo://app?vid=aa3d5a99-64bb-4996-8662-bfd3c15dc0fe"},"vehicle_type_id":"4","last_reported":1776884297,"current_range_meters":8000,"station_id":"ce4bh0h2rcd13ifvqd40","pricing_plan_id":"cebpf4jnsgd1na2vs0mg"},{"bike_id":"dd95c1fb-0934-4478-83c0-e83a5e6a8527","system_id":"levelo_inurba_marseille","lat":43.29927,"lon":5.3813,"is_reserved":false,"is_disabled":false,"rental_uris":{"android":"levelo://app?vid=dd95c1fb-0934-4478-83c0-e83a5e6a8527","ios":"levelo://app?vid=dd95c1fb-0934-4478-83c0-e83a5e6a8527"},"vehicle_type_id":"4","last_reported":1776884297,"current_range_meters":8400,"station_id":"ce4bgj12rcd13ifvqbc0","pricing_plan_id":"cebpf4jnsgd1na2vs0mg"},{"bike_id":"09012acd-7e2a-4e46-b00e-3df38d87fafc","system_id":"levelo_inurba_marseille","lat":43.24885,"lon":5.40613,"is_reserved":false,"is_disabled":false,"rental_uris":{"android":"levelo://app?vid=09012acd-7e2a-4e46-b00e-3df38d87fafc","ios":"levelo://app?vid=09012acd-7e2a-4e46-b00e-3df38d87fafc"},"vehicle_type_id":"4","last_reported":1776884297,"current_range_meters":8400,"station_id":"","pricing_plan_id":"cebpf4jnsgd1na2vs0mg"},{"bike_id":"46a8898e-e5cc-4df4-ac09-f68a4ebd52a8","system_id":"levelo_inurba_marseille","lat":43.30138,"lon":5.38774,"is_reserved":false,"is_disabled":false,"rental_uris":{"android":"levelo://app?vid=46a8898e-e5cc-4df4-ac09-f68a4ebd52a8","ios":"levelo://app?vid=46a8898e-e5cc-4df4-ac09-f68a4ebd52a8"},"vehicle_type_id":"4","last_reported":1776884297,"current_range_meters":8400,"station_id":"ce4bghh2rcd13ifvqb60","pricing_plan_id":"cebpf4jnsgd1na2vs0mg"},{"bike_id":"f2ff52a7-1503-4a80-9a0e-a217d36469bb","system_id":"levelo_inurba_marseille","lat":43.31052,"lon":5.37151,"is_reserved":false,"is_disabled":false,"rental_uris":{"android":"levelo://app?vid=f2ff52a7-1503-4a80-9a0e-a217d36469bb","ios":"levelo://app?vid=f2ff52a7-1503-4a80-9a0e-a217d36469bb"},"vehicle_type_id":"4","last_reported":1776884297,"current_range_meters":8400,"station_id":"st_d4kl2rp97mjs73e7tdfg","pricing_plan_id":"cebpf4jnsgd1na2vs0mg"},{"bike_id":"16f7fe35-694a-4eb9-9cc6-4679694d07e2","system_id":"levelo_inurba_marseille","lat":43.31248,"lon":5.37927,"is_reserved":false,"is_disabled":false,"rental_uris":{"android":"levelo://app?vid=16f7fe35-694a-4eb9-9cc6-4679694d07e2","ios":"levelo://app?vid=16f7fe35-694a-4eb9-9cc6-4679694d07e2"},"vehicle_type_id":"4","last_reported":1776884297,"current_range_meters":8400,"station_id":"","pricing_plan_id":"cebpf4jnsgd1na2vs0mg"},{"bike_id":"1de38cb0-0c82-457e-aba9-e0ca4183131d","system_id":"levelo_inurba_marseille","lat":43.26802,"lon":5.40269,"is_reserved":false,"is_disabled":false,"rental_uris":{"android":"levelo://app?vid=1de38cb0-0c82-457e-aba9-e0ca4183131d","ios":"levelo://app?vid=1de38cb0-0c82-457e-aba9-e0ca4183131d"},"vehicle_type_id":"4","last_reported":1776884297,"current_range_meters":8400,"station_id":"ce501612rcd8frsf0b60","pricing_plan_id":"cebpf4jnsgd1na2vs0mg"},{"bike_id":"226ece2b-87fc-494b-b9b1-29d4f3a23456","system_id":"levelo_inurba_marseille","lat":43.28328,"lon":5.42637,"is_reserved":false,"is_disabled":false,"rental_uris":{"android":"levelo://app?vid=226ece2b-87fc-494b-b9b1-29d4f3a23456","ios":"levelo://app?vid=226ece2b-87fc-494b-b9b1-29d4f3a23456"},"vehicle_type_id":"4","last_reported":1776884297,"current_range_meters":8400,"station_id":"","pricing_plan_id":"cebpf4jnsgd1na2vs0mg"},{"bike_id":"c4a5be84-23ca-46fa-992d-930745549150","system_id":"levelo_inurba_marseille","lat":43.29643,"lon":5.40593,"is_reserved":false,"is_disabled":false,"rental_uris":{"android":"levelo://app?vid=c4a5be84-23ca-46fa-992d-930745549150","ios":"levelo://app?vid=c4a5be84-23ca-46fa-992d-930745549150"},"vehicle_type_id":"4","last_reported":1776884297,"current_range_meters":8400,"station_id":"ce4bh0h2rcd13ifvqd60","pricing_plan_id":"cebpf4jnsgd1na2vs0mg"},{"bike_id":"98f62dc9-0b50-4f3b-93e9-85e5ac18f5cc","system_id":"levelo_inurba_marseille","lat":43.28652,"lon":5.3707,"is_reserved":false,"is_disabled":false,"rental_uris":{"android":"levelo://app?vid=98f62dc9-0b50-4f3b-93e9-85e5ac18f5cc","ios":"levelo://app?vid=98f62dc9-0b50-4f3b-93e9-85e5ac18f5cc"},"vehicle_type_id":"4","last_reported":1776884297,"current_range_meters":8400,"station_id":"","pricing_plan_id":"cebpf4jnsgd1na2vs0mg"},{"bike_id":"e61bc510-c262-4934-8f35-de99fc50a31e","system_id":"levelo_inurba_marseille","lat":43.30142,"lon":5.39867,"is_reserved":false,"is_disabled":false,"rental_uris":{"android":"levelo://app?vid=e61bc510-c262-4934-8f35-de99fc50a31e","ios":"levelo://app?vid=e61bc510-c262-4934-8f35-de99fc50a31e"},"vehicle_type_id":"4","last_reported":1776884297,"current_range_meters":8400,"station_id":"ce4bh0h2rcd13ifvqd40","pricing_plan_id":"cebpf4jnsgd1na2vs0mg"},{"bike_id":"6ec609cc-95ae-468b-9e32-d17ea92ee609","system_id":"levelo_inurba_marseille","lat":43.28451,"lon":5.35881,"is_reserved":false,"is_disabled":false,"rental_uris":{"android":"levelo://app?vid=6ec609cc-95ae-468b-9e32-d17ea92ee609","ios":"levelo://app?vid=6ec609cc-95ae-468b-9e32-d17ea92ee609"},"vehicle_type_id":"4","last_reported":1776884297,"current_range_meters":8400,"station_id":"ce4bhah2rcd13ifvqei0","pricing_plan_id":"cebpf4jnsgd1na2vs0mg"},{"bike_id":"27333076-abb5-4a9b-ac59-89b1742839cf","system_id":"levelo_inurba_marseille","lat":43.28711,"lon":5.37959,"is_reserved":false,"is_disabled":true,"rental_uris":{"android":"levelo://app?vid=27333076-abb5-4a9b-ac59-89b1742839cf","ios":"levelo://app?vid=27333076-abb5-4a9b-ac59-89b1742839cf"},"vehicle_type_id":"4","last_reported":1776884297,"current_range_meters":8400,"station_id":"ce4bh9p2rcd13ifvqec0","pricing_plan_id":"cebpf4jnsgd1na2vs0mg"},{"bike_id":"8d201ac1-2a07-4caf-9ed7-a1f281c7bacd","system_id":"levelo_inurba_marseille","lat":43.26571,"lon":5.37288,"is_reserved":false,"is_disabled":false,"rental_uris":{"android":"levelo://app?vid=8d201ac1-2a07-4caf-9ed7-a1f281c7bacd","ios":"levelo://app?vid=8d201ac1-2a07-4caf-9ed7-a1f281c7bacd"},"vehicle_type_id":"4","last_reported":1776884297,"current_range_meters":8400,"station_id":"ce4bhg12rcd13ifvqf70","pricing_plan_id":"cebpf4jnsgd1na2vs0mg"},{"bike_id":"8ad30868-064f-4d1f-aab0-97e3ab80ff59","system_id":"levelo_inurba_marseille","lat":43.29625,"lon":5.40608,"is_reserved":false,"is_disabled":false,"rental_uris":{"android":"levelo://app?vid=8ad30868-064f-4d1f-aab0-97e3ab80ff59","ios":"levelo://app?vid=8ad30868-064f-4d1f-aab0-97e3ab80ff59"},"vehicle_type_id":"4","last_reported":1776884297,"current_range_meters":8400,"station_id":"ce4bh0h2rcd13ifvqd60","pricing_plan_id":"cebpf4jnsgd1na2vs0mg"},{"bike_id":"38a484aa-5688-483d-a486-9780ac4b888d","system_id":"levelo_inurba_marseille","lat":43.2925,"lon":5.38442,"is_reserved":false,"is_disabled":false,"rental_uris":{"android":"levelo://app?vid=38a484aa-5688-483d-a486-9780ac4b888d","ios":"levelo://app?vid=38a484aa-5688-483d-a486-9780ac4b888d"},"vehicle_type_id":"4","last_reported":1776884297,"current_range_meters":8400,"station_id":"ce4bh692rcd13ifvqea0","pricing_plan_id":"cebpf4jnsgd1na2vs0mg"},{"bike_id":"645956b0-eb82-482d-8460-97c7581b581e","system_id":"levelo_inurba_marseille","lat":43.24999,"lon":5.38924,"is_reserved":false,"is_disabled":false,"rental_uris":{"android":"levelo://app?vid=645956b0-eb82-482d-8460-97c7581b581e","ios":"levelo://app?vid=645956b0-eb82-482d-8460-97c7581b581e"},"vehicle_type_id":"4","last_reported":1776884297,"current_range_meters":8400,"station_id":"ce4bhgp2rcd13ifvqfd0","pricing_plan_id":"cebpf4jnsgd1na2vs0mg"},{"bike_id":"975fcb9b-1b51-495d-8031-2a8c6eb741cf","system_id":"levelo_inurba_marseille","lat":43.31691,"lon":5.4047,"is_reserved":false,"is_disabled":false,"rental_uris":{"android":"levelo://app?vid=975fcb9b-1b51-495d-8031-2a8c6eb741cf","ios":"levelo://app?vid=975fcb9b-1b51-495d-8031-2a8c6eb741cf"},"vehicle_type_id":"4","last_reported":1776884297,"current_range_meters":8400,"station_id":"ce4bh012rcd13ifvqd00","pricing_plan_id":"cebpf4jnsgd1na2vs0mg"},{"bike_id":"6f061c2d-e294-44c5-a556-1fdc3d57ab50","system_id":"levelo_inurba_marseille","lat":43.31704,"lon":5.40445,"is_reserved":false,"is_disabled":false,"rental_uris":{"android":"levelo://app?vid=6f061c2d-e294-44c5-a556-1fdc3d57ab50","ios":"levelo://app?vid=6f061c2d-e294-44c5-a556-1fdc3d57ab50"},"vehicle_type_id":"4","last_reported":1776884297,"current_range_meters":8800,"station_id":"ce4bh012rcd13ifvqd00","pricing_plan_id":"cebpf4jnsgd1na2vs0mg"},{"bike_id":"11950379-0406-4543-8366-59097d9cc211","system_id":"levelo_inurba_marseille","lat":43.29542,"lon":5.38543,"is_reserved":false,"is_disabled":false,"rental_uris":{"android":"levelo://app?vid=11950379-0406-4543-8366-59097d9cc211","ios":"levelo://app?vid=11950379-0406-4543-8366-59097d9cc211"},"vehicle_type_id":"4","last_reported":1776884297,"current_range_meters":8800,"station_id":"ce4bgih2rcd13ifvqba0","pricing_plan_id":"cebpf4jnsgd1na2vs0mg"},{"bike_id":"f12e7adc-c081-4652-9247-8637f1a7e34a","system_id":"levelo_inurba_marseille","lat":43.26509,"lon":5.39092,"is_reserved":false,"is_disabled":false,"rental_uris":{"android":"levelo://app?vid=f12e7adc-c081-4652-9247-8637f1a7e34a","ios":"levelo://app?vid=f12e7adc-c081-4652-9247-8637f1a7e34a"},"vehicle_type_id":"4","last_reported":1776884297,"current_range_meters":8800,"station_id":"","pricing_plan_id":"cebpf4jnsgd1na2vs0mg"},{"bike_id":"87bac0a9-0c64-4ce3-825c-50a54f92e6f7","system_id":"levelo_inurba_marseille","lat":43.28294,"lon":5.35079,"is_reserved":false,"is_disabled":false,"rental_uris":{"android":"levelo://app?vid=87bac0a9-0c64-4ce3-825c-50a54f92e6f7","ios":"levelo://app?vid=87bac0a9-0c64-4ce3-825c-50a54f92e6f7"},"vehicle_type_id":"4","last_reported":1776884297,"current_range_meters":8800,"station_id":"ce4bhbp2rcd13ifvqerg","pricing_plan_id":"cebpf4jnsgd1na2vs0mg"},{"bike_id":"fd090187-b3cd-49e0-82c6-b3817cf3be1b","system_id":"levelo_inurba_marseille","lat":43.29872,"lon":5.38572,"is_reserved":false,"is_disabled":false,"rental_uris":{"android":"levelo://app?vid=fd090187-b3cd-49e0-82c6-b3817cf3be1b","ios":"levelo://app?vid=fd090187-b3cd-49e0-82c6-b3817cf3be1b"},"vehicle_type_id":"4","last_reported":1776884297,"current_range_meters":8800,"station_id":"","pricing_plan_id":"cebpf4jnsgd1na2vs0mg"},{"bike_id":"25c88c62-2ded-4683-8828-b80d49d5ea10","system_id":"levelo_inurba_marseille","lat":43.301,"lon":5.36681,"is_reserved":false,"is_disabled":false,"rental_uris":{"android":"levelo://app?vid=25c88c62-2ded-4683-8828-b80d49d5ea10","ios":"levelo://app?vid=25c88c62-2ded-4683-8828-b80d49d5ea10"},"vehicle_type_id":"4","last_reported":1776884297,"current_range_meters":8800,"station_id":"","pricing_plan_id":"cebpf4jnsgd1na2vs0mg"},{"bike_id":"4cd4bc1d-308f-4a56-ac8e-bdea4ad9bef4","system_id":"levelo_inurba_marseille","lat":43.29887,"lon":5.3973,"is_reserved":false,"is_disabled":true,"rental_uris":{"android":"levelo://app?vid=4cd4bc1d-308f-4a56-ac8e-bdea4ad9bef4","ios":"levelo://app?vid=4cd4bc1d-308f-4a56-ac8e-bdea4ad9bef4"},"vehicle_type_id":"4","last_reported":1776884297,"current_range_meters":8800,"station_id":"ce4bh0h2rcd13ifvqd50","pricing_plan_id":"cebpf4jnsgd1na2vs0mg"},{"bike_id":"798a1614-9814-4de3-9e5d-e54e12d30724","system_id":"levelo_inurba_marseille","lat":43.30297,"lon":5.39212,"is_reserved":false,"is_disabled":false,"rental_uris":{"android":"levelo://app?vid=798a1614-9814-4de3-9e5d-e54e12d30724","ios":"levelo://app?vid=798a1614-9814-4de3-9e5d-e54e12d30724"},"vehicle_type_id":"4","last_reported":1776884297,"current_range_meters":8800,"station_id":"ce4bgkh2rcd13ifvqbk0","pricing_plan_id":"cebpf4jnsgd1na2vs0mg"},{"bike_id":"1c21b5e4-18ba-4d77-b990-0019b8294ddb","system_id":"levelo_inurba_marseille","lat":43.2656,"lon":5.39645,"is_reserved":false,"is_disabled":false,"rental_uris":{"android":"levelo://app?vid=1c21b5e4-18ba-4d77-b990-0019b8294ddb","ios":"levelo://app?vid=1c21b5e4-18ba-4d77-b990-0019b8294ddb"},"vehicle_type_id":"4","last_reported":1776884297,"current_range_meters":8800,"station_id":"","pricing_plan_id":"cebpf4jnsgd1na2vs0mg"},{"bike_id":"8445c654-2035-402c-8213-dd082a252d54","system_id":"levelo_inurba_marseille","lat":43.30731,"lon":5.42444,"is_reserved":false,"is_disabled":false,"rental_uris":{"android":"levelo://app?vid=8445c654-2035-402c-8213-dd082a252d54","ios":"levelo://app?vid=8445c654-2035-402c-8213-dd082a252d54"},"vehicle_type_id":"4","last_reported":1776884297,"current_range_meters":8800,"station_id":"st_cvj6ca6bvosntc0bfgr0","pricing_plan_id":"cebpf4jnsgd1na2vs0mg"},{"bike_id":"a56889e7-37d7-487e-a661-9c8461fe50da","system_id":"levelo_inurba_marseille","lat":43.30907,"lon":5.36844,"is_reserved":false,"is_disabled":false,"rental_uris":{"android":"levelo://app?vid=a56889e7-37d7-487e-a661-9c8461fe50da","ios":"levelo://app?vid=a56889e7-37d7-487e-a661-9c8461fe50da"},"vehicle_type_id":"4","last_reported":1776884297,"current_range_meters":8800,"station_id":"ce4bgn92rcd13ifvqbvg","pricing_plan_id":"cebpf4jnsgd1na2vs0mg"},{"bike_id":"19145919-a225-4afd-a698-ef808e1ee6ee","system_id":"levelo_inurba_marseille","lat":43.29777,"lon":5.38089,"is_reserved":false,"is_disabled":false,"rental_uris":{"android":"levelo://app?vid=19145919-a225-4afd-a698-ef808e1ee6ee","ios":"levelo://app?vid=19145919-a225-4afd-a698-ef808e1ee6ee"},"vehicle_type_id":"4","last_reported":1776884297,"current_range_meters":8800,"station_id":"ce4bgip2rcd13ifvqbb0","pricing_plan_id":"cebpf4jnsgd1na2vs0mg"},{"bike_id":"7c2d4cbd-4710-4158-8d5e-3ef9174bf26f","system_id":"levelo_inurba_marseille","lat":43.28132,"lon":5.42291,"is_reserved":false,"is_disabled":true,"rental_uris":{"android":"levelo://app?vid=7c2d4cbd-4710-4158-8d5e-3ef9174bf26f","ios":"levelo://app?vid=7c2d4cbd-4710-4158-8d5e-3ef9174bf26f"},"vehicle_type_id":"4","last_reported":1776884297,"current_range_meters":8800,"station_id":"","pricing_plan_id":"cebpf4jnsgd1na2vs0mg"},{"bike_id":"25931435-472d-4946-9b9a-fc67e50f018d","system_id":"levelo_inurba_marseille","lat":43.23023,"lon":5.44477,"is_reserved":false,"is_disabled":false,"rental_uris":{"android":"levelo://app?vid=25931435-472d-4946-9b9a-fc67e50f018d","ios":"levelo://app?vid=25931435-472d-4946-9b9a-fc67e50f018d"},"vehicle_type_id":"4","last_reported":1776884297,"current_range_meters":8800,"station_id":"","pricing_plan_id":"cebpf4jnsgd1na2vs0mg"},{"bike_id":"772652df-39a3-4a7d-ab76-86683fdc6511","system_id":"levelo_inurba_marseille","lat":43.28907,"lon":5.36879,"is_reserved":false,"is_disabled":false,"rental_uris":{"android":"levelo://app?vid=772652df-39a3-4a7d-ab76-86683fdc6511","ios":"levelo://app?vid=772652df-39a3-4a7d-ab76-86683fdc6511"},"vehicle_type_id":"4","last_reported":1776884297,"current_range_meters":8800,"station_id":"","pricing_plan_id":"cebpf4jnsgd1na2vs0mg"},{"bike_id":"0f8495bd-680c-438e-baa1-5ef6af45ed33","system_id":"levelo_inurba_marseille","lat":43.29567,"lon":5.39977,"is_reserved":false,"is_disabled":false,"rental_uris":{"android":"levelo://app?vid=0f8495bd-680c-438e-baa1-5ef6af45ed33","ios":"levelo://app?vid=0f8495bd-680c-438e-baa1-5ef6af45ed33"},"vehicle_type_id":"4","last_reported":1776884297,"current_range_meters":8800,"station_id":"ce4bh312rcd13ifvqdj0","pricing_plan_id":"cebpf4jnsgd1na2vs0mg"},{"bike_id":"43551c7e-2e91-49bb-b9fd-9391ff299d13","system_id":"levelo_inurba_marseille","lat":43.23985,"lon":5.36616,"is_reserved":false,"is_disabled":false,"rental_uris":{"android":"levelo://app?vid=43551c7e-2e91-49bb-b9fd-9391ff299d13","ios":"levelo://app?vid=43551c7e-2e91-49bb-b9fd-9391ff299d13"},"vehicle_type_id":"4","last_reported":1776884297,"current_range_meters":8800,"station_id":"ce4bhi12rcd13ifvqfp0","pricing_plan_id":"cebpf4jnsgd1na2vs0mg"},{"bike_id":"38faf73f-c72d-4bb9-9220-f1d22f4c16ad","system_id":"levelo_inurba_marseille","lat":43.25226,"lon":5.37455,"is_reserved":false,"is_disabled":false,"rental_uris":{"android":"levelo://app?vid=38faf73f-c72d-4bb9-9220-f1d22f4c16ad","ios":"levelo://app?vid=38faf73f-c72d-4bb9-9220-f1d22f4c16ad"},"vehicle_type_id":"4","last_reported":1776884297,"current_range_meters":8800,"station_id":"","pricing_plan_id":"cebpf4jnsgd1na2vs0mg"},{"bike_id":"7815ddfa-84fd-4ae5-b67a-cd6d6508af90","system_id":"levelo_inurba_marseille","lat":43.28035,"lon":5.36906,"is_reserved":false,"is_disabled":false,"rental_uris":{"android":"levelo://app?vid=7815ddfa-84fd-4ae5-b67a-cd6d6508af90","ios":"levelo://app?vid=7815ddfa-84fd-4ae5-b67a-cd6d6508af90"},"vehicle_type_id":"4","last_reported":1776884297,"current_range_meters":9200,"station_id":"ce4bha12rcd13ifvqef0","pricing_plan_id":"cebpf4jnsgd1na2vs0mg"},{"bike_id":"d55b7166-12de-4bdf-8b05-1755f1067768","system_id":"levelo_inurba_marseille","lat":43.30145,"lon":5.39844,"is_reserved":false,"is_disabled":false,"rental_uris":{"android":"levelo://app?vid=d55b7166-12de-4bdf-8b05-1755f1067768","ios":"levelo://app?vid=d55b7166-12de-4bdf-8b05-1755f1067768"},"vehicle_type_id":"4","last_reported":1776884297,"current_range_meters":9200,"station_id":"ce4bh0h2rcd13ifvqd40","pricing_plan_id":"cebpf4jnsgd1na2vs0mg"},{"bike_id":"0923929c-d272-4fa1-a3d9-8f4c7a6f830d","system_id":"levelo_inurba_marseille","lat":43.30827,"lon":5.38164,"is_reserved":false,"is_disabled":false,"rental_uris":{"android":"levelo://app?vid=0923929c-d272-4fa1-a3d9-8f4c7a6f830d","ios":"levelo://app?vid=0923929c-d272-4fa1-a3d9-8f4c7a6f830d"},"vehicle_type_id":"4","last_reported":1776884297,"current_range_meters":9200,"station_id":"ce4bgt12rcd13ifvqce0","pricing_plan_id":"cebpf4jnsgd1na2vs0mg"},{"bike_id":"205eefac-f379-49f9-b02e-ad048a493b05","system_id":"levelo_inurba_marseille","lat":43.27115,"lon":5.42552,"is_reserved":false,"is_disabled":false,"rental_uris":{"android":"levelo://app?vid=205eefac-f379-49f9-b02e-ad048a493b05","ios":"levelo://app?vid=205eefac-f379-49f9-b02e-ad048a493b05"},"vehicle_type_id":"4","last_reported":1776884297,"current_range_meters":9200,"station_id":"","pricing_plan_id":"cebpf4jnsgd1na2vs0mg"},{"bike_id":"8c7e6e89-906f-4c99-b7dc-6a45a98182eb","system_id":"levelo_inurba_marseille","lat":43.29548,"lon":5.39027,"is_reserved":false,"is_disabled":false,"rental_uris":{"android":"levelo://app?vid=8c7e6e89-906f-4c99-b7dc-6a45a98182eb","ios":"levelo://app?vid=8c7e6e89-906f-4c99-b7dc-6a45a98182eb"},"vehicle_type_id":"4","last_reported":1776884297,"current_range_meters":9200,"station_id":"ce4bh3p2rcd13ifvqdp0","pricing_plan_id":"cebpf4jnsgd1na2vs0mg"},{"bike_id":"0f5c90b0-33e2-49d6-8403-cf3a4cabbf77","system_id":"levelo_inurba_marseille","lat":43.29287,"lon":5.37184,"is_reserved":false,"is_disabled":false,"rental_uris":{"android":"levelo://app?vid=0f5c90b0-33e2-49d6-8403-cf3a4cabbf77","ios":"levelo://app?vid=0f5c90b0-33e2-49d6-8403-cf3a4cabbf77"},"vehicle_type_id":"4","last_reported":1776884297,"current_range_meters":9200,"station_id":"ce4bgh92rcd13ifvqb40","pricing_plan_id":"cebpf4jnsgd1na2vs0mg"},{"bike_id":"500638d0-cf5c-4061-b413-99b5dc6f2377","system_id":"levelo_inurba_marseille","lat":43.27446,"lon":5.42473,"is_reserved":false,"is_disabled":false,"rental_uris":{"android":"levelo://app?vid=500638d0-cf5c-4061-b413-99b5dc6f2377","ios":"levelo://app?vid=500638d0-cf5c-4061-b413-99b5dc6f2377"},"vehicle_type_id":"4","last_reported":1776884297,"current_range_meters":9200,"station_id":"","pricing_plan_id":"cebpf4jnsgd1na2vs0mg"},{"bike_id":"9068e8a8-df59-4d8b-ae30-c8b8f39fb401","system_id":"levelo_inurba_marseille","lat":43.29327,"lon":5.37154,"is_reserved":false,"is_disabled":false,"rental_uris":{"android":"levelo://app?vid=9068e8a8-df59-4d8b-ae30-c8b8f39fb401","ios":"levelo://app?vid=9068e8a8-df59-4d8b-ae30-c8b8f39fb401"},"vehicle_type_id":"4","last_reported":1776884297,"current_range_meters":9200,"station_id":"ce4bgh92rcd13ifvqb40","pricing_plan_id":"cebpf4jnsgd1na2vs0mg"},{"bike_id":"8331af0f-100e-470f-9e36-7657fa113fe2","system_id":"levelo_inurba_marseille","lat":43.31232,"lon":5.36873,"is_reserved":false,"is_disabled":false,"rental_uris":{"android":"levelo://app?vid=8331af0f-100e-470f-9e36-7657fa113fe2","ios":"levelo://app?vid=8331af0f-100e-470f-9e36-7657fa113fe2"},"vehicle_type_id":"4","last_reported":1776884297,"current_range_meters":9200,"station_id":"ce4bgl92rcd13ifvqbq0","pricing_plan_id":"cebpf4jnsgd1na2vs0mg"},{"bike_id":"52d848d3-e124-40a2-855d-fb7f07415aa4","system_id":"levelo_inurba_marseille","lat":43.28388,"lon":5.37538,"is_reserved":false,"is_disabled":true,"rental_uris":{"android":"levelo://app?vid=52d848d3-e124-40a2-855d-fb7f07415aa4","ios":"levelo://app?vid=52d848d3-e124-40a2-855d-fb7f07415aa4"},"vehicle_type_id":"4","last_reported":1776884297,"current_range_meters":9200,"station_id":"ce4bh412rcd13ifvqds0","pricing_plan_id":"cebpf4jnsgd1na2vs0mg"},{"bike_id":"f22fab7c-d9ef-452e-9e0a-f53fca1bb2ad","system_id":"levelo_inurba_marseille","lat":43.29539,"lon":5.39041,"is_reserved":false,"is_disabled":false,"rental_uris":{"android":"levelo://app?vid=f22fab7c-d9ef-452e-9e0a-f53fca1bb2ad","ios":"levelo://app?vid=f22fab7c-d9ef-452e-9e0a-f53fca1bb2ad"},"vehicle_type_id":"4","last_reported":1776884297,"current_range_meters":9200,"station_id":"ce4bh3p2rcd13ifvqdp0","pricing_plan_id":"cebpf4jnsgd1na2vs0mg"},{"bike_id":"b7c8d7b8-94e1-4c81-9cd9-6870c5f4b76e","system_id":"levelo_inurba_marseille","lat":43.29691,"lon":5.37684,"is_reserved":false,"is_disabled":false,"rental_uris":{"android":"levelo://app?vid=b7c8d7b8-94e1-4c81-9cd9-6870c5f4b76e","ios":"levelo://app?vid=b7c8d7b8-94e1-4c81-9cd9-6870c5f4b76e"},"vehicle_type_id":"4","last_reported":1776884297,"current_range_meters":9200,"station_id":"ce4bgkh2rcd13ifvqbl0","pricing_plan_id":"cebpf4jnsgd1na2vs0mg"},{"bike_id":"50a4937c-b4e2-4e00-bb97-635b356fe48c","system_id":"levelo_inurba_marseille","lat":43.29203,"lon":5.35799,"is_reserved":false,"is_disabled":false,"rental_uris":{"android":"levelo://app?vid=50a4937c-b4e2-4e00-bb97-635b356fe48c","ios":"levelo://app?vid=50a4937c-b4e2-4e00-bb97-635b356fe48c"},"vehicle_type_id":"4","last_reported":1776884297,"current_range_meters":9200,"station_id":"ce4bhb12rcd13ifvqel0","pricing_plan_id":"cebpf4jnsgd1na2vs0mg"},{"bike_id":"34843b43-f3a6-4c9c-894b-976b194522af","system_id":"levelo_inurba_marseille","lat":43.25515,"lon":5.37657,"is_reserved":false,"is_disabled":false,"rental_uris":{"android":"levelo://app?vid=34843b43-f3a6-4c9c-894b-976b194522af","ios":"levelo://app?vid=34843b43-f3a6-4c9c-894b-976b194522af"},"vehicle_type_id":"4","last_reported":1776884297,"current_range_meters":9200,"station_id":"ce4bhh12rcd13ifvqff0","pricing_plan_id":"cebpf4jnsgd1na2vs0mg"},{"bike_id":"46335186-6bd7-4461-9e78-da17046593c8","system_id":"levelo_inurba_marseille","lat":43.28473,"lon":5.3842,"is_reserved":false,"is_disabled":false,"rental_uris":{"android":"levelo://app?vid=46335186-6bd7-4461-9e78-da17046593c8","ios":"levelo://app?vid=46335186-6bd7-4461-9e78-da17046593c8"},"vehicle_type_id":"4","last_reported":1776884297,"current_range_meters":9200,"station_id":"ce4bh512rcd13ifvqe3g","pricing_plan_id":"cebpf4jnsgd1na2vs0mg"},{"bike_id":"f3f2b1b8-361c-439d-af6c-144b8f2b403b","system_id":"levelo_inurba_marseille","lat":43.30888,"lon":5.39644,"is_reserved":false,"is_disabled":false,"rental_uris":{"android":"levelo://app?vid=f3f2b1b8-361c-439d-af6c-144b8f2b403b","ios":"levelo://app?vid=f3f2b1b8-361c-439d-af6c-144b8f2b403b"},"vehicle_type_id":"4","last_reported":1776884297,"current_range_meters":9200,"station_id":"ce4bh012rcd13ifvqcv0","pricing_plan_id":"cebpf4jnsgd1na2vs0mg"},{"bike_id":"d26339ac-f4f9-4439-8cba-335e6927c082","system_id":"levelo_inurba_marseille","lat":43.30156,"lon":5.39863,"is_reserved":false,"is_disabled":false,"rental_uris":{"android":"levelo://app?vid=d26339ac-f4f9-4439-8cba-335e6927c082","ios":"levelo://app?vid=d26339ac-f4f9-4439-8cba-335e6927c082"},"vehicle_type_id":"4","last_reported":1776884297,"current_range_meters":9600,"station_id":"ce4bh0h2rcd13ifvqd40","pricing_plan_id":"cebpf4jnsgd1na2vs0mg"},{"bike_id":"70b9185d-ed24-4c23-b56f-d24b79b55ab8","system_id":"levelo_inurba_marseille","lat":43.28992,"lon":5.35608,"is_reserved":false,"is_disabled":false,"rental_uris":{"android":"levelo://app?vid=70b9185d-ed24-4c23-b56f-d24b79b55ab8","ios":"levelo://app?vid=70b9185d-ed24-4c23-b56f-d24b79b55ab8"},"vehicle_type_id":"4","last_reported":1776884297,"current_range_meters":9600,"station_id":"ce4bhb92rcd13ifvqen0","pricing_plan_id":"cebpf4jnsgd1na2vs0mg"},{"bike_id":"46be8457-d960-48a6-ad5b-f789ef8076c1","system_id":"levelo_inurba_marseille","lat":43.2967,"lon":5.3785,"is_reserved":false,"is_disabled":false,"rental_uris":{"android":"levelo://app?vid=46be8457-d960-48a6-ad5b-f789ef8076c1","ios":"levelo://app?vid=46be8457-d960-48a6-ad5b-f789ef8076c1"},"vehicle_type_id":"4","last_reported":1776884297,"current_range_meters":9600,"station_id":"","pricing_plan_id":"cebpf4jnsgd1na2vs0mg"},{"bike_id":"97563811-de7e-4fb9-bbc8-59c1cb66a0eb","system_id":"levelo_inurba_marseille","lat":43.243839,"lon":5.370514,"is_reserved":false,"is_disabled":false,"rental_uris":{"android":"levelo://app?vid=97563811-de7e-4fb9-bbc8-59c1cb66a0eb","ios":"levelo://app?vid=97563811-de7e-4fb9-bbc8-59c1cb66a0eb"},"vehicle_type_id":"4","last_reported":1776884297,"current_range_meters":9600,"station_id":"ce4bhhh2rcd13ifvqfk0","pricing_plan_id":"cebpf4jnsgd1na2vs0mg"},{"bike_id":"745efcb8-73c4-4b8c-9732-ada2e0fa7c05","system_id":"levelo_inurba_marseille","lat":43.2466,"lon":5.38163,"is_reserved":false,"is_disabled":false,"rental_uris":{"android":"levelo://app?vid=745efcb8-73c4-4b8c-9732-ada2e0fa7c05","ios":"levelo://app?vid=745efcb8-73c4-4b8c-9732-ada2e0fa7c05"},"vehicle_type_id":"4","last_reported":1776884297,"current_range_meters":9600,"station_id":"ce4bhih2rcd13ifvqfr0","pricing_plan_id":"cebpf4jnsgd1na2vs0mg"},{"bike_id":"68e86292-e11d-49d5-888c-58848729cc3c","system_id":"levelo_inurba_marseille","lat":43.28364,"lon":5.38698,"is_reserved":false,"is_disabled":false,"rental_uris":{"android":"levelo://app?vid=68e86292-e11d-49d5-888c-58848729cc3c","ios":"levelo://app?vid=68e86292-e11d-49d5-888c-58848729cc3c"},"vehicle_type_id":"4","last_reported":1776884297,"current_range_meters":9600,"station_id":"ce4bh492rcd13ifvqdvg","pricing_plan_id":"cebpf4jnsgd1na2vs0mg"},{"bike_id":"c66a3767-2b45-4a46-9fa2-b7710e99cbc2","system_id":"levelo_inurba_marseille","lat":43.29809,"lon":5.38072,"is_reserved":false,"is_disabled":false,"rental_uris":{"android":"levelo://app?vid=c66a3767-2b45-4a46-9fa2-b7710e99cbc2","ios":"levelo://app?vid=c66a3767-2b45-4a46-9fa2-b7710e99cbc2"},"vehicle_type_id":"4","last_reported":1776884297,"current_range_meters":9600,"station_id":"ce4bgip2rcd13ifvqbb0","pricing_plan_id":"cebpf4jnsgd1na2vs0mg"},{"bike_id":"68e56175-b857-46c2-b84f-8591cfaf3283","system_id":"levelo_inurba_marseille","lat":43.23966,"lon":5.3662,"is_reserved":false,"is_disabled":false,"rental_uris":{"android":"levelo://app?vid=68e56175-b857-46c2-b84f-8591cfaf3283","ios":"levelo://app?vid=68e56175-b857-46c2-b84f-8591cfaf3283"},"vehicle_type_id":"4","last_reported":1776884297,"current_range_meters":9600,"station_id":"ce4bhi12rcd13ifvqfp0","pricing_plan_id":"cebpf4jnsgd1na2vs0mg"},{"bike_id":"9acbd7de-8a47-4146-88f4-ae310da0d9b6","system_id":"levelo_inurba_marseille","lat":43.27982,"lon":5.41664,"is_reserved":false,"is_disabled":false,"rental_uris":{"android":"levelo://app?vid=9acbd7de-8a47-4146-88f4-ae310da0d9b6","ios":"levelo://app?vid=9acbd7de-8a47-4146-88f4-ae310da0d9b6"},"vehicle_type_id":"4","last_reported":1776884297,"current_range_meters":9600,"station_id":"ce4bho12rcd13ifvqh1g","pricing_plan_id":"cebpf4jnsgd1na2vs0mg"},{"bike_id":"8f89b1ec-f034-41f7-b273-62773f3e0602","system_id":"levelo_inurba_marseille","lat":43.28991,"lon":5.35618,"is_reserved":false,"is_disabled":false,"rental_uris":{"android":"levelo://app?vid=8f89b1ec-f034-41f7-b273-62773f3e0602","ios":"levelo://app?vid=8f89b1ec-f034-41f7-b273-62773f3e0602"},"vehicle_type_id":"4","last_reported":1776884297,"current_range_meters":9600,"station_id":"ce4bhb92rcd13ifvqen0","pricing_plan_id":"cebpf4jnsgd1na2vs0mg"},{"bike_id":"9c3677d0-627f-49f8-bd9c-64ba96ef4fce","system_id":"levelo_inurba_marseille","lat":43.2847,"lon":5.48393,"is_reserved":false,"is_disabled":false,"rental_uris":{"android":"levelo://app?vid=9c3677d0-627f-49f8-bd9c-64ba96ef4fce","ios":"levelo://app?vid=9c3677d0-627f-49f8-bd9c-64ba96ef4fce"},"vehicle_type_id":"4","last_reported":1776884297,"current_range_meters":9600,"station_id":"","pricing_plan_id":"cebpf4jnsgd1na2vs0mg"},{"bike_id":"c5f7c8ef-3d79-4d95-824e-1f5f8072e3d2","system_id":"levelo_inurba_marseille","lat":43.28486,"lon":5.38417,"is_reserved":false,"is_disabled":false,"rental_uris":{"android":"levelo://app?vid=c5f7c8ef-3d79-4d95-824e-1f5f8072e3d2","ios":"levelo://app?vid=c5f7c8ef-3d79-4d95-824e-1f5f8072e3d2"},"vehicle_type_id":"4","last_reported":1776884297,"current_range_meters":9600,"station_id":"ce4bh512rcd13ifvqe3g","pricing_plan_id":"cebpf4jnsgd1na2vs0mg"},{"bike_id":"41333148-3a9c-4c0b-94ef-3a8adc4eea22","system_id":"levelo_inurba_marseille","lat":43.29254,"lon":5.38438,"is_reserved":false,"is_disabled":false,"rental_uris":{"android":"levelo://app?vid=41333148-3a9c-4c0b-94ef-3a8adc4eea22","ios":"levelo://app?vid=41333148-3a9c-4c0b-94ef-3a8adc4eea22"},"vehicle_type_id":"4","last_reported":1776884297,"current_range_meters":9600,"station_id":"ce4bh692rcd13ifvqea0","pricing_plan_id":"cebpf4jnsgd1na2vs0mg"},{"bike_id":"cde30f64-411f-4ee0-9e6a-d2eac6d0a7a4","system_id":"levelo_inurba_marseille","lat":43.28673,"lon":5.36344,"is_reserved":false,"is_disabled":false,"rental_uris":{"android":"levelo://app?vid=cde30f64-411f-4ee0-9e6a-d2eac6d0a7a4","ios":"levelo://app?vid=cde30f64-411f-4ee0-9e6a-d2eac6d0a7a4"},"vehicle_type_id":"4","last_reported":1776884297,"current_range_meters":9600,"station_id":"ce4bhah2rcd13ifvqej0","pricing_plan_id":"cebpf4jnsgd1na2vs0mg"},{"bike_id":"acb21e01-eb23-4757-a0b0-d28719e33c48","system_id":"levelo_inurba_marseille","lat":43.28977,"lon":5.39836,"is_reserved":false,"is_disabled":false,"rental_uris":{"android":"levelo://app?vid=acb21e01-eb23-4757-a0b0-d28719e33c48","ios":"levelo://app?vid=acb21e01-eb23-4757-a0b0-d28719e33c48"},"vehicle_type_id":"4","last_reported":1776884297,"current_range_meters":9600,"station_id":"","pricing_plan_id":"cebpf4jnsgd1na2vs0mg"},{"bike_id":"0503e3ce-22a2-4b85-9440-1fd31bf7fc51","system_id":"levelo_inurba_marseille","lat":43.26203,"lon":5.41555,"is_reserved":false,"is_disabled":false,"rental_uris":{"android":"levelo://app?vid=0503e3ce-22a2-4b85-9440-1fd31bf7fc51","ios":"levelo://app?vid=0503e3ce-22a2-4b85-9440-1fd31bf7fc51"},"vehicle_type_id":"4","last_reported":1776884297,"current_range_meters":9600,"station_id":"","pricing_plan_id":"cebpf4jnsgd1na2vs0mg"},{"bike_id":"1f812c79-a1cc-4770-94e4-c447fae650ce","system_id":"levelo_inurba_marseille","lat":43.28616,"lon":5.3896,"is_reserved":false,"is_disabled":false,"rental_uris":{"android":"levelo://app?vid=1f812c79-a1cc-4770-94e4-c447fae650ce","ios":"levelo://app?vid=1f812c79-a1cc-4770-94e4-c447fae650ce"},"vehicle_type_id":"4","last_reported":1776884297,"current_range_meters":10000,"station_id":"","pricing_plan_id":"cebpf4jnsgd1na2vs0mg"},{"bike_id":"1b96147a-0a00-444b-a6da-e7e56ca38fd6","system_id":"levelo_inurba_marseille","lat":43.29877,"lon":5.39721,"is_reserved":false,"is_disabled":false,"rental_uris":{"android":"levelo://app?vid=1b96147a-0a00-444b-a6da-e7e56ca38fd6","ios":"levelo://app?vid=1b96147a-0a00-444b-a6da-e7e56ca38fd6"},"vehicle_type_id":"4","last_reported":1776884297,"current_range_meters":10000,"station_id":"ce4bh0h2rcd13ifvqd50","pricing_plan_id":"cebpf4jnsgd1na2vs0mg"},{"bike_id":"aac8d525-8c84-436f-a81d-44f9bdecbbfc","system_id":"levelo_inurba_marseille","lat":43.25086,"lon":5.39517,"is_reserved":false,"is_disabled":false,"rental_uris":{"android":"levelo://app?vid=aac8d525-8c84-436f-a81d-44f9bdecbbfc","ios":"levelo://app?vid=aac8d525-8c84-436f-a81d-44f9bdecbbfc"},"vehicle_type_id":"4","last_reported":1776884297,"current_range_meters":10000,"station_id":"ce4bhm12rcd13ifvqgkg","pricing_plan_id":"cebpf4jnsgd1na2vs0mg"},{"bike_id":"2762151c-37b3-45f3-b7d7-d3dc9aa45e78","system_id":"levelo_inurba_marseille","lat":43.30195,"lon":5.36646,"is_reserved":false,"is_disabled":false,"rental_uris":{"android":"levelo://app?vid=2762151c-37b3-45f3-b7d7-d3dc9aa45e78","ios":"levelo://app?vid=2762151c-37b3-45f3-b7d7-d3dc9aa45e78"},"vehicle_type_id":"4","last_reported":1776884297,"current_range_meters":10000,"station_id":"ce4bgrh2rcd13ifvqc8g","pricing_plan_id":"cebpf4jnsgd1na2vs0mg"},{"bike_id":"5f4c9ff4-ad39-4233-8a18-52e8b6a010bf","system_id":"levelo_inurba_marseille","lat":43.26483,"lon":5.39557,"is_reserved":false,"is_disabled":false,"rental_uris":{"android":"levelo://app?vid=5f4c9ff4-ad39-4233-8a18-52e8b6a010bf","ios":"levelo://app?vid=5f4c9ff4-ad39-4233-8a18-52e8b6a010bf"},"vehicle_type_id":"4","last_reported":1776884297,"current_range_meters":10000,"station_id":"ce4bhi12rcd13ifvqfq0","pricing_plan_id":"cebpf4jnsgd1na2vs0mg"},{"bike_id":"03002e38-6cc6-4266-bca3-d1a185f45181","system_id":"levelo_inurba_marseille","lat":43.29087,"lon":5.37141,"is_reserved":false,"is_disabled":false,"rental_uris":{"android":"levelo://app?vid=03002e38-6cc6-4266-bca3-d1a185f45181","ios":"levelo://app?vid=03002e38-6cc6-4266-bca3-d1a185f45181"},"vehicle_type_id":"4","last_reported":1776884297,"current_range_meters":10000,"station_id":"ce4bh5p2rcd13ifvqe4g","pricing_plan_id":"cebpf4jnsgd1na2vs0mg"},{"bike_id":"9e49397d-b15f-42ca-b438-81f289c696f0","system_id":"levelo_inurba_marseille","lat":43.23214,"lon":5.43712,"is_reserved":false,"is_disabled":true,"rental_uris":{"android":"levelo://app?vid=9e49397d-b15f-42ca-b438-81f289c696f0","ios":"levelo://app?vid=9e49397d-b15f-42ca-b438-81f289c696f0"},"vehicle_type_id":"4","last_reported":1776884297,"current_range_meters":10000,"station_id":"","pricing_plan_id":"cebpf4jnsgd1na2vs0mg"},{"bike_id":"c7041db6-efe9-470b-b3aa-61638cf7bac3","system_id":"levelo_inurba_marseille","lat":43.33548,"lon":5.37462,"is_reserved":false,"is_disabled":false,"rental_uris":{"android":"levelo://app?vid=c7041db6-efe9-470b-b3aa-61638cf7bac3","ios":"levelo://app?vid=c7041db6-efe9-470b-b3aa-61638cf7bac3"},"vehicle_type_id":"4","last_reported":1776884297,"current_range_meters":10000,"station_id":"st_d46tts09ee8s73dlu43g","pricing_plan_id":"cebpf4jnsgd1na2vs0mg"},{"bike_id":"f5c3a6a6-3609-40ad-9c49-87232dad5958","system_id":"levelo_inurba_marseille","lat":43.30594,"lon":5.39358,"is_reserved":false,"is_disabled":true,"rental_uris":{"android":"levelo://app?vid=f5c3a6a6-3609-40ad-9c49-87232dad5958","ios":"levelo://app?vid=f5c3a6a6-3609-40ad-9c49-87232dad5958"},"vehicle_type_id":"4","last_reported":1776884297,"current_range_meters":10000,"station_id":"ce4bh0p2rcd13ifvqd80","pricing_plan_id":"cebpf4jnsgd1na2vs0mg"},{"bike_id":"81c6baef-10f5-4319-92c1-6f08b9b2f8c7","system_id":"levelo_inurba_marseille","lat":43.2929,"lon":5.38442,"is_reserved":false,"is_disabled":false,"rental_uris":{"android":"levelo://app?vid=81c6baef-10f5-4319-92c1-6f08b9b2f8c7","ios":"levelo://app?vid=81c6baef-10f5-4319-92c1-6f08b9b2f8c7"},"vehicle_type_id":"4","last_reported":1776884297,"current_range_meters":10000,"station_id":"ce4bh692rcd13ifvqea0","pricing_plan_id":"cebpf4jnsgd1na2vs0mg"},{"bike_id":"f1c5df5d-b88c-410d-81bb-9f92ab637c93","system_id":"levelo_inurba_marseille","lat":43.28482,"lon":5.38434,"is_reserved":false,"is_disabled":false,"rental_uris":{"android":"levelo://app?vid=f1c5df5d-b88c-410d-81bb-9f92ab637c93","ios":"levelo://app?vid=f1c5df5d-b88c-410d-81bb-9f92ab637c93"},"vehicle_type_id":"4","last_reported":1776884297,"current_range_meters":10000,"station_id":"ce4bh512rcd13ifvqe3g","pricing_plan_id":"cebpf4jnsgd1na2vs0mg"},{"bike_id":"e4a4c047-d140-43bf-b145-688cae32d5ca","system_id":"levelo_inurba_marseille","lat":43.30435,"lon":5.38897,"is_reserved":false,"is_disabled":false,"rental_uris":{"android":"levelo://app?vid=e4a4c047-d140-43bf-b145-688cae32d5ca","ios":"levelo://app?vid=e4a4c047-d140-43bf-b145-688cae32d5ca"},"vehicle_type_id":"4","last_reported":1776884297,"current_range_meters":10000,"station_id":"ce4bgk12rcd13ifvqbi0","pricing_plan_id":"cebpf4jnsgd1na2vs0mg"},{"bike_id":"b6d0ba7f-995a-4330-bda6-34dd7197caa9","system_id":"levelo_inurba_marseille","lat":43.29005,"lon":5.3864,"is_reserved":false,"is_disabled":false,"rental_uris":{"android":"levelo://app?vid=b6d0ba7f-995a-4330-bda6-34dd7197caa9","ios":"levelo://app?vid=b6d0ba7f-995a-4330-bda6-34dd7197caa9"},"vehicle_type_id":"4","last_reported":1776884297,"current_range_meters":10000,"station_id":"ce4bh4p2rcd13ifvqe0g","pricing_plan_id":"cebpf4jnsgd1na2vs0mg"},{"bike_id":"58b635ee-f568-4878-98da-9a76228f6163","system_id":"levelo_inurba_marseille","lat":43.27619,"lon":5.36107,"is_reserved":false,"is_disabled":false,"rental_uris":{"android":"levelo://app?vid=58b635ee-f568-4878-98da-9a76228f6163","ios":"levelo://app?vid=58b635ee-f568-4878-98da-9a76228f6163"},"vehicle_type_id":"4","last_reported":1776884297,"current_range_meters":10000,"station_id":"ce4bgj92rcd13ifvqbe0","pricing_plan_id":"cebpf4jnsgd1na2vs0mg"},{"bike_id":"6b671db6-1ca2-4dac-a4c4-490d731c633f","system_id":"levelo_inurba_marseille","lat":43.27957,"lon":5.38678,"is_reserved":false,"is_disabled":false,"rental_uris":{"android":"levelo://app?vid=6b671db6-1ca2-4dac-a4c4-490d731c633f","ios":"levelo://app?vid=6b671db6-1ca2-4dac-a4c4-490d731c633f"},"vehicle_type_id":"4","last_reported":1776884297,"current_range_meters":10000,"station_id":"ce4bhg12rcd13ifvqf80","pricing_plan_id":"cebpf4jnsgd1na2vs0mg"},{"bike_id":"f64bba3b-2576-462d-89ed-f1f00046c83e","system_id":"levelo_inurba_marseille","lat":43.29532,"lon":5.38544,"is_reserved":false,"is_disabled":false,"rental_uris":{"android":"levelo://app?vid=f64bba3b-2576-462d-89ed-f1f00046c83e","ios":"levelo://app?vid=f64bba3b-2576-462d-89ed-f1f00046c83e"},"vehicle_type_id":"4","last_reported":1776884297,"current_range_meters":10000,"station_id":"ce4bgih2rcd13ifvqba0","pricing_plan_id":"cebpf4jnsgd1na2vs0mg"},{"bike_id":"706869c6-be65-49b4-a496-7f18e8729124","system_id":"levelo_inurba_marseille","lat":43.29518,"lon":5.38538,"is_reserved":false,"is_disabled":false,"rental_uris":{"android":"levelo://app?vid=706869c6-be65-49b4-a496-7f18e8729124","ios":"levelo://app?vid=706869c6-be65-49b4-a496-7f18e8729124"},"vehicle_type_id":"4","last_reported":1776884297,"current_range_meters":10000,"station_id":"ce4bgih2rcd13ifvqba0","pricing_plan_id":"cebpf4jnsgd1na2vs0mg"},{"bike_id":"c6317af4-c756-4e8c-b274-3f21b7ab30a9","system_id":"levelo_inurba_marseille","lat":43.29793,"lon":5.38063,"is_reserved":false,"is_disabled":false,"rental_uris":{"android":"levelo://app?vid=c6317af4-c756-4e8c-b274-3f21b7ab30a9","ios":"levelo://app?vid=c6317af4-c756-4e8c-b274-3f21b7ab30a9"},"vehicle_type_id":"4","last_reported":1776884297,"current_range_meters":10000,"station_id":"ce4bgip2rcd13ifvqbb0","pricing_plan_id":"cebpf4jnsgd1na2vs0mg"},{"bike_id":"cce9e933-3790-4ced-9eef-b5ac537ec700","system_id":"levelo_inurba_marseille","lat":43.28606,"lon":5.38335,"is_reserved":false,"is_disabled":false,"rental_uris":{"android":"levelo://app?vid=cce9e933-3790-4ced-9eef-b5ac537ec700","ios":"levelo://app?vid=cce9e933-3790-4ced-9eef-b5ac537ec700"},"vehicle_type_id":"4","last_reported":1776884297,"current_range_meters":10000,"station_id":"","pricing_plan_id":"cebpf4jnsgd1na2vs0mg"},{"bike_id":"c3e0702e-4cd9-4eab-9e41-0d17750466d8","system_id":"levelo_inurba_marseille","lat":43.29332,"lon":5.37316,"is_reserved":false,"is_disabled":false,"rental_uris":{"android":"levelo://app?vid=c3e0702e-4cd9-4eab-9e41-0d17750466d8","ios":"levelo://app?vid=c3e0702e-4cd9-4eab-9e41-0d17750466d8"},"vehicle_type_id":"4","last_reported":1776884297,"current_range_meters":10000,"station_id":"","pricing_plan_id":"cebpf4jnsgd1na2vs0mg"},{"bike_id":"eaa56526-29a5-4cc4-abc0-c621dd30f9a4","system_id":"levelo_inurba_marseille","lat":43.29262,"lon":5.4268,"is_reserved":false,"is_disabled":false,"rental_uris":{"android":"levelo://app?vid=eaa56526-29a5-4cc4-abc0-c621dd30f9a4","ios":"levelo://app?vid=eaa56526-29a5-4cc4-abc0-c621dd30f9a4"},"vehicle_type_id":"4","last_reported":1776884297,"current_range_meters":10800,"station_id":"","pricing_plan_id":"cebpf4jnsgd1na2vs0mg"},{"bike_id":"46bb3cda-34a7-4db0-a60b-f24023c65ce2","system_id":"levelo_inurba_marseille","lat":43.29262,"lon":5.38432,"is_reserved":false,"is_disabled":false,"rental_uris":{"android":"levelo://app?vid=46bb3cda-34a7-4db0-a60b-f24023c65ce2","ios":"levelo://app?vid=46bb3cda-34a7-4db0-a60b-f24023c65ce2"},"vehicle_type_id":"4","last_reported":1776884297,"current_range_meters":10800,"station_id":"ce4bh692rcd13ifvqea0","pricing_plan_id":"cebpf4jnsgd1na2vs0mg"},{"bike_id":"150500be-d943-43ad-81eb-48f6433e564c","system_id":"levelo_inurba_marseille","lat":43.29499,"lon":5.38546,"is_reserved":false,"is_disabled":false,"rental_uris":{"android":"levelo://app?vid=150500be-d943-43ad-81eb-48f6433e564c","ios":"levelo://app?vid=150500be-d943-43ad-81eb-48f6433e564c"},"vehicle_type_id":"4","last_reported":1776884297,"current_range_meters":10800,"station_id":"ce4bgih2rcd13ifvqba0","pricing_plan_id":"cebpf4jnsgd1na2vs0mg"},{"bike_id":"1dfb8304-4a5b-4c32-b67a-ccf966ce412e","system_id":"levelo_inurba_marseille","lat":43.30323,"lon":5.36898,"is_reserved":false,"is_disabled":true,"rental_uris":{"android":"levelo://app?vid=1dfb8304-4a5b-4c32-b67a-ccf966ce412e","ios":"levelo://app?vid=1dfb8304-4a5b-4c32-b67a-ccf966ce412e"},"vehicle_type_id":"4","last_reported":1776884297,"current_range_meters":10800,"station_id":"ce4bgqh2rcd13ifvqc5g","pricing_plan_id":"cebpf4jnsgd1na2vs0mg"},{"bike_id":"cae697a8-29cd-4d0a-965d-10fdade08cf0","system_id":"levelo_inurba_marseille","lat":43.2439,"lon":5.37053,"is_reserved":false,"is_disabled":false,"rental_uris":{"android":"levelo://app?vid=cae697a8-29cd-4d0a-965d-10fdade08cf0","ios":"levelo://app?vid=cae697a8-29cd-4d0a-965d-10fdade08cf0"},"vehicle_type_id":"4","last_reported":1776884297,"current_range_meters":10800,"station_id":"ce4bhhh2rcd13ifvqfk0","pricing_plan_id":"cebpf4jnsgd1na2vs0mg"},{"bike_id":"fc7363fe-b04d-489a-9727-90ca30e7bca6","system_id":"levelo_inurba_marseille","lat":43.32115,"lon":5.36761,"is_reserved":false,"is_disabled":false,"rental_uris":{"android":"levelo://app?vid=fc7363fe-b04d-489a-9727-90ca30e7bca6","ios":"levelo://app?vid=fc7363fe-b04d-489a-9727-90ca30e7bca6"},"vehicle_type_id":"4","last_reported":1776884297,"current_range_meters":10800,"station_id":"ce4bhrh2rcd13ifvqhug","pricing_plan_id":"cebpf4jnsgd1na2vs0mg"},{"bike_id":"2250a80a-b728-44ae-a103-20defd92544b","system_id":"levelo_inurba_marseille","lat":43.29203,"lon":5.39349,"is_reserved":false,"is_disabled":false,"rental_uris":{"android":"levelo://app?vid=2250a80a-b728-44ae-a103-20defd92544b","ios":"levelo://app?vid=2250a80a-b728-44ae-a103-20defd92544b"},"vehicle_type_id":"4","last_reported":1776884297,"current_range_meters":10800,"station_id":"ce4bh192rcd13ifvqdd0","pricing_plan_id":"cebpf4jnsgd1na2vs0mg"},{"bike_id":"ac6be1d6-c96b-49c3-8012-27ce005f3a0b","system_id":"levelo_inurba_marseille","lat":43.29544,"lon":5.38534,"is_reserved":false,"is_disabled":false,"rental_uris":{"android":"levelo://app?vid=ac6be1d6-c96b-49c3-8012-27ce005f3a0b","ios":"levelo://app?vid=ac6be1d6-c96b-49c3-8012-27ce005f3a0b"},"vehicle_type_id":"4","last_reported":1776884297,"current_range_meters":10800,"station_id":"ce4bgih2rcd13ifvqba0","pricing_plan_id":"cebpf4jnsgd1na2vs0mg"},{"bike_id":"89cb976b-df3a-46fc-a9ef-0025de561630","system_id":"levelo_inurba_marseille","lat":43.29419,"lon":5.43404,"is_reserved":false,"is_disabled":false,"rental_uris":{"android":"levelo://app?vid=89cb976b-df3a-46fc-a9ef-0025de561630","ios":"levelo://app?vid=89cb976b-df3a-46fc-a9ef-0025de561630"},"vehicle_type_id":"4","last_reported":1776884297,"current_range_meters":10800,"station_id":"","pricing_plan_id":"cebpf4jnsgd1na2vs0mg"},{"bike_id":"a8aa9b10-b201-4335-86a5-69aaa3d0be38","system_id":"levelo_inurba_marseille","lat":43.28407,"lon":5.37525,"is_reserved":false,"is_disabled":false,"rental_uris":{"android":"levelo://app?vid=a8aa9b10-b201-4335-86a5-69aaa3d0be38","ios":"levelo://app?vid=a8aa9b10-b201-4335-86a5-69aaa3d0be38"},"vehicle_type_id":"4","last_reported":1776884297,"current_range_meters":10800,"station_id":"ce4bh412rcd13ifvqds0","pricing_plan_id":"cebpf4jnsgd1na2vs0mg"},{"bike_id":"4c59e750-bd32-470f-aabb-d5afbed24b9c","system_id":"levelo_inurba_marseille","lat":43.24818,"lon":5.37458,"is_reserved":false,"is_disabled":false,"rental_uris":{"android":"levelo://app?vid=4c59e750-bd32-470f-aabb-d5afbed24b9c","ios":"levelo://app?vid=4c59e750-bd32-470f-aabb-d5afbed24b9c"},"vehicle_type_id":"4","last_reported":1776884297,"current_range_meters":10800,"station_id":"ce4bhgh2rcd13ifvqfb0","pricing_plan_id":"cebpf4jnsgd1na2vs0mg"},{"bike_id":"3861474c-5c79-40a8-a73c-d543fa3a8ccd","system_id":"levelo_inurba_marseille","lat":43.24798,"lon":5.37457,"is_reserved":false,"is_disabled":false,"rental_uris":{"android":"levelo://app?vid=3861474c-5c79-40a8-a73c-d543fa3a8ccd","ios":"levelo://app?vid=3861474c-5c79-40a8-a73c-d543fa3a8ccd"},"vehicle_type_id":"4","last_reported":1776884297,"current_range_meters":10800,"station_id":"ce4bhgh2rcd13ifvqfb0","pricing_plan_id":"cebpf4jnsgd1na2vs0mg"},{"bike_id":"f853c91f-6993-43bb-afde-d6d660a7dae0","system_id":"levelo_inurba_marseille","lat":43.29784,"lon":5.39333,"is_reserved":false,"is_disabled":false,"rental_uris":{"android":"levelo://app?vid=f853c91f-6993-43bb-afde-d6d660a7dae0","ios":"levelo://app?vid=f853c91f-6993-43bb-afde-d6d660a7dae0"},"vehicle_type_id":"4","last_reported":1776884297,"current_range_meters":10800,"station_id":"chh1huq6cuj3fo74tm60","pricing_plan_id":"cebpf4jnsgd1na2vs0mg"},