{"last_updated":1728727685,"ttl":60,"version":"2.2","data":{"bikes":[{"bike_id":"2ef48ece-6415-4912-b986-e9f53a2cbf16","system_id":"levelo_inurba_marseille","lat":43.29711,"lon":5.37698,"is_reserved":false,"is_disabled":false,"rental_uris":{"android":"levelo://app?vid=2ef48ece-6415-4912-b986-e9f53a2cbf16","ios":"levelo://app?vid=2ef48ece-6415-4912-b986-e9f53a2cbf16"},"vehicle_type_id":"4","last_reported":1728727685,"current_range_meters":3200,"station_id":"ce4bgkh2rcd13ifvqbl0","pricing_plan_id":"cebpf4jnsgd1na2vs0mg"},{"bike_id":"a88cc3d5-4214-4799-a463-c01d33dbb23e","system_id":"levelo_inurba_marseille","lat":43.241364,"lon":5.378827,"is_reserved":false,"is_disabled":false,"rental_uris":{"android":"levelo://app?vid=a88cc3d5-4214-4799-a463-c01d33dbb23e","ios":"levelo://app?vid=a88cc3d5-4214-4799-a463-c01d33dbb23e"},"vehicle_type_id":"4","last_reported":1728727685,"current_range_meters":24400,"station_id":"ce4bhnp2rcd13ifvqgvg","pricing_plan_id":"cebpf4jnsgd1na2vs0mg"},{"bike_id":"90252a86-9168-4e7e-8cdb-55f691622b28","system_id":"levelo_inurba_marseille","lat":43.27618,"lon":5.36114,"is_reserved":false,"is_disabled":false,"rental_uris":{"android":"levelo://app?vid=90252a86-9168-4e7e-8cdb-55f691622b28","ios":"levelo://app?vid=90252a86-9168-4e7e-8cdb-55f691622b28"},"vehicle_type_id":"4","last_reported":1728727685,"current_range_meters":9200,"station_id":"ce4bgj92rcd13ifvqbe0","pricing_plan_id":"cebpf4jnsgd1na2vs0mg"},{"bike_id":"84fcbf1b-050b-4f99-8d77-88a6fe1aa3d7","system_id":"levelo_inurba_marseille","lat":43.337444,"lon":5.374475,"is_reserved":false,"is_disabled":false,"rental_uris":{"android":"levelo://app?vid=84fcbf1b-050b-4f99-8d77-88a6fe1aa3d7","ios":"levelo://app?vid=84fcbf1b-050b-4f99-8d77-88a6fe1aa3d7"},"vehicle_type_id":"4","last_reported":1728727685,"current_range_meters":3200,"station_id":"ce4bh092rcd13ifvqd20","pricing_plan_id":"cebpf4jnsgd1na2vs0mg"},{"bike_id":"38eda0d1-5ce6-4010-9d58-af0c4b4806fc","system_id":"levelo_inurba_marseille","lat":43.27181,"lon":5.4099,"is_reserved":false,"is_disabled":false,"rental_uris":{"android":"levelo://app?vid=38eda0d1-5ce6-4010-9d58-af0c4b4806fc","ios":"levelo://app?vid=38eda0d1-5ce6-4010-9d58-af0c4b4806fc"},"vehicle_type_id":"4","last_reported":1728727685,"current_range_meters":38800,"station_id":"ce4bhl12rcd13ifvqgf0","pricing_plan_id":"cebpf4jnsgd1na2vs0mg"},{"bike_id":"d14124df-0cea-4e62-b0f1-dfa5dbb6c576","system_id":"levelo_inurba_marseille","lat":43.3042,"lon":5.39746,"is_reserved":false,"is_disabled":false,"rental_uris":{"android":"levelo://app?vid=d14124df-0cea-4e62-b0f1-dfa5dbb6c576","ios":"levelo://app?vid=d14124df-0cea-4e62-b0f1-dfa5dbb6c576"},"vehicle_type_id":"4","last_reported":1728727685,"current_range_meters":18000,"station_id":"ce4bh092rcd13ifvqd20","pricing_plan_id":"cebpf4jnsgd1na2vs0mg"},{"bike_id":"51dd5005-a195-4642-bd5f-8cbea71cb3b3","system_id":"levelo_inurba_marseille","lat":43.22929,"lon":5.35376,"is_reserved":false,"is_disabled":false,"rental_uris":{"android":"levelo://app?vid=51dd5005-a195-4642-bd5f-8cbea71cb3b3","ios":"levelo://app?vid=51dd5005-a195-4642-bd5f-8cbea71cb3b3"},"vehicle_type_id":"4","last_reported":1728727685,"current_range_meters":36800,"station_id":"cpo3532slgdg3j2ikp40","pricing_plan_id":"cebpf4jnsgd1na2vs0mg"},{"bike_id":"98673af1-9a9a-488a-a272-355eb926f1ec","system_id":"levelo_inurba_marseille","lat":43.30142,"lon":5.38776,"is_reserved":false,"is_disabled":false,"rental_uris":{"android":"levelo://app?vid=98673af1-9a9a-488a-a272-355eb926f1ec","ios":"levelo://app?vid=98673af1-9a9a-488a-a272-355eb926f1ec"},"vehicle_type_id":"4","last_reported":1728727685,"current_range_meters":17200,"station_id":"ce4bghh2rcd13ifvqb60","pricing_plan_id":"cebpf4jnsgd1na2vs0mg"},{"bike_id":"d4148055-1c76-4019-a6f3-02cb9d8cb424","system_id":"levelo_inurba_marseille","lat":43.32108,"lon":5.36767,"is_reserved":false,"is_disabled":false,"rental_uris":{"android":"levelo://app?vid=d4148055-1c76-4019-a6f3-02cb9d8cb424","ios":"levelo://app?vid=d4148055-1c76-4019-a6f3-02cb9d8cb424"},"vehicle_type_id":"4","last_reported":1728727685,"current_range_meters":7200,"station_id":"ce4bhrh2rcd13ifvqhug","pricing_plan_id":"cebpf4jnsgd1na2vs0mg"},{"bike_id":"b474cc28-429d-4bf6-a453-cfd8e447da8a","system_id":"levelo_inurba_marseille","lat":43.3373,"lon":5.3918,"is_reserved":false,"is_disabled":false,"rental_uris":{"android":"levelo://app?vid=b474cc28-429d-4bf6-a453-cfd8e447da8a","ios":"levelo://app?vid=b474cc28-429d-4bf6-a453-cfd8e447da8a"},"vehicle_type_id":"4","last_reported":1728727685,"current_range_meters":37600,"station_id":"ce4bhr92rcd13ifvqhsg","pricing_plan_id":"cebpf4jnsgd1na2vs0mg"},{"bike_id":"8a3ea5a6-b0cd-48da-acf8-ccf7be6f48c6","system_id":"levelo_inurba_marseille","lat":43.34225,"lon":5.40084,"is_reserved":false,"is_disabled":false,"rental_uris":{"android":"levelo://app?vid=8a3ea5a6-b0cd-48da-acf8-ccf7be6f48c6","ios":"levelo://app?vid=8a3ea5a6-b0cd-48da-acf8-ccf7be6f48c6"},"vehicle_type_id":"4","last_reported":1728727685,"current_range_meters":7200,"station_id":"","pricing_plan_id":"cebpf4jnsgd1na2vs0mg"},{"bike_id":"4f1ac9db-36fd-4126-b3cc-b859636a6a29","system_id":"levelo_inurba_marseille","lat":43.22929,"lon":5.35377,"is_reserved":false,"is_disabled":false,"rental_uris":{"android":"levelo://app?vid=4f1ac9db-36fd-4126-b3cc-b859636a6a29","ios":"levelo://app?vid=4f1ac9db-36fd-4126-b3cc-b859636a6a29"},"vehicle_type_id":"4","last_reported":1728727685,"current_range_meters":37600,"station_id":"cpo3532slgdg3j2ikp40","pricing_plan_id":"cebpf4jnsgd1na2vs0mg"},{"bike_id":"61b1eb6b-6a62-4107-ae01-97ad89ff2cc6","system_id":"levelo_inurba_marseille","lat":43.29257,"lon":5.4091,"is_reserved":false,"is_disabled":false,"rental_uris":{"android":"levelo://app?vid=61b1eb6b-6a62-4107-ae01-97ad89ff2cc6","ios":"levelo://app?vid=61b1eb6b-6a62-4107-ae01-97ad89ff2cc6"},"vehicle_type_id":"4","last_reported":1728727685,"current_range_meters":30000,"station_id":"ce4bh192rcd13ifvqdc0","pricing_plan_id":"cebpf4jnsgd1na2vs0mg"},{"bike_id":"8ea18fbf-4d44-432f-af40-b97219eb22b8","system_id":"levelo_inurba_marseille","lat":43.29712,"lon":5.36623,"is_reserved":false,"is_disabled":false,"rental_uris":{"android":"levelo://app?vid=8ea18fbf-4d44-432f-af40-b97219eb22b8","ios":"levelo://app?vid=8ea18fbf-4d44-432f-af40-b97219eb22b8"},"vehicle_type_id":"4","last_reported":1728727685,"current_range_meters":38400,"station_id":"ce4bgn12rcd13ifvqbt0","pricing_plan_id":"cebpf4jnsgd1na2vs0mg"},{"bike_id":"df6a6c02-1677-4e99-a78c-a7b4ec2bf2de","system_id":"levelo_inurba_marseille","lat":43.26944,"lon":5.40244,"is_reserved":false,"is_disabled":false,"rental_uris":{"android":"levelo://app?vid=df6a6c02-1677-4e99-a78c-a7b4ec2bf2de","ios":"levelo://app?vid=df6a6c02-1677-4e99-a78c-a7b4ec2bf2de"},"vehicle_type_id":"4","last_reported":1728727685,"current_range_meters":34000,"station_id":"cjm6bp8fraef2m0cb0m0","pricing_plan_id":"cebpf4jnsgd1na2vs0mg"},{"bike_id":"4f48289b-17e5-4365-b497-c3ee37f8ed6a","system_id":"levelo_inurba_marseille","lat":43.30319,"lon":5.40443,"is_reserved":false,"is_disabled":false,"rental_uris":{"android":"levelo://app?vid=4f48289b-17e5-4365-b497-c3ee37f8ed6a","ios":"levelo://app?vid=4f48289b-17e5-4365-b497-c3ee37f8ed6a"},"vehicle_type_id":"4","last_reported":1728727685,"current_range_meters":38800,"station_id":"ce4bh012rcd13ifvqd10","pricing_plan_id":"cebpf4jnsgd1na2vs0mg"},{"bike_id":"eb700b04-efb6-4599-9d8d-f15bf71e8c48","system_id":"levelo_inurba_marseille","lat":43.2417,"lon":5.36399,"is_reserved":false,"is_disabled":false,"rental_uris":{"android":"levelo://app?vid=eb700b04-efb6-4599-9d8d-f15bf71e8c48","ios":"levelo://app?vid=eb700b04-efb6-4599-9d8d-f15bf71e8c48"},"vehicle_type_id":"4","last_reported":1728727685,"current_range_meters":32000,"station_id":"cpo36qri1sfpv3e86is0","pricing_plan_id":"cebpf4jnsgd1na2vs0mg"},{"bike_id":"6031114a-ebf9-48d4-be21-75f8ea9a8462","system_id":"levelo_inurba_marseille","lat":43.30881,"lon":5.38078,"is_reserved":false,"is_disabled":false,"rental_uris":{"android":"levelo://app?vid=6031114a-ebf9-48d4-be21-75f8ea9a8462","ios":"levelo://app?vid=6031114a-ebf9-48d4-be21-75f8ea9a8462"},"vehicle_type_id":"4","last_reported":1728727685,"current_range_meters":33600,"station_id":"ce4bgt12rcd13ifvqce0","pricing_plan_id":"cebpf4jnsgd1na2vs0mg"},{"bike_id":"d522a82d-5638-4ca1-910b-2d42b991ee72","system_id":"levelo_inurba_marseille","lat":43.30139,"lon":5.37416,"is_reserved":false,"is_disabled":false,"rental_uris":{"android":"levelo://app?vid=d522a82d-5638-4ca1-910b-2d42b991ee72","ios":"levelo://app?vid=d522a82d-5638-4ca1-910b-2d42b991ee72"},"vehicle_type_id":"4","last_reported":1728727685,"current_range_meters":37600,"station_id":"ce4bgs92rcd13ifvqcc0","pricing_plan_id":"cebpf4jnsgd1na2vs0mg"},{"bike_id":"931d1f9c-4cb2-40a2-a856-914a1c55fcf3","system_id":"levelo_inurba_marseille","lat":43.24577,"lon":5.41655,"is_reserved":false,"is_disabled":false,"rental_uris":{"android":"levelo://app?vid=931d1f9c-4cb2-40a2-a856-914a1c55fcf3","ios":"levelo://app?vid=931d1f9c-4cb2-40a2-a856-914a1c55fcf3"},"vehicle_type_id":"4","last_reported":1728727685,"current_range_meters":12000,"station_id":"","pricing_plan_id":"cebpf4jnsgd1na2vs0mg"},{"bike_id":"2adb977d-9958-415a-b318-4bb6387b85b5","system_id":"levelo_inurba_marseille","lat":43.292328,"lon":5.360708,"is_reserved":false,"is_disabled":false,"rental_uris":{"android":"levelo://app?vid=2adb977d-9958-415a-b318-4bb6387b85b5","ios":"levelo://app?vid=2adb977d-9958-415a-b318-4bb6387b85b5"},"vehicle_type_id":"4","last_reported":1728727685,"current_range_meters":1600,"station_id":"ce4bhbh2rcd13ifvqepg","pricing_plan_id":"cebpf4jnsgd1na2vs0mg"},{"bike_id":"59169465-c142-40a4-baaa-224bbca5179e","system_id":"levelo_inurba_marseille","lat":43.29619,"lon":5.37731,"is_reserved":false,"is_disabled":false,"rental_uris":{"android":"levelo://app?vid=59169465-c142-40a4-baaa-224bbca5179e","ios":"levelo://app?vid=59169465-c142-40a4-baaa-224bbca5179e"},"vehicle_type_id":"4","last_reported":1728727685,"current_range_meters":35600,"station_id":"ce4bgi92rcd13ifvqb90","pricing_plan_id":"cebpf4jnsgd1na2vs0mg"},{"bike_id":"3f8c60a0-ca9e-48b3-a9ce-2a1533906388","system_id":"levelo_inurba_marseille","lat":43.29906,"lon":5.37458,"is_reserved":false,"is_disabled":false,"rental_uris":{"android":"levelo://app?vid=3f8c60a0-ca9e-48b3-a9ce-2a1533906388","ios":"levelo://app?vid=3f8c60a0-ca9e-48b3-a9ce-2a1533906388"},"vehicle_type_id":"4","last_reported":1728727685,"current_range_meters":36800,"station_id":"ce4bgjh2rcd13ifvqbg0","pricing_plan_id":"cebpf4jnsgd1na2vs0mg"},{"bike_id":"5a0daead-4b27-4455-ab06-a7ed457983e1","system_id":"levelo_inurba_marseille","lat":43.28101,"lon":5.37833,"is_reserved":false,"is_disabled":false,"rental_uris":{"android":"levelo://app?vid=5a0daead-4b27-4455-ab06-a7ed457983e1","ios":"levelo://app?vid=5a0daead-4b27-4455-ab06-a7ed457983e1"},"vehicle_type_id":"4","last_reported":1728727685,"current_range_meters":22000,"station_id":"ce4bha12rcd13ifvqee0","pricing_plan_id":"cebpf4jnsgd1na2vs0mg"},{"bike_id":"16451e5d-97d1-468f-b8f8-9f1bdd7b01c1","system_id":"levelo_inurba_marseille","lat":43.29847,"lon":5.36282,"is_reserved":false,"is_disabled":false,"rental_uris":{"android":"levelo://app?vid=16451e5d-97d1-468f-b8f8-9f1bdd7b01c1","ios":"levelo://app?vid=16451e5d-97d1-468f-b8f8-9f1bdd7b01c1"},"vehicle_type_id":"4","last_reported":1728727685,"current_range_meters":33200,"station_id":"ce4bgpp2rcd13ifvqc3g","pricing_plan_id":"cebpf4jnsgd1na2vs0mg"},{"bike_id":"07216142-0313-4ecf-b48a-d76c221caa89","system_id":"levelo_inurba_marseille","lat":43.29843,"lon":5.36279,"is_reserved":false,"is_disabled":false,"rental_uris":{"android":"levelo://app?vid=07216142-0313-4ecf-b48a-d76c221caa89","ios":"levelo://app?vid=07216142-0313-4ecf-b48a-d76c221caa89"},"vehicle_type_id":"4","last_reported":1728727685,"current_range_meters":9200,"station_id":"ce4bgpp2rcd13ifvqc3g","pricing_plan_id":"cebpf4jnsgd1na2vs0mg"},{"bike_id":"631afeb3-ff24-4869-b570-0bf0c9ce47b0","system_id":"levelo_inurba_marseille","lat":43.31286,"lon":5.38687,"is_reserved":false,"is_disabled":false,"rental_uris":{"android":"levelo://app?vid=631afeb3-ff24-4869-b570-0bf0c9ce47b0","ios":"levelo://app?vid=631afeb3-ff24-4869-b570-0bf0c9ce47b0"},"vehicle_type_id":"4","last_reported":1728727685,"current_range_meters":19200,"station_id":"","pricing_plan_id":"cebpf4jnsgd1na2vs0mg"},{"bike_id":"a343ef2a-9dab-4dfa-aae7-81033db70aac","system_id":"levelo_inurba_marseille","lat":43.2318,"lon":5.39987,"is_reserved":false,"is_disabled":false,"rental_uris":{"android":"levelo://app?vid=a343ef2a-9dab-4dfa-aae7-81033db70aac","ios":"levelo://app?vid=a343ef2a-9dab-4dfa-aae7-81033db70aac"},"vehicle_type_id":"4","last_reported":1728727685,"current_range_meters":16400,"station_id":"ce4bhn12rcd13ifvqgqg","pricing_plan_id":"cebpf4jnsgd1na2vs0mg"},{"bike_id":"e291fb08-b820-432a-82c0-d8b72c03f476","system_id":"levelo_inurba_marseille","lat":43.27315,"lon":5.39067,"is_reserved":false,"is_disabled":false,"rental_uris":{"android":"levelo://app?vid=e291fb08-b820-432a-82c0-d8b72c03f476","ios":"levelo://app?vid=e291fb08-b820-432a-82c0-d8b72c03f476"},"vehicle_type_id":"4","last_reported":1728727685,"current_range_meters":4800,"station_id":"ce4bhgp2rcd13ifvqfe0","pricing_plan_id":"cebpf4jnsgd1na2vs0mg"},{"bike_id":"d9787943-12da-42fc-891f-0b247c20c2d5","system_id":"levelo_inurba_marseille","lat":43.26486,"lon":5.39544,"is_reserved":false,"is_disabled":false,"rental_uris":{"android":"levelo://app?vid=d9787943-12da-42fc-891f-0b247c20c2d5","ios":"levelo://app?vid=d9787943-12da-42fc-891f-0b247c20c2d5"},"vehicle_type_id":"4","last_reported":1728727685,"current_range_meters":4000,"station_id":"ce4bhi12rcd13ifvqfq0","pricing_plan_id":"cebpf4jnsgd1na2vs0mg"},{"bike_id":"1eb8fe49-a5ac-4589-bd6a-f20b9e96a41f","system_id":"levelo_inurba_marseille","lat":43.27206,"lon":5.3918,"is_reserved":false,"is_disabled":false,"rental_uris":{"android":"levelo://app?vid=1eb8fe49-a5ac-4589-bd6a-f20b9e96a41f","ios":"levelo://app?vid=1eb8fe49-a5ac-4589-bd6a-f20b9e96a41f"},"vehicle_type_id":"4","last_reported":1728727685,"current_range_meters":24000,"station_id":"ce4bhhp2rcd13ifvqfm0","pricing_plan_id":"cebpf4jnsgd1na2vs0mg"},{"bike_id":"4b633ef7-6a41-4a9d-846d-105c13ec3a5c","system_id":"levelo_inurba_marseille","lat":43.29598,"lon":5.3811,"is_reserved":false,"is_disabled":false,"rental_uris":{"android":"levelo://app?vid=4b633ef7-6a41-4a9d-846d-105c13ec3a5c","ios":"levelo://app?vid=4b633ef7-6a41-4a9d-846d-105c13ec3a5c"},"vehicle_type_id":"4","last_reported":1728727685,"current_range_meters":26000,"station_id":"ce4bgl12rcd13ifvqbo0","pricing_plan_id":"cebpf4jnsgd1na2vs0mg"},{"bike_id":"851d29bb-dfef-4b3b-b9e6-d79f9e5b9fc1","system_id":"levelo_inurba_marseille","lat":43.25573,"lon":5.38239,"is_reserved":false,"is_disabled":false,"rental_uris":{"android":"levelo://app?vid=851d29bb-dfef-4b3b-b9e6-d79f9e5b9fc1","ios":"levelo://app?vid=851d29bb-dfef-4b3b-b9e6-d79f9e5b9fc1"},"vehicle_type_id":"4","last_reported":1728727685,"current_range_meters":38400,"station_id":"ce4bhih2rcd13ifvqfs0","pricing_plan_id":"cebpf4jnsgd1na2vs0mg"},{"bike_id":"91aa0f0e-f007-4bc8-8e7f-28c28d61940c","system_id":"levelo_inurba_marseille","lat":43.31104,"lon":5.38342,"is_reserved":false,"is_disabled":false,"rental_uris":{"android":"levelo://app?vid=91aa0f0e-f007-4bc8-8e7f-28c28d61940c","ios":"levelo://app?vid=91aa0f0e-f007-4bc8-8e7f-28c28d61940c"},"vehicle_type_id":"4","last_reported":1728727685,"current_range_meters":38000,"station_id":"ce4bgv92rcd13ifvqcr0","pricing_plan_id":"cebpf4jnsgd1na2vs0mg"},{"bike_id":"a2a0ea66-0977-4ac4-92d9-24282abd8f88","system_id":"levelo_inurba_marseille","lat":43.29725,"lon":5.37704,"is_reserved":false,"is_disabled":false,"rental_uris":{"android":"levelo://app?vid=a2a0ea66-0977-4ac4-92d9-24282abd8f88","ios":"levelo://app?vid=a2a0ea66-0977-4ac4-92d9-24282abd8f88"},"vehicle_type_id":"4","last_reported":1728727685,"current_range_meters":2000,"station_id":"ce4bgkh2rcd13ifvqbl0","pricing_plan_id":"cebpf4jnsgd1na2vs0mg"},{"bike_id":"35eb4c1c-05f0-4eb0-8f1c-9272d14abf2f","system_id":"levelo_inurba_marseille","lat":43.30542,"lon":5.36542,"is_reserved":false,"is_disabled":false,"rental_uris":{"android":"levelo://app?vid=35eb4c1c-05f0-4eb0-8f1c-9272d14abf2f","ios":"levelo://app?vid=35eb4c1c-05f0-4eb0-8f1c-9272d14abf2f"},"vehicle_type_id":"4","last_reported":1728727685,"current_range_meters":14000,"station_id":"ce4bgs12rcd13ifvqcag","pricing_plan_id":"cebpf4jnsgd1na2vs0mg"},{"bike_id":"319cc317-4c35-4000-bb99-5d657785606e","system_id":"levelo_inurba_marseille","lat":43.27903,"lon":5.38001,"is_reserved":false,"is_disabled":false,"rental_uris":{"android":"levelo://app?vid=319cc317-4c35-4000-bb99-5d657785606e","ios":"levelo://app?vid=319cc317-4c35-4000-bb99-5d657785606e"},"vehicle_type_id":"4","last_reported":1728727685,"current_range_meters":38800,"station_id":"ce4bhf92rcd13ifvqf50","pricing_plan_id":"cebpf4jnsgd1na2vs0mg"},{"bike_id":"86851483-6460-4f2a-8d92-b3b47e5c55aa","system_id":"levelo_inurba_marseille","lat":43.23952,"lon":5.36638,"is_reserved":false,"is_disabled":false,"rental_uris":{"android":"levelo://app?vid=86851483-6460-4f2a-8d92-b3b47e5c55aa","ios":"levelo://app?vid=86851483-6460-4f2a-8d92-b3b47e5c55aa"},"vehicle_type_id":"4","last_reported":1728727685,"current_range_meters":38800,"station_id":"ce4bhi12rcd13ifvqfp0","pricing_plan_id":"cebpf4jnsgd1na2vs0mg"},{"bike_id":"be74e7a4-1fe3-48a5-88ab-3582fce8d244","system_id":"levelo_inurba_marseille","lat":43.29523,"lon":5.37518,"is_reserved":false,"is_disabled":false,"rental_uris":{"android":"levelo://app?vid=be74e7a4-1fe3-48a5-88ab-3582fce8d244","ios":"levelo://app?vid=be74e7a4-1fe3-48a5-88ab-3582fce8d244"},"vehicle_type_id":"4","last_reported":1728727685,"current_range_meters":36000,"station_id":"ce4bgkp2rcd13ifvqbmg","pricing_plan_id":"cebpf4jnsgd1na2vs0mg"},{"bike_id":"44b58244-3a56-415a-9af4-bede197744c6","system_id":"levelo_inurba_marseille","lat":43.2587,"lon":5.39897,"is_reserved":false,"is_disabled":false,"rental_uris":{"android":"levelo://app?vid=44b58244-3a56-415a-9af4-bede197744c6","ios":"levelo://app?vid=44b58244-3a56-415a-9af4-bede197744c6"},"vehicle_type_id":"4","last_reported":1728727685,"current_range_meters":36400,"station_id":"ce4bhl92rcd13ifvqghg","pricing_plan_id":"cebpf4jnsgd1na2vs0mg"},{"bike_id":"bb0bacd2-1067-4f11-bd84-3005316d01b0","system_id":"levelo_inurba_marseille","lat":43.32292,"lon":5.38269,"is_reserved":false,"is_disabled":false,"rental_uris":{"android":"levelo://app?vid=bb0bacd2-1067-4f11-bd84-3005316d01b0","ios":"levelo://app?vid=bb0bacd2-1067-4f11-bd84-3005316d01b0"},"vehicle_type_id":"4","last_reported":1728727685,"current_range_meters":2000,"station_id":"ce4bhr12rcd13ifvqhqg","pricing_plan_id":"cebpf4jnsgd1na2vs0mg"},{"bike_id":"900d410e-a263-4441-80a1-af67345a66d2","system_id":"levelo_inurba_marseille","lat":43.24389,"lon":5.37062,"is_reserved":false,"is_disabled":false,"rental_uris":{"android":"levelo://app?vid=900d410e-a263-4441-80a1-af67345a66d2","ios":"levelo://app?vid=900d410e-a263-4441-80a1-af67345a66d2"},"vehicle_type_id":"4","last_reported":1728727685,"current_range_meters":25600,"station_id":"ce4bhhh2rcd13ifvqfk0","pricing_plan_id":"cebpf4jnsgd1na2vs0mg"},{"bike_id":"18e50b7c-f98f-46f1-90ae-1ebf8e17e6aa","system_id":"levelo_inurba_marseille","lat":43.27173,"lon":5.40982,"is_reserved":false,"is_disabled":false,"rental_uris":{"android":"levelo://app?vid=18e50b7c-f98f-46f1-90ae-1ebf8e17e6aa","ios":"levelo://app?vid=18e50b7c-f98f-46f1-90ae-1ebf8e17e6aa"},"vehicle_type_id":"4","last_reported":1728727685,"current_range_meters":26000,"station_id":"ce4bhl12rcd13ifvqgf0","pricing_plan_id":"cebpf4jnsgd1na2vs0mg"},{"bike_id":"93cf6e6a-b59b-4d63-9a00-c25bf3ea1f05","system_id":"levelo_inurba_marseille","lat":43.29894,"lon":5.43656,"is_reserved":false,"is_disabled":false,"rental_uris":{"android":"levelo://app?vid=93cf6e6a-b59b-4d63-9a00-c25bf3ea1f05","ios":"levelo://app?vid=93cf6e6a-b59b-4d63-9a00-c25bf3ea1f05"},"vehicle_type_id":"4","last_reported":1728727685,"current_range_meters":38800,"station_id":"ce4bhpp2rcd13ifvqhfg","pricing_plan_id":"cebpf4jnsgd1na2vs0mg"},{"bike_id":"2c9247fe-4e8e-489e-92e9-c159de481f4f","system_id":"levelo_inurba_marseille","lat":43.29566,"lon":5.3751,"is_reserved":false,"is_disabled":false,"rental_uris":{"android":"levelo://app?vid=2c9247fe-4e8e-489e-92e9-c159de481f4f","ios":"levelo://app?vid=2c9247fe-4e8e-489e-92e9-c159de481f4f"},"vehicle_type_id":"4","last_reported":1728727685,"current_range_meters":19200,"station_id":"ce4bgh92rcd13ifvqb50","pricing_plan_id":"cebpf4jnsgd1na2vs0mg"},{"bike_id":"98dca0ce-e9cb-4a6a-82ee-19798b468f41","system_id":"levelo_inurba_marseille","lat":43.29025,"lon":5.37549,"is_reserved":false,"is_disabled":false,"rental_uris":{"android":"levelo://app?vid=98dca0ce-e9cb-4a6a-82ee-19798b468f41","ios":"levelo://app?vid=98dca0ce-e9cb-4a6a-82ee-19798b468f41"},"vehicle_type_id":"4","last_reported":1728727685,"current_range_meters":26000,"station_id":"ce4bh692rcd13ifvqe90","pricing_plan_id":"cebpf4jnsgd1na2vs0mg"},{"bike_id":"4297de20-a11f-4a40-82cb-13ec4f0699db","system_id":"levelo_inurba_marseille","lat":43.26788,"lon":5.39406,"is_reserved":false,"is_disabled":false,"rental_uris":{"android":"levelo://app?vid=4297de20-a11f-4a40-82cb-13ec4f0699db","ios":"levelo://app?vid=4297de20-a11f-4a40-82cb-13ec4f0699db"},"vehicle_type_id":"4","last_reported":1728727685,"current_range_meters":36800,"station_id":"ce4bhh12rcd13ifvqfg0","pricing_plan_id":"cebpf4jnsgd1na2vs0mg"},{"bike_id":"b27220ce-643c-4cda-b1cf-ddebfd37a8aa","system_id":"levelo_inurba_marseille","lat":43.23183,"lon":5.39991,"is_reserved":false,"is_disabled":false,"rental_uris":{"android":"levelo://app?vid=b27220ce-643c-4cda-b1cf-ddebfd37a8aa","ios":"levelo://app?vid=b27220ce-643c-4cda-b1cf-ddebfd37a8aa"},"vehicle_type_id":"4","last_reported":1728727685,"current_range_meters":38800,"station_id":"ce4bhn12rcd13ifvqgqg","pricing_plan_id":"cebpf4jnsgd1na2vs0mg"},{"bike_id":"cea4ae45-7361-4285-9d58-62d1570f6a7c","system_id":"levelo_inurba_marseille","lat":43.29511,"lon":5.39406,"is_reserved":false,"is_disabled":false,"rental_uris":{"android":"levelo://app?vid=cea4ae45-7361-4285-9d58-62d1570f6a7c","ios":"levelo://app?vid=cea4ae45-7361-4285-9d58-62d1570f6a7c"},"vehicle_type_id":"4","last_reported":1728727685,"current_range_meters":36400,"station_id":"ce4bh292rcd13ifvqdf0","pricing_plan_id":"cebpf4jnsgd1na2vs0mg"},{"bike_id":"6b32da0f-8535-41b1-98ae-900e0f6f1d04","system_id":"levelo_inurba_marseille","lat":43.30411,"lon":5.41285,"is_reserved":false,"is_disabled":false,"rental_uris":{"android":"levelo://app?vid=6b32da0f-8535-41b1-98ae-900e0f6f1d04","ios":"levelo://app?vid=6b32da0f-8535-41b1-98ae-900e0f6f1d04"},"vehicle_type_id":"4","last_reported":1728727685,"current_range_meters":38000,"station_id":"ce4bhop2rcd13ifvqh8g","pricing_plan_id":"cebpf4jnsgd1na2vs0mg"},{"bike_id":"faeef220-4bf3-4eee-a3c1-b6ab7d7a9417","system_id":"levelo_inurba_marseille","lat":43.27616,"lon":5.36117,"is_reserved":false,"is_disabled":false,"rental_uris":{"android":"levelo://app?vid=faeef220-4bf3-4eee-a3c1-b6ab7d7a9417","ios":"levelo://app?vid=faeef220-4bf3-4eee-a3c1-b6ab7d7a9417"},"vehicle_type_id":"4","last_reported":1728727685,"current_range_meters":39200,"station_id":"ce4bgj92rcd13ifvqbe0","pricing_plan_id":"cebpf4jnsgd1na2vs0mg"},{"bike_id":"43b2d472-d753-444b-b0f9-f27795ac5896","system_id":"levelo_inurba_marseille","lat":43.28937,"lon":5.36635,"is_reserved":false,"is_disabled":false,"rental_uris":{"android":"levelo://app?vid=43b2d472-d753-444b-b0f9-f27795ac5896","ios":"levelo://app?vid=43b2d472-d753-444b-b0f9-f27795ac5896"},"vehicle_type_id":"4","last_reported":1728727685,"current_range_meters":18000,"station_id":"ce4bhap2rcd13ifvqek0","pricing_plan_id":"cebpf4jnsgd1na2vs0mg"},{"bike_id":"aed2777a-4f8a-4d24-802a-93026f052e7d","system_id":"levelo_inurba_marseille","lat":43.25578,"lon":5.38229,"is_reserved":false,"is_disabled":false,"rental_uris":{"android":"levelo://app?vid=aed2777a-4f8a-4d24-802a-93026f052e7d","ios":"levelo://app?vid=aed2777a-4f8a-4d24-802a-93026f052e7d"},"vehicle_type_id":"4","last_reported":1728727685,"current_range_meters":29600,"station_id":"ce4bhih2rcd13ifvqfs0","pricing_plan_id":"cebpf4jnsgd1na2vs0mg"},{"bike_id":"823aec0e-2a62-493c-9b25-a555648ac298","system_id":"levelo_inurba_marseille","lat":43.27375,"lon":5.36267,"is_reserved":false,"is_disabled":false,"rental_uris":{"android":"levelo://app?vid=823aec0e-2a62-493c-9b25-a555648ac298","ios":"levelo://app?vid=823aec0e-2a62-493c-9b25-a555648ac298"},"vehicle_type_id":"4","last_reported":1728727685,"current_range_meters":38800,"station_id":"ce4bhbh2rcd13ifvqeo0","pricing_plan_id":"cebpf4jnsgd1na2vs0mg"},{"bike_id":"c2709d8c-182c-4c66-9678-32143d413767","system_id":"levelo_inurba_marseille","lat":43.22934,"lon":5.35381,"is_reserved":false,"is_disabled":false,"rental_uris":{"android":"levelo://app?vid=c2709d8c-182c-4c66-9678-32143d413767","ios":"levelo://app?vid=c2709d8c-182c-4c66-9678-32143d413767"},"vehicle_type_id":"4","last_reported":1728727685,"current_range_meters":27200,"station_id":"cpo3532slgdg3j2ikp40","pricing_plan_id":"cebpf4jnsgd1na2vs0mg"},{"bike_id":"fc9585fd-9c81-422e-a66b-cb20acbfd467","system_id":"levelo_inurba_marseille","lat":43.29193,"lon":5.35819,"is_reserved":false,"is_disabled":false,"rental_uris":{"android":"levelo://app?vid=fc9585fd-9c81-422e-a66b-cb20acbfd467","ios":"levelo://app?vid=fc9585fd-9c81-422e-a66b-cb20acbfd467"},"vehicle_type_id":"4","last_reported":1728727685,"current_range_meters":38000,"station_id":"ce4bhb12rcd13ifvqel0","pricing_plan_id":"cebpf4jnsgd1na2vs0mg"},{"bike_id":"6f6e8901-39ed-4f00-b5b4-69088cc91c2d","system_id":"levelo_inurba_marseille","lat":43.30462,"lon":5.37908,"is_reserved":false,"is_disabled":false,"rental_uris":{"android":"levelo://app?vid=6f6e8901-39ed-4f00-b5b4-69088cc91c2d","ios":"levelo://app?vid=6f6e8901-39ed-4f00-b5b4-69088cc91c2d"},"vehicle_type_id":"4","last_reported":1728727685,"current_range_meters":22400,"station_id":"ce4bgup2rcd13ifvqcn0","pricing_plan_id":"cebpf4jnsgd1na2vs0mg"},{"bike_id":"e3b446d4-b8e8-4687-92df-41a69588abe1","system_id":"levelo_inurba_marseille","lat":43.30197,"lon":5.36623,"is_reserved":false,"is_disabled":false,"rental_uris":{"android":"levelo://app?vid=e3b446d4-b8e8-4687-92df-41a69588abe1","ios":"levelo://app?vid=e3b446d4-b8e8-4687-92df-41a69588abe1"},"vehicle_type_id":"4","last_reported":1728727685,"current_range_meters":6000,"station_id":"ce4bgrh2rcd13ifvqc8g","pricing_plan_id":"cebpf4jnsgd1na2vs0mg"},{"bike_id":"5af931bb-0dff-4e18-b461-a40090c11990","system_id":"levelo_inurba_marseille","lat":43.23962,"lon":5.36628,"is_reserved":false,"is_disabled":false,"rental_uris":{"android":"levelo://app?vid=5af931bb-0dff-4e18-b461-a40090c11990","ios":"levelo://app?vid=5af931bb-0dff-4e18-b461-a40090c11990"},"vehicle_type_id":"4","last_reported":1728727685,"current_range_meters":32000,"station_id":"ce4bhi12rcd13ifvqfp0","pricing_plan_id":"cebpf4jnsgd1na2vs0mg"},{"bike_id":"4cc4e90f-2fbc-42da-a386-02b30a3334f2","system_id":"levelo_inurba_marseille","lat":43.28419,"lon":5.37504,"is_reserved":false,"is_disabled":false,"rental_uris":{"android":"levelo://app?vid=4cc4e90f-2fbc-42da-a386-02b30a3334f2","ios":"levelo://app?vid=4cc4e90f-2fbc-42da-a386-02b30a3334f2"},"vehicle_type_id":"4","last_reported":1728727685,"current_range_meters":24000,"station_id":"ce4bh412rcd13ifvqds0","pricing_plan_id":"cebpf4jnsgd1na2vs0mg"},{"bike_id":"da51e1e2-7bb1-49cb-8269-64d04364ed85","system_id":"levelo_inurba_marseille","lat":43.29275,"lon":5.36844,"is_reserved":false,"is_disabled":false,"rental_uris":{"android":"levelo://app?vid=da51e1e2-7bb1-49cb-8269-64d04364ed85","ios":"levelo://app?vid=da51e1e2-7bb1-49cb-8269-64d04364ed85"},"vehicle_type_id":"4","last_reported":1728727685,"current_range_meters":30000,"station_id":"ce4bhbp2rcd13ifvqesg","pricing_plan_id":"cebpf4jnsgd1na2vs0mg"},{"bike_id":"e737a905-8f20-42fc-93e7-b45ecb95c043","system_id":"levelo_inurba_marseille","lat":43.26682,"lon":5.38263,"is_reserved":false,"is_disabled":false,"rental_uris":{"android":"levelo://app?vid=e737a905-8f20-42fc-93e7-b45ecb95c043","ios":"levelo://app?vid=e737a905-8f20-42fc-93e7-b45ecb95c043"},"vehicle_type_id":"4","last_reported":1728727685,"current_range_meters":37600,"station_id":"ce4bhg92rcd13ifvqf90","pricing_plan_id":"cebpf4jnsgd1na2vs0mg"},{"bike_id":"65ecdb47-6ce1-4b03-b02a-17a7a77482b1","system_id":"levelo_inurba_marseille","lat":43.23192,"lon":5.35552,"is_reserved":false,"is_disabled":false,"rental_uris":{"android":"levelo://app?vid=65ecdb47-6ce1-4b03-b02a-17a7a77482b1","ios":"levelo://app?vid=65ecdb47-6ce1-4b03-b02a-17a7a77482b1"},"vehicle_type_id":"4","last_reported":1728727685,"current_range_meters":20400,"station_id":"ce4bhu92rcd13ifvqi70","pricing_plan_id":"cebpf4jnsgd1na2vs0mg"},{"bike_id":"b5ebf581-ee83-4793-bd67-976719116a5b","system_id":"levelo_inurba_marseille","lat":43.26776,"lon":5.39425,"is_reserved":false,"is_disabled":false,"rental_uris":{"android":"levelo://app?vid=b5ebf581-ee83-4793-bd67-976719116a5b","ios":"levelo://app?vid=b5ebf581-ee83-4793-bd67-976719116a5b"},"vehicle_type_id":"4","last_reported":1728727685,"current_range_meters":18800,"station_id":"ce4bhh12rcd13ifvqfg0","pricing_plan_id":"cebpf4jnsgd1na2vs0mg"},{"bike_id":"3cb719e0-27ba-4752-85a0-6ba32db9d5e9","system_id":"levelo_inurba_marseille","lat":43.29838,"lon":5.36271,"is_reserved":false,"is_disabled":false,"rental_uris":{"android":"levelo://app?vid=3cb719e0-27ba-4752-85a0-6ba32db9d5e9","ios":"levelo://app?vid=3cb719e0-27ba-4752-85a0-6ba32db9d5e9"},"vehicle_type_id":"4","last_reported":1728727685,"current_range_meters":35200,"station_id":"ce4bgpp2rcd13ifvqc3g","pricing_plan_id":"cebpf4jnsgd1na2vs0mg"},{"bike_id":"c3a7d36d-d6b5-4184-8675-39f627a2719e","system_id":"levelo_inurba_marseille","lat":43.231964,"lon":5.35551,"is_reserved":false,"is_disabled":false,"rental_uris":{"android":"levelo://app?vid=c3a7d36d-d6b5-4184-8675-39f627a2719e","ios":"levelo://app?vid=c3a7d36d-d6b5-4184-8675-39f627a2719e"},"vehicle_type_id":"4","last_reported":1728727685,"current_range_meters":11200,"station_id":"ce4bhu92rcd13ifvqi70","pricing_plan_id":"cebpf4jnsgd1na2vs0mg"},{"bike_id":"fe499ee7-6375-4ecd-b57e-a932fe0f65cf","system_id":"levelo_inurba_marseille","lat":43.337239,"lon":5.391823,"is_reserved":false,"is_disabled":false,"rental_uris":{"android":"levelo://app?vid=fe499ee7-6375-4ecd-b57e-a932fe0f65cf","ios":"levelo://app?vid=fe499ee7-6375-4ecd-b57e-a932fe0f65cf"},"vehicle_type_id":"4","last_reported":1728727685,"current_range_meters":8800,"station_id":"ce4bhr92rcd13ifvqhsg","pricing_plan_id":"cebpf4jnsgd1na2vs0mg"},{"bike_id":"fbffa957-ac49-4590-b223-7d57f26e111b","system_id":"levelo_inurba_marseille","lat":43.32258,"lon":5.38271,"is_reserved":false,"is_disabled":false,"rental_uris":{"android":"levelo://app?vid=fbffa957-ac49-4590-b223-7d57f26e111b","ios":"levelo://app?vid=fbffa957-ac49-4590-b223-7d57f26e111b"},"vehicle_type_id":"4","last_reported":1728727685,"current_range_meters":29600,"station_id":"ce4bhr12rcd13ifvqhqg","pricing_plan_id":"cebpf4jnsgd1na2vs0mg"},{"bike_id":"864f82ea-ea90-451b-bdec-3a09898c1c10","system_id":"levelo_inurba_marseille","lat":43.28405,"lon":5.37517,"is_reserved":false,"is_disabled":false,"rental_uris":{"android":"levelo://app?vid=864f82ea-ea90-451b-bdec-3a09898c1c10","ios":"levelo://app?vid=864f82ea-ea90-451b-bdec-3a09898c1c10"},"vehicle_type_id":"4","last_reported":1728727685,"current_range_meters":38000,"station_id":"ce4bh412rcd13ifvqds0","pricing_plan_id":"cebpf4jnsgd1na2vs0mg"},{"bike_id":"60e0bd9a-b18d-4b3d-bbb0-f799deda3c62","system_id":"levelo_inurba_marseille","lat":43.29608,"lon":5.3772,"is_reserved":false,"is_disabled":false,"rental_uris":{"android":"levelo://app?vid=60e0bd9a-b18d-4b3d-bbb0-f799deda3c62","ios":"levelo://app?vid=60e0bd9a-b18d-4b3d-bbb0-f799deda3c62"},"vehicle_type_id":"4","last_reported":1728727685,"current_range_meters":18000,"station_id":"ce4bgi92rcd13ifvqb90","pricing_plan_id":"cebpf4jnsgd1na2vs0mg"},{"bike_id":"66edde37-eed2-4a91-bd6e-93c82a22ea34","system_id":"levelo_inurba_marseille","lat":43.29525,"lon":5.375,"is_reserved":false,"is_disabled":false,"rental_uris":{"android":"levelo://app?vid=66edde37-eed2-4a91-bd6e-93c82a22ea34","ios":"levelo://app?vid=66edde37-eed2-4a91-bd6e-93c82a22ea34"},"vehicle_type_id":"4","last_reported":1728727685,"current_range_meters":38800,"station_id":"ce4bgkp2rcd13ifvqbmg","pricing_plan_id":"cebpf4jnsgd1na2vs0mg"},{"bike_id":"26ad2f98-28e7-4ba6-817b-53c0d1cfc4da","system_id":"levelo_inurba_marseille","lat":43.25716,"lon":5.41113,"is_reserved":false,"is_disabled":false,"rental_uris":{"android":"levelo://app?vid=26ad2f98-28e7-4ba6-817b-53c0d1cfc4da","ios":"levelo://app?vid=26ad2f98-28e7-4ba6-817b-53c0d1cfc4da"},"vehicle_type_id":"4","last_reported":1728727685,"current_range_meters":39200,"station_id":"ce4bhkp2rcd13ifvqgd0","pricing_plan_id":"cebpf4jnsgd1na2vs0mg"},{"bike_id":"ad9508a3-6339-4b15-ad7f-7867f29affe1","system_id":"levelo_inurba_marseille","lat":43.2396,"lon":5.36635,"is_reserved":false,"is_disabled":false,"rental_uris":{"android":"levelo://app?vid=ad9508a3-6339-4b15-ad7f-7867f29affe1","ios":"levelo://app?vid=ad9508a3-6339-4b15-ad7f-7867f29affe1"},"vehicle_type_id":"4","last_reported":1728727685,"current_range_meters":30400,"station_id":"ce4bhi12rcd13ifvqfp0","pricing_plan_id":"cebpf4jnsgd1na2vs0mg"},{"bike_id":"759ce870-3bc5-4a2e-a8c9-bec4e8008e45","system_id":"levelo_inurba_marseille","lat":43.337444,"lon":5.374475,"is_reserved":false,"is_disabled":false,"rental_uris":{"android":"levelo://app?vid=759ce870-3bc5-4a2e-a8c9-bec4e8008e45","ios":"levelo://app?vid=759ce870-3bc5-4a2e-a8c9-bec4e8008e45"},"vehicle_type_id":"4","last_reported":1728727685,"current_range_meters":28000,"station_id":"","pricing_plan_id":"cebpf4jnsgd1na2vs0mg"},{"bike_id":"85a6762e-f262-429f-badd-3ed486cc3ab0","system_id":"levelo_inurba_marseille","lat":43.27617,"lon":5.36107,"is_reserved":false,"is_disabled":false,"rental_uris":{"android":"levelo://app?vid=85a6762e-f262-429f-badd-3ed486cc3ab0","ios":"levelo://app?vid=85a6762e-f262-429f-badd-3ed486cc3ab0"},"vehicle_type_id":"4","last_reported":1728727685,"current_range_meters":38800,"station_id":"ce4bgj92rcd13ifvqbe0","pricing_plan_id":"cebpf4jnsgd1na2vs0mg"},{"bike_id":"81116487-809d-4f42-a9f3-27b11eea1ba5","system_id":"levelo_inurba_marseille","lat":43.24068,"lon":5.37759,"is_reserved":false,"is_disabled":false,"rental_uris":{"android":"levelo://app?vid=81116487-809d-4f42-a9f3-27b11eea1ba5","ios":"levelo://app?vid=81116487-809d-4f42-a9f3-27b11eea1ba5"},"vehicle_type_id":"4","last_reported":1728727685,"current_range_meters":21600,"station_id":"ce4bhnp2rcd13ifvqgvg","pricing_plan_id":"cebpf4jnsgd1na2vs0mg"},{"bike_id":"6b10fb70-8928-448c-9332-a992ab5f585a","system_id":"levelo_inurba_marseille","lat":43.24998,"lon":5.38934,"is_reserved":false,"is_disabled":false,"rental_uris":{"android":"levelo://app?vid=6b10fb70-8928-448c-9332-a992ab5f585a","ios":"levelo://app?vid=6b10fb70-8928-448c-9332-a992ab5f585a"},"vehicle_type_id":"4","last_reported":1728727685,"current_range_meters":9200,"station_id":"ce4bhgp2rcd13ifvqfd0","pricing_plan_id":"cebpf4jnsgd1na2vs0mg"},{"bike_id":"5bc82fca-43af-4201-891c-b197527e32ad","system_id":"levelo_inurba_marseille","lat":43.23182,"lon":5.39984,"is_reserved":false,"is_disabled":false,"rental_uris":{"android":"levelo://app?vid=5bc82fca-43af-4201-891c-b197527e32ad","ios":"levelo://app?vid=5bc82fca-43af-4201-891c-b197527e32ad"},"vehicle_type_id":"4","last_reported":1728727685,"current_range_meters":8800,"station_id":"ce4bhn12rcd13ifvqgqg","pricing_plan_id":"cebpf4jnsgd1na2vs0mg"},{"bike_id":"7c84ba11-c20f-4c7e-901f-d514605a3973","system_id":"levelo_inurba_marseille","lat":43.30463,"lon":5.37899,"is_reserved":false,"is_disabled":false,"rental_uris":{"android":"levelo://app?vid=7c84ba11-c20f-4c7e-901f-d514605a3973","ios":"levelo://app?vid=7c84ba11-c20f-4c7e-901f-d514605a3973"},"vehicle_type_id":"4","last_reported":1728727685,"current_range_meters":38800,"station_id":"ce4bgup2rcd13ifvqcn0","pricing_plan_id":"cebpf4jnsgd1na2vs0mg"},{"bike_id":"628b70e0-70d2-4a50-bd81-f02589a5a65c","system_id":"levelo_inurba_marseille","lat":43.29223,"lon":5.3716,"is_reserved":false,"is_disabled":false,"rental_uris":{"android":"levelo://app?vid=628b70e0-70d2-4a50-bd81-f02589a5a65c","ios":"levelo://app?vid=628b70e0-70d2-4a50-bd81-f02589a5a65c"},"vehicle_type_id":"4","last_reported":1728727685,"current_range_meters":9200,"station_id":"ce4bha92rcd13ifvqeh0","pricing_plan_id":"cebpf4jnsgd1na2vs0mg"},{"bike_id":"25f19a95-aee3-4be9-bd0e-db779134e263","system_id":"levelo_inurba_marseille","lat":43.24659,"lon":5.38161,"is_reserved":false,"is_disabled":false,"rental_uris":{"android":"levelo://app?vid=25f19a95-aee3-4be9-bd0e-db779134e263","ios":"levelo://app?vid=25f19a95-aee3-4be9-bd0e-db779134e263"},"vehicle_type_id":"4","last_reported":1728727685,"current_range_meters":6800,"station_id":"ce4bhih2rcd13ifvqfr0","pricing_plan_id":"cebpf4jnsgd1na2vs0mg"},{"bike_id":"a49f0919-36fa-4eb4-8b1e-4f56526b00f7","system_id":"levelo_inurba_marseille","lat":43.27186,"lon":5.40995,"is_reserved":false,"is_disabled":false,"rental_uris":{"android":"levelo://app?vid=a49f0919-36fa-4eb4-8b1e-4f56526b00f7","ios":"levelo://app?vid=a49f0919-36fa-4eb4-8b1e-4f56526b00f7"},"vehicle_type_id":"4","last_reported":1728727685,"current_range_meters":38800,"station_id":"ce4bhl12rcd13ifvqgf0","pricing_plan_id":"cebpf4jnsgd1na2vs0mg"},{"bike_id":"37260897-2869-4b67-b68b-17af335d61b4","system_id":"levelo_inurba_marseille","lat":43.31708,"lon":5.43709,"is_reserved":false,"is_disabled":false,"rental_uris":{"android":"levelo://app?vid=37260897-2869-4b67-b68b-17af335d61b4","ios":"levelo://app?vid=37260897-2869-4b67-b68b-17af335d61b4"},"vehicle_type_id":"4","last_reported":1728727685,"current_range_meters":25200,"station_id":"ce4bhp92rcd13ifvqhcg","pricing_plan_id":"cebpf4jnsgd1na2vs0mg"},{"bike_id":"ffe862a6-77a6-423c-bde4-3fe07c3a7faf","system_id":"levelo_inurba_marseille","lat":43.29609,"lon":5.37714,"is_reserved":false,"is_disabled":false,"rental_uris":{"android":"levelo://app?vid=ffe862a6-77a6-423c-bde4-3fe07c3a7faf","ios":"levelo://app?vid=ffe862a6-77a6-423c-bde4-3fe07c3a7faf"},"vehicle_type_id":"4","last_reported":1728727685,"current_range_meters":38800,"station_id":"ce4bgi92rcd13ifvqb90","pricing_plan_id":"cebpf4jnsgd1na2vs0mg"},{"bike_id":"ef772543-6dcc-4917-a2bf-044cfc19e6bb","system_id":"levelo_inurba_marseille","lat":43.26678,"lon":5.38267,"is_reserved":false,"is_disabled":false,"rental_uris":{"android":"levelo://app?vid=ef772543-6dcc-4917-a2bf-044cfc19e6bb","ios":"levelo://app?vid=ef772543-6dcc-4917-a2bf-044cfc19e6bb"},"vehicle_type_id":"4","last_reported":1728727685,"current_range_meters":27200,"station_id":"ce4bhg92rcd13ifvqf90","pricing_plan_id":"cebpf4jnsgd1na2vs0mg"},{"bike_id":"82de1d58-db4a-4dc1-9fdf-8477c2a655ef","system_id":"levelo_inurba_marseille","lat":43.28039,"lon":5.36939,"is_reserved":false,"is_disabled":false,"rental_uris":{"android":"levelo://app?vid=82de1d58-db4a-4dc1-9fdf-8477c2a655ef","ios":"levelo://app?vid=82de1d58-db4a-4dc1-9fdf-8477c2a655ef"},"vehicle_type_id":"4","last_reported":1728727685,"current_range_meters":36800,"station_id":"ce4bha12rcd13ifvqef0","pricing_plan_id":"cebpf4jnsgd1na2vs0mg"},{"bike_id":"9379c18a-1c38-4ebd-b55e-09efbf75f62a","system_id":"levelo_inurba_marseille","lat":43.29932,"lon":5.36546,"is_reserved":false,"is_disabled":false,"rental_uris":{"android":"levelo://app?vid=9379c18a-1c38-4ebd-b55e-09efbf75f62a","ios":"levelo://app?vid=9379c18a-1c38-4ebd-b55e-09efbf75f62a"},"vehicle_type_id":"4","last_reported":1728727685,"current_range_meters":13600,"station_id":"ce4bgm92rcd13ifvqbr0","pricing_plan_id":"cebpf4jnsgd1na2vs0mg"},{"bike_id":"a39f88e5-6ed5-4d3e-8bf2-26e84c9278fe","system_id":"levelo_inurba_marseille","lat":43.28862,"lon":5.35864,"is_reserved":false,"is_disabled":false,"rental_uris":{"android":"levelo://app?vid=a39f88e5-6ed5-4d3e-8bf2-26e84c9278fe","ios":"levelo://app?vid=a39f88e5-6ed5-4d3e-8bf2-26e84c9278fe"},"vehicle_type_id":"4","last_reported":1728727685,"current_range_meters":26800,"station_id":"ce4bhb12rcd13ifvqem0","pricing_plan_id":"cebpf4jnsgd1na2vs0mg"},{"bike_id":"082f10e2-444b-4262-9777-2e9cacdb3880","system_id":"levelo_inurba_marseille","lat":43.32044,"lon":5.41555,"is_reserved":false,"is_disabled":false,"rental_uris":{"android":"levelo://app?vid=082f10e2-444b-4262-9777-2e9cacdb3880","ios":"levelo://app?vid=082f10e2-444b-4262-9777-2e9cacdb3880"},"vehicle_type_id":"4","last_reported":1728727685,"current_range_meters":16000,"station_id":"ce4bhq92rcd13ifvqhkg","pricing_plan_id":"cebpf4jnsgd1na2vs0mg"},{"bike_id":"5c483790-257f-48e3-898d-85ded0cb6385","system_id":"levelo_inurba_marseille","lat":43.301152,"lon":5.380635,"is_reserved":false,"is_disabled":false,"rental_uris":{"android":"levelo://app?vid=5c483790-257f-48e3-898d-85ded0cb6385","ios":"levelo://app?vid=5c483790-257f-48e3-898d-85ded0cb6385"},"vehicle_type_id":"4","last_reported":1728727685,"current_range_meters":31200,"station_id":"ce4bgjp2rcd13ifvqbh0","pricing_plan_id":"cebpf4jnsgd1na2vs0mg"},{"bike_id":"b06ce030-e9cd-499c-afd0-d38cb36a2e69","system_id":"levelo_inurba_marseille","lat":43.27611,"lon":5.36119,"is_reserved":false,"is_disabled":false,"rental_uris":{"android":"levelo://app?vid=b06ce030-e9cd-499c-afd0-d38cb36a2e69","ios":"levelo://app?vid=b06ce030-e9cd-499c-afd0-d38cb36a2e69"},"vehicle_type_id":"4","last_reported":1728727685,"current_range_meters":26000,"station_id":"ce4bgj92rcd13ifvqbe0","pricing_plan_id":"cebpf4jnsgd1na2vs0mg"},{"bike_id":"c5f50b99-9f20-4103-b102-63bcf405bb36","system_id":"levelo_inurba_marseille","lat":43.29788,"lon":5.38099,"is_reserved":false,"is_disabled":false,"rental_uris":{"android":"levelo://app?vid=c5f50b99-9f20-4103-b102-63bcf405bb36","ios":"levelo://app?vid=c5f50b99-9f20-4103-b102-63bcf405bb36"},"vehicle_type_id":"4","last_reported":1728727685,"current_range_meters":33600,"station_id":"ce4bgip2rcd13ifvqbb0","pricing_plan_id":"cebpf4jnsgd1na2vs0mg"},{"bike_id":"fd301c4f-88d0-470b-8444-02e732c4a052","system_id":"levelo_inurba_marseille","lat":43.24972,"lon":5.38099,"is_reserved":false,"is_disabled":false,"rental_uris":{"android":"levelo://app?vid=fd301c4f-88d0-470b-8444-02e732c4a052","ios":"levelo://app?vid=fd301c4f-88d0-470b-8444-02e732c4a052"},"vehicle_type_id":"4","last_reported":1728727685,"current_range_meters":28400,"station_id":"","pricing_plan_id":"cebpf4jnsgd1na2vs0mg"},{"bike_id":"9935e052-e96b-41be-86b2-902a4235581f","system_id":"levelo_inurba_marseille","lat":43.29076,"lon":5.39905,"is_reserved":false,"is_disabled":false,"rental_uris":{"android":"levelo://app?vid=9935e052-e96b-41be-86b2-902a4235581f","ios":"levelo://app?vid=9935e052-e96b-41be-86b2-902a4235581f"},"vehicle_type_id":"4","last_reported":1728727685,"current_range_meters":32800,"station_id":"ce4bh392rcd13ifvqdm0","pricing_plan_id":"cebpf4jnsgd1na2vs0mg"},{"bike_id":"e82530db-9da0-4449-ae24-c84eebf2d6c2","system_id":"levelo_inurba_marseille","lat":43.30798,"lon":5.43521,"is_reserved":false,"is_disabled":false,"rental_uris":{"android":"levelo://app?vid=e82530db-9da0-4449-ae24-c84eebf2d6c2","ios":"levelo://app?vid=e82530db-9da0-4449-ae24-c84eebf2d6c2"},"vehicle_type_id":"4","last_reported":1728727685,"current_range_meters":39200,"station_id":"ce4bhph2rcd13ifvqheg","pricing_plan_id":"cebpf4jnsgd1na2vs0mg"},{"bike_id":"ff68b789-7173-415f-860f-fb58c1b9d01d","system_id":"levelo_inurba_marseille","lat":43.22928,"lon":5.35375,"is_reserved":false,"is_disabled":false,"rental_uris":{"android":"levelo://app?vid=ff68b789-7173-415f-860f-fb58c1b9d01d","ios":"levelo://app?vid=ff68b789-7173-415f-860f-fb58c1b9d01d"},"vehicle_type_id":"4","last_reported":1728727685,"current_range_meters":27200,"station_id":"cpo3532slgdg3j2ikp40","pricing_plan_id":"cebpf4jnsgd1na2vs0mg"},{"bike_id":"f2ec553b-f583-4634-bf60-a39b93078fc1","system_id":"levelo_inurba_marseille","lat":43.24389,"lon":5.37063,"is_reserved":false,"is_disabled":false,"rental_uris":{"android":"levelo://app?vid=f2ec553b-f583-4634-bf60-a39b93078fc1","ios":"levelo://app?vid=f2ec553b-f583-4634-bf60-a39b93078fc1"},"vehicle_type_id":"4","last_reported":1728727685,"current_range_meters":28400,"station_id":"ce4bhhh2rcd13ifvqfk0","pricing_plan_id":"cebpf4jnsgd1na2vs0mg"},{"bike_id":"0fd3d370-1319-48ec-a456-397bab6359a1","system_id":"levelo_inurba_marseille","lat":43.30432,"lon":5.39749,"is_reserved":false,"is_disabled":false,"rental_uris":{"android":"levelo://app?vid=0fd3d370-1319-48ec-a456-397bab6359a1","ios":"levelo://app?vid=0fd3d370-1319-48ec-a456-397bab6359a1"},"vehicle_type_id":"4","last_reported":1728727685,"current_range_meters":39200,"station_id":"ce4bh092rcd13ifvqd20","pricing_plan_id":"cebpf4jnsgd1na2vs0mg"},{"bike_id":"27214a3f-e250-465b-9eae-52b52eef5e45","system_id":"levelo_inurba_marseille","lat":43.23793,"lon":5.43573,"is_reserved":false,"is_disabled":false,"rental_uris":{"android":"levelo://app?vid=27214a3f-e250-465b-9eae-52b52eef5e45","ios":"levelo://app?vid=27214a3f-e250-465b-9eae-52b52eef5e45"},"vehicle_type_id":"4","last_reported":1728727685,"current_range_meters":8400,"station_id":"ce4bhmp2rcd13ifvqgog","pricing_plan_id":"cebpf4jnsgd1na2vs0mg"},{"bike_id":"92c1af36-5649-40f5-84ed-a7b062884571","system_id":"levelo_inurba_marseille","lat":43.23965,"lon":5.36635,"is_reserved":false,"is_disabled":false,"rental_uris":{"android":"levelo://app?vid=92c1af36-5649-40f5-84ed-a7b062884571","ios":"levelo://app?vid=92c1af36-5649-40f5-84ed-a7b062884571"},"vehicle_type_id":"4","last_reported":1728727685,"current_range_meters":35200,"station_id":"ce4bhi12rcd13ifvqfp0","pricing_plan_id":"cebpf4jnsgd1na2vs0mg"},{"bike_id":"c11fcae1-b593-4e26-bc2a-e872298fc97a","system_id":"levelo_inurba_marseille","lat":43.284266,"lon":5.375005,"is_reserved":false,"is_disabled":false,"rental_uris":{"android":"levelo://app?vid=c11fcae1-b593-4e26-bc2a-e872298fc97a","ios":"levelo://app?vid=c11fcae1-b593-4e26-bc2a-e872298fc97a"},"vehicle_type_id":"4","last_reported":1728727685,"current_range_meters":9200,"station_id":"ce4bh412rcd13ifvqds0","pricing_plan_id":"cebpf4jnsgd1na2vs0mg"},{"bike_id":"6cb5b02c-2401-484a-8b7d-b4d2106d6b08","system_id":"levelo_inurba_marseille","lat":43.23184,"lon":5.3555,"is_reserved":false,"is_disabled":false,"rental_uris":{"android":"levelo://app?vid=6cb5b02c-2401-484a-8b7d-b4d2106d6b08","ios":"levelo://app?vid=6cb5b02c-2401-484a-8b7d-b4d2106d6b08"},"vehicle_type_id":"4","last_reported":1728727685,"current_range_meters":31200,"station_id":"ce4bhu92rcd13ifvqi70","pricing_plan_id":"cebpf4jnsgd1na2vs0mg"},{"bike_id":"56e930d5-1b08-4b9d-9d76-68bf251f7b39","system_id":"levelo_inurba_marseille","lat":43.31756,"lon":5.39018,"is_reserved":false,"is_disabled":false,"rental_uris":{"android":"levelo://app?vid=56e930d5-1b08-4b9d-9d76-68bf251f7b39","ios":"levelo://app?vid=56e930d5-1b08-4b9d-9d76-68bf251f7b39"},"vehicle_type_id":"4","last_reported":1728727685,"current_range_meters":38400,"station_id":"ce4bhqp2rcd13ifvqhng","pricing_plan_id":"cebpf4jnsgd1na2vs0mg"},{"bike_id":"c88cdfb0-4bf9-4a8c-8ce2-b63c2598193b","system_id":"levelo_inurba_marseille","lat":43.29577,"lon":5.36739,"is_reserved":false,"is_disabled":false,"rental_uris":{"android":"levelo://app?vid=c88cdfb0-4bf9-4a8c-8ce2-b63c2598193b","ios":"levelo://app?vid=c88cdfb0-4bf9-4a8c-8ce2-b63c2598193b"},"vehicle_type_id":"4","last_reported":1728727685,"current_range_meters":37600,"station_id":"ce4bgph2rcd13ifvqc2g","pricing_plan_id":"cebpf4jnsgd1na2vs0mg"},{"bike_id":"282fb7e8-3643-4337-9b69-77b17cb2de08","system_id":"levelo_inurba_marseille","lat":43.29579,"lon":5.37516,"is_reserved":false,"is_disabled":false,"rental_uris":{"android":"levelo://app?vid=282fb7e8-3643-4337-9b69-77b17cb2de08","ios":"levelo://app?vid=282fb7e8-3643-4337-9b69-77b17cb2de08"},"vehicle_type_id":"4","last_reported":1728727685,"current_range_meters":26800,"station_id":"ce4bgh92rcd13ifvqb50","pricing_plan_id":"cebpf4jnsgd1na2vs0mg"},{"bike_id":"be49e175-5cd7-4936-a41b-ab6a95c3c585","system_id":"levelo_inurba_marseille","lat":43.29804,"lon":5.38097,"is_reserved":false,"is_disabled":false,"rental_uris":{"android":"levelo://app?vid=be49e175-5cd7-4936-a41b-ab6a95c3c585","ios":"levelo://app?vid=be49e175-5cd7-4936-a41b-ab6a95c3c585"},"vehicle_type_id":"4","last_reported":1728727685,"current_range_meters":38800,"station_id":"ce4bgip2rcd13ifvqbb0","pricing_plan_id":"cebpf4jnsgd1na2vs0mg"},{"bike_id":"e0eb06fb-c00b-4df7-b209-89534309345b","system_id":"levelo_inurba_marseille","lat":43.29719,"lon":5.37687,"is_reserved":false,"is_disabled":false,"rental_uris":{"android":"levelo://app?vid=e0eb06fb-c00b-4df7-b209-89534309345b","ios":"levelo://app?vid=e0eb06fb-c00b-4df7-b209-89534309345b"},"vehicle_type_id":"4","last_reported":1728727685,"current_range_meters":38800,"station_id":"ce4bgkh2rcd13ifvqbl0","pricing_plan_id":"cebpf4jnsgd1na2vs0mg"},{"bike_id":"4fc0ad89-52c5-4eaf-b9b0-f4b0f0f4e758","system_id":"levelo_inurba_marseille","lat":43.31767,"lon":5.39007,"is_reserved":false,"is_disabled":false,"rental_uris":{"android":"levelo://app?vid=4fc0ad89-52c5-4eaf-b9b0-f4b0f0f4e758","ios":"levelo://app?vid=4fc0ad89-52c5-4eaf-b9b0-f4b0f0f4e758"},"vehicle_type_id":"4","last_reported":1728727685,"current_range_meters":10000,"station_id":"ce4bhqp2rcd13ifvqhng","pricing_plan_id":"cebpf4jnsgd1na2vs0mg"},{"bike_id":"eac4e8f1-ac84-4048-ad4c-5213afa836f2","system_id":"levelo_inurba_marseille","lat":43.27139,"lon":5.4002,"is_reserved":false,"is_disabled":false,"rental_uris":{"android":"levelo://app?vid=eac4e8f1-ac84-4048-ad4c-5213afa836f2","ios":"levelo://app?vid=eac4e8f1-ac84-4048-ad4c-5213afa836f2"},"vehicle_type_id":"4","last_reported":1728727685,"current_range_meters":26000,"station_id":"","pricing_plan_id":"cebpf4jnsgd1na2vs0mg"},{"bike_id":"1241951e-4d85-43a4-9b92-38a3f1a123db","system_id":"levelo_inurba_marseille","lat":43.30726,"lon":5.40149,"is_reserved":false,"is_disabled":false,"rental_uris":{"android":"levelo://app?vid=1241951e-4d85-43a4-9b92-38a3f1a123db","ios":"levelo://app?vid=1241951e-4d85-43a4-9b92-38a3f1a123db"},"vehicle_type_id":"4","last_reported":1728727685,"current_range_meters":17600,"station_id":"","pricing_plan_id":"cebpf4jnsgd1na2vs0mg"},{"bike_id":"602d4549-5834-4f3c-89c4-e86648681018","system_id":"levelo_inurba_marseille","lat":43.2861,"lon":5.351,"is_reserved":false,"is_disabled":false,"rental_uris":{"android":"levelo://app?vid=602d4549-5834-4f3c-89c4-e86648681018","ios":"levelo://app?vid=602d4549-5834-4f3c-89c4-e86648681018"},"vehicle_type_id":"4","last_reported":1728727685,"current_range_meters":38800,"station_id":"ce4bhch2rcd13ifvqeug","pricing_plan_id":"cebpf4jnsgd1na2vs0mg"},{"bike_id":"422b6d43-44b7-45fb-b2ab-940518d53498","system_id":"levelo_inurba_marseille","lat":43.29957,"lon":5.39756,"is_reserved":false,"is_disabled":false,"rental_uris":{"android":"levelo://app?vid=422b6d43-44b7-45fb-b2ab-940518d53498","ios":"levelo://app?vid=422b6d43-44b7-45fb-b2ab-940518d53498"},"vehicle_type_id":"4","last_reported":1728727685,"current_range_meters":8000,"station_id":"","pricing_plan_id":"cebpf4jnsgd1na2vs0mg"},{"bike_id":"a0e9d5cb-c8a8-4c54-8443-609e7d8c092d","system_id":"levelo_inurba_marseille","lat":43.29794,"lon":5.38124,"is_reserved":false,"is_disabled":false,"rental_uris":{"android":"levelo://app?vid=a0e9d5cb-c8a8-4c54-8443-609e7d8c092d","ios":"levelo://app?vid=a0e9d5cb-c8a8-4c54-8443-609e7d8c092d"},"vehicle_type_id":"4","last_reported":1728727685,"current_range_meters":32400,"station_id":"ce4bgip2rcd13ifvqbb0","pricing_plan_id":"cebpf4jnsgd1na2vs0mg"},{"bike_id":"d0a0666a-c101-4027-b608-4fa8efe45227","system_id":"levelo_inurba_marseille","lat":43.30155,"lon":5.38079,"is_reserved":false,"is_disabled":false,"rental_uris":{"android":"levelo://app?vid=d0a0666a-c101-4027-b608-4fa8efe45227","ios":"levelo://app?vid=d0a0666a-c101-4027-b608-4fa8efe45227"},"vehicle_type_id":"4","last_reported":1728727685,"current_range_meters":28800,"station_id":"ce4bgjp2rcd13ifvqbh0","pricing_plan_id":"cebpf4jnsgd1na2vs0mg"},{"bike_id":"ad092188-1ce6-40d2-8a3b-b331286e2526","system_id":"levelo_inurba_marseille","lat":43.29524,"lon":5.38552,"is_reserved":false,"is_disabled":false,"rental_uris":{"android":"levelo://app?vid=ad092188-1ce6-40d2-8a3b-b331286e2526","ios":"levelo://app?vid=ad092188-1ce6-40d2-8a3b-b331286e2526"},"vehicle_type_id":"4","last_reported":1728727685,"current_range_meters":8800,"station_id":"ce4bgih2rcd13ifvqba0","pricing_plan_id":"cebpf4jnsgd1na2vs0mg"},{"bike_id":"f7df3065-292a-4208-8b20-3491c3564ed0","system_id":"levelo_inurba_marseille","lat":43.27609,"lon":5.36112,"is_reserved":false,"is_disabled":false,"rental_uris":{"android":"levelo://app?vid=f7df3065-292a-4208-8b20-3491c3564ed0","ios":"levelo://app?vid=f7df3065-292a-4208-8b20-3491c3564ed0"},"vehicle_type_id":"4","last_reported":1728727685,"current_range_meters":4400,"station_id":"ce4bgj92rcd13ifvqbe0","pricing_plan_id":"cebpf4jnsgd1na2vs0mg"},{"bike_id":"51a405b6-b17e-4d49-abcb-c2fd26ff72eb","system_id":"levelo_inurba_marseille","lat":43.25003,"lon":5.38927,"is_reserved":false,"is_disabled":false,"rental_uris":{"android":"levelo://app?vid=51a405b6-b17e-4d49-abcb-c2fd26ff72eb","ios":"levelo://app?vid=51a405b6-b17e-4d49-abcb-c2fd26ff72eb"},"vehicle_type_id":"4","last_reported":1728727685,"current_range_meters":32000,"station_id":"ce4bhgp2rcd13ifvqfd0","pricing_plan_id":"cebpf4jnsgd1na2vs0mg"},{"bike_id":"b933402b-d1ca-49a8-bbf7-fb19281d941c","system_id":"levelo_inurba_marseille","lat":43.23193,"lon":5.35543,"is_reserved":false,"is_disabled":false,"rental_uris":{"android":"levelo://app?vid=b933402b-d1ca-49a8-bbf7-fb19281d941c","ios":"levelo://app?vid=b933402b-d1ca-49a8-bbf7-fb19281d941c"},"vehicle_type_id":"4","last_reported":1728727685,"current_range_meters":22000,"station_id":"ce4bhu92rcd13ifvqi70","pricing_plan_id":"cebpf4jnsgd1na2vs0mg"},{"bike_id":"68a48546-28ec-4218-a008-021a1ba46359","system_id":"levelo_inurba_marseille","lat":43.24949,"lon":5.38179,"is_reserved":false,"is_disabled":false,"rental_uris":{"android":"levelo://app?vid=68a48546-28ec-4218-a008-021a1ba46359","ios":"levelo://app?vid=68a48546-28ec-4218-a008-021a1ba46359"},"vehicle_type_id":"4","last_reported":1728727685,"current_range_meters":38800,"station_id":"","pricing_plan_id":"cebpf4jnsgd1na2vs0mg"},{"bike_id":"1db2c429-f0e6-4e9c-be4a-35e93c792880","system_id":"levelo_inurba_marseille","lat":43.29356,"lon":5.37847,"is_reserved":false,"is_disabled":false,"rental_uris":{"android":"levelo://app?vid=1db2c429-f0e6-4e9c-be4a-35e93c792880","ios":"levelo://app?vid=1db2c429-f0e6-4e9c-be4a-35e93c792880"},"vehicle_type_id":"4","last_reported":1728727685,"current_range_meters":8400,"station_id":"ce4bgjh2rcd13ifvqbf0","pricing_plan_id":"cebpf4jnsgd1na2vs0mg"},{"bike_id":"68472001-1d03-4e34-8b3d-aa2667b89cfa","system_id":"levelo_inurba_marseille","lat":43.29967,"lon":5.3717,"is_reserved":false,"is_disabled":false,"rental_uris":{"android":"levelo://app?vid=68472001-1d03-4e34-8b3d-aa2667b89cfa","ios":"levelo://app?vid=68472001-1d03-4e34-8b3d-aa2667b89cfa"},"vehicle_type_id":"4","last_reported":1728727685,"current_range_meters":38400,"station_id":"ce4bgr92rcd13ifvqc7g","pricing_plan_id":"cebpf4jnsgd1na2vs0mg"},{"bike_id":"0db66df0-a352-45a7-b97a-79c2d6b8bb1d","system_id":"levelo_inurba_marseille","lat":43.27186,"lon":5.40988,"is_reserved":false,"is_disabled":false,"rental_uris":{"android":"levelo://app?vid=0db66df0-a352-45a7-b97a-79c2d6b8bb1d","ios":"levelo://app?vid=0db66df0-a352-45a7-b97a-79c2d6b8bb1d"},"vehicle_type_id":"4","last_reported":1728727685,"current_range_meters":38800,"station_id":"ce4bhl12rcd13ifvqgf0","pricing_plan_id":"cebpf4jnsgd1na2vs0mg"},{"bike_id":"f41f2bec-cd23-47ee-8d19-d81e0b3cd853","system_id":"levelo_inurba_marseille","lat":43.297713,"lon":5.384543,"is_reserved":false,"is_disabled":false,"rental_uris":{"android":"levelo://app?vid=f41f2bec-cd23-47ee-8d19-d81e0b3cd853","ios":"levelo://app?vid=f41f2bec-cd23-47ee-8d19-d81e0b3cd853"},"vehicle_type_id":"4","last_reported":1728727685,"current_range_meters":35600,"station_id":"","pricing_plan_id":"cebpf4jnsgd1na2vs0mg"},{"bike_id":"83b389f7-d8a2-4783-b9b3-f93ae8e3107d","system_id":"levelo_inurba_marseille","lat":43.30544,"lon":5.38441,"is_reserved":false,"is_disabled":false,"rental_uris":{"android":"levelo://app?vid=83b389f7-d8a2-4783-b9b3-f93ae8e3107d","ios":"levelo://app?vid=83b389f7-d8a2-4783-b9b3-f93ae8e3107d"},"vehicle_type_id":"4","last_reported":1728727685,"current_range_meters":38800,"station_id":"ce4bgg92rcd13ifvqb30","pricing_plan_id":"cebpf4jnsgd1na2vs0mg"},{"bike_id":"a8f19f9a-4059-4039-ac02-827e8e454ed9","system_id":"levelo_inurba_marseille","lat":43.29509,"lon":5.37504,"is_reserved":false,"is_disabled":false,"rental_uris":{"android":"levelo://app?vid=a8f19f9a-4059-4039-ac02-827e8e454ed9","ios":"levelo://app?vid=a8f19f9a-4059-4039-ac02-827e8e454ed9"},"vehicle_type_id":"4","last_reported":1728727685,"current_range_meters":38000,"station_id":"ce4bgkp2rcd13ifvqbmg","pricing_plan_id":"cebpf4jnsgd1na2vs0mg"},{"bike_id":"4f7c0109-5dcf-45b2-b7d2-00656a308196","system_id":"levelo_inurba_marseille","lat":43.29964,"lon":5.37178,"is_reserved":false,"is_disabled":false,"rental_uris":{"android":"levelo://app?vid=4f7c0109-5dcf-45b2-b7d2-00656a308196","ios":"levelo://app?vid=4f7c0109-5dcf-45b2-b7d2-00656a308196"},"vehicle_type_id":"4","last_reported":1728727685,"current_range_meters":36400,"station_id":"ce4bgr92rcd13ifvqc7g","pricing_plan_id":"cebpf4jnsgd1na2vs0mg"},{"bike_id":"75b2715b-0ea5-471c-9cb7-feb38ee478dc","system_id":"levelo_inurba_marseille","lat":43.23182,"lon":5.39994,"is_reserved":false,"is_disabled":false,"rental_uris":{"android":"levelo://app?vid=75b2715b-0ea5-471c-9cb7-feb38ee478dc","ios":"levelo://app?vid=75b2715b-0ea5-471c-9cb7-feb38ee478dc"},"vehicle_type_id":"4","last_reported":1728727685,"current_range_meters":24000,"station_id":"ce4bhn12rcd13ifvqgqg","pricing_plan_id":"cebpf4jnsgd1na2vs0mg"},{"bike_id":"acb286ac-aacd-4e2f-954e-578f023e2a58","system_id":"levelo_inurba_marseille","lat":43.29612,"lon":5.37732,"is_reserved":false,"is_disabled":false,"rental_uris":{"android":"levelo://app?vid=acb286ac-aacd-4e2f-954e-578f023e2a58","ios":"levelo://app?vid=acb286ac-aacd-4e2f-954e-578f023e2a58"},"vehicle_type_id":"4","last_reported":1728727685,"current_range_meters":39200,"station_id":"ce4bgi92rcd13ifvqb90","pricing_plan_id":"cebpf4jnsgd1na2vs0mg"},{"bike_id":"9fe7cebc-b48f-4189-81d1-3dd39f539e69","system_id":"levelo_inurba_marseille","lat":43.28103,"lon":5.37828,"is_reserved":false,"is_disabled":false,"rental_uris":{"android":"levelo://app?vid=9fe7cebc-b48f-4189-81d1-3dd39f539e69","ios":"levelo://app?vid=9fe7cebc-b48f-4189-81d1-3dd39f539e69"},"vehicle_type_id":"4","last_reported":1728727685,"current_range_meters":35200,"station_id":"ce4bha12rcd13ifvqee0","pricing_plan_id":"cebpf4jnsgd1na2vs0mg"},{"bike_id":"a4ab7447-2d23-4412-b94c-8b6ae3e3b436","system_id":"levelo_inurba_marseille","lat":43.27995,"lon":5.40013,"is_reserved":false,"is_disabled":false,"rental_uris":{"android":"levelo://app?vid=a4ab7447-2d23-4412-b94c-8b6ae3e3b436","ios":"levelo://app?vid=a4ab7447-2d23-4412-b94c-8b6ae3e3b436"},"vehicle_type_id":"4","last_reported":1728727685,"current_range_meters":38800,"station_id":"ce4bho92rcd13ifvqh4g","pricing_plan_id":"cebpf4jnsgd1na2vs0mg"},{"bike_id":"aeeef2c6-028b-47df-85a7-9b089f1db95c","system_id":"levelo_inurba_marseille","lat":43.29895,"lon":5.43672,"is_reserved":false,"is_disabled":false,"rental_uris":{"android":"levelo://app?vid=aeeef2c6-028b-47df-85a7-9b089f1db95c","ios":"levelo://app?vid=aeeef2c6-028b-47df-85a7-9b089f1db95c"},"vehicle_type_id":"4","last_reported":1728727685,"current_range_meters":10000,"station_id":"ce4bhpp2rcd13ifvqhfg","pricing_plan_id":"cebpf4jnsgd1na2vs0mg"},{"bike_id":"286baabf-b45b-4acd-805a-a7938257d24b","system_id":"levelo_inurba_marseille","lat":43.26488,"lon":5.39547,"is_reserved":false,"is_disabled":false,"rental_uris":{"android":"levelo://app?vid=286baabf-b45b-4acd-805a-a7938257d24b","ios":"levelo://app?vid=286baabf-b45b-4acd-805a-a7938257d24b"},"vehicle_type_id":"4","last_reported":1728727685,"current_range_meters":19600,"station_id":"ce4bhi12rcd13ifvqfq0","pricing_plan_id":"cebpf4jnsgd1na2vs0mg"},{"bike_id":"484a4c63-4ef1-4433-b27a-9a9ca5ad2f9a","system_id":"levelo_inurba_marseille","lat":43.22929,"lon":5.35378,"is_reserved":false,"is_disabled":false,"rental_uris":{"android":"levelo://app?vid=484a4c63-4ef1-4433-b27a-9a9ca5ad2f9a","ios":"levelo://app?vid=484a4c63-4ef1-4433-b27a-9a9ca5ad2f9a"},"vehicle_type_id":"4","last_reported":1728727685,"current_range_meters":10800,"station_id":"cpo3532slgdg3j2ikp40","pricing_plan_id":"cebpf4jnsgd1na2vs0mg"},{"bike_id":"d8644448-7698-4ba5-ba37-f6083176f920","system_id":"levelo_inurba_marseille","lat":43.255835,"lon":5.382372,"is_reserved":false,"is_disabled":false,"rental_uris":{"android":"levelo://app?vid=d8644448-7698-4ba5-ba37-f6083176f920","ios":"levelo://app?vid=d8644448-7698-4ba5-ba37-f6083176f920"},"vehicle_type_id":"4","last_reported":1728727685,"current_range_meters":27200,"station_id":"ce4bhih2rcd13ifvqfs0","pricing_plan_id":"cebpf4jnsgd1na2vs0mg"},{"bike_id":"b43a37ee-db0c-4e2e-bf8d-f18619c472c1","system_id":"levelo_inurba_marseille","lat":43.30276,"lon":5.37696,"is_reserved":false,"is_disabled":false,"rental_uris":{"android":"levelo://app?vid=b43a37ee-db0c-4e2e-bf8d-f18619c472c1","ios":"levelo://app?vid=b43a37ee-db0c-4e2e-bf8d-f18619c472c1"},"vehicle_type_id":"4","last_reported":1728727685,"current_range_meters":24400,"station_id":"ce4bguh2rcd13ifvqcj0","pricing_plan_id":"cebpf4jnsgd1na2vs0mg"},{"bike_id":"ac5e5047-942d-45d6-9563-602189972eae","system_id":"levelo_inurba_marseille","lat":43.28354,"lon":5.38102,"is_reserved":false,"is_disabled":false,"rental_uris":{"android":"levelo://app?vid=ac5e5047-942d-45d6-9563-602189972eae","ios":"levelo://app?vid=ac5e5047-942d-45d6-9563-602189972eae"},"vehicle_type_id":"4","last_reported":1728727685,"current_range_meters":2000,"station_id":"ce4bh412rcd13ifvqdr0","pricing_plan_id":"cebpf4jnsgd1na2vs0mg"},{"bike_id":"e6336660-e5d0-4336-aab6-9e2081b4b551","system_id":"levelo_inurba_marseille","lat":43.33724,"lon":5.39198,"is_reserved":false,"is_disabled":false,"rental_uris":{"android":"levelo://app?vid=e6336660-e5d0-4336-aab6-9e2081b4b551","ios":"levelo://app?vid=e6336660-e5d0-4336-aab6-9e2081b4b551"},"vehicle_type_id":"4","last_reported":1728727685,"current_range_meters":24800,"station_id":"ce4bhr92rcd13ifvqhsg","pricing_plan_id":"cebpf4jnsgd1na2vs0mg"},{"bike_id":"ab47664c-0450-4138-b005-9b8e1b8810bd","system_id":"levelo_inurba_marseille","lat":43.29578,"lon":5.36739,"is_reserved":false,"is_disabled":false,"rental_uris":{"android":"levelo://app?vid=ab47664c-0450-4138-b005-9b8e1b8810bd","ios":"levelo://app?vid=ab47664c-0450-4138-b005-9b8e1b8810bd"},"vehicle_type_id":"4","last_reported":1728727685,"current_range_meters":37600,"station_id":"ce4bgph2rcd13ifvqc2g","pricing_plan_id":"cebpf4jnsgd1na2vs0mg"},{"bike_id":"efe82192-bd85-47ef-8a17-25dad9ec5e82","system_id":"levelo_inurba_marseille","lat":43.26199,"lon":5.37928,"is_reserved":false,"is_disabled":false,"rental_uris":{"android":"levelo://app?vid=efe82192-bd85-47ef-8a17-25dad9ec5e82","ios":"levelo://app?vid=efe82192-bd85-47ef-8a17-25dad9ec5e82"},"vehicle_type_id":"4","last_reported":1728727685,"current_range_meters":38800,"station_id":"ce4bhjp2rcd13ifvqg90","pricing_plan_id":"cebpf4jnsgd1na2vs0mg"},{"bike_id":"90581f8d-e9a9-4f46-983f-7def763d1860","system_id":"levelo_inurba_marseille","lat":43.24996,"lon":5.38936,"is_reserved":false,"is_disabled":false,"rental_uris":{"android":"levelo://app?vid=90581f8d-e9a9-4f46-983f-7def763d1860","ios":"levelo://app?vid=90581f8d-e9a9-4f46-983f-7def763d1860"},"vehicle_type_id":"4","last_reported":1728727685,"current_range_meters":11200,"station_id":"ce4bhgp2rcd13ifvqfd0","pricing_plan_id":"cebpf4jnsgd1na2vs0mg"},{"bike_id":"c7932ebc-40c2-41af-92e1-9d5f28b5738a","system_id":"levelo_inurba_marseille","lat":43.23187,"lon":5.39985,"is_reserved":false,"is_disabled":false,"rental_uris":{"android":"levelo://app?vid=c7932ebc-40c2-41af-92e1-9d5f28b5738a","ios":"levelo://app?vid=c7932ebc-40c2-41af-92e1-9d5f28b5738a"},"vehicle_type_id":"4","last_reported":1728727685,"current_range_meters":6800,"station_id":"ce4bhn12rcd13ifvqgqg","pricing_plan_id":"cebpf4jnsgd1na2vs0mg"},{"bike_id":"35a874a2-9bc8-4bcd-86a1-73739723bc9a","system_id":"levelo_inurba_marseille","lat":43.29528,"lon":5.37507,"is_reserved":false,"is_disabled":false,"rental_uris":{"android":"levelo://app?vid=35a874a2-9bc8-4bcd-86a1-73739723bc9a","ios":"levelo://app?vid=35a874a2-9bc8-4bcd-86a1-73739723bc9a"},"vehicle_type_id":"4","last_reported":1728727685,"current_range_meters":19600,"station_id":"ce4bgkp2rcd13ifvqbmg","pricing_plan_id":"cebpf4jnsgd1na2vs0mg"},{"bike_id":"55582e1e-1cd8-4e96-933c-025471d1c473","system_id":"levelo_inurba_marseille","lat":43.269413,"lon":5.38921,"is_reserved":false,"is_disabled":false,"rental_uris":{"android":"levelo://app?vid=55582e1e-1cd8-4e96-933c-025471d1c473","ios":"levelo://app?vid=55582e1e-1cd8-4e96-933c-025471d1c473"},"vehicle_type_id":"4","last_reported":1728727685,"current_range_meters":11600,"station_id":"ce4bhhh2rcd13ifvqfl0","pricing_plan_id":"cebpf4jnsgd1na2vs0mg"},{"bike_id":"de886c87-3b40-4f52-9196-8c341bcc8520","system_id":"levelo_inurba_marseille","lat":43.26491,"lon":5.39544,"is_reserved":false,"is_disabled":false,"rental_uris":{"android":"levelo://app?vid=de886c87-3b40-4f52-9196-8c341bcc8520","ios":"levelo://app?vid=de886c87-3b40-4f52-9196-8c341bcc8520"},"vehicle_type_id":"4","last_reported":1728727685,"current_range_meters":19600,"station_id":"ce4bhi12rcd13ifvqfq0","pricing_plan_id":"cebpf4jnsgd1na2vs0mg"},{"bike_id":"5b9f2409-af94-4530-bdcb-ef3b7e257a37","system_id":"levelo_inurba_marseille","lat":43.31992,"lon":5.38144,"is_reserved":false,"is_disabled":false,"rental_uris":{"android":"levelo://app?vid=5b9f2409-af94-4530-bdcb-ef3b7e257a37","ios":"levelo://app?vid=5b9f2409-af94-4530-bdcb-ef3b7e257a37"},"vehicle_type_id":"4","last_reported":1728727685,"current_range_meters":37600,"station_id":"ce4bhr12rcd13ifvqhpg","pricing_plan_id":"cebpf4jnsgd1na2vs0mg"},{"bike_id":"5dfa810e-4d60-4557-ad69-f2aefd8faa56","system_id":"levelo_inurba_marseille","lat":43.29021,"lon":5.38125,"is_reserved":false,"is_disabled":false,"rental_uris":{"android":"levelo://app?vid=5dfa810e-4d60-4557-ad69-f2aefd8faa56","ios":"levelo://app?vid=5dfa810e-4d60-4557-ad69-f2aefd8faa56"},"vehicle_type_id":"4","last_reported":1728727685,"current_range_meters":38000,"station_id":"ce4bh4p2rcd13ifvqe1g","pricing_plan_id":"cebpf4jnsgd1na2vs0mg"},{"bike_id":"ed352192-e2c3-4572-bea7-cfb92c0094a5","system_id":"levelo_inurba_marseille","lat":43.29874,"lon":5.39739,"is_reserved":false,"is_disabled":false,"rental_uris":{"android":"levelo://app?vid=ed352192-e2c3-4572-bea7-cfb92c0094a5","ios":"levelo://app?vid=ed352192-e2c3-4572-bea7-cfb92c0094a5"},"vehicle_type_id":"4","last_reported":1728727685,"current_range_meters":37600,"station_id":"ce4bh0h2rcd13ifvqd50","pricing_plan_id":"cebpf4jnsgd1na2vs0mg"},{"bike_id":"9420c6dc-b19d-4421-8c0c-72e39b809c6b","system_id":"levelo_inurba_marseille","lat":43.22922,"lon":5.35373,"is_reserved":false,"is_disabled":false,"rental_uris":{"android":"levelo://app?vid=9420c6dc-b19d-4421-8c0c-72e39b809c6b","ios":"levelo://app?vid=9420c6dc-b19d-4421-8c0c-72e39b809c6b"},"vehicle_type_id":"4","last_reported":1728727685,"current_range_meters":36800,"station_id":"cpo3532slgdg3j2ikp40","pricing_plan_id":"cebpf4jnsgd1na2vs0mg"},{"bike_id":"5a5649e8-a9bc-4d0f-be41-ed6fc56a9baf","system_id":"levelo_inurba_marseille","lat":43.22928,"lon":5.35374,"is_reserved":false,"is_disabled":false,"rental_uris":{"android":"levelo://app?vid=5a5649e8-a9bc-4d0f-be41-ed6fc56a9baf","ios":"levelo://app?vid=5a5649e8-a9bc-4d0f-be41-ed6fc56a9baf"},"vehicle_type_id":"4","last_reported":1728727685,"current_range_meters":32000,"station_id":"cpo3532slgdg3j2ikp40","pricing_plan_id":"cebpf4jnsgd1na2vs0mg"},{"bike_id":"b4f0e86f-2ef3-4da7-b76f-04024ea93eeb","system_id":"levelo_inurba_marseille","lat":43.30471,"lon":5.37906,"is_reserved":false,"is_disabled":false,"rental_uris":{"android":"levelo://app?vid=b4f0e86f-2ef3-4da7-b76f-04024ea93eeb","ios":"levelo://app?vid=b4f0e86f-2ef3-4da7-b76f-04024ea93eeb"},"vehicle_type_id":"4","last_reported":1728727685,"current_range_meters":35600,"station_id":"ce4bgup2rcd13ifvqcn0","pricing_plan_id":"cebpf4jnsgd1na2vs0mg"},{"bike_id":"58562ea0-3ec0-45aa-8e67-3dde7ebcfffc","system_id":"levelo_inurba_marseille","lat":43.292554,"lon":5.409089,"is_reserved":false,"is_disabled":false,"rental_uris":{"android":"levelo://app?vid=58562ea0-3ec0-45aa-8e67-3dde7ebcfffc","ios":"levelo://app?vid=58562ea0-3ec0-45aa-8e67-3dde7ebcfffc"},"vehicle_type_id":"4","last_reported":1728727685,"current_range_meters":35600,"station_id":"ce4bgpp2rcd13ifvqc3g","pricing_plan_id":"cebpf4jnsgd1na2vs0mg"},{"bike_id":"3e5a3962-c6be-4850-9d7f-9b5a4d5455ec","system_id":"levelo_inurba_marseille","lat":43.31996,"lon":5.38154,"is_reserved":false,"is_disabled":false,"rental_uris":{"android":"levelo://app?vid=3e5a3962-c6be-4850-9d7f-9b5a4d5455ec","ios":"levelo://app?vid=3e5a3962-c6be-4850-9d7f-9b5a4d5455ec"},"vehicle_type_id":"4","last_reported":1728727685,"current_range_meters":30400,"station_id":"ce4bhr12rcd13ifvqhpg","pricing_plan_id":"cebpf4jnsgd1na2vs0mg"},{"bike_id":"4194d76e-8c20-415d-8ddf-fdf8836b5099","system_id":"levelo_inurba_marseille","lat":43.27985,"lon":5.41654,"is_reserved":false,"is_disabled":false,"rental_uris":{"android":"levelo://app?vid=4194d76e-8c20-415d-8ddf-fdf8836b5099","ios":"levelo://app?vid=4194d76e-8c20-415d-8ddf-fdf8836b5099"},"vehicle_type_id":"4","last_reported":1728727685,"current_range_meters":5600,"station_id":"ce4bho12rcd13ifvqh1g","pricing_plan_id":"cebpf4jnsgd1na2vs0mg"},{"bike_id":"aa3118a6-7e57-458c-b1d2-34404e210932","system_id":"levelo_inurba_marseille","lat":43.26029,"lon":5.37543,"is_reserved":false,"is_disabled":false,"rental_uris":{"android":"levelo://app?vid=aa3118a6-7e57-458c-b1d2-34404e210932","ios":"levelo://app?vid=aa3118a6-7e57-458c-b1d2-34404e210932"},"vehicle_type_id":"4","last_reported":1728727685,"current_range_meters":38800,"station_id":"ce4bhgh2rcd13ifvqfa0","pricing_plan_id":"cebpf4jnsgd1na2vs0mg"},{"bike_id":"379d6363-9152-4e84-bd42-6ec02dd02b54","system_id":"levelo_inurba_marseille","lat":43.31992,"lon":5.38146,"is_reserved":false,"is_disabled":false,"rental_uris":{"android":"levelo://app?vid=379d6363-9152-4e84-bd42-6ec02dd02b54","ios":"levelo://app?vid=379d6363-9152-4e84-bd42-6ec02dd02b54"},"vehicle_type_id":"4","last_reported":1728727685,"current_range_meters":37600,"station_id":"ce4bhr12rcd13ifvqhpg","pricing_plan_id":"cebpf4jnsgd1na2vs0mg"},{"bike_id":"8fb2b431-bcb9-46ba-80fb-e26e84592fc5","system_id":"levelo_inurba_marseille","lat":43.23184,"lon":5.35554,"is_reserved":false,"is_disabled":false,"rental_uris":{"android":"levelo://app?vid=8fb2b431-bcb9-46ba-80fb-e26e84592fc5","ios":"levelo://app?vid=8fb2b431-bcb9-46ba-80fb-e26e84592fc5"},"vehicle_type_id":"4","last_reported":1728727685,"current_range_meters":32400,"station_id":"ce4bhu92rcd13ifvqi70","pricing_plan_id":"cebpf4jnsgd1na2vs0mg"},{"bike_id":"acc4ef1b-f809-4dfb-95f4-c0af4ddfe133","system_id":"levelo_inurba_marseille","lat":43.297908,"lon":5.403425,"is_reserved":false,"is_disabled":false,"rental_uris":{"android":"levelo://app?vid=acc4ef1b-f809-4dfb-95f4-c0af4ddfe133","ios":"levelo://app?vid=acc4ef1b-f809-4dfb-95f4-c0af4ddfe133"},"vehicle_type_id":"4","last_reported":1728727685,"current_range_meters":8800,"station_id":"ce4bh112rcd13ifvqd90","pricing_plan_id":"cebpf4jnsgd1na2vs0mg"},{"bike_id":"fa2a3aac-54f6-4821-a272-44d9b44dc0eb","system_id":"levelo_inurba_marseille","lat":43.292436,"lon":5.383322,"is_reserved":false,"is_disabled":false,"rental_uris":{"android":"levelo://app?vid=fa2a3aac-54f6-4821-a272-44d9b44dc0eb","ios":"levelo://app?vid=fa2a3aac-54f6-4821-a272-44d9b44dc0eb"},"vehicle_type_id":"4","last_reported":1728727685,"current_range_meters":25600,"station_id":"ce4bhmp2rcd13ifvqgog","pricing_plan_id":"cebpf4jnsgd1na2vs0mg"},{"bike_id":"90cd9b19-cc51-4d54-9c85-50080f426ed3","system_id":"levelo_inurba_marseille","lat":43.301365,"lon":5.387794,"is_reserved":false,"is_disabled":false,"rental_uris":{"android":"levelo://app?vid=90cd9b19-cc51-4d54-9c85-50080f426ed3","ios":"levelo://app?vid=90cd9b19-cc51-4d54-9c85-50080f426ed3"},"vehicle_type_id":"4","last_reported":1728727685,"current_range_meters":36800,"station_id":"ce4bghh2rcd13ifvqb60","pricing_plan_id":"cebpf4jnsgd1na2vs0mg"},{"bike_id":"e2f25126-29b7-4581-a4fe-9e458716fb1d","system_id":"levelo_inurba_marseille","lat":43.2396,"lon":5.36626,"is_reserved":false,"is_disabled":false,"rental_uris":{"android":"levelo://app?vid=e2f25126-29b7-4581-a4fe-9e458716fb1d","ios":"levelo://app?vid=e2f25126-29b7-4581-a4fe-9e458716fb1d"},"vehicle_type_id":"4","last_reported":1728727685,"current_range_meters":28800,"station_id":"ce4bhi12rcd13ifvqfp0","pricing_plan_id":"cebpf4jnsgd1na2vs0mg"},{"bike_id":"386afdab-5ca5-4bd2-984e-31a0a109f099","system_id":"levelo_inurba_marseille","lat":43.3014,"lon":5.37419,"is_reserved":false,"is_disabled":false,"rental_uris":{"android":"levelo://app?vid=386afdab-5ca5-4bd2-984e-31a0a109f099","ios":"levelo://app?vid=386afdab-5ca5-4bd2-984e-31a0a109f099"},"vehicle_type_id":"4","last_reported":1728727685,"current_range_meters":38800,"station_id":"ce4bgs92rcd13ifvqcc0","pricing_plan_id":"cebpf4jnsgd1na2vs0mg"},{"bike_id":"8dc8b5c8-f938-440d-b2c2-9a921dbd5488","system_id":"levelo_inurba_marseille","lat":43.26933,"lon":5.38923,"is_reserved":false,"is_disabled":false,"rental_uris":{"android":"levelo://app?vid=8dc8b5c8-f938-440d-b2c2-9a921dbd5488","ios":"levelo://app?vid=8dc8b5c8-f938-440d-b2c2-9a921dbd5488"},"vehicle_type_id":"4","last_reported":1728727685,"current_range_meters":16400,"station_id":"ce4bhhh2rcd13ifvqfl0","pricing_plan_id":"cebpf4jnsgd1na2vs0mg"},{"bike_id":"8233b71b-891a-4e52-ba59-3fa8be51a63e","system_id":"levelo_inurba_marseille","lat":43.26806,"lon":5.39405,"is_reserved":false,"is_disabled":false,"rental_uris":{"android":"levelo://app?vid=8233b71b-891a-4e52-ba59-3fa8be51a63e","ios":"levelo://app?vid=8233b71b-891a-4e52-ba59-3fa8be51a63e"},"vehicle_type_id":"4","last_reported":1728727685,"current_range_meters":36400,"station_id":"ce4bhh12rcd13ifvqfg0","pricing_plan_id":"cebpf4jnsgd1na2vs0mg"},{"bike_id":"5557475d-2522-4324-9278-8680c1c6334a","system_id":"levelo_inurba_marseille","lat":43.22927,"lon":5.35371,"is_reserved":false,"is_disabled":false,"rental_uris":{"android":"levelo://app?vid=5557475d-2522-4324-9278-8680c1c6334a","ios":"levelo://app?vid=5557475d-2522-4324-9278-8680c1c6334a"},"vehicle_type_id":"4","last_reported":1728727685,"current_range_meters":11200,"station_id":"cpo3532slgdg3j2ikp40","pricing_plan_id":"cebpf4jnsgd1na2vs0mg"},{"bike_id":"ada7472e-6027-403a-a239-d414f24cd2e0","system_id":"levelo_inurba_marseille","lat":43.32331,"lon":5.40616,"is_reserved":false,"is_disabled":false,"rental_uris":{"android":"levelo://app?vid=ada7472e-6027-403a-a239-d414f24cd2e0","ios":"levelo://app?vid=ada7472e-6027-403a-a239-d414f24cd2e0"},"vehicle_type_id":"4","last_reported":1728727685,"current_range_meters":35200,"station_id":"ce4bhq92rcd13ifvqhjg","pricing_plan_id":"cebpf4jnsgd1na2vs0mg"},{"bike_id":"dc9f9cea-ad2f-4298-9e59-4f4eac07ed0d","system_id":"levelo_inurba_marseille","lat":43.28696,"lon":5.37391,"is_reserved":false,"is_disabled":false,"rental_uris":{"android":"levelo://app?vid=dc9f9cea-ad2f-4298-9e59-4f4eac07ed0d","ios":"levelo://app?vid=dc9f9cea-ad2f-4298-9e59-4f4eac07ed0d"},"vehicle_type_id":"4","last_reported":1728727685,"current_range_meters":38800,"station_id":"ce4bh3p2rcd13ifvqdq0","pricing_plan_id":"cebpf4jnsgd1na2vs0mg"},{"bike_id":"dabe994e-2190-4a76-9e0f-9d1adb74eef2","system_id":"levelo_inurba_marseille","lat":43.321062,"lon":5.407972,"is_reserved":false,"is_disabled":false,"rental_uris":{"android":"levelo://app?vid=dabe994e-2190-4a76-9e0f-9d1adb74eef2","ios":"levelo://app?vid=dabe994e-2190-4a76-9e0f-9d1adb74eef2"},"vehicle_type_id":"4","last_reported":1728727685,"current_range_meters":38400,"station_id":"ce4bhq12rcd13ifvqhig","pricing_plan_id":"cebpf4jnsgd1na2vs0mg"},{"bike_id":"b3b2de45-6e13-4551-8667-b0149c47447a","system_id":"levelo_inurba_marseille","lat":43.23147,"lon":5.43696,"is_reserved":false,"is_disabled":false,"rental_uris":{"android":"levelo://app?vid=b3b2de45-6e13-4551-8667-b0149c47447a","ios":"levelo://app?vid=b3b2de45-6e13-4551-8667-b0149c47447a"},"vehicle_type_id":"4","last_reported":1728727685,"current_range_meters":22000,"station_id":"ce4bhmp2rcd13ifvqgog","pricing_plan_id":"cebpf4jnsgd1na2vs0mg"},{"bike_id":"3c62e9a9-7fa5-4a28-b5b3-9cf56a0ccbc0","system_id":"levelo_inurba_marseille","lat":43.28583,"lon":5.39872,"is_reserved":false,"is_disabled":false,"rental_uris":{"android":"levelo://app?vid=3c62e9a9-7fa5-4a28-b5b3-9cf56a0ccbc0","ios":"levelo://app?vid=3c62e9a9-7fa5-4a28-b5b3-9cf56a0ccbc0"},"vehicle_type_id":"4","last_reported":1728727685,"current_range_meters":28800,"station_id":"ce4bho92rcd13ifvqh4g","pricing_plan_id":"cebpf4jnsgd1na2vs0mg"},{"bike_id":"a27554a6-a50a-485f-8f1f-4487a4aa2e01","system_id":"levelo_inurba_marseille","lat":43.30687,"lon":5.38073,"is_reserved":false,"is_disabled":false,"rental_uris":{"android":"levelo://app?vid=a27554a6-a50a-485f-8f1f-4487a4aa2e01","ios":"levelo://app?vid=a27554a6-a50a-485f-8f1f-4487a4aa2e01"},"vehicle_type_id":"4","last_reported":1728727685,"current_range_meters":38800,"station_id":"","pricing_plan_id":"cebpf4jnsgd1na2vs0mg"},{"bike_id":"644fc0fa-8af8-45a1-8485-f3c7a8315404","system_id":"levelo_inurba_marseille","lat":43.29912,"lon":5.38146,"is_reserved":false,"is_disabled":false,"rental_uris":{"android":"levelo://app?vid=644fc0fa-8af8-45a1-8485-f3c7a8315404","ios":"levelo://app?vid=644fc0fa-8af8-45a1-8485-f3c7a8315404"},"vehicle_type_id":"4","last_reported":1728727685,"current_range_meters":28000,"station_id":"ce4bgj12rcd13ifvqbc0","pricing_plan_id":"cebpf4jnsgd1na2vs0mg"},{"bike_id":"a4569b01-c24f-4cd3-b8fd-8bfd66cee430","system_id":"levelo_inurba_marseille","lat":43.26961,"lon":5.38623,"is_reserved":false,"is_disabled":false,"rental_uris":{"android":"levelo://app?vid=a4569b01-c24f-4cd3-b8fd-8bfd66cee430","ios":"levelo://app?vid=a4569b01-c24f-4cd3-b8fd-8bfd66cee430"},"vehicle_type_id":"4","last_reported":1728727685,"current_range_meters":36800,"station_id":"ce4bhh92rcd13ifvqfh0","pricing_plan_id":"cebpf4jnsgd1na2vs0mg"},{"bike_id":"19e0e40e-63be-4804-b3b8-2787230e9bca","system_id":"levelo_inurba_marseille","lat":43.29617,"lon":5.37171,"is_reserved":false,"is_disabled":false,"rental_uris":{"android":"levelo://app?vid=19e0e40e-63be-4804-b3b8-2787230e9bca","ios":"levelo://app?vid=19e0e40e-63be-4804-b3b8-2787230e9bca"},"vehicle_type_id":"4","last_reported":1728727685,"current_range_meters":28400,"station_id":"ce4bgnh2rcd13ifvqc0g","pricing_plan_id":"cebpf4jnsgd1na2vs0mg"},{"bike_id":"a3b990e1-d55b-440c-9480-31946d2d9e8e","system_id":"levelo_inurba_marseille","lat":43.29789,"lon":5.37103,"is_reserved":false,"is_disabled":false,"rental_uris":{"android":"levelo://app?vid=a3b990e1-d55b-440c-9480-31946d2d9e8e","ios":"levelo://app?vid=a3b990e1-d55b-440c-9480-31946d2d9e8e"},"vehicle_type_id":"4","last_reported":1728727685,"current_range_meters":31200,"station_id":"ce4bgop2rcd13ifvqc1g","pricing_plan_id":"cebpf4jnsgd1na2vs0mg"},{"bike_id":"00afd36e-c6cb-459c-b71f-3d3069c5192b","system_id":"levelo_inurba_marseille","lat":43.29574,"lon":5.37502,"is_reserved":false,"is_disabled":false,"rental_uris":{"android":"levelo://app?vid=00afd36e-c6cb-459c-b71f-3d3069c5192b","ios":"levelo://app?vid=00afd36e-c6cb-459c-b71f-3d3069c5192b"},"vehicle_type_id":"4","last_reported":1728727685,"current_range_meters":38800,"station_id":"ce4bgh92rcd13ifvqb50","pricing_plan_id":"cebpf4jnsgd1na2vs0mg"},{"bike_id":"4115ca62-4a0e-4a5e-aaea-7dc4b84765a5","system_id":"levelo_inurba_marseille","lat":43.32291,"lon":5.3828,"is_reserved":false,"is_disabled":false,"rental_uris":{"android":"levelo://app?vid=4115ca62-4a0e-4a5e-aaea-7dc4b84765a5","ios":"levelo://app?vid=4115ca62-4a0e-4a5e-aaea-7dc4b84765a5"},"vehicle_type_id":"4","last_reported":1728727685,"current_range_meters":39200,"station_id":"ce4bhr12rcd13ifvqhqg","pricing_plan_id":"cebpf4jnsgd1na2vs0mg"},{"bike_id":"2d62089a-df90-4b4e-93eb-d117387ccf20","system_id":"levelo_inurba_marseille","lat":43.2319,"lon":5.39995,"is_reserved":false,"is_disabled":false,"rental_uris":{"android":"levelo://app?vid=2d62089a-df90-4b4e-93eb-d117387ccf20","ios":"levelo://app?vid=2d62089a-df90-4b4e-93eb-d117387ccf20"},"vehicle_type_id":"4","last_reported":1728727685,"current_range_meters":19200,"station_id":"ce4bhn12rcd13ifvqgqg","pricing_plan_id":"cebpf4jnsgd1na2vs0mg"},{"bike_id":"8d4fa04b-4062-460e-b516-8963625f5487","system_id":"levelo_inurba_marseille","lat":43.31077,"lon":5.42428,"is_reserved":false,"is_disabled":false,"rental_uris":{"android":"levelo://app?vid=8d4fa04b-4062-460e-b516-8963625f5487","ios":"levelo://app?vid=8d4fa04b-4062-460e-b516-8963625f5487"},"vehicle_type_id":"4","last_reported":1728727685,"current_range_meters":38800,"station_id":"ce4bhp92rcd13ifvqhag","pricing_plan_id":"cebpf4jnsgd1na2vs0mg"},{"bike_id":"71a59c21-a265-4f65-a81d-74a082fbf0a5","system_id":"levelo_inurba_marseille","lat":43.33739,"lon":5.37454,"is_reserved":false,"is_disabled":false,"rental_uris":{"android":"levelo://app?vid=71a59c21-a265-4f65-a81d-74a082fbf0a5","ios":"levelo://app?vid=71a59c21-a265-4f65-a81d-74a082fbf0a5"},"vehicle_type_id":"4","last_reported":1728727685,"current_range_meters":27600,"station_id":"","pricing_plan_id":"cebpf4jnsgd1na2vs0mg"},{"bike_id":"e9362830-58f4-4c17-bdec-31c5113c15b8","system_id":"levelo_inurba_marseille","lat":43.25578,"lon":5.38229,"is_reserved":false,"is_disabled":false,"rental_uris":{"android":"levelo://app?vid=e9362830-58f4-4c17-bdec-31c5113c15b8","ios":"levelo://app?vid=e9362830-58f4-4c17-bdec-31c5113c15b8"},"vehicle_type_id":"4","last_reported":1728727685,"current_range_meters":29600,"station_id":"ce4bhih2rcd13ifvqfs0","pricing_plan_id":"cebpf4jnsgd1na2vs0mg"},{"bike_id":"6bbc398b-b545-4492-b6e4-d179d67e1805","system_id":"levelo_inurba_marseille","lat":43.25726,"lon":5.41102,"is_reserved":false,"is_disabled":false,"rental_uris":{"android":"levelo://app?vid=6bbc398b-b545-4492-b6e4-d179d67e1805","ios":"levelo://app?vid=6bbc398b-b545-4492-b6e4-d179d67e1805"},"vehicle_type_id":"4","last_reported":1728727685,"current_range_meters":8400,"station_id":"ce4bhkp2rcd13ifvqgd0","pricing_plan_id":"cebpf4jnsgd1na2vs0mg"},{"bike_id":"de368da8-cc67-41de-bf98-14855e4e33c8","system_id":"levelo_inurba_marseille","lat":43.25486,"lon":5.37651,"is_reserved":false,"is_disabled":false,"rental_uris":{"android":"levelo://app?vid=de368da8-cc67-41de-bf98-14855e4e33c8","ios":"levelo://app?vid=de368da8-cc67-41de-bf98-14855e4e33c8"},"vehicle_type_id":"4","last_reported":1728727685,"current_range_meters":26800,"station_id":"ce4bhh12rcd13ifvqff0","pricing_plan_id":"cebpf4jnsgd1na2vs0mg"},{"bike_id":"c5161752-a4e2-454f-8fb8-26d44c035df3","system_id":"levelo_inurba_marseille","lat":43.26192,"lon":5.37938,"is_reserved":false,"is_disabled":false,"rental_uris":{"android":"levelo://app?vid=c5161752-a4e2-454f-8fb8-26d44c035df3","ios":"levelo://app?vid=c5161752-a4e2-454f-8fb8-26d44c035df3"},"vehicle_type_id":"4","last_reported":1728727685,"current_range_meters":28800,"station_id":"ce4bhjp2rcd13ifvqg90","pricing_plan_id":"cebpf4jnsgd1na2vs0mg"},{"bike_id":"3ba629fb-3c1a-4767-903b-5f33669a18fd","system_id":"levelo_inurba_marseille","lat":43.285744,"lon":5.371927,"is_reserved":false,"is_disabled":false,"rental_uris":{"android":"levelo://app?vid=3ba629fb-3c1a-4767-903b-5f33669a18fd","ios":"levelo://app?vid=3ba629fb-3c1a-4767-903b-5f33669a18fd"},"vehicle_type_id":"4","last_reported":1728727685,"current_range_meters":27600,"station_id":"","pricing_plan_id":"cebpf4jnsgd1na2vs0mg"},{"bike_id":"0e67e4fa-cd38-4c62-9d15-819e25dc6078","system_id":"levelo_inurba_marseille","lat":43.29031,"lon":5.37564,"is_reserved":false,"is_disabled":false,"rental_uris":{"android":"levelo://app?vid=0e67e4fa-cd38-4c62-9d15-819e25dc6078","ios":"levelo://app?vid=0e67e4fa-cd38-4c62-9d15-819e25dc6078"},"vehicle_type_id":"4","last_reported":1728727685,"current_range_meters":39200,"station_id":"ce4bh692rcd13ifvqe90","pricing_plan_id":"cebpf4jnsgd1na2vs0mg"},{"bike_id":"092b0836-7fc6-4398-a8ce-013142346652","system_id":"levelo_inurba_marseille","lat":43.29549,"lon":5.42283,"is_reserved":false,"is_disabled":false,"rental_uris":{"android":"levelo://app?vid=092b0836-7fc6-4398-a8ce-013142346652","ios":"levelo://app?vid=092b0836-7fc6-4398-a8ce-013142346652"},"vehicle_type_id":"4","last_reported":1728727685,"current_range_meters":17600,"station_id":"ce4bhph2rcd13ifvqhdg","pricing_plan_id":"cebpf4jnsgd1na2vs0mg"},{"bike_id":"bb8afb7b-2fb2-4f59-80e1-dd72ab288b00","system_id":"levelo_inurba_marseille","lat":43.30319,"lon":5.40447,"is_reserved":false,"is_disabled":false,"rental_uris":{"android":"levelo://app?vid=bb8afb7b-2fb2-4f59-80e1-dd72ab288b00","ios":"levelo://app?vid=bb8afb7b-2fb2-4f59-80e1-dd72ab288b00"},"vehicle_type_id":"4","last_reported":1728727685,"current_range_meters":33200,"station_id":"ce4bh012rcd13ifvqd10","pricing_plan_id":"cebpf4jnsgd1na2vs0mg"},{"bike_id":"df5fdba9-521a-4fd3-8e79-b0ea11c297f6","system_id":"levelo_inurba_marseille","lat":43.25716,"lon":5.41111,"is_reserved":false,"is_disabled":false,"rental_uris":{"android":"levelo://app?vid=df5fdba9-521a-4fd3-8e79-b0ea11c297f6","ios":"levelo://app?vid=df5fdba9-521a-4fd3-8e79-b0ea11c297f6"},"vehicle_type_id":"4","last_reported":1728727685,"current_range_meters":24400,"station_id":"ce4bhkp2rcd13ifvqgd0","pricing_plan_id":"cebpf4jnsgd1na2vs0mg"},{"bike_id":"8f5ac828-8925-4526-9cfa-f8205da27bb2","system_id":"levelo_inurba_marseille","lat":43.23197,"lon":5.35544,"is_reserved":false,"is_disabled":false,"rental_uris":{"android":"levelo://app?vid=8f5ac828-8925-4526-9cfa-f8205da27bb2","ios":"levelo://app?vid=8f5ac828-8925-4526-9cfa-f8205da27bb2"},"vehicle_type_id":"4","last_reported":1728727685,"current_range_meters":33600,"station_id":"ce4bhu92rcd13ifvqi70","pricing_plan_id":"cebpf4jnsgd1na2vs0mg"},{"bike_id":"9e75956e-b41c-4a75-9464-5e1cf49fcaab","system_id":"levelo_inurba_marseille","lat":43.32071,"lon":5.41553,"is_reserved":false,"is_disabled":false,"rental_uris":{"android":"levelo://app?vid=9e75956e-b41c-4a75-9464-5e1cf49fcaab","ios":"levelo://app?vid=9e75956e-b41c-4a75-9464-5e1cf49fcaab"},"vehicle_type_id":"4","last_reported":1728727685,"current_range_meters":17600,"station_id":"ce4bhq92rcd13ifvqhkg","pricing_plan_id":"cebpf4jnsgd1na2vs0mg"},{"bike_id":"c9ac7238-0b2c-40e0-a106-260f91f01c7e","system_id":"levelo_inurba_marseille","lat":43.30271,"lon":5.37717,"is_reserved":false,"is_disabled":false,"rental_uris":{"android":"levelo://app?vid=c9ac7238-0b2c-40e0-a106-260f91f01c7e","ios":"levelo://app?vid=c9ac7238-0b2c-40e0-a106-260f91f01c7e"},"vehicle_type_id":"4","last_reported":1728727685,"current_range_meters":10800,"station_id":"ce4bguh2rcd13ifvqcj0","pricing_plan_id":"cebpf4jnsgd1na2vs0mg"},{"bike_id":"ee83ab85-770e-4f6b-96e6-9bf35d9dac4a","system_id":"levelo_inurba_marseille","lat":43.30152,"lon":5.38074,"is_reserved":false,"is_disabled":false,"rental_uris":{"android":"levelo://app?vid=ee83ab85-770e-4f6b-96e6-9bf35d9dac4a","ios":"levelo://app?vid=ee83ab85-770e-4f6b-96e6-9bf35d9dac4a"},"vehicle_type_id":"4","last_reported":1728727685,"current_range_meters":31200,"station_id":"ce4bgjp2rcd13ifvqbh0","pricing_plan_id":"cebpf4jnsgd1na2vs0mg"},{"bike_id":"ba683a66-bc5f-42b6-85bb-0f00dad8b260","system_id":"levelo_inurba_marseille","lat":43.26931,"lon":5.38926,"is_reserved":false,"is_disabled":false,"rental_uris":{"android":"levelo://app?vid=ba683a66-bc5f-42b6-85bb-0f00dad8b260","ios":"levelo://app?vid=ba683a66-bc5f-42b6-85bb-0f00dad8b260"},"vehicle_type_id":"4","last_reported":1728727685,"current_range_meters":34000,"station_id":"ce4bhhh2rcd13ifvqfl0","pricing_plan_id":"cebpf4jnsgd1na2vs0mg"},{"bike_id":"247429e2-e54a-4e87-97f9-657267224371","system_id":"levelo_inurba_marseille","lat":43.25506,"lon":5.37651,"is_reserved":false,"is_disabled":false,"rental_uris":{"android":"levelo://app?vid=247429e2-e54a-4e87-97f9-657267224371","ios":"levelo://app?vid=247429e2-e54a-4e87-97f9-657267224371"},"vehicle_type_id":"4","last_reported":1728727685,"current_range_meters":36800,"station_id":"ce4bhh12rcd13ifvqff0","pricing_plan_id":"cebpf4jnsgd1na2vs0mg"},{"bike_id":"5aa308dc-64e8-4103-a6f8-775a1f8bdf35","system_id":"levelo_inurba_marseille","lat":43.27375,"lon":5.36269,"is_reserved":false,"is_disabled":false,"rental_uris":{"android":"levelo://app?vid=5aa308dc-64e8-4103-a6f8-775a1f8bdf35","ios":"levelo://app?vid=5aa308dc-64e8-4103-a6f8-775a1f8bdf35"},"vehicle_type_id":"4","last_reported":1728727685,"current_range_meters":7200,"station_id":"ce4bhbh2rcd13ifvqeo0","pricing_plan_id":"cebpf4jnsgd1na2vs0mg"},{"bike_id":"50cf11bc-848d-4d48-89a8-2dc9517e9ae0","system_id":"levelo_inurba_marseille","lat":43.28457,"lon":5.35897,"is_reserved":false,"is_disabled":false,"rental_uris":{"android":"levelo://app?vid=50cf11bc-848d-4d48-89a8-2dc9517e9ae0","ios":"levelo://app?vid=50cf11bc-848d-4d48-89a8-2dc9517e9ae0"},"vehicle_type_id":"4","last_reported":1728727685,"current_range_meters":38400,"station_id":"ce4bhah2rcd13ifvqei0","pricing_plan_id":"cebpf4jnsgd1na2vs0mg"},{"bike_id":"aad69708-28ac-43e6-945e-619f5a7c6bfd","system_id":"levelo_inurba_marseille","lat":43.33726,"lon":5.37468,"is_reserved":false,"is_disabled":false,"rental_uris":{"android":"levelo://app?vid=aad69708-28ac-43e6-945e-619f5a7c6bfd","ios":"levelo://app?vid=aad69708-28ac-43e6-945e-619f5a7c6bfd"},"vehicle_type_id":"4","last_reported":1728727685,"current_range_meters":38400,"station_id":"","pricing_plan_id":"cebpf4jnsgd1na2vs0mg"},{"bike_id":"d4f539db-1df0-4f5f-82a3-d33190300ccc","system_id":"levelo_inurba_marseille","lat":43.231485,"lon":5.437247,"is_reserved":false,"is_disabled":false,"rental_uris":{"android":"levelo://app?vid=d4f539db-1df0-4f5f-82a3-d33190300ccc","ios":"levelo://app?vid=d4f539db-1df0-4f5f-82a3-d33190300ccc"},"vehicle_type_id":"4","last_reported":1728727685,"current_range_meters":8400,"station_id":"ce4bh3h2rcd13ifvqdn0","pricing_plan_id":"cebpf4jnsgd1na2vs0mg"},{"bike_id":"23897996-dc3b-4737-8d98-9d5504092151","system_id":"levelo_inurba_marseille","lat":43.297943,"lon":5.362996,"is_reserved":false,"is_disabled":false,"rental_uris":{"android":"levelo://app?vid=23897996-dc3b-4737-8d98-9d5504092151","ios":"levelo://app?vid=23897996-dc3b-4737-8d98-9d5504092151"},"vehicle_type_id":"4","last_reported":1728727685,"current_range_meters":3200,"station_id":"ce4bgpp2rcd13ifvqc3g","pricing_plan_id":"cebpf4jnsgd1na2vs0mg"},{"bike_id":"fa788d65-ef44-407c-8d29-e3cbbca2e385","system_id":"levelo_inurba_marseille","lat":43.342352,"lon":5.400938,"is_reserved":false,"is_disabled":false,"rental_uris":{"android":"levelo://app?vid=fa788d65-ef44-407c-8d29-e3cbbca2e385","ios":"levelo://app?vid=fa788d65-ef44-407c-8d29-e3cbbca2e385"},"vehicle_type_id":"4","last_reported":1728727685,"current_range_meters":4000,"station_id":"","pricing_plan_id":"cebpf4jnsgd1na2vs0mg"},{"bike_id":"8509fa5d-c6d9-4cb2-b4b1-4f2065b2666e","system_id":"levelo_inurba_marseille","lat":43.2834,"lon":5.41051,"is_reserved":false,"is_disabled":false,"rental_uris":{"android":"levelo://app?vid=8509fa5d-c6d9-4cb2-b4b1-4f2065b2666e","ios":"levelo://app?vid=8509fa5d-c6d9-4cb2-b4b1-4f2065b2666e"},"vehicle_type_id":"4","last_reported":1728727685,"current_range_meters":4400,"station_id":"","pricing_plan_id":"cebpf4jnsgd1na2vs0mg"},{"bike_id":"4ba05619-2ef9-4adc-8d73-ca540f4fdaf6","system_id":"levelo_inurba_marseille","lat":43.26212,"lon":5.37439,"is_reserved":false,"is_disabled":false,"rental_uris":{"android":"levelo://app?vid=4ba05619-2ef9-4adc-8d73-ca540f4fdaf6","ios":"levelo://app?vid=4ba05619-2ef9-4adc-8d73-ca540f4fdaf6"},"vehicle_type_id":"4","last_reported":1728727685,"current_range_meters":28400,"station_id":"ce4bhgp2rcd13ifvqfc0","pricing_plan_id":"cebpf4jnsgd1na2vs0mg"},{"bike_id":"edcb3afd-ea78-4c59-a2fc-d5109b053ed5","system_id":"levelo_inurba_marseille","lat":43.2827,"lon":5.35062,"is_reserved":false,"is_disabled":false,"rental_uris":{"android":"levelo://app?vid=edcb3afd-ea78-4c59-a2fc-d5109b053ed5","ios":"levelo://app?vid=edcb3afd-ea78-4c59-a2fc-d5109b053ed5"},"vehicle_type_id":"4","last_reported":1728727685,"current_range_meters":24800,"station_id":"ce4bhbp2rcd13ifvqerg","pricing_plan_id":"cebpf4jnsgd1na2vs0mg"},{"bike_id":"f1ef16b9-1298-4e91-87af-920eca4c608f","system_id":"levelo_inurba_marseille","lat":43.28487,"lon":5.38594,"is_reserved":false,"is_disabled":false,"rental_uris":{"android":"levelo://app?vid=f1ef16b9-1298-4e91-87af-920eca4c608f","ios":"levelo://app?vid=f1ef16b9-1298-4e91-87af-920eca4c608f"},"vehicle_type_id":"4","last_reported":1728727685,"current_range_meters":25600,"station_id":"ce4bh8p2rcd13ifvqeb0","pricing_plan_id":"cebpf4jnsgd1na2vs0mg"},{"bike_id":"087f0942-c4f9-4849-84d2-f966e863446b","system_id":"levelo_inurba_marseille","lat":43.26802,"lon":5.40265,"is_reserved":false,"is_disabled":false,"rental_uris":{"android":"levelo://app?vid=087f0942-c4f9-4849-84d2-f966e863446b","ios":"levelo://app?vid=087f0942-c4f9-4849-84d2-f966e863446b"},"vehicle_type_id":"4","last_reported":1728727685,"current_range_meters":38800,"station_id":"ce501612rcd8frsf0b60","pricing_plan_id":"cebpf4jnsgd1na2vs0mg"},{"bike_id":"27311a75-ebb6-43d6-9fb5-f3ba72a10e0e","system_id":"levelo_inurba_marseille","lat":43.29893,"lon":5.43675,"is_reserved":false,"is_disabled":false,"rental_uris":{"android":"levelo://app?vid=27311a75-ebb6-43d6-9fb5-f3ba72a10e0e","ios":"levelo://app?vid=27311a75-ebb6-43d6-9fb5-f3ba72a10e0e"},"vehicle_type_id":"4","last_reported":1728727685,"current_range_meters":24000,"station_id":"ce4bhpp2rcd13ifvqhfg","pricing_plan_id":"cebpf4jnsgd1na2vs0mg"},{"bike_id":"75371e0c-a9ac-4e8b-b885-7c68b520d0f2","system_id":"levelo_inurba_marseille","lat":43.292755,"lon":5.368373,"is_reserved":false,"is_disabled":false,"rental_uris":{"android":"levelo://app?vid=75371e0c-a9ac-4e8b-b885-7c68b520d0f2","ios":"levelo://app?vid=75371e0c-a9ac-4e8b-b885-7c68b520d0f2"},"vehicle_type_id":"4","last_reported":1728727685,"current_range_meters":22400,"station_id":"ce4bhbp2rcd13ifvqesg","pricing_plan_id":"cebpf4jnsgd1na2vs0mg"},{"bike_id":"d55e0411-48d1-48d6-93eb-8ea1e87a965b","system_id":"levelo_inurba_marseille","lat":43.29535,"lon":5.37511,"is_reserved":false,"is_disabled":false,"rental_uris":{"android":"levelo://app?vid=d55e0411-48d1-48d6-93eb-8ea1e87a965b","ios":"levelo://app?vid=d55e0411-48d1-48d6-93eb-8ea1e87a965b"},"vehicle_type_id":"4","last_reported":1728727685,"current_range_meters":16800,"station_id":"ce4bgkp2rcd13ifvqbmg","pricing_plan_id":"cebpf4jnsgd1na2vs0mg"},{"bike_id":"ab83bd1f-4cc4-460f-865a-4bafc48999b0","system_id":"levelo_inurba_marseille","lat":43.29551,"lon":5.42289,"is_reserved":false,"is_disabled":false,"rental_uris":{"android":"levelo://app?vid=ab83bd1f-4cc4-460f-865a-4bafc48999b0","ios":"levelo://app?vid=ab83bd1f-4cc4-460f-865a-4bafc48999b0"},"vehicle_type_id":"4","last_reported":1728727685,"current_range_meters":38400,"station_id":"ce4bhph2rcd13ifvqhdg","pricing_plan_id":"cebpf4jnsgd1na2vs0mg"},{"bike_id":"d7e5ea11-d467-4788-8c0a-2e41d5e9fa99","system_id":"levelo_inurba_marseille","lat":43.26488,"lon":5.39547,"is_reserved":false,"is_disabled":false,"rental_uris":{"android":"levelo://app?vid=d7e5ea11-d467-4788-8c0a-2e41d5e9fa99","ios":"levelo://app?vid=d7e5ea11-d467-4788-8c0a-2e41d5e9fa99"},"vehicle_type_id":"4","last_reported":1728727685,"current_range_meters":25600,"station_id":"ce4bhi12rcd13ifvqfq0","pricing_plan_id":"cebpf4jnsgd1na2vs0mg"},{"bike_id":"7706a2ed-6fe5-42b4-ac61-64836e2a2251","system_id":"levelo_inurba_marseille","lat":43.24644,"lon":5.38893,"is_reserved":false,"is_disabled":false,"rental_uris":{"android":"levelo://app?vid=7706a2ed-6fe5-42b4-ac61-64836e2a2251","ios":"levelo://app?vid=7706a2ed-6fe5-42b4-ac61-64836e2a2251"},"vehicle_type_id":"4","last_reported":1728727685,"current_range_meters":24400,"station_id":"ce4bhg12rcd13ifvqf60","pricing_plan_id":"cebpf4jnsgd1na2vs0mg"},{"bike_id":"3a532c3c-497b-451b-96d5-67aa1f998fa1","system_id":"levelo_inurba_marseille","lat":43.30463,"lon":5.37896,"is_reserved":false,"is_disabled":false,"rental_uris":{"android":"levelo://app?vid=3a532c3c-497b-451b-96d5-67aa1f998fa1","ios":"levelo://app?vid=3a532c3c-497b-451b-96d5-67aa1f998fa1"},"vehicle_type_id":"4","last_reported":1728727685,"current_range_meters":38800,"station_id":"ce4bgup2rcd13ifvqcn0","pricing_plan_id":"cebpf4jnsgd1na2vs0mg"},{"bike_id":"10a2b00b-9574-4900-86f2-45dd274dde5c","system_id":"levelo_inurba_marseille","lat":43.28947,"lon":5.39624,"is_reserved":false,"is_disabled":false,"rental_uris":{"android":"levelo://app?vid=10a2b00b-9574-4900-86f2-45dd274dde5c","ios":"levelo://app?vid=10a2b00b-9574-4900-86f2-45dd274dde5c"},"vehicle_type_id":"4","last_reported":1728727685,"current_range_meters":14800,"station_id":"ce4bh3h2rcd13ifvqdn0","pricing_plan_id":"cebpf4jnsgd1na2vs0mg"},{"bike_id":"d4778b15-7841-4ee2-ad7f-5ac131c61656","system_id":"levelo_inurba_marseille","lat":43.30204,"lon":5.39294,"is_reserved":false,"is_disabled":false,"rental_uris":{"android":"levelo://app?vid=d4778b15-7841-4ee2-ad7f-5ac131c61656","ios":"levelo://app?vid=d4778b15-7841-4ee2-ad7f-5ac131c61656"},"vehicle_type_id":"4","last_reported":1728727685,"current_range_meters":38000,"station_id":"ce4bgkh2rcd13ifvqbk0","pricing_plan_id":"cebpf4jnsgd1na2vs0mg"},{"bike_id":"8c9a5779-48c6-4a49-b87c-4b9241d4f44b","system_id":"levelo_inurba_marseille","lat":43.33731,"lon":5.374589,"is_reserved":false,"is_disabled":false,"rental_uris":{"android":"levelo://app?vid=8c9a5779-48c6-4a49-b87c-4b9241d4f44b","ios":"levelo://app?vid=8c9a5779-48c6-4a49-b87c-4b9241d4f44b"},"vehicle_type_id":"4","last_reported":1728727685,"current_range_meters":22000,"station_id":"","pricing_plan_id":"cebpf4jnsgd1na2vs0mg"},{"bike_id":"046b4021-8e5d-430a-a9ac-420e19eaab79","system_id":"levelo_inurba_marseille","lat":43.309052,"lon":5.368423,"is_reserved":false,"is_disabled":false,"rental_uris":{"android":"levelo://app?vid=046b4021-8e5d-430a-a9ac-420e19eaab79","ios":"levelo://app?vid=046b4021-8e5d-430a-a9ac-420e19eaab79"},"vehicle_type_id":"4","last_reported":1728727685,"current_range_meters":38800,"station_id":"ce4bgn92rcd13ifvqbvg","pricing_plan_id":"cebpf4jnsgd1na2vs0mg"},{"bike_id":"704e403b-8c00-425b-9555-95565dc8dfe8","system_id":"levelo_inurba_marseille","lat":43.27378,"lon":5.36251,"is_reserved":false,"is_disabled":false,"rental_uris":{"android":"levelo://app?vid=704e403b-8c00-425b-9555-95565dc8dfe8","ios":"levelo://app?vid=704e403b-8c00-425b-9555-95565dc8dfe8"},"vehicle_type_id":"4","last_reported":1728727685,"current_range_meters":26800,"station_id":"ce4bhbh2rcd13ifvqeo0","pricing_plan_id":"cebpf4jnsgd1na2vs0mg"},{"bike_id":"b5f1c919-7873-433f-a8d2-3d0eeb72b87f","system_id":"levelo_inurba_marseille","lat":43.31712,"lon":5.437,"is_reserved":false,"is_disabled":false,"rental_uris":{"android":"levelo://app?vid=b5f1c919-7873-433f-a8d2-3d0eeb72b87f","ios":"levelo://app?vid=b5f1c919-7873-433f-a8d2-3d0eeb72b87f"},"vehicle_type_id":"4","last_reported":1728727685,"current_range_meters":27600,"station_id":"ce4bhp92rcd13ifvqhcg","pricing_plan_id":"cebpf4jnsgd1na2vs0mg"},{"bike_id":"f0aa32d8-4ddd-496a-9571-e8bae9de7c44","system_id":"levelo_inurba_marseille","lat":43.2716,"lon":5.38594,"is_reserved":false,"is_disabled":false,"rental_uris":{"android":"levelo://app?vid=f0aa32d8-4ddd-496a-9571-e8bae9de7c44","ios":"levelo://app?vid=f0aa32d8-4ddd-496a-9571-e8bae9de7c44"},"vehicle_type_id":"4","last_reported":1728727685,"current_range_meters":16000,"station_id":"","pricing_plan_id":"cebpf4jnsgd1na2vs0mg"},