{"last_updated":1758201617,"ttl":60,"version":"2.2","data":{"bikes":[{"bike_id":"e2cbe3ee-7007-455b-a4a9-0d63d97ba1df","system_id":"levelo_inurba_marseille","lat":43.284271,"lon":5.349777,"is_reserved":false,"is_disabled":false,"rental_uris":{"android":"levelo://app?vid=e2cbe3ee-7007-455b-a4a9-0d63d97ba1df","ios":"levelo://app?vid=e2cbe3ee-7007-455b-a4a9-0d63d97ba1df"},"vehicle_type_id":"4","last_reported":1758201617,"current_range_meters":2800,"station_id":"ce4bhbh2rcd13ifvqepg","pricing_plan_id":"cebpf4jnsgd1na2vs0mg"},{"bike_id":"82b209aa-5590-4e0f-9775-db5054140cb8","system_id":"levelo_inurba_marseille","lat":43.29976,"lon":5.37172,"is_reserved":false,"is_disabled":false,"rental_uris":{"android":"levelo://app?vid=82b209aa-5590-4e0f-9775-db5054140cb8","ios":"levelo://app?vid=82b209aa-5590-4e0f-9775-db5054140cb8"},"vehicle_type_id":"4","last_reported":1758201617,"current_range_meters":3200,"station_id":"ce4bgr92rcd13ifvqc7g","pricing_plan_id":"cebpf4jnsgd1na2vs0mg"},{"bike_id":"d63f7700-e8f5-48e8-852e-396e8619aaf2","system_id":"levelo_inurba_marseille","lat":43.23196,"lon":5.39991,"is_reserved":false,"is_disabled":false,"rental_uris":{"android":"levelo://app?vid=d63f7700-e8f5-48e8-852e-396e8619aaf2","ios":"levelo://app?vid=d63f7700-e8f5-48e8-852e-396e8619aaf2"},"vehicle_type_id":"4","last_reported":1758201617,"current_range_meters":3200,"station_id":"ce4bhn12rcd13ifvqgqg","pricing_plan_id":"cebpf4jnsgd1na2vs0mg"},{"bike_id":"995c5a2f-ce15-4990-aec4-2ae6438fad00","system_id":"levelo_inurba_marseille","lat":43.27496,"lon":5.4245,"is_reserved":false,"is_disabled":false,"rental_uris":{"android":"levelo://app?vid=995c5a2f-ce15-4990-aec4-2ae6438fad00","ios":"levelo://app?vid=995c5a2f-ce15-4990-aec4-2ae6438fad00"},"vehicle_type_id":"4","last_reported":1758201617,"current_range_meters":3600,"station_id":"ce4bhn92rcd13ifvqgrg","pricing_plan_id":"cebpf4jnsgd1na2vs0mg"},{"bike_id":"64716ecd-c983-4563-b548-f861cdb69f00","system_id":"levelo_inurba_marseille","lat":43.25584,"lon":5.3824,"is_reserved":false,"is_disabled":false,"rental_uris":{"android":"levelo://app?vid=64716ecd-c983-4563-b548-f861cdb69f00","ios":"levelo://app?vid=64716ecd-c983-4563-b548-f861cdb69f00"},"vehicle_type_id":"4","last_reported":1758201617,"current_range_meters":4000,"station_id":"ce4bhih2rcd13ifvqfs0","pricing_plan_id":"cebpf4jnsgd1na2vs0mg"},{"bike_id":"5b1a3548-4384-418f-b6b2-16eb93ba4829","system_id":"levelo_inurba_marseille","lat":43.28668,"lon":5.36339,"is_reserved":false,"is_disabled":true,"rental_uris":{"android":"levelo://app?vid=5b1a3548-4384-418f-b6b2-16eb93ba4829","ios":"levelo://app?vid=5b1a3548-4384-418f-b6b2-16eb93ba4829"},"vehicle_type_id":"4","last_reported":1758201617,"current_range_meters":4400,"station_id":"ce4bhah2rcd13ifvqej0","pricing_plan_id":"cebpf4jnsgd1na2vs0mg"},{"bike_id":"592a048a-ac6e-47c1-abaf-bbbad4aaa9f2","system_id":"levelo_inurba_marseille","lat":43.30909,"lon":5.36881,"is_reserved":false,"is_disabled":false,"rental_uris":{"android":"levelo://app?vid=592a048a-ac6e-47c1-abaf-bbbad4aaa9f2","ios":"levelo://app?vid=592a048a-ac6e-47c1-abaf-bbbad4aaa9f2"},"vehicle_type_id":"4","last_reported":1758201617,"current_range_meters":4400,"station_id":"ce4bgn92rcd13ifvqbvg","pricing_plan_id":"cebpf4jnsgd1na2vs0mg"},{"bike_id":"8ba8be08-0027-48d3-b847-affd79c0ffe8","system_id":"levelo_inurba_marseille","lat":43.29921,"lon":5.3813,"is_reserved":false,"is_disabled":false,"rental_uris":{"android":"levelo://app?vid=8ba8be08-0027-48d3-b847-affd79c0ffe8","ios":"levelo://app?vid=8ba8be08-0027-48d3-b847-affd79c0ffe8"},"vehicle_type_id":"4","last_reported":1758201617,"current_range_meters":4400,"station_id":"","pricing_plan_id":"cebpf4jnsgd1na2vs0mg"},{"bike_id":"b84ffa3c-1c41-4575-a469-724887d814c9","system_id":"levelo_inurba_marseille","lat":43.2957,"lon":5.37521,"is_reserved":false,"is_disabled":false,"rental_uris":{"android":"levelo://app?vid=b84ffa3c-1c41-4575-a469-724887d814c9","ios":"levelo://app?vid=b84ffa3c-1c41-4575-a469-724887d814c9"},"vehicle_type_id":"4","last_reported":1758201617,"current_range_meters":4400,"station_id":"","pricing_plan_id":"cebpf4jnsgd1na2vs0mg"},{"bike_id":"046ba709-b940-4fa3-9690-1d81db536e4b","system_id":"levelo_inurba_marseille","lat":43.22566,"lon":5.41593,"is_reserved":false,"is_disabled":false,"rental_uris":{"android":"levelo://app?vid=046ba709-b940-4fa3-9690-1d81db536e4b","ios":"levelo://app?vid=046ba709-b940-4fa3-9690-1d81db536e4b"},"vehicle_type_id":"4","last_reported":1758201617,"current_range_meters":4800,"station_id":"st_d2o4gvlbi1j2169b742g","pricing_plan_id":"cebpf4jnsgd1na2vs0mg"},{"bike_id":"5f51ce2c-8466-4a1c-990f-d33d09577543","system_id":"levelo_inurba_marseille","lat":43.23197,"lon":5.35554,"is_reserved":false,"is_disabled":false,"rental_uris":{"android":"levelo://app?vid=5f51ce2c-8466-4a1c-990f-d33d09577543","ios":"levelo://app?vid=5f51ce2c-8466-4a1c-990f-d33d09577543"},"vehicle_type_id":"4","last_reported":1758201617,"current_range_meters":4800,"station_id":"ce4bhu92rcd13ifvqi70","pricing_plan_id":"cebpf4jnsgd1na2vs0mg"},{"bike_id":"a29e8025-e350-4740-80f0-bd6a236f976a","system_id":"levelo_inurba_marseille","lat":43.31993,"lon":5.38169,"is_reserved":false,"is_disabled":false,"rental_uris":{"android":"levelo://app?vid=a29e8025-e350-4740-80f0-bd6a236f976a","ios":"levelo://app?vid=a29e8025-e350-4740-80f0-bd6a236f976a"},"vehicle_type_id":"4","last_reported":1758201617,"current_range_meters":6800,"station_id":"ce4bhr12rcd13ifvqhpg","pricing_plan_id":"cebpf4jnsgd1na2vs0mg"},{"bike_id":"2e4b0003-0b60-4f55-ac76-ec60230936ad","system_id":"levelo_inurba_marseille","lat":43.22936,"lon":5.35376,"is_reserved":false,"is_disabled":false,"rental_uris":{"android":"levelo://app?vid=2e4b0003-0b60-4f55-ac76-ec60230936ad","ios":"levelo://app?vid=2e4b0003-0b60-4f55-ac76-ec60230936ad"},"vehicle_type_id":"4","last_reported":1758201617,"current_range_meters":5600,"station_id":"cpo3532slgdg3j2ikp40","pricing_plan_id":"cebpf4jnsgd1na2vs0mg"},{"bike_id":"76a2a51e-b542-4768-b2b2-9bee1cac064c","system_id":"levelo_inurba_marseille","lat":43.28415,"lon":5.34974,"is_reserved":false,"is_disabled":false,"rental_uris":{"android":"levelo://app?vid=76a2a51e-b542-4768-b2b2-9bee1cac064c","ios":"levelo://app?vid=76a2a51e-b542-4768-b2b2-9bee1cac064c"},"vehicle_type_id":"4","last_reported":1758201617,"current_range_meters":5600,"station_id":"ce4bhbh2rcd13ifvqepg","pricing_plan_id":"cebpf4jnsgd1na2vs0mg"},{"bike_id":"7a9dda23-1c83-4ead-a85a-b1f0c44ab86f","system_id":"levelo_inurba_marseille","lat":43.29571,"lon":5.39979,"is_reserved":false,"is_disabled":false,"rental_uris":{"android":"levelo://app?vid=7a9dda23-1c83-4ead-a85a-b1f0c44ab86f","ios":"levelo://app?vid=7a9dda23-1c83-4ead-a85a-b1f0c44ab86f"},"vehicle_type_id":"4","last_reported":1758201617,"current_range_meters":5600,"station_id":"ce4bh312rcd13ifvqdj0","pricing_plan_id":"cebpf4jnsgd1na2vs0mg"},{"bike_id":"7a87c842-133e-4c58-9758-7280edfc4517","system_id":"levelo_inurba_marseille","lat":43.26155,"lon":5.37452,"is_reserved":false,"is_disabled":false,"rental_uris":{"android":"levelo://app?vid=7a87c842-133e-4c58-9758-7280edfc4517","ios":"levelo://app?vid=7a87c842-133e-4c58-9758-7280edfc4517"},"vehicle_type_id":"4","last_reported":1758201617,"current_range_meters":5600,"station_id":"ce4bhgp2rcd13ifvqfc0","pricing_plan_id":"cebpf4jnsgd1na2vs0mg"},{"bike_id":"775af279-8ac9-4585-9121-809be9b13265","system_id":"levelo_inurba_marseille","lat":43.33801,"lon":5.37425,"is_reserved":false,"is_disabled":false,"rental_uris":{"android":"levelo://app?vid=775af279-8ac9-4585-9121-809be9b13265","ios":"levelo://app?vid=775af279-8ac9-4585-9121-809be9b13265"},"vehicle_type_id":"4","last_reported":1758201617,"current_range_meters":5600,"station_id":"","pricing_plan_id":"cebpf4jnsgd1na2vs0mg"},{"bike_id":"72436c3b-1b2f-4ad5-8a52-45222d4f907c","system_id":"levelo_inurba_marseille","lat":43.21739,"lon":5.34603,"is_reserved":false,"is_disabled":false,"rental_uris":{"android":"levelo://app?vid=72436c3b-1b2f-4ad5-8a52-45222d4f907c","ios":"levelo://app?vid=72436c3b-1b2f-4ad5-8a52-45222d4f907c"},"vehicle_type_id":"4","last_reported":1758201617,"current_range_meters":6000,"station_id":"st_cvj6r9ubvosntc0bgbag","pricing_plan_id":"cebpf4jnsgd1na2vs0mg"},{"bike_id":"d77e57dd-8714-4ba0-a0b3-f1f3ad09b0fb","system_id":"levelo_inurba_marseille","lat":43.28264,"lon":5.35066,"is_reserved":false,"is_disabled":false,"rental_uris":{"android":"levelo://app?vid=d77e57dd-8714-4ba0-a0b3-f1f3ad09b0fb","ios":"levelo://app?vid=d77e57dd-8714-4ba0-a0b3-f1f3ad09b0fb"},"vehicle_type_id":"4","last_reported":1758201617,"current_range_meters":6000,"station_id":"ce4bhbp2rcd13ifvqerg","pricing_plan_id":"cebpf4jnsgd1na2vs0mg"},{"bike_id":"225e60da-1297-4c83-8d19-cdd301bdf468","system_id":"levelo_inurba_marseille","lat":43.243874,"lon":5.37067,"is_reserved":false,"is_disabled":false,"rental_uris":{"android":"levelo://app?vid=225e60da-1297-4c83-8d19-cdd301bdf468","ios":"levelo://app?vid=225e60da-1297-4c83-8d19-cdd301bdf468"},"vehicle_type_id":"4","last_reported":1758201617,"current_range_meters":6000,"station_id":"ce4bhhh2rcd13ifvqfk0","pricing_plan_id":"cebpf4jnsgd1na2vs0mg"},{"bike_id":"de312dcc-dcde-4dc0-b025-d288a9ab5400","system_id":"levelo_inurba_marseille","lat":43.23194,"lon":5.35553,"is_reserved":false,"is_disabled":false,"rental_uris":{"android":"levelo://app?vid=de312dcc-dcde-4dc0-b025-d288a9ab5400","ios":"levelo://app?vid=de312dcc-dcde-4dc0-b025-d288a9ab5400"},"vehicle_type_id":"4","last_reported":1758201617,"current_range_meters":6000,"station_id":"ce4bhu92rcd13ifvqi70","pricing_plan_id":"cebpf4jnsgd1na2vs0mg"},{"bike_id":"54515681-9019-408d-a561-0f55f05a9767","system_id":"levelo_inurba_marseille","lat":43.26193,"lon":5.3745,"is_reserved":false,"is_disabled":false,"rental_uris":{"android":"levelo://app?vid=54515681-9019-408d-a561-0f55f05a9767","ios":"levelo://app?vid=54515681-9019-408d-a561-0f55f05a9767"},"vehicle_type_id":"4","last_reported":1758201617,"current_range_meters":6000,"station_id":"ce4bhgp2rcd13ifvqfc0","pricing_plan_id":"cebpf4jnsgd1na2vs0mg"},{"bike_id":"55e74722-3ec1-450a-89de-6550c7bae117","system_id":"levelo_inurba_marseille","lat":43.22938,"lon":5.35386,"is_reserved":false,"is_disabled":false,"rental_uris":{"android":"levelo://app?vid=55e74722-3ec1-450a-89de-6550c7bae117","ios":"levelo://app?vid=55e74722-3ec1-450a-89de-6550c7bae117"},"vehicle_type_id":"4","last_reported":1758201617,"current_range_meters":6400,"station_id":"cpo3532slgdg3j2ikp40","pricing_plan_id":"cebpf4jnsgd1na2vs0mg"},{"bike_id":"e820c689-e974-4315-9bed-010e44b9c698","system_id":"levelo_inurba_marseille","lat":43.2812,"lon":5.35014,"is_reserved":false,"is_disabled":false,"rental_uris":{"android":"levelo://app?vid=e820c689-e974-4315-9bed-010e44b9c698","ios":"levelo://app?vid=e820c689-e974-4315-9bed-010e44b9c698"},"vehicle_type_id":"4","last_reported":1758201617,"current_range_meters":6800,"station_id":"","pricing_plan_id":"cebpf4jnsgd1na2vs0mg"},{"bike_id":"bca3f039-2685-4e44-9e02-f869563fb967","system_id":"levelo_inurba_marseille","lat":43.29632,"lon":5.37142,"is_reserved":false,"is_disabled":false,"rental_uris":{"android":"levelo://app?vid=bca3f039-2685-4e44-9e02-f869563fb967","ios":"levelo://app?vid=bca3f039-2685-4e44-9e02-f869563fb967"},"vehicle_type_id":"4","last_reported":1758201617,"current_range_meters":6800,"station_id":"","pricing_plan_id":"cebpf4jnsgd1na2vs0mg"},{"bike_id":"8008faf8-bc9d-4582-9611-69d7260f568b","system_id":"levelo_inurba_marseille","lat":43.29024,"lon":5.38642,"is_reserved":false,"is_disabled":false,"rental_uris":{"android":"levelo://app?vid=8008faf8-bc9d-4582-9611-69d7260f568b","ios":"levelo://app?vid=8008faf8-bc9d-4582-9611-69d7260f568b"},"vehicle_type_id":"4","last_reported":1758201617,"current_range_meters":6800,"station_id":"ce4bh4p2rcd13ifvqe0g","pricing_plan_id":"cebpf4jnsgd1na2vs0mg"},{"bike_id":"5cebaa99-7be9-4a3f-9cc0-5cdfdaef03f0","system_id":"levelo_inurba_marseille","lat":43.225319,"lon":5.348348,"is_reserved":false,"is_disabled":false,"rental_uris":{"android":"levelo://app?vid=5cebaa99-7be9-4a3f-9cc0-5cdfdaef03f0","ios":"levelo://app?vid=5cebaa99-7be9-4a3f-9cc0-5cdfdaef03f0"},"vehicle_type_id":"4","last_reported":1758201617,"current_range_meters":6800,"station_id":"","pricing_plan_id":"cebpf4jnsgd1na2vs0mg"},{"bike_id":"8530a216-54fd-4d13-a2bc-a94299ee84b1","system_id":"levelo_inurba_marseille","lat":43.32554,"lon":5.41431,"is_reserved":false,"is_disabled":false,"rental_uris":{"android":"levelo://app?vid=8530a216-54fd-4d13-a2bc-a94299ee84b1","ios":"levelo://app?vid=8530a216-54fd-4d13-a2bc-a94299ee84b1"},"vehicle_type_id":"4","last_reported":1758201617,"current_range_meters":6800,"station_id":"ce4bhq12rcd13ifvqhhg","pricing_plan_id":"cebpf4jnsgd1na2vs0mg"},{"bike_id":"d4704343-ed8f-4ac3-b45b-de731a807f5d","system_id":"levelo_inurba_marseille","lat":43.2953,"lon":5.375,"is_reserved":false,"is_disabled":false,"rental_uris":{"android":"levelo://app?vid=d4704343-ed8f-4ac3-b45b-de731a807f5d","ios":"levelo://app?vid=d4704343-ed8f-4ac3-b45b-de731a807f5d"},"vehicle_type_id":"4","last_reported":1758201617,"current_range_meters":6400,"station_id":"ce4bgkp2rcd13ifvqbmg","pricing_plan_id":"cebpf4jnsgd1na2vs0mg"},{"bike_id":"003515e8-8117-44bb-979d-5f47e8d50fda","system_id":"levelo_inurba_marseille","lat":43.30634,"lon":5.37589,"is_reserved":false,"is_disabled":false,"rental_uris":{"android":"levelo://app?vid=003515e8-8117-44bb-979d-5f47e8d50fda","ios":"levelo://app?vid=003515e8-8117-44bb-979d-5f47e8d50fda"},"vehicle_type_id":"4","last_reported":1758201617,"current_range_meters":7200,"station_id":"","pricing_plan_id":"cebpf4jnsgd1na2vs0mg"},{"bike_id":"61dff6bc-6152-4c8b-962c-cf70f9bd9ec7","system_id":"levelo_inurba_marseille","lat":43.3415,"lon":5.40902,"is_reserved":false,"is_disabled":false,"rental_uris":{"android":"levelo://app?vid=61dff6bc-6152-4c8b-962c-cf70f9bd9ec7","ios":"levelo://app?vid=61dff6bc-6152-4c8b-962c-cf70f9bd9ec7"},"vehicle_type_id":"4","last_reported":1758201617,"current_range_meters":7200,"station_id":"ce4bhqh2rcd13ifvqhlg","pricing_plan_id":"cebpf4jnsgd1na2vs0mg"},{"bike_id":"25b2da70-3345-491c-80f8-92888481b5a8","system_id":"levelo_inurba_marseille","lat":43.30129,"lon":5.37364,"is_reserved":false,"is_disabled":true,"rental_uris":{"android":"levelo://app?vid=25b2da70-3345-491c-80f8-92888481b5a8","ios":"levelo://app?vid=25b2da70-3345-491c-80f8-92888481b5a8"},"vehicle_type_id":"4","last_reported":1758201617,"current_range_meters":7200,"station_id":"","pricing_plan_id":"cebpf4jnsgd1na2vs0mg"},{"bike_id":"aeab9e71-576e-4dcf-bf5b-2b5bf524b3de","system_id":"levelo_inurba_marseille","lat":43.239642,"lon":5.366304,"is_reserved":false,"is_disabled":false,"rental_uris":{"android":"levelo://app?vid=aeab9e71-576e-4dcf-bf5b-2b5bf524b3de","ios":"levelo://app?vid=aeab9e71-576e-4dcf-bf5b-2b5bf524b3de"},"vehicle_type_id":"4","last_reported":1758201617,"current_range_meters":7200,"station_id":"ce4bhi12rcd13ifvqfp0","pricing_plan_id":"cebpf4jnsgd1na2vs0mg"},{"bike_id":"2a84ea1b-9015-423b-9688-4b7694c8086c","system_id":"levelo_inurba_marseille","lat":43.2762,"lon":5.36109,"is_reserved":false,"is_disabled":false,"rental_uris":{"android":"levelo://app?vid=2a84ea1b-9015-423b-9688-4b7694c8086c","ios":"levelo://app?vid=2a84ea1b-9015-423b-9688-4b7694c8086c"},"vehicle_type_id":"4","last_reported":1758201617,"current_range_meters":8000,"station_id":"ce4bgj92rcd13ifvqbe0","pricing_plan_id":"cebpf4jnsgd1na2vs0mg"},{"bike_id":"ca5a1340-d41e-49f3-95f8-599734e0a36c","system_id":"levelo_inurba_marseille","lat":43.225336,"lon":5.348339,"is_reserved":false,"is_disabled":false,"rental_uris":{"android":"levelo://app?vid=ca5a1340-d41e-49f3-95f8-599734e0a36c","ios":"levelo://app?vid=ca5a1340-d41e-49f3-95f8-599734e0a36c"},"vehicle_type_id":"4","last_reported":1758201617,"current_range_meters":8000,"station_id":"","pricing_plan_id":"cebpf4jnsgd1na2vs0mg"},{"bike_id":"537146fd-77f3-4a7e-aef6-61209f803e53","system_id":"levelo_inurba_marseille","lat":43.30278,"lon":5.37693,"is_reserved":false,"is_disabled":true,"rental_uris":{"android":"levelo://app?vid=537146fd-77f3-4a7e-aef6-61209f803e53","ios":"levelo://app?vid=537146fd-77f3-4a7e-aef6-61209f803e53"},"vehicle_type_id":"4","last_reported":1758201617,"current_range_meters":8000,"station_id":"","pricing_plan_id":"cebpf4jnsgd1na2vs0mg"},{"bike_id":"2564c8e6-57e6-44d3-89a9-7cc102b9d6e1","system_id":"levelo_inurba_marseille","lat":43.29002,"lon":5.35617,"is_reserved":false,"is_disabled":false,"rental_uris":{"android":"levelo://app?vid=2564c8e6-57e6-44d3-89a9-7cc102b9d6e1","ios":"levelo://app?vid=2564c8e6-57e6-44d3-89a9-7cc102b9d6e1"},"vehicle_type_id":"4","last_reported":1758201617,"current_range_meters":8000,"station_id":"ce4bhb92rcd13ifvqen0","pricing_plan_id":"cebpf4jnsgd1na2vs0mg"},{"bike_id":"4a99a1b0-ea49-4ae1-9caa-bc9f3e9bf410","system_id":"levelo_inurba_marseille","lat":43.283418,"lon":5.381028,"is_reserved":false,"is_disabled":false,"rental_uris":{"android":"levelo://app?vid=4a99a1b0-ea49-4ae1-9caa-bc9f3e9bf410","ios":"levelo://app?vid=4a99a1b0-ea49-4ae1-9caa-bc9f3e9bf410"},"vehicle_type_id":"4","last_reported":1758201617,"current_range_meters":8000,"station_id":"ce4bh412rcd13ifvqdr0","pricing_plan_id":"cebpf4jnsgd1na2vs0mg"},{"bike_id":"97fac187-45a1-4e8f-be9b-a5c24559a733","system_id":"levelo_inurba_marseille","lat":43.21777,"lon":5.34601,"is_reserved":false,"is_disabled":false,"rental_uris":{"android":"levelo://app?vid=97fac187-45a1-4e8f-be9b-a5c24559a733","ios":"levelo://app?vid=97fac187-45a1-4e8f-be9b-a5c24559a733"},"vehicle_type_id":"4","last_reported":1758201617,"current_range_meters":8400,"station_id":"st_cvj6r9ubvosntc0bgbag","pricing_plan_id":"cebpf4jnsgd1na2vs0mg"},{"bike_id":"190d0825-c1b9-4efd-8a03-d87285d4a5b6","system_id":"levelo_inurba_marseille","lat":43.29804,"lon":5.37716,"is_reserved":false,"is_disabled":false,"rental_uris":{"android":"levelo://app?vid=190d0825-c1b9-4efd-8a03-d87285d4a5b6","ios":"levelo://app?vid=190d0825-c1b9-4efd-8a03-d87285d4a5b6"},"vehicle_type_id":"4","last_reported":1758201617,"current_range_meters":8400,"station_id":"","pricing_plan_id":"cebpf4jnsgd1na2vs0mg"},{"bike_id":"88d214f6-4481-4775-b8c2-9d71e23ec715","system_id":"levelo_inurba_marseille","lat":43.32109,"lon":5.36775,"is_reserved":false,"is_disabled":false,"rental_uris":{"android":"levelo://app?vid=88d214f6-4481-4775-b8c2-9d71e23ec715","ios":"levelo://app?vid=88d214f6-4481-4775-b8c2-9d71e23ec715"},"vehicle_type_id":"4","last_reported":1758201617,"current_range_meters":8400,"station_id":"ce4bhrh2rcd13ifvqhug","pricing_plan_id":"cebpf4jnsgd1na2vs0mg"},{"bike_id":"1a53f88d-66cd-445c-af7c-19d9ca5d9217","system_id":"levelo_inurba_marseille","lat":43.28265,"lon":5.35054,"is_reserved":false,"is_disabled":false,"rental_uris":{"android":"levelo://app?vid=1a53f88d-66cd-445c-af7c-19d9ca5d9217","ios":"levelo://app?vid=1a53f88d-66cd-445c-af7c-19d9ca5d9217"},"vehicle_type_id":"4","last_reported":1758201617,"current_range_meters":8400,"station_id":"ce4bhbp2rcd13ifvqerg","pricing_plan_id":"cebpf4jnsgd1na2vs0mg"},{"bike_id":"d2d21405-7d84-46d6-9542-57aa659023fa","system_id":"levelo_inurba_marseille","lat":43.33089,"lon":5.37852,"is_reserved":false,"is_disabled":false,"rental_uris":{"android":"levelo://app?vid=d2d21405-7d84-46d6-9542-57aa659023fa","ios":"levelo://app?vid=d2d21405-7d84-46d6-9542-57aa659023fa"},"vehicle_type_id":"4","last_reported":1758201617,"current_range_meters":8800,"station_id":"","pricing_plan_id":"cebpf4jnsgd1na2vs0mg"},{"bike_id":"c1374ea9-2c25-4a97-b87a-404a12c168ed","system_id":"levelo_inurba_marseille","lat":43.32106,"lon":5.36799,"is_reserved":false,"is_disabled":false,"rental_uris":{"android":"levelo://app?vid=c1374ea9-2c25-4a97-b87a-404a12c168ed","ios":"levelo://app?vid=c1374ea9-2c25-4a97-b87a-404a12c168ed"},"vehicle_type_id":"4","last_reported":1758201617,"current_range_meters":9200,"station_id":"ce4bhrh2rcd13ifvqhug","pricing_plan_id":"cebpf4jnsgd1na2vs0mg"},{"bike_id":"8f9c8df2-6274-4cd2-971a-f396717823c2","system_id":"levelo_inurba_marseille","lat":43.25497,"lon":5.37632,"is_reserved":false,"is_disabled":false,"rental_uris":{"android":"levelo://app?vid=8f9c8df2-6274-4cd2-971a-f396717823c2","ios":"levelo://app?vid=8f9c8df2-6274-4cd2-971a-f396717823c2"},"vehicle_type_id":"4","last_reported":1758201617,"current_range_meters":9200,"station_id":"ce4bhh12rcd13ifvqff0","pricing_plan_id":"cebpf4jnsgd1na2vs0mg"},{"bike_id":"be7e6a52-5f32-4f5d-ab19-09bbc34d35a2","system_id":"levelo_inurba_marseille","lat":43.30912,"lon":5.36845,"is_reserved":false,"is_disabled":false,"rental_uris":{"android":"levelo://app?vid=be7e6a52-5f32-4f5d-ab19-09bbc34d35a2","ios":"levelo://app?vid=be7e6a52-5f32-4f5d-ab19-09bbc34d35a2"},"vehicle_type_id":"4","last_reported":1758201617,"current_range_meters":9200,"station_id":"ce4bgn92rcd13ifvqbvg","pricing_plan_id":"cebpf4jnsgd1na2vs0mg"},{"bike_id":"a08b5f1b-3556-43b9-a648-473964a30f2e","system_id":"levelo_inurba_marseille","lat":43.23166,"lon":5.43707,"is_reserved":false,"is_disabled":false,"rental_uris":{"android":"levelo://app?vid=a08b5f1b-3556-43b9-a648-473964a30f2e","ios":"levelo://app?vid=a08b5f1b-3556-43b9-a648-473964a30f2e"},"vehicle_type_id":"4","last_reported":1758201617,"current_range_meters":9200,"station_id":"ce4bhmp2rcd13ifvqgog","pricing_plan_id":"cebpf4jnsgd1na2vs0mg"},{"bike_id":"3b8b87b4-c2d4-49fb-97c9-8b8f774a7e66","system_id":"levelo_inurba_marseille","lat":43.337444,"lon":5.374475,"is_reserved":false,"is_disabled":false,"rental_uris":{"android":"levelo://app?vid=3b8b87b4-c2d4-49fb-97c9-8b8f774a7e66","ios":"levelo://app?vid=3b8b87b4-c2d4-49fb-97c9-8b8f774a7e66"},"vehicle_type_id":"4","last_reported":1758201617,"current_range_meters":9200,"station_id":"","pricing_plan_id":"cebpf4jnsgd1na2vs0mg"},{"bike_id":"7b7d0404-e19a-423a-9bcf-7fb751de8587","system_id":"levelo_inurba_marseille","lat":43.26502,"lon":5.39529,"is_reserved":false,"is_disabled":false,"rental_uris":{"android":"levelo://app?vid=7b7d0404-e19a-423a-9bcf-7fb751de8587","ios":"levelo://app?vid=7b7d0404-e19a-423a-9bcf-7fb751de8587"},"vehicle_type_id":"4","last_reported":1758201617,"current_range_meters":9200,"station_id":"ce4bhi12rcd13ifvqfq0","pricing_plan_id":"cebpf4jnsgd1na2vs0mg"},{"bike_id":"7c53e1e0-9efc-4c15-9c29-668d4dac4c59","system_id":"levelo_inurba_marseille","lat":43.22511,"lon":5.34848,"is_reserved":false,"is_disabled":false,"rental_uris":{"android":"levelo://app?vid=7c53e1e0-9efc-4c15-9c29-668d4dac4c59","ios":"levelo://app?vid=7c53e1e0-9efc-4c15-9c29-668d4dac4c59"},"vehicle_type_id":"4","last_reported":1758201617,"current_range_meters":9600,"station_id":"","pricing_plan_id":"cebpf4jnsgd1na2vs0mg"},{"bike_id":"340dd91b-7a1e-4cbf-9891-5adc6d2b1d20","system_id":"levelo_inurba_marseille","lat":43.261871,"lon":5.37451,"is_reserved":false,"is_disabled":false,"rental_uris":{"android":"levelo://app?vid=340dd91b-7a1e-4cbf-9891-5adc6d2b1d20","ios":"levelo://app?vid=340dd91b-7a1e-4cbf-9891-5adc6d2b1d20"},"vehicle_type_id":"4","last_reported":1758201617,"current_range_meters":9600,"station_id":"ce4bhgp2rcd13ifvqfc0","pricing_plan_id":"cebpf4jnsgd1na2vs0mg"},{"bike_id":"a2cc1c2f-1d11-48db-982e-b4e7fb30e192","system_id":"levelo_inurba_marseille","lat":43.32481,"lon":5.36573,"is_reserved":false,"is_disabled":false,"rental_uris":{"android":"levelo://app?vid=a2cc1c2f-1d11-48db-982e-b4e7fb30e192","ios":"levelo://app?vid=a2cc1c2f-1d11-48db-982e-b4e7fb30e192"},"vehicle_type_id":"4","last_reported":1758201617,"current_range_meters":9600,"station_id":"ce4bhs12rcd13ifvqhvg","pricing_plan_id":"cebpf4jnsgd1na2vs0mg"},{"bike_id":"4abca0ae-0961-4088-acf8-b726c17e4a30","system_id":"levelo_inurba_marseille","lat":43.28155,"lon":5.42642,"is_reserved":false,"is_disabled":false,"rental_uris":{"android":"levelo://app?vid=4abca0ae-0961-4088-acf8-b726c17e4a30","ios":"levelo://app?vid=4abca0ae-0961-4088-acf8-b726c17e4a30"},"vehicle_type_id":"4","last_reported":1758201617,"current_range_meters":9600,"station_id":"ce4bhnh2rcd13ifvqgug","pricing_plan_id":"cebpf4jnsgd1na2vs0mg"},{"bike_id":"661a8598-860b-4aa2-8d67-9ec406fddb89","system_id":"levelo_inurba_marseille","lat":43.246654,"lon":5.381713,"is_reserved":false,"is_disabled":true,"rental_uris":{"android":"levelo://app?vid=661a8598-860b-4aa2-8d67-9ec406fddb89","ios":"levelo://app?vid=661a8598-860b-4aa2-8d67-9ec406fddb89"},"vehicle_type_id":"4","last_reported":1758201617,"current_range_meters":9600,"station_id":"ce4bhih2rcd13ifvqfr0","pricing_plan_id":"cebpf4jnsgd1na2vs0mg"},{"bike_id":"45afe5f4-5cbe-49c2-a913-33c967100178","system_id":"levelo_inurba_marseille","lat":43.29776,"lon":5.380931,"is_reserved":false,"is_disabled":false,"rental_uris":{"android":"levelo://app?vid=45afe5f4-5cbe-49c2-a913-33c967100178","ios":"levelo://app?vid=45afe5f4-5cbe-49c2-a913-33c967100178"},"vehicle_type_id":"4","last_reported":1758201617,"current_range_meters":9600,"station_id":"","pricing_plan_id":"cebpf4jnsgd1na2vs0mg"},{"bike_id":"cc8d94c0-7e83-402b-a4b4-644f76b21b6f","system_id":"levelo_inurba_marseille","lat":43.25499,"lon":5.37651,"is_reserved":false,"is_disabled":false,"rental_uris":{"android":"levelo://app?vid=cc8d94c0-7e83-402b-a4b4-644f76b21b6f","ios":"levelo://app?vid=cc8d94c0-7e83-402b-a4b4-644f76b21b6f"},"vehicle_type_id":"4","last_reported":1758201617,"current_range_meters":9600,"station_id":"ce4bhh12rcd13ifvqff0","pricing_plan_id":"cebpf4jnsgd1na2vs0mg"},{"bike_id":"c9919643-5674-4c54-9e5c-03c9b4fef8ff","system_id":"levelo_inurba_marseille","lat":43.23186,"lon":5.39979,"is_reserved":false,"is_disabled":false,"rental_uris":{"android":"levelo://app?vid=c9919643-5674-4c54-9e5c-03c9b4fef8ff","ios":"levelo://app?vid=c9919643-5674-4c54-9e5c-03c9b4fef8ff"},"vehicle_type_id":"4","last_reported":1758201617,"current_range_meters":10000,"station_id":"ce4bhn12rcd13ifvqgqg","pricing_plan_id":"cebpf4jnsgd1na2vs0mg"},{"bike_id":"e1ae8f41-83a2-4e5b-a7c6-7a6dd2583b90","system_id":"levelo_inurba_marseille","lat":43.28723,"lon":5.36082,"is_reserved":false,"is_disabled":false,"rental_uris":{"android":"levelo://app?vid=e1ae8f41-83a2-4e5b-a7c6-7a6dd2583b90","ios":"levelo://app?vid=e1ae8f41-83a2-4e5b-a7c6-7a6dd2583b90"},"vehicle_type_id":"4","last_reported":1758201617,"current_range_meters":10000,"station_id":"cki0cbj6b192h4jlfktg","pricing_plan_id":"cebpf4jnsgd1na2vs0mg"},{"bike_id":"846c0f50-24e0-4662-8fa4-64e183504726","system_id":"levelo_inurba_marseille","lat":43.24663,"lon":5.38166,"is_reserved":false,"is_disabled":false,"rental_uris":{"android":"levelo://app?vid=846c0f50-24e0-4662-8fa4-64e183504726","ios":"levelo://app?vid=846c0f50-24e0-4662-8fa4-64e183504726"},"vehicle_type_id":"4","last_reported":1758201617,"current_range_meters":9600,"station_id":"ce4bhih2rcd13ifvqfr0","pricing_plan_id":"cebpf4jnsgd1na2vs0mg"},{"bike_id":"f7254990-f51d-45fe-83e3-57aceffccbc4","system_id":"levelo_inurba_marseille","lat":43.22577,"lon":5.41627,"is_reserved":false,"is_disabled":false,"rental_uris":{"android":"levelo://app?vid=f7254990-f51d-45fe-83e3-57aceffccbc4","ios":"levelo://app?vid=f7254990-f51d-45fe-83e3-57aceffccbc4"},"vehicle_type_id":"4","last_reported":1758201617,"current_range_meters":10800,"station_id":"st_d2o4gvlbi1j2169b742g","pricing_plan_id":"cebpf4jnsgd1na2vs0mg"},{"bike_id":"c1896cec-af2a-462d-bb17-9ce5ea91a0a3","system_id":"levelo_inurba_marseille","lat":43.28916,"lon":5.38381,"is_reserved":false,"is_disabled":true,"rental_uris":{"android":"levelo://app?vid=c1896cec-af2a-462d-bb17-9ce5ea91a0a3","ios":"levelo://app?vid=c1896cec-af2a-462d-bb17-9ce5ea91a0a3"},"vehicle_type_id":"4","last_reported":1758201617,"current_range_meters":10800,"station_id":"ce4bh612rcd13ifvqe6g","pricing_plan_id":"cebpf4jnsgd1na2vs0mg"},{"bike_id":"55dfb17a-dc13-4669-82ac-2c676d600c2d","system_id":"levelo_inurba_marseille","lat":43.31351,"lon":5.37936,"is_reserved":false,"is_disabled":false,"rental_uris":{"android":"levelo://app?vid=55dfb17a-dc13-4669-82ac-2c676d600c2d","ios":"levelo://app?vid=55dfb17a-dc13-4669-82ac-2c676d600c2d"},"vehicle_type_id":"4","last_reported":1758201617,"current_range_meters":10800,"station_id":"","pricing_plan_id":"cebpf4jnsgd1na2vs0mg"},{"bike_id":"2b2e4928-7176-493b-a727-c1cbabc838b4","system_id":"levelo_inurba_marseille","lat":43.30948,"lon":5.36839,"is_reserved":false,"is_disabled":false,"rental_uris":{"android":"levelo://app?vid=2b2e4928-7176-493b-a727-c1cbabc838b4","ios":"levelo://app?vid=2b2e4928-7176-493b-a727-c1cbabc838b4"},"vehicle_type_id":"4","last_reported":1758201617,"current_range_meters":10800,"station_id":"ce4bgn92rcd13ifvqbvg","pricing_plan_id":"cebpf4jnsgd1na2vs0mg"},{"bike_id":"8c273610-ae7f-4dfc-825e-001534dae26d","system_id":"levelo_inurba_marseille","lat":43.284392,"lon":5.358374,"is_reserved":false,"is_disabled":false,"rental_uris":{"android":"levelo://app?vid=8c273610-ae7f-4dfc-825e-001534dae26d","ios":"levelo://app?vid=8c273610-ae7f-4dfc-825e-001534dae26d"},"vehicle_type_id":"4","last_reported":1758201617,"current_range_meters":10800,"station_id":"ce4bhah2rcd13ifvqei0","pricing_plan_id":"cebpf4jnsgd1na2vs0mg"},{"bike_id":"ae3c6860-137c-43a1-b582-d172d787e7f4","system_id":"levelo_inurba_marseille","lat":43.2307,"lon":5.35491,"is_reserved":false,"is_disabled":false,"rental_uris":{"android":"levelo://app?vid=ae3c6860-137c-43a1-b582-d172d787e7f4","ios":"levelo://app?vid=ae3c6860-137c-43a1-b582-d172d787e7f4"},"vehicle_type_id":"4","last_reported":1758201617,"current_range_meters":11200,"station_id":"cpo3342slgdg3j2ifvpg","pricing_plan_id":"cebpf4jnsgd1na2vs0mg"},{"bike_id":"84a3e126-dbd2-40ea-a27f-01353e5b736e","system_id":"levelo_inurba_marseille","lat":43.28825,"lon":5.35863,"is_reserved":false,"is_disabled":false,"rental_uris":{"android":"levelo://app?vid=84a3e126-dbd2-40ea-a27f-01353e5b736e","ios":"levelo://app?vid=84a3e126-dbd2-40ea-a27f-01353e5b736e"},"vehicle_type_id":"4","last_reported":1758201617,"current_range_meters":11200,"station_id":"ce4bhb12rcd13ifvqem0","pricing_plan_id":"cebpf4jnsgd1na2vs0mg"},{"bike_id":"cec88ccf-d88f-4a48-839d-60406e7c7ea2","system_id":"levelo_inurba_marseille","lat":43.22564,"lon":5.41616,"is_reserved":false,"is_disabled":false,"rental_uris":{"android":"levelo://app?vid=cec88ccf-d88f-4a48-839d-60406e7c7ea2","ios":"levelo://app?vid=cec88ccf-d88f-4a48-839d-60406e7c7ea2"},"vehicle_type_id":"4","last_reported":1758201617,"current_range_meters":11200,"station_id":"st_d2o4gvlbi1j2169b742g","pricing_plan_id":"cebpf4jnsgd1na2vs0mg"},{"bike_id":"d40d9460-02be-42d3-95fc-b87ee726b364","system_id":"levelo_inurba_marseille","lat":43.25915,"lon":5.40867,"is_reserved":false,"is_disabled":false,"rental_uris":{"android":"levelo://app?vid=d40d9460-02be-42d3-95fc-b87ee726b364","ios":"levelo://app?vid=d40d9460-02be-42d3-95fc-b87ee726b364"},"vehicle_type_id":"4","last_reported":1758201617,"current_range_meters":11600,"station_id":"","pricing_plan_id":"cebpf4jnsgd1na2vs0mg"},{"bike_id":"eb6f1acc-c218-4afa-9f2b-20b4b6cab092","system_id":"levelo_inurba_marseille","lat":43.23191,"lon":5.35551,"is_reserved":false,"is_disabled":false,"rental_uris":{"android":"levelo://app?vid=eb6f1acc-c218-4afa-9f2b-20b4b6cab092","ios":"levelo://app?vid=eb6f1acc-c218-4afa-9f2b-20b4b6cab092"},"vehicle_type_id":"4","last_reported":1758201617,"current_range_meters":11600,"station_id":"ce4bhu92rcd13ifvqi70","pricing_plan_id":"cebpf4jnsgd1na2vs0mg"},{"bike_id":"5701fe9c-3e98-4b9f-a910-5eb395d4e5d3","system_id":"levelo_inurba_marseille","lat":43.305389,"lon":5.384223,"is_reserved":false,"is_disabled":false,"rental_uris":{"android":"levelo://app?vid=5701fe9c-3e98-4b9f-a910-5eb395d4e5d3","ios":"levelo://app?vid=5701fe9c-3e98-4b9f-a910-5eb395d4e5d3"},"vehicle_type_id":"4","last_reported":1758201617,"current_range_meters":11600,"station_id":"ce4bgg92rcd13ifvqb30","pricing_plan_id":"cebpf4jnsgd1na2vs0mg"},{"bike_id":"54a4c402-0b9e-4f12-875a-3e27238130ec","system_id":"levelo_inurba_marseille","lat":43.30881,"lon":5.37189,"is_reserved":false,"is_disabled":false,"rental_uris":{"android":"levelo://app?vid=54a4c402-0b9e-4f12-875a-3e27238130ec","ios":"levelo://app?vid=54a4c402-0b9e-4f12-875a-3e27238130ec"},"vehicle_type_id":"4","last_reported":1758201617,"current_range_meters":11600,"station_id":"ce4bguh2rcd13ifvqckg","pricing_plan_id":"cebpf4jnsgd1na2vs0mg"},{"bike_id":"a0a76531-5f1b-4b69-9ce0-bec523f8d1ae","system_id":"levelo_inurba_marseille","lat":43.23193,"lon":5.35552,"is_reserved":false,"is_disabled":false,"rental_uris":{"android":"levelo://app?vid=a0a76531-5f1b-4b69-9ce0-bec523f8d1ae","ios":"levelo://app?vid=a0a76531-5f1b-4b69-9ce0-bec523f8d1ae"},"vehicle_type_id":"4","last_reported":1758201617,"current_range_meters":12000,"station_id":"ce4bhu92rcd13ifvqi70","pricing_plan_id":"cebpf4jnsgd1na2vs0mg"},{"bike_id":"cf66592a-d8fa-4c6c-9927-5d7a9fef5026","system_id":"levelo_inurba_marseille","lat":43.26273,"lon":5.39855,"is_reserved":false,"is_disabled":false,"rental_uris":{"android":"levelo://app?vid=cf66592a-d8fa-4c6c-9927-5d7a9fef5026","ios":"levelo://app?vid=cf66592a-d8fa-4c6c-9927-5d7a9fef5026"},"vehicle_type_id":"4","last_reported":1758201617,"current_range_meters":12000,"station_id":"","pricing_plan_id":"cebpf4jnsgd1na2vs0mg"},{"bike_id":"e1097fce-6beb-4a29-8f25-bc29b14286a4","system_id":"levelo_inurba_marseille","lat":43.25515,"lon":5.37648,"is_reserved":false,"is_disabled":false,"rental_uris":{"android":"levelo://app?vid=e1097fce-6beb-4a29-8f25-bc29b14286a4","ios":"levelo://app?vid=e1097fce-6beb-4a29-8f25-bc29b14286a4"},"vehicle_type_id":"4","last_reported":1758201617,"current_range_meters":12000,"station_id":"ce4bhh12rcd13ifvqff0","pricing_plan_id":"cebpf4jnsgd1na2vs0mg"},{"bike_id":"ced78b52-ba58-49c6-b00d-2cfdd69dffd7","system_id":"levelo_inurba_marseille","lat":43.29361,"lon":5.37859,"is_reserved":false,"is_disabled":false,"rental_uris":{"android":"levelo://app?vid=ced78b52-ba58-49c6-b00d-2cfdd69dffd7","ios":"levelo://app?vid=ced78b52-ba58-49c6-b00d-2cfdd69dffd7"},"vehicle_type_id":"4","last_reported":1758201617,"current_range_meters":12400,"station_id":"ce4bgjh2rcd13ifvqbf0","pricing_plan_id":"cebpf4jnsgd1na2vs0mg"},{"bike_id":"e5848676-616e-4202-9058-c3e0c66fbf68","system_id":"levelo_inurba_marseille","lat":43.22569,"lon":5.41632,"is_reserved":false,"is_disabled":false,"rental_uris":{"android":"levelo://app?vid=e5848676-616e-4202-9058-c3e0c66fbf68","ios":"levelo://app?vid=e5848676-616e-4202-9058-c3e0c66fbf68"},"vehicle_type_id":"4","last_reported":1758201617,"current_range_meters":12400,"station_id":"st_d2o4gvlbi1j2169b742g","pricing_plan_id":"cebpf4jnsgd1na2vs0mg"},{"bike_id":"ac054182-fe69-4d5f-bc9f-eb926a707b61","system_id":"levelo_inurba_marseille","lat":43.28418,"lon":5.3498,"is_reserved":false,"is_disabled":false,"rental_uris":{"android":"levelo://app?vid=ac054182-fe69-4d5f-bc9f-eb926a707b61","ios":"levelo://app?vid=ac054182-fe69-4d5f-bc9f-eb926a707b61"},"vehicle_type_id":"4","last_reported":1758201617,"current_range_meters":12400,"station_id":"ce4bhbh2rcd13ifvqepg","pricing_plan_id":"cebpf4jnsgd1na2vs0mg"},{"bike_id":"13515985-2964-41c8-bf58-20951b40c534","system_id":"levelo_inurba_marseille","lat":43.21775,"lon":5.34572,"is_reserved":false,"is_disabled":false,"rental_uris":{"android":"levelo://app?vid=13515985-2964-41c8-bf58-20951b40c534","ios":"levelo://app?vid=13515985-2964-41c8-bf58-20951b40c534"},"vehicle_type_id":"4","last_reported":1758201617,"current_range_meters":12400,"station_id":"st_cvj6r9ubvosntc0bgbag","pricing_plan_id":"cebpf4jnsgd1na2vs0mg"},{"bike_id":"80332322-52bb-49f4-b738-0ea587c53538","system_id":"levelo_inurba_marseille","lat":43.225357,"lon":5.34837,"is_reserved":false,"is_disabled":false,"rental_uris":{"android":"levelo://app?vid=80332322-52bb-49f4-b738-0ea587c53538","ios":"levelo://app?vid=80332322-52bb-49f4-b738-0ea587c53538"},"vehicle_type_id":"4","last_reported":1758201617,"current_range_meters":12400,"station_id":"","pricing_plan_id":"cebpf4jnsgd1na2vs0mg"},{"bike_id":"d1788760-0706-4b90-8999-db00a9e42210","system_id":"levelo_inurba_marseille","lat":43.32797,"lon":5.41011,"is_reserved":false,"is_disabled":false,"rental_uris":{"android":"levelo://app?vid=d1788760-0706-4b90-8999-db00a9e42210","ios":"levelo://app?vid=d1788760-0706-4b90-8999-db00a9e42210"},"vehicle_type_id":"4","last_reported":1758201617,"current_range_meters":12400,"station_id":"","pricing_plan_id":"cebpf4jnsgd1na2vs0mg"},{"bike_id":"d00cb643-2fff-412b-9561-6d8dfd5c5a75","system_id":"levelo_inurba_marseille","lat":43.27615,"lon":5.36106,"is_reserved":false,"is_disabled":false,"rental_uris":{"android":"levelo://app?vid=d00cb643-2fff-412b-9561-6d8dfd5c5a75","ios":"levelo://app?vid=d00cb643-2fff-412b-9561-6d8dfd5c5a75"},"vehicle_type_id":"4","last_reported":1758201617,"current_range_meters":11600,"station_id":"ce4bgj92rcd13ifvqbe0","pricing_plan_id":"cebpf4jnsgd1na2vs0mg"},{"bike_id":"c3b863d4-d115-43e2-bb76-8d70fbd17dc0","system_id":"levelo_inurba_marseille","lat":43.24653,"lon":5.38881,"is_reserved":false,"is_disabled":false,"rental_uris":{"android":"levelo://app?vid=c3b863d4-d115-43e2-bb76-8d70fbd17dc0","ios":"levelo://app?vid=c3b863d4-d115-43e2-bb76-8d70fbd17dc0"},"vehicle_type_id":"4","last_reported":1758201617,"current_range_meters":12800,"station_id":"ce4bhg12rcd13ifvqf60","pricing_plan_id":"cebpf4jnsgd1na2vs0mg"},{"bike_id":"c43c906d-f8c0-4fcb-b8d6-ff91ee15560f","system_id":"levelo_inurba_marseille","lat":43.22564,"lon":5.41624,"is_reserved":false,"is_disabled":false,"rental_uris":{"android":"levelo://app?vid=c43c906d-f8c0-4fcb-b8d6-ff91ee15560f","ios":"levelo://app?vid=c43c906d-f8c0-4fcb-b8d6-ff91ee15560f"},"vehicle_type_id":"4","last_reported":1758201617,"current_range_meters":12800,"station_id":"st_d2o4gvlbi1j2169b742g","pricing_plan_id":"cebpf4jnsgd1na2vs0mg"},{"bike_id":"8c3d5665-dae0-4fab-b9fc-ca4101ff3de5","system_id":"levelo_inurba_marseille","lat":43.282348,"lon":5.390655,"is_reserved":false,"is_disabled":false,"rental_uris":{"android":"levelo://app?vid=8c3d5665-dae0-4fab-b9fc-ca4101ff3de5","ios":"levelo://app?vid=8c3d5665-dae0-4fab-b9fc-ca4101ff3de5"},"vehicle_type_id":"4","last_reported":1758201617,"current_range_meters":12800,"station_id":"ce4bhn92rcd13ifvqgsg","pricing_plan_id":"cebpf4jnsgd1na2vs0mg"},{"bike_id":"5167bd12-57b2-49e5-a6cc-b362a501b969","system_id":"levelo_inurba_marseille","lat":43.25354,"lon":5.42159,"is_reserved":false,"is_disabled":false,"rental_uris":{"android":"levelo://app?vid=5167bd12-57b2-49e5-a6cc-b362a501b969","ios":"levelo://app?vid=5167bd12-57b2-49e5-a6cc-b362a501b969"},"vehicle_type_id":"4","last_reported":1758201617,"current_range_meters":13600,"station_id":"st_d2m65c5bi1j21697t3ng","pricing_plan_id":"cebpf4jnsgd1na2vs0mg"},{"bike_id":"eba6d8ea-d653-4448-8616-8d7c15763e30","system_id":"levelo_inurba_marseille","lat":43.2418,"lon":5.36381,"is_reserved":false,"is_disabled":false,"rental_uris":{"android":"levelo://app?vid=eba6d8ea-d653-4448-8616-8d7c15763e30","ios":"levelo://app?vid=eba6d8ea-d653-4448-8616-8d7c15763e30"},"vehicle_type_id":"4","last_reported":1758201617,"current_range_meters":13600,"station_id":"cpo36qri1sfpv3e86is0","pricing_plan_id":"cebpf4jnsgd1na2vs0mg"},{"bike_id":"ea39772d-ffe9-44f3-988b-26739781ef58","system_id":"levelo_inurba_marseille","lat":43.230612,"lon":5.354813,"is_reserved":false,"is_disabled":false,"rental_uris":{"android":"levelo://app?vid=ea39772d-ffe9-44f3-988b-26739781ef58","ios":"levelo://app?vid=ea39772d-ffe9-44f3-988b-26739781ef58"},"vehicle_type_id":"4","last_reported":1758201617,"current_range_meters":14000,"station_id":"cpo3342slgdg3j2ifvpg","pricing_plan_id":"cebpf4jnsgd1na2vs0mg"},{"bike_id":"4ed84e40-c3c2-4c4c-ae22-5d0bf441d3b0","system_id":"levelo_inurba_marseille","lat":43.270684,"lon":5.422809,"is_reserved":false,"is_disabled":false,"rental_uris":{"android":"levelo://app?vid=4ed84e40-c3c2-4c4c-ae22-5d0bf441d3b0","ios":"levelo://app?vid=4ed84e40-c3c2-4c4c-ae22-5d0bf441d3b0"},"vehicle_type_id":"4","last_reported":1758201617,"current_range_meters":14000,"station_id":"ce4bhk92rcd13ifvqgb0","pricing_plan_id":"cebpf4jnsgd1na2vs0mg"},{"bike_id":"80a9a218-f77f-42ce-8136-b0dceb9fc366","system_id":"levelo_inurba_marseille","lat":43.267867,"lon":5.394102,"is_reserved":false,"is_disabled":false,"rental_uris":{"android":"levelo://app?vid=80a9a218-f77f-42ce-8136-b0dceb9fc366","ios":"levelo://app?vid=80a9a218-f77f-42ce-8136-b0dceb9fc366"},"vehicle_type_id":"4","last_reported":1758201617,"current_range_meters":14400,"station_id":"ce4bhh12rcd13ifvqfg0","pricing_plan_id":"cebpf4jnsgd1na2vs0mg"},{"bike_id":"42323a1a-489c-43cb-90ae-c675b27444d5","system_id":"levelo_inurba_marseille","lat":43.2164,"lon":5.34368,"is_reserved":false,"is_disabled":false,"rental_uris":{"android":"levelo://app?vid=42323a1a-489c-43cb-90ae-c675b27444d5","ios":"levelo://app?vid=42323a1a-489c-43cb-90ae-c675b27444d5"},"vehicle_type_id":"4","last_reported":1758201617,"current_range_meters":14400,"station_id":"","pricing_plan_id":"cebpf4jnsgd1na2vs0mg"},{"bike_id":"08128352-d0a0-4f5f-a684-879e4974aa4c","system_id":"levelo_inurba_marseille","lat":43.225588,"lon":5.416474,"is_reserved":false,"is_disabled":false,"rental_uris":{"android":"levelo://app?vid=08128352-d0a0-4f5f-a684-879e4974aa4c","ios":"levelo://app?vid=08128352-d0a0-4f5f-a684-879e4974aa4c"},"vehicle_type_id":"4","last_reported":1758201617,"current_range_meters":14400,"station_id":"st_d2o4gvlbi1j2169b742g","pricing_plan_id":"cebpf4jnsgd1na2vs0mg"},{"bike_id":"a16730b0-f401-449d-b575-51c5ef435c05","system_id":"levelo_inurba_marseille","lat":43.255021,"lon":5.376304,"is_reserved":false,"is_disabled":false,"rental_uris":{"android":"levelo://app?vid=a16730b0-f401-449d-b575-51c5ef435c05","ios":"levelo://app?vid=a16730b0-f401-449d-b575-51c5ef435c05"},"vehicle_type_id":"4","last_reported":1758201617,"current_range_meters":14400,"station_id":"ce4bhh12rcd13ifvqff0","pricing_plan_id":"cebpf4jnsgd1na2vs0mg"},{"bike_id":"330bdf43-76e9-494d-a32f-05963c5d64bb","system_id":"levelo_inurba_marseille","lat":43.21187,"lon":5.35071,"is_reserved":false,"is_disabled":false,"rental_uris":{"android":"levelo://app?vid=330bdf43-76e9-494d-a32f-05963c5d64bb","ios":"levelo://app?vid=330bdf43-76e9-494d-a32f-05963c5d64bb"},"vehicle_type_id":"4","last_reported":1758201617,"current_range_meters":14400,"station_id":"","pricing_plan_id":"cebpf4jnsgd1na2vs0mg"},{"bike_id":"d9d0bc7e-92a9-406e-a7dd-985880565616","system_id":"levelo_inurba_marseille","lat":43.28413,"lon":5.34981,"is_reserved":false,"is_disabled":false,"rental_uris":{"android":"levelo://app?vid=d9d0bc7e-92a9-406e-a7dd-985880565616","ios":"levelo://app?vid=d9d0bc7e-92a9-406e-a7dd-985880565616"},"vehicle_type_id":"4","last_reported":1758201617,"current_range_meters":14400,"station_id":"ce4bhbh2rcd13ifvqepg","pricing_plan_id":"cebpf4jnsgd1na2vs0mg"},{"bike_id":"a4faa1fd-62ee-404a-aff8-b79ea6b6b5d2","system_id":"levelo_inurba_marseille","lat":43.32986,"lon":5.39245,"is_reserved":false,"is_disabled":false,"rental_uris":{"android":"levelo://app?vid=a4faa1fd-62ee-404a-aff8-b79ea6b6b5d2","ios":"levelo://app?vid=a4faa1fd-62ee-404a-aff8-b79ea6b6b5d2"},"vehicle_type_id":"4","last_reported":1758201617,"current_range_meters":14800,"station_id":"","pricing_plan_id":"cebpf4jnsgd1na2vs0mg"},{"bike_id":"c4043b8f-6725-4abc-97c4-87714b44298b","system_id":"levelo_inurba_marseille","lat":43.2694,"lon":5.40253,"is_reserved":false,"is_disabled":false,"rental_uris":{"android":"levelo://app?vid=c4043b8f-6725-4abc-97c4-87714b44298b","ios":"levelo://app?vid=c4043b8f-6725-4abc-97c4-87714b44298b"},"vehicle_type_id":"4","last_reported":1758201617,"current_range_meters":14800,"station_id":"cjm6bp8fraef2m0cb0m0","pricing_plan_id":"cebpf4jnsgd1na2vs0mg"},{"bike_id":"d9f0ae84-d732-44f5-b420-064e325a0d60","system_id":"levelo_inurba_marseille","lat":43.320183,"lon":5.381343,"is_reserved":false,"is_disabled":false,"rental_uris":{"android":"levelo://app?vid=d9f0ae84-d732-44f5-b420-064e325a0d60","ios":"levelo://app?vid=d9f0ae84-d732-44f5-b420-064e325a0d60"},"vehicle_type_id":"4","last_reported":1758201617,"current_range_meters":14800,"station_id":"","pricing_plan_id":"cebpf4jnsgd1na2vs0mg"},{"bike_id":"fa0847a4-8d8b-47a2-9c0d-c16fe7a48c9b","system_id":"levelo_inurba_marseille","lat":43.330285,"lon":5.390556,"is_reserved":false,"is_disabled":false,"rental_uris":{"android":"levelo://app?vid=fa0847a4-8d8b-47a2-9c0d-c16fe7a48c9b","ios":"levelo://app?vid=fa0847a4-8d8b-47a2-9c0d-c16fe7a48c9b"},"vehicle_type_id":"4","last_reported":1758201617,"current_range_meters":14800,"station_id":"","pricing_plan_id":"cebpf4jnsgd1na2vs0mg"},{"bike_id":"3c32a9bb-d6c3-427e-976f-83ba89f55151","system_id":"levelo_inurba_marseille","lat":43.22575,"lon":5.4162,"is_reserved":false,"is_disabled":false,"rental_uris":{"android":"levelo://app?vid=3c32a9bb-d6c3-427e-976f-83ba89f55151","ios":"levelo://app?vid=3c32a9bb-d6c3-427e-976f-83ba89f55151"},"vehicle_type_id":"4","last_reported":1758201617,"current_range_meters":14800,"station_id":"st_d2o4gvlbi1j2169b742g","pricing_plan_id":"cebpf4jnsgd1na2vs0mg"},{"bike_id":"be9ee84b-9ec1-497c-800c-5907ad1418ae","system_id":"levelo_inurba_marseille","lat":43.2256,"lon":5.41632,"is_reserved":false,"is_disabled":false,"rental_uris":{"android":"levelo://app?vid=be9ee84b-9ec1-497c-800c-5907ad1418ae","ios":"levelo://app?vid=be9ee84b-9ec1-497c-800c-5907ad1418ae"},"vehicle_type_id":"4","last_reported":1758201617,"current_range_meters":14800,"station_id":"st_d2o4gvlbi1j2169b742g","pricing_plan_id":"cebpf4jnsgd1na2vs0mg"},{"bike_id":"05bcfa9a-4735-4044-a28c-01a586fe2d99","system_id":"levelo_inurba_marseille","lat":43.21196,"lon":5.35072,"is_reserved":false,"is_disabled":true,"rental_uris":{"android":"levelo://app?vid=05bcfa9a-4735-4044-a28c-01a586fe2d99","ios":"levelo://app?vid=05bcfa9a-4735-4044-a28c-01a586fe2d99"},"vehicle_type_id":"4","last_reported":1758201617,"current_range_meters":15200,"station_id":"","pricing_plan_id":"cebpf4jnsgd1na2vs0mg"},{"bike_id":"a740f00f-a20b-4210-a4ab-4e77b8d25655","system_id":"levelo_inurba_marseille","lat":43.32379,"lon":5.38855,"is_reserved":false,"is_disabled":false,"rental_uris":{"android":"levelo://app?vid=a740f00f-a20b-4210-a4ab-4e77b8d25655","ios":"levelo://app?vid=a740f00f-a20b-4210-a4ab-4e77b8d25655"},"vehicle_type_id":"4","last_reported":1758201617,"current_range_meters":15200,"station_id":"ce4bhqp2rcd13ifvqhog","pricing_plan_id":"cebpf4jnsgd1na2vs0mg"},{"bike_id":"ff44f1ad-2efa-4491-b8e1-7e77aa981a6b","system_id":"levelo_inurba_marseille","lat":43.30149,"lon":5.3741,"is_reserved":false,"is_disabled":true,"rental_uris":{"android":"levelo://app?vid=ff44f1ad-2efa-4491-b8e1-7e77aa981a6b","ios":"levelo://app?vid=ff44f1ad-2efa-4491-b8e1-7e77aa981a6b"},"vehicle_type_id":"4","last_reported":1758201617,"current_range_meters":15200,"station_id":"","pricing_plan_id":"cebpf4jnsgd1na2vs0mg"},{"bike_id":"22f0687d-25d3-4094-9c4a-293a61e189a6","system_id":"levelo_inurba_marseille","lat":43.2463,"lon":5.39626,"is_reserved":false,"is_disabled":false,"rental_uris":{"android":"levelo://app?vid=22f0687d-25d3-4094-9c4a-293a61e189a6","ios":"levelo://app?vid=22f0687d-25d3-4094-9c4a-293a61e189a6"},"vehicle_type_id":"4","last_reported":1758201617,"current_range_meters":15200,"station_id":"","pricing_plan_id":"cebpf4jnsgd1na2vs0mg"},{"bike_id":"955adcee-3523-4c1a-bb72-39e1d939766d","system_id":"levelo_inurba_marseille","lat":43.27374,"lon":5.36259,"is_reserved":false,"is_disabled":false,"rental_uris":{"android":"levelo://app?vid=955adcee-3523-4c1a-bb72-39e1d939766d","ios":"levelo://app?vid=955adcee-3523-4c1a-bb72-39e1d939766d"},"vehicle_type_id":"4","last_reported":1758201617,"current_range_meters":16000,"station_id":"ce4bhbh2rcd13ifvqeo0","pricing_plan_id":"cebpf4jnsgd1na2vs0mg"},{"bike_id":"7a315c48-9258-494c-9544-dc6aa6412f8e","system_id":"levelo_inurba_marseille","lat":43.29286,"lon":5.36839,"is_reserved":false,"is_disabled":true,"rental_uris":{"android":"levelo://app?vid=7a315c48-9258-494c-9544-dc6aa6412f8e","ios":"levelo://app?vid=7a315c48-9258-494c-9544-dc6aa6412f8e"},"vehicle_type_id":"4","last_reported":1758201617,"current_range_meters":16000,"station_id":"ce4bhbp2rcd13ifvqesg","pricing_plan_id":"cebpf4jnsgd1na2vs0mg"},{"bike_id":"8412b71c-4d99-44ae-bd2f-a87a8d58f48e","system_id":"levelo_inurba_marseille","lat":43.26216,"lon":5.3745,"is_reserved":false,"is_disabled":false,"rental_uris":{"android":"levelo://app?vid=8412b71c-4d99-44ae-bd2f-a87a8d58f48e","ios":"levelo://app?vid=8412b71c-4d99-44ae-bd2f-a87a8d58f48e"},"vehicle_type_id":"4","last_reported":1758201617,"current_range_meters":16000,"station_id":"ce4bhgp2rcd13ifvqfc0","pricing_plan_id":"cebpf4jnsgd1na2vs0mg"},{"bike_id":"86ea3ba2-1864-486c-b208-5e2ce8841a91","system_id":"levelo_inurba_marseille","lat":43.301365,"lon":5.374015,"is_reserved":false,"is_disabled":false,"rental_uris":{"android":"levelo://app?vid=86ea3ba2-1864-486c-b208-5e2ce8841a91","ios":"levelo://app?vid=86ea3ba2-1864-486c-b208-5e2ce8841a91"},"vehicle_type_id":"4","last_reported":1758201617,"current_range_meters":16000,"station_id":"","pricing_plan_id":"cebpf4jnsgd1na2vs0mg"},{"bike_id":"ff6e8faf-7f1f-43ab-a2f4-20e0a65a01a0","system_id":"levelo_inurba_marseille","lat":43.260273,"lon":5.375481,"is_reserved":false,"is_disabled":false,"rental_uris":{"android":"levelo://app?vid=ff6e8faf-7f1f-43ab-a2f4-20e0a65a01a0","ios":"levelo://app?vid=ff6e8faf-7f1f-43ab-a2f4-20e0a65a01a0"},"vehicle_type_id":"4","last_reported":1758201617,"current_range_meters":16000,"station_id":"ce4bhgh2rcd13ifvqfa0","pricing_plan_id":"cebpf4jnsgd1na2vs0mg"},{"bike_id":"5e118356-24a8-4268-959d-a9df624cef60","system_id":"levelo_inurba_marseille","lat":43.29749,"lon":5.38379,"is_reserved":false,"is_disabled":false,"rental_uris":{"android":"levelo://app?vid=5e118356-24a8-4268-959d-a9df624cef60","ios":"levelo://app?vid=5e118356-24a8-4268-959d-a9df624cef60"},"vehicle_type_id":"4","last_reported":1758201617,"current_range_meters":16000,"station_id":"","pricing_plan_id":"cebpf4jnsgd1na2vs0mg"},{"bike_id":"b19a9496-b60e-406d-bc32-75021df10f02","system_id":"levelo_inurba_marseille","lat":43.26211,"lon":5.37436,"is_reserved":false,"is_disabled":false,"rental_uris":{"android":"levelo://app?vid=b19a9496-b60e-406d-bc32-75021df10f02","ios":"levelo://app?vid=b19a9496-b60e-406d-bc32-75021df10f02"},"vehicle_type_id":"4","last_reported":1758201617,"current_range_meters":16000,"station_id":"ce4bhgp2rcd13ifvqfc0","pricing_plan_id":"cebpf4jnsgd1na2vs0mg"},{"bike_id":"75e24011-f2d0-425c-83de-14e27a1c7d97","system_id":"levelo_inurba_marseille","lat":43.29935,"lon":5.37455,"is_reserved":false,"is_disabled":true,"rental_uris":{"android":"levelo://app?vid=75e24011-f2d0-425c-83de-14e27a1c7d97","ios":"levelo://app?vid=75e24011-f2d0-425c-83de-14e27a1c7d97"},"vehicle_type_id":"4","last_reported":1758201617,"current_range_meters":16400,"station_id":"","pricing_plan_id":"cebpf4jnsgd1na2vs0mg"},{"bike_id":"762683df-7f9d-4e9d-8a13-17408f7ece99","system_id":"levelo_inurba_marseille","lat":43.25499,"lon":5.3762,"is_reserved":false,"is_disabled":false,"rental_uris":{"android":"levelo://app?vid=762683df-7f9d-4e9d-8a13-17408f7ece99","ios":"levelo://app?vid=762683df-7f9d-4e9d-8a13-17408f7ece99"},"vehicle_type_id":"4","last_reported":1758201617,"current_range_meters":16400,"station_id":"ce4bhh12rcd13ifvqff0","pricing_plan_id":"cebpf4jnsgd1na2vs0mg"},{"bike_id":"d549bcd6-983a-496b-9c2c-62248e8492cc","system_id":"levelo_inurba_marseille","lat":43.21766,"lon":5.34603,"is_reserved":false,"is_disabled":false,"rental_uris":{"android":"levelo://app?vid=d549bcd6-983a-496b-9c2c-62248e8492cc","ios":"levelo://app?vid=d549bcd6-983a-496b-9c2c-62248e8492cc"},"vehicle_type_id":"4","last_reported":1758201617,"current_range_meters":16400,"station_id":"st_cvj6r9ubvosntc0bgbag","pricing_plan_id":"cebpf4jnsgd1na2vs0mg"},{"bike_id":"7eed94c4-182d-4460-826b-78b4ef60c719","system_id":"levelo_inurba_marseille","lat":43.295859,"lon":5.375163,"is_reserved":false,"is_disabled":false,"rental_uris":{"android":"levelo://app?vid=7eed94c4-182d-4460-826b-78b4ef60c719","ios":"levelo://app?vid=7eed94c4-182d-4460-826b-78b4ef60c719"},"vehicle_type_id":"4","last_reported":1758201617,"current_range_meters":16400,"station_id":"","pricing_plan_id":"cebpf4jnsgd1na2vs0mg"},{"bike_id":"c4bfc39f-00b5-44a4-b23d-bc0cb11d62c2","system_id":"levelo_inurba_marseille","lat":43.23178,"lon":5.39993,"is_reserved":false,"is_disabled":false,"rental_uris":{"android":"levelo://app?vid=c4bfc39f-00b5-44a4-b23d-bc0cb11d62c2","ios":"levelo://app?vid=c4bfc39f-00b5-44a4-b23d-bc0cb11d62c2"},"vehicle_type_id":"4","last_reported":1758201617,"current_range_meters":16400,"station_id":"ce4bhn12rcd13ifvqgqg","pricing_plan_id":"cebpf4jnsgd1na2vs0mg"},{"bike_id":"9d8b4944-013e-4958-9415-40d7b5ee9701","system_id":"levelo_inurba_marseille","lat":43.31624,"lon":5.38176,"is_reserved":false,"is_disabled":false,"rental_uris":{"android":"levelo://app?vid=9d8b4944-013e-4958-9415-40d7b5ee9701","ios":"levelo://app?vid=9d8b4944-013e-4958-9415-40d7b5ee9701"},"vehicle_type_id":"4","last_reported":1758201617,"current_range_meters":16400,"station_id":"","pricing_plan_id":"cebpf4jnsgd1na2vs0mg"},{"bike_id":"96a10da0-9785-4c45-b0f6-69de562e23fa","system_id":"levelo_inurba_marseille","lat":43.23152,"lon":5.43708,"is_reserved":false,"is_disabled":false,"rental_uris":{"android":"levelo://app?vid=96a10da0-9785-4c45-b0f6-69de562e23fa","ios":"levelo://app?vid=96a10da0-9785-4c45-b0f6-69de562e23fa"},"vehicle_type_id":"4","last_reported":1758201617,"current_range_meters":16400,"station_id":"ce4bhmp2rcd13ifvqgog","pricing_plan_id":"cebpf4jnsgd1na2vs0mg"},{"bike_id":"40a16e10-c9dd-40a9-80de-0bbe781e2b83","system_id":"levelo_inurba_marseille","lat":43.2594,"lon":5.40867,"is_reserved":false,"is_disabled":false,"rental_uris":{"android":"levelo://app?vid=40a16e10-c9dd-40a9-80de-0bbe781e2b83","ios":"levelo://app?vid=40a16e10-c9dd-40a9-80de-0bbe781e2b83"},"vehicle_type_id":"4","last_reported":1758201617,"current_range_meters":16400,"station_id":"ce4bhm92rcd13ifvqglg","pricing_plan_id":"cebpf4jnsgd1na2vs0mg"},{"bike_id":"28748757-025b-4662-ad5f-4b143cff5213","system_id":"levelo_inurba_marseille","lat":43.22931,"lon":5.35381,"is_reserved":false,"is_disabled":false,"rental_uris":{"android":"levelo://app?vid=28748757-025b-4662-ad5f-4b143cff5213","ios":"levelo://app?vid=28748757-025b-4662-ad5f-4b143cff5213"},"vehicle_type_id":"4","last_reported":1758201617,"current_range_meters":16400,"station_id":"cpo3532slgdg3j2ikp40","pricing_plan_id":"cebpf4jnsgd1na2vs0mg"},{"bike_id":"3fccfccb-72a4-423c-b760-6577dbb851b7","system_id":"levelo_inurba_marseille","lat":43.30478,"lon":5.37897,"is_reserved":false,"is_disabled":true,"rental_uris":{"android":"levelo://app?vid=3fccfccb-72a4-423c-b760-6577dbb851b7","ios":"levelo://app?vid=3fccfccb-72a4-423c-b760-6577dbb851b7"},"vehicle_type_id":"4","last_reported":1758201617,"current_range_meters":16400,"station_id":"","pricing_plan_id":"cebpf4jnsgd1na2vs0mg"},{"bike_id":"0a318574-dec2-45a4-9bc2-5516b8a4515a","system_id":"levelo_inurba_marseille","lat":43.32364,"lon":5.38882,"is_reserved":false,"is_disabled":false,"rental_uris":{"android":"levelo://app?vid=0a318574-dec2-45a4-9bc2-5516b8a4515a","ios":"levelo://app?vid=0a318574-dec2-45a4-9bc2-5516b8a4515a"},"vehicle_type_id":"4","last_reported":1758201617,"current_range_meters":16400,"station_id":"ce4bhqp2rcd13ifvqhog","pricing_plan_id":"cebpf4jnsgd1na2vs0mg"},{"bike_id":"53e32093-87d7-47a8-a5be-30a834c8135a","system_id":"levelo_inurba_marseille","lat":43.32354,"lon":5.3674,"is_reserved":false,"is_disabled":false,"rental_uris":{"android":"levelo://app?vid=53e32093-87d7-47a8-a5be-30a834c8135a","ios":"levelo://app?vid=53e32093-87d7-47a8-a5be-30a834c8135a"},"vehicle_type_id":"4","last_reported":1758201617,"current_range_meters":16800,"station_id":"ce4bhsh2rcd13ifvqi2g","pricing_plan_id":"cebpf4jnsgd1na2vs0mg"},{"bike_id":"fb78ea42-e26f-45b3-a617-d3474b811b72","system_id":"levelo_inurba_marseille","lat":43.29881,"lon":5.37956,"is_reserved":false,"is_disabled":false,"rental_uris":{"android":"levelo://app?vid=fb78ea42-e26f-45b3-a617-d3474b811b72","ios":"levelo://app?vid=fb78ea42-e26f-45b3-a617-d3474b811b72"},"vehicle_type_id":"4","last_reported":1758201617,"current_range_meters":16800,"station_id":"","pricing_plan_id":"cebpf4jnsgd1na2vs0mg"},{"bike_id":"e942f984-8fe7-48d1-8f04-3806656b9996","system_id":"levelo_inurba_marseille","lat":43.33612,"lon":5.37926,"is_reserved":false,"is_disabled":false,"rental_uris":{"android":"levelo://app?vid=e942f984-8fe7-48d1-8f04-3806656b9996","ios":"levelo://app?vid=e942f984-8fe7-48d1-8f04-3806656b9996"},"vehicle_type_id":"4","last_reported":1758201617,"current_range_meters":16800,"station_id":"","pricing_plan_id":"cebpf4jnsgd1na2vs0mg"},{"bike_id":"c80b0aa8-dc3d-4305-a9f1-abcf2bce60c8","system_id":"levelo_inurba_marseille","lat":43.23195,"lon":5.35552,"is_reserved":false,"is_disabled":false,"rental_uris":{"android":"levelo://app?vid=c80b0aa8-dc3d-4305-a9f1-abcf2bce60c8","ios":"levelo://app?vid=c80b0aa8-dc3d-4305-a9f1-abcf2bce60c8"},"vehicle_type_id":"4","last_reported":1758201617,"current_range_meters":16800,"station_id":"ce4bhu92rcd13ifvqi70","pricing_plan_id":"cebpf4jnsgd1na2vs0mg"},{"bike_id":"451a4bce-bd3f-4be8-8eaf-32feca6978d0","system_id":"levelo_inurba_marseille","lat":43.290092,"lon":5.356299,"is_reserved":false,"is_disabled":false,"rental_uris":{"android":"levelo://app?vid=451a4bce-bd3f-4be8-8eaf-32feca6978d0","ios":"levelo://app?vid=451a4bce-bd3f-4be8-8eaf-32feca6978d0"},"vehicle_type_id":"4","last_reported":1758201617,"current_range_meters":16800,"station_id":"ce4bhb92rcd13ifvqen0","pricing_plan_id":"cebpf4jnsgd1na2vs0mg"},{"bike_id":"0d82b35c-17e7-4268-966b-cc4ee5eb3f1c","system_id":"levelo_inurba_marseille","lat":43.23185,"lon":5.39979,"is_reserved":false,"is_disabled":false,"rental_uris":{"android":"levelo://app?vid=0d82b35c-17e7-4268-966b-cc4ee5eb3f1c","ios":"levelo://app?vid=0d82b35c-17e7-4268-966b-cc4ee5eb3f1c"},"vehicle_type_id":"4","last_reported":1758201617,"current_range_meters":16800,"station_id":"ce4bhn12rcd13ifvqgqg","pricing_plan_id":"cebpf4jnsgd1na2vs0mg"},{"bike_id":"846c9b95-05b4-43cb-9579-5cf105383003","system_id":"levelo_inurba_marseille","lat":43.24155,"lon":5.3972,"is_reserved":false,"is_disabled":false,"rental_uris":{"android":"levelo://app?vid=846c9b95-05b4-43cb-9579-5cf105383003","ios":"levelo://app?vid=846c9b95-05b4-43cb-9579-5cf105383003"},"vehicle_type_id":"4","last_reported":1758201617,"current_range_meters":16800,"station_id":"ce4bhn12rcd13ifvqgpg","pricing_plan_id":"cebpf4jnsgd1na2vs0mg"},{"bike_id":"f9418cc9-c64d-43d9-9060-3aeedd69cdee","system_id":"levelo_inurba_marseille","lat":43.33081,"lon":5.37893,"is_reserved":false,"is_disabled":false,"rental_uris":{"android":"levelo://app?vid=f9418cc9-c64d-43d9-9060-3aeedd69cdee","ios":"levelo://app?vid=f9418cc9-c64d-43d9-9060-3aeedd69cdee"},"vehicle_type_id":"4","last_reported":1758201617,"current_range_meters":16800,"station_id":"","pricing_plan_id":"cebpf4jnsgd1na2vs0mg"},{"bike_id":"c51d2d37-1120-4ad8-8662-eed856d9201d","system_id":"levelo_inurba_marseille","lat":43.3414,"lon":5.409002,"is_reserved":false,"is_disabled":false,"rental_uris":{"android":"levelo://app?vid=c51d2d37-1120-4ad8-8662-eed856d9201d","ios":"levelo://app?vid=c51d2d37-1120-4ad8-8662-eed856d9201d"},"vehicle_type_id":"4","last_reported":1758201617,"current_range_meters":17200,"station_id":"ce4bhqh2rcd13ifvqhlg","pricing_plan_id":"cebpf4jnsgd1na2vs0mg"},{"bike_id":"1398b762-c79d-4fcf-b4f2-f35764a26ec0","system_id":"levelo_inurba_marseille","lat":43.2842,"lon":5.34967,"is_reserved":false,"is_disabled":false,"rental_uris":{"android":"levelo://app?vid=1398b762-c79d-4fcf-b4f2-f35764a26ec0","ios":"levelo://app?vid=1398b762-c79d-4fcf-b4f2-f35764a26ec0"},"vehicle_type_id":"4","last_reported":1758201617,"current_range_meters":17200,"station_id":"ce4bhbh2rcd13ifvqepg","pricing_plan_id":"cebpf4jnsgd1na2vs0mg"},{"bike_id":"20779ce2-c509-48f8-99ef-118fe3e2bd5b","system_id":"levelo_inurba_marseille","lat":43.25919,"lon":5.40863,"is_reserved":false,"is_disabled":false,"rental_uris":{"android":"levelo://app?vid=20779ce2-c509-48f8-99ef-118fe3e2bd5b","ios":"levelo://app?vid=20779ce2-c509-48f8-99ef-118fe3e2bd5b"},"vehicle_type_id":"4","last_reported":1758201617,"current_range_meters":17200,"station_id":"ce4bhm92rcd13ifvqglg","pricing_plan_id":"cebpf4jnsgd1na2vs0mg"},{"bike_id":"bd1fdd56-ba7d-4d44-8816-6032858291d7","system_id":"levelo_inurba_marseille","lat":43.26224,"lon":5.40449,"is_reserved":false,"is_disabled":false,"rental_uris":{"android":"levelo://app?vid=bd1fdd56-ba7d-4d44-8816-6032858291d7","ios":"levelo://app?vid=bd1fdd56-ba7d-4d44-8816-6032858291d7"},"vehicle_type_id":"4","last_reported":1758201617,"current_range_meters":17200,"station_id":"ce4bhmh2rcd13ifvqgmg","pricing_plan_id":"cebpf4jnsgd1na2vs0mg"},{"bike_id":"b25adf95-68c5-41e2-aa28-8625655a128d","system_id":"levelo_inurba_marseille","lat":43.21744,"lon":5.34603,"is_reserved":false,"is_disabled":false,"rental_uris":{"android":"levelo://app?vid=b25adf95-68c5-41e2-aa28-8625655a128d","ios":"levelo://app?vid=b25adf95-68c5-41e2-aa28-8625655a128d"},"vehicle_type_id":"4","last_reported":1758201617,"current_range_meters":17200,"station_id":"st_cvj6r9ubvosntc0bgbag","pricing_plan_id":"cebpf4jnsgd1na2vs0mg"},{"bike_id":"6e607b83-1ebe-4ed4-b7ce-35f2357d568a","system_id":"levelo_inurba_marseille","lat":43.26489,"lon":5.39546,"is_reserved":false,"is_disabled":false,"rental_uris":{"android":"levelo://app?vid=6e607b83-1ebe-4ed4-b7ce-35f2357d568a","ios":"levelo://app?vid=6e607b83-1ebe-4ed4-b7ce-35f2357d568a"},"vehicle_type_id":"4","last_reported":1758201617,"current_range_meters":17200,"station_id":"ce4bhi12rcd13ifvqfq0","pricing_plan_id":"cebpf4jnsgd1na2vs0mg"},{"bike_id":"0960e3dd-c358-4474-bd10-8223758e1f6b","system_id":"levelo_inurba_marseille","lat":43.296996,"lon":5.376855,"is_reserved":false,"is_disabled":false,"rental_uris":{"android":"levelo://app?vid=0960e3dd-c358-4474-bd10-8223758e1f6b","ios":"levelo://app?vid=0960e3dd-c358-4474-bd10-8223758e1f6b"},"vehicle_type_id":"4","last_reported":1758201617,"current_range_meters":17200,"station_id":"","pricing_plan_id":"cebpf4jnsgd1na2vs0mg"},{"bike_id":"553f8368-9fc7-4fab-ab6b-4ab64407d3bf","system_id":"levelo_inurba_marseille","lat":43.28875,"lon":5.4252,"is_reserved":false,"is_disabled":false,"rental_uris":{"android":"levelo://app?vid=553f8368-9fc7-4fab-ab6b-4ab64407d3bf","ios":"levelo://app?vid=553f8368-9fc7-4fab-ab6b-4ab64407d3bf"},"vehicle_type_id":"4","last_reported":1758201617,"current_range_meters":17200,"station_id":"","pricing_plan_id":"cebpf4jnsgd1na2vs0mg"},{"bike_id":"5b30e86f-9dcf-4ee0-bf89-371e1ef0f15b","system_id":"levelo_inurba_marseille","lat":43.21743,"lon":5.34595,"is_reserved":false,"is_disabled":false,"rental_uris":{"android":"levelo://app?vid=5b30e86f-9dcf-4ee0-bf89-371e1ef0f15b","ios":"levelo://app?vid=5b30e86f-9dcf-4ee0-bf89-371e1ef0f15b"},"vehicle_type_id":"4","last_reported":1758201617,"current_range_meters":17200,"station_id":"st_cvj6r9ubvosntc0bgbag","pricing_plan_id":"cebpf4jnsgd1na2vs0mg"},{"bike_id":"7055d3b2-83d7-4558-aa7a-584610ffb397","system_id":"levelo_inurba_marseille","lat":43.23155,"lon":5.43706,"is_reserved":false,"is_disabled":false,"rental_uris":{"android":"levelo://app?vid=7055d3b2-83d7-4558-aa7a-584610ffb397","ios":"levelo://app?vid=7055d3b2-83d7-4558-aa7a-584610ffb397"},"vehicle_type_id":"4","last_reported":1758201617,"current_range_meters":17600,"station_id":"ce4bhmp2rcd13ifvqgog","pricing_plan_id":"cebpf4jnsgd1na2vs0mg"},{"bike_id":"3a2fd072-55c6-4292-8ade-97d21356d4ed","system_id":"levelo_inurba_marseille","lat":43.23177,"lon":5.43694,"is_reserved":false,"is_disabled":false,"rental_uris":{"android":"levelo://app?vid=3a2fd072-55c6-4292-8ade-97d21356d4ed","ios":"levelo://app?vid=3a2fd072-55c6-4292-8ade-97d21356d4ed"},"vehicle_type_id":"4","last_reported":1758201617,"current_range_meters":17600,"station_id":"ce4bhmp2rcd13ifvqgog","pricing_plan_id":"cebpf4jnsgd1na2vs0mg"},{"bike_id":"550893d5-c010-4eb2-894b-6f812de0bb03","system_id":"levelo_inurba_marseille","lat":43.23154,"lon":5.43694,"is_reserved":false,"is_disabled":false,"rental_uris":{"android":"levelo://app?vid=550893d5-c010-4eb2-894b-6f812de0bb03","ios":"levelo://app?vid=550893d5-c010-4eb2-894b-6f812de0bb03"},"vehicle_type_id":"4","last_reported":1758201617,"current_range_meters":17600,"station_id":"ce4bhmp2rcd13ifvqgog","pricing_plan_id":"cebpf4jnsgd1na2vs0mg"},{"bike_id":"6badb2da-249d-4177-89c1-acb25dea56e7","system_id":"levelo_inurba_marseille","lat":43.30802,"lon":5.3815,"is_reserved":false,"is_disabled":false,"rental_uris":{"android":"levelo://app?vid=6badb2da-249d-4177-89c1-acb25dea56e7","ios":"levelo://app?vid=6badb2da-249d-4177-89c1-acb25dea56e7"},"vehicle_type_id":"4","last_reported":1758201617,"current_range_meters":17600,"station_id":"ce4bgt12rcd13ifvqce0","pricing_plan_id":"cebpf4jnsgd1na2vs0mg"},{"bike_id":"b3a3fdbc-4291-4540-b60f-7e98f1937ed3","system_id":"levelo_inurba_marseille","lat":43.23152,"lon":5.43714,"is_reserved":false,"is_disabled":false,"rental_uris":{"android":"levelo://app?vid=b3a3fdbc-4291-4540-b60f-7e98f1937ed3","ios":"levelo://app?vid=b3a3fdbc-4291-4540-b60f-7e98f1937ed3"},"vehicle_type_id":"4","last_reported":1758201617,"current_range_meters":17600,"station_id":"ce4bhmp2rcd13ifvqgog","pricing_plan_id":"cebpf4jnsgd1na2vs0mg"},{"bike_id":"bf6e6d27-c09e-4725-9fbc-20073fd5a515","system_id":"levelo_inurba_marseille","lat":43.289376,"lon":5.396214,"is_reserved":false,"is_disabled":false,"rental_uris":{"android":"levelo://app?vid=bf6e6d27-c09e-4725-9fbc-20073fd5a515","ios":"levelo://app?vid=bf6e6d27-c09e-4725-9fbc-20073fd5a515"},"vehicle_type_id":"4","last_reported":1758201617,"current_range_meters":17600,"station_id":"","pricing_plan_id":"cebpf4jnsgd1na2vs0mg"},{"bike_id":"f9ccf06f-79e1-49e1-b249-6072bfdb072f","system_id":"levelo_inurba_marseille","lat":43.32009,"lon":5.38162,"is_reserved":false,"is_disabled":false,"rental_uris":{"android":"levelo://app?vid=f9ccf06f-79e1-49e1-b249-6072bfdb072f","ios":"levelo://app?vid=f9ccf06f-79e1-49e1-b249-6072bfdb072f"},"vehicle_type_id":"4","last_reported":1758201617,"current_range_meters":17600,"station_id":"ce4bhr12rcd13ifvqhpg","pricing_plan_id":"cebpf4jnsgd1na2vs0mg"},{"bike_id":"06319b1f-bb7d-4df8-beb6-4cc890d4ea37","system_id":"levelo_inurba_marseille","lat":43.33767,"lon":5.37442,"is_reserved":false,"is_disabled":false,"rental_uris":{"android":"levelo://app?vid=06319b1f-bb7d-4df8-beb6-4cc890d4ea37","ios":"levelo://app?vid=06319b1f-bb7d-4df8-beb6-4cc890d4ea37"},"vehicle_type_id":"4","last_reported":1758201617,"current_range_meters":18000,"station_id":"","pricing_plan_id":"cebpf4jnsgd1na2vs0mg"},{"bike_id":"b74f8af4-416c-4ce7-a2c3-5c0246afb11c","system_id":"levelo_inurba_marseille","lat":43.27511,"lon":5.42443,"is_reserved":false,"is_disabled":true,"rental_uris":{"android":"levelo://app?vid=b74f8af4-416c-4ce7-a2c3-5c0246afb11c","ios":"levelo://app?vid=b74f8af4-416c-4ce7-a2c3-5c0246afb11c"},"vehicle_type_id":"4","last_reported":1758201617,"current_range_meters":18000,"station_id":"ce4bhn92rcd13ifvqgrg","pricing_plan_id":"cebpf4jnsgd1na2vs0mg"},{"bike_id":"43d57fd4-047e-4ac8-97e5-ec9b96239472","system_id":"levelo_inurba_marseille","lat":43.32852,"lon":5.39037,"is_reserved":false,"is_disabled":false,"rental_uris":{"android":"levelo://app?vid=43d57fd4-047e-4ac8-97e5-ec9b96239472","ios":"levelo://app?vid=43d57fd4-047e-4ac8-97e5-ec9b96239472"},"vehicle_type_id":"4","last_reported":1758201617,"current_range_meters":18000,"station_id":"","pricing_plan_id":"cebpf4jnsgd1na2vs0mg"},{"bike_id":"83981190-f3d9-45bf-a46e-4ee5e9cd6e7e","system_id":"levelo_inurba_marseille","lat":43.23184,"lon":5.39983,"is_reserved":false,"is_disabled":false,"rental_uris":{"android":"levelo://app?vid=83981190-f3d9-45bf-a46e-4ee5e9cd6e7e","ios":"levelo://app?vid=83981190-f3d9-45bf-a46e-4ee5e9cd6e7e"},"vehicle_type_id":"4","last_reported":1758201617,"current_range_meters":18800,"station_id":"ce4bhn12rcd13ifvqgqg","pricing_plan_id":"cebpf4jnsgd1na2vs0mg"},{"bike_id":"09dc2458-fca6-4f62-9bce-b96631e05583","system_id":"levelo_inurba_marseille","lat":43.31172,"lon":5.38715,"is_reserved":false,"is_disabled":false,"rental_uris":{"android":"levelo://app?vid=09dc2458-fca6-4f62-9bce-b96631e05583","ios":"levelo://app?vid=09dc2458-fca6-4f62-9bce-b96631e05583"},"vehicle_type_id":"4","last_reported":1758201617,"current_range_meters":18800,"station_id":"ce4bgv12rcd13ifvqcp0","pricing_plan_id":"cebpf4jnsgd1na2vs0mg"},{"bike_id":"b0519531-dfa9-409f-a2d0-d87440a09095","system_id":"levelo_inurba_marseille","lat":43.23173,"lon":5.437,"is_reserved":false,"is_disabled":false,"rental_uris":{"android":"levelo://app?vid=b0519531-dfa9-409f-a2d0-d87440a09095","ios":"levelo://app?vid=b0519531-dfa9-409f-a2d0-d87440a09095"},"vehicle_type_id":"4","last_reported":1758201617,"current_range_meters":18800,"station_id":"ce4bhmp2rcd13ifvqgog","pricing_plan_id":"cebpf4jnsgd1na2vs0mg"},{"bike_id":"cadf5e41-37b2-4b3a-a707-6dd1a961b1b7","system_id":"levelo_inurba_marseille","lat":43.30879,"lon":5.39657,"is_reserved":false,"is_disabled":false,"rental_uris":{"android":"levelo://app?vid=cadf5e41-37b2-4b3a-a707-6dd1a961b1b7","ios":"levelo://app?vid=cadf5e41-37b2-4b3a-a707-6dd1a961b1b7"},"vehicle_type_id":"4","last_reported":1758201617,"current_range_meters":18800,"station_id":"ce4bh012rcd13ifvqcv0","pricing_plan_id":"cebpf4jnsgd1na2vs0mg"},{"bike_id":"28a334de-9a2d-4500-bd3c-aaf1e96ad6f6","system_id":"levelo_inurba_marseille","lat":43.26221,"lon":5.37449,"is_reserved":false,"is_disabled":false,"rental_uris":{"android":"levelo://app?vid=28a334de-9a2d-4500-bd3c-aaf1e96ad6f6","ios":"levelo://app?vid=28a334de-9a2d-4500-bd3c-aaf1e96ad6f6"},"vehicle_type_id":"4","last_reported":1758201617,"current_range_meters":18800,"station_id":"ce4bhgp2rcd13ifvqfc0","pricing_plan_id":"cebpf4jnsgd1na2vs0mg"},{"bike_id":"c8dba32d-5874-475a-8590-f1962b5dc97f","system_id":"levelo_inurba_marseille","lat":43.25926,"lon":5.40878,"is_reserved":false,"is_disabled":false,"rental_uris":{"android":"levelo://app?vid=c8dba32d-5874-475a-8590-f1962b5dc97f","ios":"levelo://app?vid=c8dba32d-5874-475a-8590-f1962b5dc97f"},"vehicle_type_id":"4","last_reported":1758201617,"current_range_meters":19200,"station_id":"ce4bhm92rcd13ifvqglg","pricing_plan_id":"cebpf4jnsgd1na2vs0mg"},{"bike_id":"728c3b9f-04b8-403b-8156-34495d0a36ae","system_id":"levelo_inurba_marseille","lat":43.31172,"lon":5.38716,"is_reserved":false,"is_disabled":false,"rental_uris":{"android":"levelo://app?vid=728c3b9f-04b8-403b-8156-34495d0a36ae","ios":"levelo://app?vid=728c3b9f-04b8-403b-8156-34495d0a36ae"},"vehicle_type_id":"4","last_reported":1758201617,"current_range_meters":19200,"station_id":"ce4bgv12rcd13ifvqcp0","pricing_plan_id":"cebpf4jnsgd1na2vs0mg"},{"bike_id":"8ecd69ab-e63e-48d0-b4de-c4e19190298b","system_id":"levelo_inurba_marseille","lat":43.27699,"lon":5.38891,"is_reserved":false,"is_disabled":false,"rental_uris":{"android":"levelo://app?vid=8ecd69ab-e63e-48d0-b4de-c4e19190298b","ios":"levelo://app?vid=8ecd69ab-e63e-48d0-b4de-c4e19190298b"},"vehicle_type_id":"4","last_reported":1758201617,"current_range_meters":19200,"station_id":"ce4bhi12rcd13ifvqfo0","pricing_plan_id":"cebpf4jnsgd1na2vs0mg"},{"bike_id":"9c0693b2-33f4-40d9-85fa-754a770a9d54","system_id":"levelo_inurba_marseille","lat":43.295188,"lon":5.390328,"is_reserved":false,"is_disabled":false,"rental_uris":{"android":"levelo://app?vid=9c0693b2-33f4-40d9-85fa-754a770a9d54","ios":"levelo://app?vid=9c0693b2-33f4-40d9-85fa-754a770a9d54"},"vehicle_type_id":"4","last_reported":1758201617,"current_range_meters":19200,"station_id":"ce4bh312rcd13ifvqdj0","pricing_plan_id":"cebpf4jnsgd1na2vs0mg"},{"bike_id":"d65baa26-0f35-46f5-ae09-e2bcec272830","system_id":"levelo_inurba_marseille","lat":43.25953,"lon":5.40885,"is_reserved":false,"is_disabled":false,"rental_uris":{"android":"levelo://app?vid=d65baa26-0f35-46f5-ae09-e2bcec272830","ios":"levelo://app?vid=d65baa26-0f35-46f5-ae09-e2bcec272830"},"vehicle_type_id":"4","last_reported":1758201617,"current_range_meters":19200,"station_id":"ce4bhm92rcd13ifvqglg","pricing_plan_id":"cebpf4jnsgd1na2vs0mg"},{"bike_id":"8e3adc30-a015-4f62-b090-a5dc9a7364b6","system_id":"levelo_inurba_marseille","lat":43.26218,"lon":5.37432,"is_reserved":false,"is_disabled":false,"rental_uris":{"android":"levelo://app?vid=8e3adc30-a015-4f62-b090-a5dc9a7364b6","ios":"levelo://app?vid=8e3adc30-a015-4f62-b090-a5dc9a7364b6"},"vehicle_type_id":"4","last_reported":1758201617,"current_range_meters":19600,"station_id":"ce4bhgp2rcd13ifvqfc0","pricing_plan_id":"cebpf4jnsgd1na2vs0mg"},{"bike_id":"f85a8c4d-f9d0-4136-9b57-8bfb28db950c","system_id":"levelo_inurba_marseille","lat":43.31864,"lon":5.37424,"is_reserved":false,"is_disabled":false,"rental_uris":{"android":"levelo://app?vid=f85a8c4d-f9d0-4136-9b57-8bfb28db950c","ios":"levelo://app?vid=f85a8c4d-f9d0-4136-9b57-8bfb28db950c"},"vehicle_type_id":"4","last_reported":1758201617,"current_range_meters":19600,"station_id":"","pricing_plan_id":"cebpf4jnsgd1na2vs0mg"},{"bike_id":"5774d56f-e297-4d22-a4ac-a0eca27755bf","system_id":"levelo_inurba_marseille","lat":43.29028,"lon":5.37555,"is_reserved":false,"is_disabled":true,"rental_uris":{"android":"levelo://app?vid=5774d56f-e297-4d22-a4ac-a0eca27755bf","ios":"levelo://app?vid=5774d56f-e297-4d22-a4ac-a0eca27755bf"},"vehicle_type_id":"4","last_reported":1758201617,"current_range_meters":19600,"station_id":"ce4bh692rcd13ifvqe90","pricing_plan_id":"cebpf4jnsgd1na2vs0mg"},{"bike_id":"bb945bc0-0083-4341-bdc3-1cc8e8c582ec","system_id":"levelo_inurba_marseille","lat":43.23174,"lon":5.43678,"is_reserved":false,"is_disabled":false,"rental_uris":{"android":"levelo://app?vid=bb945bc0-0083-4341-bdc3-1cc8e8c582ec","ios":"levelo://app?vid=bb945bc0-0083-4341-bdc3-1cc8e8c582ec"},"vehicle_type_id":"4","last_reported":1758201617,"current_range_meters":19600,"station_id":"ce4bhmp2rcd13ifvqgog","pricing_plan_id":"cebpf4jnsgd1na2vs0mg"},{"bike_id":"a8062424-344d-41ce-8f15-a79b398bf564","system_id":"levelo_inurba_marseille","lat":43.27675,"lon":5.38875,"is_reserved":false,"is_disabled":false,"rental_uris":{"android":"levelo://app?vid=a8062424-344d-41ce-8f15-a79b398bf564","ios":"levelo://app?vid=a8062424-344d-41ce-8f15-a79b398bf564"},"vehicle_type_id":"4","last_reported":1758201617,"current_range_meters":19600,"station_id":"ce4bhi12rcd13ifvqfo0","pricing_plan_id":"cebpf4jnsgd1na2vs0mg"},{"bike_id":"2836ce26-b1f8-4176-8d47-1ab6bd539431","system_id":"levelo_inurba_marseille","lat":43.32334,"lon":5.4062,"is_reserved":false,"is_disabled":false,"rental_uris":{"android":"levelo://app?vid=2836ce26-b1f8-4176-8d47-1ab6bd539431","ios":"levelo://app?vid=2836ce26-b1f8-4176-8d47-1ab6bd539431"},"vehicle_type_id":"4","last_reported":1758201617,"current_range_meters":19600,"station_id":"ce4bhq92rcd13ifvqhjg","pricing_plan_id":"cebpf4jnsgd1na2vs0mg"},{"bike_id":"b9ae8c93-c745-413a-9386-68df571f8cad","system_id":"levelo_inurba_marseille","lat":43.21772,"lon":5.34586,"is_reserved":false,"is_disabled":false,"rental_uris":{"android":"levelo://app?vid=b9ae8c93-c745-413a-9386-68df571f8cad","ios":"levelo://app?vid=b9ae8c93-c745-413a-9386-68df571f8cad"},"vehicle_type_id":"4","last_reported":1758201617,"current_range_meters":20000,"station_id":"","pricing_plan_id":"cebpf4jnsgd1na2vs0mg"},{"bike_id":"caaabbda-44bf-45a8-9163-a97125b8b329","system_id":"levelo_inurba_marseille","lat":43.24389,"lon":5.37064,"is_reserved":false,"is_disabled":false,"rental_uris":{"android":"levelo://app?vid=caaabbda-44bf-45a8-9163-a97125b8b329","ios":"levelo://app?vid=caaabbda-44bf-45a8-9163-a97125b8b329"},"vehicle_type_id":"4","last_reported":1758201617,"current_range_meters":20000,"station_id":"ce4bhhh2rcd13ifvqfk0","pricing_plan_id":"cebpf4jnsgd1na2vs0mg"},{"bike_id":"d90f83ee-aa42-4fdf-8000-9cbbfd37925d","system_id":"levelo_inurba_marseille","lat":43.299243,"lon":5.381167,"is_reserved":false,"is_disabled":false,"rental_uris":{"android":"levelo://app?vid=d90f83ee-aa42-4fdf-8000-9cbbfd37925d","ios":"levelo://app?vid=d90f83ee-aa42-4fdf-8000-9cbbfd37925d"},"vehicle_type_id":"4","last_reported":1758201617,"current_range_meters":20400,"station_id":"","pricing_plan_id":"cebpf4jnsgd1na2vs0mg"},{"bike_id":"309f573c-bddf-4a27-90c9-3df62237955c","system_id":"levelo_inurba_marseille","lat":43.26227,"lon":5.40455,"is_reserved":false,"is_disabled":false,"rental_uris":{"android":"levelo://app?vid=309f573c-bddf-4a27-90c9-3df62237955c","ios":"levelo://app?vid=309f573c-bddf-4a27-90c9-3df62237955c"},"vehicle_type_id":"4","last_reported":1758201617,"current_range_meters":20400,"station_id":"ce4bhmh2rcd13ifvqgmg","pricing_plan_id":"cebpf4jnsgd1na2vs0mg"},{"bike_id":"7acef77e-dd9a-457a-bb97-f3e10516cf40","system_id":"levelo_inurba_marseille","lat":43.2826,"lon":5.35053,"is_reserved":false,"is_disabled":false,"rental_uris":{"android":"levelo://app?vid=7acef77e-dd9a-457a-bb97-f3e10516cf40","ios":"levelo://app?vid=7acef77e-dd9a-457a-bb97-f3e10516cf40"},"vehicle_type_id":"4","last_reported":1758201617,"current_range_meters":20400,"station_id":"ce4bhbp2rcd13ifvqerg","pricing_plan_id":"cebpf4jnsgd1na2vs0mg"},{"bike_id":"835975a0-27c7-47e7-bc1c-b8ba0b505127","system_id":"levelo_inurba_marseille","lat":43.32587,"lon":5.378,"is_reserved":false,"is_disabled":false,"rental_uris":{"android":"levelo://app?vid=835975a0-27c7-47e7-bc1c-b8ba0b505127","ios":"levelo://app?vid=835975a0-27c7-47e7-bc1c-b8ba0b505127"},"vehicle_type_id":"4","last_reported":1758201617,"current_range_meters":20400,"station_id":"","pricing_plan_id":"cebpf4jnsgd1na2vs0mg"},{"bike_id":"d6ef696a-d81e-4843-a92d-e0935a5b42cd","system_id":"levelo_inurba_marseille","lat":43.28936,"lon":5.36635,"is_reserved":false,"is_disabled":false,"rental_uris":{"android":"levelo://app?vid=d6ef696a-d81e-4843-a92d-e0935a5b42cd","ios":"levelo://app?vid=d6ef696a-d81e-4843-a92d-e0935a5b42cd"},"vehicle_type_id":"4","last_reported":1758201617,"current_range_meters":20800,"station_id":"ce4bhap2rcd13ifvqek0","pricing_plan_id":"cebpf4jnsgd1na2vs0mg"},{"bike_id":"c55149d1-3b14-4190-9685-929bf5d49c1e","system_id":"levelo_inurba_marseille","lat":43.21781,"lon":5.34588,"is_reserved":false,"is_disabled":false,"rental_uris":{"android":"levelo://app?vid=c55149d1-3b14-4190-9685-929bf5d49c1e","ios":"levelo://app?vid=c55149d1-3b14-4190-9685-929bf5d49c1e"},"vehicle_type_id":"4","last_reported":1758201617,"current_range_meters":20800,"station_id":"st_cvj6r9ubvosntc0bgbag","pricing_plan_id":"cebpf4jnsgd1na2vs0mg"},{"bike_id":"c5e95224-360e-4c4c-b6ca-a337a16371e5","system_id":"levelo_inurba_marseille","lat":43.26556,"lon":5.37281,"is_reserved":false,"is_disabled":false,"rental_uris":{"android":"levelo://app?vid=c5e95224-360e-4c4c-b6ca-a337a16371e5","ios":"levelo://app?vid=c5e95224-360e-4c4c-b6ca-a337a16371e5"},"vehicle_type_id":"4","last_reported":1758201617,"current_range_meters":20800,"station_id":"ce4bhg12rcd13ifvqf70","pricing_plan_id":"cebpf4jnsgd1na2vs0mg"},{"bike_id":"c4706891-6ce1-4440-91ff-a3ecf2ff007e","system_id":"levelo_inurba_marseille","lat":43.26374,"lon":5.40075,"is_reserved":false,"is_disabled":false,"rental_uris":{"android":"levelo://app?vid=c4706891-6ce1-4440-91ff-a3ecf2ff007e","ios":"levelo://app?vid=c4706891-6ce1-4440-91ff-a3ecf2ff007e"},"vehicle_type_id":"4","last_reported":1758201617,"current_range_meters":20800,"station_id":"","pricing_plan_id":"cebpf4jnsgd1na2vs0mg"},{"bike_id":"66a3da1f-dd9a-43e3-af75-68882f7670e5","system_id":"levelo_inurba_marseille","lat":43.22531,"lon":5.348338,"is_reserved":false,"is_disabled":false,"rental_uris":{"android":"levelo://app?vid=66a3da1f-dd9a-43e3-af75-68882f7670e5","ios":"levelo://app?vid=66a3da1f-dd9a-43e3-af75-68882f7670e5"},"vehicle_type_id":"4","last_reported":1758201617,"current_range_meters":20800,"station_id":"","pricing_plan_id":"cebpf4jnsgd1na2vs0mg"},{"bike_id":"af8cd0a2-39fe-4563-b815-8a81ee544ffe","system_id":"levelo_inurba_marseille","lat":43.26574,"lon":5.39011,"is_reserved":false,"is_disabled":false,"rental_uris":{"android":"levelo://app?vid=af8cd0a2-39fe-4563-b815-8a81ee544ffe","ios":"levelo://app?vid=af8cd0a2-39fe-4563-b815-8a81ee544ffe"},"vehicle_type_id":"4","last_reported":1758201617,"current_range_meters":20800,"station_id":"ce4bhe12rcd13ifvqf30","pricing_plan_id":"cebpf4jnsgd1na2vs0mg"},{"bike_id":"d9d041e3-a1da-4339-bb46-4e289c25138c","system_id":"levelo_inurba_marseille","lat":43.23183,"lon":5.39992,"is_reserved":false,"is_disabled":false,"rental_uris":{"android":"levelo://app?vid=d9d041e3-a1da-4339-bb46-4e289c25138c","ios":"levelo://app?vid=d9d041e3-a1da-4339-bb46-4e289c25138c"},"vehicle_type_id":"4","last_reported":1758201617,"current_range_meters":20800,"station_id":"ce4bhn12rcd13ifvqgqg","pricing_plan_id":"cebpf4jnsgd1na2vs0mg"},{"bike_id":"46120efb-684a-4c8a-9019-0309a127dbb8","system_id":"levelo_inurba_marseille","lat":43.302165,"lon":5.394615,"is_reserved":false,"is_disabled":false,"rental_uris":{"android":"levelo://app?vid=46120efb-684a-4c8a-9019-0309a127dbb8","ios":"levelo://app?vid=46120efb-684a-4c8a-9019-0309a127dbb8"},"vehicle_type_id":"4","last_reported":1758201617,"current_range_meters":21600,"station_id":"ce4bh0p2rcd13ifvqd70","pricing_plan_id":"cebpf4jnsgd1na2vs0mg"},{"bike_id":"401d6bf1-c635-4571-881f-63c516ca3fcd","system_id":"levelo_inurba_marseille","lat":43.23148,"lon":5.43694,"is_reserved":false,"is_disabled":false,"rental_uris":{"android":"levelo://app?vid=401d6bf1-c635-4571-881f-63c516ca3fcd","ios":"levelo://app?vid=401d6bf1-c635-4571-881f-63c516ca3fcd"},"vehicle_type_id":"4","last_reported":1758201617,"current_range_meters":21600,"station_id":"ce4bhmp2rcd13ifvqgog","pricing_plan_id":"cebpf4jnsgd1na2vs0mg"},{"bike_id":"af92115d-6f7a-49ce-a65e-77f9182df835","system_id":"levelo_inurba_marseille","lat":43.21761,"lon":5.34584,"is_reserved":false,"is_disabled":true,"rental_uris":{"android":"levelo://app?vid=af92115d-6f7a-49ce-a65e-77f9182df835","ios":"levelo://app?vid=af92115d-6f7a-49ce-a65e-77f9182df835"},"vehicle_type_id":"4","last_reported":1758201617,"current_range_meters":22000,"station_id":"st_cvj6r9ubvosntc0bgbag","pricing_plan_id":"cebpf4jnsgd1na2vs0mg"},{"bike_id":"dac76908-fe5f-405c-b0cb-3ecaf7a2a18c","system_id":"levelo_inurba_marseille","lat":43.29602,"lon":5.38086,"is_reserved":false,"is_disabled":false,"rental_uris":{"android":"levelo://app?vid=dac76908-fe5f-405c-b0cb-3ecaf7a2a18c","ios":"levelo://app?vid=dac76908-fe5f-405c-b0cb-3ecaf7a2a18c"},"vehicle_type_id":"4","last_reported":1758201617,"current_range_meters":22000,"station_id":"ce4bgl12rcd13ifvqbo0","pricing_plan_id":"cebpf4jnsgd1na2vs0mg"},{"bike_id":"676728c4-3ea8-4dd5-aa61-a21c27b9eddb","system_id":"levelo_inurba_marseille","lat":43.23189,"lon":5.3997,"is_reserved":false,"is_disabled":false,"rental_uris":{"android":"levelo://app?vid=676728c4-3ea8-4dd5-aa61-a21c27b9eddb","ios":"levelo://app?vid=676728c4-3ea8-4dd5-aa61-a21c27b9eddb"},"vehicle_type_id":"4","last_reported":1758201617,"current_range_meters":22000,"station_id":"ce4bhn12rcd13ifvqgqg","pricing_plan_id":"cebpf4jnsgd1na2vs0mg"},{"bike_id":"7492f4a9-a857-4b04-bfab-3845b1754b8c","system_id":"levelo_inurba_marseille","lat":43.2849,"lon":5.38416,"is_reserved":false,"is_disabled":false,"rental_uris":{"android":"levelo://app?vid=7492f4a9-a857-4b04-bfab-3845b1754b8c","ios":"levelo://app?vid=7492f4a9-a857-4b04-bfab-3845b1754b8c"},"vehicle_type_id":"4","last_reported":1758201617,"current_range_meters":22000,"station_id":"ce4bh512rcd13ifvqe3g","pricing_plan_id":"cebpf4jnsgd1na2vs0mg"},{"bike_id":"2a9f54ac-1c3f-4d70-ae1d-384402687328","system_id":"levelo_inurba_marseille","lat":43.281548,"lon":5.426416,"is_reserved":false,"is_disabled":false,"rental_uris":{"android":"levelo://app?vid=2a9f54ac-1c3f-4d70-ae1d-384402687328","ios":"levelo://app?vid=2a9f54ac-1c3f-4d70-ae1d-384402687328"},"vehicle_type_id":"4","last_reported":1758201617,"current_range_meters":22000,"station_id":"ce4bhnh2rcd13ifvqgug","pricing_plan_id":"cebpf4jnsgd1na2vs0mg"},{"bike_id":"a510fbda-8195-45bc-af42-8419297ccf5c","system_id":"levelo_inurba_marseille","lat":43.32367,"lon":5.38878,"is_reserved":false,"is_disabled":false,"rental_uris":{"android":"levelo://app?vid=a510fbda-8195-45bc-af42-8419297ccf5c","ios":"levelo://app?vid=a510fbda-8195-45bc-af42-8419297ccf5c"},"vehicle_type_id":"4","last_reported":1758201617,"current_range_meters":22000,"station_id":"ce4bhqp2rcd13ifvqhog","pricing_plan_id":"cebpf4jnsgd1na2vs0mg"},{"bike_id":"cb753e8b-9f88-4cfc-950d-b9fd710490b5","system_id":"levelo_inurba_marseille","lat":43.26208,"lon":5.40434,"is_reserved":false,"is_disabled":false,"rental_uris":{"android":"levelo://app?vid=cb753e8b-9f88-4cfc-950d-b9fd710490b5","ios":"levelo://app?vid=cb753e8b-9f88-4cfc-950d-b9fd710490b5"},"vehicle_type_id":"4","last_reported":1758201617,"current_range_meters":22000,"station_id":"ce4bhmh2rcd13ifvqgmg","pricing_plan_id":"cebpf4jnsgd1na2vs0mg"},{"bike_id":"77220845-d4da-4dd0-af51-3f9c65c54509","system_id":"levelo_inurba_marseille","lat":43.21752,"lon":5.34611,"is_reserved":false,"is_disabled":false,"rental_uris":{"android":"levelo://app?vid=77220845-d4da-4dd0-af51-3f9c65c54509","ios":"levelo://app?vid=77220845-d4da-4dd0-af51-3f9c65c54509"},"vehicle_type_id":"4","last_reported":1758201617,"current_range_meters":22400,"station_id":"","pricing_plan_id":"cebpf4jnsgd1na2vs0mg"},{"bike_id":"91e60354-037b-433a-ba6f-78e51f2c6de5","system_id":"levelo_inurba_marseille","lat":43.29957,"lon":5.4132,"is_reserved":false,"is_disabled":false,"rental_uris":{"android":"levelo://app?vid=91e60354-037b-433a-ba6f-78e51f2c6de5","ios":"levelo://app?vid=91e60354-037b-433a-ba6f-78e51f2c6de5"},"vehicle_type_id":"4","last_reported":1758201617,"current_range_meters":22400,"station_id":"ce4bhp12rcd13ifvqh9g","pricing_plan_id":"cebpf4jnsgd1na2vs0mg"},{"bike_id":"e1054e14-fa29-4043-9d58-775f973de809","system_id":"levelo_inurba_marseille","lat":43.23955,"lon":5.36631,"is_reserved":false,"is_disabled":false,"rental_uris":{"android":"levelo://app?vid=e1054e14-fa29-4043-9d58-775f973de809","ios":"levelo://app?vid=e1054e14-fa29-4043-9d58-775f973de809"},"vehicle_type_id":"4","last_reported":1758201617,"current_range_meters":22400,"station_id":"ce4bhi12rcd13ifvqfp0","pricing_plan_id":"cebpf4jnsgd1na2vs0mg"},{"bike_id":"3d158a28-bece-4b10-9f82-ab3eb3313408","system_id":"levelo_inurba_marseille","lat":43.337485,"lon":5.374512,"is_reserved":false,"is_disabled":false,"rental_uris":{"android":"levelo://app?vid=3d158a28-bece-4b10-9f82-ab3eb3313408","ios":"levelo://app?vid=3d158a28-bece-4b10-9f82-ab3eb3313408"},"vehicle_type_id":"4","last_reported":1758201617,"current_range_meters":22400,"station_id":"","pricing_plan_id":"cebpf4jnsgd1na2vs0mg"},{"bike_id":"5613f75e-13dd-421b-b027-149ea8b149c7","system_id":"levelo_inurba_marseille","lat":43.24622,"lon":5.43155,"is_reserved":false,"is_disabled":false,"rental_uris":{"android":"levelo://app?vid=5613f75e-13dd-421b-b027-149ea8b149c7","ios":"levelo://app?vid=5613f75e-13dd-421b-b027-149ea8b149c7"},"vehicle_type_id":"4","last_reported":1758201617,"current_range_meters":22400,"station_id":"st_d2m6c4gdas8pm72e190g","pricing_plan_id":"cebpf4jnsgd1na2vs0mg"},{"bike_id":"a8e2cfd7-9242-409b-bc55-7224082bbb9f","system_id":"levelo_inurba_marseille","lat":43.28421,"lon":5.34989,"is_reserved":false,"is_disabled":false,"rental_uris":{"android":"levelo://app?vid=a8e2cfd7-9242-409b-bc55-7224082bbb9f","ios":"levelo://app?vid=a8e2cfd7-9242-409b-bc55-7224082bbb9f"},"vehicle_type_id":"4","last_reported":1758201617,"current_range_meters":22800,"station_id":"ce4bhbh2rcd13ifvqepg","pricing_plan_id":"cebpf4jnsgd1na2vs0mg"},{"bike_id":"b810ec46-97ab-4356-95f9-0c9d02506d5a","system_id":"levelo_inurba_marseille","lat":43.24458,"lon":5.39039,"is_reserved":false,"is_disabled":false,"rental_uris":{"android":"levelo://app?vid=b810ec46-97ab-4356-95f9-0c9d02506d5a","ios":"levelo://app?vid=b810ec46-97ab-4356-95f9-0c9d02506d5a"},"vehicle_type_id":"4","last_reported":1758201617,"current_range_meters":22800,"station_id":"","pricing_plan_id":"cebpf4jnsgd1na2vs0mg"},{"bike_id":"ec7d9190-8df9-4b0e-ac8e-d479d6f8d1d6","system_id":"levelo_inurba_marseille","lat":43.23969,"lon":5.36618,"is_reserved":false,"is_disabled":false,"rental_uris":{"android":"levelo://app?vid=ec7d9190-8df9-4b0e-ac8e-d479d6f8d1d6","ios":"levelo://app?vid=ec7d9190-8df9-4b0e-ac8e-d479d6f8d1d6"},"vehicle_type_id":"4","last_reported":1758201617,"current_range_meters":22800,"station_id":"ce4bhi12rcd13ifvqfp0","pricing_plan_id":"cebpf4jnsgd1na2vs0mg"},{"bike_id":"95d962d9-cb2b-4eb0-9057-df7f94fd1747","system_id":"levelo_inurba_marseille","lat":43.25953,"lon":5.4089,"is_reserved":false,"is_disabled":false,"rental_uris":{"android":"levelo://app?vid=95d962d9-cb2b-4eb0-9057-df7f94fd1747","ios":"levelo://app?vid=95d962d9-cb2b-4eb0-9057-df7f94fd1747"},"vehicle_type_id":"4","last_reported":1758201617,"current_range_meters":22800,"station_id":"ce4bhm92rcd13ifvqglg","pricing_plan_id":"cebpf4jnsgd1na2vs0mg"},{"bike_id":"af0490b6-c1c9-4895-8a15-568d23e0a730","system_id":"levelo_inurba_marseille","lat":43.28074,"lon":5.40785,"is_reserved":false,"is_disabled":false,"rental_uris":{"android":"levelo://app?vid=af0490b6-c1c9-4895-8a15-568d23e0a730","ios":"levelo://app?vid=af0490b6-c1c9-4895-8a15-568d23e0a730"},"vehicle_type_id":"4","last_reported":1758201617,"current_range_meters":22800,"station_id":"","pricing_plan_id":"cebpf4jnsgd1na2vs0mg"},{"bike_id":"fa04fbd4-83e8-40b3-968d-fa7925a28ab2","system_id":"levelo_inurba_marseille","lat":43.225335,"lon":5.348288,"is_reserved":false,"is_disabled":false,"rental_uris":{"android":"levelo://app?vid=fa04fbd4-83e8-40b3-968d-fa7925a28ab2","ios":"levelo://app?vid=fa04fbd4-83e8-40b3-968d-fa7925a28ab2"},"vehicle_type_id":"4","last_reported":1758201617,"current_range_meters":22800,"station_id":"","pricing_plan_id":"cebpf4jnsgd1na2vs0mg"},{"bike_id":"67df8158-2909-41b3-8de5-88ec92603a08","system_id":"levelo_inurba_marseille","lat":43.293422,"lon":5.377594,"is_reserved":false,"is_disabled":false,"rental_uris":{"android":"levelo://app?vid=67df8158-2909-41b3-8de5-88ec92603a08","ios":"levelo://app?vid=67df8158-2909-41b3-8de5-88ec92603a08"},"vehicle_type_id":"4","last_reported":1758201617,"current_range_meters":22800,"station_id":"","pricing_plan_id":"cebpf4jnsgd1na2vs0mg"},{"bike_id":"ca6cfb19-1dc3-4908-b50d-fcb1e1ef8339","system_id":"levelo_inurba_marseille","lat":43.2737,"lon":5.36241,"is_reserved":false,"is_disabled":false,"rental_uris":{"android":"levelo://app?vid=ca6cfb19-1dc3-4908-b50d-fcb1e1ef8339","ios":"levelo://app?vid=ca6cfb19-1dc3-4908-b50d-fcb1e1ef8339"},"vehicle_type_id":"4","last_reported":1758201617,"current_range_meters":22800,"station_id":"ce4bhbh2rcd13ifvqeo0","pricing_plan_id":"cebpf4jnsgd1na2vs0mg"},{"bike_id":"0dba9f84-481c-48f4-8d71-9018dbb589a6","system_id":"levelo_inurba_marseille","lat":43.2178,"lon":5.34581,"is_reserved":false,"is_disabled":false,"rental_uris":{"android":"levelo://app?vid=0dba9f84-481c-48f4-8d71-9018dbb589a6","ios":"levelo://app?vid=0dba9f84-481c-48f4-8d71-9018dbb589a6"},"vehicle_type_id":"4","last_reported":1758201617,"current_range_meters":22800,"station_id":"st_cvj6r9ubvosntc0bgbag","pricing_plan_id":"cebpf4jnsgd1na2vs0mg"},{"bike_id":"896dd1c3-04a9-4a7f-b718-679b20108b7e","system_id":"levelo_inurba_marseille","lat":43.26559,"lon":5.37281,"is_reserved":false,"is_disabled":false,"rental_uris":{"android":"levelo://app?vid=896dd1c3-04a9-4a7f-b718-679b20108b7e","ios":"levelo://app?vid=896dd1c3-04a9-4a7f-b718-679b20108b7e"},"vehicle_type_id":"4","last_reported":1758201617,"current_range_meters":22800,"station_id":"ce4bhg12rcd13ifvqf70","pricing_plan_id":"cebpf4jnsgd1na2vs0mg"},{"bike_id":"41edc239-8ee9-4264-9988-3429ae6623fb","system_id":"levelo_inurba_marseille","lat":43.30884,"lon":5.39659,"is_reserved":false,"is_disabled":false,"rental_uris":{"android":"levelo://app?vid=41edc239-8ee9-4264-9988-3429ae6623fb","ios":"levelo://app?vid=41edc239-8ee9-4264-9988-3429ae6623fb"},"vehicle_type_id":"4","last_reported":1758201617,"current_range_meters":22800,"station_id":"ce4bh012rcd13ifvqcv0","pricing_plan_id":"cebpf4jnsgd1na2vs0mg"},{"bike_id":"f064ef76-aaab-4fb8-8b22-f78b6bf45c94","system_id":"levelo_inurba_marseille","lat":43.28255,"lon":5.35073,"is_reserved":false,"is_disabled":false,"rental_uris":{"android":"levelo://app?vid=f064ef76-aaab-4fb8-8b22-f78b6bf45c94","ios":"levelo://app?vid=f064ef76-aaab-4fb8-8b22-f78b6bf45c94"},"vehicle_type_id":"4","last_reported":1758201617,"current_range_meters":22800,"station_id":"ce4bhbp2rcd13ifvqerg","pricing_plan_id":"cebpf4jnsgd1na2vs0mg"},{"bike_id":"da191e8b-5c05-41fb-9dc1-d0f7a77cc2ac","system_id":"levelo_inurba_marseille","lat":43.23961,"lon":5.36639,"is_reserved":false,"is_disabled":false,"rental_uris":{"android":"levelo://app?vid=da191e8b-5c05-41fb-9dc1-d0f7a77cc2ac","ios":"levelo://app?vid=da191e8b-5c05-41fb-9dc1-d0f7a77cc2ac"},"vehicle_type_id":"4","last_reported":1758201617,"current_range_meters":22800,"station_id":"ce4bhi12rcd13ifvqfp0","pricing_plan_id":"cebpf4jnsgd1na2vs0mg"},{"bike_id":"57e3f949-fa06-40f0-8200-4d19e6e988da","system_id":"levelo_inurba_marseille","lat":43.25959,"lon":5.40887,"is_reserved":false,"is_disabled":false,"rental_uris":{"android":"levelo://app?vid=57e3f949-fa06-40f0-8200-4d19e6e988da","ios":"levelo://app?vid=57e3f949-fa06-40f0-8200-4d19e6e988da"},"vehicle_type_id":"4","last_reported":1758201617,"current_range_meters":22800,"station_id":"ce4bhm92rcd13ifvqglg","pricing_plan_id":"cebpf4jnsgd1na2vs0mg"},{"bike_id":"b7170a85-b8a7-4ac0-93bb-8ce921ee0ef4","system_id":"levelo_inurba_marseille","lat":43.23151,"lon":5.43714,"is_reserved":false,"is_disabled":false,"rental_uris":{"android":"levelo://app?vid=b7170a85-b8a7-4ac0-93bb-8ce921ee0ef4","ios":"levelo://app?vid=b7170a85-b8a7-4ac0-93bb-8ce921ee0ef4"},"vehicle_type_id":"4","last_reported":1758201617,"current_range_meters":22800,"station_id":"ce4bhmp2rcd13ifvqgog","pricing_plan_id":"cebpf4jnsgd1na2vs0mg"},{"bike_id":"fb6f7bea-8df6-4988-a21b-2ba64c9b85f8","system_id":"levelo_inurba_marseille","lat":43.23158,"lon":5.43691,"is_reserved":false,"is_disabled":false,"rental_uris":{"android":"levelo://app?vid=fb6f7bea-8df6-4988-a21b-2ba64c9b85f8","ios":"levelo://app?vid=fb6f7bea-8df6-4988-a21b-2ba64c9b85f8"},"vehicle_type_id":"4","last_reported":1758201617,"current_range_meters":23200,"station_id":"ce4bhmp2rcd13ifvqgog","pricing_plan_id":"cebpf4jnsgd1na2vs0mg"},{"bike_id":"0f7caa9f-1d1a-40d7-9b4a-2f8720e63681","system_id":"levelo_inurba_marseille","lat":43.30874,"lon":5.37531,"is_reserved":false,"is_disabled":false,"rental_uris":{"android":"levelo://app?vid=0f7caa9f-1d1a-40d7-9b4a-2f8720e63681","ios":"levelo://app?vid=0f7caa9f-1d1a-40d7-9b4a-2f8720e63681"},"vehicle_type_id":"4","last_reported":1758201617,"current_range_meters":23200,"station_id":"","pricing_plan_id":"cebpf4jnsgd1na2vs0mg"},{"bike_id":"dcb28453-9e69-4332-a131-11b8454a7683","system_id":"levelo_inurba_marseille","lat":43.25738,"lon":5.38319,"is_reserved":false,"is_disabled":false,"rental_uris":{"android":"levelo://app?vid=dcb28453-9e69-4332-a131-11b8454a7683","ios":"levelo://app?vid=dcb28453-9e69-4332-a131-11b8454a7683"},"vehicle_type_id":"4","last_reported":1758201617,"current_range_meters":23200,"station_id":"ce4bhih2rcd13ifvqfs0","pricing_plan_id":"cebpf4jnsgd1na2vs0mg"},{"bike_id":"791f6368-61ad-46f9-9953-7d6f9ead0877","system_id":"levelo_inurba_marseille","lat":43.28345,"lon":5.38095,"is_reserved":false,"is_disabled":false,"rental_uris":{"android":"levelo://app?vid=791f6368-61ad-46f9-9953-7d6f9ead0877","ios":"levelo://app?vid=791f6368-61ad-46f9-9953-7d6f9ead0877"},"vehicle_type_id":"4","last_reported":1758201617,"current_range_meters":23200,"station_id":"ce4bh412rcd13ifvqdr0","pricing_plan_id":"cebpf4jnsgd1na2vs0mg"},{"bike_id":"830b9b55-b582-49a9-8acf-457ace5fb670","system_id":"levelo_inurba_marseille","lat":43.22556,"lon":5.41621,"is_reserved":false,"is_disabled":false,"rental_uris":{"android":"levelo://app?vid=830b9b55-b582-49a9-8acf-457ace5fb670","ios":"levelo://app?vid=830b9b55-b582-49a9-8acf-457ace5fb670"},"vehicle_type_id":"4","last_reported":1758201617,"current_range_meters":23200,"station_id":"st_d2o4gvlbi1j2169b742g","pricing_plan_id":"cebpf4jnsgd1na2vs0mg"},{"bike_id":"a07a513e-e5a9-4481-8592-d991379bc662","system_id":"levelo_inurba_marseille","lat":43.337536,"lon":5.374536,"is_reserved":false,"is_disabled":false,"rental_uris":{"android":"levelo://app?vid=a07a513e-e5a9-4481-8592-d991379bc662","ios":"levelo://app?vid=a07a513e-e5a9-4481-8592-d991379bc662"},"vehicle_type_id":"4","last_reported":1758201617,"current_range_meters":23200,"station_id":"","pricing_plan_id":"cebpf4jnsgd1na2vs0mg"},{"bike_id":"2c734c36-442f-468e-ab47-e34ad5183e32","system_id":"levelo_inurba_marseille","lat":43.25772,"lon":5.41047,"is_reserved":false,"is_disabled":false,"rental_uris":{"android":"levelo://app?vid=2c734c36-442f-468e-ab47-e34ad5183e32","ios":"levelo://app?vid=2c734c36-442f-468e-ab47-e34ad5183e32"},"vehicle_type_id":"4","last_reported":1758201617,"current_range_meters":24000,"station_id":"","pricing_plan_id":"cebpf4jnsgd1na2vs0mg"},{"bike_id":"34c637cb-e7ca-4009-8d57-10268b7bf6f2","system_id":"levelo_inurba_marseille","lat":43.25942,"lon":5.40892,"is_reserved":false,"is_disabled":false,"rental_uris":{"android":"levelo://app?vid=34c637cb-e7ca-4009-8d57-10268b7bf6f2","ios":"levelo://app?vid=34c637cb-e7ca-4009-8d57-10268b7bf6f2"},"vehicle_type_id":"4","last_reported":1758201617,"current_range_meters":24000,"station_id":"ce4bhm92rcd13ifvqglg","pricing_plan_id":"cebpf4jnsgd1na2vs0mg"},{"bike_id":"a0826990-c8da-4478-b081-3c0239354bc0","system_id":"levelo_inurba_marseille","lat":43.28548,"lon":5.37871,"is_reserved":false,"is_disabled":false,"rental_uris":{"android":"levelo://app?vid=a0826990-c8da-4478-b081-3c0239354bc0","ios":"levelo://app?vid=a0826990-c8da-4478-b081-3c0239354bc0"},"vehicle_type_id":"4","last_reported":1758201617,"current_range_meters":24000,"station_id":"","pricing_plan_id":"cebpf4jnsgd1na2vs0mg"},{"bike_id":"e9c0f037-82e0-444d-8d16-a0a0f4bb0e35","system_id":"levelo_inurba_marseille","lat":43.286058,"lon":5.350974,"is_reserved":false,"is_disabled":false,"rental_uris":{"android":"levelo://app?vid=e9c0f037-82e0-444d-8d16-a0a0f4bb0e35","ios":"levelo://app?vid=e9c0f037-82e0-444d-8d16-a0a0f4bb0e35"},"vehicle_type_id":"4","last_reported":1758201617,"current_range_meters":24000,"station_id":"ce4bhch2rcd13ifvqeug","pricing_plan_id":"cebpf4jnsgd1na2vs0mg"},{"bike_id":"04fe8761-1984-494f-878f-3f986e5dcfbd","system_id":"levelo_inurba_marseille","lat":43.26687,"lon":5.38278,"is_reserved":false,"is_disabled":false,"rental_uris":{"android":"levelo://app?vid=04fe8761-1984-494f-878f-3f986e5dcfbd","ios":"levelo://app?vid=04fe8761-1984-494f-878f-3f986e5dcfbd"},"vehicle_type_id":"4","last_reported":1758201617,"current_range_meters":24000,"station_id":"ce4bhg92rcd13ifvqf90","pricing_plan_id":"cebpf4jnsgd1na2vs0mg"},{"bike_id":"3edab8b5-08ab-4bd7-a8e3-46e14fec2b69","system_id":"levelo_inurba_marseille","lat":43.22578,"lon":5.41608,"is_reserved":false,"is_disabled":false,"rental_uris":{"android":"levelo://app?vid=3edab8b5-08ab-4bd7-a8e3-46e14fec2b69","ios":"levelo://app?vid=3edab8b5-08ab-4bd7-a8e3-46e14fec2b69"},"vehicle_type_id":"4","last_reported":1758201617,"current_range_meters":24000,"station_id":"st_d2o4gvlbi1j2169b742g","pricing_plan_id":"cebpf4jnsgd1na2vs0mg"},{"bike_id":"d2b38218-656a-4870-889e-73583afebab8","system_id":"levelo_inurba_marseille","lat":43.25001,"lon":5.38922,"is_reserved":false,"is_disabled":false,"rental_uris":{"android":"levelo://app?vid=d2b38218-656a-4870-889e-73583afebab8","ios":"levelo://app?vid=d2b38218-656a-4870-889e-73583afebab8"},"vehicle_type_id":"4","last_reported":1758201617,"current_range_meters":24000,"station_id":"ce4bhgp2rcd13ifvqfd0","pricing_plan_id":"cebpf4jnsgd1na2vs0mg"},{"bike_id":"3f98372d-966b-4be5-b963-e50daced0389","system_id":"levelo_inurba_marseille","lat":43.25497,"lon":5.37651,"is_reserved":false,"is_disabled":false,"rental_uris":{"android":"levelo://app?vid=3f98372d-966b-4be5-b963-e50daced0389","ios":"levelo://app?vid=3f98372d-966b-4be5-b963-e50daced0389"},"vehicle_type_id":"4","last_reported":1758201617,"current_range_meters":24000,"station_id":"ce4bhh12rcd13ifvqff0","pricing_plan_id":"cebpf4jnsgd1na2vs0mg"},