{"last_updated":1733152209,"ttl":60,"version":"2.2","data":{"bikes":[{"bike_id":"533de48b-2d5c-497c-9eba-967eca245d1e","system_id":"levelo_inurba_marseille","lat":43.29312,"lon":5.37467,"is_reserved":false,"is_disabled":false,"rental_uris":{"android":"levelo://app?vid=533de48b-2d5c-497c-9eba-967eca245d1e","ios":"levelo://app?vid=533de48b-2d5c-497c-9eba-967eca245d1e"},"vehicle_type_id":"4","last_reported":1733152209,"current_range_meters":25200,"station_id":"ce4bgi12rcd13ifvqb70","pricing_plan_id":"cebpf4jnsgd1na2vs0mg"},{"bike_id":"7331fb02-9deb-4c6d-b8a0-c2bda223d540","system_id":"levelo_inurba_marseille","lat":43.29551,"lon":5.4228,"is_reserved":false,"is_disabled":false,"rental_uris":{"android":"levelo://app?vid=7331fb02-9deb-4c6d-b8a0-c2bda223d540","ios":"levelo://app?vid=7331fb02-9deb-4c6d-b8a0-c2bda223d540"},"vehicle_type_id":"4","last_reported":1733152209,"current_range_meters":22000,"station_id":"ce4bhph2rcd13ifvqhdg","pricing_plan_id":"cebpf4jnsgd1na2vs0mg"},{"bike_id":"6daf0f72-dd53-436c-b06b-3f28914acbee","system_id":"levelo_inurba_marseille","lat":43.30152,"lon":5.38102,"is_reserved":false,"is_disabled":true,"rental_uris":{"android":"levelo://app?vid=6daf0f72-dd53-436c-b06b-3f28914acbee","ios":"levelo://app?vid=6daf0f72-dd53-436c-b06b-3f28914acbee"},"vehicle_type_id":"4","last_reported":1733152209,"current_range_meters":0,"station_id":"ce4bgjp2rcd13ifvqbh0","pricing_plan_id":"cebpf4jnsgd1na2vs0mg"},{"bike_id":"df479c2c-35ac-44ad-b9d6-81c89ed769ce","system_id":"levelo_inurba_marseille","lat":43.29683,"lon":5.37075,"is_reserved":false,"is_disabled":true,"rental_uris":{"android":"levelo://app?vid=df479c2c-35ac-44ad-b9d6-81c89ed769ce","ios":"levelo://app?vid=df479c2c-35ac-44ad-b9d6-81c89ed769ce"},"vehicle_type_id":"4","last_reported":1733152209,"current_range_meters":0,"station_id":"","pricing_plan_id":"cebpf4jnsgd1na2vs0mg"},{"bike_id":"8e029eaf-e104-4c5d-858d-6cd39de73d09","system_id":"levelo_inurba_marseille","lat":43.24171,"lon":5.364,"is_reserved":false,"is_disabled":false,"rental_uris":{"android":"levelo://app?vid=8e029eaf-e104-4c5d-858d-6cd39de73d09","ios":"levelo://app?vid=8e029eaf-e104-4c5d-858d-6cd39de73d09"},"vehicle_type_id":"4","last_reported":1733152209,"current_range_meters":20400,"station_id":"cpo36qri1sfpv3e86is0","pricing_plan_id":"cebpf4jnsgd1na2vs0mg"},{"bike_id":"b50bdd49-511c-41d8-aa75-068657fa8c47","system_id":"levelo_inurba_marseille","lat":43.31802,"lon":5.3901,"is_reserved":false,"is_disabled":false,"rental_uris":{"android":"levelo://app?vid=b50bdd49-511c-41d8-aa75-068657fa8c47","ios":"levelo://app?vid=b50bdd49-511c-41d8-aa75-068657fa8c47"},"vehicle_type_id":"4","last_reported":1733152209,"current_range_meters":12000,"station_id":"","pricing_plan_id":"cebpf4jnsgd1na2vs0mg"},{"bike_id":"bd8cd1c7-abef-42cd-bb74-c23362a9f370","system_id":"levelo_inurba_marseille","lat":43.29419,"lon":5.38614,"is_reserved":false,"is_disabled":true,"rental_uris":{"android":"levelo://app?vid=bd8cd1c7-abef-42cd-bb74-c23362a9f370","ios":"levelo://app?vid=bd8cd1c7-abef-42cd-bb74-c23362a9f370"},"vehicle_type_id":"4","last_reported":1733152209,"current_range_meters":23200,"station_id":"ce4bh2h2rcd13ifvqdh0","pricing_plan_id":"cebpf4jnsgd1na2vs0mg"},{"bike_id":"d3612682-fdc9-4acd-bdd6-cf2df010db06","system_id":"levelo_inurba_marseille","lat":43.29259,"lon":5.40909,"is_reserved":false,"is_disabled":false,"rental_uris":{"android":"levelo://app?vid=d3612682-fdc9-4acd-bdd6-cf2df010db06","ios":"levelo://app?vid=d3612682-fdc9-4acd-bdd6-cf2df010db06"},"vehicle_type_id":"4","last_reported":1733152209,"current_range_meters":23200,"station_id":"ce4bh192rcd13ifvqdc0","pricing_plan_id":"cebpf4jnsgd1na2vs0mg"},{"bike_id":"1423466d-a670-4d53-a135-0b4a460f0b7e","system_id":"levelo_inurba_marseille","lat":43.27619,"lon":5.36109,"is_reserved":false,"is_disabled":false,"rental_uris":{"android":"levelo://app?vid=1423466d-a670-4d53-a135-0b4a460f0b7e","ios":"levelo://app?vid=1423466d-a670-4d53-a135-0b4a460f0b7e"},"vehicle_type_id":"4","last_reported":1733152209,"current_range_meters":12800,"station_id":"ce4bgj92rcd13ifvqbe0","pricing_plan_id":"cebpf4jnsgd1na2vs0mg"},{"bike_id":"00a8fd9a-bf34-4323-84fd-f66d6465bc47","system_id":"levelo_inurba_marseille","lat":43.32661,"lon":5.40989,"is_reserved":false,"is_disabled":false,"rental_uris":{"android":"levelo://app?vid=00a8fd9a-bf34-4323-84fd-f66d6465bc47","ios":"levelo://app?vid=00a8fd9a-bf34-4323-84fd-f66d6465bc47"},"vehicle_type_id":"4","last_reported":1733152209,"current_range_meters":36800,"station_id":"ce4bhpp2rcd13ifvqhgg","pricing_plan_id":"cebpf4jnsgd1na2vs0mg"},{"bike_id":"08b3a2fc-7906-4067-99f0-5f916ea6cd75","system_id":"levelo_inurba_marseille","lat":43.30457,"lon":5.37906,"is_reserved":false,"is_disabled":true,"rental_uris":{"android":"levelo://app?vid=08b3a2fc-7906-4067-99f0-5f916ea6cd75","ios":"levelo://app?vid=08b3a2fc-7906-4067-99f0-5f916ea6cd75"},"vehicle_type_id":"4","last_reported":1733152209,"current_range_meters":0,"station_id":"ce4bgup2rcd13ifvqcn0","pricing_plan_id":"cebpf4jnsgd1na2vs0mg"},{"bike_id":"e94b6b29-2b45-4585-b673-8a225e602ce0","system_id":"levelo_inurba_marseille","lat":43.30884,"lon":5.39654,"is_reserved":false,"is_disabled":false,"rental_uris":{"android":"levelo://app?vid=e94b6b29-2b45-4585-b673-8a225e602ce0","ios":"levelo://app?vid=e94b6b29-2b45-4585-b673-8a225e602ce0"},"vehicle_type_id":"4","last_reported":1733152209,"current_range_meters":33200,"station_id":"ce4bh012rcd13ifvqcv0","pricing_plan_id":"cebpf4jnsgd1na2vs0mg"},{"bike_id":"b81226b0-d7dc-4213-8de7-ddec7d23b0a8","system_id":"levelo_inurba_marseille","lat":43.28446,"lon":5.39204,"is_reserved":false,"is_disabled":false,"rental_uris":{"android":"levelo://app?vid=b81226b0-d7dc-4213-8de7-ddec7d23b0a8","ios":"levelo://app?vid=b81226b0-d7dc-4213-8de7-ddec7d23b0a8"},"vehicle_type_id":"4","last_reported":1733152209,"current_range_meters":35200,"station_id":"ce4bhoh2rcd13ifvqh5g","pricing_plan_id":"cebpf4jnsgd1na2vs0mg"},{"bike_id":"8bd642b2-0279-44c7-9ee2-fc3b57332c83","system_id":"levelo_inurba_marseille","lat":43.27455,"lon":5.40073,"is_reserved":false,"is_disabled":true,"rental_uris":{"android":"levelo://app?vid=8bd642b2-0279-44c7-9ee2-fc3b57332c83","ios":"levelo://app?vid=8bd642b2-0279-44c7-9ee2-fc3b57332c83"},"vehicle_type_id":"4","last_reported":1733152209,"current_range_meters":0,"station_id":"","pricing_plan_id":"cebpf4jnsgd1na2vs0mg"},{"bike_id":"f8d1cbf9-cfbb-4836-98b9-df8242e0ed9a","system_id":"levelo_inurba_marseille","lat":43.30536,"lon":5.36688,"is_reserved":false,"is_disabled":false,"rental_uris":{"android":"levelo://app?vid=f8d1cbf9-cfbb-4836-98b9-df8242e0ed9a","ios":"levelo://app?vid=f8d1cbf9-cfbb-4836-98b9-df8242e0ed9a"},"vehicle_type_id":"4","last_reported":1733152209,"current_range_meters":38800,"station_id":"ce4bgrp2rcd13ifvqc9g","pricing_plan_id":"cebpf4jnsgd1na2vs0mg"},{"bike_id":"08e6e41d-88aa-4cfe-a22f-c7b5bb5aecee","system_id":"levelo_inurba_marseille","lat":43.2985,"lon":5.36262,"is_reserved":false,"is_disabled":false,"rental_uris":{"android":"levelo://app?vid=08e6e41d-88aa-4cfe-a22f-c7b5bb5aecee","ios":"levelo://app?vid=08e6e41d-88aa-4cfe-a22f-c7b5bb5aecee"},"vehicle_type_id":"4","last_reported":1733152209,"current_range_meters":17600,"station_id":"ce4bgpp2rcd13ifvqc3g","pricing_plan_id":"cebpf4jnsgd1na2vs0mg"},{"bike_id":"ba7f01bb-3cf9-423b-8063-d687447dd874","system_id":"levelo_inurba_marseille","lat":43.2781,"lon":5.40713,"is_reserved":false,"is_disabled":false,"rental_uris":{"android":"levelo://app?vid=ba7f01bb-3cf9-423b-8063-d687447dd874","ios":"levelo://app?vid=ba7f01bb-3cf9-423b-8063-d687447dd874"},"vehicle_type_id":"4","last_reported":1733152209,"current_range_meters":35600,"station_id":"ce4bhnh2rcd13ifvqgtg","pricing_plan_id":"cebpf4jnsgd1na2vs0mg"},{"bike_id":"36af3653-fefc-4f33-973f-45ce1eb40b3d","system_id":"levelo_inurba_marseille","lat":43.29091,"lon":5.38114,"is_reserved":false,"is_disabled":false,"rental_uris":{"android":"levelo://app?vid=36af3653-fefc-4f33-973f-45ce1eb40b3d","ios":"levelo://app?vid=36af3653-fefc-4f33-973f-45ce1eb40b3d"},"vehicle_type_id":"4","last_reported":1733152209,"current_range_meters":4400,"station_id":"ce4bh512rcd13ifvqe2g","pricing_plan_id":"cebpf4jnsgd1na2vs0mg"},{"bike_id":"b1e158e3-a513-4073-8fc1-b1b706bbc9e2","system_id":"levelo_inurba_marseille","lat":43.31363,"lon":5.36723,"is_reserved":false,"is_disabled":false,"rental_uris":{"android":"levelo://app?vid=b1e158e3-a513-4073-8fc1-b1b706bbc9e2","ios":"levelo://app?vid=b1e158e3-a513-4073-8fc1-b1b706bbc9e2"},"vehicle_type_id":"4","last_reported":1733152209,"current_range_meters":9600,"station_id":"ce4bgr92rcd13ifvqc6g","pricing_plan_id":"cebpf4jnsgd1na2vs0mg"},{"bike_id":"21e68641-b58c-4d55-8660-7170c663230e","system_id":"levelo_inurba_marseille","lat":43.29805,"lon":5.38079,"is_reserved":false,"is_disabled":false,"rental_uris":{"android":"levelo://app?vid=21e68641-b58c-4d55-8660-7170c663230e","ios":"levelo://app?vid=21e68641-b58c-4d55-8660-7170c663230e"},"vehicle_type_id":"4","last_reported":1733152209,"current_range_meters":6000,"station_id":"ce4bgip2rcd13ifvqbb0","pricing_plan_id":"cebpf4jnsgd1na2vs0mg"},{"bike_id":"475b0e62-d2b9-43a0-a896-2541e3d26116","system_id":"levelo_inurba_marseille","lat":43.24647,"lon":5.3889,"is_reserved":false,"is_disabled":true,"rental_uris":{"android":"levelo://app?vid=475b0e62-d2b9-43a0-a896-2541e3d26116","ios":"levelo://app?vid=475b0e62-d2b9-43a0-a896-2541e3d26116"},"vehicle_type_id":"4","last_reported":1733152209,"current_range_meters":0,"station_id":"ce4bhg12rcd13ifvqf60","pricing_plan_id":"cebpf4jnsgd1na2vs0mg"},{"bike_id":"20fac0af-1969-4132-8677-5edee2122880","system_id":"levelo_inurba_marseille","lat":43.28151,"lon":5.42646,"is_reserved":false,"is_disabled":false,"rental_uris":{"android":"levelo://app?vid=20fac0af-1969-4132-8677-5edee2122880","ios":"levelo://app?vid=20fac0af-1969-4132-8677-5edee2122880"},"vehicle_type_id":"4","last_reported":1733152209,"current_range_meters":7200,"station_id":"ce4bhnh2rcd13ifvqgug","pricing_plan_id":"cebpf4jnsgd1na2vs0mg"},{"bike_id":"b3f478ac-3b05-4edf-bdbf-76399090f8e9","system_id":"levelo_inurba_marseille","lat":43.30014,"lon":5.37637,"is_reserved":false,"is_disabled":true,"rental_uris":{"android":"levelo://app?vid=b3f478ac-3b05-4edf-bdbf-76399090f8e9","ios":"levelo://app?vid=b3f478ac-3b05-4edf-bdbf-76399090f8e9"},"vehicle_type_id":"4","last_reported":1733152209,"current_range_meters":0,"station_id":"","pricing_plan_id":"cebpf4jnsgd1na2vs0mg"},{"bike_id":"c3587c28-5435-41c6-a9b7-aa468e6b19aa","system_id":"levelo_inurba_marseille","lat":43.2975,"lon":5.37926,"is_reserved":false,"is_disabled":true,"rental_uris":{"android":"levelo://app?vid=c3587c28-5435-41c6-a9b7-aa468e6b19aa","ios":"levelo://app?vid=c3587c28-5435-41c6-a9b7-aa468e6b19aa"},"vehicle_type_id":"4","last_reported":1733152209,"current_range_meters":0,"station_id":"","pricing_plan_id":"cebpf4jnsgd1na2vs0mg"},{"bike_id":"e8d9fcd3-6c4c-4c2e-a87e-41c5e4dfa6d0","system_id":"levelo_inurba_marseille","lat":43.25438,"lon":5.38158,"is_reserved":false,"is_disabled":true,"rental_uris":{"android":"levelo://app?vid=e8d9fcd3-6c4c-4c2e-a87e-41c5e4dfa6d0","ios":"levelo://app?vid=e8d9fcd3-6c4c-4c2e-a87e-41c5e4dfa6d0"},"vehicle_type_id":"4","last_reported":1733152209,"current_range_meters":0,"station_id":"","pricing_plan_id":"cebpf4jnsgd1na2vs0mg"},{"bike_id":"9e4ed454-42e6-4088-a463-3af3d1983d77","system_id":"levelo_inurba_marseille","lat":43.2987,"lon":5.40334,"is_reserved":false,"is_disabled":true,"rental_uris":{"android":"levelo://app?vid=9e4ed454-42e6-4088-a463-3af3d1983d77","ios":"levelo://app?vid=9e4ed454-42e6-4088-a463-3af3d1983d77"},"vehicle_type_id":"4","last_reported":1733152209,"current_range_meters":0,"station_id":"","pricing_plan_id":"cebpf4jnsgd1na2vs0mg"},{"bike_id":"b3b31257-686d-44bc-a3e5-534f680952c8","system_id":"levelo_inurba_marseille","lat":43.29544,"lon":5.36773,"is_reserved":false,"is_disabled":false,"rental_uris":{"android":"levelo://app?vid=b3b31257-686d-44bc-a3e5-534f680952c8","ios":"levelo://app?vid=b3b31257-686d-44bc-a3e5-534f680952c8"},"vehicle_type_id":"4","last_reported":1733152209,"current_range_meters":34800,"station_id":"ce4bgph2rcd13ifvqc2g","pricing_plan_id":"cebpf4jnsgd1na2vs0mg"},{"bike_id":"0ae4a19d-74a4-41c1-9ea8-cff4e0517fff","system_id":"levelo_inurba_marseille","lat":43.29876,"lon":5.39731,"is_reserved":false,"is_disabled":false,"rental_uris":{"android":"levelo://app?vid=0ae4a19d-74a4-41c1-9ea8-cff4e0517fff","ios":"levelo://app?vid=0ae4a19d-74a4-41c1-9ea8-cff4e0517fff"},"vehicle_type_id":"4","last_reported":1733152209,"current_range_meters":35600,"station_id":"ce4bh0h2rcd13ifvqd50","pricing_plan_id":"cebpf4jnsgd1na2vs0mg"},{"bike_id":"063cd878-9e83-4416-9713-f7801cf0d34a","system_id":"levelo_inurba_marseille","lat":43.28282,"lon":5.35066,"is_reserved":false,"is_disabled":false,"rental_uris":{"android":"levelo://app?vid=063cd878-9e83-4416-9713-f7801cf0d34a","ios":"levelo://app?vid=063cd878-9e83-4416-9713-f7801cf0d34a"},"vehicle_type_id":"4","last_reported":1733152209,"current_range_meters":38800,"station_id":"ce4bhbp2rcd13ifvqerg","pricing_plan_id":"cebpf4jnsgd1na2vs0mg"},{"bike_id":"7c708378-09cc-4e84-85ba-193109470cbf","system_id":"levelo_inurba_marseille","lat":43.25941,"lon":5.40905,"is_reserved":false,"is_disabled":false,"rental_uris":{"android":"levelo://app?vid=7c708378-09cc-4e84-85ba-193109470cbf","ios":"levelo://app?vid=7c708378-09cc-4e84-85ba-193109470cbf"},"vehicle_type_id":"4","last_reported":1733152209,"current_range_meters":30000,"station_id":"ce4bhm92rcd13ifvqglg","pricing_plan_id":"cebpf4jnsgd1na2vs0mg"},{"bike_id":"b8ec7375-db3e-4f03-abdf-dafd0f1d56a3","system_id":"levelo_inurba_marseille","lat":43.28077,"lon":5.39662,"is_reserved":false,"is_disabled":false,"rental_uris":{"android":"levelo://app?vid=b8ec7375-db3e-4f03-abdf-dafd0f1d56a3","ios":"levelo://app?vid=b8ec7375-db3e-4f03-abdf-dafd0f1d56a3"},"vehicle_type_id":"4","last_reported":1733152209,"current_range_meters":9200,"station_id":"ce4bho12rcd13ifvqh2g","pricing_plan_id":"cebpf4jnsgd1na2vs0mg"},{"bike_id":"052a1e58-88fa-43c4-a493-9df8526488c7","system_id":"levelo_inurba_marseille","lat":43.29194,"lon":5.39312,"is_reserved":false,"is_disabled":true,"rental_uris":{"android":"levelo://app?vid=052a1e58-88fa-43c4-a493-9df8526488c7","ios":"levelo://app?vid=052a1e58-88fa-43c4-a493-9df8526488c7"},"vehicle_type_id":"4","last_reported":1733152209,"current_range_meters":12000,"station_id":"ce4bh192rcd13ifvqdd0","pricing_plan_id":"cebpf4jnsgd1na2vs0mg"},{"bike_id":"34ed7b16-e707-4c30-bb65-0c88ea055863","system_id":"levelo_inurba_marseille","lat":43.30806,"lon":5.43522,"is_reserved":false,"is_disabled":true,"rental_uris":{"android":"levelo://app?vid=34ed7b16-e707-4c30-bb65-0c88ea055863","ios":"levelo://app?vid=34ed7b16-e707-4c30-bb65-0c88ea055863"},"vehicle_type_id":"4","last_reported":1733152209,"current_range_meters":14400,"station_id":"ce4bhph2rcd13ifvqheg","pricing_plan_id":"cebpf4jnsgd1na2vs0mg"},{"bike_id":"7d1843c3-1534-4da9-994a-ad586549a50a","system_id":"levelo_inurba_marseille","lat":43.30548,"lon":5.36535,"is_reserved":false,"is_disabled":false,"rental_uris":{"android":"levelo://app?vid=7d1843c3-1534-4da9-994a-ad586549a50a","ios":"levelo://app?vid=7d1843c3-1534-4da9-994a-ad586549a50a"},"vehicle_type_id":"4","last_reported":1733152209,"current_range_meters":38800,"station_id":"ce4bgs12rcd13ifvqcag","pricing_plan_id":"cebpf4jnsgd1na2vs0mg"},{"bike_id":"6e448ef7-67c4-42a4-a06e-090b1c1ba4aa","system_id":"levelo_inurba_marseille","lat":43.29614,"lon":5.37728,"is_reserved":false,"is_disabled":false,"rental_uris":{"android":"levelo://app?vid=6e448ef7-67c4-42a4-a06e-090b1c1ba4aa","ios":"levelo://app?vid=6e448ef7-67c4-42a4-a06e-090b1c1ba4aa"},"vehicle_type_id":"4","last_reported":1733152209,"current_range_meters":38800,"station_id":"ce4bgi92rcd13ifvqb90","pricing_plan_id":"cebpf4jnsgd1na2vs0mg"},{"bike_id":"eafa3a1b-468f-431a-a326-63c26d4f8ace","system_id":"levelo_inurba_marseille","lat":43.24178,"lon":5.39724,"is_reserved":false,"is_disabled":false,"rental_uris":{"android":"levelo://app?vid=eafa3a1b-468f-431a-a326-63c26d4f8ace","ios":"levelo://app?vid=eafa3a1b-468f-431a-a326-63c26d4f8ace"},"vehicle_type_id":"4","last_reported":1733152209,"current_range_meters":36400,"station_id":"ce4bhn12rcd13ifvqgpg","pricing_plan_id":"cebpf4jnsgd1na2vs0mg"},{"bike_id":"ba87a08e-fb79-4e36-9095-7de2667010b8","system_id":"levelo_inurba_marseille","lat":43.23961,"lon":5.36647,"is_reserved":false,"is_disabled":false,"rental_uris":{"android":"levelo://app?vid=ba87a08e-fb79-4e36-9095-7de2667010b8","ios":"levelo://app?vid=ba87a08e-fb79-4e36-9095-7de2667010b8"},"vehicle_type_id":"4","last_reported":1733152209,"current_range_meters":38800,"station_id":"ce4bhi12rcd13ifvqfp0","pricing_plan_id":"cebpf4jnsgd1na2vs0mg"},{"bike_id":"77ae7d45-7231-4094-9cea-58841315cfcd","system_id":"levelo_inurba_marseille","lat":43.31764,"lon":5.39004,"is_reserved":false,"is_disabled":false,"rental_uris":{"android":"levelo://app?vid=77ae7d45-7231-4094-9cea-58841315cfcd","ios":"levelo://app?vid=77ae7d45-7231-4094-9cea-58841315cfcd"},"vehicle_type_id":"4","last_reported":1733152209,"current_range_meters":34000,"station_id":"ce4bhqp2rcd13ifvqhng","pricing_plan_id":"cebpf4jnsgd1na2vs0mg"},{"bike_id":"c21cacf7-078d-4e98-9768-b3ab64194cfe","system_id":"levelo_inurba_marseille","lat":43.29715,"lon":5.37702,"is_reserved":false,"is_disabled":false,"rental_uris":{"android":"levelo://app?vid=c21cacf7-078d-4e98-9768-b3ab64194cfe","ios":"levelo://app?vid=c21cacf7-078d-4e98-9768-b3ab64194cfe"},"vehicle_type_id":"4","last_reported":1733152209,"current_range_meters":4400,"station_id":"ce4bgkh2rcd13ifvqbl0","pricing_plan_id":"cebpf4jnsgd1na2vs0mg"},{"bike_id":"29e34376-1403-4ab2-9991-c557af49d547","system_id":"levelo_inurba_marseille","lat":43.337444,"lon":5.374475,"is_reserved":false,"is_disabled":false,"rental_uris":{"android":"levelo://app?vid=29e34376-1403-4ab2-9991-c557af49d547","ios":"levelo://app?vid=29e34376-1403-4ab2-9991-c557af49d547"},"vehicle_type_id":"4","last_reported":1733152209,"current_range_meters":39200,"station_id":"","pricing_plan_id":"cebpf4jnsgd1na2vs0mg"},{"bike_id":"1c832794-0e84-48c4-824a-273066b59290","system_id":"levelo_inurba_marseille","lat":43.26684,"lon":5.38274,"is_reserved":false,"is_disabled":true,"rental_uris":{"android":"levelo://app?vid=1c832794-0e84-48c4-824a-273066b59290","ios":"levelo://app?vid=1c832794-0e84-48c4-824a-273066b59290"},"vehicle_type_id":"4","last_reported":1733152209,"current_range_meters":30400,"station_id":"ce4bhg92rcd13ifvqf90","pricing_plan_id":"cebpf4jnsgd1na2vs0mg"},{"bike_id":"eaa73896-04a8-4ef6-a4c7-4d4e56920b82","system_id":"levelo_inurba_marseille","lat":43.29311,"lon":5.37464,"is_reserved":false,"is_disabled":true,"rental_uris":{"android":"levelo://app?vid=eaa73896-04a8-4ef6-a4c7-4d4e56920b82","ios":"levelo://app?vid=eaa73896-04a8-4ef6-a4c7-4d4e56920b82"},"vehicle_type_id":"4","last_reported":1733152209,"current_range_meters":0,"station_id":"ce4bgi12rcd13ifvqb70","pricing_plan_id":"cebpf4jnsgd1na2vs0mg"},{"bike_id":"d66223f3-82e5-48f2-be03-89072b07839a","system_id":"levelo_inurba_marseille","lat":43.29224,"lon":5.36072,"is_reserved":false,"is_disabled":false,"rental_uris":{"android":"levelo://app?vid=d66223f3-82e5-48f2-be03-89072b07839a","ios":"levelo://app?vid=d66223f3-82e5-48f2-be03-89072b07839a"},"vehicle_type_id":"4","last_reported":1733152209,"current_range_meters":36000,"station_id":"ce4bhbh2rcd13ifvqeqg","pricing_plan_id":"cebpf4jnsgd1na2vs0mg"},{"bike_id":"3b24bbb1-387d-4a9c-b304-e5e881354016","system_id":"levelo_inurba_marseille","lat":43.29302,"lon":5.37184,"is_reserved":false,"is_disabled":false,"rental_uris":{"android":"levelo://app?vid=3b24bbb1-387d-4a9c-b304-e5e881354016","ios":"levelo://app?vid=3b24bbb1-387d-4a9c-b304-e5e881354016"},"vehicle_type_id":"4","last_reported":1733152209,"current_range_meters":23200,"station_id":"ce4bgh92rcd13ifvqb40","pricing_plan_id":"cebpf4jnsgd1na2vs0mg"},{"bike_id":"749cb1cb-4d4c-4e48-bab8-f0f8d049f6fc","system_id":"levelo_inurba_marseille","lat":43.26686,"lon":5.38269,"is_reserved":false,"is_disabled":true,"rental_uris":{"android":"levelo://app?vid=749cb1cb-4d4c-4e48-bab8-f0f8d049f6fc","ios":"levelo://app?vid=749cb1cb-4d4c-4e48-bab8-f0f8d049f6fc"},"vehicle_type_id":"4","last_reported":1733152209,"current_range_meters":10800,"station_id":"ce4bhg92rcd13ifvqf90","pricing_plan_id":"cebpf4jnsgd1na2vs0mg"},{"bike_id":"68ed98af-d559-4713-8f27-a58ea254ad89","system_id":"levelo_inurba_marseille","lat":43.31201,"lon":5.36858,"is_reserved":false,"is_disabled":false,"rental_uris":{"android":"levelo://app?vid=68ed98af-d559-4713-8f27-a58ea254ad89","ios":"levelo://app?vid=68ed98af-d559-4713-8f27-a58ea254ad89"},"vehicle_type_id":"4","last_reported":1733152209,"current_range_meters":36000,"station_id":"ce4bgl92rcd13ifvqbq0","pricing_plan_id":"cebpf4jnsgd1na2vs0mg"},{"bike_id":"92c77e41-5d46-4e2c-b91b-80c06397e5ef","system_id":"levelo_inurba_marseille","lat":43.29788,"lon":5.39347,"is_reserved":false,"is_disabled":false,"rental_uris":{"android":"levelo://app?vid=92c77e41-5d46-4e2c-b91b-80c06397e5ef","ios":"levelo://app?vid=92c77e41-5d46-4e2c-b91b-80c06397e5ef"},"vehicle_type_id":"4","last_reported":1733152209,"current_range_meters":28800,"station_id":"chh1huq6cuj3fo74tm60","pricing_plan_id":"cebpf4jnsgd1na2vs0mg"},{"bike_id":"5551aff9-725d-483b-8d9d-d7ba1bcf5e86","system_id":"levelo_inurba_marseille","lat":43.2866,"lon":5.36353,"is_reserved":false,"is_disabled":false,"rental_uris":{"android":"levelo://app?vid=5551aff9-725d-483b-8d9d-d7ba1bcf5e86","ios":"levelo://app?vid=5551aff9-725d-483b-8d9d-d7ba1bcf5e86"},"vehicle_type_id":"4","last_reported":1733152209,"current_range_meters":18000,"station_id":"ce4bhah2rcd13ifvqej0","pricing_plan_id":"cebpf4jnsgd1na2vs0mg"},{"bike_id":"63e36d95-3936-4569-b75c-39595e26fc3a","system_id":"levelo_inurba_marseille","lat":43.30122,"lon":5.39854,"is_reserved":false,"is_disabled":false,"rental_uris":{"android":"levelo://app?vid=63e36d95-3936-4569-b75c-39595e26fc3a","ios":"levelo://app?vid=63e36d95-3936-4569-b75c-39595e26fc3a"},"vehicle_type_id":"4","last_reported":1733152209,"current_range_meters":38800,"station_id":"ce4bh0h2rcd13ifvqd40","pricing_plan_id":"cebpf4jnsgd1na2vs0mg"},{"bike_id":"7932e894-60e4-4259-ad2b-e25a6bbb7ae7","system_id":"levelo_inurba_marseille","lat":43.28415,"lon":5.37515,"is_reserved":false,"is_disabled":false,"rental_uris":{"android":"levelo://app?vid=7932e894-60e4-4259-ad2b-e25a6bbb7ae7","ios":"levelo://app?vid=7932e894-60e4-4259-ad2b-e25a6bbb7ae7"},"vehicle_type_id":"4","last_reported":1733152209,"current_range_meters":28000,"station_id":"ce4bh412rcd13ifvqds0","pricing_plan_id":"cebpf4jnsgd1na2vs0mg"},{"bike_id":"fb5cfc21-857d-4a5d-b7e9-dc28b4e721c6","system_id":"levelo_inurba_marseille","lat":43.28149,"lon":5.42652,"is_reserved":false,"is_disabled":false,"rental_uris":{"android":"levelo://app?vid=fb5cfc21-857d-4a5d-b7e9-dc28b4e721c6","ios":"levelo://app?vid=fb5cfc21-857d-4a5d-b7e9-dc28b4e721c6"},"vehicle_type_id":"4","last_reported":1733152209,"current_range_meters":37600,"station_id":"ce4bhnh2rcd13ifvqgug","pricing_plan_id":"cebpf4jnsgd1na2vs0mg"},{"bike_id":"6c26b0bc-0f7f-4a90-b019-435bf7dc71a5","system_id":"levelo_inurba_marseille","lat":43.31216,"lon":5.36849,"is_reserved":false,"is_disabled":false,"rental_uris":{"android":"levelo://app?vid=6c26b0bc-0f7f-4a90-b019-435bf7dc71a5","ios":"levelo://app?vid=6c26b0bc-0f7f-4a90-b019-435bf7dc71a5"},"vehicle_type_id":"4","last_reported":1733152209,"current_range_meters":33200,"station_id":"ce4bgl92rcd13ifvqbq0","pricing_plan_id":"cebpf4jnsgd1na2vs0mg"},{"bike_id":"5e8a6184-96fd-4816-ae73-caa871e6fb93","system_id":"levelo_inurba_marseille","lat":43.29166,"lon":5.37171,"is_reserved":false,"is_disabled":false,"rental_uris":{"android":"levelo://app?vid=5e8a6184-96fd-4816-ae73-caa871e6fb93","ios":"levelo://app?vid=5e8a6184-96fd-4816-ae73-caa871e6fb93"},"vehicle_type_id":"4","last_reported":1733152209,"current_range_meters":30400,"station_id":"ce4bha92rcd13ifvqeh0","pricing_plan_id":"cebpf4jnsgd1na2vs0mg"},{"bike_id":"606a6077-d9ba-437a-9fc0-56ad8db26f37","system_id":"levelo_inurba_marseille","lat":43.26036,"lon":5.3755,"is_reserved":false,"is_disabled":false,"rental_uris":{"android":"levelo://app?vid=606a6077-d9ba-437a-9fc0-56ad8db26f37","ios":"levelo://app?vid=606a6077-d9ba-437a-9fc0-56ad8db26f37"},"vehicle_type_id":"4","last_reported":1733152209,"current_range_meters":38000,"station_id":"ce4bhgh2rcd13ifvqfa0","pricing_plan_id":"cebpf4jnsgd1na2vs0mg"},{"bike_id":"ba090d2b-0c15-416f-a25b-13697caae226","system_id":"levelo_inurba_marseille","lat":43.28564,"lon":5.39502,"is_reserved":false,"is_disabled":false,"rental_uris":{"android":"levelo://app?vid=ba090d2b-0c15-416f-a25b-13697caae226","ios":"levelo://app?vid=ba090d2b-0c15-416f-a25b-13697caae226"},"vehicle_type_id":"4","last_reported":1733152209,"current_range_meters":6000,"station_id":"ce4bh292rcd13ifvqdg0","pricing_plan_id":"cebpf4jnsgd1na2vs0mg"},{"bike_id":"0b7a5d71-bb71-4b7d-8b42-0ebfc1a18067","system_id":"levelo_inurba_marseille","lat":43.26938,"lon":5.38925,"is_reserved":false,"is_disabled":true,"rental_uris":{"android":"levelo://app?vid=0b7a5d71-bb71-4b7d-8b42-0ebfc1a18067","ios":"levelo://app?vid=0b7a5d71-bb71-4b7d-8b42-0ebfc1a18067"},"vehicle_type_id":"4","last_reported":1733152209,"current_range_meters":0,"station_id":"ce4bhhh2rcd13ifvqfl0","pricing_plan_id":"cebpf4jnsgd1na2vs0mg"},{"bike_id":"24fdc168-ebb3-455e-9a84-fc7b79cc9f1c","system_id":"levelo_inurba_marseille","lat":43.29275,"lon":5.36853,"is_reserved":false,"is_disabled":true,"rental_uris":{"android":"levelo://app?vid=24fdc168-ebb3-455e-9a84-fc7b79cc9f1c","ios":"levelo://app?vid=24fdc168-ebb3-455e-9a84-fc7b79cc9f1c"},"vehicle_type_id":"4","last_reported":1733152209,"current_range_meters":26800,"station_id":"","pricing_plan_id":"cebpf4jnsgd1na2vs0mg"},{"bike_id":"4a76a161-7ab3-4304-b063-efabdf2fa44f","system_id":"levelo_inurba_marseille","lat":43.29805,"lon":5.381,"is_reserved":false,"is_disabled":false,"rental_uris":{"android":"levelo://app?vid=4a76a161-7ab3-4304-b063-efabdf2fa44f","ios":"levelo://app?vid=4a76a161-7ab3-4304-b063-efabdf2fa44f"},"vehicle_type_id":"4","last_reported":1733152209,"current_range_meters":28800,"station_id":"ce4bgip2rcd13ifvqbb0","pricing_plan_id":"cebpf4jnsgd1na2vs0mg"},{"bike_id":"ad33f6f5-9df6-4b93-8eae-1342740d4287","system_id":"levelo_inurba_marseille","lat":43.29796,"lon":5.38099,"is_reserved":false,"is_disabled":false,"rental_uris":{"android":"levelo://app?vid=ad33f6f5-9df6-4b93-8eae-1342740d4287","ios":"levelo://app?vid=ad33f6f5-9df6-4b93-8eae-1342740d4287"},"vehicle_type_id":"4","last_reported":1733152209,"current_range_meters":38800,"station_id":"ce4bgip2rcd13ifvqbb0","pricing_plan_id":"cebpf4jnsgd1na2vs0mg"},{"bike_id":"e9a6c9be-e1f4-4138-97bd-5da0e0014169","system_id":"levelo_inurba_marseille","lat":43.23965,"lon":5.3662,"is_reserved":false,"is_disabled":false,"rental_uris":{"android":"levelo://app?vid=e9a6c9be-e1f4-4138-97bd-5da0e0014169","ios":"levelo://app?vid=e9a6c9be-e1f4-4138-97bd-5da0e0014169"},"vehicle_type_id":"4","last_reported":1733152209,"current_range_meters":38000,"station_id":"ce4bhi12rcd13ifvqfp0","pricing_plan_id":"cebpf4jnsgd1na2vs0mg"},{"bike_id":"cdfe6590-4984-4014-86c8-6dd70747c27a","system_id":"levelo_inurba_marseille","lat":43.29744,"lon":5.37412,"is_reserved":false,"is_disabled":true,"rental_uris":{"android":"levelo://app?vid=cdfe6590-4984-4014-86c8-6dd70747c27a","ios":"levelo://app?vid=cdfe6590-4984-4014-86c8-6dd70747c27a"},"vehicle_type_id":"4","last_reported":1733152209,"current_range_meters":0,"station_id":"","pricing_plan_id":"cebpf4jnsgd1na2vs0mg"},{"bike_id":"05cecbbc-d928-48d6-bb9e-6db3f5e00983","system_id":"levelo_inurba_marseille","lat":43.23201,"lon":5.35548,"is_reserved":false,"is_disabled":false,"rental_uris":{"android":"levelo://app?vid=05cecbbc-d928-48d6-bb9e-6db3f5e00983","ios":"levelo://app?vid=05cecbbc-d928-48d6-bb9e-6db3f5e00983"},"vehicle_type_id":"4","last_reported":1733152209,"current_range_meters":20400,"station_id":"ce4bhu92rcd13ifvqi70","pricing_plan_id":"cebpf4jnsgd1na2vs0mg"},{"bike_id":"74957034-57b6-42dd-a96f-f856c96802e7","system_id":"levelo_inurba_marseille","lat":43.31714,"lon":5.37757,"is_reserved":false,"is_disabled":false,"rental_uris":{"android":"levelo://app?vid=74957034-57b6-42dd-a96f-f856c96802e7","ios":"levelo://app?vid=74957034-57b6-42dd-a96f-f856c96802e7"},"vehicle_type_id":"4","last_reported":1733152209,"current_range_meters":38800,"station_id":"ce4bgth2rcd13ifvqch0","pricing_plan_id":"cebpf4jnsgd1na2vs0mg"},{"bike_id":"d86832fe-f84d-4977-b89e-a545caf0eb9a","system_id":"levelo_inurba_marseille","lat":43.28665,"lon":5.36348,"is_reserved":false,"is_disabled":true,"rental_uris":{"android":"levelo://app?vid=d86832fe-f84d-4977-b89e-a545caf0eb9a","ios":"levelo://app?vid=d86832fe-f84d-4977-b89e-a545caf0eb9a"},"vehicle_type_id":"4","last_reported":1733152209,"current_range_meters":38800,"station_id":"ce4bhah2rcd13ifvqej0","pricing_plan_id":"cebpf4jnsgd1na2vs0mg"},{"bike_id":"3e762295-e52d-483f-8654-ca00b8495b74","system_id":"levelo_inurba_marseille","lat":43.27438,"lon":5.40719,"is_reserved":false,"is_disabled":false,"rental_uris":{"android":"levelo://app?vid=3e762295-e52d-483f-8654-ca00b8495b74","ios":"levelo://app?vid=3e762295-e52d-483f-8654-ca00b8495b74"},"vehicle_type_id":"4","last_reported":1733152209,"current_range_meters":12800,"station_id":"","pricing_plan_id":"cebpf4jnsgd1na2vs0mg"},{"bike_id":"451c3bed-aead-4425-9112-4c776fe28cba","system_id":"levelo_inurba_marseille","lat":43.28152,"lon":5.42638,"is_reserved":false,"is_disabled":false,"rental_uris":{"android":"levelo://app?vid=451c3bed-aead-4425-9112-4c776fe28cba","ios":"levelo://app?vid=451c3bed-aead-4425-9112-4c776fe28cba"},"vehicle_type_id":"4","last_reported":1733152209,"current_range_meters":24800,"station_id":"ce4bhnh2rcd13ifvqgug","pricing_plan_id":"cebpf4jnsgd1na2vs0mg"},{"bike_id":"bc00d63f-ec6e-42cf-86e5-b3d80f43c283","system_id":"levelo_inurba_marseille","lat":43.29798,"lon":5.38106,"is_reserved":false,"is_disabled":false,"rental_uris":{"android":"levelo://app?vid=bc00d63f-ec6e-42cf-86e5-b3d80f43c283","ios":"levelo://app?vid=bc00d63f-ec6e-42cf-86e5-b3d80f43c283"},"vehicle_type_id":"4","last_reported":1733152209,"current_range_meters":8400,"station_id":"ce4bgip2rcd13ifvqbb0","pricing_plan_id":"cebpf4jnsgd1na2vs0mg"},{"bike_id":"4c3fb316-febe-4764-b0a1-d58fd67e3e9a","system_id":"levelo_inurba_marseille","lat":43.28192,"lon":5.38298,"is_reserved":false,"is_disabled":true,"rental_uris":{"android":"levelo://app?vid=4c3fb316-febe-4764-b0a1-d58fd67e3e9a","ios":"levelo://app?vid=4c3fb316-febe-4764-b0a1-d58fd67e3e9a"},"vehicle_type_id":"4","last_reported":1733152209,"current_range_meters":30400,"station_id":"","pricing_plan_id":"cebpf4jnsgd1na2vs0mg"},{"bike_id":"987a5ab4-d60c-480c-94b6-7cab38975402","system_id":"levelo_inurba_marseille","lat":43.29748,"lon":5.37971,"is_reserved":false,"is_disabled":true,"rental_uris":{"android":"levelo://app?vid=987a5ab4-d60c-480c-94b6-7cab38975402","ios":"levelo://app?vid=987a5ab4-d60c-480c-94b6-7cab38975402"},"vehicle_type_id":"4","last_reported":1733152209,"current_range_meters":0,"station_id":"","pricing_plan_id":"cebpf4jnsgd1na2vs0mg"},{"bike_id":"c971ede0-41c7-461a-bc29-ae50a8251821","system_id":"levelo_inurba_marseille","lat":43.32299,"lon":5.38258,"is_reserved":false,"is_disabled":false,"rental_uris":{"android":"levelo://app?vid=c971ede0-41c7-461a-bc29-ae50a8251821","ios":"levelo://app?vid=c971ede0-41c7-461a-bc29-ae50a8251821"},"vehicle_type_id":"4","last_reported":1733152209,"current_range_meters":18800,"station_id":"ce4bhr12rcd13ifvqhqg","pricing_plan_id":"cebpf4jnsgd1na2vs0mg"},{"bike_id":"10f1a706-9379-4810-ac63-0f135bd10b32","system_id":"levelo_inurba_marseille","lat":43.2917,"lon":5.37173,"is_reserved":false,"is_disabled":false,"rental_uris":{"android":"levelo://app?vid=10f1a706-9379-4810-ac63-0f135bd10b32","ios":"levelo://app?vid=10f1a706-9379-4810-ac63-0f135bd10b32"},"vehicle_type_id":"4","last_reported":1733152209,"current_range_meters":32000,"station_id":"ce4bha92rcd13ifvqeh0","pricing_plan_id":"cebpf4jnsgd1na2vs0mg"},{"bike_id":"1f28300c-d8be-4d08-b5ea-d3aadf1e301d","system_id":"levelo_inurba_marseille","lat":43.26263,"lon":5.42138,"is_reserved":false,"is_disabled":false,"rental_uris":{"android":"levelo://app?vid=1f28300c-d8be-4d08-b5ea-d3aadf1e301d","ios":"levelo://app?vid=1f28300c-d8be-4d08-b5ea-d3aadf1e301d"},"vehicle_type_id":"4","last_reported":1733152209,"current_range_meters":24000,"station_id":"","pricing_plan_id":"cebpf4jnsgd1na2vs0mg"},{"bike_id":"b7ab8c01-033f-4395-8276-23c850ad3d02","system_id":"levelo_inurba_marseille","lat":43.30319,"lon":5.3659,"is_reserved":false,"is_disabled":true,"rental_uris":{"android":"levelo://app?vid=b7ab8c01-033f-4395-8276-23c850ad3d02","ios":"levelo://app?vid=b7ab8c01-033f-4395-8276-23c850ad3d02"},"vehicle_type_id":"4","last_reported":1733152209,"current_range_meters":0,"station_id":"","pricing_plan_id":"cebpf4jnsgd1na2vs0mg"},{"bike_id":"f8176d29-b70d-4dcd-9fcc-91123779aefa","system_id":"levelo_inurba_marseille","lat":43.25932,"lon":5.40913,"is_reserved":false,"is_disabled":false,"rental_uris":{"android":"levelo://app?vid=f8176d29-b70d-4dcd-9fcc-91123779aefa","ios":"levelo://app?vid=f8176d29-b70d-4dcd-9fcc-91123779aefa"},"vehicle_type_id":"4","last_reported":1733152209,"current_range_meters":38800,"station_id":"ce4bhm92rcd13ifvqglg","pricing_plan_id":"cebpf4jnsgd1na2vs0mg"},{"bike_id":"7f605fb6-28a5-4333-80f6-8484a84b0b5c","system_id":"levelo_inurba_marseille","lat":43.31362,"lon":5.36707,"is_reserved":false,"is_disabled":false,"rental_uris":{"android":"levelo://app?vid=7f605fb6-28a5-4333-80f6-8484a84b0b5c","ios":"levelo://app?vid=7f605fb6-28a5-4333-80f6-8484a84b0b5c"},"vehicle_type_id":"4","last_reported":1733152209,"current_range_meters":38800,"station_id":"ce4bgr92rcd13ifvqc6g","pricing_plan_id":"cebpf4jnsgd1na2vs0mg"},{"bike_id":"6b2b901e-5d96-4afc-b9a5-a7594ae72748","system_id":"levelo_inurba_marseille","lat":43.27277,"lon":5.39192,"is_reserved":false,"is_disabled":true,"rental_uris":{"android":"levelo://app?vid=6b2b901e-5d96-4afc-b9a5-a7594ae72748","ios":"levelo://app?vid=6b2b901e-5d96-4afc-b9a5-a7594ae72748"},"vehicle_type_id":"4","last_reported":1733152209,"current_range_meters":0,"station_id":"","pricing_plan_id":"cebpf4jnsgd1na2vs0mg"},{"bike_id":"3e9cd132-d957-4086-ac08-1c6d3c118aa3","system_id":"levelo_inurba_marseille","lat":43.30537,"lon":5.36532,"is_reserved":false,"is_disabled":false,"rental_uris":{"android":"levelo://app?vid=3e9cd132-d957-4086-ac08-1c6d3c118aa3","ios":"levelo://app?vid=3e9cd132-d957-4086-ac08-1c6d3c118aa3"},"vehicle_type_id":"4","last_reported":1733152209,"current_range_meters":30800,"station_id":"ce4bgs12rcd13ifvqcag","pricing_plan_id":"cebpf4jnsgd1na2vs0mg"},{"bike_id":"0ca60af7-be25-4cec-9d4d-395d419cb6aa","system_id":"levelo_inurba_marseille","lat":43.31225,"lon":5.36861,"is_reserved":false,"is_disabled":false,"rental_uris":{"android":"levelo://app?vid=0ca60af7-be25-4cec-9d4d-395d419cb6aa","ios":"levelo://app?vid=0ca60af7-be25-4cec-9d4d-395d419cb6aa"},"vehicle_type_id":"4","last_reported":1733152209,"current_range_meters":34000,"station_id":"ce4bgl92rcd13ifvqbq0","pricing_plan_id":"cebpf4jnsgd1na2vs0mg"},{"bike_id":"acf2d6c0-c255-4450-8d34-f5cb0bbedb63","system_id":"levelo_inurba_marseille","lat":43.26506,"lon":5.39537,"is_reserved":false,"is_disabled":false,"rental_uris":{"android":"levelo://app?vid=acf2d6c0-c255-4450-8d34-f5cb0bbedb63","ios":"levelo://app?vid=acf2d6c0-c255-4450-8d34-f5cb0bbedb63"},"vehicle_type_id":"4","last_reported":1733152209,"current_range_meters":26000,"station_id":"ce4bhi12rcd13ifvqfq0","pricing_plan_id":"cebpf4jnsgd1na2vs0mg"},{"bike_id":"d535ef42-5156-4911-b77b-56bd23f52d17","system_id":"levelo_inurba_marseille","lat":43.24184,"lon":5.39723,"is_reserved":false,"is_disabled":false,"rental_uris":{"android":"levelo://app?vid=d535ef42-5156-4911-b77b-56bd23f52d17","ios":"levelo://app?vid=d535ef42-5156-4911-b77b-56bd23f52d17"},"vehicle_type_id":"4","last_reported":1733152209,"current_range_meters":38800,"station_id":"ce4bhn12rcd13ifvqgpg","pricing_plan_id":"cebpf4jnsgd1na2vs0mg"},{"bike_id":"1e21ee7c-ab02-4877-817e-5d83de000297","system_id":"levelo_inurba_marseille","lat":43.30909,"lon":5.36852,"is_reserved":false,"is_disabled":true,"rental_uris":{"android":"levelo://app?vid=1e21ee7c-ab02-4877-817e-5d83de000297","ios":"levelo://app?vid=1e21ee7c-ab02-4877-817e-5d83de000297"},"vehicle_type_id":"4","last_reported":1733152209,"current_range_meters":38800,"station_id":"ce4bgn92rcd13ifvqbvg","pricing_plan_id":"cebpf4jnsgd1na2vs0mg"},{"bike_id":"8d1c8b92-79bb-4181-b0d2-5e94db1a14d0","system_id":"levelo_inurba_marseille","lat":43.3001,"lon":5.38272,"is_reserved":false,"is_disabled":true,"rental_uris":{"android":"levelo://app?vid=8d1c8b92-79bb-4181-b0d2-5e94db1a14d0","ios":"levelo://app?vid=8d1c8b92-79bb-4181-b0d2-5e94db1a14d0"},"vehicle_type_id":"4","last_reported":1733152209,"current_range_meters":0,"station_id":"","pricing_plan_id":"cebpf4jnsgd1na2vs0mg"},{"bike_id":"b393e343-ccc2-4e09-a3d5-b33fb6d87dbf","system_id":"levelo_inurba_marseille","lat":43.30126,"lon":5.38782,"is_reserved":false,"is_disabled":true,"rental_uris":{"android":"levelo://app?vid=b393e343-ccc2-4e09-a3d5-b33fb6d87dbf","ios":"levelo://app?vid=b393e343-ccc2-4e09-a3d5-b33fb6d87dbf"},"vehicle_type_id":"4","last_reported":1733152209,"current_range_meters":33600,"station_id":"ce4bghh2rcd13ifvqb60","pricing_plan_id":"cebpf4jnsgd1na2vs0mg"},{"bike_id":"1beb3bac-1f59-41bc-a280-277f2a9b322b","system_id":"levelo_inurba_marseille","lat":43.29273,"lon":5.36843,"is_reserved":false,"is_disabled":false,"rental_uris":{"android":"levelo://app?vid=1beb3bac-1f59-41bc-a280-277f2a9b322b","ios":"levelo://app?vid=1beb3bac-1f59-41bc-a280-277f2a9b322b"},"vehicle_type_id":"4","last_reported":1733152209,"current_range_meters":26800,"station_id":"ce4bhbp2rcd13ifvqesg","pricing_plan_id":"cebpf4jnsgd1na2vs0mg"},{"bike_id":"1c7ae222-8f70-4487-a2f7-9ce97d44aead","system_id":"levelo_inurba_marseille","lat":43.26554,"lon":5.37288,"is_reserved":false,"is_disabled":true,"rental_uris":{"android":"levelo://app?vid=1c7ae222-8f70-4487-a2f7-9ce97d44aead","ios":"levelo://app?vid=1c7ae222-8f70-4487-a2f7-9ce97d44aead"},"vehicle_type_id":"4","last_reported":1733152209,"current_range_meters":800,"station_id":"ce4bhg12rcd13ifvqf70","pricing_plan_id":"cebpf4jnsgd1na2vs0mg"},{"bike_id":"d5ad7d28-47b1-46b2-b0eb-b7f96a03c22a","system_id":"levelo_inurba_marseille","lat":43.29851,"lon":5.36272,"is_reserved":false,"is_disabled":true,"rental_uris":{"android":"levelo://app?vid=d5ad7d28-47b1-46b2-b0eb-b7f96a03c22a","ios":"levelo://app?vid=d5ad7d28-47b1-46b2-b0eb-b7f96a03c22a"},"vehicle_type_id":"4","last_reported":1733152209,"current_range_meters":38400,"station_id":"ce4bgpp2rcd13ifvqc3g","pricing_plan_id":"cebpf4jnsgd1na2vs0mg"},{"bike_id":"a79d3deb-4fb8-4e3e-8555-dfa46134ae86","system_id":"levelo_inurba_marseille","lat":43.280286,"lon":5.369468,"is_reserved":false,"is_disabled":true,"rental_uris":{"android":"levelo://app?vid=a79d3deb-4fb8-4e3e-8555-dfa46134ae86","ios":"levelo://app?vid=a79d3deb-4fb8-4e3e-8555-dfa46134ae86"},"vehicle_type_id":"4","last_reported":1733152209,"current_range_meters":0,"station_id":"ce4bha12rcd13ifvqef0","pricing_plan_id":"cebpf4jnsgd1na2vs0mg"},{"bike_id":"7240c253-5c60-4d4a-91c2-2841c2244fac","system_id":"levelo_inurba_marseille","lat":43.29622,"lon":5.37722,"is_reserved":false,"is_disabled":false,"rental_uris":{"android":"levelo://app?vid=7240c253-5c60-4d4a-91c2-2841c2244fac","ios":"levelo://app?vid=7240c253-5c60-4d4a-91c2-2841c2244fac"},"vehicle_type_id":"4","last_reported":1733152209,"current_range_meters":38800,"station_id":"ce4bgi92rcd13ifvqb90","pricing_plan_id":"cebpf4jnsgd1na2vs0mg"},{"bike_id":"9e6eb31f-f19c-4ad9-9f5c-01acb72239bb","system_id":"levelo_inurba_marseille","lat":43.30138,"lon":5.39871,"is_reserved":false,"is_disabled":false,"rental_uris":{"android":"levelo://app?vid=9e6eb31f-f19c-4ad9-9f5c-01acb72239bb","ios":"levelo://app?vid=9e6eb31f-f19c-4ad9-9f5c-01acb72239bb"},"vehicle_type_id":"4","last_reported":1733152209,"current_range_meters":31200,"station_id":"ce4bh0h2rcd13ifvqd40","pricing_plan_id":"cebpf4jnsgd1na2vs0mg"},{"bike_id":"502a96ab-17c2-4054-85b0-d3158c661de7","system_id":"levelo_inurba_marseille","lat":43.2919,"lon":5.39311,"is_reserved":false,"is_disabled":true,"rental_uris":{"android":"levelo://app?vid=502a96ab-17c2-4054-85b0-d3158c661de7","ios":"levelo://app?vid=502a96ab-17c2-4054-85b0-d3158c661de7"},"vehicle_type_id":"4","last_reported":1733152209,"current_range_meters":18800,"station_id":"ce4bh192rcd13ifvqdd0","pricing_plan_id":"cebpf4jnsgd1na2vs0mg"},{"bike_id":"f78a695f-1e51-496d-a80d-f5757164d6e4","system_id":"levelo_inurba_marseille","lat":43.26686,"lon":5.38275,"is_reserved":false,"is_disabled":true,"rental_uris":{"android":"levelo://app?vid=f78a695f-1e51-496d-a80d-f5757164d6e4","ios":"levelo://app?vid=f78a695f-1e51-496d-a80d-f5757164d6e4"},"vehicle_type_id":"4","last_reported":1733152209,"current_range_meters":33200,"station_id":"ce4bhg92rcd13ifvqf90","pricing_plan_id":"cebpf4jnsgd1na2vs0mg"},{"bike_id":"6c5dd914-050b-4e5c-93e9-6374d69c4ef2","system_id":"levelo_inurba_marseille","lat":43.31889,"lon":5.40739,"is_reserved":false,"is_disabled":false,"rental_uris":{"android":"levelo://app?vid=6c5dd914-050b-4e5c-93e9-6374d69c4ef2","ios":"levelo://app?vid=6c5dd914-050b-4e5c-93e9-6374d69c4ef2"},"vehicle_type_id":"4","last_reported":1733152209,"current_range_meters":38800,"station_id":"ce4bhq12rcd13ifvqhig","pricing_plan_id":"cebpf4jnsgd1na2vs0mg"},{"bike_id":"1942c29b-f888-407c-b006-a555e3152759","system_id":"levelo_inurba_marseille","lat":43.31163,"lon":5.38721,"is_reserved":false,"is_disabled":true,"rental_uris":{"android":"levelo://app?vid=1942c29b-f888-407c-b006-a555e3152759","ios":"levelo://app?vid=1942c29b-f888-407c-b006-a555e3152759"},"vehicle_type_id":"4","last_reported":1733152209,"current_range_meters":0,"station_id":"ce4bgv12rcd13ifvqcp0","pricing_plan_id":"cebpf4jnsgd1na2vs0mg"},{"bike_id":"b3e46cbf-1ee4-4a38-a155-839fe78d600f","system_id":"levelo_inurba_marseille","lat":43.2886,"lon":5.35843,"is_reserved":false,"is_disabled":false,"rental_uris":{"android":"levelo://app?vid=b3e46cbf-1ee4-4a38-a155-839fe78d600f","ios":"levelo://app?vid=b3e46cbf-1ee4-4a38-a155-839fe78d600f"},"vehicle_type_id":"4","last_reported":1733152209,"current_range_meters":37600,"station_id":"ce4bgjh2rcd13ifvqbf0","pricing_plan_id":"cebpf4jnsgd1na2vs0mg"},{"bike_id":"c59e598b-f6d9-41a1-ae6e-9ba138b277b9","system_id":"levelo_inurba_marseille","lat":43.30445,"lon":5.37926,"is_reserved":false,"is_disabled":true,"rental_uris":{"android":"levelo://app?vid=c59e598b-f6d9-41a1-ae6e-9ba138b277b9","ios":"levelo://app?vid=c59e598b-f6d9-41a1-ae6e-9ba138b277b9"},"vehicle_type_id":"4","last_reported":1733152209,"current_range_meters":38800,"station_id":"ce4bgup2rcd13ifvqcn0","pricing_plan_id":"cebpf4jnsgd1na2vs0mg"},{"bike_id":"e2de66c9-5ec1-4b67-bee8-35917fe10f0c","system_id":"levelo_inurba_marseille","lat":43.30892,"lon":5.37183,"is_reserved":false,"is_disabled":false,"rental_uris":{"android":"levelo://app?vid=e2de66c9-5ec1-4b67-bee8-35917fe10f0c","ios":"levelo://app?vid=e2de66c9-5ec1-4b67-bee8-35917fe10f0c"},"vehicle_type_id":"4","last_reported":1733152209,"current_range_meters":27600,"station_id":"ce4bguh2rcd13ifvqckg","pricing_plan_id":"cebpf4jnsgd1na2vs0mg"},{"bike_id":"1ad1c1c4-5d06-4d0c-af90-58e0b45a7218","system_id":"levelo_inurba_marseille","lat":43.2792,"lon":5.39578,"is_reserved":false,"is_disabled":false,"rental_uris":{"android":"levelo://app?vid=1ad1c1c4-5d06-4d0c-af90-58e0b45a7218","ios":"levelo://app?vid=1ad1c1c4-5d06-4d0c-af90-58e0b45a7218"},"vehicle_type_id":"4","last_reported":1733152209,"current_range_meters":38800,"station_id":"ce4bhf92rcd13ifvqf40","pricing_plan_id":"cebpf4jnsgd1na2vs0mg"},{"bike_id":"9c77a68d-2e99-44e9-b903-950fb6644d35","system_id":"levelo_inurba_marseille","lat":43.25291,"lon":5.39451,"is_reserved":false,"is_disabled":true,"rental_uris":{"android":"levelo://app?vid=9c77a68d-2e99-44e9-b903-950fb6644d35","ios":"levelo://app?vid=9c77a68d-2e99-44e9-b903-950fb6644d35"},"vehicle_type_id":"4","last_reported":1733152209,"current_range_meters":0,"station_id":"","pricing_plan_id":"cebpf4jnsgd1na2vs0mg"},{"bike_id":"ef21c035-bb49-424f-9bea-f5275d76500c","system_id":"levelo_inurba_marseille","lat":43.29844,"lon":5.36271,"is_reserved":false,"is_disabled":false,"rental_uris":{"android":"levelo://app?vid=ef21c035-bb49-424f-9bea-f5275d76500c","ios":"levelo://app?vid=ef21c035-bb49-424f-9bea-f5275d76500c"},"vehicle_type_id":"4","last_reported":1733152209,"current_range_meters":25200,"station_id":"ce4bgpp2rcd13ifvqc3g","pricing_plan_id":"cebpf4jnsgd1na2vs0mg"},{"bike_id":"c6d4d1da-4890-4677-beff-6d8312f9d18f","system_id":"levelo_inurba_marseille","lat":43.30255,"lon":5.4008,"is_reserved":false,"is_disabled":false,"rental_uris":{"android":"levelo://app?vid=c6d4d1da-4890-4677-beff-6d8312f9d18f","ios":"levelo://app?vid=c6d4d1da-4890-4677-beff-6d8312f9d18f"},"vehicle_type_id":"4","last_reported":1733152209,"current_range_meters":11200,"station_id":"ce4bgvh2rcd13ifvqcs0","pricing_plan_id":"cebpf4jnsgd1na2vs0mg"},{"bike_id":"b506175b-e3b3-4ff6-94de-89fbcaee662e","system_id":"levelo_inurba_marseille","lat":43.30825,"lon":5.3818,"is_reserved":false,"is_disabled":false,"rental_uris":{"android":"levelo://app?vid=b506175b-e3b3-4ff6-94de-89fbcaee662e","ios":"levelo://app?vid=b506175b-e3b3-4ff6-94de-89fbcaee662e"},"vehicle_type_id":"4","last_reported":1733152209,"current_range_meters":20400,"station_id":"ce4bgt12rcd13ifvqce0","pricing_plan_id":"cebpf4jnsgd1na2vs0mg"},{"bike_id":"4ea402f6-45b0-4846-84f5-29270e62c818","system_id":"levelo_inurba_marseille","lat":43.30825,"lon":5.374,"is_reserved":false,"is_disabled":true,"rental_uris":{"android":"levelo://app?vid=4ea402f6-45b0-4846-84f5-29270e62c818","ios":"levelo://app?vid=4ea402f6-45b0-4846-84f5-29270e62c818"},"vehicle_type_id":"4","last_reported":1733152209,"current_range_meters":0,"station_id":"","pricing_plan_id":"cebpf4jnsgd1na2vs0mg"},{"bike_id":"9871e4a5-0e1e-4c3b-8e1c-89bb02834784","system_id":"levelo_inurba_marseille","lat":43.29028,"lon":5.38643,"is_reserved":false,"is_disabled":false,"rental_uris":{"android":"levelo://app?vid=9871e4a5-0e1e-4c3b-8e1c-89bb02834784","ios":"levelo://app?vid=9871e4a5-0e1e-4c3b-8e1c-89bb02834784"},"vehicle_type_id":"4","last_reported":1733152209,"current_range_meters":20000,"station_id":"ce4bh4p2rcd13ifvqe0g","pricing_plan_id":"cebpf4jnsgd1na2vs0mg"},{"bike_id":"9faa23bf-6cc4-462c-b41b-652107d3a2b8","system_id":"levelo_inurba_marseille","lat":43.31222,"lon":5.36863,"is_reserved":false,"is_disabled":false,"rental_uris":{"android":"levelo://app?vid=9faa23bf-6cc4-462c-b41b-652107d3a2b8","ios":"levelo://app?vid=9faa23bf-6cc4-462c-b41b-652107d3a2b8"},"vehicle_type_id":"4","last_reported":1733152209,"current_range_meters":38800,"station_id":"ce4bgl92rcd13ifvqbq0","pricing_plan_id":"cebpf4jnsgd1na2vs0mg"},{"bike_id":"35d44ef5-a7e9-4d0a-8c7c-e819273d6b6f","system_id":"levelo_inurba_marseille","lat":43.29789,"lon":5.38093,"is_reserved":false,"is_disabled":true,"rental_uris":{"android":"levelo://app?vid=35d44ef5-a7e9-4d0a-8c7c-e819273d6b6f","ios":"levelo://app?vid=35d44ef5-a7e9-4d0a-8c7c-e819273d6b6f"},"vehicle_type_id":"4","last_reported":1733152209,"current_range_meters":0,"station_id":"ce4bgip2rcd13ifvqbb0","pricing_plan_id":"cebpf4jnsgd1na2vs0mg"},{"bike_id":"4f5e55ea-1124-4dd0-8efa-8ecf5c9aca9e","system_id":"levelo_inurba_marseille","lat":43.32274,"lon":5.3826,"is_reserved":false,"is_disabled":false,"rental_uris":{"android":"levelo://app?vid=4f5e55ea-1124-4dd0-8efa-8ecf5c9aca9e","ios":"levelo://app?vid=4f5e55ea-1124-4dd0-8efa-8ecf5c9aca9e"},"vehicle_type_id":"4","last_reported":1733152209,"current_range_meters":38000,"station_id":"ce4bhr12rcd13ifvqhqg","pricing_plan_id":"cebpf4jnsgd1na2vs0mg"},{"bike_id":"f61c00f8-69c7-4148-b75b-9ae748af5441","system_id":"levelo_inurba_marseille","lat":43.25728,"lon":5.41109,"is_reserved":false,"is_disabled":false,"rental_uris":{"android":"levelo://app?vid=f61c00f8-69c7-4148-b75b-9ae748af5441","ios":"levelo://app?vid=f61c00f8-69c7-4148-b75b-9ae748af5441"},"vehicle_type_id":"4","last_reported":1733152209,"current_range_meters":35200,"station_id":"ce4bhkp2rcd13ifvqgd0","pricing_plan_id":"cebpf4jnsgd1na2vs0mg"},{"bike_id":"941eeae1-8936-4a86-b31a-ea87d84b2048","system_id":"levelo_inurba_marseille","lat":43.28063,"lon":5.35631,"is_reserved":false,"is_disabled":false,"rental_uris":{"android":"levelo://app?vid=941eeae1-8936-4a86-b31a-ea87d84b2048","ios":"levelo://app?vid=941eeae1-8936-4a86-b31a-ea87d84b2048"},"vehicle_type_id":"4","last_reported":1733152209,"current_range_meters":10800,"station_id":"","pricing_plan_id":"cebpf4jnsgd1na2vs0mg"},{"bike_id":"c57d2727-f1a5-40ae-93e9-f4be556c6fcc","system_id":"levelo_inurba_marseille","lat":43.30893,"lon":5.37198,"is_reserved":false,"is_disabled":false,"rental_uris":{"android":"levelo://app?vid=c57d2727-f1a5-40ae-93e9-f4be556c6fcc","ios":"levelo://app?vid=c57d2727-f1a5-40ae-93e9-f4be556c6fcc"},"vehicle_type_id":"4","last_reported":1733152209,"current_range_meters":10000,"station_id":"ce4bguh2rcd13ifvqckg","pricing_plan_id":"cebpf4jnsgd1na2vs0mg"},{"bike_id":"1176e033-efc4-474e-af61-8d3a0d5f5ccf","system_id":"levelo_inurba_marseille","lat":43.25886,"lon":5.39954,"is_reserved":false,"is_disabled":true,"rental_uris":{"android":"levelo://app?vid=1176e033-efc4-474e-af61-8d3a0d5f5ccf","ios":"levelo://app?vid=1176e033-efc4-474e-af61-8d3a0d5f5ccf"},"vehicle_type_id":"4","last_reported":1733152209,"current_range_meters":0,"station_id":"","pricing_plan_id":"cebpf4jnsgd1na2vs0mg"},{"bike_id":"907444c7-8c2d-44b0-80a0-e61cb165cece","system_id":"levelo_inurba_marseille","lat":43.29569,"lon":5.37507,"is_reserved":false,"is_disabled":false,"rental_uris":{"android":"levelo://app?vid=907444c7-8c2d-44b0-80a0-e61cb165cece","ios":"levelo://app?vid=907444c7-8c2d-44b0-80a0-e61cb165cece"},"vehicle_type_id":"4","last_reported":1733152209,"current_range_meters":37600,"station_id":"ce4bgh92rcd13ifvqb50","pricing_plan_id":"cebpf4jnsgd1na2vs0mg"},{"bike_id":"c7a25b1b-8559-4682-8cfa-686f9cee3170","system_id":"levelo_inurba_marseille","lat":43.29003,"lon":5.35609,"is_reserved":false,"is_disabled":false,"rental_uris":{"android":"levelo://app?vid=c7a25b1b-8559-4682-8cfa-686f9cee3170","ios":"levelo://app?vid=c7a25b1b-8559-4682-8cfa-686f9cee3170"},"vehicle_type_id":"4","last_reported":1733152209,"current_range_meters":38800,"station_id":"ce4bhb92rcd13ifvqen0","pricing_plan_id":"cebpf4jnsgd1na2vs0mg"},{"bike_id":"d968385f-de2b-44eb-96a8-54efc707caa9","system_id":"levelo_inurba_marseille","lat":43.23208,"lon":5.35551,"is_reserved":false,"is_disabled":false,"rental_uris":{"android":"levelo://app?vid=d968385f-de2b-44eb-96a8-54efc707caa9","ios":"levelo://app?vid=d968385f-de2b-44eb-96a8-54efc707caa9"},"vehicle_type_id":"4","last_reported":1733152209,"current_range_meters":38800,"station_id":"ce4bhu92rcd13ifvqi70","pricing_plan_id":"cebpf4jnsgd1na2vs0mg"},{"bike_id":"27b81edd-fc9b-4623-8d27-e8a9d39b6785","system_id":"levelo_inurba_marseille","lat":43.32051,"lon":5.41558,"is_reserved":false,"is_disabled":false,"rental_uris":{"android":"levelo://app?vid=27b81edd-fc9b-4623-8d27-e8a9d39b6785","ios":"levelo://app?vid=27b81edd-fc9b-4623-8d27-e8a9d39b6785"},"vehicle_type_id":"4","last_reported":1733152209,"current_range_meters":22800,"station_id":"ce4bhq92rcd13ifvqhkg","pricing_plan_id":"cebpf4jnsgd1na2vs0mg"},{"bike_id":"e218f52a-3c8a-490a-99d9-5af7196625b0","system_id":"levelo_inurba_marseille","lat":43.23199,"lon":5.35547,"is_reserved":false,"is_disabled":false,"rental_uris":{"android":"levelo://app?vid=e218f52a-3c8a-490a-99d9-5af7196625b0","ios":"levelo://app?vid=e218f52a-3c8a-490a-99d9-5af7196625b0"},"vehicle_type_id":"4","last_reported":1733152209,"current_range_meters":7200,"station_id":"ce4bhu92rcd13ifvqi70","pricing_plan_id":"cebpf4jnsgd1na2vs0mg"},{"bike_id":"f2dd53a7-a17b-4a70-bb0c-d38cd0312b11","system_id":"levelo_inurba_marseille","lat":43.24071,"lon":5.37763,"is_reserved":false,"is_disabled":true,"rental_uris":{"android":"levelo://app?vid=f2dd53a7-a17b-4a70-bb0c-d38cd0312b11","ios":"levelo://app?vid=f2dd53a7-a17b-4a70-bb0c-d38cd0312b11"},"vehicle_type_id":"4","last_reported":1733152209,"current_range_meters":0,"station_id":"ce4bhnp2rcd13ifvqgvg","pricing_plan_id":"cebpf4jnsgd1na2vs0mg"},{"bike_id":"9211c3d1-be1f-4677-9a82-b98349c83108","system_id":"levelo_inurba_marseille","lat":43.29451,"lon":5.3976,"is_reserved":false,"is_disabled":true,"rental_uris":{"android":"levelo://app?vid=9211c3d1-be1f-4677-9a82-b98349c83108","ios":"levelo://app?vid=9211c3d1-be1f-4677-9a82-b98349c83108"},"vehicle_type_id":"4","last_reported":1733152209,"current_range_meters":11200,"station_id":"ce4bh3h2rcd13ifvqdo0","pricing_plan_id":"cebpf4jnsgd1na2vs0mg"},{"bike_id":"9202c63e-372c-4469-a5c1-8e35757d1940","system_id":"levelo_inurba_marseille","lat":43.30053,"lon":5.38832,"is_reserved":false,"is_disabled":true,"rental_uris":{"android":"levelo://app?vid=9202c63e-372c-4469-a5c1-8e35757d1940","ios":"levelo://app?vid=9202c63e-372c-4469-a5c1-8e35757d1940"},"vehicle_type_id":"4","last_reported":1733152209,"current_range_meters":0,"station_id":"","pricing_plan_id":"cebpf4jnsgd1na2vs0mg"},{"bike_id":"9987bb84-8959-46ef-81fb-2cc231060257","system_id":"levelo_inurba_marseille","lat":43.32658,"lon":5.40995,"is_reserved":false,"is_disabled":false,"rental_uris":{"android":"levelo://app?vid=9987bb84-8959-46ef-81fb-2cc231060257","ios":"levelo://app?vid=9987bb84-8959-46ef-81fb-2cc231060257"},"vehicle_type_id":"4","last_reported":1733152209,"current_range_meters":38800,"station_id":"ce4bhpp2rcd13ifvqhgg","pricing_plan_id":"cebpf4jnsgd1na2vs0mg"},{"bike_id":"59d51a55-3e28-4f77-bc6d-5c6155d01aba","system_id":"levelo_inurba_marseille","lat":43.30547,"lon":5.36532,"is_reserved":false,"is_disabled":false,"rental_uris":{"android":"levelo://app?vid=59d51a55-3e28-4f77-bc6d-5c6155d01aba","ios":"levelo://app?vid=59d51a55-3e28-4f77-bc6d-5c6155d01aba"},"vehicle_type_id":"4","last_reported":1733152209,"current_range_meters":38800,"station_id":"ce4bgs12rcd13ifvqcag","pricing_plan_id":"cebpf4jnsgd1na2vs0mg"},{"bike_id":"659159e9-6910-4c11-a990-efb9f423bcc5","system_id":"levelo_inurba_marseille","lat":43.276797,"lon":5.389211,"is_reserved":false,"is_disabled":true,"rental_uris":{"android":"levelo://app?vid=659159e9-6910-4c11-a990-efb9f423bcc5","ios":"levelo://app?vid=659159e9-6910-4c11-a990-efb9f423bcc5"},"vehicle_type_id":"4","last_reported":1733152209,"current_range_meters":1200,"station_id":"ce4bhi12rcd13ifvqfo0","pricing_plan_id":"cebpf4jnsgd1na2vs0mg"},{"bike_id":"692691a9-bd4a-4c62-91e1-a89a2833f61b","system_id":"levelo_inurba_marseille","lat":43.26806,"lon":5.40266,"is_reserved":false,"is_disabled":false,"rental_uris":{"android":"levelo://app?vid=692691a9-bd4a-4c62-91e1-a89a2833f61b","ios":"levelo://app?vid=692691a9-bd4a-4c62-91e1-a89a2833f61b"},"vehicle_type_id":"4","last_reported":1733152209,"current_range_meters":39200,"station_id":"ce501612rcd8frsf0b60","pricing_plan_id":"cebpf4jnsgd1na2vs0mg"},{"bike_id":"c60adda5-892d-4c27-89ba-5261cfbacea9","system_id":"levelo_inurba_marseille","lat":43.30158,"lon":5.38097,"is_reserved":false,"is_disabled":false,"rental_uris":{"android":"levelo://app?vid=c60adda5-892d-4c27-89ba-5261cfbacea9","ios":"levelo://app?vid=c60adda5-892d-4c27-89ba-5261cfbacea9"},"vehicle_type_id":"4","last_reported":1733152209,"current_range_meters":33200,"station_id":"ce4bgjp2rcd13ifvqbh0","pricing_plan_id":"cebpf4jnsgd1na2vs0mg"},{"bike_id":"363badec-b695-40c5-8e17-322396197360","system_id":"levelo_inurba_marseille","lat":43.32547,"lon":5.41428,"is_reserved":false,"is_disabled":false,"rental_uris":{"android":"levelo://app?vid=363badec-b695-40c5-8e17-322396197360","ios":"levelo://app?vid=363badec-b695-40c5-8e17-322396197360"},"vehicle_type_id":"4","last_reported":1733152209,"current_range_meters":24800,"station_id":"ce4bhq12rcd13ifvqhhg","pricing_plan_id":"cebpf4jnsgd1na2vs0mg"},{"bike_id":"5e000a4a-38dd-4d01-b5d7-15abf1a85396","system_id":"levelo_inurba_marseille","lat":43.2997,"lon":5.38495,"is_reserved":false,"is_disabled":false,"rental_uris":{"android":"levelo://app?vid=5e000a4a-38dd-4d01-b5d7-15abf1a85396","ios":"levelo://app?vid=5e000a4a-38dd-4d01-b5d7-15abf1a85396"},"vehicle_type_id":"4","last_reported":1733152209,"current_range_meters":24000,"station_id":"ce4bgj92rcd13ifvqbd0","pricing_plan_id":"cebpf4jnsgd1na2vs0mg"},{"bike_id":"dd6cad31-8801-4a6a-ab13-69ee4690be64","system_id":"levelo_inurba_marseille","lat":43.26942,"lon":5.40252,"is_reserved":false,"is_disabled":false,"rental_uris":{"android":"levelo://app?vid=dd6cad31-8801-4a6a-ab13-69ee4690be64","ios":"levelo://app?vid=dd6cad31-8801-4a6a-ab13-69ee4690be64"},"vehicle_type_id":"4","last_reported":1733152209,"current_range_meters":16800,"station_id":"cjm6bp8fraef2m0cb0m0","pricing_plan_id":"cebpf4jnsgd1na2vs0mg"},{"bike_id":"16ebf7b5-f5c0-4627-80b2-c506facfa757","system_id":"levelo_inurba_marseille","lat":43.27811,"lon":5.40716,"is_reserved":false,"is_disabled":true,"rental_uris":{"android":"levelo://app?vid=16ebf7b5-f5c0-4627-80b2-c506facfa757","ios":"levelo://app?vid=16ebf7b5-f5c0-4627-80b2-c506facfa757"},"vehicle_type_id":"4","last_reported":1733152209,"current_range_meters":0,"station_id":"","pricing_plan_id":"cebpf4jnsgd1na2vs0mg"},{"bike_id":"719e509a-25e4-4b1b-9830-f708d85d7593","system_id":"levelo_inurba_marseille","lat":43.29569,"lon":5.37512,"is_reserved":false,"is_disabled":true,"rental_uris":{"android":"levelo://app?vid=719e509a-25e4-4b1b-9830-f708d85d7593","ios":"levelo://app?vid=719e509a-25e4-4b1b-9830-f708d85d7593"},"vehicle_type_id":"4","last_reported":1733152209,"current_range_meters":0,"station_id":"ce4bgh92rcd13ifvqb50","pricing_plan_id":"cebpf4jnsgd1na2vs0mg"},{"bike_id":"f89025c6-ad9e-4cd4-b0c3-35c687dc3f63","system_id":"levelo_inurba_marseille","lat":43.24181,"lon":5.39729,"is_reserved":false,"is_disabled":false,"rental_uris":{"android":"levelo://app?vid=f89025c6-ad9e-4cd4-b0c3-35c687dc3f63","ios":"levelo://app?vid=f89025c6-ad9e-4cd4-b0c3-35c687dc3f63"},"vehicle_type_id":"4","last_reported":1733152209,"current_range_meters":39200,"station_id":"ce4bhn12rcd13ifvqgpg","pricing_plan_id":"cebpf4jnsgd1na2vs0mg"},{"bike_id":"17004300-d2d9-4079-8edc-ebdf211f8c52","system_id":"levelo_inurba_marseille","lat":43.3019,"lon":5.36607,"is_reserved":false,"is_disabled":false,"rental_uris":{"android":"levelo://app?vid=17004300-d2d9-4079-8edc-ebdf211f8c52","ios":"levelo://app?vid=17004300-d2d9-4079-8edc-ebdf211f8c52"},"vehicle_type_id":"4","last_reported":1733152209,"current_range_meters":16400,"station_id":"ce4bgrh2rcd13ifvqc8g","pricing_plan_id":"cebpf4jnsgd1na2vs0mg"},{"bike_id":"acb28bcd-cd90-482d-99bf-4944d15c38ad","system_id":"levelo_inurba_marseille","lat":43.33022,"lon":5.39036,"is_reserved":false,"is_disabled":false,"rental_uris":{"android":"levelo://app?vid=acb28bcd-cd90-482d-99bf-4944d15c38ad","ios":"levelo://app?vid=acb28bcd-cd90-482d-99bf-4944d15c38ad"},"vehicle_type_id":"4","last_reported":1733152209,"current_range_meters":28800,"station_id":"ce4bhr92rcd13ifvqhrg","pricing_plan_id":"cebpf4jnsgd1na2vs0mg"},{"bike_id":"6cce76d2-f183-4ad0-95d0-832b24dd2ca1","system_id":"levelo_inurba_marseille","lat":43.26685,"lon":5.38273,"is_reserved":false,"is_disabled":false,"rental_uris":{"android":"levelo://app?vid=6cce76d2-f183-4ad0-95d0-832b24dd2ca1","ios":"levelo://app?vid=6cce76d2-f183-4ad0-95d0-832b24dd2ca1"},"vehicle_type_id":"4","last_reported":1733152209,"current_range_meters":37600,"station_id":"ce4bhg92rcd13ifvqf90","pricing_plan_id":"cebpf4jnsgd1na2vs0mg"},{"bike_id":"2cf65095-36e5-4949-abae-c54c2895d97b","system_id":"levelo_inurba_marseille","lat":43.3254,"lon":5.41446,"is_reserved":false,"is_disabled":true,"rental_uris":{"android":"levelo://app?vid=2cf65095-36e5-4949-abae-c54c2895d97b","ios":"levelo://app?vid=2cf65095-36e5-4949-abae-c54c2895d97b"},"vehicle_type_id":"4","last_reported":1733152209,"current_range_meters":1200,"station_id":"ce4bhq12rcd13ifvqhhg","pricing_plan_id":"cebpf4jnsgd1na2vs0mg"},{"bike_id":"f8de6c35-1a81-4bd1-a68b-12d685bb1cb2","system_id":"levelo_inurba_marseille","lat":43.30909,"lon":5.36848,"is_reserved":false,"is_disabled":false,"rental_uris":{"android":"levelo://app?vid=f8de6c35-1a81-4bd1-a68b-12d685bb1cb2","ios":"levelo://app?vid=f8de6c35-1a81-4bd1-a68b-12d685bb1cb2"},"vehicle_type_id":"4","last_reported":1733152209,"current_range_meters":35600,"station_id":"ce4bgn92rcd13ifvqbvg","pricing_plan_id":"cebpf4jnsgd1na2vs0mg"},{"bike_id":"ff6cd543-5a26-434d-9643-b6b61e61dd47","system_id":"levelo_inurba_marseille","lat":43.27997,"lon":5.41662,"is_reserved":false,"is_disabled":false,"rental_uris":{"android":"levelo://app?vid=ff6cd543-5a26-434d-9643-b6b61e61dd47","ios":"levelo://app?vid=ff6cd543-5a26-434d-9643-b6b61e61dd47"},"vehicle_type_id":"4","last_reported":1733152209,"current_range_meters":3600,"station_id":"ce4bho12rcd13ifvqh1g","pricing_plan_id":"cebpf4jnsgd1na2vs0mg"},{"bike_id":"ebd27932-7a46-4182-bb2a-f2e563a432e2","system_id":"levelo_inurba_marseille","lat":43.27948,"lon":5.41044,"is_reserved":false,"is_disabled":false,"rental_uris":{"android":"levelo://app?vid=ebd27932-7a46-4182-bb2a-f2e563a432e2","ios":"levelo://app?vid=ebd27932-7a46-4182-bb2a-f2e563a432e2"},"vehicle_type_id":"4","last_reported":1733152209,"current_range_meters":25600,"station_id":"ce4bhnp2rcd13ifvqh0g","pricing_plan_id":"cebpf4jnsgd1na2vs0mg"},{"bike_id":"f262884b-3ede-477a-a310-386c544dc900","system_id":"levelo_inurba_marseille","lat":43.29568,"lon":5.37515,"is_reserved":false,"is_disabled":false,"rental_uris":{"android":"levelo://app?vid=f262884b-3ede-477a-a310-386c544dc900","ios":"levelo://app?vid=f262884b-3ede-477a-a310-386c544dc900"},"vehicle_type_id":"4","last_reported":1733152209,"current_range_meters":10000,"station_id":"ce4bgh92rcd13ifvqb50","pricing_plan_id":"cebpf4jnsgd1na2vs0mg"},{"bike_id":"0cd1de82-d0e4-4320-87ee-c296eefb4071","system_id":"levelo_inurba_marseille","lat":43.29207,"lon":5.35799,"is_reserved":false,"is_disabled":false,"rental_uris":{"android":"levelo://app?vid=0cd1de82-d0e4-4320-87ee-c296eefb4071","ios":"levelo://app?vid=0cd1de82-d0e4-4320-87ee-c296eefb4071"},"vehicle_type_id":"4","last_reported":1733152209,"current_range_meters":39200,"station_id":"ce4bhb12rcd13ifvqel0","pricing_plan_id":"cebpf4jnsgd1na2vs0mg"},{"bike_id":"d08ca373-571d-4d7e-b6da-c1f0eb690816","system_id":"levelo_inurba_marseille","lat":43.25574,"lon":5.38228,"is_reserved":false,"is_disabled":false,"rental_uris":{"android":"levelo://app?vid=d08ca373-571d-4d7e-b6da-c1f0eb690816","ios":"levelo://app?vid=d08ca373-571d-4d7e-b6da-c1f0eb690816"},"vehicle_type_id":"4","last_reported":1733152209,"current_range_meters":38800,"station_id":"ce4bhih2rcd13ifvqfs0","pricing_plan_id":"cebpf4jnsgd1na2vs0mg"},{"bike_id":"f14d1153-657b-478e-9ea5-75740c7bb469","system_id":"levelo_inurba_marseille","lat":43.27058,"lon":5.40259,"is_reserved":false,"is_disabled":false,"rental_uris":{"android":"levelo://app?vid=f14d1153-657b-478e-9ea5-75740c7bb469","ios":"levelo://app?vid=f14d1153-657b-478e-9ea5-75740c7bb469"},"vehicle_type_id":"4","last_reported":1733152209,"current_range_meters":16000,"station_id":"ce4bhk92rcd13ifvqgc0","pricing_plan_id":"cebpf4jnsgd1na2vs0mg"},{"bike_id":"f48eb107-5694-4943-909d-fb34609ea37c","system_id":"levelo_inurba_marseille","lat":43.27308,"lon":5.39092,"is_reserved":false,"is_disabled":false,"rental_uris":{"android":"levelo://app?vid=f48eb107-5694-4943-909d-fb34609ea37c","ios":"levelo://app?vid=f48eb107-5694-4943-909d-fb34609ea37c"},"vehicle_type_id":"4","last_reported":1733152209,"current_range_meters":5600,"station_id":"ce4bhgp2rcd13ifvqfe0","pricing_plan_id":"cebpf4jnsgd1na2vs0mg"},{"bike_id":"40a79cd3-fed3-4bee-add3-a73aa0eed84e","system_id":"levelo_inurba_marseille","lat":43.29074,"lon":5.37167,"is_reserved":false,"is_disabled":false,"rental_uris":{"android":"levelo://app?vid=40a79cd3-fed3-4bee-add3-a73aa0eed84e","ios":"levelo://app?vid=40a79cd3-fed3-4bee-add3-a73aa0eed84e"},"vehicle_type_id":"4","last_reported":1733152209,"current_range_meters":25600,"station_id":"ce4bh5p2rcd13ifvqe4g","pricing_plan_id":"cebpf4jnsgd1na2vs0mg"},{"bike_id":"cde3ae91-2a8c-4086-9e2a-6350696d2071","system_id":"levelo_inurba_marseille","lat":43.31542,"lon":5.38013,"is_reserved":false,"is_disabled":false,"rental_uris":{"android":"levelo://app?vid=cde3ae91-2a8c-4086-9e2a-6350696d2071","ios":"levelo://app?vid=cde3ae91-2a8c-4086-9e2a-6350696d2071"},"vehicle_type_id":"4","last_reported":1733152209,"current_range_meters":35200,"station_id":"ce4bhsp2rcd13ifvqi50","pricing_plan_id":"cebpf4jnsgd1na2vs0mg"},{"bike_id":"73108df9-99dc-46f7-8d9f-7b797bc9b1fa","system_id":"levelo_inurba_marseille","lat":43.3033,"lon":5.36906,"is_reserved":false,"is_disabled":false,"rental_uris":{"android":"levelo://app?vid=73108df9-99dc-46f7-8d9f-7b797bc9b1fa","ios":"levelo://app?vid=73108df9-99dc-46f7-8d9f-7b797bc9b1fa"},"vehicle_type_id":"4","last_reported":1733152209,"current_range_meters":28000,"station_id":"ce4bgqh2rcd13ifvqc5g","pricing_plan_id":"cebpf4jnsgd1na2vs0mg"},{"bike_id":"589b7359-9a1d-47be-95be-c2555703c258","system_id":"levelo_inurba_marseille","lat":43.2816,"lon":5.42657,"is_reserved":false,"is_disabled":false,"rental_uris":{"android":"levelo://app?vid=589b7359-9a1d-47be-95be-c2555703c258","ios":"levelo://app?vid=589b7359-9a1d-47be-95be-c2555703c258"},"vehicle_type_id":"4","last_reported":1733152209,"current_range_meters":38800,"station_id":"ce4bhnh2rcd13ifvqgug","pricing_plan_id":"cebpf4jnsgd1na2vs0mg"},{"bike_id":"fbea491b-7a53-4808-8ebe-d322f1f74651","system_id":"levelo_inurba_marseille","lat":43.27378,"lon":5.36259,"is_reserved":false,"is_disabled":true,"rental_uris":{"android":"levelo://app?vid=fbea491b-7a53-4808-8ebe-d322f1f74651","ios":"levelo://app?vid=fbea491b-7a53-4808-8ebe-d322f1f74651"},"vehicle_type_id":"4","last_reported":1733152209,"current_range_meters":0,"station_id":"ce4bhbh2rcd13ifvqeo0","pricing_plan_id":"cebpf4jnsgd1na2vs0mg"},{"bike_id":"1e76eb1b-c7f7-43de-869f-ca02335171a5","system_id":"levelo_inurba_marseille","lat":43.24077,"lon":5.3776,"is_reserved":false,"is_disabled":false,"rental_uris":{"android":"levelo://app?vid=1e76eb1b-c7f7-43de-869f-ca02335171a5","ios":"levelo://app?vid=1e76eb1b-c7f7-43de-869f-ca02335171a5"},"vehicle_type_id":"4","last_reported":1733152209,"current_range_meters":38800,"station_id":"ce4bhnp2rcd13ifvqgvg","pricing_plan_id":"cebpf4jnsgd1na2vs0mg"},{"bike_id":"d6575fe6-44b3-4de6-90ed-79cfc0dff05c","system_id":"levelo_inurba_marseille","lat":43.25745,"lon":5.39424,"is_reserved":false,"is_disabled":false,"rental_uris":{"android":"levelo://app?vid=d6575fe6-44b3-4de6-90ed-79cfc0dff05c","ios":"levelo://app?vid=d6575fe6-44b3-4de6-90ed-79cfc0dff05c"},"vehicle_type_id":"4","last_reported":1733152209,"current_range_meters":18000,"station_id":"ce4bhn12rcd13ifvqgpg","pricing_plan_id":"cebpf4jnsgd1na2vs0mg"},{"bike_id":"9c12d6c1-1145-4a66-b58a-107268325d93","system_id":"levelo_inurba_marseille","lat":43.23152,"lon":5.43723,"is_reserved":false,"is_disabled":false,"rental_uris":{"android":"levelo://app?vid=9c12d6c1-1145-4a66-b58a-107268325d93","ios":"levelo://app?vid=9c12d6c1-1145-4a66-b58a-107268325d93"},"vehicle_type_id":"4","last_reported":1733152209,"current_range_meters":22800,"station_id":"ce4bhmp2rcd13ifvqgog","pricing_plan_id":"cebpf4jnsgd1na2vs0mg"},{"bike_id":"5d4c5096-6bff-44a8-9b21-e911e4e3faa7","system_id":"levelo_inurba_marseille","lat":43.30539,"lon":5.36705,"is_reserved":false,"is_disabled":false,"rental_uris":{"android":"levelo://app?vid=5d4c5096-6bff-44a8-9b21-e911e4e3faa7","ios":"levelo://app?vid=5d4c5096-6bff-44a8-9b21-e911e4e3faa7"},"vehicle_type_id":"4","last_reported":1733152209,"current_range_meters":38000,"station_id":"ce4bgrp2rcd13ifvqc9g","pricing_plan_id":"cebpf4jnsgd1na2vs0mg"},{"bike_id":"79c8ea6d-5102-4a1e-b941-afdabc095945","system_id":"levelo_inurba_marseille","lat":43.29073,"lon":5.38335,"is_reserved":false,"is_disabled":true,"rental_uris":{"android":"levelo://app?vid=79c8ea6d-5102-4a1e-b941-afdabc095945","ios":"levelo://app?vid=79c8ea6d-5102-4a1e-b941-afdabc095945"},"vehicle_type_id":"4","last_reported":1733152209,"current_range_meters":28800,"station_id":"","pricing_plan_id":"cebpf4jnsgd1na2vs0mg"},{"bike_id":"71eb750b-4ac0-40ae-81e0-d4f4060508ef","system_id":"levelo_inurba_marseille","lat":43.29556,"lon":5.42281,"is_reserved":false,"is_disabled":false,"rental_uris":{"android":"levelo://app?vid=71eb750b-4ac0-40ae-81e0-d4f4060508ef","ios":"levelo://app?vid=71eb750b-4ac0-40ae-81e0-d4f4060508ef"},"vehicle_type_id":"4","last_reported":1733152209,"current_range_meters":30000,"station_id":"ce4bhph2rcd13ifvqhdg","pricing_plan_id":"cebpf4jnsgd1na2vs0mg"},{"bike_id":"f2e68029-efe7-42bf-a24d-0d567b4427d9","system_id":"levelo_inurba_marseille","lat":43.26795,"lon":5.39436,"is_reserved":false,"is_disabled":false,"rental_uris":{"android":"levelo://app?vid=f2e68029-efe7-42bf-a24d-0d567b4427d9","ios":"levelo://app?vid=f2e68029-efe7-42bf-a24d-0d567b4427d9"},"vehicle_type_id":"4","last_reported":1733152209,"current_range_meters":38800,"station_id":"ce4bhh12rcd13ifvqfg0","pricing_plan_id":"cebpf4jnsgd1na2vs0mg"},{"bike_id":"cab8bb76-5ccf-4848-b32f-9a0d11a4a390","system_id":"levelo_inurba_marseille","lat":43.29453,"lon":5.38575,"is_reserved":false,"is_disabled":false,"rental_uris":{"android":"levelo://app?vid=cab8bb76-5ccf-4848-b32f-9a0d11a4a390","ios":"levelo://app?vid=cab8bb76-5ccf-4848-b32f-9a0d11a4a390"},"vehicle_type_id":"4","last_reported":1733152209,"current_range_meters":38000,"station_id":"ce4bh692rcd13ifvqea0","pricing_plan_id":"cebpf4jnsgd1na2vs0mg"},{"bike_id":"80bec9bc-17f8-4280-92b3-6fc437ff9ae8","system_id":"levelo_inurba_marseille","lat":43.27986,"lon":5.3875,"is_reserved":false,"is_disabled":false,"rental_uris":{"android":"levelo://app?vid=80bec9bc-17f8-4280-92b3-6fc437ff9ae8","ios":"levelo://app?vid=80bec9bc-17f8-4280-92b3-6fc437ff9ae8"},"vehicle_type_id":"4","last_reported":1733152209,"current_range_meters":38800,"station_id":"ce4bhg12rcd13ifvqf80","pricing_plan_id":"cebpf4jnsgd1na2vs0mg"},{"bike_id":"4e938e06-f64a-40b5-988b-e244d4a82283","system_id":"levelo_inurba_marseille","lat":43.29846,"lon":5.36278,"is_reserved":false,"is_disabled":false,"rental_uris":{"android":"levelo://app?vid=4e938e06-f64a-40b5-988b-e244d4a82283","ios":"levelo://app?vid=4e938e06-f64a-40b5-988b-e244d4a82283"},"vehicle_type_id":"4","last_reported":1733152209,"current_range_meters":37600,"station_id":"ce4bgpp2rcd13ifvqc3g","pricing_plan_id":"cebpf4jnsgd1na2vs0mg"},{"bike_id":"8985f67e-36b1-4133-8ad0-71e6f1b50099","system_id":"levelo_inurba_marseille","lat":43.32479,"lon":5.36567,"is_reserved":false,"is_disabled":false,"rental_uris":{"android":"levelo://app?vid=8985f67e-36b1-4133-8ad0-71e6f1b50099","ios":"levelo://app?vid=8985f67e-36b1-4133-8ad0-71e6f1b50099"},"vehicle_type_id":"4","last_reported":1733152209,"current_range_meters":38000,"station_id":"ce4bhs12rcd13ifvqhvg","pricing_plan_id":"cebpf4jnsgd1na2vs0mg"},{"bike_id":"c31638b4-530c-4e75-b170-f72fafc13129","system_id":"levelo_inurba_marseille","lat":43.32659,"lon":5.40988,"is_reserved":false,"is_disabled":false,"rental_uris":{"android":"levelo://app?vid=c31638b4-530c-4e75-b170-f72fafc13129","ios":"levelo://app?vid=c31638b4-530c-4e75-b170-f72fafc13129"},"vehicle_type_id":"4","last_reported":1733152209,"current_range_meters":38000,"station_id":"ce4bhpp2rcd13ifvqhgg","pricing_plan_id":"cebpf4jnsgd1na2vs0mg"},{"bike_id":"a4b9e425-64b8-4ce2-a5ab-5fcc5d1230a4","system_id":"levelo_inurba_marseille","lat":43.32104,"lon":5.3678,"is_reserved":false,"is_disabled":false,"rental_uris":{"android":"levelo://app?vid=a4b9e425-64b8-4ce2-a5ab-5fcc5d1230a4","ios":"levelo://app?vid=a4b9e425-64b8-4ce2-a5ab-5fcc5d1230a4"},"vehicle_type_id":"4","last_reported":1733152209,"current_range_meters":16800,"station_id":"ce4bhrh2rcd13ifvqhug","pricing_plan_id":"cebpf4jnsgd1na2vs0mg"},{"bike_id":"83f0af04-3780-4686-ace5-ff4310086a24","system_id":"levelo_inurba_marseille","lat":43.31887,"lon":5.4074,"is_reserved":false,"is_disabled":false,"rental_uris":{"android":"levelo://app?vid=83f0af04-3780-4686-ace5-ff4310086a24","ios":"levelo://app?vid=83f0af04-3780-4686-ace5-ff4310086a24"},"vehicle_type_id":"4","last_reported":1733152209,"current_range_meters":36000,"station_id":"ce4bhq12rcd13ifvqhig","pricing_plan_id":"cebpf4jnsgd1na2vs0mg"},{"bike_id":"ffe15855-ecd3-40ac-a484-cfac30b1cbb5","system_id":"levelo_inurba_marseille","lat":43.25122,"lon":5.40317,"is_reserved":false,"is_disabled":false,"rental_uris":{"android":"levelo://app?vid=ffe15855-ecd3-40ac-a484-cfac30b1cbb5","ios":"levelo://app?vid=ffe15855-ecd3-40ac-a484-cfac30b1cbb5"},"vehicle_type_id":"4","last_reported":1733152209,"current_range_meters":30000,"station_id":"ce4bhlh2rcd13ifvqgig","pricing_plan_id":"cebpf4jnsgd1na2vs0mg"},{"bike_id":"e6698643-3f16-4336-a7c2-ea0cb6def508","system_id":"levelo_inurba_marseille","lat":43.26936,"lon":5.38915,"is_reserved":false,"is_disabled":true,"rental_uris":{"android":"levelo://app?vid=e6698643-3f16-4336-a7c2-ea0cb6def508","ios":"levelo://app?vid=e6698643-3f16-4336-a7c2-ea0cb6def508"},"vehicle_type_id":"4","last_reported":1733152209,"current_range_meters":0,"station_id":"ce4bhhh2rcd13ifvqfl0","pricing_plan_id":"cebpf4jnsgd1na2vs0mg"},{"bike_id":"8077151a-ad6b-4614-9222-939134514619","system_id":"levelo_inurba_marseille","lat":43.30303,"lon":5.39205,"is_reserved":false,"is_disabled":true,"rental_uris":{"android":"levelo://app?vid=8077151a-ad6b-4614-9222-939134514619","ios":"levelo://app?vid=8077151a-ad6b-4614-9222-939134514619"},"vehicle_type_id":"4","last_reported":1733152209,"current_range_meters":7200,"station_id":"ce4bgkh2rcd13ifvqbk0","pricing_plan_id":"cebpf4jnsgd1na2vs0mg"},{"bike_id":"1c47dd2e-708b-42ab-9e0d-59b03332b5e4","system_id":"levelo_inurba_marseille","lat":43.29597,"lon":5.37731,"is_reserved":false,"is_disabled":false,"rental_uris":{"android":"levelo://app?vid=1c47dd2e-708b-42ab-9e0d-59b03332b5e4","ios":"levelo://app?vid=1c47dd2e-708b-42ab-9e0d-59b03332b5e4"},"vehicle_type_id":"4","last_reported":1733152209,"current_range_meters":12800,"station_id":"ce4bgi92rcd13ifvqb90","pricing_plan_id":"cebpf4jnsgd1na2vs0mg"},{"bike_id":"d44b0368-00be-4d57-a135-fbc6d4303bca","system_id":"levelo_inurba_marseille","lat":43.26687,"lon":5.38274,"is_reserved":false,"is_disabled":true,"rental_uris":{"android":"levelo://app?vid=d44b0368-00be-4d57-a135-fbc6d4303bca","ios":"levelo://app?vid=d44b0368-00be-4d57-a135-fbc6d4303bca"},"vehicle_type_id":"4","last_reported":1733152209,"current_range_meters":12000,"station_id":"ce4bhg92rcd13ifvqf90","pricing_plan_id":"cebpf4jnsgd1na2vs0mg"},{"bike_id":"b6d6b07e-4688-45f1-857e-88e0c9f71088","system_id":"levelo_inurba_marseille","lat":43.29578,"lon":5.37513,"is_reserved":false,"is_disabled":true,"rental_uris":{"android":"levelo://app?vid=b6d6b07e-4688-45f1-857e-88e0c9f71088","ios":"levelo://app?vid=b6d6b07e-4688-45f1-857e-88e0c9f71088"},"vehicle_type_id":"4","last_reported":1733152209,"current_range_meters":37600,"station_id":"ce4bgh92rcd13ifvqb50","pricing_plan_id":"cebpf4jnsgd1na2vs0mg"},{"bike_id":"dc4c307a-54e4-4bb3-a95c-7c3ecd48712d","system_id":"levelo_inurba_marseille","lat":43.29678,"lon":5.37291,"is_reserved":false,"is_disabled":false,"rental_uris":{"android":"levelo://app?vid=dc4c307a-54e4-4bb3-a95c-7c3ecd48712d","ios":"levelo://app?vid=dc4c307a-54e4-4bb3-a95c-7c3ecd48712d"},"vehicle_type_id":"4","last_reported":1733152209,"current_range_meters":28000,"station_id":"ce4bgk12rcd13ifvqbj0","pricing_plan_id":"cebpf4jnsgd1na2vs0mg"},{"bike_id":"a761a216-f93a-47f1-b035-22ffd9883cb3","system_id":"levelo_inurba_marseille","lat":43.27908,"lon":5.3802,"is_reserved":false,"is_disabled":false,"rental_uris":{"android":"levelo://app?vid=a761a216-f93a-47f1-b035-22ffd9883cb3","ios":"levelo://app?vid=a761a216-f93a-47f1-b035-22ffd9883cb3"},"vehicle_type_id":"4","last_reported":1733152209,"current_range_meters":36800,"station_id":"ce4bhf92rcd13ifvqf50","pricing_plan_id":"cebpf4jnsgd1na2vs0mg"},{"bike_id":"9f6372a6-065a-4e4e-a232-8f126a87f16a","system_id":"levelo_inurba_marseille","lat":43.27921,"lon":5.39581,"is_reserved":false,"is_disabled":true,"rental_uris":{"android":"levelo://app?vid=9f6372a6-065a-4e4e-a232-8f126a87f16a","ios":"levelo://app?vid=9f6372a6-065a-4e4e-a232-8f126a87f16a"},"vehicle_type_id":"4","last_reported":1733152209,"current_range_meters":2000,"station_id":"ce4bhf92rcd13ifvqf40","pricing_plan_id":"cebpf4jnsgd1na2vs0mg"},{"bike_id":"32b70fda-b289-4635-a389-ca325e2916cc","system_id":"levelo_inurba_marseille","lat":43.29225,"lon":5.36071,"is_reserved":false,"is_disabled":false,"rental_uris":{"android":"levelo://app?vid=32b70fda-b289-4635-a389-ca325e2916cc","ios":"levelo://app?vid=32b70fda-b289-4635-a389-ca325e2916cc"},"vehicle_type_id":"4","last_reported":1733152209,"current_range_meters":36000,"station_id":"ce4bhbh2rcd13ifvqeqg","pricing_plan_id":"cebpf4jnsgd1na2vs0mg"},{"bike_id":"b8ed898b-4e21-4cfa-8a5c-6247fab8728c","system_id":"levelo_inurba_marseille","lat":43.30217,"lon":5.36934,"is_reserved":false,"is_disabled":false,"rental_uris":{"android":"levelo://app?vid=b8ed898b-4e21-4cfa-8a5c-6247fab8728c","ios":"levelo://app?vid=b8ed898b-4e21-4cfa-8a5c-6247fab8728c"},"vehicle_type_id":"4","last_reported":1733152209,"current_range_meters":16400,"station_id":"ce4bgih2rcd13ifvqba0","pricing_plan_id":"cebpf4jnsgd1na2vs0mg"},{"bike_id":"eddf9349-81b8-4b0c-899b-f235bcb390e2","system_id":"levelo_inurba_marseille","lat":43.29935,"lon":5.36548,"is_reserved":false,"is_disabled":true,"rental_uris":{"android":"levelo://app?vid=eddf9349-81b8-4b0c-899b-f235bcb390e2","ios":"levelo://app?vid=eddf9349-81b8-4b0c-899b-f235bcb390e2"},"vehicle_type_id":"4","last_reported":1733152209,"current_range_meters":9200,"station_id":"ce4bgm92rcd13ifvqbr0","pricing_plan_id":"cebpf4jnsgd1na2vs0mg"},{"bike_id":"c8cc7c3f-f0c8-407d-989f-2296c0b367ad","system_id":"levelo_inurba_marseille","lat":43.26512,"lon":5.39541,"is_reserved":false,"is_disabled":false,"rental_uris":{"android":"levelo://app?vid=c8cc7c3f-f0c8-407d-989f-2296c0b367ad","ios":"levelo://app?vid=c8cc7c3f-f0c8-407d-989f-2296c0b367ad"},"vehicle_type_id":"4","last_reported":1733152209,"current_range_meters":11200,"station_id":"ce4bhi12rcd13ifvqfq0","pricing_plan_id":"cebpf4jnsgd1na2vs0mg"},{"bike_id":"9c51d8a2-940e-42ed-9468-b49e00e54dfe","system_id":"levelo_inurba_marseille","lat":43.30544,"lon":5.36694,"is_reserved":false,"is_disabled":false,"rental_uris":{"android":"levelo://app?vid=9c51d8a2-940e-42ed-9468-b49e00e54dfe","ios":"levelo://app?vid=9c51d8a2-940e-42ed-9468-b49e00e54dfe"},"vehicle_type_id":"4","last_reported":1733152209,"current_range_meters":38800,"station_id":"ce4bgrp2rcd13ifvqc9g","pricing_plan_id":"cebpf4jnsgd1na2vs0mg"},{"bike_id":"5e160b8e-5c83-4423-b051-bd2cf577003d","system_id":"levelo_inurba_marseille","lat":43.23202,"lon":5.35546,"is_reserved":false,"is_disabled":false,"rental_uris":{"android":"levelo://app?vid=5e160b8e-5c83-4423-b051-bd2cf577003d","ios":"levelo://app?vid=5e160b8e-5c83-4423-b051-bd2cf577003d"},"vehicle_type_id":"4","last_reported":1733152209,"current_range_meters":35200,"station_id":"ce4bhu92rcd13ifvqi70","pricing_plan_id":"cebpf4jnsgd1na2vs0mg"},{"bike_id":"322cf6fe-0822-422b-95a4-35c4bd952f62","system_id":"levelo_inurba_marseille","lat":43.27181,"lon":5.40995,"is_reserved":false,"is_disabled":false,"rental_uris":{"android":"levelo://app?vid=322cf6fe-0822-422b-95a4-35c4bd952f62","ios":"levelo://app?vid=322cf6fe-0822-422b-95a4-35c4bd952f62"},"vehicle_type_id":"4","last_reported":1733152209,"current_range_meters":28400,"station_id":"ce4bhl12rcd13ifvqgf0","pricing_plan_id":"cebpf4jnsgd1na2vs0mg"},{"bike_id":"df282ba8-17eb-4fce-abd3-e1ba704dcef4","system_id":"levelo_inurba_marseille","lat":43.295723,"lon":5.399681,"is_reserved":false,"is_disabled":true,"rental_uris":{"android":"levelo://app?vid=df282ba8-17eb-4fce-abd3-e1ba704dcef4","ios":"levelo://app?vid=df282ba8-17eb-4fce-abd3-e1ba704dcef4"},"vehicle_type_id":"4","last_reported":1733152209,"current_range_meters":19600,"station_id":"ce4bh312rcd13ifvqdj0","pricing_plan_id":"cebpf4jnsgd1na2vs0mg"},{"bike_id":"fb88ac8f-ab91-4d9b-9aa2-b119a48c9621","system_id":"levelo_inurba_marseille","lat":43.29962,"lon":5.38477,"is_reserved":false,"is_disabled":false,"rental_uris":{"android":"levelo://app?vid=fb88ac8f-ab91-4d9b-9aa2-b119a48c9621","ios":"levelo://app?vid=fb88ac8f-ab91-4d9b-9aa2-b119a48c9621"},"vehicle_type_id":"4","last_reported":1733152209,"current_range_meters":18800,"station_id":"ce4bgj92rcd13ifvqbd0","pricing_plan_id":"cebpf4jnsgd1na2vs0mg"},{"bike_id":"95572b21-879a-4263-bb3f-4ee2d9590ba6","system_id":"levelo_inurba_marseille","lat":43.3054,"lon":5.36532,"is_reserved":false,"is_disabled":false,"rental_uris":{"android":"levelo://app?vid=95572b21-879a-4263-bb3f-4ee2d9590ba6","ios":"levelo://app?vid=95572b21-879a-4263-bb3f-4ee2d9590ba6"},"vehicle_type_id":"4","last_reported":1733152209,"current_range_meters":38800,"station_id":"ce4bgs12rcd13ifvqcag","pricing_plan_id":"cebpf4jnsgd1na2vs0mg"},{"bike_id":"3a5e58b5-3c98-4f3b-ae37-c37e0cc0f0fd","system_id":"levelo_inurba_marseille","lat":43.29932,"lon":5.36549,"is_reserved":false,"is_disabled":false,"rental_uris":{"android":"levelo://app?vid=3a5e58b5-3c98-4f3b-ae37-c37e0cc0f0fd","ios":"levelo://app?vid=3a5e58b5-3c98-4f3b-ae37-c37e0cc0f0fd"},"vehicle_type_id":"4","last_reported":1733152209,"current_range_meters":17600,"station_id":"ce4bgm92rcd13ifvqbr0","pricing_plan_id":"cebpf4jnsgd1na2vs0mg"},{"bike_id":"70fac8b3-ff8d-4f80-b320-d5f976b2f736","system_id":"levelo_inurba_marseille","lat":43.25512,"lon":5.37649,"is_reserved":false,"is_disabled":false,"rental_uris":{"android":"levelo://app?vid=70fac8b3-ff8d-4f80-b320-d5f976b2f736","ios":"levelo://app?vid=70fac8b3-ff8d-4f80-b320-d5f976b2f736"},"vehicle_type_id":"4","last_reported":1733152209,"current_range_meters":30400,"station_id":"ce4bhh12rcd13ifvqff0","pricing_plan_id":"cebpf4jnsgd1na2vs0mg"},{"bike_id":"7b843911-c95f-4942-acc8-5fe398c1adb2","system_id":"levelo_inurba_marseille","lat":43.26939,"lon":5.40256,"is_reserved":false,"is_disabled":false,"rental_uris":{"android":"levelo://app?vid=7b843911-c95f-4942-acc8-5fe398c1adb2","ios":"levelo://app?vid=7b843911-c95f-4942-acc8-5fe398c1adb2"},"vehicle_type_id":"4","last_reported":1733152209,"current_range_meters":38800,"station_id":"cjm6bp8fraef2m0cb0m0","pricing_plan_id":"cebpf4jnsgd1na2vs0mg"},{"bike_id":"90ac7dc9-59a3-4594-afec-12e2df3d4ff8","system_id":"levelo_inurba_marseille","lat":43.31078,"lon":5.38355,"is_reserved":false,"is_disabled":false,"rental_uris":{"android":"levelo://app?vid=90ac7dc9-59a3-4594-afec-12e2df3d4ff8","ios":"levelo://app?vid=90ac7dc9-59a3-4594-afec-12e2df3d4ff8"},"vehicle_type_id":"4","last_reported":1733152209,"current_range_meters":37600,"station_id":"ce4bgv92rcd13ifvqcr0","pricing_plan_id":"cebpf4jnsgd1na2vs0mg"},{"bike_id":"36cd6868-7658-4f13-aa8a-d723e48c165c","system_id":"levelo_inurba_marseille","lat":43.31361,"lon":5.36714,"is_reserved":false,"is_disabled":false,"rental_uris":{"android":"levelo://app?vid=36cd6868-7658-4f13-aa8a-d723e48c165c","ios":"levelo://app?vid=36cd6868-7658-4f13-aa8a-d723e48c165c"},"vehicle_type_id":"4","last_reported":1733152209,"current_range_meters":21600,"station_id":"ce4bgr92rcd13ifvqc6g","pricing_plan_id":"cebpf4jnsgd1na2vs0mg"},{"bike_id":"5618afe4-a9bb-4950-8db2-0c25e538460c","system_id":"levelo_inurba_marseille","lat":43.2796,"lon":5.38706,"is_reserved":false,"is_disabled":false,"rental_uris":{"android":"levelo://app?vid=5618afe4-a9bb-4950-8db2-0c25e538460c","ios":"levelo://app?vid=5618afe4-a9bb-4950-8db2-0c25e538460c"},"vehicle_type_id":"4","last_reported":1733152209,"current_range_meters":27200,"station_id":"ce4bhg12rcd13ifvqf80","pricing_plan_id":"cebpf4jnsgd1na2vs0mg"},{"bike_id":"b2b52eed-b6b0-423f-b350-b37dd95fe81c","system_id":"levelo_inurba_marseille","lat":43.29841,"lon":5.36297,"is_reserved":false,"is_disabled":false,"rental_uris":{"android":"levelo://app?vid=b2b52eed-b6b0-423f-b350-b37dd95fe81c","ios":"levelo://app?vid=b2b52eed-b6b0-423f-b350-b37dd95fe81c"},"vehicle_type_id":"4","last_reported":1733152209,"current_range_meters":38800,"station_id":"ce4bgpp2rcd13ifvqc3g","pricing_plan_id":"cebpf4jnsgd1na2vs0mg"},{"bike_id":"e63aa962-a242-44bd-8328-31cf6c0d9d3d","system_id":"levelo_inurba_marseille","lat":43.29301,"lon":5.37178,"is_reserved":false,"is_disabled":true,"rental_uris":{"android":"levelo://app?vid=e63aa962-a242-44bd-8328-31cf6c0d9d3d","ios":"levelo://app?vid=e63aa962-a242-44bd-8328-31cf6c0d9d3d"},"vehicle_type_id":"4","last_reported":1733152209,"current_range_meters":0,"station_id":"ce4bgh92rcd13ifvqb40","pricing_plan_id":"cebpf4jnsgd1na2vs0mg"},{"bike_id":"91edee77-9f26-4173-ab2e-f00447a2b965","system_id":"levelo_inurba_marseille","lat":43.29227,"lon":5.36071,"is_reserved":false,"is_disabled":false,"rental_uris":{"android":"levelo://app?vid=91edee77-9f26-4173-ab2e-f00447a2b965","ios":"levelo://app?vid=91edee77-9f26-4173-ab2e-f00447a2b965"},"vehicle_type_id":"4","last_reported":1733152209,"current_range_meters":16400,"station_id":"ce4bhbh2rcd13ifvqeqg","pricing_plan_id":"cebpf4jnsgd1na2vs0mg"},{"bike_id":"aad28021-3456-4cf9-bc29-eabcfa6f6b14","system_id":"levelo_inurba_marseille","lat":43.32892,"lon":5.3645,"is_reserved":false,"is_disabled":false,"rental_uris":{"android":"levelo://app?vid=aad28021-3456-4cf9-bc29-eabcfa6f6b14","ios":"levelo://app?vid=aad28021-3456-4cf9-bc29-eabcfa6f6b14"},"vehicle_type_id":"4","last_reported":1733152209,"current_range_meters":9200,"station_id":"","pricing_plan_id":"cebpf4jnsgd1na2vs0mg"},{"bike_id":"3bc3f585-d130-4e68-aa87-793fdd897875","system_id":"levelo_inurba_marseille","lat":43.25504,"lon":5.3764,"is_reserved":false,"is_disabled":false,"rental_uris":{"android":"levelo://app?vid=3bc3f585-d130-4e68-aa87-793fdd897875","ios":"levelo://app?vid=3bc3f585-d130-4e68-aa87-793fdd897875"},"vehicle_type_id":"4","last_reported":1733152209,"current_range_meters":16400,"station_id":"ce4bhh12rcd13ifvqff0","pricing_plan_id":"cebpf4jnsgd1na2vs0mg"},{"bike_id":"4b959530-7810-4702-b74a-a19678b70d2c","system_id":"levelo_inurba_marseille","lat":43.29201,"lon":5.39309,"is_reserved":false,"is_disabled":false,"rental_uris":{"android":"levelo://app?vid=4b959530-7810-4702-b74a-a19678b70d2c","ios":"levelo://app?vid=4b959530-7810-4702-b74a-a19678b70d2c"},"vehicle_type_id":"4","last_reported":1733152209,"current_range_meters":28400,"station_id":"ce4bh192rcd13ifvqdd0","pricing_plan_id":"cebpf4jnsgd1na2vs0mg"},{"bike_id":"63dd93b9-34c6-495e-91ab-0614537649c7","system_id":"levelo_inurba_marseille","lat":43.32291,"lon":5.38262,"is_reserved":false,"is_disabled":false,"rental_uris":{"android":"levelo://app?vid=63dd93b9-34c6-495e-91ab-0614537649c7","ios":"levelo://app?vid=63dd93b9-34c6-495e-91ab-0614537649c7"},"vehicle_type_id":"4","last_reported":1733152209,"current_range_meters":38800,"station_id":"ce4bhr12rcd13ifvqhqg","pricing_plan_id":"cebpf4jnsgd1na2vs0mg"},{"bike_id":"db3350c1-c25d-4348-9a3c-eecb318b29cc","system_id":"levelo_inurba_marseille","lat":43.31723,"lon":5.424,"is_reserved":false,"is_disabled":false,"rental_uris":{"android":"levelo://app?vid=db3350c1-c25d-4348-9a3c-eecb318b29cc","ios":"levelo://app?vid=db3350c1-c25d-4348-9a3c-eecb318b29cc"},"vehicle_type_id":"4","last_reported":1733152209,"current_range_meters":38000,"station_id":"ce4bhp92rcd13ifvqhbg","pricing_plan_id":"cebpf4jnsgd1na2vs0mg"},{"bike_id":"ea3106cb-0d51-4c9d-a4ad-a91b724fe177","system_id":"levelo_inurba_marseille","lat":43.29566,"lon":5.39971,"is_reserved":false,"is_disabled":true,"rental_uris":{"android":"levelo://app?vid=ea3106cb-0d51-4c9d-a4ad-a91b724fe177","ios":"levelo://app?vid=ea3106cb-0d51-4c9d-a4ad-a91b724fe177"},"vehicle_type_id":"4","last_reported":1733152209,"current_range_meters":32000,"station_id":"ce4bh312rcd13ifvqdj0","pricing_plan_id":"cebpf4jnsgd1na2vs0mg"},{"bike_id":"7162aa44-86d7-4628-93e4-c9d3f5365eb9","system_id":"levelo_inurba_marseille","lat":43.29418,"lon":5.40137,"is_reserved":false,"is_disabled":true,"rental_uris":{"android":"levelo://app?vid=7162aa44-86d7-4628-93e4-c9d3f5365eb9","ios":"levelo://app?vid=7162aa44-86d7-4628-93e4-c9d3f5365eb9"},"vehicle_type_id":"4","last_reported":1733152209,"current_range_meters":36800,"station_id":"","pricing_plan_id":"cebpf4jnsgd1na2vs0mg"},{"bike_id":"8564107b-4c5f-48f9-a8fe-2cf2332c218d","system_id":"levelo_inurba_marseille","lat":43.28419,"lon":5.34982,"is_reserved":false,"is_disabled":true,"rental_uris":{"android":"levelo://app?vid=8564107b-4c5f-48f9-a8fe-2cf2332c218d","ios":"levelo://app?vid=8564107b-4c5f-48f9-a8fe-2cf2332c218d"},"vehicle_type_id":"4","last_reported":1733152209,"current_range_meters":27600,"station_id":"ce4bhbh2rcd13ifvqepg","pricing_plan_id":"cebpf4jnsgd1na2vs0mg"},{"bike_id":"0870ffd7-9488-4bd6-a1ba-20739455d01d","system_id":"levelo_inurba_marseille","lat":43.25582,"lon":5.38228,"is_reserved":false,"is_disabled":false,"rental_uris":{"android":"levelo://app?vid=0870ffd7-9488-4bd6-a1ba-20739455d01d","ios":"levelo://app?vid=0870ffd7-9488-4bd6-a1ba-20739455d01d"},"vehicle_type_id":"4","last_reported":1733152209,"current_range_meters":26000,"station_id":"ce4bhih2rcd13ifvqfs0","pricing_plan_id":"cebpf4jnsgd1na2vs0mg"},{"bike_id":"da6a7a1d-e653-4950-af8c-8137b06f7d40","system_id":"levelo_inurba_marseille","lat":43.3004,"lon":5.37551,"is_reserved":false,"is_disabled":true,"rental_uris":{"android":"levelo://app?vid=da6a7a1d-e653-4950-af8c-8137b06f7d40","ios":"levelo://app?vid=da6a7a1d-e653-4950-af8c-8137b06f7d40"},"vehicle_type_id":"4","last_reported":1733152209,"current_range_meters":0,"station_id":"","pricing_plan_id":"cebpf4jnsgd1na2vs0mg"},{"bike_id":"2e764897-4a5f-4726-94b2-b1d9ca107e19","system_id":"levelo_inurba_marseille","lat":43.31171,"lon":5.38719,"is_reserved":false,"is_disabled":false,"rental_uris":{"android":"levelo://app?vid=2e764897-4a5f-4726-94b2-b1d9ca107e19","ios":"levelo://app?vid=2e764897-4a5f-4726-94b2-b1d9ca107e19"},"vehicle_type_id":"4","last_reported":1733152209,"current_range_meters":36400,"station_id":"ce4bgv12rcd13ifvqcp0","pricing_plan_id":"cebpf4jnsgd1na2vs0mg"},{"bike_id":"154f96db-4a80-4003-84cb-0f63f5d089e6","system_id":"levelo_inurba_marseille","lat":43.30558,"lon":5.36731,"is_reserved":false,"is_disabled":false,"rental_uris":{"android":"levelo://app?vid=154f96db-4a80-4003-84cb-0f63f5d089e6","ios":"levelo://app?vid=154f96db-4a80-4003-84cb-0f63f5d089e6"},"vehicle_type_id":"4","last_reported":1733152209,"current_range_meters":39200,"station_id":"ce4bgrp2rcd13ifvqc9g","pricing_plan_id":"cebpf4jnsgd1na2vs0mg"},{"bike_id":"68ac38be-d90a-4e67-924e-83422ab41d7b","system_id":"levelo_inurba_marseille","lat":43.2405,"lon":5.37728,"is_reserved":false,"is_disabled":false,"rental_uris":{"android":"levelo://app?vid=68ac38be-d90a-4e67-924e-83422ab41d7b","ios":"levelo://app?vid=68ac38be-d90a-4e67-924e-83422ab41d7b"},"vehicle_type_id":"4","last_reported":1733152209,"current_range_meters":38800,"station_id":"ce4bhnp2rcd13ifvqgvg","pricing_plan_id":"cebpf4jnsgd1na2vs0mg"},{"bike_id":"9b5423f5-8a9a-40a5-a769-5a0c0eaa5c4c","system_id":"levelo_inurba_marseille","lat":43.31488,"lon":5.37307,"is_reserved":false,"is_disabled":false,"rental_uris":{"android":"levelo://app?vid=9b5423f5-8a9a-40a5-a769-5a0c0eaa5c4c","ios":"levelo://app?vid=9b5423f5-8a9a-40a5-a769-5a0c0eaa5c4c"},"vehicle_type_id":"4","last_reported":1733152209,"current_range_meters":12800,"station_id":"ce4bgt12rcd13ifvqcd0","pricing_plan_id":"cebpf4jnsgd1na2vs0mg"},{"bike_id":"4bb17e35-63a7-4207-ad51-f9daa27c49b5","system_id":"levelo_inurba_marseille","lat":43.325356,"lon":5.41431,"is_reserved":false,"is_disabled":false,"rental_uris":{"android":"levelo://app?vid=4bb17e35-63a7-4207-ad51-f9daa27c49b5","ios":"levelo://app?vid=4bb17e35-63a7-4207-ad51-f9daa27c49b5"},"vehicle_type_id":"4","last_reported":1733152209,"current_range_meters":16400,"station_id":"ce4bhq12rcd13ifvqhhg","pricing_plan_id":"cebpf4jnsgd1na2vs0mg"},{"bike_id":"809318a1-64c4-4f28-86c6-832fd8c02c28","system_id":"levelo_inurba_marseille","lat":43.25497,"lon":5.37651,"is_reserved":false,"is_disabled":false,"rental_uris":{"android":"levelo://app?vid=809318a1-64c4-4f28-86c6-832fd8c02c28","ios":"levelo://app?vid=809318a1-64c4-4f28-86c6-832fd8c02c28"},"vehicle_type_id":"4","last_reported":1733152209,"current_range_meters":38000,"station_id":"ce4bhh12rcd13ifvqff0","pricing_plan_id":"cebpf4jnsgd1na2vs0mg"},{"bike_id":"1a6cca3c-1d4d-4b3f-871b-fc665b7f642d","system_id":"levelo_inurba_marseille","lat":43.29508,"lon":5.37498,"is_reserved":false,"is_disabled":false,"rental_uris":{"android":"levelo://app?vid=1a6cca3c-1d4d-4b3f-871b-fc665b7f642d","ios":"levelo://app?vid=1a6cca3c-1d4d-4b3f-871b-fc665b7f642d"},"vehicle_type_id":"4","last_reported":1733152209,"current_range_meters":38800,"station_id":"ce4bgkp2rcd13ifvqbmg","pricing_plan_id":"cebpf4jnsgd1na2vs0mg"},{"bike_id":"c707ecf5-e590-498e-936e-fff767f3e144","system_id":"levelo_inurba_marseille","lat":43.28616,"lon":5.35106,"is_reserved":false,"is_disabled":true,"rental_uris":{"android":"levelo://app?vid=c707ecf5-e590-498e-936e-fff767f3e144","ios":"levelo://app?vid=c707ecf5-e590-498e-936e-fff767f3e144"},"vehicle_type_id":"4","last_reported":1733152209,"current_range_meters":0,"station_id":"ce4bhch2rcd13ifvqeug","pricing_plan_id":"cebpf4jnsgd1na2vs0mg"},{"bike_id":"ec1a18ca-5455-4f6a-bb18-a56e1d4c4aae","system_id":"levelo_inurba_marseille","lat":43.29442,"lon":5.39761,"is_reserved":false,"is_disabled":true,"rental_uris":{"android":"levelo://app?vid=ec1a18ca-5455-4f6a-bb18-a56e1d4c4aae","ios":"levelo://app?vid=ec1a18ca-5455-4f6a-bb18-a56e1d4c4aae"},"vehicle_type_id":"4","last_reported":1733152209,"current_range_meters":18000,"station_id":"ce4bh3h2rcd13ifvqdo0","pricing_plan_id":"cebpf4jnsgd1na2vs0mg"},{"bike_id":"0050c941-f9ac-46b5-9a6e-706bb96edfa8","system_id":"levelo_inurba_marseille","lat":43.2418,"lon":5.39725,"is_reserved":false,"is_disabled":false,"rental_uris":{"android":"levelo://app?vid=0050c941-f9ac-46b5-9a6e-706bb96edfa8","ios":"levelo://app?vid=0050c941-f9ac-46b5-9a6e-706bb96edfa8"},"vehicle_type_id":"4","last_reported":1733152209,"current_range_meters":30800,"station_id":"ce4bhn12rcd13ifvqgpg","pricing_plan_id":"cebpf4jnsgd1na2vs0mg"},{"bike_id":"446f3ffa-87ae-41c6-b911-cafe1d330f52","system_id":"levelo_inurba_marseille","lat":43.28844,"lon":5.39311,"is_reserved":false,"is_disabled":false,"rental_uris":{"android":"levelo://app?vid=446f3ffa-87ae-41c6-b911-cafe1d330f52","ios":"levelo://app?vid=446f3ffa-87ae-41c6-b911-cafe1d330f52"},"vehicle_type_id":"4","last_reported":1733152209,"current_range_meters":28000,"station_id":"ce4bh2p2rcd13ifvqdi0","pricing_plan_id":"cebpf4jnsgd1na2vs0mg"},{"bike_id":"9b163be8-afc7-4609-aa61-e9b3a8cf5530","system_id":"levelo_inurba_marseille","lat":43.28419,"lon":5.37508,"is_reserved":false,"is_disabled":false,"rental_uris":{"android":"levelo://app?vid=9b163be8-afc7-4609-aa61-e9b3a8cf5530","ios":"levelo://app?vid=9b163be8-afc7-4609-aa61-e9b3a8cf5530"},"vehicle_type_id":"4","last_reported":1733152209,"current_range_meters":24400,"station_id":"ce4bh412rcd13ifvqds0","pricing_plan_id":"cebpf4jnsgd1na2vs0mg"},{"bike_id":"c8b571c8-ff55-4936-91eb-5ae5ac0d0ee8","system_id":"levelo_inurba_marseille","lat":43.25578,"lon":5.38226,"is_reserved":false,"is_disabled":false,"rental_uris":{"android":"levelo://app?vid=c8b571c8-ff55-4936-91eb-5ae5ac0d0ee8","ios":"levelo://app?vid=c8b571c8-ff55-4936-91eb-5ae5ac0d0ee8"},"vehicle_type_id":"4","last_reported":1733152209,"current_range_meters":8400,"station_id":"ce4bhih2rcd13ifvqfs0","pricing_plan_id":"cebpf4jnsgd1na2vs0mg"},{"bike_id":"53c49f91-b461-492e-a085-09cd1efdb30c","system_id":"levelo_inurba_marseille","lat":43.27177,"lon":5.40988,"is_reserved":false,"is_disabled":false,"rental_uris":{"android":"levelo://app?vid=53c49f91-b461-492e-a085-09cd1efdb30c","ios":"levelo://app?vid=53c49f91-b461-492e-a085-09cd1efdb30c"},"vehicle_type_id":"4","last_reported":1733152209,"current_range_meters":38800,"station_id":"ce4bhl12rcd13ifvqgf0","pricing_plan_id":"cebpf4jnsgd1na2vs0mg"},{"bike_id":"b05ee27a-dfb6-4d31-84ac-62ca21608fce","system_id":"levelo_inurba_marseille","lat":43.26033,"lon":5.37548,"is_reserved":false,"is_disabled":false,"rental_uris":{"android":"levelo://app?vid=b05ee27a-dfb6-4d31-84ac-62ca21608fce","ios":"levelo://app?vid=b05ee27a-dfb6-4d31-84ac-62ca21608fce"},"vehicle_type_id":"4","last_reported":1733152209,"current_range_meters":14400,"station_id":"ce4bhgh2rcd13ifvqfa0","pricing_plan_id":"cebpf4jnsgd1na2vs0mg"},{"bike_id":"d6a53df9-b0c3-4010-bf25-3e3e093e6169","system_id":"levelo_inurba_marseille","lat":43.3154,"lon":5.3801,"is_reserved":false,"is_disabled":false,"rental_uris":{"android":"levelo://app?vid=d6a53df9-b0c3-4010-bf25-3e3e093e6169","ios":"levelo://app?vid=d6a53df9-b0c3-4010-bf25-3e3e093e6169"},"vehicle_type_id":"4","last_reported":1733152209,"current_range_meters":27200,"station_id":"ce4bhsp2rcd13ifvqi50","pricing_plan_id":"cebpf4jnsgd1na2vs0mg"},{"bike_id":"263ee028-89e1-439d-86d9-870afbb1a1c0","system_id":"levelo_inurba_marseille","lat":43.31362,"lon":5.36711,"is_reserved":false,"is_disabled":false,"rental_uris":{"android":"levelo://app?vid=263ee028-89e1-439d-86d9-870afbb1a1c0","ios":"levelo://app?vid=263ee028-89e1-439d-86d9-870afbb1a1c0"},"vehicle_type_id":"4","last_reported":1733152209,"current_range_meters":28400,"station_id":"ce4bgr92rcd13ifvqc6g","pricing_plan_id":"cebpf4jnsgd1na2vs0mg"},{"bike_id":"23d2a34e-2f34-4cb1-beeb-b82fae49211d","system_id":"levelo_inurba_marseille","lat":43.24653,"lon":5.38895,"is_reserved":false,"is_disabled":false,"rental_uris":{"android":"levelo://app?vid=23d2a34e-2f34-4cb1-beeb-b82fae49211d","ios":"levelo://app?vid=23d2a34e-2f34-4cb1-beeb-b82fae49211d"},"vehicle_type_id":"4","last_reported":1733152209,"current_range_meters":35600,"station_id":"ce4bhg12rcd13ifvqf60","pricing_plan_id":"cebpf4jnsgd1na2vs0mg"},{"bike_id":"3a853398-6c53-4ce0-a326-f8bbaf11848c","system_id":"levelo_inurba_marseille","lat":43.26033,"lon":5.37545,"is_reserved":false,"is_disabled":false,"rental_uris":{"android":"levelo://app?vid=3a853398-6c53-4ce0-a326-f8bbaf11848c","ios":"levelo://app?vid=3a853398-6c53-4ce0-a326-f8bbaf11848c"},"vehicle_type_id":"4","last_reported":1733152209,"current_range_meters":39200,"station_id":"ce4bhgh2rcd13ifvqfa0","pricing_plan_id":"cebpf4jnsgd1na2vs0mg"},{"bike_id":"b8afe9da-9a3d-438c-8fbb-80e14d663770","system_id":"levelo_inurba_marseille","lat":43.2953,"lon":5.39026,"is_reserved":false,"is_disabled":true,"rental_uris":{"android":"levelo://app?vid=b8afe9da-9a3d-438c-8fbb-80e14d663770","ios":"levelo://app?vid=b8afe9da-9a3d-438c-8fbb-80e14d663770"},"vehicle_type_id":"4","last_reported":1733152209,"current_range_meters":24800,"station_id":"ce4bh3p2rcd13ifvqdp0","pricing_plan_id":"cebpf4jnsgd1na2vs0mg"},{"bike_id":"b20eb828-db78-4892-a828-1b3e23f22513","system_id":"levelo_inurba_marseille","lat":43.32338,"lon":5.40626,"is_reserved":false,"is_disabled":false,"rental_uris":{"android":"levelo://app?vid=b20eb828-db78-4892-a828-1b3e23f22513","ios":"levelo://app?vid=b20eb828-db78-4892-a828-1b3e23f22513"},"vehicle_type_id":"4","last_reported":1733152209,"current_range_meters":23200,"station_id":"ce4bhq92rcd13ifvqhjg","pricing_plan_id":"cebpf4jnsgd1na2vs0mg"},{"bike_id":"be8cd377-bf58-414c-876c-45495911bc5b","system_id":"levelo_inurba_marseille","lat":43.28677,"lon":5.4109,"is_reserved":false,"is_disabled":true,"rental_uris":{"android":"levelo://app?vid=be8cd377-bf58-414c-876c-45495911bc5b","ios":"levelo://app?vid=be8cd377-bf58-414c-876c-45495911bc5b"},"vehicle_type_id":"4","last_reported":1733152209,"current_range_meters":19600,"station_id":"","pricing_plan_id":"cebpf4jnsgd1na2vs0mg"},