{"last_updated":1684091088,"ttl":30,"version":"2.2","data":{"bikes":[{"bike_id":"78639281-da9b-4878-980b-0e688644d586","system_id":"levelo_inurba_marseille","lat":43.31192,"lon":5.36759,"is_reserved":false,"is_disabled":false,"rental_uris":{"android":"levelo://app?vid=78639281-da9b-4878-980b-0e688644d586","ios":"levelo://app?vid=78639281-da9b-4878-980b-0e688644d586"},"vehicle_type_id":"4","last_reported":1684091089,"current_range_meters":31200,"station_id":"","pricing_plan_id":"free"},{"bike_id":"82134b5b-5b17-43b1-bd9d-0a50a677ad7e","system_id":"levelo_inurba_marseille","lat":43.312239,"lon":5.368562,"is_reserved":false,"is_disabled":false,"rental_uris":{"android":"levelo://app?vid=82134b5b-5b17-43b1-bd9d-0a50a677ad7e","ios":"levelo://app?vid=82134b5b-5b17-43b1-bd9d-0a50a677ad7e"},"vehicle_type_id":"4","last_reported":1684091089,"current_range_meters":4400,"station_id":"ce4bgl92rcd13ifvqbq0","pricing_plan_id":"free"},{"bike_id":"700c4d2a-197d-4f84-916f-04addc1bfbc8","system_id":"levelo_inurba_marseille","lat":43.312239,"lon":5.368562,"is_reserved":false,"is_disabled":false,"rental_uris":{"android":"levelo://app?vid=700c4d2a-197d-4f84-916f-04addc1bfbc8","ios":"levelo://app?vid=700c4d2a-197d-4f84-916f-04addc1bfbc8"},"vehicle_type_id":"4","last_reported":1684091089,"current_range_meters":11200,"station_id":"ce4bgl92rcd13ifvqbq0","pricing_plan_id":"free"},{"bike_id":"67679834-e513-4284-a05f-f346e2b7b0d2","system_id":"levelo_inurba_marseille","lat":43.314811,"lon":5.373103,"is_reserved":false,"is_disabled":false,"rental_uris":{"android":"levelo://app?vid=67679834-e513-4284-a05f-f346e2b7b0d2","ios":"levelo://app?vid=67679834-e513-4284-a05f-f346e2b7b0d2"},"vehicle_type_id":"4","last_reported":1684091089,"current_range_meters":6400,"station_id":"ce4bgt12rcd13ifvqcd0","pricing_plan_id":"free"},{"bike_id":"96408b06-b793-4f80-b20d-27f5722de464","system_id":"levelo_inurba_marseille","lat":43.314811,"lon":5.373103,"is_reserved":false,"is_disabled":false,"rental_uris":{"android":"levelo://app?vid=96408b06-b793-4f80-b20d-27f5722de464","ios":"levelo://app?vid=96408b06-b793-4f80-b20d-27f5722de464"},"vehicle_type_id":"4","last_reported":1684091089,"current_range_meters":26400,"station_id":"ce4bgt12rcd13ifvqcd0","pricing_plan_id":"free"},{"bike_id":"ef42665b-7a58-430a-a09b-24ad7325a98d","system_id":"levelo_inurba_marseille","lat":43.30588,"lon":5.36563,"is_reserved":false,"is_disabled":false,"rental_uris":{"android":"levelo://app?vid=ef42665b-7a58-430a-a09b-24ad7325a98d","ios":"levelo://app?vid=ef42665b-7a58-430a-a09b-24ad7325a98d"},"vehicle_type_id":"4","last_reported":1684091089,"current_range_meters":10800,"station_id":"","pricing_plan_id":"free"},{"bike_id":"dff8f60e-2589-4771-b1f4-fa1893563f27","system_id":"levelo_inurba_marseille","lat":43.31975,"lon":5.36744,"is_reserved":false,"is_disabled":false,"rental_uris":{"android":"levelo://app?vid=dff8f60e-2589-4771-b1f4-fa1893563f27","ios":"levelo://app?vid=dff8f60e-2589-4771-b1f4-fa1893563f27"},"vehicle_type_id":"4","last_reported":1684091089,"current_range_meters":3600,"station_id":"ce4bhs92rcd13ifvqi0g","pricing_plan_id":"free"},{"bike_id":"d101ab93-2903-4df0-b045-0b6d67e13061","system_id":"levelo_inurba_marseille","lat":43.305989,"lon":5.37225,"is_reserved":false,"is_disabled":false,"rental_uris":{"android":"levelo://app?vid=d101ab93-2903-4df0-b045-0b6d67e13061","ios":"levelo://app?vid=d101ab93-2903-4df0-b045-0b6d67e13061"},"vehicle_type_id":"4","last_reported":1684091089,"current_range_meters":2800,"station_id":"ce4bgqh2rcd13ifvqc4g","pricing_plan_id":"free"},{"bike_id":"151d50bc-3aee-48d5-9527-783274464e00","system_id":"levelo_inurba_marseille","lat":43.3121,"lon":5.37768,"is_reserved":false,"is_disabled":false,"rental_uris":{"android":"levelo://app?vid=151d50bc-3aee-48d5-9527-783274464e00","ios":"levelo://app?vid=151d50bc-3aee-48d5-9527-783274464e00"},"vehicle_type_id":"4","last_reported":1684091089,"current_range_meters":7600,"station_id":"","pricing_plan_id":"free"},{"bike_id":"2ae06262-ad14-4da5-8809-607d7014f379","system_id":"levelo_inurba_marseille","lat":43.31118,"lon":5.37771,"is_reserved":false,"is_disabled":false,"rental_uris":{"android":"levelo://app?vid=2ae06262-ad14-4da5-8809-607d7014f379","ios":"levelo://app?vid=2ae06262-ad14-4da5-8809-607d7014f379"},"vehicle_type_id":"4","last_reported":1684091089,"current_range_meters":16800,"station_id":"ce4bgt92rcd13ifvqcg0","pricing_plan_id":"free"},{"bike_id":"a1f7a751-544e-4a6c-9b7c-a098934da398","system_id":"levelo_inurba_marseille","lat":43.317075,"lon":5.377367,"is_reserved":false,"is_disabled":false,"rental_uris":{"android":"levelo://app?vid=a1f7a751-544e-4a6c-9b7c-a098934da398","ios":"levelo://app?vid=a1f7a751-544e-4a6c-9b7c-a098934da398"},"vehicle_type_id":"4","last_reported":1684091089,"current_range_meters":2800,"station_id":"ce4bgth2rcd13ifvqch0","pricing_plan_id":"free"},{"bike_id":"02cf8e33-a5ac-4954-817f-2c3f1584ed60","system_id":"levelo_inurba_marseille","lat":43.303046,"lon":5.368981,"is_reserved":false,"is_disabled":false,"rental_uris":{"android":"levelo://app?vid=02cf8e33-a5ac-4954-817f-2c3f1584ed60","ios":"levelo://app?vid=02cf8e33-a5ac-4954-817f-2c3f1584ed60"},"vehicle_type_id":"4","last_reported":1684091089,"current_range_meters":14400,"station_id":"ce4bgqh2rcd13ifvqc5g","pricing_plan_id":"free"},{"bike_id":"450796fd-9352-4e9f-a3c8-cad81f08556b","system_id":"levelo_inurba_marseille","lat":43.303046,"lon":5.368981,"is_reserved":false,"is_disabled":false,"rental_uris":{"android":"levelo://app?vid=450796fd-9352-4e9f-a3c8-cad81f08556b","ios":"levelo://app?vid=450796fd-9352-4e9f-a3c8-cad81f08556b"},"vehicle_type_id":"4","last_reported":1684091089,"current_range_meters":0,"station_id":"ce4bgqh2rcd13ifvqc5g","pricing_plan_id":"free"},{"bike_id":"5d6b2b53-1d62-49c2-92de-53776623e5f3","system_id":"levelo_inurba_marseille","lat":43.303046,"lon":5.368981,"is_reserved":false,"is_disabled":false,"rental_uris":{"android":"levelo://app?vid=5d6b2b53-1d62-49c2-92de-53776623e5f3","ios":"levelo://app?vid=5d6b2b53-1d62-49c2-92de-53776623e5f3"},"vehicle_type_id":"4","last_reported":1684091089,"current_range_meters":5600,"station_id":"ce4bgqh2rcd13ifvqc5g","pricing_plan_id":"free"},{"bike_id":"39be8e9f-84ac-4091-a4a7-c2e8eec8cb33","system_id":"levelo_inurba_marseille","lat":43.31544,"lon":5.38043,"is_reserved":false,"is_disabled":false,"rental_uris":{"android":"levelo://app?vid=39be8e9f-84ac-4091-a4a7-c2e8eec8cb33","ios":"levelo://app?vid=39be8e9f-84ac-4091-a4a7-c2e8eec8cb33"},"vehicle_type_id":"4","last_reported":1684091089,"current_range_meters":6800,"station_id":"ce4bhsp2rcd13ifvqi50","pricing_plan_id":"free"},{"bike_id":"70b30f3c-6401-447d-ab0d-82139f6cf9b8","system_id":"levelo_inurba_marseille","lat":43.31998,"lon":5.38156,"is_reserved":false,"is_disabled":false,"rental_uris":{"android":"levelo://app?vid=70b30f3c-6401-447d-ab0d-82139f6cf9b8","ios":"levelo://app?vid=70b30f3c-6401-447d-ab0d-82139f6cf9b8"},"vehicle_type_id":"4","last_reported":1684091089,"current_range_meters":1200,"station_id":"","pricing_plan_id":"free"},{"bike_id":"bd432d4c-0c45-4a55-b2ca-2b5d2fc6c8e9","system_id":"levelo_inurba_marseille","lat":43.313571,"lon":5.384829,"is_reserved":false,"is_disabled":false,"rental_uris":{"android":"levelo://app?vid=bd432d4c-0c45-4a55-b2ca-2b5d2fc6c8e9","ios":"levelo://app?vid=bd432d4c-0c45-4a55-b2ca-2b5d2fc6c8e9"},"vehicle_type_id":"4","last_reported":1684091089,"current_range_meters":8800,"station_id":"ce4bgt92rcd13ifvqcf0","pricing_plan_id":"free"},{"bike_id":"45e5810b-9739-4ae0-a5f1-ee3b97f96ff6","system_id":"levelo_inurba_marseille","lat":43.299222,"lon":5.365554,"is_reserved":false,"is_disabled":false,"rental_uris":{"android":"levelo://app?vid=45e5810b-9739-4ae0-a5f1-ee3b97f96ff6","ios":"levelo://app?vid=45e5810b-9739-4ae0-a5f1-ee3b97f96ff6"},"vehicle_type_id":"4","last_reported":1684091089,"current_range_meters":21200,"station_id":"ce4bgm92rcd13ifvqbr0","pricing_plan_id":"free"},{"bike_id":"4e065db6-a7ff-4a27-a2f0-d88bb1197bb3","system_id":"levelo_inurba_marseille","lat":43.305364,"lon":5.384119,"is_reserved":false,"is_disabled":false,"rental_uris":{"android":"levelo://app?vid=4e065db6-a7ff-4a27-a2f0-d88bb1197bb3","ios":"levelo://app?vid=4e065db6-a7ff-4a27-a2f0-d88bb1197bb3"},"vehicle_type_id":"4","last_reported":1684091089,"current_range_meters":2000,"station_id":"ce4bgg92rcd13ifvqb30","pricing_plan_id":"free"},{"bike_id":"24c0a10d-0703-4b23-b2c8-386f6d210eef","system_id":"levelo_inurba_marseille","lat":43.305364,"lon":5.384119,"is_reserved":false,"is_disabled":false,"rental_uris":{"android":"levelo://app?vid=24c0a10d-0703-4b23-b2c8-386f6d210eef","ios":"levelo://app?vid=24c0a10d-0703-4b23-b2c8-386f6d210eef"},"vehicle_type_id":"4","last_reported":1684091089,"current_range_meters":6800,"station_id":"ce4bgg92rcd13ifvqb30","pricing_plan_id":"free"},{"bike_id":"8a66d4f1-29a4-43ea-b828-7d63afc081a6","system_id":"levelo_inurba_marseille","lat":43.299243,"lon":5.374807,"is_reserved":false,"is_disabled":false,"rental_uris":{"android":"levelo://app?vid=8a66d4f1-29a4-43ea-b828-7d63afc081a6","ios":"levelo://app?vid=8a66d4f1-29a4-43ea-b828-7d63afc081a6"},"vehicle_type_id":"4","last_reported":1684091089,"current_range_meters":7600,"station_id":"ce4bgjh2rcd13ifvqbg0","pricing_plan_id":"free"},{"bike_id":"a0a564f3-7cc7-4685-8565-074a566acb74","system_id":"levelo_inurba_marseille","lat":43.311722,"lon":5.387247,"is_reserved":false,"is_disabled":false,"rental_uris":{"android":"levelo://app?vid=a0a564f3-7cc7-4685-8565-074a566acb74","ios":"levelo://app?vid=a0a564f3-7cc7-4685-8565-074a566acb74"},"vehicle_type_id":"4","last_reported":1684091089,"current_range_meters":0,"station_id":"ce4bgv12rcd13ifvqcp0","pricing_plan_id":"free"},{"bike_id":"d7ac820b-af40-4ee1-82d2-8417a2e24dd8","system_id":"levelo_inurba_marseille","lat":43.299243,"lon":5.37481,"is_reserved":false,"is_disabled":false,"rental_uris":{"android":"levelo://app?vid=d7ac820b-af40-4ee1-82d2-8417a2e24dd8","ios":"levelo://app?vid=d7ac820b-af40-4ee1-82d2-8417a2e24dd8"},"vehicle_type_id":"4","last_reported":1684091089,"current_range_meters":9600,"station_id":"ce4bgjh2rcd13ifvqbg0","pricing_plan_id":"free"},{"bike_id":"7ca7f460-dddb-4dd4-907d-a989e3449691","system_id":"levelo_inurba_marseille","lat":43.311722,"lon":5.387247,"is_reserved":false,"is_disabled":false,"rental_uris":{"android":"levelo://app?vid=7ca7f460-dddb-4dd4-907d-a989e3449691","ios":"levelo://app?vid=7ca7f460-dddb-4dd4-907d-a989e3449691"},"vehicle_type_id":"4","last_reported":1684091089,"current_range_meters":10400,"station_id":"ce4bgv12rcd13ifvqcp0","pricing_plan_id":"free"},{"bike_id":"2f96f4b7-d3f1-4b87-b98f-caf50ba6d13d","system_id":"levelo_inurba_marseille","lat":43.32773,"lon":5.36683,"is_reserved":false,"is_disabled":false,"rental_uris":{"android":"levelo://app?vid=2f96f4b7-d3f1-4b87-b98f-caf50ba6d13d","ios":"levelo://app?vid=2f96f4b7-d3f1-4b87-b98f-caf50ba6d13d"},"vehicle_type_id":"4","last_reported":1684091089,"current_range_meters":6400,"station_id":"","pricing_plan_id":"free"},{"bike_id":"3f1ee445-79dc-4a77-99ec-f861244bce43","system_id":"levelo_inurba_marseille","lat":43.32826,"lon":5.36669,"is_reserved":false,"is_disabled":false,"rental_uris":{"android":"levelo://app?vid=3f1ee445-79dc-4a77-99ec-f861244bce43","ios":"levelo://app?vid=3f1ee445-79dc-4a77-99ec-f861244bce43"},"vehicle_type_id":"4","last_reported":1684091089,"current_range_meters":20000,"station_id":"ce4bhs92rcd13ifvqi0g","pricing_plan_id":"free"},{"bike_id":"acb3285f-1a59-4939-bacf-1321efdfa740","system_id":"levelo_inurba_marseille","lat":43.32827,"lon":5.36682,"is_reserved":false,"is_disabled":false,"rental_uris":{"android":"levelo://app?vid=acb3285f-1a59-4939-bacf-1321efdfa740","ios":"levelo://app?vid=acb3285f-1a59-4939-bacf-1321efdfa740"},"vehicle_type_id":"4","last_reported":1684091089,"current_range_meters":23200,"station_id":"ce4bhs92rcd13ifvqi0g","pricing_plan_id":"free"},{"bike_id":"ad50fbdc-6818-49a3-976a-84468e8cc53b","system_id":"levelo_inurba_marseille","lat":43.328371,"lon":5.366912,"is_reserved":false,"is_disabled":false,"rental_uris":{"android":"levelo://app?vid=ad50fbdc-6818-49a3-976a-84468e8cc53b","ios":"levelo://app?vid=ad50fbdc-6818-49a3-976a-84468e8cc53b"},"vehicle_type_id":"4","last_reported":1684091089,"current_range_meters":30800,"station_id":"ce4bhs92rcd13ifvqi0g","pricing_plan_id":"free"},{"bike_id":"98fc616f-05d8-4d1d-9c58-d04644bf4fef","system_id":"levelo_inurba_marseille","lat":43.328371,"lon":5.366912,"is_reserved":false,"is_disabled":false,"rental_uris":{"android":"levelo://app?vid=98fc616f-05d8-4d1d-9c58-d04644bf4fef","ios":"levelo://app?vid=98fc616f-05d8-4d1d-9c58-d04644bf4fef"},"vehicle_type_id":"4","last_reported":1684091089,"current_range_meters":27600,"station_id":"ce4bhs92rcd13ifvqi0g","pricing_plan_id":"free"},{"bike_id":"216acc05-cd3c-4a35-b67b-82ab6e8e46bc","system_id":"levelo_inurba_marseille","lat":43.32831,"lon":5.3668,"is_reserved":false,"is_disabled":false,"rental_uris":{"android":"levelo://app?vid=216acc05-cd3c-4a35-b67b-82ab6e8e46bc","ios":"levelo://app?vid=216acc05-cd3c-4a35-b67b-82ab6e8e46bc"},"vehicle_type_id":"4","last_reported":1684091089,"current_range_meters":14400,"station_id":"ce4bhs92rcd13ifvqi0g","pricing_plan_id":"free"},{"bike_id":"34c470f1-ed41-47d6-8d65-5c286939ee04","system_id":"levelo_inurba_marseille","lat":43.328371,"lon":5.366912,"is_reserved":false,"is_disabled":false,"rental_uris":{"android":"levelo://app?vid=34c470f1-ed41-47d6-8d65-5c286939ee04","ios":"levelo://app?vid=34c470f1-ed41-47d6-8d65-5c286939ee04"},"vehicle_type_id":"4","last_reported":1684091089,"current_range_meters":16000,"station_id":"ce4bhs92rcd13ifvqi0g","pricing_plan_id":"free"},{"bike_id":"ef619222-d86f-4984-a46f-cda033f9cc5b","system_id":"levelo_inurba_marseille","lat":43.328371,"lon":5.366912,"is_reserved":false,"is_disabled":false,"rental_uris":{"android":"levelo://app?vid=ef619222-d86f-4984-a46f-cda033f9cc5b","ios":"levelo://app?vid=ef619222-d86f-4984-a46f-cda033f9cc5b"},"vehicle_type_id":"4","last_reported":1684091089,"current_range_meters":28800,"station_id":"ce4bhs92rcd13ifvqi0g","pricing_plan_id":"free"},{"bike_id":"b449a4e4-2b40-420f-9a30-3bbbb718557f","system_id":"levelo_inurba_marseille","lat":43.328371,"lon":5.366912,"is_reserved":false,"is_disabled":false,"rental_uris":{"android":"levelo://app?vid=b449a4e4-2b40-420f-9a30-3bbbb718557f","ios":"levelo://app?vid=b449a4e4-2b40-420f-9a30-3bbbb718557f"},"vehicle_type_id":"4","last_reported":1684091089,"current_range_meters":15200,"station_id":"ce4bhs92rcd13ifvqi0g","pricing_plan_id":"free"},{"bike_id":"439e171b-885c-4b84-971d-3c43043903d7","system_id":"levelo_inurba_marseille","lat":43.328371,"lon":5.366912,"is_reserved":false,"is_disabled":false,"rental_uris":{"android":"levelo://app?vid=439e171b-885c-4b84-971d-3c43043903d7","ios":"levelo://app?vid=439e171b-885c-4b84-971d-3c43043903d7"},"vehicle_type_id":"4","last_reported":1684091089,"current_range_meters":22400,"station_id":"ce4bhs92rcd13ifvqi0g","pricing_plan_id":"free"},{"bike_id":"aaca5fdf-1dee-4b81-aa4f-2d7102ec2d0c","system_id":"levelo_inurba_marseille","lat":43.32835,"lon":5.36679,"is_reserved":false,"is_disabled":false,"rental_uris":{"android":"levelo://app?vid=aaca5fdf-1dee-4b81-aa4f-2d7102ec2d0c","ios":"levelo://app?vid=aaca5fdf-1dee-4b81-aa4f-2d7102ec2d0c"},"vehicle_type_id":"4","last_reported":1684091089,"current_range_meters":18400,"station_id":"ce4bhs92rcd13ifvqi0g","pricing_plan_id":"free"},{"bike_id":"5bc79a87-8c51-4256-972d-10ecdbdb6305","system_id":"levelo_inurba_marseille","lat":43.328371,"lon":5.366912,"is_reserved":false,"is_disabled":false,"rental_uris":{"android":"levelo://app?vid=5bc79a87-8c51-4256-972d-10ecdbdb6305","ios":"levelo://app?vid=5bc79a87-8c51-4256-972d-10ecdbdb6305"},"vehicle_type_id":"4","last_reported":1684091089,"current_range_meters":14000,"station_id":"ce4bhs92rcd13ifvqi0g","pricing_plan_id":"free"},{"bike_id":"f7e16b9b-dda5-4bba-9d80-00bc064f0f46","system_id":"levelo_inurba_marseille","lat":43.32838,"lon":5.3668,"is_reserved":false,"is_disabled":false,"rental_uris":{"android":"levelo://app?vid=f7e16b9b-dda5-4bba-9d80-00bc064f0f46","ios":"levelo://app?vid=f7e16b9b-dda5-4bba-9d80-00bc064f0f46"},"vehicle_type_id":"4","last_reported":1684091089,"current_range_meters":12800,"station_id":"ce4bhs92rcd13ifvqi0g","pricing_plan_id":"free"},{"bike_id":"99e8c74e-6f68-4f5f-85e6-17a603d8bad9","system_id":"levelo_inurba_marseille","lat":43.296921,"lon":5.376579,"is_reserved":false,"is_disabled":false,"rental_uris":{"android":"levelo://app?vid=99e8c74e-6f68-4f5f-85e6-17a603d8bad9","ios":"levelo://app?vid=99e8c74e-6f68-4f5f-85e6-17a603d8bad9"},"vehicle_type_id":"4","last_reported":1684091089,"current_range_meters":0,"station_id":"ce4bgkh2rcd13ifvqbl0","pricing_plan_id":"free"},{"bike_id":"96b12996-5edd-46bf-9101-c72475f8b81c","system_id":"levelo_inurba_marseille","lat":43.299028,"lon":5.381509,"is_reserved":false,"is_disabled":false,"rental_uris":{"android":"levelo://app?vid=96b12996-5edd-46bf-9101-c72475f8b81c","ios":"levelo://app?vid=96b12996-5edd-46bf-9101-c72475f8b81c"},"vehicle_type_id":"4","last_reported":1684091089,"current_range_meters":9600,"station_id":"ce4bgj12rcd13ifvqbc0","pricing_plan_id":"free"},{"bike_id":"c272bf01-8fc6-43b1-aef6-b620047ffa67","system_id":"levelo_inurba_marseille","lat":43.309589,"lon":5.390258,"is_reserved":false,"is_disabled":false,"rental_uris":{"android":"levelo://app?vid=c272bf01-8fc6-43b1-aef6-b620047ffa67","ios":"levelo://app?vid=c272bf01-8fc6-43b1-aef6-b620047ffa67"},"vehicle_type_id":"4","last_reported":1684091089,"current_range_meters":3200,"station_id":"ce4bgup2rcd13ifvqco0","pricing_plan_id":"free"},{"bike_id":"eb2d1ae8-e092-48ba-a899-14b9d8f46333","system_id":"levelo_inurba_marseille","lat":43.309589,"lon":5.390258,"is_reserved":false,"is_disabled":false,"rental_uris":{"android":"levelo://app?vid=eb2d1ae8-e092-48ba-a899-14b9d8f46333","ios":"levelo://app?vid=eb2d1ae8-e092-48ba-a899-14b9d8f46333"},"vehicle_type_id":"4","last_reported":1684091089,"current_range_meters":2400,"station_id":"ce4bgup2rcd13ifvqco0","pricing_plan_id":"free"},{"bike_id":"b8ad13cd-ab77-46fc-a0c2-ec705761e986","system_id":"levelo_inurba_marseille","lat":43.317557,"lon":5.390173,"is_reserved":false,"is_disabled":false,"rental_uris":{"android":"levelo://app?vid=b8ad13cd-ab77-46fc-a0c2-ec705761e986","ios":"levelo://app?vid=b8ad13cd-ab77-46fc-a0c2-ec705761e986"},"vehicle_type_id":"4","last_reported":1684091089,"current_range_meters":0,"station_id":"ce4bhqp2rcd13ifvqhng","pricing_plan_id":"free"},{"bike_id":"7e101d88-7926-4513-a08a-b2a6fdb92c65","system_id":"levelo_inurba_marseille","lat":43.31756,"lon":5.39017,"is_reserved":false,"is_disabled":false,"rental_uris":{"android":"levelo://app?vid=7e101d88-7926-4513-a08a-b2a6fdb92c65","ios":"levelo://app?vid=7e101d88-7926-4513-a08a-b2a6fdb92c65"},"vehicle_type_id":"4","last_reported":1684091089,"current_range_meters":24400,"station_id":"ce4bhqp2rcd13ifvqhng","pricing_plan_id":"free"},{"bike_id":"46624d73-a018-452f-b719-0a8d41705590","system_id":"levelo_inurba_marseille","lat":43.304278,"lon":5.388868,"is_reserved":false,"is_disabled":false,"rental_uris":{"android":"levelo://app?vid=46624d73-a018-452f-b719-0a8d41705590","ios":"levelo://app?vid=46624d73-a018-452f-b719-0a8d41705590"},"vehicle_type_id":"4","last_reported":1684091089,"current_range_meters":6800,"station_id":"ce4bgk12rcd13ifvqbi0","pricing_plan_id":"free"},{"bike_id":"a89f8639-3b9d-49a9-8587-a29d72888615","system_id":"levelo_inurba_marseille","lat":43.304412,"lon":5.388846,"is_reserved":false,"is_disabled":false,"rental_uris":{"android":"levelo://app?vid=a89f8639-3b9d-49a9-8587-a29d72888615","ios":"levelo://app?vid=a89f8639-3b9d-49a9-8587-a29d72888615"},"vehicle_type_id":"4","last_reported":1684091089,"current_range_meters":5200,"station_id":"ce4bgk12rcd13ifvqbi0","pricing_plan_id":"free"},{"bike_id":"e5cd3e60-4d0d-4691-9dbb-8e765ea7da6c","system_id":"levelo_inurba_marseille","lat":43.298037,"lon":5.381066,"is_reserved":false,"is_disabled":false,"rental_uris":{"android":"levelo://app?vid=e5cd3e60-4d0d-4691-9dbb-8e765ea7da6c","ios":"levelo://app?vid=e5cd3e60-4d0d-4691-9dbb-8e765ea7da6c"},"vehicle_type_id":"4","last_reported":1684091089,"current_range_meters":0,"station_id":"ce4bgip2rcd13ifvqbb0","pricing_plan_id":"free"},{"bike_id":"ae566b86-5b13-4c76-9514-9effa21e9824","system_id":"levelo_inurba_marseille","lat":43.304278,"lon":5.388868,"is_reserved":false,"is_disabled":false,"rental_uris":{"android":"levelo://app?vid=ae566b86-5b13-4c76-9514-9effa21e9824","ios":"levelo://app?vid=ae566b86-5b13-4c76-9514-9effa21e9824"},"vehicle_type_id":"4","last_reported":1684091089,"current_range_meters":10000,"station_id":"ce4bgk12rcd13ifvqbi0","pricing_plan_id":"free"},{"bike_id":"724e4e80-30b4-455e-92e9-cd9bd07e3ec3","system_id":"levelo_inurba_marseille","lat":43.30444,"lon":5.38898,"is_reserved":false,"is_disabled":false,"rental_uris":{"android":"levelo://app?vid=724e4e80-30b4-455e-92e9-cd9bd07e3ec3","ios":"levelo://app?vid=724e4e80-30b4-455e-92e9-cd9bd07e3ec3"},"vehicle_type_id":"4","last_reported":1684091089,"current_range_meters":0,"station_id":"ce4bgk12rcd13ifvqbi0","pricing_plan_id":"free"},{"bike_id":"6ac52bbe-893d-4a88-83bf-3e6abe6815c8","system_id":"levelo_inurba_marseille","lat":43.299724,"lon":5.384848,"is_reserved":false,"is_disabled":false,"rental_uris":{"android":"levelo://app?vid=6ac52bbe-893d-4a88-83bf-3e6abe6815c8","ios":"levelo://app?vid=6ac52bbe-893d-4a88-83bf-3e6abe6815c8"},"vehicle_type_id":"4","last_reported":1684091089,"current_range_meters":4400,"station_id":"ce4bgj92rcd13ifvqbd0","pricing_plan_id":"free"},{"bike_id":"a314022c-0943-4eee-a955-6a25df9fbfaa","system_id":"levelo_inurba_marseille","lat":43.299724,"lon":5.384848,"is_reserved":false,"is_disabled":false,"rental_uris":{"android":"levelo://app?vid=a314022c-0943-4eee-a955-6a25df9fbfaa","ios":"levelo://app?vid=a314022c-0943-4eee-a955-6a25df9fbfaa"},"vehicle_type_id":"4","last_reported":1684091089,"current_range_meters":8400,"station_id":"ce4bgj92rcd13ifvqbd0","pricing_plan_id":"free"},{"bike_id":"98d43089-ff1e-40ee-a123-f18e174ce1c4","system_id":"levelo_inurba_marseille","lat":43.3147,"lon":5.39234,"is_reserved":false,"is_disabled":false,"rental_uris":{"android":"levelo://app?vid=98d43089-ff1e-40ee-a123-f18e174ce1c4","ios":"levelo://app?vid=98d43089-ff1e-40ee-a123-f18e174ce1c4"},"vehicle_type_id":"4","last_reported":1684091089,"current_range_meters":0,"station_id":"","pricing_plan_id":"free"},{"bike_id":"6f6b02ce-a50b-443a-a31d-aed834771e7b","system_id":"levelo_inurba_marseille","lat":43.31442,"lon":5.39272,"is_reserved":false,"is_disabled":false,"rental_uris":{"android":"levelo://app?vid=6f6b02ce-a50b-443a-a31d-aed834771e7b","ios":"levelo://app?vid=6f6b02ce-a50b-443a-a31d-aed834771e7b"},"vehicle_type_id":"4","last_reported":1684091089,"current_range_meters":1200,"station_id":"","pricing_plan_id":"free"},{"bike_id":"139f5fbc-80e7-4015-9d88-afe8e2281732","system_id":"levelo_inurba_marseille","lat":43.29602,"lon":5.381084,"is_reserved":false,"is_disabled":false,"rental_uris":{"android":"levelo://app?vid=139f5fbc-80e7-4015-9d88-afe8e2281732","ios":"levelo://app?vid=139f5fbc-80e7-4015-9d88-afe8e2281732"},"vehicle_type_id":"4","last_reported":1684091089,"current_range_meters":11600,"station_id":"ce4bgl12rcd13ifvqbo0","pricing_plan_id":"free"},{"bike_id":"d458bc9d-e223-4606-a0cd-5ccedbddb3e0","system_id":"levelo_inurba_marseille","lat":43.29602,"lon":5.381084,"is_reserved":false,"is_disabled":false,"rental_uris":{"android":"levelo://app?vid=d458bc9d-e223-4606-a0cd-5ccedbddb3e0","ios":"levelo://app?vid=d458bc9d-e223-4606-a0cd-5ccedbddb3e0"},"vehicle_type_id":"4","last_reported":1684091089,"current_range_meters":0,"station_id":"ce4bgl12rcd13ifvqbo0","pricing_plan_id":"free"},{"bike_id":"d018b9b3-e536-466f-939c-51fd25e01ba0","system_id":"levelo_inurba_marseille","lat":43.293009,"lon":5.374584,"is_reserved":false,"is_disabled":false,"rental_uris":{"android":"levelo://app?vid=d018b9b3-e536-466f-939c-51fd25e01ba0","ios":"levelo://app?vid=d018b9b3-e536-466f-939c-51fd25e01ba0"},"vehicle_type_id":"4","last_reported":1684091089,"current_range_meters":11200,"station_id":"ce4bgi12rcd13ifvqb70","pricing_plan_id":"free"},{"bike_id":"7b9001cf-23c0-40d8-829e-0d9cdb04b1c7","system_id":"levelo_inurba_marseille","lat":43.29387,"lon":5.37866,"is_reserved":false,"is_disabled":false,"rental_uris":{"android":"levelo://app?vid=7b9001cf-23c0-40d8-829e-0d9cdb04b1c7","ios":"levelo://app?vid=7b9001cf-23c0-40d8-829e-0d9cdb04b1c7"},"vehicle_type_id":"4","last_reported":1684091089,"current_range_meters":27600,"station_id":"","pricing_plan_id":"free"},{"bike_id":"ae7243d5-0a91-43ff-8b65-982b5b42d498","system_id":"levelo_inurba_marseille","lat":43.303002,"lon":5.392142,"is_reserved":false,"is_disabled":false,"rental_uris":{"android":"levelo://app?vid=ae7243d5-0a91-43ff-8b65-982b5b42d498","ios":"levelo://app?vid=ae7243d5-0a91-43ff-8b65-982b5b42d498"},"vehicle_type_id":"4","last_reported":1684091089,"current_range_meters":0,"station_id":"ce4bgkh2rcd13ifvqbk0","pricing_plan_id":"free"},{"bike_id":"82092de4-89e5-4ade-b340-6b9547cbd6cf","system_id":"levelo_inurba_marseille","lat":43.302992,"lon":5.392136,"is_reserved":false,"is_disabled":false,"rental_uris":{"android":"levelo://app?vid=82092de4-89e5-4ade-b340-6b9547cbd6cf","ios":"levelo://app?vid=82092de4-89e5-4ade-b340-6b9547cbd6cf"},"vehicle_type_id":"4","last_reported":1684091089,"current_range_meters":13600,"station_id":"ce4bgkh2rcd13ifvqbk0","pricing_plan_id":"free"},{"bike_id":"f2f13629-01d2-43c2-90eb-d06b4c7f106f","system_id":"levelo_inurba_marseille","lat":43.29373,"lon":5.3785,"is_reserved":false,"is_disabled":false,"rental_uris":{"android":"levelo://app?vid=f2f13629-01d2-43c2-90eb-d06b4c7f106f","ios":"levelo://app?vid=f2f13629-01d2-43c2-90eb-d06b4c7f106f"},"vehicle_type_id":"4","last_reported":1684091089,"current_range_meters":8800,"station_id":"ce4bgjh2rcd13ifvqbf0","pricing_plan_id":"free"},{"bike_id":"92a5afb5-7485-40c6-bb5a-9231c25efffd","system_id":"levelo_inurba_marseille","lat":43.2936,"lon":5.37835,"is_reserved":false,"is_disabled":false,"rental_uris":{"android":"levelo://app?vid=92a5afb5-7485-40c6-bb5a-9231c25efffd","ios":"levelo://app?vid=92a5afb5-7485-40c6-bb5a-9231c25efffd"},"vehicle_type_id":"4","last_reported":1684091089,"current_range_meters":1200,"station_id":"ce4bgjh2rcd13ifvqbf0","pricing_plan_id":"free"},{"bike_id":"2557da8c-607f-43be-a3ad-b19445778b79","system_id":"levelo_inurba_marseille","lat":43.298764,"lon":5.388973,"is_reserved":false,"is_disabled":false,"rental_uris":{"android":"levelo://app?vid=2557da8c-607f-43be-a3ad-b19445778b79","ios":"levelo://app?vid=2557da8c-607f-43be-a3ad-b19445778b79"},"vehicle_type_id":"4","last_reported":1684091089,"current_range_meters":2000,"station_id":"ce4bh392rcd13ifvqdl0","pricing_plan_id":"free"},{"bike_id":"821bfecc-e197-4ace-8757-b7ddb097289a","system_id":"levelo_inurba_marseille","lat":43.298764,"lon":5.388973,"is_reserved":false,"is_disabled":false,"rental_uris":{"android":"levelo://app?vid=821bfecc-e197-4ace-8757-b7ddb097289a","ios":"levelo://app?vid=821bfecc-e197-4ace-8757-b7ddb097289a"},"vehicle_type_id":"4","last_reported":1684091089,"current_range_meters":5200,"station_id":"ce4bh392rcd13ifvqdl0","pricing_plan_id":"free"},{"bike_id":"564b6614-a2e8-4499-ad1a-9a7a34c939b1","system_id":"levelo_inurba_marseille","lat":43.313291,"lon":5.396838,"is_reserved":false,"is_disabled":false,"rental_uris":{"android":"levelo://app?vid=564b6614-a2e8-4499-ad1a-9a7a34c939b1","ios":"levelo://app?vid=564b6614-a2e8-4499-ad1a-9a7a34c939b1"},"vehicle_type_id":"4","last_reported":1684091089,"current_range_meters":9200,"station_id":"ce4bgvp2rcd13ifvqcu0","pricing_plan_id":"free"},{"bike_id":"04bbc8bf-f16d-4cb1-8a95-6715544172fd","system_id":"levelo_inurba_marseille","lat":43.313291,"lon":5.396838,"is_reserved":false,"is_disabled":false,"rental_uris":{"android":"levelo://app?vid=04bbc8bf-f16d-4cb1-8a95-6715544172fd","ios":"levelo://app?vid=04bbc8bf-f16d-4cb1-8a95-6715544172fd"},"vehicle_type_id":"4","last_reported":1684091089,"current_range_meters":3600,"station_id":"ce4bgvp2rcd13ifvqcu0","pricing_plan_id":"free"},{"bike_id":"55a1e228-0561-4784-b8b8-709f911c5410","system_id":"levelo_inurba_marseille","lat":43.309038,"lon":5.396546,"is_reserved":false,"is_disabled":false,"rental_uris":{"android":"levelo://app?vid=55a1e228-0561-4784-b8b8-709f911c5410","ios":"levelo://app?vid=55a1e228-0561-4784-b8b8-709f911c5410"},"vehicle_type_id":"4","last_reported":1684091089,"current_range_meters":25200,"station_id":"ce4bh012rcd13ifvqcv0","pricing_plan_id":"free"},{"bike_id":"4aabf09c-4bb7-4d1f-8b46-735ecd32dbcb","system_id":"levelo_inurba_marseille","lat":43.309038,"lon":5.396546,"is_reserved":false,"is_disabled":false,"rental_uris":{"android":"levelo://app?vid=4aabf09c-4bb7-4d1f-8b46-735ecd32dbcb","ios":"levelo://app?vid=4aabf09c-4bb7-4d1f-8b46-735ecd32dbcb"},"vehicle_type_id":"4","last_reported":1684091089,"current_range_meters":4000,"station_id":"ce4bh012rcd13ifvqcv0","pricing_plan_id":"free"},{"bike_id":"4dd9e0df-c6ad-4fa4-b56d-e63f95cd8c68","system_id":"levelo_inurba_marseille","lat":43.29529,"lon":5.385581,"is_reserved":false,"is_disabled":false,"rental_uris":{"android":"levelo://app?vid=4dd9e0df-c6ad-4fa4-b56d-e63f95cd8c68","ios":"levelo://app?vid=4dd9e0df-c6ad-4fa4-b56d-e63f95cd8c68"},"vehicle_type_id":"4","last_reported":1684091089,"current_range_meters":1600,"station_id":"ce4bgih2rcd13ifvqba0","pricing_plan_id":"free"},{"bike_id":"784c7bfb-ce8a-437f-9881-c38b50bd10c9","system_id":"levelo_inurba_marseille","lat":43.29529,"lon":5.385581,"is_reserved":false,"is_disabled":false,"rental_uris":{"android":"levelo://app?vid=784c7bfb-ce8a-437f-9881-c38b50bd10c9","ios":"levelo://app?vid=784c7bfb-ce8a-437f-9881-c38b50bd10c9"},"vehicle_type_id":"4","last_reported":1684091089,"current_range_meters":0,"station_id":"ce4bgih2rcd13ifvqba0","pricing_plan_id":"free"},{"bike_id":"e6b0585a-485d-4ccb-8752-0ab6643a0282","system_id":"levelo_inurba_marseille","lat":43.29529,"lon":5.385581,"is_reserved":false,"is_disabled":false,"rental_uris":{"android":"levelo://app?vid=e6b0585a-485d-4ccb-8752-0ab6643a0282","ios":"levelo://app?vid=e6b0585a-485d-4ccb-8752-0ab6643a0282"},"vehicle_type_id":"4","last_reported":1684091089,"current_range_meters":5600,"station_id":"ce4bgih2rcd13ifvqba0","pricing_plan_id":"free"},{"bike_id":"b892f746-8295-4b5c-b5cc-e090b616bc18","system_id":"levelo_inurba_marseille","lat":43.302008,"lon":5.394694,"is_reserved":false,"is_disabled":false,"rental_uris":{"android":"levelo://app?vid=b892f746-8295-4b5c-b5cc-e090b616bc18","ios":"levelo://app?vid=b892f746-8295-4b5c-b5cc-e090b616bc18"},"vehicle_type_id":"4","last_reported":1684091089,"current_range_meters":2800,"station_id":"ce4bh0p2rcd13ifvqd70","pricing_plan_id":"free"},{"bike_id":"160cf7a0-79ae-4722-b39b-f84bbf148ced","system_id":"levelo_inurba_marseille","lat":43.29423,"lon":5.38612,"is_reserved":false,"is_disabled":false,"rental_uris":{"android":"levelo://app?vid=160cf7a0-79ae-4722-b39b-f84bbf148ced","ios":"levelo://app?vid=160cf7a0-79ae-4722-b39b-f84bbf148ced"},"vehicle_type_id":"4","last_reported":1684091089,"current_range_meters":2400,"station_id":"ce4bh2h2rcd13ifvqdh0","pricing_plan_id":"free"},{"bike_id":"e2ba195e-e16f-463d-a892-c248443ddf62","system_id":"levelo_inurba_marseille","lat":43.2942,"lon":5.38617,"is_reserved":false,"is_disabled":false,"rental_uris":{"android":"levelo://app?vid=e2ba195e-e16f-463d-a892-c248443ddf62","ios":"levelo://app?vid=e2ba195e-e16f-463d-a892-c248443ddf62"},"vehicle_type_id":"4","last_reported":1684091089,"current_range_meters":12800,"station_id":"ce4bh2h2rcd13ifvqdh0","pricing_plan_id":"free"},{"bike_id":"39a2d76a-c19a-485f-b5ce-79c20ee04224","system_id":"levelo_inurba_marseille","lat":43.29419,"lon":5.38621,"is_reserved":false,"is_disabled":false,"rental_uris":{"android":"levelo://app?vid=39a2d76a-c19a-485f-b5ce-79c20ee04224","ios":"levelo://app?vid=39a2d76a-c19a-485f-b5ce-79c20ee04224"},"vehicle_type_id":"4","last_reported":1684091089,"current_range_meters":1200,"station_id":"ce4bh2h2rcd13ifvqdh0","pricing_plan_id":"free"},{"bike_id":"9f129774-36e1-42f1-8229-a7c2be11d89e","system_id":"levelo_inurba_marseille","lat":43.30483,"lon":5.39706,"is_reserved":false,"is_disabled":false,"rental_uris":{"android":"levelo://app?vid=9f129774-36e1-42f1-8229-a7c2be11d89e","ios":"levelo://app?vid=9f129774-36e1-42f1-8229-a7c2be11d89e"},"vehicle_type_id":"4","last_reported":1684091089,"current_range_meters":14400,"station_id":"","pricing_plan_id":"free"},{"bike_id":"6a014817-9b97-465c-b767-71be5ab23dbd","system_id":"levelo_inurba_marseille","lat":43.289184,"lon":5.366408,"is_reserved":false,"is_disabled":false,"rental_uris":{"android":"levelo://app?vid=6a014817-9b97-465c-b767-71be5ab23dbd","ios":"levelo://app?vid=6a014817-9b97-465c-b767-71be5ab23dbd"},"vehicle_type_id":"4","last_reported":1684091089,"current_range_meters":4400,"station_id":"ce4bhap2rcd13ifvqek0","pricing_plan_id":"free"},{"bike_id":"b08c18e9-ab20-448d-90f7-7f4c30745f5e","system_id":"levelo_inurba_marseille","lat":43.301117,"lon":5.398795,"is_reserved":false,"is_disabled":false,"rental_uris":{"android":"levelo://app?vid=b08c18e9-ab20-448d-90f7-7f4c30745f5e","ios":"levelo://app?vid=b08c18e9-ab20-448d-90f7-7f4c30745f5e"},"vehicle_type_id":"4","last_reported":1684091089,"current_range_meters":1200,"station_id":"ce4bh0h2rcd13ifvqd40","pricing_plan_id":"free"},{"bike_id":"d9577c73-a1da-4d3f-bc61-61b781f19a6a","system_id":"levelo_inurba_marseille","lat":43.292642,"lon":5.384254,"is_reserved":false,"is_disabled":false,"rental_uris":{"android":"levelo://app?vid=d9577c73-a1da-4d3f-bc61-61b781f19a6a","ios":"levelo://app?vid=d9577c73-a1da-4d3f-bc61-61b781f19a6a"},"vehicle_type_id":"4","last_reported":1684091089,"current_range_meters":0,"station_id":"ce4bh692rcd13ifvqea0","pricing_plan_id":"free"},{"bike_id":"9b34a26f-1256-4b06-a2cd-2e6177e89d22","system_id":"levelo_inurba_marseille","lat":43.33042,"lon":5.38918,"is_reserved":false,"is_disabled":false,"rental_uris":{"android":"levelo://app?vid=9b34a26f-1256-4b06-a2cd-2e6177e89d22","ios":"levelo://app?vid=9b34a26f-1256-4b06-a2cd-2e6177e89d22"},"vehicle_type_id":"4","last_reported":1684091089,"current_range_meters":22400,"station_id":"ce4bhr92rcd13ifvqhrg","pricing_plan_id":"free"},{"bike_id":"8c51270e-1f83-4ecf-a1d7-3341ddf6b0a9","system_id":"levelo_inurba_marseille","lat":43.33047,"lon":5.38911,"is_reserved":false,"is_disabled":false,"rental_uris":{"android":"levelo://app?vid=8c51270e-1f83-4ecf-a1d7-3341ddf6b0a9","ios":"levelo://app?vid=8c51270e-1f83-4ecf-a1d7-3341ddf6b0a9"},"vehicle_type_id":"4","last_reported":1684091089,"current_range_meters":4000,"station_id":"ce4bhr92rcd13ifvqhrg","pricing_plan_id":"free"},{"bike_id":"f0dab880-4336-4167-8dc6-6ed41f821cb6","system_id":"levelo_inurba_marseille","lat":43.33044,"lon":5.38916,"is_reserved":false,"is_disabled":false,"rental_uris":{"android":"levelo://app?vid=f0dab880-4336-4167-8dc6-6ed41f821cb6","ios":"levelo://app?vid=f0dab880-4336-4167-8dc6-6ed41f821cb6"},"vehicle_type_id":"4","last_reported":1684091089,"current_range_meters":0,"station_id":"ce4bhr92rcd13ifvqhrg","pricing_plan_id":"free"},{"bike_id":"d9c65fb5-b538-43a6-8b06-cce8ee9f5b2a","system_id":"levelo_inurba_marseille","lat":43.33042,"lon":5.38921,"is_reserved":false,"is_disabled":false,"rental_uris":{"android":"levelo://app?vid=d9c65fb5-b538-43a6-8b06-cce8ee9f5b2a","ios":"levelo://app?vid=d9c65fb5-b538-43a6-8b06-cce8ee9f5b2a"},"vehicle_type_id":"4","last_reported":1684091089,"current_range_meters":24800,"station_id":"ce4bhr92rcd13ifvqhrg","pricing_plan_id":"free"},{"bike_id":"ab768784-9d01-4f88-a9d5-c9daa557ead1","system_id":"levelo_inurba_marseille","lat":43.33044,"lon":5.38919,"is_reserved":false,"is_disabled":false,"rental_uris":{"android":"levelo://app?vid=ab768784-9d01-4f88-a9d5-c9daa557ead1","ios":"levelo://app?vid=ab768784-9d01-4f88-a9d5-c9daa557ead1"},"vehicle_type_id":"4","last_reported":1684091089,"current_range_meters":30800,"station_id":"ce4bhr92rcd13ifvqhrg","pricing_plan_id":"free"},{"bike_id":"2092c238-b3be-4081-b938-90369fa895c9","system_id":"levelo_inurba_marseille","lat":43.33044,"lon":5.38919,"is_reserved":false,"is_disabled":false,"rental_uris":{"android":"levelo://app?vid=2092c238-b3be-4081-b938-90369fa895c9","ios":"levelo://app?vid=2092c238-b3be-4081-b938-90369fa895c9"},"vehicle_type_id":"4","last_reported":1684091089,"current_range_meters":4400,"station_id":"ce4bhr92rcd13ifvqhrg","pricing_plan_id":"free"},{"bike_id":"513b4caf-4a04-45df-a7b1-cf82896c148b","system_id":"levelo_inurba_marseille","lat":43.33044,"lon":5.3892,"is_reserved":false,"is_disabled":false,"rental_uris":{"android":"levelo://app?vid=513b4caf-4a04-45df-a7b1-cf82896c148b","ios":"levelo://app?vid=513b4caf-4a04-45df-a7b1-cf82896c148b"},"vehicle_type_id":"4","last_reported":1684091089,"current_range_meters":20400,"station_id":"ce4bhr92rcd13ifvqhrg","pricing_plan_id":"free"},{"bike_id":"b8d0a2d7-4443-405c-9e1e-71d351b2ac12","system_id":"levelo_inurba_marseille","lat":43.33042,"lon":5.38923,"is_reserved":false,"is_disabled":false,"rental_uris":{"android":"levelo://app?vid=b8d0a2d7-4443-405c-9e1e-71d351b2ac12","ios":"levelo://app?vid=b8d0a2d7-4443-405c-9e1e-71d351b2ac12"},"vehicle_type_id":"4","last_reported":1684091089,"current_range_meters":16800,"station_id":"ce4bhr92rcd13ifvqhrg","pricing_plan_id":"free"},{"bike_id":"754ef565-0150-4f0d-8c0d-a8a5d6927613","system_id":"levelo_inurba_marseille","lat":43.33044,"lon":5.38922,"is_reserved":false,"is_disabled":false,"rental_uris":{"android":"levelo://app?vid=754ef565-0150-4f0d-8c0d-a8a5d6927613","ios":"levelo://app?vid=754ef565-0150-4f0d-8c0d-a8a5d6927613"},"vehicle_type_id":"4","last_reported":1684091089,"current_range_meters":13600,"station_id":"ce4bhr92rcd13ifvqhrg","pricing_plan_id":"free"},{"bike_id":"f06c3db4-7889-4c18-99f8-d1db674ac9f6","system_id":"levelo_inurba_marseille","lat":43.33053,"lon":5.38911,"is_reserved":false,"is_disabled":false,"rental_uris":{"android":"levelo://app?vid=f06c3db4-7889-4c18-99f8-d1db674ac9f6","ios":"levelo://app?vid=f06c3db4-7889-4c18-99f8-d1db674ac9f6"},"vehicle_type_id":"4","last_reported":1684091089,"current_range_meters":4400,"station_id":"ce4bhr92rcd13ifvqhrg","pricing_plan_id":"free"},{"bike_id":"6df2628c-f421-41e9-b437-ffbd6d888135","system_id":"levelo_inurba_marseille","lat":43.33044,"lon":5.38928,"is_reserved":false,"is_disabled":false,"rental_uris":{"android":"levelo://app?vid=6df2628c-f421-41e9-b437-ffbd6d888135","ios":"levelo://app?vid=6df2628c-f421-41e9-b437-ffbd6d888135"},"vehicle_type_id":"4","last_reported":1684091089,"current_range_meters":800,"station_id":"ce4bhr92rcd13ifvqhrg","pricing_plan_id":"free"},{"bike_id":"a98ff5bd-e355-4be9-973d-4bb68d559ab4","system_id":"levelo_inurba_marseille","lat":43.33055,"lon":5.38924,"is_reserved":false,"is_disabled":false,"rental_uris":{"android":"levelo://app?vid=a98ff5bd-e355-4be9-973d-4bb68d559ab4","ios":"levelo://app?vid=a98ff5bd-e355-4be9-973d-4bb68d559ab4"},"vehicle_type_id":"4","last_reported":1684091089,"current_range_meters":8400,"station_id":"ce4bhr92rcd13ifvqhrg","pricing_plan_id":"free"},{"bike_id":"c9c11d9d-7d0b-4eb5-adad-0791ab67911f","system_id":"levelo_inurba_marseille","lat":43.290995,"lon":5.381361,"is_reserved":false,"is_disabled":false,"rental_uris":{"android":"levelo://app?vid=c9c11d9d-7d0b-4eb5-adad-0791ab67911f","ios":"levelo://app?vid=c9c11d9d-7d0b-4eb5-adad-0791ab67911f"},"vehicle_type_id":"4","last_reported":1684091089,"current_range_meters":3200,"station_id":"ce4bh512rcd13ifvqe2g","pricing_plan_id":"free"},{"bike_id":"c6cbee6b-dcaa-40c3-b3e2-35c5523d8358","system_id":"levelo_inurba_marseille","lat":43.295169,"lon":5.390426,"is_reserved":false,"is_disabled":false,"rental_uris":{"android":"levelo://app?vid=c6cbee6b-dcaa-40c3-b3e2-35c5523d8358","ios":"levelo://app?vid=c6cbee6b-dcaa-40c3-b3e2-35c5523d8358"},"vehicle_type_id":"4","last_reported":1684091089,"current_range_meters":2000,"station_id":"ce4bh3p2rcd13ifvqdp0","pricing_plan_id":"free"},{"bike_id":"d803094c-f496-47f0-84fc-e147cd62b615","system_id":"levelo_inurba_marseille","lat":43.295169,"lon":5.390426,"is_reserved":false,"is_disabled":false,"rental_uris":{"android":"levelo://app?vid=d803094c-f496-47f0-84fc-e147cd62b615","ios":"levelo://app?vid=d803094c-f496-47f0-84fc-e147cd62b615"},"vehicle_type_id":"4","last_reported":1684091089,"current_range_meters":23600,"station_id":"ce4bh3p2rcd13ifvqdp0","pricing_plan_id":"free"},{"bike_id":"552aff1d-8e9a-4b82-918b-f7c46a8c004f","system_id":"levelo_inurba_marseille","lat":43.295169,"lon":5.390426,"is_reserved":false,"is_disabled":false,"rental_uris":{"android":"levelo://app?vid=552aff1d-8e9a-4b82-918b-f7c46a8c004f","ios":"levelo://app?vid=552aff1d-8e9a-4b82-918b-f7c46a8c004f"},"vehicle_type_id":"4","last_reported":1684091089,"current_range_meters":3200,"station_id":"ce4bh3p2rcd13ifvqdp0","pricing_plan_id":"free"},{"bike_id":"83f010e6-8a28-46d2-86ec-db504470b9ec","system_id":"levelo_inurba_marseille","lat":43.2901,"lon":5.381269,"is_reserved":false,"is_disabled":false,"rental_uris":{"android":"levelo://app?vid=83f010e6-8a28-46d2-86ec-db504470b9ec","ios":"levelo://app?vid=83f010e6-8a28-46d2-86ec-db504470b9ec"},"vehicle_type_id":"4","last_reported":1684091089,"current_range_meters":29200,"station_id":"ce4bh4p2rcd13ifvqe1g","pricing_plan_id":"free"},{"bike_id":"49dc64e4-ea87-4e9f-ba93-84c9b36d76b9","system_id":"levelo_inurba_marseille","lat":43.290094,"lon":5.381264,"is_reserved":false,"is_disabled":false,"rental_uris":{"android":"levelo://app?vid=49dc64e4-ea87-4e9f-ba93-84c9b36d76b9","ios":"levelo://app?vid=49dc64e4-ea87-4e9f-ba93-84c9b36d76b9"},"vehicle_type_id":"4","last_reported":1684091089,"current_range_meters":2000,"station_id":"ce4bh4p2rcd13ifvqe1g","pricing_plan_id":"free"},{"bike_id":"1e171b29-aec4-45aa-b4e1-5bb642b0d51b","system_id":"levelo_inurba_marseille","lat":43.2901,"lon":5.381269,"is_reserved":false,"is_disabled":false,"rental_uris":{"android":"levelo://app?vid=1e171b29-aec4-45aa-b4e1-5bb642b0d51b","ios":"levelo://app?vid=1e171b29-aec4-45aa-b4e1-5bb642b0d51b"},"vehicle_type_id":"4","last_reported":1684091089,"current_range_meters":5600,"station_id":"ce4bh4p2rcd13ifvqe1g","pricing_plan_id":"free"},{"bike_id":"1ec8d187-09cd-4787-a6d4-93984f2b14c9","system_id":"levelo_inurba_marseille","lat":43.2901,"lon":5.381269,"is_reserved":false,"is_disabled":false,"rental_uris":{"android":"levelo://app?vid=1ec8d187-09cd-4787-a6d4-93984f2b14c9","ios":"levelo://app?vid=1ec8d187-09cd-4787-a6d4-93984f2b14c9"},"vehicle_type_id":"4","last_reported":1684091089,"current_range_meters":3600,"station_id":"ce4bh4p2rcd13ifvqe1g","pricing_plan_id":"free"},{"bike_id":"62ef4e23-6f34-4c77-abab-f68ab3cabb22","system_id":"levelo_inurba_marseille","lat":43.28856,"lon":5.358371,"is_reserved":false,"is_disabled":false,"rental_uris":{"android":"levelo://app?vid=62ef4e23-6f34-4c77-abab-f68ab3cabb22","ios":"levelo://app?vid=62ef4e23-6f34-4c77-abab-f68ab3cabb22"},"vehicle_type_id":"4","last_reported":1684091089,"current_range_meters":16400,"station_id":"ce4bhb12rcd13ifvqem0","pricing_plan_id":"free"},{"bike_id":"80c1fee9-79f8-4620-9444-664d01099957","system_id":"levelo_inurba_marseille","lat":43.290094,"lon":5.381264,"is_reserved":false,"is_disabled":false,"rental_uris":{"android":"levelo://app?vid=80c1fee9-79f8-4620-9444-664d01099957","ios":"levelo://app?vid=80c1fee9-79f8-4620-9444-664d01099957"},"vehicle_type_id":"4","last_reported":1684091089,"current_range_meters":6400,"station_id":"ce4bh4p2rcd13ifvqe1g","pricing_plan_id":"free"},{"bike_id":"235bfca5-3523-4573-9b75-a1fadb68ed6a","system_id":"levelo_inurba_marseille","lat":43.337328,"lon":5.374538,"is_reserved":false,"is_disabled":false,"rental_uris":{"android":"levelo://app?vid=235bfca5-3523-4573-9b75-a1fadb68ed6a","ios":"levelo://app?vid=235bfca5-3523-4573-9b75-a1fadb68ed6a"},"vehicle_type_id":"4","last_reported":1684091089,"current_range_meters":26400,"station_id":"ce4bhah2rcd13ifvqei0","pricing_plan_id":"free"},{"bike_id":"add5f874-e8d3-42d2-8dd5-3374246db2cf","system_id":"levelo_inurba_marseille","lat":43.3374,"lon":5.37432,"is_reserved":false,"is_disabled":false,"rental_uris":{"android":"levelo://app?vid=add5f874-e8d3-42d2-8dd5-3374246db2cf","ios":"levelo://app?vid=add5f874-e8d3-42d2-8dd5-3374246db2cf"},"vehicle_type_id":"4","last_reported":1684091089,"current_range_meters":28400,"station_id":"","pricing_plan_id":"free"},{"bike_id":"5b3ce0e7-ddde-4f08-9689-05c27b8dd4cc","system_id":"levelo_inurba_marseille","lat":43.337436,"lon":5.374627,"is_reserved":false,"is_disabled":false,"rental_uris":{"android":"levelo://app?vid=5b3ce0e7-ddde-4f08-9689-05c27b8dd4cc","ios":"levelo://app?vid=5b3ce0e7-ddde-4f08-9689-05c27b8dd4cc"},"vehicle_type_id":"4","last_reported":1684091089,"current_range_meters":26800,"station_id":"ce4bhnp2rcd13ifvqgvg","pricing_plan_id":"free"},{"bike_id":"a038c2a6-2410-493f-b767-4dbf5cdd848e","system_id":"levelo_inurba_marseille","lat":43.30642,"lon":5.401031,"is_reserved":false,"is_disabled":false,"rental_uris":{"android":"levelo://app?vid=a038c2a6-2410-493f-b767-4dbf5cdd848e","ios":"levelo://app?vid=a038c2a6-2410-493f-b767-4dbf5cdd848e"},"vehicle_type_id":"4","last_reported":1684091089,"current_range_meters":3200,"station_id":"ce4bh112rcd13ifvqda0","pricing_plan_id":"free"},{"bike_id":"6a189226-a063-4950-b3ee-0c40718a3f3b","system_id":"levelo_inurba_marseille","lat":43.33769,"lon":5.37418,"is_reserved":false,"is_disabled":false,"rental_uris":{"android":"levelo://app?vid=6a189226-a063-4950-b3ee-0c40718a3f3b","ios":"levelo://app?vid=6a189226-a063-4950-b3ee-0c40718a3f3b"},"vehicle_type_id":"4","last_reported":1684091089,"current_range_meters":30400,"station_id":"","pricing_plan_id":"free"},{"bike_id":"25215fd4-da8d-41e3-98f4-8189a36a39f6","system_id":"levelo_inurba_marseille","lat":43.30642,"lon":5.401031,"is_reserved":false,"is_disabled":false,"rental_uris":{"android":"levelo://app?vid=25215fd4-da8d-41e3-98f4-8189a36a39f6","ios":"levelo://app?vid=25215fd4-da8d-41e3-98f4-8189a36a39f6"},"vehicle_type_id":"4","last_reported":1684091089,"current_range_meters":8800,"station_id":"ce4bh112rcd13ifvqda0","pricing_plan_id":"free"},{"bike_id":"3a675c19-f17e-4067-ae47-1e6b50c9e7c2","system_id":"levelo_inurba_marseille","lat":43.301117,"lon":5.398795,"is_reserved":false,"is_disabled":false,"rental_uris":{"android":"levelo://app?vid=3a675c19-f17e-4067-ae47-1e6b50c9e7c2","ios":"levelo://app?vid=3a675c19-f17e-4067-ae47-1e6b50c9e7c2"},"vehicle_type_id":"4","last_reported":1684091089,"current_range_meters":4400,"station_id":"ce4bh0h2rcd13ifvqd40","pricing_plan_id":"free"},{"bike_id":"48ae77d4-d857-4452-b8ec-c579378ee73c","system_id":"levelo_inurba_marseille","lat":43.286591,"lon":5.363346,"is_reserved":false,"is_disabled":false,"rental_uris":{"android":"levelo://app?vid=48ae77d4-d857-4452-b8ec-c579378ee73c","ios":"levelo://app?vid=48ae77d4-d857-4452-b8ec-c579378ee73c"},"vehicle_type_id":"4","last_reported":1684091089,"current_range_meters":16800,"station_id":"ce4bhah2rcd13ifvqej0","pricing_plan_id":"free"},{"bike_id":"25d1b08a-128d-40a7-ad82-5950a381c2a9","system_id":"levelo_inurba_marseille","lat":43.298681,"lon":5.397225,"is_reserved":false,"is_disabled":false,"rental_uris":{"android":"levelo://app?vid=25d1b08a-128d-40a7-ad82-5950a381c2a9","ios":"levelo://app?vid=25d1b08a-128d-40a7-ad82-5950a381c2a9"},"vehicle_type_id":"4","last_reported":1684091089,"current_range_meters":12400,"station_id":"ce4bh0h2rcd13ifvqd50","pricing_plan_id":"free"},{"bike_id":"5d1405c6-9bf8-4bba-8ec5-0fd5f047120b","system_id":"levelo_inurba_marseille","lat":43.298681,"lon":5.397225,"is_reserved":false,"is_disabled":false,"rental_uris":{"android":"levelo://app?vid=5d1405c6-9bf8-4bba-8ec5-0fd5f047120b","ios":"levelo://app?vid=5d1405c6-9bf8-4bba-8ec5-0fd5f047120b"},"vehicle_type_id":"4","last_reported":1684091089,"current_range_meters":4000,"station_id":"ce4bh0h2rcd13ifvqd50","pricing_plan_id":"free"},{"bike_id":"f87eb3be-bc6d-47ce-838b-0d705877dc65","system_id":"levelo_inurba_marseille","lat":43.298681,"lon":5.397225,"is_reserved":false,"is_disabled":false,"rental_uris":{"android":"levelo://app?vid=f87eb3be-bc6d-47ce-838b-0d705877dc65","ios":"levelo://app?vid=f87eb3be-bc6d-47ce-838b-0d705877dc65"},"vehicle_type_id":"4","last_reported":1684091089,"current_range_meters":2800,"station_id":"ce4bh0h2rcd13ifvqd50","pricing_plan_id":"free"},{"bike_id":"8f35d0d8-16dc-41d7-8389-dab7839b561a","system_id":"levelo_inurba_marseille","lat":43.298681,"lon":5.397225,"is_reserved":false,"is_disabled":false,"rental_uris":{"android":"levelo://app?vid=8f35d0d8-16dc-41d7-8389-dab7839b561a","ios":"levelo://app?vid=8f35d0d8-16dc-41d7-8389-dab7839b561a"},"vehicle_type_id":"4","last_reported":1684091089,"current_range_meters":6400,"station_id":"ce4bh0h2rcd13ifvqd50","pricing_plan_id":"free"},{"bike_id":"501caebc-4519-4623-b2d8-da3c2d072a00","system_id":"levelo_inurba_marseille","lat":43.286593,"lon":5.363346,"is_reserved":false,"is_disabled":false,"rental_uris":{"android":"levelo://app?vid=501caebc-4519-4623-b2d8-da3c2d072a00","ios":"levelo://app?vid=501caebc-4519-4623-b2d8-da3c2d072a00"},"vehicle_type_id":"4","last_reported":1684091089,"current_range_meters":8000,"station_id":"ce4bhah2rcd13ifvqej0","pricing_plan_id":"free"},{"bike_id":"20042e34-faa0-4b4c-94aa-f50d0677a6b4","system_id":"levelo_inurba_marseille","lat":43.29659,"lon":5.39549,"is_reserved":false,"is_disabled":false,"rental_uris":{"android":"levelo://app?vid=20042e34-faa0-4b4c-94aa-f50d0677a6b4","ios":"levelo://app?vid=20042e34-faa0-4b4c-94aa-f50d0677a6b4"},"vehicle_type_id":"4","last_reported":1684091089,"current_range_meters":0,"station_id":"","pricing_plan_id":"free"},{"bike_id":"3868a06a-0329-4e91-8f5b-492eca8e4a91","system_id":"levelo_inurba_marseille","lat":43.295194,"lon":5.39397,"is_reserved":false,"is_disabled":false,"rental_uris":{"android":"levelo://app?vid=3868a06a-0329-4e91-8f5b-492eca8e4a91","ios":"levelo://app?vid=3868a06a-0329-4e91-8f5b-492eca8e4a91"},"vehicle_type_id":"4","last_reported":1684091089,"current_range_meters":6800,"station_id":"ce4bh292rcd13ifvqdf0","pricing_plan_id":"free"},{"bike_id":"6fe01eb5-e657-4387-87f3-b893a05432cb","system_id":"levelo_inurba_marseille","lat":43.295194,"lon":5.39397,"is_reserved":false,"is_disabled":false,"rental_uris":{"android":"levelo://app?vid=6fe01eb5-e657-4387-87f3-b893a05432cb","ios":"levelo://app?vid=6fe01eb5-e657-4387-87f3-b893a05432cb"},"vehicle_type_id":"4","last_reported":1684091089,"current_range_meters":19600,"station_id":"ce4bh292rcd13ifvqdf0","pricing_plan_id":"free"},{"bike_id":"3f9c829c-5bfb-498e-a768-b70ddcbbe8db","system_id":"levelo_inurba_marseille","lat":43.302759,"lon":5.400793,"is_reserved":false,"is_disabled":false,"rental_uris":{"android":"levelo://app?vid=3f9c829c-5bfb-498e-a768-b70ddcbbe8db","ios":"levelo://app?vid=3f9c829c-5bfb-498e-a768-b70ddcbbe8db"},"vehicle_type_id":"4","last_reported":1684091089,"current_range_meters":1200,"station_id":"ce4bgvh2rcd13ifvqcs0","pricing_plan_id":"free"},{"bike_id":"bec4dca5-c720-4bf6-8ba6-721d920dfd16","system_id":"levelo_inurba_marseille","lat":43.302759,"lon":5.400793,"is_reserved":false,"is_disabled":false,"rental_uris":{"android":"levelo://app?vid=bec4dca5-c720-4bf6-8ba6-721d920dfd16","ios":"levelo://app?vid=bec4dca5-c720-4bf6-8ba6-721d920dfd16"},"vehicle_type_id":"4","last_reported":1684091089,"current_range_meters":9600,"station_id":"ce4bgvh2rcd13ifvqcs0","pricing_plan_id":"free"},{"bike_id":"934f99ec-2705-4b40-be24-6278c62123b9","system_id":"levelo_inurba_marseille","lat":43.302759,"lon":5.400793,"is_reserved":false,"is_disabled":false,"rental_uris":{"android":"levelo://app?vid=934f99ec-2705-4b40-be24-6278c62123b9","ios":"levelo://app?vid=934f99ec-2705-4b40-be24-6278c62123b9"},"vehicle_type_id":"4","last_reported":1684091089,"current_range_meters":0,"station_id":"ce4bgvh2rcd13ifvqcs0","pricing_plan_id":"free"},{"bike_id":"dac938d6-d5cc-4b02-8ddb-97c4c2e244b6","system_id":"levelo_inurba_marseille","lat":43.286039,"lon":5.370681,"is_reserved":false,"is_disabled":false,"rental_uris":{"android":"levelo://app?vid=dac938d6-d5cc-4b02-8ddb-97c4c2e244b6","ios":"levelo://app?vid=dac938d6-d5cc-4b02-8ddb-97c4c2e244b6"},"vehicle_type_id":"4","last_reported":1684091089,"current_range_meters":25200,"station_id":"ce4bht12rcd13ifvqi60","pricing_plan_id":"free"},{"bike_id":"74d3a484-c4f9-4816-a1e5-7655b6a288b8","system_id":"levelo_inurba_marseille","lat":43.286039,"lon":5.370681,"is_reserved":false,"is_disabled":false,"rental_uris":{"android":"levelo://app?vid=74d3a484-c4f9-4816-a1e5-7655b6a288b8","ios":"levelo://app?vid=74d3a484-c4f9-4816-a1e5-7655b6a288b8"},"vehicle_type_id":"4","last_reported":1684091089,"current_range_meters":6400,"station_id":"ce4bht12rcd13ifvqi60","pricing_plan_id":"free"},{"bike_id":"b845ebaa-e695-4e58-804e-c1f9732b26ba","system_id":"levelo_inurba_marseille","lat":43.286039,"lon":5.370681,"is_reserved":false,"is_disabled":false,"rental_uris":{"android":"levelo://app?vid=b845ebaa-e695-4e58-804e-c1f9732b26ba","ios":"levelo://app?vid=b845ebaa-e695-4e58-804e-c1f9732b26ba"},"vehicle_type_id":"4","last_reported":1684091089,"current_range_meters":10800,"station_id":"ce4bht12rcd13ifvqi60","pricing_plan_id":"free"},{"bike_id":"c8b23b76-5583-4f08-9467-52899542ec34","system_id":"levelo_inurba_marseille","lat":43.286039,"lon":5.370681,"is_reserved":false,"is_disabled":false,"rental_uris":{"android":"levelo://app?vid=c8b23b76-5583-4f08-9467-52899542ec34","ios":"levelo://app?vid=c8b23b76-5583-4f08-9467-52899542ec34"},"vehicle_type_id":"4","last_reported":1684091089,"current_range_meters":3200,"station_id":"ce4bht12rcd13ifvqi60","pricing_plan_id":"free"},{"bike_id":"d94618a9-8d79-49cc-b1ee-ccccf0ff88a3","system_id":"levelo_inurba_marseille","lat":43.286039,"lon":5.370681,"is_reserved":false,"is_disabled":false,"rental_uris":{"android":"levelo://app?vid=d94618a9-8d79-49cc-b1ee-ccccf0ff88a3","ios":"levelo://app?vid=d94618a9-8d79-49cc-b1ee-ccccf0ff88a3"},"vehicle_type_id":"4","last_reported":1684091089,"current_range_meters":400,"station_id":"ce4bht12rcd13ifvqi60","pricing_plan_id":"free"},{"bike_id":"b66d453f-c724-451f-9d64-f0b978772c3b","system_id":"levelo_inurba_marseille","lat":43.28727,"lon":5.37934,"is_reserved":false,"is_disabled":false,"rental_uris":{"android":"levelo://app?vid=b66d453f-c724-451f-9d64-f0b978772c3b","ios":"levelo://app?vid=b66d453f-c724-451f-9d64-f0b978772c3b"},"vehicle_type_id":"4","last_reported":1684091089,"current_range_meters":2000,"station_id":"ce4bh9p2rcd13ifvqec0","pricing_plan_id":"free"},{"bike_id":"4a0ad54b-b51d-4f88-b365-e3c8a99f0236","system_id":"levelo_inurba_marseille","lat":43.28726,"lon":5.37939,"is_reserved":false,"is_disabled":false,"rental_uris":{"android":"levelo://app?vid=4a0ad54b-b51d-4f88-b365-e3c8a99f0236","ios":"levelo://app?vid=4a0ad54b-b51d-4f88-b365-e3c8a99f0236"},"vehicle_type_id":"4","last_reported":1684091089,"current_range_meters":800,"station_id":"ce4bh9p2rcd13ifvqec0","pricing_plan_id":"free"},{"bike_id":"b2281898-2a16-4e6f-9d4c-b89da33c2fa4","system_id":"levelo_inurba_marseille","lat":43.28723,"lon":5.37947,"is_reserved":false,"is_disabled":false,"rental_uris":{"android":"levelo://app?vid=b2281898-2a16-4e6f-9d4c-b89da33c2fa4","ios":"levelo://app?vid=b2281898-2a16-4e6f-9d4c-b89da33c2fa4"},"vehicle_type_id":"4","last_reported":1684091089,"current_range_meters":11200,"station_id":"ce4bh9p2rcd13ifvqec0","pricing_plan_id":"free"},{"bike_id":"097da6a7-c197-4c04-8887-728010933302","system_id":"levelo_inurba_marseille","lat":43.291994,"lon":5.392907,"is_reserved":false,"is_disabled":false,"rental_uris":{"android":"levelo://app?vid=097da6a7-c197-4c04-8887-728010933302","ios":"levelo://app?vid=097da6a7-c197-4c04-8887-728010933302"},"vehicle_type_id":"4","last_reported":1684091089,"current_range_meters":10800,"station_id":"ce4bh192rcd13ifvqdd0","pricing_plan_id":"free"},{"bike_id":"254dd089-3b67-408c-8539-2ff23822d635","system_id":"levelo_inurba_marseille","lat":43.291994,"lon":5.392907,"is_reserved":false,"is_disabled":false,"rental_uris":{"android":"levelo://app?vid=254dd089-3b67-408c-8539-2ff23822d635","ios":"levelo://app?vid=254dd089-3b67-408c-8539-2ff23822d635"},"vehicle_type_id":"4","last_reported":1684091089,"current_range_meters":0,"station_id":"ce4bh192rcd13ifvqdd0","pricing_plan_id":"free"},{"bike_id":"3f4c56ce-6922-4cc1-8f03-1770a3626a17","system_id":"levelo_inurba_marseille","lat":43.29195,"lon":5.3932,"is_reserved":false,"is_disabled":false,"rental_uris":{"android":"levelo://app?vid=3f4c56ce-6922-4cc1-8f03-1770a3626a17","ios":"levelo://app?vid=3f4c56ce-6922-4cc1-8f03-1770a3626a17"},"vehicle_type_id":"4","last_reported":1684091089,"current_range_meters":23200,"station_id":"","pricing_plan_id":"free"},{"bike_id":"4c9d4f3e-7a43-40f9-9def-5859cf7435ad","system_id":"levelo_inurba_marseille","lat":43.284534,"lon":5.358662,"is_reserved":false,"is_disabled":false,"rental_uris":{"android":"levelo://app?vid=4c9d4f3e-7a43-40f9-9def-5859cf7435ad","ios":"levelo://app?vid=4c9d4f3e-7a43-40f9-9def-5859cf7435ad"},"vehicle_type_id":"4","last_reported":1684091089,"current_range_meters":4800,"station_id":"ce4bhah2rcd13ifvqei0","pricing_plan_id":"free"},{"bike_id":"f34f625b-776e-4467-a733-c8ba62f1284b","system_id":"levelo_inurba_marseille","lat":43.284534,"lon":5.358662,"is_reserved":false,"is_disabled":false,"rental_uris":{"android":"levelo://app?vid=f34f625b-776e-4467-a733-c8ba62f1284b","ios":"levelo://app?vid=f34f625b-776e-4467-a733-c8ba62f1284b"},"vehicle_type_id":"4","last_reported":1684091089,"current_range_meters":16400,"station_id":"ce4bhah2rcd13ifvqei0","pricing_plan_id":"free"},{"bike_id":"5a03eaf9-ab2d-4edc-ad55-6423b44f1cbd","system_id":"levelo_inurba_marseille","lat":43.285856,"lon":5.350771,"is_reserved":false,"is_disabled":false,"rental_uris":{"android":"levelo://app?vid=5a03eaf9-ab2d-4edc-ad55-6423b44f1cbd","ios":"levelo://app?vid=5a03eaf9-ab2d-4edc-ad55-6423b44f1cbd"},"vehicle_type_id":"4","last_reported":1684091089,"current_range_meters":24800,"station_id":"ce4bhch2rcd13ifvqeug","pricing_plan_id":"free"},{"bike_id":"ebeba33e-b74a-4178-8917-867314ebdb43","system_id":"levelo_inurba_marseille","lat":43.285856,"lon":5.350771,"is_reserved":false,"is_disabled":false,"rental_uris":{"android":"levelo://app?vid=ebeba33e-b74a-4178-8917-867314ebdb43","ios":"levelo://app?vid=ebeba33e-b74a-4178-8917-867314ebdb43"},"vehicle_type_id":"4","last_reported":1684091089,"current_range_meters":21600,"station_id":"ce4bhch2rcd13ifvqeug","pricing_plan_id":"free"},{"bike_id":"3640e335-9072-4f1d-904d-d16643e470e6","system_id":"levelo_inurba_marseille","lat":43.286138,"lon":5.351017,"is_reserved":false,"is_disabled":false,"rental_uris":{"android":"levelo://app?vid=3640e335-9072-4f1d-904d-d16643e470e6","ios":"levelo://app?vid=3640e335-9072-4f1d-904d-d16643e470e6"},"vehicle_type_id":"4","last_reported":1684091089,"current_range_meters":13600,"station_id":"ce4bhbp2rcd13ifvqerg","pricing_plan_id":"free"},{"bike_id":"65fdb7c8-7206-462e-9b67-59a09c9d603e","system_id":"levelo_inurba_marseille","lat":43.295713,"lon":5.399639,"is_reserved":false,"is_disabled":false,"rental_uris":{"android":"levelo://app?vid=65fdb7c8-7206-462e-9b67-59a09c9d603e","ios":"levelo://app?vid=65fdb7c8-7206-462e-9b67-59a09c9d603e"},"vehicle_type_id":"4","last_reported":1684091089,"current_range_meters":1200,"station_id":"ce4bh312rcd13ifvqdj0","pricing_plan_id":"free"},{"bike_id":"dc492380-0503-42bd-9368-ca28d61478f2","system_id":"levelo_inurba_marseille","lat":43.295713,"lon":5.399639,"is_reserved":false,"is_disabled":false,"rental_uris":{"android":"levelo://app?vid=dc492380-0503-42bd-9368-ca28d61478f2","ios":"levelo://app?vid=dc492380-0503-42bd-9368-ca28d61478f2"},"vehicle_type_id":"4","last_reported":1684091089,"current_range_meters":4400,"station_id":"ce4bh312rcd13ifvqdj0","pricing_plan_id":"free"},{"bike_id":"415aac53-c1d5-4c96-8d08-526887f2bf42","system_id":"levelo_inurba_marseille","lat":43.295713,"lon":5.399639,"is_reserved":false,"is_disabled":false,"rental_uris":{"android":"levelo://app?vid=415aac53-c1d5-4c96-8d08-526887f2bf42","ios":"levelo://app?vid=415aac53-c1d5-4c96-8d08-526887f2bf42"},"vehicle_type_id":"4","last_reported":1684091089,"current_range_meters":0,"station_id":"ce4bh312rcd13ifvqdj0","pricing_plan_id":"free"},{"bike_id":"6622b8d5-6829-415e-b07f-e8b8f5d76153","system_id":"levelo_inurba_marseille","lat":43.285416,"lon":5.385285,"is_reserved":false,"is_disabled":false,"rental_uris":{"android":"levelo://app?vid=6622b8d5-6829-415e-b07f-e8b8f5d76153","ios":"levelo://app?vid=6622b8d5-6829-415e-b07f-e8b8f5d76153"},"vehicle_type_id":"4","last_reported":1684091089,"current_range_meters":14800,"station_id":"ce4bh412rcd13ifvqdr0","pricing_plan_id":"free"},{"bike_id":"0ad5545d-2b0a-44c0-b3ab-11d6276ee15a","system_id":"levelo_inurba_marseille","lat":43.323464,"lon":5.406297,"is_reserved":false,"is_disabled":false,"rental_uris":{"android":"levelo://app?vid=0ad5545d-2b0a-44c0-b3ab-11d6276ee15a","ios":"levelo://app?vid=0ad5545d-2b0a-44c0-b3ab-11d6276ee15a"},"vehicle_type_id":"4","last_reported":1684091089,"current_range_meters":16000,"station_id":"ce4bhq92rcd13ifvqhjg","pricing_plan_id":"free"},{"bike_id":"b02f8271-e0de-4f4e-971c-20d4c01525b3","system_id":"levelo_inurba_marseille","lat":43.284793,"lon":5.384113,"is_reserved":false,"is_disabled":false,"rental_uris":{"android":"levelo://app?vid=b02f8271-e0de-4f4e-971c-20d4c01525b3","ios":"levelo://app?vid=b02f8271-e0de-4f4e-971c-20d4c01525b3"},"vehicle_type_id":"4","last_reported":1684091089,"current_range_meters":5200,"station_id":"ce4bh512rcd13ifvqe3g","pricing_plan_id":"free"},{"bike_id":"be2cf1d7-98cb-48c8-8da5-5cd591e48b74","system_id":"levelo_inurba_marseille","lat":43.290094,"lon":5.381264,"is_reserved":false,"is_disabled":false,"rental_uris":{"android":"levelo://app?vid=be2cf1d7-98cb-48c8-8da5-5cd591e48b74","ios":"levelo://app?vid=be2cf1d7-98cb-48c8-8da5-5cd591e48b74"},"vehicle_type_id":"4","last_reported":1684091089,"current_range_meters":3600,"station_id":"ce4bh4p2rcd13ifvqe1g","pricing_plan_id":"free"},{"bike_id":"b08ba6cf-1d69-4814-ba61-ff2923891350","system_id":"levelo_inurba_marseille","lat":43.288501,"lon":5.393087,"is_reserved":false,"is_disabled":false,"rental_uris":{"android":"levelo://app?vid=b08ba6cf-1d69-4814-ba61-ff2923891350","ios":"levelo://app?vid=b08ba6cf-1d69-4814-ba61-ff2923891350"},"vehicle_type_id":"4","last_reported":1684091089,"current_range_meters":5200,"station_id":"ce4bh2p2rcd13ifvqdi0","pricing_plan_id":"free"},{"bike_id":"9e48cd99-6c36-4461-98b1-87bc6181c51d","system_id":"levelo_inurba_marseille","lat":43.284787,"lon":5.384116,"is_reserved":false,"is_disabled":false,"rental_uris":{"android":"levelo://app?vid=9e48cd99-6c36-4461-98b1-87bc6181c51d","ios":"levelo://app?vid=9e48cd99-6c36-4461-98b1-87bc6181c51d"},"vehicle_type_id":"4","last_reported":1684091089,"current_range_meters":10400,"station_id":"ce4bh512rcd13ifvqe3g","pricing_plan_id":"free"},{"bike_id":"342ed277-f348-4058-a3d8-6dccd8da6e7b","system_id":"levelo_inurba_marseille","lat":43.283494,"lon":5.380945,"is_reserved":false,"is_disabled":false,"rental_uris":{"android":"levelo://app?vid=342ed277-f348-4058-a3d8-6dccd8da6e7b","ios":"levelo://app?vid=342ed277-f348-4058-a3d8-6dccd8da6e7b"},"vehicle_type_id":"4","last_reported":1684091089,"current_range_meters":7600,"station_id":"ce4bh412rcd13ifvqdr0","pricing_plan_id":"free"},{"bike_id":"e8514fea-e785-4103-b4f5-241c0be32bf7","system_id":"levelo_inurba_marseille","lat":43.283494,"lon":5.380945,"is_reserved":false,"is_disabled":false,"rental_uris":{"android":"levelo://app?vid=e8514fea-e785-4103-b4f5-241c0be32bf7","ios":"levelo://app?vid=e8514fea-e785-4103-b4f5-241c0be32bf7"},"vehicle_type_id":"4","last_reported":1684091089,"current_range_meters":800,"station_id":"ce4bh412rcd13ifvqdr0","pricing_plan_id":"free"},{"bike_id":"6a714ea6-1b39-4beb-a828-33442907c54b","system_id":"levelo_inurba_marseille","lat":43.284219,"lon":5.3497,"is_reserved":false,"is_disabled":false,"rental_uris":{"android":"levelo://app?vid=6a714ea6-1b39-4beb-a828-33442907c54b","ios":"levelo://app?vid=6a714ea6-1b39-4beb-a828-33442907c54b"},"vehicle_type_id":"4","last_reported":1684091089,"current_range_meters":12800,"station_id":"ce4bhbh2rcd13ifvqepg","pricing_plan_id":"free"},{"bike_id":"2c9dd969-e28f-490d-8f45-22f402822f5c","system_id":"levelo_inurba_marseille","lat":43.292724,"lon":5.401131,"is_reserved":false,"is_disabled":false,"rental_uris":{"android":"levelo://app?vid=2c9dd969-e28f-490d-8f45-22f402822f5c","ios":"levelo://app?vid=2c9dd969-e28f-490d-8f45-22f402822f5c"},"vehicle_type_id":"4","last_reported":1684091089,"current_range_meters":11600,"station_id":"ce4bh312rcd13ifvqdk0","pricing_plan_id":"free"},{"bike_id":"b173d9f3-a1ac-4d31-828b-c5a9f3e42b3a","system_id":"levelo_inurba_marseille","lat":43.282754,"lon":5.350519,"is_reserved":false,"is_disabled":false,"rental_uris":{"android":"levelo://app?vid=b173d9f3-a1ac-4d31-828b-c5a9f3e42b3a","ios":"levelo://app?vid=b173d9f3-a1ac-4d31-828b-c5a9f3e42b3a"},"vehicle_type_id":"4","last_reported":1684091089,"current_range_meters":400,"station_id":"ce4bhbp2rcd13ifvqerg","pricing_plan_id":"free"},{"bike_id":"98ff94e7-19a5-4e2f-a090-1231fdc929c9","system_id":"levelo_inurba_marseille","lat":43.282754,"lon":5.350519,"is_reserved":false,"is_disabled":false,"rental_uris":{"android":"levelo://app?vid=98ff94e7-19a5-4e2f-a090-1231fdc929c9","ios":"levelo://app?vid=98ff94e7-19a5-4e2f-a090-1231fdc929c9"},"vehicle_type_id":"4","last_reported":1684091089,"current_range_meters":13600,"station_id":"ce4bhbp2rcd13ifvqerg","pricing_plan_id":"free"},{"bike_id":"b64aaf1c-1dff-4379-811d-3976d90be7d8","system_id":"levelo_inurba_marseille","lat":43.28038,"lon":5.36943,"is_reserved":false,"is_disabled":false,"rental_uris":{"android":"levelo://app?vid=b64aaf1c-1dff-4379-811d-3976d90be7d8","ios":"levelo://app?vid=b64aaf1c-1dff-4379-811d-3976d90be7d8"},"vehicle_type_id":"4","last_reported":1684091089,"current_range_meters":1600,"station_id":"ce4bha12rcd13ifvqef0","pricing_plan_id":"free"},{"bike_id":"1425acf8-321b-47ed-9217-718fcbb1caaf","system_id":"levelo_inurba_marseille","lat":43.284462,"lon":5.392121,"is_reserved":false,"is_disabled":false,"rental_uris":{"android":"levelo://app?vid=1425acf8-321b-47ed-9217-718fcbb1caaf","ios":"levelo://app?vid=1425acf8-321b-47ed-9217-718fcbb1caaf"},"vehicle_type_id":"4","last_reported":1684091089,"current_range_meters":1600,"station_id":"ce4bhoh2rcd13ifvqh5g","pricing_plan_id":"free"},{"bike_id":"7073f418-4646-4c0d-8ae0-57bcbd84d5f1","system_id":"levelo_inurba_marseille","lat":43.284462,"lon":5.392121,"is_reserved":false,"is_disabled":false,"rental_uris":{"android":"levelo://app?vid=7073f418-4646-4c0d-8ae0-57bcbd84d5f1","ios":"levelo://app?vid=7073f418-4646-4c0d-8ae0-57bcbd84d5f1"},"vehicle_type_id":"4","last_reported":1684091089,"current_range_meters":22800,"station_id":"ce4bhoh2rcd13ifvqh5g","pricing_plan_id":"free"},{"bike_id":"d4626723-0b53-464c-9d2e-cca76a7b6e73","system_id":"levelo_inurba_marseille","lat":43.30423,"lon":5.41291,"is_reserved":false,"is_disabled":false,"rental_uris":{"android":"levelo://app?vid=d4626723-0b53-464c-9d2e-cca76a7b6e73","ios":"levelo://app?vid=d4626723-0b53-464c-9d2e-cca76a7b6e73"},"vehicle_type_id":"4","last_reported":1684091089,"current_range_meters":30400,"station_id":"ce4bhop2rcd13ifvqh8g","pricing_plan_id":"free"},{"bike_id":"2a62be94-0edd-46d4-81b5-3a8bb13bc7f1","system_id":"levelo_inurba_marseille","lat":43.287154,"lon":5.399979,"is_reserved":false,"is_disabled":false,"rental_uris":{"android":"levelo://app?vid=2a62be94-0edd-46d4-81b5-3a8bb13bc7f1","ios":"levelo://app?vid=2a62be94-0edd-46d4-81b5-3a8bb13bc7f1"},"vehicle_type_id":"4","last_reported":1684091089,"current_range_meters":20000,"station_id":"ce4bho92rcd13ifvqh3g","pricing_plan_id":"free"},{"bike_id":"fc4141ce-1f76-4a60-99ca-f7a394db26f6","system_id":"levelo_inurba_marseille","lat":43.27903,"lon":5.35346,"is_reserved":false,"is_disabled":false,"rental_uris":{"android":"levelo://app?vid=fc4141ce-1f76-4a60-99ca-f7a394db26f6","ios":"levelo://app?vid=fc4141ce-1f76-4a60-99ca-f7a394db26f6"},"vehicle_type_id":"4","last_reported":1684091089,"current_range_meters":0,"station_id":"","pricing_plan_id":"free"},{"bike_id":"2af89703-648d-4870-9a13-46723e3b3a81","system_id":"levelo_inurba_marseille","lat":43.287154,"lon":5.399979,"is_reserved":false,"is_disabled":false,"rental_uris":{"android":"levelo://app?vid=2af89703-648d-4870-9a13-46723e3b3a81","ios":"levelo://app?vid=2af89703-648d-4870-9a13-46723e3b3a81"},"vehicle_type_id":"4","last_reported":1684091089,"current_range_meters":14000,"station_id":"ce4bho92rcd13ifvqh3g","pricing_plan_id":"free"},{"bike_id":"b8b7c034-5aec-443f-8075-a622bcd63df2","system_id":"levelo_inurba_marseille","lat":43.299579,"lon":5.413255,"is_reserved":false,"is_disabled":false,"rental_uris":{"android":"levelo://app?vid=b8b7c034-5aec-443f-8075-a622bcd63df2","ios":"levelo://app?vid=b8b7c034-5aec-443f-8075-a622bcd63df2"},"vehicle_type_id":"4","last_reported":1684091089,"current_range_meters":26800,"station_id":"ce4bhp12rcd13ifvqh9g","pricing_plan_id":"free"},{"bike_id":"a40ed4f7-0610-4629-97fd-b243a41523e4","system_id":"levelo_inurba_marseille","lat":43.299577,"lon":5.413277,"is_reserved":false,"is_disabled":false,"rental_uris":{"android":"levelo://app?vid=a40ed4f7-0610-4629-97fd-b243a41523e4","ios":"levelo://app?vid=a40ed4f7-0610-4629-97fd-b243a41523e4"},"vehicle_type_id":"4","last_reported":1684091089,"current_range_meters":10400,"station_id":"ce4bhp12rcd13ifvqh9g","pricing_plan_id":"free"},{"bike_id":"a72cff25-43db-4dfb-9bc6-401fbf97ad05","system_id":"levelo_inurba_marseille","lat":43.299579,"lon":5.413255,"is_reserved":false,"is_disabled":false,"rental_uris":{"android":"levelo://app?vid=a72cff25-43db-4dfb-9bc6-401fbf97ad05","ios":"levelo://app?vid=a72cff25-43db-4dfb-9bc6-401fbf97ad05"},"vehicle_type_id":"4","last_reported":1684091089,"current_range_meters":14800,"station_id":"ce4bhp12rcd13ifvqh9g","pricing_plan_id":"free"},{"bike_id":"cad4a7f7-ac15-4132-a111-aa624192d347","system_id":"levelo_inurba_marseille","lat":43.279742,"lon":5.38744,"is_reserved":false,"is_disabled":false,"rental_uris":{"android":"levelo://app?vid=cad4a7f7-ac15-4132-a111-aa624192d347","ios":"levelo://app?vid=cad4a7f7-ac15-4132-a111-aa624192d347"},"vehicle_type_id":"4","last_reported":1684091089,"current_range_meters":0,"station_id":"ce4bhg12rcd13ifvqf80","pricing_plan_id":"free"},{"bike_id":"df332c70-fd55-4588-ae75-38e73cb7f39b","system_id":"levelo_inurba_marseille","lat":43.279742,"lon":5.38744,"is_reserved":false,"is_disabled":false,"rental_uris":{"android":"levelo://app?vid=df332c70-fd55-4588-ae75-38e73cb7f39b","ios":"levelo://app?vid=df332c70-fd55-4588-ae75-38e73cb7f39b"},"vehicle_type_id":"4","last_reported":1684091089,"current_range_meters":5600,"station_id":"ce4bhg12rcd13ifvqf80","pricing_plan_id":"free"},{"bike_id":"29d3e49f-d1f2-4ab3-8b1f-944588c5c5dc","system_id":"levelo_inurba_marseille","lat":43.320045,"lon":5.415048,"is_reserved":false,"is_disabled":false,"rental_uris":{"android":"levelo://app?vid=29d3e49f-d1f2-4ab3-8b1f-944588c5c5dc","ios":"levelo://app?vid=29d3e49f-d1f2-4ab3-8b1f-944588c5c5dc"},"vehicle_type_id":"4","last_reported":1684091089,"current_range_meters":6400,"station_id":"ce4bhq92rcd13ifvqhkg","pricing_plan_id":"free"},{"bike_id":"b1e6afb7-3c37-4da2-bf43-c49d3dfd7685","system_id":"levelo_inurba_marseille","lat":43.320045,"lon":5.415048,"is_reserved":false,"is_disabled":false,"rental_uris":{"android":"levelo://app?vid=b1e6afb7-3c37-4da2-bf43-c49d3dfd7685","ios":"levelo://app?vid=b1e6afb7-3c37-4da2-bf43-c49d3dfd7685"},"vehicle_type_id":"4","last_reported":1684091089,"current_range_meters":21200,"station_id":"ce4bhq92rcd13ifvqhkg","pricing_plan_id":"free"},{"bike_id":"5b2c74bb-95bc-4046-8770-0eca3ae748a0","system_id":"levelo_inurba_marseille","lat":43.279742,"lon":5.38744,"is_reserved":false,"is_disabled":false,"rental_uris":{"android":"levelo://app?vid=5b2c74bb-95bc-4046-8770-0eca3ae748a0","ios":"levelo://app?vid=5b2c74bb-95bc-4046-8770-0eca3ae748a0"},"vehicle_type_id":"4","last_reported":1684091089,"current_range_meters":9200,"station_id":"ce4bhg12rcd13ifvqf80","pricing_plan_id":"free"},{"bike_id":"ef045add-5cb1-4f9e-a78d-80aa354097a8","system_id":"levelo_inurba_marseille","lat":43.279742,"lon":5.38744,"is_reserved":false,"is_disabled":false,"rental_uris":{"android":"levelo://app?vid=ef045add-5cb1-4f9e-a78d-80aa354097a8","ios":"levelo://app?vid=ef045add-5cb1-4f9e-a78d-80aa354097a8"},"vehicle_type_id":"4","last_reported":1684091089,"current_range_meters":6400,"station_id":"ce4bhg12rcd13ifvqf80","pricing_plan_id":"free"},{"bike_id":"3e39c0d6-394b-4afd-b6a3-93b794e38f02","system_id":"levelo_inurba_marseille","lat":43.279742,"lon":5.38744,"is_reserved":false,"is_disabled":false,"rental_uris":{"android":"levelo://app?vid=3e39c0d6-394b-4afd-b6a3-93b794e38f02","ios":"levelo://app?vid=3e39c0d6-394b-4afd-b6a3-93b794e38f02"},"vehicle_type_id":"4","last_reported":1684091089,"current_range_meters":2400,"station_id":"ce4bhg12rcd13ifvqf80","pricing_plan_id":"free"},{"bike_id":"14289479-410a-4077-b537-1a7d0a44cece","system_id":"levelo_inurba_marseille","lat":43.320045,"lon":5.415048,"is_reserved":false,"is_disabled":false,"rental_uris":{"android":"levelo://app?vid=14289479-410a-4077-b537-1a7d0a44cece","ios":"levelo://app?vid=14289479-410a-4077-b537-1a7d0a44cece"},"vehicle_type_id":"4","last_reported":1684091089,"current_range_meters":31200,"station_id":"ce4bhq92rcd13ifvqhkg","pricing_plan_id":"free"},{"bike_id":"432b0910-d6ab-4cee-a951-d480e3fc9149","system_id":"levelo_inurba_marseille","lat":43.29261,"lon":5.40904,"is_reserved":false,"is_disabled":false,"rental_uris":{"android":"levelo://app?vid=432b0910-d6ab-4cee-a951-d480e3fc9149","ios":"levelo://app?vid=432b0910-d6ab-4cee-a951-d480e3fc9149"},"vehicle_type_id":"4","last_reported":1684091089,"current_range_meters":0,"station_id":"ce4bh192rcd13ifvqdc0","pricing_plan_id":"free"},{"bike_id":"e5cd5b50-6472-41e7-8d76-cc0a8e994db7","system_id":"levelo_inurba_marseille","lat":43.29267,"lon":5.4091,"is_reserved":false,"is_disabled":false,"rental_uris":{"android":"levelo://app?vid=e5cd5b50-6472-41e7-8d76-cc0a8e994db7","ios":"levelo://app?vid=e5cd5b50-6472-41e7-8d76-cc0a8e994db7"},"vehicle_type_id":"4","last_reported":1684091089,"current_range_meters":11600,"station_id":"ce4bh192rcd13ifvqdc0","pricing_plan_id":"free"},{"bike_id":"b10f5044-bbb4-44c2-9d61-8359ece3a154","system_id":"levelo_inurba_marseille","lat":43.325233,"lon":5.414318,"is_reserved":false,"is_disabled":false,"rental_uris":{"android":"levelo://app?vid=b10f5044-bbb4-44c2-9d61-8359ece3a154","ios":"levelo://app?vid=b10f5044-bbb4-44c2-9d61-8359ece3a154"},"vehicle_type_id":"4","last_reported":1684091089,"current_range_meters":0,"station_id":"ce4bhq12rcd13ifvqhhg","pricing_plan_id":"free"},{"bike_id":"15255a03-1452-420d-aeb1-3f8c1ba8bf41","system_id":"levelo_inurba_marseille","lat":43.29259,"lon":5.40909,"is_reserved":false,"is_disabled":false,"rental_uris":{"android":"levelo://app?vid=15255a03-1452-420d-aeb1-3f8c1ba8bf41","ios":"levelo://app?vid=15255a03-1452-420d-aeb1-3f8c1ba8bf41"},"vehicle_type_id":"4","last_reported":1684091089,"current_range_meters":4000,"station_id":"ce4bh192rcd13ifvqdc0","pricing_plan_id":"free"},{"bike_id":"26097369-2d86-4544-8c78-2611ca0fe88e","system_id":"levelo_inurba_marseille","lat":43.29262,"lon":5.40915,"is_reserved":false,"is_disabled":false,"rental_uris":{"android":"levelo://app?vid=26097369-2d86-4544-8c78-2611ca0fe88e","ios":"levelo://app?vid=26097369-2d86-4544-8c78-2611ca0fe88e"},"vehicle_type_id":"4","last_reported":1684091089,"current_range_meters":14400,"station_id":"ce4bh192rcd13ifvqdc0","pricing_plan_id":"free"},{"bike_id":"10995590-0527-4248-a46b-522030684dd6","system_id":"levelo_inurba_marseille","lat":43.27621,"lon":5.36125,"is_reserved":false,"is_disabled":false,"rental_uris":{"android":"levelo://app?vid=10995590-0527-4248-a46b-522030684dd6","ios":"levelo://app?vid=10995590-0527-4248-a46b-522030684dd6"},"vehicle_type_id":"4","last_reported":1684091089,"current_range_meters":0,"station_id":"","pricing_plan_id":"free"},{"bike_id":"10d399ab-0cdf-4df2-851d-78648ec4e3fa","system_id":"levelo_inurba_marseille","lat":43.27619,"lon":5.36101,"is_reserved":false,"is_disabled":false,"rental_uris":{"android":"levelo://app?vid=10d399ab-0cdf-4df2-851d-78648ec4e3fa","ios":"levelo://app?vid=10d399ab-0cdf-4df2-851d-78648ec4e3fa"},"vehicle_type_id":"4","last_reported":1684091089,"current_range_meters":21200,"station_id":"ce4bgj92rcd13ifvqbe0","pricing_plan_id":"free"},{"bike_id":"366a3b66-e6e6-4aa7-b5fe-e1fc400901fa","system_id":"levelo_inurba_marseille","lat":43.325233,"lon":5.414318,"is_reserved":false,"is_disabled":false,"rental_uris":{"android":"levelo://app?vid=366a3b66-e6e6-4aa7-b5fe-e1fc400901fa","ios":"levelo://app?vid=366a3b66-e6e6-4aa7-b5fe-e1fc400901fa"},"vehicle_type_id":"4","last_reported":1684091089,"current_range_meters":31600,"station_id":"ce4bhq12rcd13ifvqhhg","pricing_plan_id":"free"},{"bike_id":"72d1c47b-25f0-4500-a29b-04b3650a151e","system_id":"levelo_inurba_marseille","lat":43.32545,"lon":5.41457,"is_reserved":false,"is_disabled":false,"rental_uris":{"android":"levelo://app?vid=72d1c47b-25f0-4500-a29b-04b3650a151e","ios":"levelo://app?vid=72d1c47b-25f0-4500-a29b-04b3650a151e"},"vehicle_type_id":"4","last_reported":1684091089,"current_range_meters":29600,"station_id":"ce4bhq12rcd13ifvqhhg","pricing_plan_id":"free"},{"bike_id":"fe339c17-ba4f-4a4f-b350-940fbd81c43b","system_id":"levelo_inurba_marseille","lat":43.33336,"lon":5.40906,"is_reserved":false,"is_disabled":false,"rental_uris":{"android":"levelo://app?vid=fe339c17-ba4f-4a4f-b350-940fbd81c43b","ios":"levelo://app?vid=fe339c17-ba4f-4a4f-b350-940fbd81c43b"},"vehicle_type_id":"4","last_reported":1684091089,"current_range_meters":16400,"station_id":"","pricing_plan_id":"free"},{"bike_id":"fbec23a6-d05a-4ab4-a7d6-96c5438fbe77","system_id":"levelo_inurba_marseille","lat":43.280784,"lon":5.396622,"is_reserved":false,"is_disabled":false,"rental_uris":{"android":"levelo://app?vid=fbec23a6-d05a-4ab4-a7d6-96c5438fbe77","ios":"levelo://app?vid=fbec23a6-d05a-4ab4-a7d6-96c5438fbe77"},"vehicle_type_id":"4","last_reported":1684091089,"current_range_meters":13600,"station_id":"ce4bho12rcd13ifvqh2g","pricing_plan_id":"free"},{"bike_id":"2843add0-87ef-4fe2-a45d-cab01a047ebf","system_id":"levelo_inurba_marseille","lat":43.28079,"lon":5.39657,"is_reserved":false,"is_disabled":false,"rental_uris":{"android":"levelo://app?vid=2843add0-87ef-4fe2-a45d-cab01a047ebf","ios":"levelo://app?vid=2843add0-87ef-4fe2-a45d-cab01a047ebf"},"vehicle_type_id":"4","last_reported":1684091089,"current_range_meters":12800,"station_id":"ce4bho12rcd13ifvqh2g","pricing_plan_id":"free"},{"bike_id":"4135537d-9d01-4ff3-9e1d-58ff6c81b7c2","system_id":"levelo_inurba_marseille","lat":43.28078,"lon":5.39656,"is_reserved":false,"is_disabled":false,"rental_uris":{"android":"levelo://app?vid=4135537d-9d01-4ff3-9e1d-58ff6c81b7c2","ios":"levelo://app?vid=4135537d-9d01-4ff3-9e1d-58ff6c81b7c2"},"vehicle_type_id":"4","last_reported":1684091089,"current_range_meters":15600,"station_id":"ce4bho12rcd13ifvqh2g","pricing_plan_id":"free"},{"bike_id":"8c46edcd-4ee9-4c7d-9a3f-10c2bd93a71f","system_id":"levelo_inurba_marseille","lat":43.278399,"lon":5.392139,"is_reserved":false,"is_disabled":false,"rental_uris":{"android":"levelo://app?vid=8c46edcd-4ee9-4c7d-9a3f-10c2bd93a71f","ios":"levelo://app?vid=8c46edcd-4ee9-4c7d-9a3f-10c2bd93a71f"},"vehicle_type_id":"4","last_reported":1684091089,"current_range_meters":32000,"station_id":"ce4bhjp2rcd13ifvqga0","pricing_plan_id":"free"},{"bike_id":"d80cd225-746d-4b07-9371-cc450e1f75f7","system_id":"levelo_inurba_marseille","lat":43.278399,"lon":5.392139,"is_reserved":false,"is_disabled":false,"rental_uris":{"android":"levelo://app?vid=d80cd225-746d-4b07-9371-cc450e1f75f7","ios":"levelo://app?vid=d80cd225-746d-4b07-9371-cc450e1f75f7"},"vehicle_type_id":"4","last_reported":1684091089,"current_range_meters":11200,"station_id":"ce4bhjp2rcd13ifvqga0","pricing_plan_id":"free"},{"bike_id":"e0024be8-9727-4f6c-98fa-1a00fcb3b511","system_id":"levelo_inurba_marseille","lat":43.27385,"lon":5.36259,"is_reserved":false,"is_disabled":false,"rental_uris":{"android":"levelo://app?vid=e0024be8-9727-4f6c-98fa-1a00fcb3b511","ios":"levelo://app?vid=e0024be8-9727-4f6c-98fa-1a00fcb3b511"},"vehicle_type_id":"4","last_reported":1684091089,"current_range_meters":5600,"station_id":"ce4bhbh2rcd13ifvqeo0","pricing_plan_id":"free"},{"bike_id":"131c7461-f3e8-463a-8c7e-54dbd03cd248","system_id":"levelo_inurba_marseille","lat":43.33603,"lon":5.41024,"is_reserved":false,"is_disabled":false,"rental_uris":{"android":"levelo://app?vid=131c7461-f3e8-463a-8c7e-54dbd03cd248","ios":"levelo://app?vid=131c7461-f3e8-463a-8c7e-54dbd03cd248"},"vehicle_type_id":"4","last_reported":1684091089,"current_range_meters":30400,"station_id":"ce4bhqh2rcd13ifvqhmg","pricing_plan_id":"free"},{"bike_id":"5c211069-6c4d-4a14-8fc2-3fefdd622f3b","system_id":"levelo_inurba_marseille","lat":43.273609,"lon":5.362708,"is_reserved":false,"is_disabled":false,"rental_uris":{"android":"levelo://app?vid=5c211069-6c4d-4a14-8fc2-3fefdd622f3b","ios":"levelo://app?vid=5c211069-6c4d-4a14-8fc2-3fefdd622f3b"},"vehicle_type_id":"4","last_reported":1684091089,"current_range_meters":400,"station_id":"ce4bhbh2rcd13ifvqeo0","pricing_plan_id":"free"},{"bike_id":"9d8ce3ba-d93c-4cfd-b438-ce236a7e6b81","system_id":"levelo_inurba_marseille","lat":43.3361,"lon":5.41037,"is_reserved":false,"is_disabled":false,"rental_uris":{"android":"levelo://app?vid=9d8ce3ba-d93c-4cfd-b438-ce236a7e6b81","ios":"levelo://app?vid=9d8ce3ba-d93c-4cfd-b438-ce236a7e6b81"},"vehicle_type_id":"4","last_reported":1684091089,"current_range_meters":19600,"station_id":"ce4bhqh2rcd13ifvqhmg","pricing_plan_id":"free"},{"bike_id":"cc8e1e2a-965d-4b03-8b7b-d7ce6fb29cb9","system_id":"levelo_inurba_marseille","lat":43.33612,"lon":5.410321,"is_reserved":false,"is_disabled":false,"rental_uris":{"android":"levelo://app?vid=cc8e1e2a-965d-4b03-8b7b-d7ce6fb29cb9","ios":"levelo://app?vid=cc8e1e2a-965d-4b03-8b7b-d7ce6fb29cb9"},"vehicle_type_id":"4","last_reported":1684091089,"current_range_meters":9600,"station_id":"ce4bhqh2rcd13ifvqhmg","pricing_plan_id":"free"},{"bike_id":"55c45978-f18a-4e18-ba77-19202f265ded","system_id":"levelo_inurba_marseille","lat":43.276771,"lon":5.388799,"is_reserved":false,"is_disabled":false,"rental_uris":{"android":"levelo://app?vid=55c45978-f18a-4e18-ba77-19202f265ded","ios":"levelo://app?vid=55c45978-f18a-4e18-ba77-19202f265ded"},"vehicle_type_id":"4","last_reported":1684091089,"current_range_meters":10000,"station_id":"ce4bhi12rcd13ifvqfo0","pricing_plan_id":"free"},{"bike_id":"2bc28273-afcb-409a-8370-8dbc541b2cdc","system_id":"levelo_inurba_marseille","lat":43.276771,"lon":5.388799,"is_reserved":false,"is_disabled":false,"rental_uris":{"android":"levelo://app?vid=2bc28273-afcb-409a-8370-8dbc541b2cdc","ios":"levelo://app?vid=2bc28273-afcb-409a-8370-8dbc541b2cdc"},"vehicle_type_id":"4","last_reported":1684091089,"current_range_meters":2400,"station_id":"ce4bhi12rcd13ifvqfo0","pricing_plan_id":"free"},{"bike_id":"6db752a3-83cc-4bbc-bed0-309a3f1d542f","system_id":"levelo_inurba_marseille","lat":43.276771,"lon":5.388799,"is_reserved":false,"is_disabled":false,"rental_uris":{"android":"levelo://app?vid=6db752a3-83cc-4bbc-bed0-309a3f1d542f","ios":"levelo://app?vid=6db752a3-83cc-4bbc-bed0-309a3f1d542f"},"vehicle_type_id":"4","last_reported":1684091089,"current_range_meters":11600,"station_id":"ce4bhi12rcd13ifvqfo0","pricing_plan_id":"free"},{"bike_id":"15cc8a37-99b3-4707-8590-3d9c5ac6fca0","system_id":"levelo_inurba_marseille","lat":43.31085,"lon":5.42421,"is_reserved":false,"is_disabled":false,"rental_uris":{"android":"levelo://app?vid=15cc8a37-99b3-4707-8590-3d9c5ac6fca0","ios":"levelo://app?vid=15cc8a37-99b3-4707-8590-3d9c5ac6fca0"},"vehicle_type_id":"4","last_reported":1684091089,"current_range_meters":16400,"station_id":"ce4bhp92rcd13ifvqhag","pricing_plan_id":"free"},{"bike_id":"a85cb362-6412-42e7-91c0-634cff2c0a9c","system_id":"levelo_inurba_marseille","lat":43.30426,"lon":5.42363,"is_reserved":false,"is_disabled":false,"rental_uris":{"android":"levelo://app?vid=a85cb362-6412-42e7-91c0-634cff2c0a9c","ios":"levelo://app?vid=a85cb362-6412-42e7-91c0-634cff2c0a9c"},"vehicle_type_id":"4","last_reported":1684091089,"current_range_meters":4000,"station_id":"","pricing_plan_id":"free"},{"bike_id":"5fb5dfad-0f6f-40db-8736-bb71a8d228a8","system_id":"levelo_inurba_marseille","lat":43.274103,"lon":5.394016,"is_reserved":false,"is_disabled":false,"rental_uris":{"android":"levelo://app?vid=5fb5dfad-0f6f-40db-8736-bb71a8d228a8","ios":"levelo://app?vid=5fb5dfad-0f6f-40db-8736-bb71a8d228a8"},"vehicle_type_id":"4","last_reported":1684091089,"current_range_meters":8400,"station_id":"ce4bhdp2rcd13ifvqf20","pricing_plan_id":"free"},{"bike_id":"1be88be1-3252-42b1-bb33-b698ccd72cf7","system_id":"levelo_inurba_marseille","lat":43.274103,"lon":5.394016,"is_reserved":false,"is_disabled":false,"rental_uris":{"android":"levelo://app?vid=1be88be1-3252-42b1-bb33-b698ccd72cf7","ios":"levelo://app?vid=1be88be1-3252-42b1-bb33-b698ccd72cf7"},"vehicle_type_id":"4","last_reported":1684091089,"current_range_meters":1200,"station_id":"ce4bhdp2rcd13ifvqf20","pricing_plan_id":"free"},{"bike_id":"dd425f03-9cc1-495a-ad67-c5feffa8aa05","system_id":"levelo_inurba_marseille","lat":43.2732,"lon":5.39078,"is_reserved":false,"is_disabled":false,"rental_uris":{"android":"levelo://app?vid=dd425f03-9cc1-495a-ad67-c5feffa8aa05","ios":"levelo://app?vid=dd425f03-9cc1-495a-ad67-c5feffa8aa05"},"vehicle_type_id":"4","last_reported":1684091089,"current_range_meters":13200,"station_id":"ce4bhgp2rcd13ifvqfe0","pricing_plan_id":"free"},{"bike_id":"3de7750a-5021-4c80-a4d9-f61cd2cdbe7b","system_id":"levelo_inurba_marseille","lat":43.27324,"lon":5.39092,"is_reserved":false,"is_disabled":false,"rental_uris":{"android":"levelo://app?vid=3de7750a-5021-4c80-a4d9-f61cd2cdbe7b","ios":"levelo://app?vid=3de7750a-5021-4c80-a4d9-f61cd2cdbe7b"},"vehicle_type_id":"4","last_reported":1684091089,"current_range_meters":14000,"station_id":"","pricing_plan_id":"free"},{"bike_id":"f6da234b-1630-4e3b-9283-805d15b436df","system_id":"levelo_inurba_marseille","lat":43.27323,"lon":5.3909,"is_reserved":false,"is_disabled":false,"rental_uris":{"android":"levelo://app?vid=f6da234b-1630-4e3b-9283-805d15b436df","ios":"levelo://app?vid=f6da234b-1630-4e3b-9283-805d15b436df"},"vehicle_type_id":"4","last_reported":1684091089,"current_range_meters":0,"station_id":"ce4bhgp2rcd13ifvqfe0","pricing_plan_id":"free"},{"bike_id":"e1b2c6d9-5a13-4c8b-8fbc-3beebda85a42","system_id":"levelo_inurba_marseille","lat":43.27321,"lon":5.39087,"is_reserved":false,"is_disabled":false,"rental_uris":{"android":"levelo://app?vid=e1b2c6d9-5a13-4c8b-8fbc-3beebda85a42","ios":"levelo://app?vid=e1b2c6d9-5a13-4c8b-8fbc-3beebda85a42"},"vehicle_type_id":"4","last_reported":1684091089,"current_range_meters":28800,"station_id":"ce4bhgp2rcd13ifvqfe0","pricing_plan_id":"free"},{"bike_id":"6eaf62ef-17d6-4363-8296-0107ffb7022e","system_id":"levelo_inurba_marseille","lat":43.27317,"lon":5.39077,"is_reserved":false,"is_disabled":false,"rental_uris":{"android":"levelo://app?vid=6eaf62ef-17d6-4363-8296-0107ffb7022e","ios":"levelo://app?vid=6eaf62ef-17d6-4363-8296-0107ffb7022e"},"vehicle_type_id":"4","last_reported":1684091089,"current_range_meters":6000,"station_id":"ce4bhgp2rcd13ifvqfe0","pricing_plan_id":"free"},{"bike_id":"99b7c761-5193-4627-94d9-6d51f6c7278a","system_id":"levelo_inurba_marseille","lat":43.27435,"lon":5.39418,"is_reserved":false,"is_disabled":false,"rental_uris":{"android":"levelo://app?vid=99b7c761-5193-4627-94d9-6d51f6c7278a","ios":"levelo://app?vid=99b7c761-5193-4627-94d9-6d51f6c7278a"},"vehicle_type_id":"4","last_reported":1684091089,"current_range_meters":8800,"station_id":"","pricing_plan_id":"free"},{"bike_id":"33765b4e-c42d-4946-90d0-ef7b8e3082c3","system_id":"levelo_inurba_marseille","lat":43.273125,"lon":5.390731,"is_reserved":false,"is_disabled":false,"rental_uris":{"android":"levelo://app?vid=33765b4e-c42d-4946-90d0-ef7b8e3082c3","ios":"levelo://app?vid=33765b4e-c42d-4946-90d0-ef7b8e3082c3"},"vehicle_type_id":"4","last_reported":1684091089,"current_range_meters":8800,"station_id":"ce4bhgp2rcd13ifvqfe0","pricing_plan_id":"free"},{"bike_id":"f4c1a557-3055-42de-bb48-531c2eb9113e","system_id":"levelo_inurba_marseille","lat":43.274103,"lon":5.394016,"is_reserved":false,"is_disabled":false,"rental_uris":{"android":"levelo://app?vid=f4c1a557-3055-42de-bb48-531c2eb9113e","ios":"levelo://app?vid=f4c1a557-3055-42de-bb48-531c2eb9113e"},"vehicle_type_id":"4","last_reported":1684091089,"current_range_meters":16800,"station_id":"ce4bhdp2rcd13ifvqf20","pricing_plan_id":"free"},{"bike_id":"e55542a3-e81b-43e1-b644-da8b40d96e2a","system_id":"levelo_inurba_marseille","lat":43.273125,"lon":5.390731,"is_reserved":false,"is_disabled":false,"rental_uris":{"android":"levelo://app?vid=e55542a3-e81b-43e1-b644-da8b40d96e2a","ios":"levelo://app?vid=e55542a3-e81b-43e1-b644-da8b40d96e2a"},"vehicle_type_id":"4","last_reported":1684091089,"current_range_meters":4000,"station_id":"ce4bhgp2rcd13ifvqfe0","pricing_plan_id":"free"},{"bike_id":"e86afe0d-f164-4a8b-a221-9980fcdf493b","system_id":"levelo_inurba_marseille","lat":43.2732,"lon":5.39094,"is_reserved":false,"is_disabled":false,"rental_uris":{"android":"levelo://app?vid=e86afe0d-f164-4a8b-a221-9980fcdf493b","ios":"levelo://app?vid=e86afe0d-f164-4a8b-a221-9980fcdf493b"},"vehicle_type_id":"4","last_reported":1684091089,"current_range_meters":400,"station_id":"","pricing_plan_id":"free"},{"bike_id":"291e89e4-2744-4018-8ffc-46473f05beaa","system_id":"levelo_inurba_marseille","lat":43.273125,"lon":5.390731,"is_reserved":false,"is_disabled":false,"rental_uris":{"android":"levelo://app?vid=291e89e4-2744-4018-8ffc-46473f05beaa","ios":"levelo://app?vid=291e89e4-2744-4018-8ffc-46473f05beaa"},"vehicle_type_id":"4","last_reported":1684091089,"current_range_meters":17200,"station_id":"ce4bhgp2rcd13ifvqfe0","pricing_plan_id":"free"},{"bike_id":"3c4c977b-6bea-4010-b545-fd85ae8f2359","system_id":"levelo_inurba_marseille","lat":43.27316,"lon":5.39088,"is_reserved":false,"is_disabled":false,"rental_uris":{"android":"levelo://app?vid=3c4c977b-6bea-4010-b545-fd85ae8f2359","ios":"levelo://app?vid=3c4c977b-6bea-4010-b545-fd85ae8f2359"},"vehicle_type_id":"4","last_reported":1684091089,"current_range_meters":12800,"station_id":"ce4bhgp2rcd13ifvqfe0","pricing_plan_id":"free"},{"bike_id":"77bf6657-a7a2-4fb6-8772-ca6786269e98","system_id":"levelo_inurba_marseille","lat":43.2731,"lon":5.39073,"is_reserved":false,"is_disabled":false,"rental_uris":{"android":"levelo://app?vid=77bf6657-a7a2-4fb6-8772-ca6786269e98","ios":"levelo://app?vid=77bf6657-a7a2-4fb6-8772-ca6786269e98"},"vehicle_type_id":"4","last_reported":1684091089,"current_range_meters":8400,"station_id":"ce4bhgp2rcd13ifvqfe0","pricing_plan_id":"free"},{"bike_id":"b0983eb8-89d3-41e1-95b4-588f5e20a429","system_id":"levelo_inurba_marseille","lat":43.273125,"lon":5.390731,"is_reserved":false,"is_disabled":false,"rental_uris":{"android":"levelo://app?vid=b0983eb8-89d3-41e1-95b4-588f5e20a429","ios":"levelo://app?vid=b0983eb8-89d3-41e1-95b4-588f5e20a429"},"vehicle_type_id":"4","last_reported":1684091089,"current_range_meters":14400,"station_id":"ce4bhgp2rcd13ifvqfe0","pricing_plan_id":"free"},{"bike_id":"43e268be-df86-44c4-9765-de93f03e0c0c","system_id":"levelo_inurba_marseille","lat":43.274103,"lon":5.394016,"is_reserved":false,"is_disabled":false,"rental_uris":{"android":"levelo://app?vid=43e268be-df86-44c4-9765-de93f03e0c0c","ios":"levelo://app?vid=43e268be-df86-44c4-9765-de93f03e0c0c"},"vehicle_type_id":"4","last_reported":1684091089,"current_range_meters":6000,"station_id":"ce4bhdp2rcd13ifvqf20","pricing_plan_id":"free"},{"bike_id":"ca8878f4-cd4d-49c7-a2a1-4356bf3b83cb","system_id":"levelo_inurba_marseille","lat":43.273125,"lon":5.390731,"is_reserved":false,"is_disabled":false,"rental_uris":{"android":"levelo://app?vid=ca8878f4-cd4d-49c7-a2a1-4356bf3b83cb","ios":"levelo://app?vid=ca8878f4-cd4d-49c7-a2a1-4356bf3b83cb"},"vehicle_type_id":"4","last_reported":1684091089,"current_range_meters":24000,"station_id":"ce4bhgp2rcd13ifvqfe0","pricing_plan_id":"free"},{"bike_id":"fd5f633d-dfa8-409e-9a1c-ad23ddb47b36","system_id":"levelo_inurba_marseille","lat":43.274103,"lon":5.394016,"is_reserved":false,"is_disabled":false,"rental_uris":{"android":"levelo://app?vid=fd5f633d-dfa8-409e-9a1c-ad23ddb47b36","ios":"levelo://app?vid=fd5f633d-dfa8-409e-9a1c-ad23ddb47b36"},"vehicle_type_id":"4","last_reported":1684091089,"current_range_meters":16000,"station_id":"ce4bhdp2rcd13ifvqf20","pricing_plan_id":"free"},{"bike_id":"d453c587-b05a-416e-8f4b-8a1788fc2fb3","system_id":"levelo_inurba_marseille","lat":43.274103,"lon":5.394016,"is_reserved":false,"is_disabled":false,"rental_uris":{"android":"levelo://app?vid=d453c587-b05a-416e-8f4b-8a1788fc2fb3","ios":"levelo://app?vid=d453c587-b05a-416e-8f4b-8a1788fc2fb3"},"vehicle_type_id":"4","last_reported":1684091089,"current_range_meters":16000,"station_id":"ce4bhdp2rcd13ifvqf20","pricing_plan_id":"free"},{"bike_id":"074f4584-8cc3-4b31-8ed3-27c59b3c5ec7","system_id":"levelo_inurba_marseille","lat":43.273125,"lon":5.390731,"is_reserved":false,"is_disabled":false,"rental_uris":{"android":"levelo://app?vid=074f4584-8cc3-4b31-8ed3-27c59b3c5ec7","ios":"levelo://app?vid=074f4584-8cc3-4b31-8ed3-27c59b3c5ec7"},"vehicle_type_id":"4","last_reported":1684091089,"current_range_meters":0,"station_id":"ce4bhgp2rcd13ifvqfe0","pricing_plan_id":"free"},{"bike_id":"1a17f17b-bd88-4e2a-a857-fe706c3f607e","system_id":"levelo_inurba_marseille","lat":43.2731,"lon":5.39086,"is_reserved":false,"is_disabled":false,"rental_uris":{"android":"levelo://app?vid=1a17f17b-bd88-4e2a-a857-fe706c3f607e","ios":"levelo://app?vid=1a17f17b-bd88-4e2a-a857-fe706c3f607e"},"vehicle_type_id":"4","last_reported":1684091089,"current_range_meters":5600,"station_id":"ce4bhgp2rcd13ifvqfe0","pricing_plan_id":"free"},{"bike_id":"b493fe21-abf4-4688-a9a2-530c5dc33366","system_id":"levelo_inurba_marseille","lat":43.27422,"lon":5.39418,"is_reserved":false,"is_disabled":false,"rental_uris":{"android":"levelo://app?vid=b493fe21-abf4-4688-a9a2-530c5dc33366","ios":"levelo://app?vid=b493fe21-abf4-4688-a9a2-530c5dc33366"},"vehicle_type_id":"4","last_reported":1684091089,"current_range_meters":23600,"station_id":"ce4bhdp2rcd13ifvqf20","pricing_plan_id":"free"},{"bike_id":"470b3710-e97f-4bb0-815f-0397112bc818","system_id":"levelo_inurba_marseille","lat":43.27302,"lon":5.39071,"is_reserved":false,"is_disabled":false,"rental_uris":{"android":"levelo://app?vid=470b3710-e97f-4bb0-815f-0397112bc818","ios":"levelo://app?vid=470b3710-e97f-4bb0-815f-0397112bc818"},"vehicle_type_id":"4","last_reported":1684091089,"current_range_meters":800,"station_id":"ce4bhgp2rcd13ifvqfe0","pricing_plan_id":"free"},{"bike_id":"93ff7f8f-db49-4bf3-8ba4-abdf56b4cdb4","system_id":"levelo_inurba_marseille","lat":43.273125,"lon":5.390731,"is_reserved":false,"is_disabled":false,"rental_uris":{"android":"levelo://app?vid=93ff7f8f-db49-4bf3-8ba4-abdf56b4cdb4","ios":"levelo://app?vid=93ff7f8f-db49-4bf3-8ba4-abdf56b4cdb4"},"vehicle_type_id":"4","last_reported":1684091089,"current_range_meters":800,"station_id":"ce4bhgp2rcd13ifvqfe0","pricing_plan_id":"free"},{"bike_id":"35bd53c8-6e49-4eb7-96ae-835b92f8934c","system_id":"levelo_inurba_marseille","lat":43.295523,"lon":5.422926,"is_reserved":false,"is_disabled":false,"rental_uris":{"android":"levelo://app?vid=35bd53c8-6e49-4eb7-96ae-835b92f8934c","ios":"levelo://app?vid=35bd53c8-6e49-4eb7-96ae-835b92f8934c"},"vehicle_type_id":"4","last_reported":1684091089,"current_range_meters":4000,"station_id":"ce4bhph2rcd13ifvqhdg","pricing_plan_id":"free"},{"bike_id":"ccb1f8c5-efd3-4b24-961c-66c05f2a143d","system_id":"levelo_inurba_marseille","lat":43.29555,"lon":5.42297,"is_reserved":false,"is_disabled":false,"rental_uris":{"android":"levelo://app?vid=ccb1f8c5-efd3-4b24-961c-66c05f2a143d","ios":"levelo://app?vid=ccb1f8c5-efd3-4b24-961c-66c05f2a143d"},"vehicle_type_id":"4","last_reported":1684091089,"current_range_meters":16800,"station_id":"ce4bhph2rcd13ifvqhdg","pricing_plan_id":"free"},{"bike_id":"7ed7f674-774f-4d56-8a35-819784261cce","system_id":"levelo_inurba_marseille","lat":43.272124,"lon":5.391768,"is_reserved":false,"is_disabled":false,"rental_uris":{"android":"levelo://app?vid=7ed7f674-774f-4d56-8a35-819784261cce","ios":"levelo://app?vid=7ed7f674-774f-4d56-8a35-819784261cce"},"vehicle_type_id":"4","last_reported":1684091089,"current_range_meters":18000,"station_id":"ce4bhhp2rcd13ifvqfm0","pricing_plan_id":"free"},{"bike_id":"ad59cf50-f0bf-429f-86a4-fd0d10476464","system_id":"levelo_inurba_marseille","lat":43.272118,"lon":5.391758,"is_reserved":false,"is_disabled":false,"rental_uris":{"android":"levelo://app?vid=ad59cf50-f0bf-429f-86a4-fd0d10476464","ios":"levelo://app?vid=ad59cf50-f0bf-429f-86a4-fd0d10476464"},"vehicle_type_id":"4","last_reported":1684091089,"current_range_meters":16000,"station_id":"ce4bhhp2rcd13ifvqfm0","pricing_plan_id":"free"},{"bike_id":"c03314a5-0aad-4179-811e-a88601807ece","system_id":"levelo_inurba_marseille","lat":43.272124,"lon":5.391768,"is_reserved":false,"is_disabled":false,"rental_uris":{"android":"levelo://app?vid=c03314a5-0aad-4179-811e-a88601807ece","ios":"levelo://app?vid=c03314a5-0aad-4179-811e-a88601807ece"},"vehicle_type_id":"4","last_reported":1684091089,"current_range_meters":28000,"station_id":"ce4bhhp2rcd13ifvqfm0","pricing_plan_id":"free"},{"bike_id":"cafec897-7efc-4233-b0b8-652b5fa7ec50","system_id":"levelo_inurba_marseille","lat":43.272124,"lon":5.391768,"is_reserved":false,"is_disabled":false,"rental_uris":{"android":"levelo://app?vid=cafec897-7efc-4233-b0b8-652b5fa7ec50","ios":"levelo://app?vid=cafec897-7efc-4233-b0b8-652b5fa7ec50"},"vehicle_type_id":"4","last_reported":1684091089,"current_range_meters":1200,"station_id":"ce4bhhp2rcd13ifvqfm0","pricing_plan_id":"free"},{"bike_id":"103d50be-55a4-4d42-b9d3-522c9f0df8f5","system_id":"levelo_inurba_marseille","lat":43.272124,"lon":5.391768,"is_reserved":false,"is_disabled":false,"rental_uris":{"android":"levelo://app?vid=103d50be-55a4-4d42-b9d3-522c9f0df8f5","ios":"levelo://app?vid=103d50be-55a4-4d42-b9d3-522c9f0df8f5"},"vehicle_type_id":"4","last_reported":1684091089,"current_range_meters":14800,"station_id":"ce4bhhp2rcd13ifvqfm0","pricing_plan_id":"free"},{"bike_id":"044ea95c-2638-4ab2-954c-6d68ecdbcfdf","system_id":"levelo_inurba_marseille","lat":43.272118,"lon":5.391758,"is_reserved":false,"is_disabled":false,"rental_uris":{"android":"levelo://app?vid=044ea95c-2638-4ab2-954c-6d68ecdbcfdf","ios":"levelo://app?vid=044ea95c-2638-4ab2-954c-6d68ecdbcfdf"},"vehicle_type_id":"4","last_reported":1684091089,"current_range_meters":4400,"station_id":"ce4bhhp2rcd13ifvqfm0","pricing_plan_id":"free"},{"bike_id":"ad8b7305-a640-4af2-92f0-2cbadcb7ab24","system_id":"levelo_inurba_marseille","lat":43.272124,"lon":5.391768,"is_reserved":false,"is_disabled":false,"rental_uris":{"android":"levelo://app?vid=ad8b7305-a640-4af2-92f0-2cbadcb7ab24","ios":"levelo://app?vid=ad8b7305-a640-4af2-92f0-2cbadcb7ab24"},"vehicle_type_id":"4","last_reported":1684091089,"current_range_meters":22000,"station_id":"ce4bhhp2rcd13ifvqfm0","pricing_plan_id":"free"},{"bike_id":"c08a1ad6-848b-4686-bbab-01d5dbcb9d5c","system_id":"levelo_inurba_marseille","lat":43.272118,"lon":5.391758,"is_reserved":false,"is_disabled":false,"rental_uris":{"android":"levelo://app?vid=c08a1ad6-848b-4686-bbab-01d5dbcb9d5c","ios":"levelo://app?vid=c08a1ad6-848b-4686-bbab-01d5dbcb9d5c"},"vehicle_type_id":"4","last_reported":1684091089,"current_range_meters":22000,"station_id":"ce4bhhp2rcd13ifvqfm0","pricing_plan_id":"free"},