{"last_updated":1740651033,"ttl":60,"version":"2.2","data":{"bikes":[{"bike_id":"32d39ccd-0c40-4cda-a0e5-98cc976b3566","system_id":"levelo_inurba_marseille","lat":43.23702,"lon":5.43588,"is_reserved":false,"is_disabled":true,"rental_uris":{"android":"levelo://app?vid=32d39ccd-0c40-4cda-a0e5-98cc976b3566","ios":"levelo://app?vid=32d39ccd-0c40-4cda-a0e5-98cc976b3566"},"vehicle_type_id":"4","last_reported":1740651033,"current_range_meters":0,"station_id":"","pricing_plan_id":"cebpf4jnsgd1na2vs0mg"},{"bike_id":"40f3a285-da65-4dc5-9f3a-06adac9623f4","system_id":"levelo_inurba_marseille","lat":43.27735,"lon":5.38852,"is_reserved":false,"is_disabled":true,"rental_uris":{"android":"levelo://app?vid=40f3a285-da65-4dc5-9f3a-06adac9623f4","ios":"levelo://app?vid=40f3a285-da65-4dc5-9f3a-06adac9623f4"},"vehicle_type_id":"4","last_reported":1740651033,"current_range_meters":0,"station_id":"","pricing_plan_id":"cebpf4jnsgd1na2vs0mg"},{"bike_id":"5972d90a-efaf-4be2-8fd6-b9d393acbfb2","system_id":"levelo_inurba_marseille","lat":43.26804,"lon":5.40265,"is_reserved":false,"is_disabled":true,"rental_uris":{"android":"levelo://app?vid=5972d90a-efaf-4be2-8fd6-b9d393acbfb2","ios":"levelo://app?vid=5972d90a-efaf-4be2-8fd6-b9d393acbfb2"},"vehicle_type_id":"4","last_reported":1740651033,"current_range_meters":0,"station_id":"","pricing_plan_id":"cebpf4jnsgd1na2vs0mg"},{"bike_id":"6d99bc09-c99a-4a9b-99f9-820af25155d9","system_id":"levelo_inurba_marseille","lat":43.31574,"lon":5.37412,"is_reserved":false,"is_disabled":true,"rental_uris":{"android":"levelo://app?vid=6d99bc09-c99a-4a9b-99f9-820af25155d9","ios":"levelo://app?vid=6d99bc09-c99a-4a9b-99f9-820af25155d9"},"vehicle_type_id":"4","last_reported":1740651033,"current_range_meters":0,"station_id":"","pricing_plan_id":"cebpf4jnsgd1na2vs0mg"},{"bike_id":"50329c24-1d30-48ef-9de5-0e66d5b5d36a","system_id":"levelo_inurba_marseille","lat":43.30955,"lon":5.39049,"is_reserved":false,"is_disabled":true,"rental_uris":{"android":"levelo://app?vid=50329c24-1d30-48ef-9de5-0e66d5b5d36a","ios":"levelo://app?vid=50329c24-1d30-48ef-9de5-0e66d5b5d36a"},"vehicle_type_id":"4","last_reported":1740651033,"current_range_meters":0,"station_id":"ce4bgup2rcd13ifvqco0","pricing_plan_id":"cebpf4jnsgd1na2vs0mg"},{"bike_id":"df5d3e3c-35cf-497c-abe4-7a16a380dc6b","system_id":"levelo_inurba_marseille","lat":43.30125,"lon":5.39831,"is_reserved":false,"is_disabled":true,"rental_uris":{"android":"levelo://app?vid=df5d3e3c-35cf-497c-abe4-7a16a380dc6b","ios":"levelo://app?vid=df5d3e3c-35cf-497c-abe4-7a16a380dc6b"},"vehicle_type_id":"4","last_reported":1740651033,"current_range_meters":0,"station_id":"ce4bh0h2rcd13ifvqd40","pricing_plan_id":"cebpf4jnsgd1na2vs0mg"},{"bike_id":"7ea78854-58e6-4e34-95c6-917c26650e16","system_id":"levelo_inurba_marseille","lat":43.29051,"lon":5.39958,"is_reserved":false,"is_disabled":true,"rental_uris":{"android":"levelo://app?vid=7ea78854-58e6-4e34-95c6-917c26650e16","ios":"levelo://app?vid=7ea78854-58e6-4e34-95c6-917c26650e16"},"vehicle_type_id":"4","last_reported":1740651033,"current_range_meters":0,"station_id":"ce4bh392rcd13ifvqdm0","pricing_plan_id":"cebpf4jnsgd1na2vs0mg"},{"bike_id":"494b3966-010c-425c-89de-02e3250de455","system_id":"levelo_inurba_marseille","lat":43.28468,"lon":5.38427,"is_reserved":false,"is_disabled":true,"rental_uris":{"android":"levelo://app?vid=494b3966-010c-425c-89de-02e3250de455","ios":"levelo://app?vid=494b3966-010c-425c-89de-02e3250de455"},"vehicle_type_id":"4","last_reported":1740651033,"current_range_meters":0,"station_id":"ce4bh512rcd13ifvqe3g","pricing_plan_id":"cebpf4jnsgd1na2vs0mg"},{"bike_id":"30e5ce5b-0c5b-47a5-99e0-3c4fa74c52d4","system_id":"levelo_inurba_marseille","lat":43.28255,"lon":5.35075,"is_reserved":false,"is_disabled":true,"rental_uris":{"android":"levelo://app?vid=30e5ce5b-0c5b-47a5-99e0-3c4fa74c52d4","ios":"levelo://app?vid=30e5ce5b-0c5b-47a5-99e0-3c4fa74c52d4"},"vehicle_type_id":"4","last_reported":1740651033,"current_range_meters":0,"station_id":"ce4bhbp2rcd13ifvqerg","pricing_plan_id":"cebpf4jnsgd1na2vs0mg"},{"bike_id":"c8ba7f6b-1100-42fa-ade1-cfee26d7d0e5","system_id":"levelo_inurba_marseille","lat":43.28629,"lon":5.35101,"is_reserved":false,"is_disabled":true,"rental_uris":{"android":"levelo://app?vid=c8ba7f6b-1100-42fa-ade1-cfee26d7d0e5","ios":"levelo://app?vid=c8ba7f6b-1100-42fa-ade1-cfee26d7d0e5"},"vehicle_type_id":"4","last_reported":1740651033,"current_range_meters":0,"station_id":"ce4bhch2rcd13ifvqeug","pricing_plan_id":"cebpf4jnsgd1na2vs0mg"},{"bike_id":"442e2452-c880-40be-ba16-2c28d16331dd","system_id":"levelo_inurba_marseille","lat":43.26548,"lon":5.3902,"is_reserved":false,"is_disabled":true,"rental_uris":{"android":"levelo://app?vid=442e2452-c880-40be-ba16-2c28d16331dd","ios":"levelo://app?vid=442e2452-c880-40be-ba16-2c28d16331dd"},"vehicle_type_id":"4","last_reported":1740651033,"current_range_meters":0,"station_id":"ce4bhe12rcd13ifvqf30","pricing_plan_id":"cebpf4jnsgd1na2vs0mg"},{"bike_id":"a7b78cf4-c982-4195-80d7-fb5cb50ad464","system_id":"levelo_inurba_marseille","lat":43.25578,"lon":5.3823,"is_reserved":false,"is_disabled":true,"rental_uris":{"android":"levelo://app?vid=a7b78cf4-c982-4195-80d7-fb5cb50ad464","ios":"levelo://app?vid=a7b78cf4-c982-4195-80d7-fb5cb50ad464"},"vehicle_type_id":"4","last_reported":1740651033,"current_range_meters":0,"station_id":"ce4bhih2rcd13ifvqfs0","pricing_plan_id":"cebpf4jnsgd1na2vs0mg"},{"bike_id":"86c66cf5-d8f7-4eb8-91dd-eb60a0f17821","system_id":"levelo_inurba_marseille","lat":43.27185,"lon":5.40995,"is_reserved":false,"is_disabled":true,"rental_uris":{"android":"levelo://app?vid=86c66cf5-d8f7-4eb8-91dd-eb60a0f17821","ios":"levelo://app?vid=86c66cf5-d8f7-4eb8-91dd-eb60a0f17821"},"vehicle_type_id":"4","last_reported":1740651033,"current_range_meters":0,"station_id":"ce4bhl12rcd13ifvqgf0","pricing_plan_id":"cebpf4jnsgd1na2vs0mg"},{"bike_id":"4254bdbf-255e-4469-9303-9390a8bf7d03","system_id":"levelo_inurba_marseille","lat":43.31715,"lon":5.43709,"is_reserved":false,"is_disabled":true,"rental_uris":{"android":"levelo://app?vid=4254bdbf-255e-4469-9303-9390a8bf7d03","ios":"levelo://app?vid=4254bdbf-255e-4469-9303-9390a8bf7d03"},"vehicle_type_id":"4","last_reported":1740651033,"current_range_meters":0,"station_id":"ce4bhp92rcd13ifvqhcg","pricing_plan_id":"cebpf4jnsgd1na2vs0mg"},{"bike_id":"7aa21f11-8eb7-443d-8ab3-65620f929cca","system_id":"levelo_inurba_marseille","lat":43.32545,"lon":5.4144,"is_reserved":false,"is_disabled":true,"rental_uris":{"android":"levelo://app?vid=7aa21f11-8eb7-443d-8ab3-65620f929cca","ios":"levelo://app?vid=7aa21f11-8eb7-443d-8ab3-65620f929cca"},"vehicle_type_id":"4","last_reported":1740651033,"current_range_meters":0,"station_id":"ce4bhq12rcd13ifvqhhg","pricing_plan_id":"cebpf4jnsgd1na2vs0mg"},{"bike_id":"1bb2b995-c436-4883-823b-2dc724e52789","system_id":"levelo_inurba_marseille","lat":43.32339,"lon":5.38817,"is_reserved":false,"is_disabled":true,"rental_uris":{"android":"levelo://app?vid=1bb2b995-c436-4883-823b-2dc724e52789","ios":"levelo://app?vid=1bb2b995-c436-4883-823b-2dc724e52789"},"vehicle_type_id":"4","last_reported":1740651033,"current_range_meters":0,"station_id":"ce4bhqp2rcd13ifvqhog","pricing_plan_id":"cebpf4jnsgd1na2vs0mg"},{"bike_id":"175de60d-62b4-4cbb-9c1f-5fa02d8959dd","system_id":"levelo_inurba_marseille","lat":43.29598,"lon":5.38092,"is_reserved":false,"is_disabled":false,"rental_uris":{"android":"levelo://app?vid=175de60d-62b4-4cbb-9c1f-5fa02d8959dd","ios":"levelo://app?vid=175de60d-62b4-4cbb-9c1f-5fa02d8959dd"},"vehicle_type_id":"4","last_reported":1740651033,"current_range_meters":400,"station_id":"ce4bgl12rcd13ifvqbo0","pricing_plan_id":"cebpf4jnsgd1na2vs0mg"},{"bike_id":"7a2a8f53-395f-4ff7-be6a-4e2126ae167b","system_id":"levelo_inurba_marseille","lat":43.29288,"lon":5.40136,"is_reserved":false,"is_disabled":false,"rental_uris":{"android":"levelo://app?vid=7a2a8f53-395f-4ff7-be6a-4e2126ae167b","ios":"levelo://app?vid=7a2a8f53-395f-4ff7-be6a-4e2126ae167b"},"vehicle_type_id":"4","last_reported":1740651033,"current_range_meters":400,"station_id":"ce4bh312rcd13ifvqdk0","pricing_plan_id":"cebpf4jnsgd1na2vs0mg"},{"bike_id":"c30ade0d-634d-49e8-88ac-43d31497427f","system_id":"levelo_inurba_marseille","lat":43.28848,"lon":5.35854,"is_reserved":false,"is_disabled":true,"rental_uris":{"android":"levelo://app?vid=c30ade0d-634d-49e8-88ac-43d31497427f","ios":"levelo://app?vid=c30ade0d-634d-49e8-88ac-43d31497427f"},"vehicle_type_id":"4","last_reported":1740651033,"current_range_meters":400,"station_id":"ce4bhb12rcd13ifvqem0","pricing_plan_id":"cebpf4jnsgd1na2vs0mg"},{"bike_id":"0b3823c1-d9ef-4ced-9b82-932188e5ed41","system_id":"levelo_inurba_marseille","lat":43.270621,"lon":5.402786,"is_reserved":false,"is_disabled":true,"rental_uris":{"android":"levelo://app?vid=0b3823c1-d9ef-4ced-9b82-932188e5ed41","ios":"levelo://app?vid=0b3823c1-d9ef-4ced-9b82-932188e5ed41"},"vehicle_type_id":"4","last_reported":1740651033,"current_range_meters":400,"station_id":"ce4bhk92rcd13ifvqgc0","pricing_plan_id":"cebpf4jnsgd1na2vs0mg"},{"bike_id":"5e97a04f-8513-4bd6-9741-0d7a392bf2c5","system_id":"levelo_inurba_marseille","lat":43.23161,"lon":5.43718,"is_reserved":false,"is_disabled":true,"rental_uris":{"android":"levelo://app?vid=5e97a04f-8513-4bd6-9741-0d7a392bf2c5","ios":"levelo://app?vid=5e97a04f-8513-4bd6-9741-0d7a392bf2c5"},"vehicle_type_id":"4","last_reported":1740651033,"current_range_meters":400,"station_id":"ce4bhmp2rcd13ifvqgog","pricing_plan_id":"cebpf4jnsgd1na2vs0mg"},{"bike_id":"4a6bae61-2449-403b-8562-45de46e827eb","system_id":"levelo_inurba_marseille","lat":43.2418,"lon":5.39726,"is_reserved":false,"is_disabled":true,"rental_uris":{"android":"levelo://app?vid=4a6bae61-2449-403b-8562-45de46e827eb","ios":"levelo://app?vid=4a6bae61-2449-403b-8562-45de46e827eb"},"vehicle_type_id":"4","last_reported":1740651033,"current_range_meters":400,"station_id":"ce4bhn12rcd13ifvqgpg","pricing_plan_id":"cebpf4jnsgd1na2vs0mg"},{"bike_id":"211f96a7-e687-4bf2-b368-1b0006a09d84","system_id":"levelo_inurba_marseille","lat":43.27498,"lon":5.42455,"is_reserved":false,"is_disabled":true,"rental_uris":{"android":"levelo://app?vid=211f96a7-e687-4bf2-b368-1b0006a09d84","ios":"levelo://app?vid=211f96a7-e687-4bf2-b368-1b0006a09d84"},"vehicle_type_id":"4","last_reported":1740651033,"current_range_meters":400,"station_id":"ce4bhn92rcd13ifvqgrg","pricing_plan_id":"cebpf4jnsgd1na2vs0mg"},{"bike_id":"d8fc8792-b845-4844-bef4-cd612659d248","system_id":"levelo_inurba_marseille","lat":43.30971,"lon":5.39035,"is_reserved":false,"is_disabled":true,"rental_uris":{"android":"levelo://app?vid=d8fc8792-b845-4844-bef4-cd612659d248","ios":"levelo://app?vid=d8fc8792-b845-4844-bef4-cd612659d248"},"vehicle_type_id":"4","last_reported":1740651033,"current_range_meters":800,"station_id":"ce4bgup2rcd13ifvqco0","pricing_plan_id":"cebpf4jnsgd1na2vs0mg"},{"bike_id":"c27409d7-b9a5-464e-9ad8-3a3d3e8d7742","system_id":"levelo_inurba_marseille","lat":43.28994,"lon":5.35607,"is_reserved":false,"is_disabled":true,"rental_uris":{"android":"levelo://app?vid=c27409d7-b9a5-464e-9ad8-3a3d3e8d7742","ios":"levelo://app?vid=c27409d7-b9a5-464e-9ad8-3a3d3e8d7742"},"vehicle_type_id":"4","last_reported":1740651033,"current_range_meters":800,"station_id":"ce4bhb92rcd13ifvqen0","pricing_plan_id":"cebpf4jnsgd1na2vs0mg"},{"bike_id":"2762f6a9-d1ca-40e0-835c-6af6419e40c1","system_id":"levelo_inurba_marseille","lat":43.273774,"lon":5.362499,"is_reserved":false,"is_disabled":true,"rental_uris":{"android":"levelo://app?vid=2762f6a9-d1ca-40e0-835c-6af6419e40c1","ios":"levelo://app?vid=2762f6a9-d1ca-40e0-835c-6af6419e40c1"},"vehicle_type_id":"4","last_reported":1740651033,"current_range_meters":800,"station_id":"ce4bhbh2rcd13ifvqeo0","pricing_plan_id":"cebpf4jnsgd1na2vs0mg"},{"bike_id":"3296f6c4-a746-4f45-abde-d25cadcc39f8","system_id":"levelo_inurba_marseille","lat":43.28622,"lon":5.35113,"is_reserved":false,"is_disabled":true,"rental_uris":{"android":"levelo://app?vid=3296f6c4-a746-4f45-abde-d25cadcc39f8","ios":"levelo://app?vid=3296f6c4-a746-4f45-abde-d25cadcc39f8"},"vehicle_type_id":"4","last_reported":1740651033,"current_range_meters":800,"station_id":"ce4bhch2rcd13ifvqeug","pricing_plan_id":"cebpf4jnsgd1na2vs0mg"},{"bike_id":"8f1a033e-a9d2-4cab-acc4-237cd33ca60f","system_id":"levelo_inurba_marseille","lat":43.24647,"lon":5.38889,"is_reserved":false,"is_disabled":true,"rental_uris":{"android":"levelo://app?vid=8f1a033e-a9d2-4cab-acc4-237cd33ca60f","ios":"levelo://app?vid=8f1a033e-a9d2-4cab-acc4-237cd33ca60f"},"vehicle_type_id":"4","last_reported":1740651033,"current_range_meters":800,"station_id":"ce4bhg12rcd13ifvqf60","pricing_plan_id":"cebpf4jnsgd1na2vs0mg"},{"bike_id":"f148c3b2-cfe9-4c68-8552-3232b05e0a13","system_id":"levelo_inurba_marseille","lat":43.26691,"lon":5.38278,"is_reserved":false,"is_disabled":false,"rental_uris":{"android":"levelo://app?vid=f148c3b2-cfe9-4c68-8552-3232b05e0a13","ios":"levelo://app?vid=f148c3b2-cfe9-4c68-8552-3232b05e0a13"},"vehicle_type_id":"4","last_reported":1740651033,"current_range_meters":800,"station_id":"ce4bhg92rcd13ifvqf90","pricing_plan_id":"cebpf4jnsgd1na2vs0mg"},{"bike_id":"63c0dedb-9f67-4d32-89ae-dd7951baf66d","system_id":"levelo_inurba_marseille","lat":43.27948,"lon":5.41043,"is_reserved":false,"is_disabled":true,"rental_uris":{"android":"levelo://app?vid=63c0dedb-9f67-4d32-89ae-dd7951baf66d","ios":"levelo://app?vid=63c0dedb-9f67-4d32-89ae-dd7951baf66d"},"vehicle_type_id":"4","last_reported":1740651033,"current_range_meters":800,"station_id":"ce4bhnp2rcd13ifvqh0g","pricing_plan_id":"cebpf4jnsgd1na2vs0mg"},{"bike_id":"e3ed74ba-8236-4d02-9903-031916667cf5","system_id":"levelo_inurba_marseille","lat":43.33745,"lon":5.37467,"is_reserved":false,"is_disabled":true,"rental_uris":{"android":"levelo://app?vid=e3ed74ba-8236-4d02-9903-031916667cf5","ios":"levelo://app?vid=e3ed74ba-8236-4d02-9903-031916667cf5"},"vehicle_type_id":"4","last_reported":1740651033,"current_range_meters":1200,"station_id":"","pricing_plan_id":"cebpf4jnsgd1na2vs0mg"},{"bike_id":"fd9f64d4-d06f-4df6-872f-b3450a0dc06c","system_id":"levelo_inurba_marseille","lat":43.30958,"lon":5.39039,"is_reserved":false,"is_disabled":true,"rental_uris":{"android":"levelo://app?vid=fd9f64d4-d06f-4df6-872f-b3450a0dc06c","ios":"levelo://app?vid=fd9f64d4-d06f-4df6-872f-b3450a0dc06c"},"vehicle_type_id":"4","last_reported":1740651033,"current_range_meters":1200,"station_id":"ce4bgup2rcd13ifvqco0","pricing_plan_id":"cebpf4jnsgd1na2vs0mg"},{"bike_id":"1d156d5b-f07f-46f7-871d-bb552a434fa0","system_id":"levelo_inurba_marseille","lat":43.28423,"lon":5.3753,"is_reserved":false,"is_disabled":true,"rental_uris":{"android":"levelo://app?vid=1d156d5b-f07f-46f7-871d-bb552a434fa0","ios":"levelo://app?vid=1d156d5b-f07f-46f7-871d-bb552a434fa0"},"vehicle_type_id":"4","last_reported":1740651033,"current_range_meters":1200,"station_id":"ce4bh412rcd13ifvqds0","pricing_plan_id":"cebpf4jnsgd1na2vs0mg"},{"bike_id":"325de076-8944-474f-a10f-6ac435691f0f","system_id":"levelo_inurba_marseille","lat":43.27961,"lon":5.3872,"is_reserved":false,"is_disabled":true,"rental_uris":{"android":"levelo://app?vid=325de076-8944-474f-a10f-6ac435691f0f","ios":"levelo://app?vid=325de076-8944-474f-a10f-6ac435691f0f"},"vehicle_type_id":"4","last_reported":1740651033,"current_range_meters":1200,"station_id":"ce4bhg12rcd13ifvqf80","pricing_plan_id":"cebpf4jnsgd1na2vs0mg"},{"bike_id":"4766fe8e-6114-4fe5-ac43-fd67bdb6548c","system_id":"levelo_inurba_marseille","lat":43.30954,"lon":5.39051,"is_reserved":false,"is_disabled":true,"rental_uris":{"android":"levelo://app?vid=4766fe8e-6114-4fe5-ac43-fd67bdb6548c","ios":"levelo://app?vid=4766fe8e-6114-4fe5-ac43-fd67bdb6548c"},"vehicle_type_id":"4","last_reported":1740651033,"current_range_meters":1600,"station_id":"ce4bgup2rcd13ifvqco0","pricing_plan_id":"cebpf4jnsgd1na2vs0mg"},{"bike_id":"8fc5825c-4528-4452-9009-27be708f6675","system_id":"levelo_inurba_marseille","lat":43.24088,"lon":5.37729,"is_reserved":false,"is_disabled":true,"rental_uris":{"android":"levelo://app?vid=8fc5825c-4528-4452-9009-27be708f6675","ios":"levelo://app?vid=8fc5825c-4528-4452-9009-27be708f6675"},"vehicle_type_id":"4","last_reported":1740651033,"current_range_meters":1600,"station_id":"ce4bhnp2rcd13ifvqgvg","pricing_plan_id":"cebpf4jnsgd1na2vs0mg"},{"bike_id":"b74f3b1a-922c-4535-a57a-990a90756f4f","system_id":"levelo_inurba_marseille","lat":43.24077,"lon":5.37756,"is_reserved":false,"is_disabled":true,"rental_uris":{"android":"levelo://app?vid=b74f3b1a-922c-4535-a57a-990a90756f4f","ios":"levelo://app?vid=b74f3b1a-922c-4535-a57a-990a90756f4f"},"vehicle_type_id":"4","last_reported":1740651033,"current_range_meters":1600,"station_id":"ce4bhnp2rcd13ifvqgvg","pricing_plan_id":"cebpf4jnsgd1na2vs0mg"},{"bike_id":"b0b3fa77-de5a-4325-b55a-3e79fb9389f2","system_id":"levelo_inurba_marseille","lat":43.29916,"lon":5.37488,"is_reserved":false,"is_disabled":true,"rental_uris":{"android":"levelo://app?vid=b0b3fa77-de5a-4325-b55a-3e79fb9389f2","ios":"levelo://app?vid=b0b3fa77-de5a-4325-b55a-3e79fb9389f2"},"vehicle_type_id":"4","last_reported":1740651033,"current_range_meters":2000,"station_id":"ce4bgjh2rcd13ifvqbg0","pricing_plan_id":"cebpf4jnsgd1na2vs0mg"},{"bike_id":"5a107e05-59a0-431a-b68a-7455a0f89103","system_id":"levelo_inurba_marseille","lat":43.29614,"lon":5.3811,"is_reserved":false,"is_disabled":true,"rental_uris":{"android":"levelo://app?vid=5a107e05-59a0-431a-b68a-7455a0f89103","ios":"levelo://app?vid=5a107e05-59a0-431a-b68a-7455a0f89103"},"vehicle_type_id":"4","last_reported":1740651033,"current_range_meters":2000,"station_id":"ce4bgl12rcd13ifvqbo0","pricing_plan_id":"cebpf4jnsgd1na2vs0mg"},{"bike_id":"d8a49f5f-9d04-4573-9d27-49eb4b0c7c03","system_id":"levelo_inurba_marseille","lat":43.30183,"lon":5.36623,"is_reserved":false,"is_disabled":false,"rental_uris":{"android":"levelo://app?vid=d8a49f5f-9d04-4573-9d27-49eb4b0c7c03","ios":"levelo://app?vid=d8a49f5f-9d04-4573-9d27-49eb4b0c7c03"},"vehicle_type_id":"4","last_reported":1740651033,"current_range_meters":2000,"station_id":"ce4bgrh2rcd13ifvqc8g","pricing_plan_id":"cebpf4jnsgd1na2vs0mg"},{"bike_id":"46b06359-a88a-40f1-841b-ec8ec404461e","system_id":"levelo_inurba_marseille","lat":43.28108,"lon":5.37841,"is_reserved":false,"is_disabled":true,"rental_uris":{"android":"levelo://app?vid=46b06359-a88a-40f1-841b-ec8ec404461e","ios":"levelo://app?vid=46b06359-a88a-40f1-841b-ec8ec404461e"},"vehicle_type_id":"4","last_reported":1740651033,"current_range_meters":2000,"station_id":"ce4bha12rcd13ifvqee0","pricing_plan_id":"cebpf4jnsgd1na2vs0mg"},{"bike_id":"77d72656-ec37-44f1-ab2b-c05ee9e3e3e9","system_id":"levelo_inurba_marseille","lat":43.29224,"lon":5.37592,"is_reserved":false,"is_disabled":false,"rental_uris":{"android":"levelo://app?vid=77d72656-ec37-44f1-ab2b-c05ee9e3e3e9","ios":"levelo://app?vid=77d72656-ec37-44f1-ab2b-c05ee9e3e3e9"},"vehicle_type_id":"4","last_reported":1740651033,"current_range_meters":2800,"station_id":"","pricing_plan_id":"cebpf4jnsgd1na2vs0mg"},{"bike_id":"5b07976e-dea8-4ab0-9dea-ebdb61ec3265","system_id":"levelo_inurba_marseille","lat":43.313657,"lon":5.36706,"is_reserved":false,"is_disabled":true,"rental_uris":{"android":"levelo://app?vid=5b07976e-dea8-4ab0-9dea-ebdb61ec3265","ios":"levelo://app?vid=5b07976e-dea8-4ab0-9dea-ebdb61ec3265"},"vehicle_type_id":"4","last_reported":1740651033,"current_range_meters":2800,"station_id":"ce4bgr92rcd13ifvqc6g","pricing_plan_id":"cebpf4jnsgd1na2vs0mg"},{"bike_id":"26f59472-0ab2-4e36-ba1c-28ed8253e740","system_id":"levelo_inurba_marseille","lat":43.27495,"lon":5.42461,"is_reserved":false,"is_disabled":false,"rental_uris":{"android":"levelo://app?vid=26f59472-0ab2-4e36-ba1c-28ed8253e740","ios":"levelo://app?vid=26f59472-0ab2-4e36-ba1c-28ed8253e740"},"vehicle_type_id":"4","last_reported":1740651033,"current_range_meters":2800,"station_id":"ce4bhn92rcd13ifvqgrg","pricing_plan_id":"cebpf4jnsgd1na2vs0mg"},{"bike_id":"f71ae6e7-c012-4c0a-88e1-9e49fb16c718","system_id":"levelo_inurba_marseille","lat":43.30948,"lon":5.39044,"is_reserved":false,"is_disabled":false,"rental_uris":{"android":"levelo://app?vid=f71ae6e7-c012-4c0a-88e1-9e49fb16c718","ios":"levelo://app?vid=f71ae6e7-c012-4c0a-88e1-9e49fb16c718"},"vehicle_type_id":"4","last_reported":1740651033,"current_range_meters":3200,"station_id":"ce4bgup2rcd13ifvqco0","pricing_plan_id":"cebpf4jnsgd1na2vs0mg"},{"bike_id":"d6f2517a-d7cb-4654-8976-90e0e6d3745a","system_id":"levelo_inurba_marseille","lat":43.30954,"lon":5.39038,"is_reserved":false,"is_disabled":false,"rental_uris":{"android":"levelo://app?vid=d6f2517a-d7cb-4654-8976-90e0e6d3745a","ios":"levelo://app?vid=d6f2517a-d7cb-4654-8976-90e0e6d3745a"},"vehicle_type_id":"4","last_reported":1740651033,"current_range_meters":3600,"station_id":"ce4bgup2rcd13ifvqco0","pricing_plan_id":"cebpf4jnsgd1na2vs0mg"},{"bike_id":"b5368874-e19e-4e33-8e44-b3ac25e43af6","system_id":"levelo_inurba_marseille","lat":43.31314,"lon":5.37082,"is_reserved":false,"is_disabled":false,"rental_uris":{"android":"levelo://app?vid=b5368874-e19e-4e33-8e44-b3ac25e43af6","ios":"levelo://app?vid=b5368874-e19e-4e33-8e44-b3ac25e43af6"},"vehicle_type_id":"4","last_reported":1740651033,"current_range_meters":4400,"station_id":"","pricing_plan_id":"cebpf4jnsgd1na2vs0mg"},{"bike_id":"6716aaf1-a76d-4e0e-b91e-81081563473f","system_id":"levelo_inurba_marseille","lat":43.3054,"lon":5.36712,"is_reserved":false,"is_disabled":false,"rental_uris":{"android":"levelo://app?vid=6716aaf1-a76d-4e0e-b91e-81081563473f","ios":"levelo://app?vid=6716aaf1-a76d-4e0e-b91e-81081563473f"},"vehicle_type_id":"4","last_reported":1740651033,"current_range_meters":4800,"station_id":"ce4bgrp2rcd13ifvqc9g","pricing_plan_id":"cebpf4jnsgd1na2vs0mg"},{"bike_id":"41572412-0232-4d0c-af43-e0fbc74ba0d0","system_id":"levelo_inurba_marseille","lat":43.28424,"lon":5.34991,"is_reserved":false,"is_disabled":false,"rental_uris":{"android":"levelo://app?vid=41572412-0232-4d0c-af43-e0fbc74ba0d0","ios":"levelo://app?vid=41572412-0232-4d0c-af43-e0fbc74ba0d0"},"vehicle_type_id":"4","last_reported":1740651033,"current_range_meters":4800,"station_id":"ce4bhbh2rcd13ifvqepg","pricing_plan_id":"cebpf4jnsgd1na2vs0mg"},{"bike_id":"bb03c98f-0d3d-4ab0-9cc9-d935bf751f15","system_id":"levelo_inurba_marseille","lat":43.24179,"lon":5.3972,"is_reserved":false,"is_disabled":false,"rental_uris":{"android":"levelo://app?vid=bb03c98f-0d3d-4ab0-9cc9-d935bf751f15","ios":"levelo://app?vid=bb03c98f-0d3d-4ab0-9cc9-d935bf751f15"},"vehicle_type_id":"4","last_reported":1740651033,"current_range_meters":4800,"station_id":"ce4bhn12rcd13ifvqgpg","pricing_plan_id":"cebpf4jnsgd1na2vs0mg"},{"bike_id":"9bcee6f1-37c8-45c0-b431-ca63d652b9e3","system_id":"levelo_inurba_marseille","lat":43.2792,"lon":5.39579,"is_reserved":false,"is_disabled":false,"rental_uris":{"android":"levelo://app?vid=9bcee6f1-37c8-45c0-b431-ca63d652b9e3","ios":"levelo://app?vid=9bcee6f1-37c8-45c0-b431-ca63d652b9e3"},"vehicle_type_id":"4","last_reported":1740651033,"current_range_meters":5600,"station_id":"ce4bhf92rcd13ifvqf40","pricing_plan_id":"cebpf4jnsgd1na2vs0mg"},{"bike_id":"7b3b15f1-b7d5-44f6-8334-dc7755c96791","system_id":"levelo_inurba_marseille","lat":43.24071,"lon":5.37763,"is_reserved":false,"is_disabled":false,"rental_uris":{"android":"levelo://app?vid=7b3b15f1-b7d5-44f6-8334-dc7755c96791","ios":"levelo://app?vid=7b3b15f1-b7d5-44f6-8334-dc7755c96791"},"vehicle_type_id":"4","last_reported":1740651033,"current_range_meters":5600,"station_id":"ce4bhnp2rcd13ifvqgvg","pricing_plan_id":"cebpf4jnsgd1na2vs0mg"},{"bike_id":"94b13c54-9848-4cb2-81c2-0eaa43ca712d","system_id":"levelo_inurba_marseille","lat":43.27057,"lon":5.40259,"is_reserved":false,"is_disabled":false,"rental_uris":{"android":"levelo://app?vid=94b13c54-9848-4cb2-81c2-0eaa43ca712d","ios":"levelo://app?vid=94b13c54-9848-4cb2-81c2-0eaa43ca712d"},"vehicle_type_id":"4","last_reported":1740651033,"current_range_meters":6000,"station_id":"ce4bhk92rcd13ifvqgc0","pricing_plan_id":"cebpf4jnsgd1na2vs0mg"},{"bike_id":"2e19e8e8-61b8-42af-b9ba-b13bde0dfd24","system_id":"levelo_inurba_marseille","lat":43.29929,"lon":5.37465,"is_reserved":false,"is_disabled":false,"rental_uris":{"android":"levelo://app?vid=2e19e8e8-61b8-42af-b9ba-b13bde0dfd24","ios":"levelo://app?vid=2e19e8e8-61b8-42af-b9ba-b13bde0dfd24"},"vehicle_type_id":"4","last_reported":1740651033,"current_range_meters":6400,"station_id":"ce4bgjh2rcd13ifvqbg0","pricing_plan_id":"cebpf4jnsgd1na2vs0mg"},{"bike_id":"c5956679-478b-4c1b-a2f7-711a191a5a8d","system_id":"levelo_inurba_marseille","lat":43.30153,"lon":5.37416,"is_reserved":false,"is_disabled":false,"rental_uris":{"android":"levelo://app?vid=c5956679-478b-4c1b-a2f7-711a191a5a8d","ios":"levelo://app?vid=c5956679-478b-4c1b-a2f7-711a191a5a8d"},"vehicle_type_id":"4","last_reported":1740651033,"current_range_meters":6400,"station_id":"ce4bgs92rcd13ifvqcc0","pricing_plan_id":"cebpf4jnsgd1na2vs0mg"},{"bike_id":"b9c71651-5089-439f-a919-20f5e0b6deb7","system_id":"levelo_inurba_marseille","lat":43.31327,"lon":5.39694,"is_reserved":false,"is_disabled":false,"rental_uris":{"android":"levelo://app?vid=b9c71651-5089-439f-a919-20f5e0b6deb7","ios":"levelo://app?vid=b9c71651-5089-439f-a919-20f5e0b6deb7"},"vehicle_type_id":"4","last_reported":1740651033,"current_range_meters":6400,"station_id":"ce4bgvp2rcd13ifvqcu0","pricing_plan_id":"cebpf4jnsgd1na2vs0mg"},{"bike_id":"a654f62d-5dda-487b-b68e-e1844a5b8ddb","system_id":"levelo_inurba_marseille","lat":43.275,"lon":5.42449,"is_reserved":false,"is_disabled":false,"rental_uris":{"android":"levelo://app?vid=a654f62d-5dda-487b-b68e-e1844a5b8ddb","ios":"levelo://app?vid=a654f62d-5dda-487b-b68e-e1844a5b8ddb"},"vehicle_type_id":"4","last_reported":1740651033,"current_range_meters":6400,"station_id":"ce4bhn92rcd13ifvqgrg","pricing_plan_id":"cebpf4jnsgd1na2vs0mg"},{"bike_id":"ef8030a9-2b00-44a4-812f-839167d66bb7","system_id":"levelo_inurba_marseille","lat":43.28147,"lon":5.42641,"is_reserved":false,"is_disabled":false,"rental_uris":{"android":"levelo://app?vid=ef8030a9-2b00-44a4-812f-839167d66bb7","ios":"levelo://app?vid=ef8030a9-2b00-44a4-812f-839167d66bb7"},"vehicle_type_id":"4","last_reported":1740651033,"current_range_meters":6400,"station_id":"ce4bhnh2rcd13ifvqgug","pricing_plan_id":"cebpf4jnsgd1na2vs0mg"},{"bike_id":"0dcc0352-3717-4f22-a65a-a320d0beaf65","system_id":"levelo_inurba_marseille","lat":43.26937,"lon":5.40257,"is_reserved":false,"is_disabled":false,"rental_uris":{"android":"levelo://app?vid=0dcc0352-3717-4f22-a65a-a320d0beaf65","ios":"levelo://app?vid=0dcc0352-3717-4f22-a65a-a320d0beaf65"},"vehicle_type_id":"4","last_reported":1740651033,"current_range_meters":6400,"station_id":"cjm6bp8fraef2m0cb0m0","pricing_plan_id":"cebpf4jnsgd1na2vs0mg"},{"bike_id":"af37e999-d607-4f50-9b23-ad42ceb9ad74","system_id":"levelo_inurba_marseille","lat":43.30903,"lon":5.36854,"is_reserved":false,"is_disabled":false,"rental_uris":{"android":"levelo://app?vid=af37e999-d607-4f50-9b23-ad42ceb9ad74","ios":"levelo://app?vid=af37e999-d607-4f50-9b23-ad42ceb9ad74"},"vehicle_type_id":"4","last_reported":1740651033,"current_range_meters":6800,"station_id":"ce4bgn92rcd13ifvqbvg","pricing_plan_id":"cebpf4jnsgd1na2vs0mg"},{"bike_id":"6b0733fd-1d0c-4775-9171-46783099114f","system_id":"levelo_inurba_marseille","lat":43.29886,"lon":5.39751,"is_reserved":false,"is_disabled":false,"rental_uris":{"android":"levelo://app?vid=6b0733fd-1d0c-4775-9171-46783099114f","ios":"levelo://app?vid=6b0733fd-1d0c-4775-9171-46783099114f"},"vehicle_type_id":"4","last_reported":1740651033,"current_range_meters":6800,"station_id":"ce4bh0h2rcd13ifvqd50","pricing_plan_id":"cebpf4jnsgd1na2vs0mg"},{"bike_id":"0677888d-bbb4-4e43-955e-99e91181ed1e","system_id":"levelo_inurba_marseille","lat":43.24203,"lon":5.39712,"is_reserved":false,"is_disabled":false,"rental_uris":{"android":"levelo://app?vid=0677888d-bbb4-4e43-955e-99e91181ed1e","ios":"levelo://app?vid=0677888d-bbb4-4e43-955e-99e91181ed1e"},"vehicle_type_id":"4","last_reported":1740651033,"current_range_meters":6800,"station_id":"ce4bhn12rcd13ifvqgpg","pricing_plan_id":"cebpf4jnsgd1na2vs0mg"},{"bike_id":"22c25b9b-a22d-4685-a812-ff9e9de3eab7","system_id":"levelo_inurba_marseille","lat":43.31713,"lon":5.43702,"is_reserved":false,"is_disabled":false,"rental_uris":{"android":"levelo://app?vid=22c25b9b-a22d-4685-a812-ff9e9de3eab7","ios":"levelo://app?vid=22c25b9b-a22d-4685-a812-ff9e9de3eab7"},"vehicle_type_id":"4","last_reported":1740651033,"current_range_meters":6800,"station_id":"ce4bhp92rcd13ifvqhcg","pricing_plan_id":"cebpf4jnsgd1na2vs0mg"},{"bike_id":"5d37d08b-122b-48be-b0d8-4d1bba485b7f","system_id":"levelo_inurba_marseille","lat":43.294942,"lon":5.375209,"is_reserved":false,"is_disabled":false,"rental_uris":{"android":"levelo://app?vid=5d37d08b-122b-48be-b0d8-4d1bba485b7f","ios":"levelo://app?vid=5d37d08b-122b-48be-b0d8-4d1bba485b7f"},"vehicle_type_id":"4","last_reported":1740651033,"current_range_meters":7200,"station_id":"ce4bgkp2rcd13ifvqbmg","pricing_plan_id":"cebpf4jnsgd1na2vs0mg"},{"bike_id":"da3c4fb5-c137-4b78-a6d7-9e67786b17b0","system_id":"levelo_inurba_marseille","lat":43.31369,"lon":5.36729,"is_reserved":false,"is_disabled":false,"rental_uris":{"android":"levelo://app?vid=da3c4fb5-c137-4b78-a6d7-9e67786b17b0","ios":"levelo://app?vid=da3c4fb5-c137-4b78-a6d7-9e67786b17b0"},"vehicle_type_id":"4","last_reported":1740651033,"current_range_meters":7200,"station_id":"ce4bgr92rcd13ifvqc6g","pricing_plan_id":"cebpf4jnsgd1na2vs0mg"},{"bike_id":"7b42e0d6-d498-4b76-9b22-06450ee7b9d5","system_id":"levelo_inurba_marseille","lat":43.30532,"lon":5.36543,"is_reserved":false,"is_disabled":false,"rental_uris":{"android":"levelo://app?vid=7b42e0d6-d498-4b76-9b22-06450ee7b9d5","ios":"levelo://app?vid=7b42e0d6-d498-4b76-9b22-06450ee7b9d5"},"vehicle_type_id":"4","last_reported":1740651033,"current_range_meters":7200,"station_id":"ce4bgs12rcd13ifvqcag","pricing_plan_id":"cebpf4jnsgd1na2vs0mg"},{"bike_id":"86786dac-aa53-405b-8af4-3e7fb55f4310","system_id":"levelo_inurba_marseille","lat":43.309663,"lon":5.39046,"is_reserved":false,"is_disabled":false,"rental_uris":{"android":"levelo://app?vid=86786dac-aa53-405b-8af4-3e7fb55f4310","ios":"levelo://app?vid=86786dac-aa53-405b-8af4-3e7fb55f4310"},"vehicle_type_id":"4","last_reported":1740651033,"current_range_meters":7200,"station_id":"ce4bgup2rcd13ifvqco0","pricing_plan_id":"cebpf4jnsgd1na2vs0mg"},{"bike_id":"67f3b02c-8b72-4af8-b932-fb487750040b","system_id":"levelo_inurba_marseille","lat":43.29281,"lon":5.40122,"is_reserved":false,"is_disabled":false,"rental_uris":{"android":"levelo://app?vid=67f3b02c-8b72-4af8-b932-fb487750040b","ios":"levelo://app?vid=67f3b02c-8b72-4af8-b932-fb487750040b"},"vehicle_type_id":"4","last_reported":1740651033,"current_range_meters":7200,"station_id":"ce4bh312rcd13ifvqdk0","pricing_plan_id":"cebpf4jnsgd1na2vs0mg"},{"bike_id":"32545551-9f8e-4a9b-b7f1-c4ec1daecff6","system_id":"levelo_inurba_marseille","lat":43.2501,"lon":5.38911,"is_reserved":false,"is_disabled":false,"rental_uris":{"android":"levelo://app?vid=32545551-9f8e-4a9b-b7f1-c4ec1daecff6","ios":"levelo://app?vid=32545551-9f8e-4a9b-b7f1-c4ec1daecff6"},"vehicle_type_id":"4","last_reported":1740651033,"current_range_meters":7200,"station_id":"ce4bhgp2rcd13ifvqfd0","pricing_plan_id":"cebpf4jnsgd1na2vs0mg"},{"bike_id":"cc5b8803-1413-4f2d-912e-42c063433ae4","system_id":"levelo_inurba_marseille","lat":43.32097,"lon":5.36769,"is_reserved":false,"is_disabled":false,"rental_uris":{"android":"levelo://app?vid=cc5b8803-1413-4f2d-912e-42c063433ae4","ios":"levelo://app?vid=cc5b8803-1413-4f2d-912e-42c063433ae4"},"vehicle_type_id":"4","last_reported":1740651033,"current_range_meters":7200,"station_id":"ce4bhrh2rcd13ifvqhug","pricing_plan_id":"cebpf4jnsgd1na2vs0mg"},{"bike_id":"f7a4507c-38d7-43ae-877c-713bf83b8878","system_id":"levelo_inurba_marseille","lat":43.30523,"lon":5.37882,"is_reserved":false,"is_disabled":false,"rental_uris":{"android":"levelo://app?vid=f7a4507c-38d7-43ae-877c-713bf83b8878","ios":"levelo://app?vid=f7a4507c-38d7-43ae-877c-713bf83b8878"},"vehicle_type_id":"4","last_reported":1740651033,"current_range_meters":8000,"station_id":"","pricing_plan_id":"cebpf4jnsgd1na2vs0mg"},{"bike_id":"7a6030d3-1c43-4bc3-9442-5988d488f783","system_id":"levelo_inurba_marseille","lat":43.29276,"lon":5.37621,"is_reserved":false,"is_disabled":false,"rental_uris":{"android":"levelo://app?vid=7a6030d3-1c43-4bc3-9442-5988d488f783","ios":"levelo://app?vid=7a6030d3-1c43-4bc3-9442-5988d488f783"},"vehicle_type_id":"4","last_reported":1740651033,"current_range_meters":8000,"station_id":"ce4bgi12rcd13ifvqb80","pricing_plan_id":"cebpf4jnsgd1na2vs0mg"},{"bike_id":"950ca1b2-009f-4e0e-a9bb-38c6443146d6","system_id":"levelo_inurba_marseille","lat":43.287,"lon":5.37408,"is_reserved":false,"is_disabled":false,"rental_uris":{"android":"levelo://app?vid=950ca1b2-009f-4e0e-a9bb-38c6443146d6","ios":"levelo://app?vid=950ca1b2-009f-4e0e-a9bb-38c6443146d6"},"vehicle_type_id":"4","last_reported":1740651033,"current_range_meters":8000,"station_id":"ce4bh3p2rcd13ifvqdq0","pricing_plan_id":"cebpf4jnsgd1na2vs0mg"},{"bike_id":"719baaea-c293-42a3-a0f8-1e9953de7b58","system_id":"levelo_inurba_marseille","lat":43.26552,"lon":5.39035,"is_reserved":false,"is_disabled":false,"rental_uris":{"android":"levelo://app?vid=719baaea-c293-42a3-a0f8-1e9953de7b58","ios":"levelo://app?vid=719baaea-c293-42a3-a0f8-1e9953de7b58"},"vehicle_type_id":"4","last_reported":1740651033,"current_range_meters":8000,"station_id":"ce4bhe12rcd13ifvqf30","pricing_plan_id":"cebpf4jnsgd1na2vs0mg"},{"bike_id":"34f00384-96f9-4a3e-aa4c-1859c9d03fd9","system_id":"levelo_inurba_marseille","lat":43.26797,"lon":5.39408,"is_reserved":false,"is_disabled":false,"rental_uris":{"android":"levelo://app?vid=34f00384-96f9-4a3e-aa4c-1859c9d03fd9","ios":"levelo://app?vid=34f00384-96f9-4a3e-aa4c-1859c9d03fd9"},"vehicle_type_id":"4","last_reported":1740651033,"current_range_meters":8000,"station_id":"ce4bhh12rcd13ifvqfg0","pricing_plan_id":"cebpf4jnsgd1na2vs0mg"},{"bike_id":"93ef41ab-6ea5-4ecf-bbc9-47eb29a30277","system_id":"levelo_inurba_marseille","lat":43.33614,"lon":5.41027,"is_reserved":false,"is_disabled":false,"rental_uris":{"android":"levelo://app?vid=93ef41ab-6ea5-4ecf-bbc9-47eb29a30277","ios":"levelo://app?vid=93ef41ab-6ea5-4ecf-bbc9-47eb29a30277"},"vehicle_type_id":"4","last_reported":1740651033,"current_range_meters":8000,"station_id":"ce4bhqh2rcd13ifvqhmg","pricing_plan_id":"cebpf4jnsgd1na2vs0mg"},{"bike_id":"b2180dcf-f925-41b8-b846-d290be17c9b0","system_id":"levelo_inurba_marseille","lat":43.27979,"lon":5.39536,"is_reserved":false,"is_disabled":false,"rental_uris":{"android":"levelo://app?vid=b2180dcf-f925-41b8-b846-d290be17c9b0","ios":"levelo://app?vid=b2180dcf-f925-41b8-b846-d290be17c9b0"},"vehicle_type_id":"4","last_reported":1740651033,"current_range_meters":8400,"station_id":"","pricing_plan_id":"cebpf4jnsgd1na2vs0mg"},{"bike_id":"f64b50fd-c0d3-4766-aa8c-920c7166ef73","system_id":"levelo_inurba_marseille","lat":43.3133,"lon":5.36717,"is_reserved":false,"is_disabled":false,"rental_uris":{"android":"levelo://app?vid=f64b50fd-c0d3-4766-aa8c-920c7166ef73","ios":"levelo://app?vid=f64b50fd-c0d3-4766-aa8c-920c7166ef73"},"vehicle_type_id":"4","last_reported":1740651033,"current_range_meters":8400,"station_id":"ce4bgr92rcd13ifvqc6g","pricing_plan_id":"cebpf4jnsgd1na2vs0mg"},{"bike_id":"338c1835-14ef-43f4-904c-c66f2e0ef0f3","system_id":"levelo_inurba_marseille","lat":43.30505,"lon":5.36565,"is_reserved":false,"is_disabled":false,"rental_uris":{"android":"levelo://app?vid=338c1835-14ef-43f4-904c-c66f2e0ef0f3","ios":"levelo://app?vid=338c1835-14ef-43f4-904c-c66f2e0ef0f3"},"vehicle_type_id":"4","last_reported":1740651033,"current_range_meters":8400,"station_id":"ce4bgs12rcd13ifvqcag","pricing_plan_id":"cebpf4jnsgd1na2vs0mg"},{"bike_id":"5e68656b-4654-4790-ad7f-01437bdae155","system_id":"levelo_inurba_marseille","lat":43.3055,"lon":5.36552,"is_reserved":false,"is_disabled":false,"rental_uris":{"android":"levelo://app?vid=5e68656b-4654-4790-ad7f-01437bdae155","ios":"levelo://app?vid=5e68656b-4654-4790-ad7f-01437bdae155"},"vehicle_type_id":"4","last_reported":1740651033,"current_range_meters":8400,"station_id":"ce4bgs12rcd13ifvqcag","pricing_plan_id":"cebpf4jnsgd1na2vs0mg"},{"bike_id":"4d090e3b-1942-41bb-bfbf-de6213ce0e96","system_id":"levelo_inurba_marseille","lat":43.31489,"lon":5.3731,"is_reserved":false,"is_disabled":false,"rental_uris":{"android":"levelo://app?vid=4d090e3b-1942-41bb-bfbf-de6213ce0e96","ios":"levelo://app?vid=4d090e3b-1942-41bb-bfbf-de6213ce0e96"},"vehicle_type_id":"4","last_reported":1740651033,"current_range_meters":8400,"station_id":"ce4bgt12rcd13ifvqcd0","pricing_plan_id":"cebpf4jnsgd1na2vs0mg"},{"bike_id":"e70f9a7a-edf2-47f4-a682-93b7e8309da0","system_id":"levelo_inurba_marseille","lat":43.2926,"lon":5.40911,"is_reserved":false,"is_disabled":false,"rental_uris":{"android":"levelo://app?vid=e70f9a7a-edf2-47f4-a682-93b7e8309da0","ios":"levelo://app?vid=e70f9a7a-edf2-47f4-a682-93b7e8309da0"},"vehicle_type_id":"4","last_reported":1740651033,"current_range_meters":8400,"station_id":"ce4bh192rcd13ifvqdc0","pricing_plan_id":"cebpf4jnsgd1na2vs0mg"},{"bike_id":"326cafff-710f-41fc-9a87-981f685e45ae","system_id":"levelo_inurba_marseille","lat":43.30138,"lon":5.3879,"is_reserved":false,"is_disabled":false,"rental_uris":{"android":"levelo://app?vid=326cafff-710f-41fc-9a87-981f685e45ae","ios":"levelo://app?vid=326cafff-710f-41fc-9a87-981f685e45ae"},"vehicle_type_id":"4","last_reported":1740651033,"current_range_meters":8400,"station_id":"ce4bh392rcd13ifvqdm0","pricing_plan_id":"cebpf4jnsgd1na2vs0mg"},{"bike_id":"e2d6e387-dc3a-4a3e-9ec9-dfd303ef01eb","system_id":"levelo_inurba_marseille","lat":43.28108,"lon":5.37832,"is_reserved":false,"is_disabled":false,"rental_uris":{"android":"levelo://app?vid=e2d6e387-dc3a-4a3e-9ec9-dfd303ef01eb","ios":"levelo://app?vid=e2d6e387-dc3a-4a3e-9ec9-dfd303ef01eb"},"vehicle_type_id":"4","last_reported":1740651033,"current_range_meters":8400,"station_id":"ce4bha12rcd13ifvqee0","pricing_plan_id":"cebpf4jnsgd1na2vs0mg"},{"bike_id":"9721a8d2-5ed5-4c5c-8f41-41104e93930e","system_id":"levelo_inurba_marseille","lat":43.27963,"lon":5.38713,"is_reserved":false,"is_disabled":false,"rental_uris":{"android":"levelo://app?vid=9721a8d2-5ed5-4c5c-8f41-41104e93930e","ios":"levelo://app?vid=9721a8d2-5ed5-4c5c-8f41-41104e93930e"},"vehicle_type_id":"4","last_reported":1740651033,"current_range_meters":8400,"station_id":"ce4bhg12rcd13ifvqf80","pricing_plan_id":"cebpf4jnsgd1na2vs0mg"},{"bike_id":"1a4f671a-f954-404e-8875-3b9e94408277","system_id":"levelo_inurba_marseille","lat":43.26031,"lon":5.3755,"is_reserved":false,"is_disabled":false,"rental_uris":{"android":"levelo://app?vid=1a4f671a-f954-404e-8875-3b9e94408277","ios":"levelo://app?vid=1a4f671a-f954-404e-8875-3b9e94408277"},"vehicle_type_id":"4","last_reported":1740651033,"current_range_meters":8400,"station_id":"ce4bhgh2rcd13ifvqfa0","pricing_plan_id":"cebpf4jnsgd1na2vs0mg"},{"bike_id":"962a768f-551a-4715-bdf7-2d5405e4118c","system_id":"levelo_inurba_marseille","lat":43.24165,"lon":5.39738,"is_reserved":false,"is_disabled":false,"rental_uris":{"android":"levelo://app?vid=962a768f-551a-4715-bdf7-2d5405e4118c","ios":"levelo://app?vid=962a768f-551a-4715-bdf7-2d5405e4118c"},"vehicle_type_id":"4","last_reported":1740651033,"current_range_meters":8400,"station_id":"ce4bhn12rcd13ifvqgpg","pricing_plan_id":"cebpf4jnsgd1na2vs0mg"},{"bike_id":"ef764a51-4251-4bad-8268-7a38dd116f4c","system_id":"levelo_inurba_marseille","lat":43.24075,"lon":5.37723,"is_reserved":false,"is_disabled":false,"rental_uris":{"android":"levelo://app?vid=ef764a51-4251-4bad-8268-7a38dd116f4c","ios":"levelo://app?vid=ef764a51-4251-4bad-8268-7a38dd116f4c"},"vehicle_type_id":"4","last_reported":1740651033,"current_range_meters":8400,"station_id":"ce4bhnp2rcd13ifvqgvg","pricing_plan_id":"cebpf4jnsgd1na2vs0mg"},{"bike_id":"e21e26c3-1a16-4043-9156-2eb0e36c1650","system_id":"levelo_inurba_marseille","lat":43.2956,"lon":5.37512,"is_reserved":false,"is_disabled":false,"rental_uris":{"android":"levelo://app?vid=e21e26c3-1a16-4043-9156-2eb0e36c1650","ios":"levelo://app?vid=e21e26c3-1a16-4043-9156-2eb0e36c1650"},"vehicle_type_id":"4","last_reported":1740651033,"current_range_meters":8800,"station_id":"ce4bgh92rcd13ifvqb50","pricing_plan_id":"cebpf4jnsgd1na2vs0mg"},{"bike_id":"f766e3d4-eb35-4777-b7ef-5fba818cdd52","system_id":"levelo_inurba_marseille","lat":43.29847,"lon":5.36277,"is_reserved":false,"is_disabled":false,"rental_uris":{"android":"levelo://app?vid=f766e3d4-eb35-4777-b7ef-5fba818cdd52","ios":"levelo://app?vid=f766e3d4-eb35-4777-b7ef-5fba818cdd52"},"vehicle_type_id":"4","last_reported":1740651033,"current_range_meters":8800,"station_id":"ce4bgpp2rcd13ifvqc3g","pricing_plan_id":"cebpf4jnsgd1na2vs0mg"},{"bike_id":"4d472430-f798-4d66-a15e-a2aa6ed57ca5","system_id":"levelo_inurba_marseille","lat":43.30964,"lon":5.39054,"is_reserved":false,"is_disabled":false,"rental_uris":{"android":"levelo://app?vid=4d472430-f798-4d66-a15e-a2aa6ed57ca5","ios":"levelo://app?vid=4d472430-f798-4d66-a15e-a2aa6ed57ca5"},"vehicle_type_id":"4","last_reported":1740651033,"current_range_meters":8800,"station_id":"ce4bgup2rcd13ifvqco0","pricing_plan_id":"cebpf4jnsgd1na2vs0mg"},{"bike_id":"bde3ecc2-fd13-4519-8cd8-959b951ba9a3","system_id":"levelo_inurba_marseille","lat":43.26031,"lon":5.37548,"is_reserved":false,"is_disabled":false,"rental_uris":{"android":"levelo://app?vid=bde3ecc2-fd13-4519-8cd8-959b951ba9a3","ios":"levelo://app?vid=bde3ecc2-fd13-4519-8cd8-959b951ba9a3"},"vehicle_type_id":"4","last_reported":1740651033,"current_range_meters":8800,"station_id":"ce4bhgh2rcd13ifvqfa0","pricing_plan_id":"cebpf4jnsgd1na2vs0mg"},{"bike_id":"36145185-3306-4f33-9909-54394b0ed89b","system_id":"levelo_inurba_marseille","lat":43.27573,"lon":5.38412,"is_reserved":false,"is_disabled":false,"rental_uris":{"android":"levelo://app?vid=36145185-3306-4f33-9909-54394b0ed89b","ios":"levelo://app?vid=36145185-3306-4f33-9909-54394b0ed89b"},"vehicle_type_id":"4","last_reported":1740651033,"current_range_meters":8800,"station_id":"ce4bhh92rcd13ifvqfi0","pricing_plan_id":"cebpf4jnsgd1na2vs0mg"},{"bike_id":"0d9fff21-6d6d-4df8-bdae-baf4fa12e6b7","system_id":"levelo_inurba_marseille","lat":43.24413,"lon":5.3707,"is_reserved":false,"is_disabled":false,"rental_uris":{"android":"levelo://app?vid=0d9fff21-6d6d-4df8-bdae-baf4fa12e6b7","ios":"levelo://app?vid=0d9fff21-6d6d-4df8-bdae-baf4fa12e6b7"},"vehicle_type_id":"4","last_reported":1740651033,"current_range_meters":8800,"station_id":"ce4bhhh2rcd13ifvqfk0","pricing_plan_id":"cebpf4jnsgd1na2vs0mg"},{"bike_id":"5169bf4e-5ac4-4560-9d3b-f48581611c45","system_id":"levelo_inurba_marseille","lat":43.2509,"lon":5.39518,"is_reserved":false,"is_disabled":false,"rental_uris":{"android":"levelo://app?vid=5169bf4e-5ac4-4560-9d3b-f48581611c45","ios":"levelo://app?vid=5169bf4e-5ac4-4560-9d3b-f48581611c45"},"vehicle_type_id":"4","last_reported":1740651033,"current_range_meters":8800,"station_id":"ce4bhm12rcd13ifvqgkg","pricing_plan_id":"cebpf4jnsgd1na2vs0mg"},{"bike_id":"c24dd236-5c90-4f51-a57a-2f44c040fc1a","system_id":"levelo_inurba_marseille","lat":43.2597,"lon":5.4092,"is_reserved":false,"is_disabled":false,"rental_uris":{"android":"levelo://app?vid=c24dd236-5c90-4f51-a57a-2f44c040fc1a","ios":"levelo://app?vid=c24dd236-5c90-4f51-a57a-2f44c040fc1a"},"vehicle_type_id":"4","last_reported":1740651033,"current_range_meters":9200,"station_id":"","pricing_plan_id":"cebpf4jnsgd1na2vs0mg"},{"bike_id":"a425e775-b361-4ab4-93f9-fa2ea28a8286","system_id":"levelo_inurba_marseille","lat":43.32432,"lon":5.36585,"is_reserved":false,"is_disabled":false,"rental_uris":{"android":"levelo://app?vid=a425e775-b361-4ab4-93f9-fa2ea28a8286","ios":"levelo://app?vid=a425e775-b361-4ab4-93f9-fa2ea28a8286"},"vehicle_type_id":"4","last_reported":1740651033,"current_range_meters":9200,"station_id":"","pricing_plan_id":"cebpf4jnsgd1na2vs0mg"},{"bike_id":"4765f4c4-12f9-410d-89ae-b2b6b8369cf3","system_id":"levelo_inurba_marseille","lat":43.30954,"lon":5.39043,"is_reserved":false,"is_disabled":false,"rental_uris":{"android":"levelo://app?vid=4765f4c4-12f9-410d-89ae-b2b6b8369cf3","ios":"levelo://app?vid=4765f4c4-12f9-410d-89ae-b2b6b8369cf3"},"vehicle_type_id":"4","last_reported":1740651033,"current_range_meters":9200,"station_id":"ce4bgup2rcd13ifvqco0","pricing_plan_id":"cebpf4jnsgd1na2vs0mg"},{"bike_id":"a2471654-b844-4806-bd45-c2c5b9bd290a","system_id":"levelo_inurba_marseille","lat":43.28984,"lon":5.37847,"is_reserved":false,"is_disabled":false,"rental_uris":{"android":"levelo://app?vid=a2471654-b844-4806-bd45-c2c5b9bd290a","ios":"levelo://app?vid=a2471654-b844-4806-bd45-c2c5b9bd290a"},"vehicle_type_id":"4","last_reported":1740651033,"current_range_meters":9200,"station_id":"ce4bh9p2rcd13ifvqed0","pricing_plan_id":"cebpf4jnsgd1na2vs0mg"},{"bike_id":"b9e94433-72b0-448b-9383-91edbc736b90","system_id":"levelo_inurba_marseille","lat":43.26689,"lon":5.38277,"is_reserved":false,"is_disabled":false,"rental_uris":{"android":"levelo://app?vid=b9e94433-72b0-448b-9383-91edbc736b90","ios":"levelo://app?vid=b9e94433-72b0-448b-9383-91edbc736b90"},"vehicle_type_id":"4","last_reported":1740651033,"current_range_meters":9200,"station_id":"ce4bhg92rcd13ifvqf90","pricing_plan_id":"cebpf4jnsgd1na2vs0mg"},{"bike_id":"ad9571bc-5194-4f71-90ef-f1cb0835f36e","system_id":"levelo_inurba_marseille","lat":43.25496,"lon":5.3765,"is_reserved":false,"is_disabled":false,"rental_uris":{"android":"levelo://app?vid=ad9571bc-5194-4f71-90ef-f1cb0835f36e","ios":"levelo://app?vid=ad9571bc-5194-4f71-90ef-f1cb0835f36e"},"vehicle_type_id":"4","last_reported":1740651033,"current_range_meters":9200,"station_id":"ce4bhh12rcd13ifvqff0","pricing_plan_id":"cebpf4jnsgd1na2vs0mg"},{"bike_id":"0f29e289-bfb5-40b7-b1df-d5acef773400","system_id":"levelo_inurba_marseille","lat":43.32366,"lon":5.38881,"is_reserved":false,"is_disabled":false,"rental_uris":{"android":"levelo://app?vid=0f29e289-bfb5-40b7-b1df-d5acef773400","ios":"levelo://app?vid=0f29e289-bfb5-40b7-b1df-d5acef773400"},"vehicle_type_id":"4","last_reported":1740651033,"current_range_meters":9200,"station_id":"ce4bhqp2rcd13ifvqhog","pricing_plan_id":"cebpf4jnsgd1na2vs0mg"},{"bike_id":"57c2dff6-a235-4183-bf9b-7a41d1f0d6bb","system_id":"levelo_inurba_marseille","lat":43.22935,"lon":5.35378,"is_reserved":false,"is_disabled":false,"rental_uris":{"android":"levelo://app?vid=57c2dff6-a235-4183-bf9b-7a41d1f0d6bb","ios":"levelo://app?vid=57c2dff6-a235-4183-bf9b-7a41d1f0d6bb"},"vehicle_type_id":"4","last_reported":1740651033,"current_range_meters":9200,"station_id":"cpo3532slgdg3j2ikp40","pricing_plan_id":"cebpf4jnsgd1na2vs0mg"},{"bike_id":"7066292e-f6d9-44ef-bd90-4092e9e71ae6","system_id":"levelo_inurba_marseille","lat":43.29609,"lon":5.37722,"is_reserved":false,"is_disabled":false,"rental_uris":{"android":"levelo://app?vid=7066292e-f6d9-44ef-bd90-4092e9e71ae6","ios":"levelo://app?vid=7066292e-f6d9-44ef-bd90-4092e9e71ae6"},"vehicle_type_id":"4","last_reported":1740651033,"current_range_meters":9600,"station_id":"ce4bgi92rcd13ifvqb90","pricing_plan_id":"cebpf4jnsgd1na2vs0mg"},{"bike_id":"55f6da8c-7fbe-4710-bf56-d3ce712c5165","system_id":"levelo_inurba_marseille","lat":43.30292,"lon":5.37695,"is_reserved":false,"is_disabled":false,"rental_uris":{"android":"levelo://app?vid=55f6da8c-7fbe-4710-bf56-d3ce712c5165","ios":"levelo://app?vid=55f6da8c-7fbe-4710-bf56-d3ce712c5165"},"vehicle_type_id":"4","last_reported":1740651033,"current_range_meters":9600,"station_id":"ce4bguh2rcd13ifvqcj0","pricing_plan_id":"cebpf4jnsgd1na2vs0mg"},{"bike_id":"f80b506c-38f2-45b2-8ae3-fef2bd454d37","system_id":"levelo_inurba_marseille","lat":43.3048,"lon":5.37914,"is_reserved":false,"is_disabled":false,"rental_uris":{"android":"levelo://app?vid=f80b506c-38f2-45b2-8ae3-fef2bd454d37","ios":"levelo://app?vid=f80b506c-38f2-45b2-8ae3-fef2bd454d37"},"vehicle_type_id":"4","last_reported":1740651033,"current_range_meters":9600,"station_id":"ce4bgup2rcd13ifvqcn0","pricing_plan_id":"cebpf4jnsgd1na2vs0mg"},{"bike_id":"35593f52-cea1-47f3-bc31-1b5a2af0d4d0","system_id":"levelo_inurba_marseille","lat":43.30959,"lon":5.39051,"is_reserved":false,"is_disabled":false,"rental_uris":{"android":"levelo://app?vid=35593f52-cea1-47f3-bc31-1b5a2af0d4d0","ios":"levelo://app?vid=35593f52-cea1-47f3-bc31-1b5a2af0d4d0"},"vehicle_type_id":"4","last_reported":1740651033,"current_range_meters":9600,"station_id":"ce4bgup2rcd13ifvqco0","pricing_plan_id":"cebpf4jnsgd1na2vs0mg"},{"bike_id":"f66913d8-adc8-4497-b81a-8613461ae8a9","system_id":"levelo_inurba_marseille","lat":43.28407,"lon":5.35002,"is_reserved":false,"is_disabled":false,"rental_uris":{"android":"levelo://app?vid=f66913d8-adc8-4497-b81a-8613461ae8a9","ios":"levelo://app?vid=f66913d8-adc8-4497-b81a-8613461ae8a9"},"vehicle_type_id":"4","last_reported":1740651033,"current_range_meters":9600,"station_id":"ce4bhbh2rcd13ifvqepg","pricing_plan_id":"cebpf4jnsgd1na2vs0mg"},{"bike_id":"2ddd76cf-99e2-47b6-baa1-5133bc8aab87","system_id":"levelo_inurba_marseille","lat":43.26942,"lon":5.38647,"is_reserved":false,"is_disabled":false,"rental_uris":{"android":"levelo://app?vid=2ddd76cf-99e2-47b6-baa1-5133bc8aab87","ios":"levelo://app?vid=2ddd76cf-99e2-47b6-baa1-5133bc8aab87"},"vehicle_type_id":"4","last_reported":1740651033,"current_range_meters":9600,"station_id":"ce4bhh92rcd13ifvqfh0","pricing_plan_id":"cebpf4jnsgd1na2vs0mg"},{"bike_id":"9fc706c2-079e-41bb-846c-4846c643b247","system_id":"levelo_inurba_marseille","lat":43.24182,"lon":5.39718,"is_reserved":false,"is_disabled":false,"rental_uris":{"android":"levelo://app?vid=9fc706c2-079e-41bb-846c-4846c643b247","ios":"levelo://app?vid=9fc706c2-079e-41bb-846c-4846c643b247"},"vehicle_type_id":"4","last_reported":1740651033,"current_range_meters":9600,"station_id":"ce4bhn12rcd13ifvqgpg","pricing_plan_id":"cebpf4jnsgd1na2vs0mg"},{"bike_id":"b91b5df9-9e1d-4603-a59a-2032d99a62a3","system_id":"levelo_inurba_marseille","lat":43.24059,"lon":5.37757,"is_reserved":false,"is_disabled":false,"rental_uris":{"android":"levelo://app?vid=b91b5df9-9e1d-4603-a59a-2032d99a62a3","ios":"levelo://app?vid=b91b5df9-9e1d-4603-a59a-2032d99a62a3"},"vehicle_type_id":"4","last_reported":1740651033,"current_range_meters":9600,"station_id":"ce4bhnp2rcd13ifvqgvg","pricing_plan_id":"cebpf4jnsgd1na2vs0mg"},{"bike_id":"afd98e29-9e65-49b1-96e9-da6c0e62de76","system_id":"levelo_inurba_marseille","lat":43.29242,"lon":5.38231,"is_reserved":false,"is_disabled":false,"rental_uris":{"android":"levelo://app?vid=afd98e29-9e65-49b1-96e9-da6c0e62de76","ios":"levelo://app?vid=afd98e29-9e65-49b1-96e9-da6c0e62de76"},"vehicle_type_id":"4","last_reported":1740651033,"current_range_meters":10000,"station_id":"","pricing_plan_id":"cebpf4jnsgd1na2vs0mg"},{"bike_id":"9825c28a-d416-46b3-8289-a829d8be4423","system_id":"levelo_inurba_marseille","lat":43.29606,"lon":5.37741,"is_reserved":false,"is_disabled":false,"rental_uris":{"android":"levelo://app?vid=9825c28a-d416-46b3-8289-a829d8be4423","ios":"levelo://app?vid=9825c28a-d416-46b3-8289-a829d8be4423"},"vehicle_type_id":"4","last_reported":1740651033,"current_range_meters":10000,"station_id":"ce4bgi92rcd13ifvqb90","pricing_plan_id":"cebpf4jnsgd1na2vs0mg"},{"bike_id":"0a762def-a950-48fe-ba8c-a7319c96386a","system_id":"levelo_inurba_marseille","lat":43.31485,"lon":5.37302,"is_reserved":false,"is_disabled":false,"rental_uris":{"android":"levelo://app?vid=0a762def-a950-48fe-ba8c-a7319c96386a","ios":"levelo://app?vid=0a762def-a950-48fe-ba8c-a7319c96386a"},"vehicle_type_id":"4","last_reported":1740651033,"current_range_meters":10000,"station_id":"ce4bgt12rcd13ifvqcd0","pricing_plan_id":"cebpf4jnsgd1na2vs0mg"},{"bike_id":"844c2627-4659-4d06-9db8-0803d69b326a","system_id":"levelo_inurba_marseille","lat":43.29236,"lon":5.36064,"is_reserved":false,"is_disabled":false,"rental_uris":{"android":"levelo://app?vid=844c2627-4659-4d06-9db8-0803d69b326a","ios":"levelo://app?vid=844c2627-4659-4d06-9db8-0803d69b326a"},"vehicle_type_id":"4","last_reported":1740651033,"current_range_meters":10000,"station_id":"ce4bhbh2rcd13ifvqeqg","pricing_plan_id":"cebpf4jnsgd1na2vs0mg"},{"bike_id":"87d69302-a6cb-4094-b9f6-16564c85e522","system_id":"levelo_inurba_marseille","lat":43.25741,"lon":5.4115,"is_reserved":false,"is_disabled":false,"rental_uris":{"android":"levelo://app?vid=87d69302-a6cb-4094-b9f6-16564c85e522","ios":"levelo://app?vid=87d69302-a6cb-4094-b9f6-16564c85e522"},"vehicle_type_id":"4","last_reported":1740651033,"current_range_meters":10000,"station_id":"ce4bhkp2rcd13ifvqgd0","pricing_plan_id":"cebpf4jnsgd1na2vs0mg"},{"bike_id":"7df888cc-c346-4f38-990a-fc3c220f7083","system_id":"levelo_inurba_marseille","lat":43.23163,"lon":5.43724,"is_reserved":false,"is_disabled":false,"rental_uris":{"android":"levelo://app?vid=7df888cc-c346-4f38-990a-fc3c220f7083","ios":"levelo://app?vid=7df888cc-c346-4f38-990a-fc3c220f7083"},"vehicle_type_id":"4","last_reported":1740651033,"current_range_meters":10000,"station_id":"ce4bhmp2rcd13ifvqgog","pricing_plan_id":"cebpf4jnsgd1na2vs0mg"},{"bike_id":"17973595-0627-4cbe-be09-6d52168568c1","system_id":"levelo_inurba_marseille","lat":43.27801,"lon":5.40696,"is_reserved":false,"is_disabled":false,"rental_uris":{"android":"levelo://app?vid=17973595-0627-4cbe-be09-6d52168568c1","ios":"levelo://app?vid=17973595-0627-4cbe-be09-6d52168568c1"},"vehicle_type_id":"4","last_reported":1740651033,"current_range_meters":10000,"station_id":"ce4bhnh2rcd13ifvqgtg","pricing_plan_id":"cebpf4jnsgd1na2vs0mg"},{"bike_id":"dbbfe273-fe78-4ee1-abd4-c84186b9f85c","system_id":"levelo_inurba_marseille","lat":43.24091,"lon":5.37778,"is_reserved":false,"is_disabled":false,"rental_uris":{"android":"levelo://app?vid=dbbfe273-fe78-4ee1-abd4-c84186b9f85c","ios":"levelo://app?vid=dbbfe273-fe78-4ee1-abd4-c84186b9f85c"},"vehicle_type_id":"4","last_reported":1740651033,"current_range_meters":10000,"station_id":"ce4bhnp2rcd13ifvqgvg","pricing_plan_id":"cebpf4jnsgd1na2vs0mg"},{"bike_id":"8aefae3d-8df9-4738-afa0-b68595c80fcb","system_id":"levelo_inurba_marseille","lat":43.24063,"lon":5.37791,"is_reserved":false,"is_disabled":false,"rental_uris":{"android":"levelo://app?vid=8aefae3d-8df9-4738-afa0-b68595c80fcb","ios":"levelo://app?vid=8aefae3d-8df9-4738-afa0-b68595c80fcb"},"vehicle_type_id":"4","last_reported":1740651033,"current_range_meters":10000,"station_id":"ce4bhnp2rcd13ifvqgvg","pricing_plan_id":"cebpf4jnsgd1na2vs0mg"},{"bike_id":"364ea645-aefe-4d71-8bcd-ea54ed59c50a","system_id":"levelo_inurba_marseille","lat":43.31725,"lon":5.43706,"is_reserved":false,"is_disabled":false,"rental_uris":{"android":"levelo://app?vid=364ea645-aefe-4d71-8bcd-ea54ed59c50a","ios":"levelo://app?vid=364ea645-aefe-4d71-8bcd-ea54ed59c50a"},"vehicle_type_id":"4","last_reported":1740651033,"current_range_meters":10000,"station_id":"ce4bhp92rcd13ifvqhcg","pricing_plan_id":"cebpf4jnsgd1na2vs0mg"},{"bike_id":"19e4983d-b74d-4524-9c14-80fb6905f947","system_id":"levelo_inurba_marseille","lat":43.32102,"lon":5.36783,"is_reserved":false,"is_disabled":false,"rental_uris":{"android":"levelo://app?vid=19e4983d-b74d-4524-9c14-80fb6905f947","ios":"levelo://app?vid=19e4983d-b74d-4524-9c14-80fb6905f947"},"vehicle_type_id":"4","last_reported":1740651033,"current_range_meters":10000,"station_id":"ce4bhrh2rcd13ifvqhug","pricing_plan_id":"cebpf4jnsgd1na2vs0mg"},{"bike_id":"620faf8f-9860-4e84-b6cd-4559a0b9a89c","system_id":"levelo_inurba_marseille","lat":43.32477,"lon":5.36551,"is_reserved":false,"is_disabled":false,"rental_uris":{"android":"levelo://app?vid=620faf8f-9860-4e84-b6cd-4559a0b9a89c","ios":"levelo://app?vid=620faf8f-9860-4e84-b6cd-4559a0b9a89c"},"vehicle_type_id":"4","last_reported":1740651033,"current_range_meters":10000,"station_id":"ce4bhs12rcd13ifvqhvg","pricing_plan_id":"cebpf4jnsgd1na2vs0mg"},{"bike_id":"91f909e9-358e-43ed-a45f-822af931a978","system_id":"levelo_inurba_marseille","lat":43.2321,"lon":5.40371,"is_reserved":false,"is_disabled":false,"rental_uris":{"android":"levelo://app?vid=91f909e9-358e-43ed-a45f-822af931a978","ios":"levelo://app?vid=91f909e9-358e-43ed-a45f-822af931a978"},"vehicle_type_id":"4","last_reported":1740651033,"current_range_meters":10800,"station_id":"","pricing_plan_id":"cebpf4jnsgd1na2vs0mg"},{"bike_id":"5249bc2c-af1a-4b55-92f5-5ca5eef8feb6","system_id":"levelo_inurba_marseille","lat":43.29269,"lon":5.37632,"is_reserved":false,"is_disabled":false,"rental_uris":{"android":"levelo://app?vid=5249bc2c-af1a-4b55-92f5-5ca5eef8feb6","ios":"levelo://app?vid=5249bc2c-af1a-4b55-92f5-5ca5eef8feb6"},"vehicle_type_id":"4","last_reported":1740651033,"current_range_meters":10800,"station_id":"ce4bgi12rcd13ifvqb80","pricing_plan_id":"cebpf4jnsgd1na2vs0mg"},{"bike_id":"156dbcd3-9aaa-47d0-96b7-f861eeecb0e6","system_id":"levelo_inurba_marseille","lat":43.3015,"lon":5.38063,"is_reserved":false,"is_disabled":false,"rental_uris":{"android":"levelo://app?vid=156dbcd3-9aaa-47d0-96b7-f861eeecb0e6","ios":"levelo://app?vid=156dbcd3-9aaa-47d0-96b7-f861eeecb0e6"},"vehicle_type_id":"4","last_reported":1740651033,"current_range_meters":10800,"station_id":"ce4bgjp2rcd13ifvqbh0","pricing_plan_id":"cebpf4jnsgd1na2vs0mg"},{"bike_id":"bd10b7cf-bdb7-4def-ac09-c6e9c328c697","system_id":"levelo_inurba_marseille","lat":43.31235,"lon":5.36897,"is_reserved":false,"is_disabled":false,"rental_uris":{"android":"levelo://app?vid=bd10b7cf-bdb7-4def-ac09-c6e9c328c697","ios":"levelo://app?vid=bd10b7cf-bdb7-4def-ac09-c6e9c328c697"},"vehicle_type_id":"4","last_reported":1740651033,"current_range_meters":10800,"station_id":"ce4bgl92rcd13ifvqbq0","pricing_plan_id":"cebpf4jnsgd1na2vs0mg"},{"bike_id":"62cbb18c-2f31-4f5c-9351-9e9b31dd9036","system_id":"levelo_inurba_marseille","lat":43.29932,"lon":5.36539,"is_reserved":false,"is_disabled":false,"rental_uris":{"android":"levelo://app?vid=62cbb18c-2f31-4f5c-9351-9e9b31dd9036","ios":"levelo://app?vid=62cbb18c-2f31-4f5c-9351-9e9b31dd9036"},"vehicle_type_id":"4","last_reported":1740651033,"current_range_meters":10800,"station_id":"ce4bgm92rcd13ifvqbr0","pricing_plan_id":"cebpf4jnsgd1na2vs0mg"},{"bike_id":"7f5c8962-3c26-494a-9dd5-ffc07bce14b6","system_id":"levelo_inurba_marseille","lat":43.30467,"lon":5.37908,"is_reserved":false,"is_disabled":false,"rental_uris":{"android":"levelo://app?vid=7f5c8962-3c26-494a-9dd5-ffc07bce14b6","ios":"levelo://app?vid=7f5c8962-3c26-494a-9dd5-ffc07bce14b6"},"vehicle_type_id":"4","last_reported":1740651033,"current_range_meters":10800,"station_id":"ce4bgup2rcd13ifvqcn0","pricing_plan_id":"cebpf4jnsgd1na2vs0mg"},{"bike_id":"a5a480cf-115b-4c68-8119-4a4fec5fb151","system_id":"levelo_inurba_marseille","lat":43.26943,"lon":5.38659,"is_reserved":false,"is_disabled":false,"rental_uris":{"android":"levelo://app?vid=a5a480cf-115b-4c68-8119-4a4fec5fb151","ios":"levelo://app?vid=a5a480cf-115b-4c68-8119-4a4fec5fb151"},"vehicle_type_id":"4","last_reported":1740651033,"current_range_meters":10800,"station_id":"ce4bhh92rcd13ifvqfh0","pricing_plan_id":"cebpf4jnsgd1na2vs0mg"},{"bike_id":"eae6a850-1285-4ec5-abf3-37043ab72d69","system_id":"levelo_inurba_marseille","lat":43.25956,"lon":5.40905,"is_reserved":false,"is_disabled":false,"rental_uris":{"android":"levelo://app?vid=eae6a850-1285-4ec5-abf3-37043ab72d69","ios":"levelo://app?vid=eae6a850-1285-4ec5-abf3-37043ab72d69"},"vehicle_type_id":"4","last_reported":1740651033,"current_range_meters":10800,"station_id":"ce4bhm92rcd13ifvqglg","pricing_plan_id":"cebpf4jnsgd1na2vs0mg"},{"bike_id":"87d92987-b68b-4ae7-9097-cf6bac27adfc","system_id":"levelo_inurba_marseille","lat":43.29251,"lon":5.37617,"is_reserved":false,"is_disabled":false,"rental_uris":{"android":"levelo://app?vid=87d92987-b68b-4ae7-9097-cf6bac27adfc","ios":"levelo://app?vid=87d92987-b68b-4ae7-9097-cf6bac27adfc"},"vehicle_type_id":"4","last_reported":1740651033,"current_range_meters":11200,"station_id":"ce4bgi12rcd13ifvqb80","pricing_plan_id":"cebpf4jnsgd1na2vs0mg"},{"bike_id":"c2c07c19-dbd0-4199-be99-931320c34757","system_id":"levelo_inurba_marseille","lat":43.29846,"lon":5.36273,"is_reserved":false,"is_disabled":false,"rental_uris":{"android":"levelo://app?vid=c2c07c19-dbd0-4199-be99-931320c34757","ios":"levelo://app?vid=c2c07c19-dbd0-4199-be99-931320c34757"},"vehicle_type_id":"4","last_reported":1740651033,"current_range_meters":11200,"station_id":"ce4bgpp2rcd13ifvqc3g","pricing_plan_id":"cebpf4jnsgd1na2vs0mg"},{"bike_id":"a6f9af50-7492-4856-9e55-c9f8779ac723","system_id":"levelo_inurba_marseille","lat":43.293578,"lon":5.384164,"is_reserved":false,"is_disabled":false,"rental_uris":{"android":"levelo://app?vid=a6f9af50-7492-4856-9e55-c9f8779ac723","ios":"levelo://app?vid=a6f9af50-7492-4856-9e55-c9f8779ac723"},"vehicle_type_id":"4","last_reported":1740651033,"current_range_meters":11200,"station_id":"ce4bh5p2rcd13ifvqe4g","pricing_plan_id":"cebpf4jnsgd1na2vs0mg"},{"bike_id":"946ffe70-3e7c-49a6-8659-388e8c6a00a1","system_id":"levelo_inurba_marseille","lat":43.26955,"lon":5.38615,"is_reserved":false,"is_disabled":false,"rental_uris":{"android":"levelo://app?vid=946ffe70-3e7c-49a6-8659-388e8c6a00a1","ios":"levelo://app?vid=946ffe70-3e7c-49a6-8659-388e8c6a00a1"},"vehicle_type_id":"4","last_reported":1740651033,"current_range_meters":11200,"station_id":"ce4bhh92rcd13ifvqfh0","pricing_plan_id":"cebpf4jnsgd1na2vs0mg"},{"bike_id":"219da876-5708-4dd0-931a-bee55e45df10","system_id":"levelo_inurba_marseille","lat":43.24167,"lon":5.39729,"is_reserved":false,"is_disabled":false,"rental_uris":{"android":"levelo://app?vid=219da876-5708-4dd0-931a-bee55e45df10","ios":"levelo://app?vid=219da876-5708-4dd0-931a-bee55e45df10"},"vehicle_type_id":"4","last_reported":1740651033,"current_range_meters":11200,"station_id":"ce4bhn12rcd13ifvqgpg","pricing_plan_id":"cebpf4jnsgd1na2vs0mg"},{"bike_id":"295b0419-415d-42cd-9c8a-f34cdd0f33af","system_id":"levelo_inurba_marseille","lat":43.24072,"lon":5.3773,"is_reserved":false,"is_disabled":false,"rental_uris":{"android":"levelo://app?vid=295b0419-415d-42cd-9c8a-f34cdd0f33af","ios":"levelo://app?vid=295b0419-415d-42cd-9c8a-f34cdd0f33af"},"vehicle_type_id":"4","last_reported":1740651033,"current_range_meters":11200,"station_id":"ce4bhnp2rcd13ifvqgvg","pricing_plan_id":"cebpf4jnsgd1na2vs0mg"},{"bike_id":"43d0f70c-0b87-4adc-9bdf-4f9ccc6c5552","system_id":"levelo_inurba_marseille","lat":43.29533,"lon":5.37513,"is_reserved":false,"is_disabled":false,"rental_uris":{"android":"levelo://app?vid=43d0f70c-0b87-4adc-9bdf-4f9ccc6c5552","ios":"levelo://app?vid=43d0f70c-0b87-4adc-9bdf-4f9ccc6c5552"},"vehicle_type_id":"4","last_reported":1740651033,"current_range_meters":11600,"station_id":"ce4bgkp2rcd13ifvqbmg","pricing_plan_id":"cebpf4jnsgd1na2vs0mg"},{"bike_id":"cbc29fc5-da25-4bb7-846c-409f10d50509","system_id":"levelo_inurba_marseille","lat":43.31374,"lon":5.36741,"is_reserved":false,"is_disabled":false,"rental_uris":{"android":"levelo://app?vid=cbc29fc5-da25-4bb7-846c-409f10d50509","ios":"levelo://app?vid=cbc29fc5-da25-4bb7-846c-409f10d50509"},"vehicle_type_id":"4","last_reported":1740651033,"current_range_meters":11600,"station_id":"ce4bgr92rcd13ifvqc6g","pricing_plan_id":"cebpf4jnsgd1na2vs0mg"},{"bike_id":"7c62469b-5202-49e6-bba3-f619a26dfa9a","system_id":"levelo_inurba_marseille","lat":43.30547,"lon":5.36704,"is_reserved":false,"is_disabled":false,"rental_uris":{"android":"levelo://app?vid=7c62469b-5202-49e6-bba3-f619a26dfa9a","ios":"levelo://app?vid=7c62469b-5202-49e6-bba3-f619a26dfa9a"},"vehicle_type_id":"4","last_reported":1740651033,"current_range_meters":11600,"station_id":"ce4bgrp2rcd13ifvqc9g","pricing_plan_id":"cebpf4jnsgd1na2vs0mg"},{"bike_id":"d52f0219-7e16-4dc5-bdd6-5f76ea649f0a","system_id":"levelo_inurba_marseille","lat":43.30914,"lon":5.3722,"is_reserved":false,"is_disabled":false,"rental_uris":{"android":"levelo://app?vid=d52f0219-7e16-4dc5-bdd6-5f76ea649f0a","ios":"levelo://app?vid=d52f0219-7e16-4dc5-bdd6-5f76ea649f0a"},"vehicle_type_id":"4","last_reported":1740651033,"current_range_meters":11600,"station_id":"ce4bguh2rcd13ifvqckg","pricing_plan_id":"cebpf4jnsgd1na2vs0mg"},{"bike_id":"8ce81dd7-e547-4af1-8f7a-e5d72b0288d5","system_id":"levelo_inurba_marseille","lat":43.30948,"lon":5.39039,"is_reserved":false,"is_disabled":false,"rental_uris":{"android":"levelo://app?vid=8ce81dd7-e547-4af1-8f7a-e5d72b0288d5","ios":"levelo://app?vid=8ce81dd7-e547-4af1-8f7a-e5d72b0288d5"},"vehicle_type_id":"4","last_reported":1740651033,"current_range_meters":11600,"station_id":"ce4bgup2rcd13ifvqco0","pricing_plan_id":"cebpf4jnsgd1na2vs0mg"},{"bike_id":"53ee17cb-b8a8-4148-bd51-4f404279d30f","system_id":"levelo_inurba_marseille","lat":43.30149,"lon":5.39857,"is_reserved":false,"is_disabled":false,"rental_uris":{"android":"levelo://app?vid=53ee17cb-b8a8-4148-bd51-4f404279d30f","ios":"levelo://app?vid=53ee17cb-b8a8-4148-bd51-4f404279d30f"},"vehicle_type_id":"4","last_reported":1740651033,"current_range_meters":11600,"station_id":"ce4bh0h2rcd13ifvqd40","pricing_plan_id":"cebpf4jnsgd1na2vs0mg"},{"bike_id":"b0e2d516-c387-43ec-bccd-1bf33aa90f24","system_id":"levelo_inurba_marseille","lat":43.29238,"lon":5.36086,"is_reserved":false,"is_disabled":false,"rental_uris":{"android":"levelo://app?vid=b0e2d516-c387-43ec-bccd-1bf33aa90f24","ios":"levelo://app?vid=b0e2d516-c387-43ec-bccd-1bf33aa90f24"},"vehicle_type_id":"4","last_reported":1740651033,"current_range_meters":11600,"station_id":"ce4bhbh2rcd13ifvqeqg","pricing_plan_id":"cebpf4jnsgd1na2vs0mg"},{"bike_id":"d6600e6f-a7ec-4f57-b9b6-28a07f6b666e","system_id":"levelo_inurba_marseille","lat":43.24393,"lon":5.37054,"is_reserved":false,"is_disabled":false,"rental_uris":{"android":"levelo://app?vid=d6600e6f-a7ec-4f57-b9b6-28a07f6b666e","ios":"levelo://app?vid=d6600e6f-a7ec-4f57-b9b6-28a07f6b666e"},"vehicle_type_id":"4","last_reported":1740651033,"current_range_meters":11600,"station_id":"ce4bhhh2rcd13ifvqfk0","pricing_plan_id":"cebpf4jnsgd1na2vs0mg"},{"bike_id":"d46ceb86-c9b9-4e32-a73b-5c57ba0e92e9","system_id":"levelo_inurba_marseille","lat":43.24073,"lon":5.37743,"is_reserved":false,"is_disabled":false,"rental_uris":{"android":"levelo://app?vid=d46ceb86-c9b9-4e32-a73b-5c57ba0e92e9","ios":"levelo://app?vid=d46ceb86-c9b9-4e32-a73b-5c57ba0e92e9"},"vehicle_type_id":"4","last_reported":1740651033,"current_range_meters":11600,"station_id":"ce4bhnp2rcd13ifvqgvg","pricing_plan_id":"cebpf4jnsgd1na2vs0mg"},{"bike_id":"cad6f757-1c5d-4533-aa5b-f245a029ce60","system_id":"levelo_inurba_marseille","lat":43.31711,"lon":5.43702,"is_reserved":false,"is_disabled":false,"rental_uris":{"android":"levelo://app?vid=cad6f757-1c5d-4533-aa5b-f245a029ce60","ios":"levelo://app?vid=cad6f757-1c5d-4533-aa5b-f245a029ce60"},"vehicle_type_id":"4","last_reported":1740651033,"current_range_meters":11600,"station_id":"ce4bhp92rcd13ifvqhcg","pricing_plan_id":"cebpf4jnsgd1na2vs0mg"},{"bike_id":"dc1deb5f-be60-47dd-a397-2458bf714b12","system_id":"levelo_inurba_marseille","lat":43.23066,"lon":5.35492,"is_reserved":false,"is_disabled":false,"rental_uris":{"android":"levelo://app?vid=dc1deb5f-be60-47dd-a397-2458bf714b12","ios":"levelo://app?vid=dc1deb5f-be60-47dd-a397-2458bf714b12"},"vehicle_type_id":"4","last_reported":1740651033,"current_range_meters":11600,"station_id":"cpo3342slgdg3j2ifvpg","pricing_plan_id":"cebpf4jnsgd1na2vs0mg"},{"bike_id":"8cd4163b-4696-4401-87e0-c08487ec9e6d","system_id":"levelo_inurba_marseille","lat":43.29625,"lon":5.37172,"is_reserved":false,"is_disabled":false,"rental_uris":{"android":"levelo://app?vid=8cd4163b-4696-4401-87e0-c08487ec9e6d","ios":"levelo://app?vid=8cd4163b-4696-4401-87e0-c08487ec9e6d"},"vehicle_type_id":"4","last_reported":1740651033,"current_range_meters":12000,"station_id":"ce4bgnh2rcd13ifvqc0g","pricing_plan_id":"cebpf4jnsgd1na2vs0mg"},{"bike_id":"7ba56adb-fef1-4fb4-94ed-3de8114f6441","system_id":"levelo_inurba_marseille","lat":43.31365,"lon":5.36693,"is_reserved":false,"is_disabled":false,"rental_uris":{"android":"levelo://app?vid=7ba56adb-fef1-4fb4-94ed-3de8114f6441","ios":"levelo://app?vid=7ba56adb-fef1-4fb4-94ed-3de8114f6441"},"vehicle_type_id":"4","last_reported":1740651033,"current_range_meters":12000,"station_id":"ce4bgr92rcd13ifvqc6g","pricing_plan_id":"cebpf4jnsgd1na2vs0mg"},{"bike_id":"98e7c7ab-46e7-461f-a818-c50c68db0041","system_id":"levelo_inurba_marseille","lat":43.30946,"lon":5.39029,"is_reserved":false,"is_disabled":false,"rental_uris":{"android":"levelo://app?vid=98e7c7ab-46e7-461f-a818-c50c68db0041","ios":"levelo://app?vid=98e7c7ab-46e7-461f-a818-c50c68db0041"},"vehicle_type_id":"4","last_reported":1740651033,"current_range_meters":12000,"station_id":"ce4bgup2rcd13ifvqco0","pricing_plan_id":"cebpf4jnsgd1na2vs0mg"},{"bike_id":"f9364cab-7851-4711-aa90-7b8a85c15ef6","system_id":"levelo_inurba_marseille","lat":43.30953,"lon":5.39036,"is_reserved":false,"is_disabled":false,"rental_uris":{"android":"levelo://app?vid=f9364cab-7851-4711-aa90-7b8a85c15ef6","ios":"levelo://app?vid=f9364cab-7851-4711-aa90-7b8a85c15ef6"},"vehicle_type_id":"4","last_reported":1740651033,"current_range_meters":12400,"station_id":"ce4bgup2rcd13ifvqco0","pricing_plan_id":"cebpf4jnsgd1na2vs0mg"},{"bike_id":"574a9002-9895-49da-baac-459cbf1a4d4b","system_id":"levelo_inurba_marseille","lat":43.231528,"lon":5.437253,"is_reserved":false,"is_disabled":false,"rental_uris":{"android":"levelo://app?vid=574a9002-9895-49da-baac-459cbf1a4d4b","ios":"levelo://app?vid=574a9002-9895-49da-baac-459cbf1a4d4b"},"vehicle_type_id":"4","last_reported":1740651033,"current_range_meters":12400,"station_id":"ce4bhmp2rcd13ifvqgog","pricing_plan_id":"cebpf4jnsgd1na2vs0mg"},{"bike_id":"9c05c137-ce73-4888-83ec-51c9674942d3","system_id":"levelo_inurba_marseille","lat":43.31355,"lon":5.36717,"is_reserved":false,"is_disabled":false,"rental_uris":{"android":"levelo://app?vid=9c05c137-ce73-4888-83ec-51c9674942d3","ios":"levelo://app?vid=9c05c137-ce73-4888-83ec-51c9674942d3"},"vehicle_type_id":"4","last_reported":1740651033,"current_range_meters":12800,"station_id":"ce4bgr92rcd13ifvqc6g","pricing_plan_id":"cebpf4jnsgd1na2vs0mg"},{"bike_id":"53c97519-31f9-4538-b031-fd7d8c97dfd2","system_id":"levelo_inurba_marseille","lat":43.31357,"lon":5.38511,"is_reserved":false,"is_disabled":false,"rental_uris":{"android":"levelo://app?vid=53c97519-31f9-4538-b031-fd7d8c97dfd2","ios":"levelo://app?vid=53c97519-31f9-4538-b031-fd7d8c97dfd2"},"vehicle_type_id":"4","last_reported":1740651033,"current_range_meters":12800,"station_id":"ce4bgt92rcd13ifvqcf0","pricing_plan_id":"cebpf4jnsgd1na2vs0mg"},{"bike_id":"da6e468d-8e2a-419e-bd5c-9c6e81ad0c75","system_id":"levelo_inurba_marseille","lat":43.2989,"lon":5.38909,"is_reserved":false,"is_disabled":false,"rental_uris":{"android":"levelo://app?vid=da6e468d-8e2a-419e-bd5c-9c6e81ad0c75","ios":"levelo://app?vid=da6e468d-8e2a-419e-bd5c-9c6e81ad0c75"},"vehicle_type_id":"4","last_reported":1740651033,"current_range_meters":12800,"station_id":"ce4bh392rcd13ifvqdl0","pricing_plan_id":"cebpf4jnsgd1na2vs0mg"},{"bike_id":"59ee61a2-a71b-4362-acc5-4789299e013e","system_id":"levelo_inurba_marseille","lat":43.3014,"lon":5.37413,"is_reserved":false,"is_disabled":false,"rental_uris":{"android":"levelo://app?vid=59ee61a2-a71b-4362-acc5-4789299e013e","ios":"levelo://app?vid=59ee61a2-a71b-4362-acc5-4789299e013e"},"vehicle_type_id":"4","last_reported":1740651033,"current_range_meters":13600,"station_id":"ce4bgs92rcd13ifvqcc0","pricing_plan_id":"cebpf4jnsgd1na2vs0mg"},{"bike_id":"a2c1fdb5-0e44-4886-bd09-1c70cc3b8741","system_id":"levelo_inurba_marseille","lat":43.29898,"lon":5.39748,"is_reserved":false,"is_disabled":false,"rental_uris":{"android":"levelo://app?vid=a2c1fdb5-0e44-4886-bd09-1c70cc3b8741","ios":"levelo://app?vid=a2c1fdb5-0e44-4886-bd09-1c70cc3b8741"},"vehicle_type_id":"4","last_reported":1740651033,"current_range_meters":13600,"station_id":"ce4bh0h2rcd13ifvqd50","pricing_plan_id":"cebpf4jnsgd1na2vs0mg"},{"bike_id":"616f17bb-03dd-490d-9a43-974e1809b97b","system_id":"levelo_inurba_marseille","lat":43.28346,"lon":5.38108,"is_reserved":false,"is_disabled":false,"rental_uris":{"android":"levelo://app?vid=616f17bb-03dd-490d-9a43-974e1809b97b","ios":"levelo://app?vid=616f17bb-03dd-490d-9a43-974e1809b97b"},"vehicle_type_id":"4","last_reported":1740651033,"current_range_meters":13600,"station_id":"ce4bh412rcd13ifvqdr0","pricing_plan_id":"cebpf4jnsgd1na2vs0mg"},{"bike_id":"914e4567-1169-42f3-be7e-93619cd0098d","system_id":"levelo_inurba_marseille","lat":43.27217,"lon":5.39183,"is_reserved":false,"is_disabled":false,"rental_uris":{"android":"levelo://app?vid=914e4567-1169-42f3-be7e-93619cd0098d","ios":"levelo://app?vid=914e4567-1169-42f3-be7e-93619cd0098d"},"vehicle_type_id":"4","last_reported":1740651033,"current_range_meters":13600,"station_id":"ce4bhhp2rcd13ifvqfm0","pricing_plan_id":"cebpf4jnsgd1na2vs0mg"},{"bike_id":"92ed2cac-ba42-4889-9387-77967c3eeb72","system_id":"levelo_inurba_marseille","lat":43.31363,"lon":5.38494,"is_reserved":false,"is_disabled":false,"rental_uris":{"android":"levelo://app?vid=92ed2cac-ba42-4889-9387-77967c3eeb72","ios":"levelo://app?vid=92ed2cac-ba42-4889-9387-77967c3eeb72"},"vehicle_type_id":"4","last_reported":1740651033,"current_range_meters":14000,"station_id":"ce4bgt92rcd13ifvqcf0","pricing_plan_id":"cebpf4jnsgd1na2vs0mg"},{"bike_id":"cdc21177-0942-4c5b-a1dc-b82b13b9f8d6","system_id":"levelo_inurba_marseille","lat":43.308872,"lon":5.371958,"is_reserved":false,"is_disabled":false,"rental_uris":{"android":"levelo://app?vid=cdc21177-0942-4c5b-a1dc-b82b13b9f8d6","ios":"levelo://app?vid=cdc21177-0942-4c5b-a1dc-b82b13b9f8d6"},"vehicle_type_id":"4","last_reported":1740651033,"current_range_meters":14000,"station_id":"ce4bguh2rcd13ifvqckg","pricing_plan_id":"cebpf4jnsgd1na2vs0mg"},{"bike_id":"ec9a01e7-3bda-416a-ab20-ccd964b2685f","system_id":"levelo_inurba_marseille","lat":43.28708,"lon":5.37392,"is_reserved":false,"is_disabled":false,"rental_uris":{"android":"levelo://app?vid=ec9a01e7-3bda-416a-ab20-ccd964b2685f","ios":"levelo://app?vid=ec9a01e7-3bda-416a-ab20-ccd964b2685f"},"vehicle_type_id":"4","last_reported":1740651033,"current_range_meters":14000,"station_id":"ce4bh3p2rcd13ifvqdq0","pricing_plan_id":"cebpf4jnsgd1na2vs0mg"},{"bike_id":"fd5e8533-291d-4f54-84e6-000d68f89708","system_id":"levelo_inurba_marseille","lat":43.26217,"lon":5.37434,"is_reserved":false,"is_disabled":false,"rental_uris":{"android":"levelo://app?vid=fd5e8533-291d-4f54-84e6-000d68f89708","ios":"levelo://app?vid=fd5e8533-291d-4f54-84e6-000d68f89708"},"vehicle_type_id":"4","last_reported":1740651033,"current_range_meters":14000,"station_id":"ce4bhgp2rcd13ifvqfc0","pricing_plan_id":"cebpf4jnsgd1na2vs0mg"},{"bike_id":"1cae167f-4c13-44fa-a325-70190dc458be","system_id":"levelo_inurba_marseille","lat":43.26942,"lon":5.38661,"is_reserved":false,"is_disabled":false,"rental_uris":{"android":"levelo://app?vid=1cae167f-4c13-44fa-a325-70190dc458be","ios":"levelo://app?vid=1cae167f-4c13-44fa-a325-70190dc458be"},"vehicle_type_id":"4","last_reported":1740651033,"current_range_meters":14000,"station_id":"ce4bhh92rcd13ifvqfh0","pricing_plan_id":"cebpf4jnsgd1na2vs0mg"},{"bike_id":"8a7e280a-b445-4575-91e7-4d186d34db98","system_id":"levelo_inurba_marseille","lat":43.27561,"lon":5.38414,"is_reserved":false,"is_disabled":false,"rental_uris":{"android":"levelo://app?vid=8a7e280a-b445-4575-91e7-4d186d34db98","ios":"levelo://app?vid=8a7e280a-b445-4575-91e7-4d186d34db98"},"vehicle_type_id":"4","last_reported":1740651033,"current_range_meters":14000,"station_id":"ce4bhh92rcd13ifvqfi0","pricing_plan_id":"cebpf4jnsgd1na2vs0mg"},{"bike_id":"3648d549-1aa7-44d1-bde4-30bac4ece65c","system_id":"levelo_inurba_marseille","lat":43.25583,"lon":5.38246,"is_reserved":false,"is_disabled":false,"rental_uris":{"android":"levelo://app?vid=3648d549-1aa7-44d1-bde4-30bac4ece65c","ios":"levelo://app?vid=3648d549-1aa7-44d1-bde4-30bac4ece65c"},"vehicle_type_id":"4","last_reported":1740651033,"current_range_meters":14000,"station_id":"ce4bhih2rcd13ifvqfs0","pricing_plan_id":"cebpf4jnsgd1na2vs0mg"},{"bike_id":"20ac0122-8fc7-48a7-9ece-d0eae822fe83","system_id":"levelo_inurba_marseille","lat":43.23206,"lon":5.35556,"is_reserved":false,"is_disabled":false,"rental_uris":{"android":"levelo://app?vid=20ac0122-8fc7-48a7-9ece-d0eae822fe83","ios":"levelo://app?vid=20ac0122-8fc7-48a7-9ece-d0eae822fe83"},"vehicle_type_id":"4","last_reported":1740651033,"current_range_meters":14000,"station_id":"ce4bhu92rcd13ifvqi70","pricing_plan_id":"cebpf4jnsgd1na2vs0mg"},{"bike_id":"21f159ba-056f-47e1-ae4a-4cb0523b0ecd","system_id":"levelo_inurba_marseille","lat":43.28724,"lon":5.3794,"is_reserved":false,"is_disabled":false,"rental_uris":{"android":"levelo://app?vid=21f159ba-056f-47e1-ae4a-4cb0523b0ecd","ios":"levelo://app?vid=21f159ba-056f-47e1-ae4a-4cb0523b0ecd"},"vehicle_type_id":"4","last_reported":1740651033,"current_range_meters":14400,"station_id":"ce4bh9p2rcd13ifvqec0","pricing_plan_id":"cebpf4jnsgd1na2vs0mg"},{"bike_id":"78ef865e-3c4c-44af-ae53-b3a16b5b62fe","system_id":"levelo_inurba_marseille","lat":43.26956,"lon":5.38615,"is_reserved":false,"is_disabled":false,"rental_uris":{"android":"levelo://app?vid=78ef865e-3c4c-44af-ae53-b3a16b5b62fe","ios":"levelo://app?vid=78ef865e-3c4c-44af-ae53-b3a16b5b62fe"},"vehicle_type_id":"4","last_reported":1740651033,"current_range_meters":14400,"station_id":"ce4bhh92rcd13ifvqfh0","pricing_plan_id":"cebpf4jnsgd1na2vs0mg"},{"bike_id":"c9a46336-8808-467e-8593-79b169fe9875","system_id":"levelo_inurba_marseille","lat":43.231545,"lon":5.437289,"is_reserved":false,"is_disabled":false,"rental_uris":{"android":"levelo://app?vid=c9a46336-8808-467e-8593-79b169fe9875","ios":"levelo://app?vid=c9a46336-8808-467e-8593-79b169fe9875"},"vehicle_type_id":"4","last_reported":1740651033,"current_range_meters":14400,"station_id":"ce4bhmp2rcd13ifvqgog","pricing_plan_id":"cebpf4jnsgd1na2vs0mg"},{"bike_id":"5925fc9d-0217-43db-be70-d313f2b8e15c","system_id":"levelo_inurba_marseille","lat":43.28156,"lon":5.42662,"is_reserved":false,"is_disabled":false,"rental_uris":{"android":"levelo://app?vid=5925fc9d-0217-43db-be70-d313f2b8e15c","ios":"levelo://app?vid=5925fc9d-0217-43db-be70-d313f2b8e15c"},"vehicle_type_id":"4","last_reported":1740651033,"current_range_meters":14400,"station_id":"ce4bhnh2rcd13ifvqgug","pricing_plan_id":"cebpf4jnsgd1na2vs0mg"},{"bike_id":"3de9aeda-1f9a-4bbc-8b90-e02a49e56ca9","system_id":"levelo_inurba_marseille","lat":43.23207,"lon":5.35563,"is_reserved":false,"is_disabled":false,"rental_uris":{"android":"levelo://app?vid=3de9aeda-1f9a-4bbc-8b90-e02a49e56ca9","ios":"levelo://app?vid=3de9aeda-1f9a-4bbc-8b90-e02a49e56ca9"},"vehicle_type_id":"4","last_reported":1740651033,"current_range_meters":14400,"station_id":"ce4bhu92rcd13ifvqi70","pricing_plan_id":"cebpf4jnsgd1na2vs0mg"},{"bike_id":"f2652af0-7f89-4f32-835a-da4ab8b102ce","system_id":"levelo_inurba_marseille","lat":43.28387,"lon":5.34979,"is_reserved":false,"is_disabled":false,"rental_uris":{"android":"levelo://app?vid=f2652af0-7f89-4f32-835a-da4ab8b102ce","ios":"levelo://app?vid=f2652af0-7f89-4f32-835a-da4ab8b102ce"},"vehicle_type_id":"4","last_reported":1740651033,"current_range_meters":14800,"station_id":"ce4bhbh2rcd13ifvqepg","pricing_plan_id":"cebpf4jnsgd1na2vs0mg"},{"bike_id":"40e25f70-02b5-4811-add6-6e8dbc26a035","system_id":"levelo_inurba_marseille","lat":43.28412,"lon":5.34987,"is_reserved":false,"is_disabled":false,"rental_uris":{"android":"levelo://app?vid=40e25f70-02b5-4811-add6-6e8dbc26a035","ios":"levelo://app?vid=40e25f70-02b5-4811-add6-6e8dbc26a035"},"vehicle_type_id":"4","last_reported":1740651033,"current_range_meters":14800,"station_id":"ce4bhbh2rcd13ifvqepg","pricing_plan_id":"cebpf4jnsgd1na2vs0mg"},{"bike_id":"a05f0b98-a92c-4bff-8a2e-dc25e96a6b19","system_id":"levelo_inurba_marseille","lat":43.28632,"lon":5.35106,"is_reserved":false,"is_disabled":false,"rental_uris":{"android":"levelo://app?vid=a05f0b98-a92c-4bff-8a2e-dc25e96a6b19","ios":"levelo://app?vid=a05f0b98-a92c-4bff-8a2e-dc25e96a6b19"},"vehicle_type_id":"4","last_reported":1740651033,"current_range_meters":14800,"station_id":"ce4bhch2rcd13ifvqeug","pricing_plan_id":"cebpf4jnsgd1na2vs0mg"},{"bike_id":"569fc449-755e-4cde-aa2d-1c429896d096","system_id":"levelo_inurba_marseille","lat":43.28004,"lon":5.41664,"is_reserved":false,"is_disabled":false,"rental_uris":{"android":"levelo://app?vid=569fc449-755e-4cde-aa2d-1c429896d096","ios":"levelo://app?vid=569fc449-755e-4cde-aa2d-1c429896d096"},"vehicle_type_id":"4","last_reported":1740651033,"current_range_meters":14800,"station_id":"ce4bho12rcd13ifvqh1g","pricing_plan_id":"cebpf4jnsgd1na2vs0mg"},{"bike_id":"2837d85d-02af-49af-900a-3b751e6ef0d6","system_id":"levelo_inurba_marseille","lat":43.32109,"lon":5.36765,"is_reserved":false,"is_disabled":false,"rental_uris":{"android":"levelo://app?vid=2837d85d-02af-49af-900a-3b751e6ef0d6","ios":"levelo://app?vid=2837d85d-02af-49af-900a-3b751e6ef0d6"},"vehicle_type_id":"4","last_reported":1740651033,"current_range_meters":14800,"station_id":"ce4bhrh2rcd13ifvqhug","pricing_plan_id":"cebpf4jnsgd1na2vs0mg"},{"bike_id":"6bf62df5-9f2c-4676-be2e-3425368f3119","system_id":"levelo_inurba_marseille","lat":43.2932,"lon":5.3825,"is_reserved":false,"is_disabled":false,"rental_uris":{"android":"levelo://app?vid=6bf62df5-9f2c-4676-be2e-3425368f3119","ios":"levelo://app?vid=6bf62df5-9f2c-4676-be2e-3425368f3119"},"vehicle_type_id":"4","last_reported":1740651033,"current_range_meters":15200,"station_id":"","pricing_plan_id":"cebpf4jnsgd1na2vs0mg"},{"bike_id":"d87a4773-6328-43f6-871f-76210bb4e613","system_id":"levelo_inurba_marseille","lat":43.31486,"lon":5.37302,"is_reserved":false,"is_disabled":false,"rental_uris":{"android":"levelo://app?vid=d87a4773-6328-43f6-871f-76210bb4e613","ios":"levelo://app?vid=d87a4773-6328-43f6-871f-76210bb4e613"},"vehicle_type_id":"4","last_reported":1740651033,"current_range_meters":15200,"station_id":"ce4bgt12rcd13ifvqcd0","pricing_plan_id":"cebpf4jnsgd1na2vs0mg"},{"bike_id":"5584871a-aab4-47d5-82f9-4f5554ea59e0","system_id":"levelo_inurba_marseille","lat":43.30466,"lon":5.37907,"is_reserved":false,"is_disabled":false,"rental_uris":{"android":"levelo://app?vid=5584871a-aab4-47d5-82f9-4f5554ea59e0","ios":"levelo://app?vid=5584871a-aab4-47d5-82f9-4f5554ea59e0"},"vehicle_type_id":"4","last_reported":1740651033,"current_range_meters":15200,"station_id":"ce4bgup2rcd13ifvqcn0","pricing_plan_id":"cebpf4jnsgd1na2vs0mg"},{"bike_id":"012894c5-486f-4c73-9944-f70d3875b389","system_id":"levelo_inurba_marseille","lat":43.28475,"lon":5.38428,"is_reserved":false,"is_disabled":false,"rental_uris":{"android":"levelo://app?vid=012894c5-486f-4c73-9944-f70d3875b389","ios":"levelo://app?vid=012894c5-486f-4c73-9944-f70d3875b389"},"vehicle_type_id":"4","last_reported":1740651033,"current_range_meters":15200,"station_id":"ce4bh512rcd13ifvqe3g","pricing_plan_id":"cebpf4jnsgd1na2vs0mg"},{"bike_id":"201b43e1-9166-4b93-9ecb-211bb1985890","system_id":"levelo_inurba_marseille","lat":43.32358,"lon":5.36734,"is_reserved":false,"is_disabled":false,"rental_uris":{"android":"levelo://app?vid=201b43e1-9166-4b93-9ecb-211bb1985890","ios":"levelo://app?vid=201b43e1-9166-4b93-9ecb-211bb1985890"},"vehicle_type_id":"4","last_reported":1740651033,"current_range_meters":15200,"station_id":"ce4bhsh2rcd13ifvqi2g","pricing_plan_id":"cebpf4jnsgd1na2vs0mg"},{"bike_id":"101aef62-671b-4222-a340-fec1b7696ff3","system_id":"levelo_inurba_marseille","lat":43.31213,"lon":5.36863,"is_reserved":false,"is_disabled":false,"rental_uris":{"android":"levelo://app?vid=101aef62-671b-4222-a340-fec1b7696ff3","ios":"levelo://app?vid=101aef62-671b-4222-a340-fec1b7696ff3"},"vehicle_type_id":"4","last_reported":1740651033,"current_range_meters":16000,"station_id":"ce4bgl92rcd13ifvqbq0","pricing_plan_id":"cebpf4jnsgd1na2vs0mg"},{"bike_id":"147c1e0c-179e-4819-bdd5-a5fcd77e0d82","system_id":"levelo_inurba_marseille","lat":43.29619,"lon":5.37174,"is_reserved":false,"is_disabled":false,"rental_uris":{"android":"levelo://app?vid=147c1e0c-179e-4819-bdd5-a5fcd77e0d82","ios":"levelo://app?vid=147c1e0c-179e-4819-bdd5-a5fcd77e0d82"},"vehicle_type_id":"4","last_reported":1740651033,"current_range_meters":16000,"station_id":"ce4bgnh2rcd13ifvqc0g","pricing_plan_id":"cebpf4jnsgd1na2vs0mg"},{"bike_id":"af1ddcad-43e7-43b3-af98-bb940c88b0c3","system_id":"levelo_inurba_marseille","lat":43.3096,"lon":5.39071,"is_reserved":false,"is_disabled":false,"rental_uris":{"android":"levelo://app?vid=af1ddcad-43e7-43b3-af98-bb940c88b0c3","ios":"levelo://app?vid=af1ddcad-43e7-43b3-af98-bb940c88b0c3"},"vehicle_type_id":"4","last_reported":1740651033,"current_range_meters":16000,"station_id":"ce4bgup2rcd13ifvqco0","pricing_plan_id":"cebpf4jnsgd1na2vs0mg"},{"bike_id":"9ec5b430-86b6-4ddf-a15c-2fee42698c34","system_id":"levelo_inurba_marseille","lat":43.28428,"lon":5.34985,"is_reserved":false,"is_disabled":false,"rental_uris":{"android":"levelo://app?vid=9ec5b430-86b6-4ddf-a15c-2fee42698c34","ios":"levelo://app?vid=9ec5b430-86b6-4ddf-a15c-2fee42698c34"},"vehicle_type_id":"4","last_reported":1740651033,"current_range_meters":16000,"station_id":"ce4bhbh2rcd13ifvqepg","pricing_plan_id":"cebpf4jnsgd1na2vs0mg"},{"bike_id":"633f6dd3-6222-4bf4-a284-3def45510bd9","system_id":"levelo_inurba_marseille","lat":43.26566,"lon":5.39011,"is_reserved":false,"is_disabled":false,"rental_uris":{"android":"levelo://app?vid=633f6dd3-6222-4bf4-a284-3def45510bd9","ios":"levelo://app?vid=633f6dd3-6222-4bf4-a284-3def45510bd9"},"vehicle_type_id":"4","last_reported":1740651033,"current_range_meters":16000,"station_id":"ce4bhe12rcd13ifvqf30","pricing_plan_id":"cebpf4jnsgd1na2vs0mg"},{"bike_id":"31c58e5d-9342-432b-b32a-4dfcdf1667fa","system_id":"levelo_inurba_marseille","lat":43.24403,"lon":5.3705,"is_reserved":false,"is_disabled":false,"rental_uris":{"android":"levelo://app?vid=31c58e5d-9342-432b-b32a-4dfcdf1667fa","ios":"levelo://app?vid=31c58e5d-9342-432b-b32a-4dfcdf1667fa"},"vehicle_type_id":"4","last_reported":1740651033,"current_range_meters":16000,"station_id":"ce4bhhh2rcd13ifvqfk0","pricing_plan_id":"cebpf4jnsgd1na2vs0mg"},{"bike_id":"7b938360-270f-4c42-adad-7d042b87fd03","system_id":"levelo_inurba_marseille","lat":43.24663,"lon":5.38161,"is_reserved":false,"is_disabled":false,"rental_uris":{"android":"levelo://app?vid=7b938360-270f-4c42-adad-7d042b87fd03","ios":"levelo://app?vid=7b938360-270f-4c42-adad-7d042b87fd03"},"vehicle_type_id":"4","last_reported":1740651033,"current_range_meters":16000,"station_id":"ce4bhih2rcd13ifvqfr0","pricing_plan_id":"cebpf4jnsgd1na2vs0mg"},{"bike_id":"568fa380-d93e-4e0b-b2fe-6c301ae324a5","system_id":"levelo_inurba_marseille","lat":43.23155,"lon":5.43713,"is_reserved":false,"is_disabled":false,"rental_uris":{"android":"levelo://app?vid=568fa380-d93e-4e0b-b2fe-6c301ae324a5","ios":"levelo://app?vid=568fa380-d93e-4e0b-b2fe-6c301ae324a5"},"vehicle_type_id":"4","last_reported":1740651033,"current_range_meters":16000,"station_id":"ce4bhmp2rcd13ifvqgog","pricing_plan_id":"cebpf4jnsgd1na2vs0mg"},{"bike_id":"49d9c840-4a20-44e0-be75-b6373dea4413","system_id":"levelo_inurba_marseille","lat":43.31708,"lon":5.43709,"is_reserved":false,"is_disabled":false,"rental_uris":{"android":"levelo://app?vid=49d9c840-4a20-44e0-be75-b6373dea4413","ios":"levelo://app?vid=49d9c840-4a20-44e0-be75-b6373dea4413"},"vehicle_type_id":"4","last_reported":1740651033,"current_range_meters":16000,"station_id":"ce4bhp92rcd13ifvqhcg","pricing_plan_id":"cebpf4jnsgd1na2vs0mg"},{"bike_id":"d337cc62-b29d-4e4a-bd4f-e767bd643d41","system_id":"levelo_inurba_marseille","lat":43.32141,"lon":5.36761,"is_reserved":false,"is_disabled":false,"rental_uris":{"android":"levelo://app?vid=d337cc62-b29d-4e4a-bd4f-e767bd643d41","ios":"levelo://app?vid=d337cc62-b29d-4e4a-bd4f-e767bd643d41"},"vehicle_type_id":"4","last_reported":1740651033,"current_range_meters":16000,"station_id":"ce4bhrh2rcd13ifvqhug","pricing_plan_id":"cebpf4jnsgd1na2vs0mg"},{"bike_id":"ef77bf7f-5b88-41c9-8d3b-c8c9c0447dd9","system_id":"levelo_inurba_marseille","lat":43.28065,"lon":5.35035,"is_reserved":false,"is_disabled":false,"rental_uris":{"android":"levelo://app?vid=ef77bf7f-5b88-41c9-8d3b-c8c9c0447dd9","ios":"levelo://app?vid=ef77bf7f-5b88-41c9-8d3b-c8c9c0447dd9"},"vehicle_type_id":"4","last_reported":1740651033,"current_range_meters":16400,"station_id":"","pricing_plan_id":"cebpf4jnsgd1na2vs0mg"},{"bike_id":"1f09e08f-2e31-492a-acb6-5542f0406595","system_id":"levelo_inurba_marseille","lat":43.30954,"lon":5.3904,"is_reserved":false,"is_disabled":false,"rental_uris":{"android":"levelo://app?vid=1f09e08f-2e31-492a-acb6-5542f0406595","ios":"levelo://app?vid=1f09e08f-2e31-492a-acb6-5542f0406595"},"vehicle_type_id":"4","last_reported":1740651033,"current_range_meters":16400,"station_id":"ce4bgup2rcd13ifvqco0","pricing_plan_id":"cebpf4jnsgd1na2vs0mg"},{"bike_id":"ea19bd28-3a5e-47c4-bafe-0e45c94f7cce","system_id":"levelo_inurba_marseille","lat":43.28105,"lon":5.37846,"is_reserved":false,"is_disabled":false,"rental_uris":{"android":"levelo://app?vid=ea19bd28-3a5e-47c4-bafe-0e45c94f7cce","ios":"levelo://app?vid=ea19bd28-3a5e-47c4-bafe-0e45c94f7cce"},"vehicle_type_id":"4","last_reported":1740651033,"current_range_meters":16400,"station_id":"ce4bha12rcd13ifvqee0","pricing_plan_id":"cebpf4jnsgd1na2vs0mg"},{"bike_id":"d4918d6a-5525-4be8-b0c4-7af64b54343d","system_id":"levelo_inurba_marseille","lat":43.24168,"lon":5.36441,"is_reserved":false,"is_disabled":false,"rental_uris":{"android":"levelo://app?vid=d4918d6a-5525-4be8-b0c4-7af64b54343d","ios":"levelo://app?vid=d4918d6a-5525-4be8-b0c4-7af64b54343d"},"vehicle_type_id":"4","last_reported":1740651033,"current_range_meters":16400,"station_id":"cpo36qri1sfpv3e86is0","pricing_plan_id":"cebpf4jnsgd1na2vs0mg"},{"bike_id":"7cf7b894-d393-4f1a-903c-6b57f99cdc54","system_id":"levelo_inurba_marseille","lat":43.26404,"lon":5.38446,"is_reserved":false,"is_disabled":false,"rental_uris":{"android":"levelo://app?vid=7cf7b894-d393-4f1a-903c-6b57f99cdc54","ios":"levelo://app?vid=7cf7b894-d393-4f1a-903c-6b57f99cdc54"},"vehicle_type_id":"4","last_reported":1740651033,"current_range_meters":16800,"station_id":"","pricing_plan_id":"cebpf4jnsgd1na2vs0mg"},{"bike_id":"465a0a6b-0db4-433d-99b6-d802d22c49c2","system_id":"levelo_inurba_marseille","lat":43.29711,"lon":5.37695,"is_reserved":false,"is_disabled":false,"rental_uris":{"android":"levelo://app?vid=465a0a6b-0db4-433d-99b6-d802d22c49c2","ios":"levelo://app?vid=465a0a6b-0db4-433d-99b6-d802d22c49c2"},"vehicle_type_id":"4","last_reported":1740651033,"current_range_meters":16800,"station_id":"","pricing_plan_id":"cebpf4jnsgd1na2vs0mg"},{"bike_id":"329f528d-a4d1-431c-927d-b71b368146af","system_id":"levelo_inurba_marseille","lat":43.29907,"lon":5.37469,"is_reserved":false,"is_disabled":false,"rental_uris":{"android":"levelo://app?vid=329f528d-a4d1-431c-927d-b71b368146af","ios":"levelo://app?vid=329f528d-a4d1-431c-927d-b71b368146af"},"vehicle_type_id":"4","last_reported":1740651033,"current_range_meters":16800,"station_id":"ce4bgjh2rcd13ifvqbg0","pricing_plan_id":"cebpf4jnsgd1na2vs0mg"},{"bike_id":"322b4ad3-46bf-4b03-9f85-72dc136cdb3a","system_id":"levelo_inurba_marseille","lat":43.31232,"lon":5.36872,"is_reserved":false,"is_disabled":false,"rental_uris":{"android":"levelo://app?vid=322b4ad3-46bf-4b03-9f85-72dc136cdb3a","ios":"levelo://app?vid=322b4ad3-46bf-4b03-9f85-72dc136cdb3a"},"vehicle_type_id":"4","last_reported":1740651033,"current_range_meters":16800,"station_id":"ce4bgl92rcd13ifvqbq0","pricing_plan_id":"cebpf4jnsgd1na2vs0mg"},{"bike_id":"f8d94334-b5af-41e5-9e37-b48b1bc135ec","system_id":"levelo_inurba_marseille","lat":43.30329,"lon":5.36894,"is_reserved":false,"is_disabled":false,"rental_uris":{"android":"levelo://app?vid=f8d94334-b5af-41e5-9e37-b48b1bc135ec","ios":"levelo://app?vid=f8d94334-b5af-41e5-9e37-b48b1bc135ec"},"vehicle_type_id":"4","last_reported":1740651033,"current_range_meters":16800,"station_id":"ce4bgqh2rcd13ifvqc5g","pricing_plan_id":"cebpf4jnsgd1na2vs0mg"},{"bike_id":"db969468-b380-4e55-a026-273e3aaa7506","system_id":"levelo_inurba_marseille","lat":43.31353,"lon":5.36688,"is_reserved":false,"is_disabled":false,"rental_uris":{"android":"levelo://app?vid=db969468-b380-4e55-a026-273e3aaa7506","ios":"levelo://app?vid=db969468-b380-4e55-a026-273e3aaa7506"},"vehicle_type_id":"4","last_reported":1740651033,"current_range_meters":16800,"station_id":"ce4bgr92rcd13ifvqc6g","pricing_plan_id":"cebpf4jnsgd1na2vs0mg"},{"bike_id":"4c0d75b3-2f2f-43b3-baef-581da01c628e","system_id":"levelo_inurba_marseille","lat":43.30183,"lon":5.36608,"is_reserved":false,"is_disabled":false,"rental_uris":{"android":"levelo://app?vid=4c0d75b3-2f2f-43b3-baef-581da01c628e","ios":"levelo://app?vid=4c0d75b3-2f2f-43b3-baef-581da01c628e"},"vehicle_type_id":"4","last_reported":1740651033,"current_range_meters":16800,"station_id":"ce4bgrh2rcd13ifvqc8g","pricing_plan_id":"cebpf4jnsgd1na2vs0mg"},{"bike_id":"8f42ed0a-55b0-4ea3-940b-b9461e3276fa","system_id":"levelo_inurba_marseille","lat":43.30562,"lon":5.36688,"is_reserved":false,"is_disabled":false,"rental_uris":{"android":"levelo://app?vid=8f42ed0a-55b0-4ea3-940b-b9461e3276fa","ios":"levelo://app?vid=8f42ed0a-55b0-4ea3-940b-b9461e3276fa"},"vehicle_type_id":"4","last_reported":1740651033,"current_range_meters":16800,"station_id":"ce4bgrp2rcd13ifvqc9g","pricing_plan_id":"cebpf4jnsgd1na2vs0mg"},{"bike_id":"0f8badab-ac24-4fc4-a1d1-28219d80f613","system_id":"levelo_inurba_marseille","lat":43.29229,"lon":5.36063,"is_reserved":false,"is_disabled":false,"rental_uris":{"android":"levelo://app?vid=0f8badab-ac24-4fc4-a1d1-28219d80f613","ios":"levelo://app?vid=0f8badab-ac24-4fc4-a1d1-28219d80f613"},"vehicle_type_id":"4","last_reported":1740651033,"current_range_meters":16800,"station_id":"ce4bhbh2rcd13ifvqeqg","pricing_plan_id":"cebpf4jnsgd1na2vs0mg"},{"bike_id":"304df838-b133-4174-bfb6-4755460cc02a","system_id":"levelo_inurba_marseille","lat":43.28622,"lon":5.35114,"is_reserved":false,"is_disabled":false,"rental_uris":{"android":"levelo://app?vid=304df838-b133-4174-bfb6-4755460cc02a","ios":"levelo://app?vid=304df838-b133-4174-bfb6-4755460cc02a"},"vehicle_type_id":"4","last_reported":1740651033,"current_range_meters":16800,"station_id":"ce4bhch2rcd13ifvqeug","pricing_plan_id":"cebpf4jnsgd1na2vs0mg"},{"bike_id":"fb70dea8-fe5e-4f29-a636-7a21a96df401","system_id":"levelo_inurba_marseille","lat":43.25586,"lon":5.38252,"is_reserved":false,"is_disabled":false,"rental_uris":{"android":"levelo://app?vid=fb70dea8-fe5e-4f29-a636-7a21a96df401","ios":"levelo://app?vid=fb70dea8-fe5e-4f29-a636-7a21a96df401"},"vehicle_type_id":"4","last_reported":1740651033,"current_range_meters":16800,"station_id":"ce4bhih2rcd13ifvqfs0","pricing_plan_id":"cebpf4jnsgd1na2vs0mg"},{"bike_id":"627f9d50-99ab-4386-b5d3-b08940f1d52a","system_id":"levelo_inurba_marseille","lat":43.25581,"lon":5.38253,"is_reserved":false,"is_disabled":false,"rental_uris":{"android":"levelo://app?vid=627f9d50-99ab-4386-b5d3-b08940f1d52a","ios":"levelo://app?vid=627f9d50-99ab-4386-b5d3-b08940f1d52a"},"vehicle_type_id":"4","last_reported":1740651033,"current_range_meters":16800,"station_id":"ce4bhih2rcd13ifvqfs0","pricing_plan_id":"cebpf4jnsgd1na2vs0mg"},{"bike_id":"775b4c4c-ad55-4b68-a005-d08c96ebdca8","system_id":"levelo_inurba_marseille","lat":43.24065,"lon":5.37768,"is_reserved":false,"is_disabled":false,"rental_uris":{"android":"levelo://app?vid=775b4c4c-ad55-4b68-a005-d08c96ebdca8","ios":"levelo://app?vid=775b4c4c-ad55-4b68-a005-d08c96ebdca8"},"vehicle_type_id":"4","last_reported":1740651033,"current_range_meters":16800,"station_id":"ce4bhnp2rcd13ifvqgvg","pricing_plan_id":"cebpf4jnsgd1na2vs0mg"},{"bike_id":"3f5e4c77-943b-4a46-b257-614bf13afec4","system_id":"levelo_inurba_marseille","lat":43.24172,"lon":5.36396,"is_reserved":false,"is_disabled":false,"rental_uris":{"android":"levelo://app?vid=3f5e4c77-943b-4a46-b257-614bf13afec4","ios":"levelo://app?vid=3f5e4c77-943b-4a46-b257-614bf13afec4"},"vehicle_type_id":"4","last_reported":1740651033,"current_range_meters":16800,"station_id":"cpo36qri1sfpv3e86is0","pricing_plan_id":"cebpf4jnsgd1na2vs0mg"},{"bike_id":"a2035f8a-71d6-4907-9d48-9df7f337d1f0","system_id":"levelo_inurba_marseille","lat":43.31374,"lon":5.36701,"is_reserved":false,"is_disabled":false,"rental_uris":{"android":"levelo://app?vid=a2035f8a-71d6-4907-9d48-9df7f337d1f0","ios":"levelo://app?vid=a2035f8a-71d6-4907-9d48-9df7f337d1f0"},"vehicle_type_id":"4","last_reported":1740651033,"current_range_meters":17200,"station_id":"ce4bgr92rcd13ifvqc6g","pricing_plan_id":"cebpf4jnsgd1na2vs0mg"},{"bike_id":"0844a524-fe27-4a49-aa65-2c2742fd552e","system_id":"levelo_inurba_marseille","lat":43.31359,"lon":5.36681,"is_reserved":false,"is_disabled":false,"rental_uris":{"android":"levelo://app?vid=0844a524-fe27-4a49-aa65-2c2742fd552e","ios":"levelo://app?vid=0844a524-fe27-4a49-aa65-2c2742fd552e"},"vehicle_type_id":"4","last_reported":1740651033,"current_range_meters":17200,"station_id":"ce4bgr92rcd13ifvqc6g","pricing_plan_id":"cebpf4jnsgd1na2vs0mg"},{"bike_id":"dba9b7ee-9351-47fe-912c-d1de73cd4763","system_id":"levelo_inurba_marseille","lat":43.30153,"lon":5.37414,"is_reserved":false,"is_disabled":false,"rental_uris":{"android":"levelo://app?vid=dba9b7ee-9351-47fe-912c-d1de73cd4763","ios":"levelo://app?vid=dba9b7ee-9351-47fe-912c-d1de73cd4763"},"vehicle_type_id":"4","last_reported":1740651033,"current_range_meters":17200,"station_id":"ce4bgs92rcd13ifvqcc0","pricing_plan_id":"cebpf4jnsgd1na2vs0mg"},{"bike_id":"8e100345-e773-4b5f-aa04-a4e55e7b32d1","system_id":"levelo_inurba_marseille","lat":43.31497,"lon":5.37312,"is_reserved":false,"is_disabled":false,"rental_uris":{"android":"levelo://app?vid=8e100345-e773-4b5f-aa04-a4e55e7b32d1","ios":"levelo://app?vid=8e100345-e773-4b5f-aa04-a4e55e7b32d1"},"vehicle_type_id":"4","last_reported":1740651033,"current_range_meters":17200,"station_id":"ce4bgt12rcd13ifvqcd0","pricing_plan_id":"cebpf4jnsgd1na2vs0mg"},{"bike_id":"c3b99a94-f646-4cee-813c-169f6b62ae5c","system_id":"levelo_inurba_marseille","lat":43.31686,"lon":5.40468,"is_reserved":false,"is_disabled":false,"rental_uris":{"android":"levelo://app?vid=c3b99a94-f646-4cee-813c-169f6b62ae5c","ios":"levelo://app?vid=c3b99a94-f646-4cee-813c-169f6b62ae5c"},"vehicle_type_id":"4","last_reported":1740651033,"current_range_meters":17200,"station_id":"ce4bh012rcd13ifvqd00","pricing_plan_id":"cebpf4jnsgd1na2vs0mg"},{"bike_id":"43d6aa6f-20c7-4a1b-bcb8-31b660876567","system_id":"levelo_inurba_marseille","lat":43.26557,"lon":5.37291,"is_reserved":false,"is_disabled":false,"rental_uris":{"android":"levelo://app?vid=43d6aa6f-20c7-4a1b-bcb8-31b660876567","ios":"levelo://app?vid=43d6aa6f-20c7-4a1b-bcb8-31b660876567"},"vehicle_type_id":"4","last_reported":1740651033,"current_range_meters":17200,"station_id":"ce4bhg12rcd13ifvqf70","pricing_plan_id":"cebpf4jnsgd1na2vs0mg"},{"bike_id":"0afd0a4a-88e1-47e1-aa5b-273707ab6c31","system_id":"levelo_inurba_marseille","lat":43.25933,"lon":5.40919,"is_reserved":false,"is_disabled":false,"rental_uris":{"android":"levelo://app?vid=0afd0a4a-88e1-47e1-aa5b-273707ab6c31","ios":"levelo://app?vid=0afd0a4a-88e1-47e1-aa5b-273707ab6c31"},"vehicle_type_id":"4","last_reported":1740651033,"current_range_meters":17200,"station_id":"ce4bhm92rcd13ifvqglg","pricing_plan_id":"cebpf4jnsgd1na2vs0mg"},{"bike_id":"4de3df94-923d-4f39-b3cf-6e34de3f925a","system_id":"levelo_inurba_marseille","lat":43.24083,"lon":5.37761,"is_reserved":false,"is_disabled":false,"rental_uris":{"android":"levelo://app?vid=4de3df94-923d-4f39-b3cf-6e34de3f925a","ios":"levelo://app?vid=4de3df94-923d-4f39-b3cf-6e34de3f925a"},"vehicle_type_id":"4","last_reported":1740651033,"current_range_meters":17200,"station_id":"ce4bhnp2rcd13ifvqgvg","pricing_plan_id":"cebpf4jnsgd1na2vs0mg"},{"bike_id":"a9da3dc9-ca2e-494e-9892-84cc0468751b","system_id":"levelo_inurba_marseille","lat":43.32483,"lon":5.36563,"is_reserved":false,"is_disabled":false,"rental_uris":{"android":"levelo://app?vid=a9da3dc9-ca2e-494e-9892-84cc0468751b","ios":"levelo://app?vid=a9da3dc9-ca2e-494e-9892-84cc0468751b"},