{"last_updated":1718035832,"ttl":30,"version":"2.2","data":{"bikes":[{"bike_id":"2148f8c4-27cd-4f60-9cc2-07ebfbd7ba08","system_id":"levelo_inurba_marseille","lat":43.312278,"lon":5.36722,"is_reserved":false,"is_disabled":false,"rental_uris":{"android":"levelo://app?vid=2148f8c4-27cd-4f60-9cc2-07ebfbd7ba08","ios":"levelo://app?vid=2148f8c4-27cd-4f60-9cc2-07ebfbd7ba08"},"vehicle_type_id":"4","last_reported":1718035832,"current_range_meters":26000,"station_id":"","pricing_plan_id":"cebpf4jnsgd1na2vs0mg"},{"bike_id":"d5d0804f-c954-4a7d-9f9f-b11a3c66b4e3","system_id":"levelo_inurba_marseille","lat":43.314811,"lon":5.373104,"is_reserved":false,"is_disabled":false,"rental_uris":{"android":"levelo://app?vid=d5d0804f-c954-4a7d-9f9f-b11a3c66b4e3","ios":"levelo://app?vid=d5d0804f-c954-4a7d-9f9f-b11a3c66b4e3"},"vehicle_type_id":"4","last_reported":1718035832,"current_range_meters":0,"station_id":"ce4bgt12rcd13ifvqcd0","pricing_plan_id":"cebpf4jnsgd1na2vs0mg"},{"bike_id":"e1fd2ba7-6419-4c1e-93dc-c43b173651f6","system_id":"levelo_inurba_marseille","lat":43.31447,"lon":5.37372,"is_reserved":false,"is_disabled":false,"rental_uris":{"android":"levelo://app?vid=e1fd2ba7-6419-4c1e-93dc-c43b173651f6","ios":"levelo://app?vid=e1fd2ba7-6419-4c1e-93dc-c43b173651f6"},"vehicle_type_id":"4","last_reported":1718035832,"current_range_meters":400,"station_id":"","pricing_plan_id":"cebpf4jnsgd1na2vs0mg"},{"bike_id":"15eed7f3-2021-47b3-96d7-4eaaccee7201","system_id":"levelo_inurba_marseille","lat":43.31639,"lon":5.374014,"is_reserved":false,"is_disabled":false,"rental_uris":{"android":"levelo://app?vid=15eed7f3-2021-47b3-96d7-4eaaccee7201","ios":"levelo://app?vid=15eed7f3-2021-47b3-96d7-4eaaccee7201"},"vehicle_type_id":"4","last_reported":1718035832,"current_range_meters":0,"station_id":"","pricing_plan_id":"cebpf4jnsgd1na2vs0mg"},{"bike_id":"60f2dc25-2eee-45d8-9ef4-7e5519f5fd6f","system_id":"levelo_inurba_marseille","lat":43.309843,"lon":5.37673,"is_reserved":false,"is_disabled":false,"rental_uris":{"android":"levelo://app?vid=60f2dc25-2eee-45d8-9ef4-7e5519f5fd6f","ios":"levelo://app?vid=60f2dc25-2eee-45d8-9ef4-7e5519f5fd6f"},"vehicle_type_id":"4","last_reported":1718035832,"current_range_meters":15600,"station_id":"","pricing_plan_id":"cebpf4jnsgd1na2vs0mg"},{"bike_id":"7b599528-f968-4563-8696-4ce4e111eb2e","system_id":"levelo_inurba_marseille","lat":43.305989,"lon":5.37225,"is_reserved":false,"is_disabled":false,"rental_uris":{"android":"levelo://app?vid=7b599528-f968-4563-8696-4ce4e111eb2e","ios":"levelo://app?vid=7b599528-f968-4563-8696-4ce4e111eb2e"},"vehicle_type_id":"4","last_reported":1718035832,"current_range_meters":18000,"station_id":"ce4bgqh2rcd13ifvqc4g","pricing_plan_id":"cebpf4jnsgd1na2vs0mg"},{"bike_id":"0ddd0b51-dc71-4b76-b4e3-b10ebeac3418","system_id":"levelo_inurba_marseille","lat":43.291675,"lon":5.371583,"is_reserved":false,"is_disabled":false,"rental_uris":{"android":"levelo://app?vid=0ddd0b51-dc71-4b76-b4e3-b10ebeac3418","ios":"levelo://app?vid=0ddd0b51-dc71-4b76-b4e3-b10ebeac3418"},"vehicle_type_id":"4","last_reported":1718035832,"current_range_meters":11200,"station_id":"ce4bha92rcd13ifvqeh0","pricing_plan_id":"cebpf4jnsgd1na2vs0mg"},{"bike_id":"cd3f47b1-2b59-477b-9790-cba4cd3a15fb","system_id":"levelo_inurba_marseille","lat":43.311131,"lon":5.377651,"is_reserved":false,"is_disabled":false,"rental_uris":{"android":"levelo://app?vid=cd3f47b1-2b59-477b-9790-cba4cd3a15fb","ios":"levelo://app?vid=cd3f47b1-2b59-477b-9790-cba4cd3a15fb"},"vehicle_type_id":"4","last_reported":1718035832,"current_range_meters":0,"station_id":"ce4bgt92rcd13ifvqcg0","pricing_plan_id":"cebpf4jnsgd1na2vs0mg"},{"bike_id":"f9c396b0-5a89-4bf9-9437-9e03f4d035e2","system_id":"levelo_inurba_marseille","lat":43.311222,"lon":5.377707,"is_reserved":false,"is_disabled":false,"rental_uris":{"android":"levelo://app?vid=f9c396b0-5a89-4bf9-9437-9e03f4d035e2","ios":"levelo://app?vid=f9c396b0-5a89-4bf9-9437-9e03f4d035e2"},"vehicle_type_id":"4","last_reported":1718035832,"current_range_meters":0,"station_id":"ce4bgt92rcd13ifvqcg0","pricing_plan_id":"cebpf4jnsgd1na2vs0mg"},{"bike_id":"bd3c1d40-4e17-4041-a3f2-648038c92d55","system_id":"levelo_inurba_marseille","lat":43.311125,"lon":5.377624,"is_reserved":false,"is_disabled":false,"rental_uris":{"android":"levelo://app?vid=bd3c1d40-4e17-4041-a3f2-648038c92d55","ios":"levelo://app?vid=bd3c1d40-4e17-4041-a3f2-648038c92d55"},"vehicle_type_id":"4","last_reported":1718035832,"current_range_meters":4400,"station_id":"ce4bgt92rcd13ifvqcg0","pricing_plan_id":"cebpf4jnsgd1na2vs0mg"},{"bike_id":"5c6db7c4-b2e0-4638-a0f2-220f42717bd1","system_id":"levelo_inurba_marseille","lat":43.295511,"lon":5.422926,"is_reserved":false,"is_disabled":false,"rental_uris":{"android":"levelo://app?vid=5c6db7c4-b2e0-4638-a0f2-220f42717bd1","ios":"levelo://app?vid=5c6db7c4-b2e0-4638-a0f2-220f42717bd1"},"vehicle_type_id":"4","last_reported":1718035832,"current_range_meters":20800,"station_id":"ce4bhph2rcd13ifvqhdg","pricing_plan_id":"cebpf4jnsgd1na2vs0mg"},{"bike_id":"aa5edcc1-054e-42b3-8fc1-252693776f3b","system_id":"levelo_inurba_marseille","lat":43.315289,"lon":5.380349,"is_reserved":false,"is_disabled":false,"rental_uris":{"android":"levelo://app?vid=aa5edcc1-054e-42b3-8fc1-252693776f3b","ios":"levelo://app?vid=aa5edcc1-054e-42b3-8fc1-252693776f3b"},"vehicle_type_id":"4","last_reported":1718035832,"current_range_meters":8000,"station_id":"ce4bhsp2rcd13ifvqi50","pricing_plan_id":"cebpf4jnsgd1na2vs0mg"},{"bike_id":"8fc2251f-3a9f-4d21-b1fc-256b028b0fe8","system_id":"levelo_inurba_marseille","lat":43.315289,"lon":5.380349,"is_reserved":false,"is_disabled":false,"rental_uris":{"android":"levelo://app?vid=8fc2251f-3a9f-4d21-b1fc-256b028b0fe8","ios":"levelo://app?vid=8fc2251f-3a9f-4d21-b1fc-256b028b0fe8"},"vehicle_type_id":"4","last_reported":1718035832,"current_range_meters":20400,"station_id":"ce4bhsp2rcd13ifvqi50","pricing_plan_id":"cebpf4jnsgd1na2vs0mg"},{"bike_id":"a5351e90-a901-4b66-9509-0d6f541d2925","system_id":"levelo_inurba_marseille","lat":43.315289,"lon":5.380349,"is_reserved":false,"is_disabled":false,"rental_uris":{"android":"levelo://app?vid=a5351e90-a901-4b66-9509-0d6f541d2925","ios":"levelo://app?vid=a5351e90-a901-4b66-9509-0d6f541d2925"},"vehicle_type_id":"4","last_reported":1718035832,"current_range_meters":15200,"station_id":"ce4bhsp2rcd13ifvqi50","pricing_plan_id":"cebpf4jnsgd1na2vs0mg"},{"bike_id":"82b8d868-4b13-43d4-8a56-f08cc13ba521","system_id":"levelo_inurba_marseille","lat":43.315289,"lon":5.380349,"is_reserved":false,"is_disabled":false,"rental_uris":{"android":"levelo://app?vid=82b8d868-4b13-43d4-8a56-f08cc13ba521","ios":"levelo://app?vid=82b8d868-4b13-43d4-8a56-f08cc13ba521"},"vehicle_type_id":"4","last_reported":1718035832,"current_range_meters":9600,"station_id":"ce4bhsp2rcd13ifvqi50","pricing_plan_id":"cebpf4jnsgd1na2vs0mg"},{"bike_id":"31cce66c-de7d-4df4-97b8-1979d38af4f5","system_id":"levelo_inurba_marseille","lat":43.315289,"lon":5.380349,"is_reserved":false,"is_disabled":false,"rental_uris":{"android":"levelo://app?vid=31cce66c-de7d-4df4-97b8-1979d38af4f5","ios":"levelo://app?vid=31cce66c-de7d-4df4-97b8-1979d38af4f5"},"vehicle_type_id":"4","last_reported":1718035832,"current_range_meters":400,"station_id":"ce4bhsp2rcd13ifvqi50","pricing_plan_id":"cebpf4jnsgd1na2vs0mg"},{"bike_id":"ad59b1b0-1ed8-4123-949a-225402916ddf","system_id":"levelo_inurba_marseille","lat":43.315303,"lon":5.380477,"is_reserved":false,"is_disabled":false,"rental_uris":{"android":"levelo://app?vid=ad59b1b0-1ed8-4123-949a-225402916ddf","ios":"levelo://app?vid=ad59b1b0-1ed8-4123-949a-225402916ddf"},"vehicle_type_id":"4","last_reported":1718035832,"current_range_meters":7600,"station_id":"ce4bhsp2rcd13ifvqi50","pricing_plan_id":"cebpf4jnsgd1na2vs0mg"},{"bike_id":"78245d71-e596-432d-8c17-a6be15895bc5","system_id":"levelo_inurba_marseille","lat":43.304606,"lon":5.379026,"is_reserved":false,"is_disabled":false,"rental_uris":{"android":"levelo://app?vid=78245d71-e596-432d-8c17-a6be15895bc5","ios":"levelo://app?vid=78245d71-e596-432d-8c17-a6be15895bc5"},"vehicle_type_id":"4","last_reported":1718035832,"current_range_meters":12000,"station_id":"ce4bgup2rcd13ifvqcn0","pricing_plan_id":"cebpf4jnsgd1na2vs0mg"},{"bike_id":"54c2c94a-f498-414f-8863-af1eeef84b9e","system_id":"levelo_inurba_marseille","lat":43.324771,"lon":5.36557,"is_reserved":false,"is_disabled":false,"rental_uris":{"android":"levelo://app?vid=54c2c94a-f498-414f-8863-af1eeef84b9e","ios":"levelo://app?vid=54c2c94a-f498-414f-8863-af1eeef84b9e"},"vehicle_type_id":"4","last_reported":1718035832,"current_range_meters":27600,"station_id":"ce4bhs12rcd13ifvqhvg","pricing_plan_id":"cebpf4jnsgd1na2vs0mg"},{"bike_id":"fe5104fa-12e7-420a-a0d2-b10193a073ea","system_id":"levelo_inurba_marseille","lat":43.324771,"lon":5.36557,"is_reserved":false,"is_disabled":false,"rental_uris":{"android":"levelo://app?vid=fe5104fa-12e7-420a-a0d2-b10193a073ea","ios":"levelo://app?vid=fe5104fa-12e7-420a-a0d2-b10193a073ea"},"vehicle_type_id":"4","last_reported":1718035832,"current_range_meters":27200,"station_id":"ce4bhs12rcd13ifvqhvg","pricing_plan_id":"cebpf4jnsgd1na2vs0mg"},{"bike_id":"46d539ef-86d9-4995-854a-d4b82f0ba38b","system_id":"levelo_inurba_marseille","lat":43.324771,"lon":5.36557,"is_reserved":false,"is_disabled":false,"rental_uris":{"android":"levelo://app?vid=46d539ef-86d9-4995-854a-d4b82f0ba38b","ios":"levelo://app?vid=46d539ef-86d9-4995-854a-d4b82f0ba38b"},"vehicle_type_id":"4","last_reported":1718035832,"current_range_meters":29600,"station_id":"ce4bhs12rcd13ifvqhvg","pricing_plan_id":"cebpf4jnsgd1na2vs0mg"},{"bike_id":"ba34fce8-e9bf-4610-9d01-25eecc310f50","system_id":"levelo_inurba_marseille","lat":43.324771,"lon":5.36557,"is_reserved":false,"is_disabled":false,"rental_uris":{"android":"levelo://app?vid=ba34fce8-e9bf-4610-9d01-25eecc310f50","ios":"levelo://app?vid=ba34fce8-e9bf-4610-9d01-25eecc310f50"},"vehicle_type_id":"4","last_reported":1718035832,"current_range_meters":12000,"station_id":"ce4bhs12rcd13ifvqhvg","pricing_plan_id":"cebpf4jnsgd1na2vs0mg"},{"bike_id":"d148902a-2337-4f6d-9a63-ad8f2f34014e","system_id":"levelo_inurba_marseille","lat":43.324771,"lon":5.36557,"is_reserved":false,"is_disabled":false,"rental_uris":{"android":"levelo://app?vid=d148902a-2337-4f6d-9a63-ad8f2f34014e","ios":"levelo://app?vid=d148902a-2337-4f6d-9a63-ad8f2f34014e"},"vehicle_type_id":"4","last_reported":1718035832,"current_range_meters":400,"station_id":"ce4bhs12rcd13ifvqhvg","pricing_plan_id":"cebpf4jnsgd1na2vs0mg"},{"bike_id":"6414352a-eae6-4ab2-8a91-938a7b38a369","system_id":"levelo_inurba_marseille","lat":43.324771,"lon":5.36557,"is_reserved":false,"is_disabled":false,"rental_uris":{"android":"levelo://app?vid=6414352a-eae6-4ab2-8a91-938a7b38a369","ios":"levelo://app?vid=6414352a-eae6-4ab2-8a91-938a7b38a369"},"vehicle_type_id":"4","last_reported":1718035832,"current_range_meters":5600,"station_id":"ce4bhs12rcd13ifvqhvg","pricing_plan_id":"cebpf4jnsgd1na2vs0mg"},{"bike_id":"7d3893ec-1b23-40bb-8015-69a19d94fba3","system_id":"levelo_inurba_marseille","lat":43.324771,"lon":5.36557,"is_reserved":false,"is_disabled":false,"rental_uris":{"android":"levelo://app?vid=7d3893ec-1b23-40bb-8015-69a19d94fba3","ios":"levelo://app?vid=7d3893ec-1b23-40bb-8015-69a19d94fba3"},"vehicle_type_id":"4","last_reported":1718035832,"current_range_meters":19200,"station_id":"ce4bhs12rcd13ifvqhvg","pricing_plan_id":"cebpf4jnsgd1na2vs0mg"},{"bike_id":"97a89233-b186-4d20-b87e-ba011f1363de","system_id":"levelo_inurba_marseille","lat":43.324771,"lon":5.36557,"is_reserved":false,"is_disabled":false,"rental_uris":{"android":"levelo://app?vid=97a89233-b186-4d20-b87e-ba011f1363de","ios":"levelo://app?vid=97a89233-b186-4d20-b87e-ba011f1363de"},"vehicle_type_id":"4","last_reported":1718035832,"current_range_meters":0,"station_id":"ce4bhs12rcd13ifvqhvg","pricing_plan_id":"cebpf4jnsgd1na2vs0mg"},{"bike_id":"1a979ed6-4df4-4fa4-8a28-170df3c57b48","system_id":"levelo_inurba_marseille","lat":43.324771,"lon":5.36557,"is_reserved":false,"is_disabled":false,"rental_uris":{"android":"levelo://app?vid=1a979ed6-4df4-4fa4-8a28-170df3c57b48","ios":"levelo://app?vid=1a979ed6-4df4-4fa4-8a28-170df3c57b48"},"vehicle_type_id":"4","last_reported":1718035832,"current_range_meters":2000,"station_id":"ce4bhs12rcd13ifvqhvg","pricing_plan_id":"cebpf4jnsgd1na2vs0mg"},{"bike_id":"324dd72f-9f2f-47ab-a5ca-bc2380c8be68","system_id":"levelo_inurba_marseille","lat":43.324771,"lon":5.36557,"is_reserved":false,"is_disabled":false,"rental_uris":{"android":"levelo://app?vid=324dd72f-9f2f-47ab-a5ca-bc2380c8be68","ios":"levelo://app?vid=324dd72f-9f2f-47ab-a5ca-bc2380c8be68"},"vehicle_type_id":"4","last_reported":1718035832,"current_range_meters":29200,"station_id":"ce4bhs12rcd13ifvqhvg","pricing_plan_id":"cebpf4jnsgd1na2vs0mg"},{"bike_id":"c6712fae-7e44-4abc-9a67-a74aba6ad947","system_id":"levelo_inurba_marseille","lat":43.324771,"lon":5.36557,"is_reserved":false,"is_disabled":false,"rental_uris":{"android":"levelo://app?vid=c6712fae-7e44-4abc-9a67-a74aba6ad947","ios":"levelo://app?vid=c6712fae-7e44-4abc-9a67-a74aba6ad947"},"vehicle_type_id":"4","last_reported":1718035832,"current_range_meters":22000,"station_id":"ce4bhs12rcd13ifvqhvg","pricing_plan_id":"cebpf4jnsgd1na2vs0mg"},{"bike_id":"00d0509a-55a5-416d-ae6e-759f44b2a85b","system_id":"levelo_inurba_marseille","lat":43.324771,"lon":5.36557,"is_reserved":false,"is_disabled":false,"rental_uris":{"android":"levelo://app?vid=00d0509a-55a5-416d-ae6e-759f44b2a85b","ios":"levelo://app?vid=00d0509a-55a5-416d-ae6e-759f44b2a85b"},"vehicle_type_id":"4","last_reported":1718035832,"current_range_meters":27200,"station_id":"ce4bhs12rcd13ifvqhvg","pricing_plan_id":"cebpf4jnsgd1na2vs0mg"},{"bike_id":"c8dc8333-76b2-482e-9eda-602fa29edabc","system_id":"levelo_inurba_marseille","lat":43.324771,"lon":5.36557,"is_reserved":false,"is_disabled":false,"rental_uris":{"android":"levelo://app?vid=c8dc8333-76b2-482e-9eda-602fa29edabc","ios":"levelo://app?vid=c8dc8333-76b2-482e-9eda-602fa29edabc"},"vehicle_type_id":"4","last_reported":1718035832,"current_range_meters":19200,"station_id":"ce4bhs12rcd13ifvqhvg","pricing_plan_id":"cebpf4jnsgd1na2vs0mg"},{"bike_id":"b5877aad-e2cb-4dbe-92b8-2fd15675fc4a","system_id":"levelo_inurba_marseille","lat":43.324771,"lon":5.36557,"is_reserved":false,"is_disabled":false,"rental_uris":{"android":"levelo://app?vid=b5877aad-e2cb-4dbe-92b8-2fd15675fc4a","ios":"levelo://app?vid=b5877aad-e2cb-4dbe-92b8-2fd15675fc4a"},"vehicle_type_id":"4","last_reported":1718035832,"current_range_meters":26000,"station_id":"ce4bhs12rcd13ifvqhvg","pricing_plan_id":"cebpf4jnsgd1na2vs0mg"},{"bike_id":"31f05fe5-e943-4ec8-bb18-57dde8b62088","system_id":"levelo_inurba_marseille","lat":43.324845,"lon":5.365715,"is_reserved":false,"is_disabled":false,"rental_uris":{"android":"levelo://app?vid=31f05fe5-e943-4ec8-bb18-57dde8b62088","ios":"levelo://app?vid=31f05fe5-e943-4ec8-bb18-57dde8b62088"},"vehicle_type_id":"4","last_reported":1718035832,"current_range_meters":20800,"station_id":"ce4bhs12rcd13ifvqhvg","pricing_plan_id":"cebpf4jnsgd1na2vs0mg"},{"bike_id":"2d90ea90-d34b-47c1-b81b-08966f49dfec","system_id":"levelo_inurba_marseille","lat":43.324771,"lon":5.36557,"is_reserved":false,"is_disabled":false,"rental_uris":{"android":"levelo://app?vid=2d90ea90-d34b-47c1-b81b-08966f49dfec","ios":"levelo://app?vid=2d90ea90-d34b-47c1-b81b-08966f49dfec"},"vehicle_type_id":"4","last_reported":1718035832,"current_range_meters":26800,"station_id":"ce4bhs12rcd13ifvqhvg","pricing_plan_id":"cebpf4jnsgd1na2vs0mg"},{"bike_id":"5afe0fa1-0a44-4de5-b852-b51481d6ffab","system_id":"levelo_inurba_marseille","lat":43.301429,"lon":5.37413,"is_reserved":false,"is_disabled":false,"rental_uris":{"android":"levelo://app?vid=5afe0fa1-0a44-4de5-b852-b51481d6ffab","ios":"levelo://app?vid=5afe0fa1-0a44-4de5-b852-b51481d6ffab"},"vehicle_type_id":"4","last_reported":1718035832,"current_range_meters":15200,"station_id":"ce4bgs92rcd13ifvqcc0","pricing_plan_id":"cebpf4jnsgd1na2vs0mg"},{"bike_id":"9b2f4846-59a5-4cff-861b-e8045bc2841f","system_id":"levelo_inurba_marseille","lat":43.319935,"lon":5.381699,"is_reserved":false,"is_disabled":false,"rental_uris":{"android":"levelo://app?vid=9b2f4846-59a5-4cff-861b-e8045bc2841f","ios":"levelo://app?vid=9b2f4846-59a5-4cff-861b-e8045bc2841f"},"vehicle_type_id":"4","last_reported":1718035832,"current_range_meters":0,"station_id":"ce4bhr12rcd13ifvqhpg","pricing_plan_id":"cebpf4jnsgd1na2vs0mg"},{"bike_id":"dfd30a32-dffa-4b6e-932d-b319f896aceb","system_id":"levelo_inurba_marseille","lat":43.313571,"lon":5.384829,"is_reserved":false,"is_disabled":false,"rental_uris":{"android":"levelo://app?vid=dfd30a32-dffa-4b6e-932d-b319f896aceb","ios":"levelo://app?vid=dfd30a32-dffa-4b6e-932d-b319f896aceb"},"vehicle_type_id":"4","last_reported":1718035832,"current_range_meters":29600,"station_id":"ce4bgt92rcd13ifvqcf0","pricing_plan_id":"cebpf4jnsgd1na2vs0mg"},{"bike_id":"d61f819f-b2db-4396-b303-8b48aca6aa23","system_id":"levelo_inurba_marseille","lat":43.3136,"lon":5.38504,"is_reserved":false,"is_disabled":false,"rental_uris":{"android":"levelo://app?vid=d61f819f-b2db-4396-b303-8b48aca6aa23","ios":"levelo://app?vid=d61f819f-b2db-4396-b303-8b48aca6aa23"},"vehicle_type_id":"4","last_reported":1718035832,"current_range_meters":0,"station_id":"ce4bgt92rcd13ifvqcf0","pricing_plan_id":"cebpf4jnsgd1na2vs0mg"},{"bike_id":"f48f7f3b-5a14-4f09-b016-b47313a016bb","system_id":"levelo_inurba_marseille","lat":43.299222,"lon":5.365554,"is_reserved":false,"is_disabled":false,"rental_uris":{"android":"levelo://app?vid=f48f7f3b-5a14-4f09-b016-b47313a016bb","ios":"levelo://app?vid=f48f7f3b-5a14-4f09-b016-b47313a016bb"},"vehicle_type_id":"4","last_reported":1718035832,"current_range_meters":0,"station_id":"ce4bgm92rcd13ifvqbr0","pricing_plan_id":"cebpf4jnsgd1na2vs0mg"},{"bike_id":"5c43b395-480a-40e8-9e06-92549fe24005","system_id":"levelo_inurba_marseille","lat":43.299222,"lon":5.365554,"is_reserved":false,"is_disabled":false,"rental_uris":{"android":"levelo://app?vid=5c43b395-480a-40e8-9e06-92549fe24005","ios":"levelo://app?vid=5c43b395-480a-40e8-9e06-92549fe24005"},"vehicle_type_id":"4","last_reported":1718035832,"current_range_meters":0,"station_id":"ce4bgm92rcd13ifvqbr0","pricing_plan_id":"cebpf4jnsgd1na2vs0mg"},{"bike_id":"10f4ecf8-2975-46b0-a58a-3b654c6ee24f","system_id":"levelo_inurba_marseille","lat":43.29976,"lon":5.37189,"is_reserved":false,"is_disabled":false,"rental_uris":{"android":"levelo://app?vid=10f4ecf8-2975-46b0-a58a-3b654c6ee24f","ios":"levelo://app?vid=10f4ecf8-2975-46b0-a58a-3b654c6ee24f"},"vehicle_type_id":"4","last_reported":1718035832,"current_range_meters":0,"station_id":"ce4bgr92rcd13ifvqc7g","pricing_plan_id":"cebpf4jnsgd1na2vs0mg"},{"bike_id":"20aa5aeb-8806-4382-b30d-303861c80189","system_id":"levelo_inurba_marseille","lat":43.305364,"lon":5.384119,"is_reserved":false,"is_disabled":false,"rental_uris":{"android":"levelo://app?vid=20aa5aeb-8806-4382-b30d-303861c80189","ios":"levelo://app?vid=20aa5aeb-8806-4382-b30d-303861c80189"},"vehicle_type_id":"4","last_reported":1718035832,"current_range_meters":0,"station_id":"ce4bgg92rcd13ifvqb30","pricing_plan_id":"cebpf4jnsgd1na2vs0mg"},{"bike_id":"44633568-3934-497b-8674-62af8ef7d3fb","system_id":"levelo_inurba_marseille","lat":43.307841,"lon":5.385853,"is_reserved":false,"is_disabled":false,"rental_uris":{"android":"levelo://app?vid=44633568-3934-497b-8674-62af8ef7d3fb","ios":"levelo://app?vid=44633568-3934-497b-8674-62af8ef7d3fb"},"vehicle_type_id":"4","last_reported":1718035832,"current_range_meters":19200,"station_id":"","pricing_plan_id":"cebpf4jnsgd1na2vs0mg"},{"bike_id":"ed5c4e70-3b44-4659-bf4a-af557efcef07","system_id":"levelo_inurba_marseille","lat":43.299243,"lon":5.37481,"is_reserved":false,"is_disabled":false,"rental_uris":{"android":"levelo://app?vid=ed5c4e70-3b44-4659-bf4a-af557efcef07","ios":"levelo://app?vid=ed5c4e70-3b44-4659-bf4a-af557efcef07"},"vehicle_type_id":"4","last_reported":1718035832,"current_range_meters":22800,"station_id":"ce4bgjh2rcd13ifvqbg0","pricing_plan_id":"cebpf4jnsgd1na2vs0mg"},{"bike_id":"c7b2a55c-6bb6-4547-a531-423cb7d391f7","system_id":"levelo_inurba_marseille","lat":43.299243,"lon":5.374807,"is_reserved":false,"is_disabled":false,"rental_uris":{"android":"levelo://app?vid=c7b2a55c-6bb6-4547-a531-423cb7d391f7","ios":"levelo://app?vid=c7b2a55c-6bb6-4547-a531-423cb7d391f7"},"vehicle_type_id":"4","last_reported":1718035832,"current_range_meters":30400,"station_id":"ce4bgjh2rcd13ifvqbg0","pricing_plan_id":"cebpf4jnsgd1na2vs0mg"},{"bike_id":"5e7539e2-6c80-4557-bde1-35675b227c76","system_id":"levelo_inurba_marseille","lat":43.29915,"lon":5.37476,"is_reserved":false,"is_disabled":false,"rental_uris":{"android":"levelo://app?vid=5e7539e2-6c80-4557-bde1-35675b227c76","ios":"levelo://app?vid=5e7539e2-6c80-4557-bde1-35675b227c76"},"vehicle_type_id":"4","last_reported":1718035832,"current_range_meters":0,"station_id":"ce4bgjh2rcd13ifvqbg0","pricing_plan_id":"cebpf4jnsgd1na2vs0mg"},{"bike_id":"82ff6a05-5327-4af1-b327-56410b2d87a7","system_id":"levelo_inurba_marseille","lat":43.322872,"lon":5.382756,"is_reserved":false,"is_disabled":false,"rental_uris":{"android":"levelo://app?vid=82ff6a05-5327-4af1-b327-56410b2d87a7","ios":"levelo://app?vid=82ff6a05-5327-4af1-b327-56410b2d87a7"},"vehicle_type_id":"4","last_reported":1718035832,"current_range_meters":0,"station_id":"ce4bhr12rcd13ifvqhqg","pricing_plan_id":"cebpf4jnsgd1na2vs0mg"},{"bike_id":"50fc76fa-fdb3-4734-971a-4ee1a9ab0f9d","system_id":"levelo_inurba_marseille","lat":43.29707,"lon":5.36615,"is_reserved":false,"is_disabled":false,"rental_uris":{"android":"levelo://app?vid=50fc76fa-fdb3-4734-971a-4ee1a9ab0f9d","ios":"levelo://app?vid=50fc76fa-fdb3-4734-971a-4ee1a9ab0f9d"},"vehicle_type_id":"4","last_reported":1718035832,"current_range_meters":0,"station_id":"ce4bgn12rcd13ifvqbt0","pricing_plan_id":"cebpf4jnsgd1na2vs0mg"},{"bike_id":"d3d05674-2a0d-4a0d-b7bc-348ede81aacd","system_id":"levelo_inurba_marseille","lat":43.297163,"lon":5.365866,"is_reserved":false,"is_disabled":false,"rental_uris":{"android":"levelo://app?vid=d3d05674-2a0d-4a0d-b7bc-348ede81aacd","ios":"levelo://app?vid=d3d05674-2a0d-4a0d-b7bc-348ede81aacd"},"vehicle_type_id":"4","last_reported":1718035832,"current_range_meters":0,"station_id":"ce4bgn12rcd13ifvqbt0","pricing_plan_id":"cebpf4jnsgd1na2vs0mg"},{"bike_id":"9abeff95-5248-4071-ace4-31889ea03b3f","system_id":"levelo_inurba_marseille","lat":43.2968,"lon":5.37291,"is_reserved":false,"is_disabled":false,"rental_uris":{"android":"levelo://app?vid=9abeff95-5248-4071-ace4-31889ea03b3f","ios":"levelo://app?vid=9abeff95-5248-4071-ace4-31889ea03b3f"},"vehicle_type_id":"4","last_reported":1718035832,"current_range_meters":16400,"station_id":"ce4bgk12rcd13ifvqbj0","pricing_plan_id":"cebpf4jnsgd1na2vs0mg"},{"bike_id":"1bcfe34e-0e5b-4be1-9b0f-1d8af1d8eb9c","system_id":"levelo_inurba_marseille","lat":43.2962,"lon":5.37164,"is_reserved":false,"is_disabled":false,"rental_uris":{"android":"levelo://app?vid=1bcfe34e-0e5b-4be1-9b0f-1d8af1d8eb9c","ios":"levelo://app?vid=1bcfe34e-0e5b-4be1-9b0f-1d8af1d8eb9c"},"vehicle_type_id":"4","last_reported":1718035832,"current_range_meters":0,"station_id":"ce4bgnh2rcd13ifvqc0g","pricing_plan_id":"cebpf4jnsgd1na2vs0mg"},{"bike_id":"54348167-3ff9-40df-bc0a-514f6c5a07c6","system_id":"levelo_inurba_marseille","lat":43.299028,"lon":5.381509,"is_reserved":false,"is_disabled":false,"rental_uris":{"android":"levelo://app?vid=54348167-3ff9-40df-bc0a-514f6c5a07c6","ios":"levelo://app?vid=54348167-3ff9-40df-bc0a-514f6c5a07c6"},"vehicle_type_id":"4","last_reported":1718035832,"current_range_meters":24400,"station_id":"ce4bgj12rcd13ifvqbc0","pricing_plan_id":"cebpf4jnsgd1na2vs0mg"},{"bike_id":"1ad2a8fe-ecf7-4f51-965c-18cfee1c9fb7","system_id":"levelo_inurba_marseille","lat":43.309589,"lon":5.390258,"is_reserved":false,"is_disabled":false,"rental_uris":{"android":"levelo://app?vid=1ad2a8fe-ecf7-4f51-965c-18cfee1c9fb7","ios":"levelo://app?vid=1ad2a8fe-ecf7-4f51-965c-18cfee1c9fb7"},"vehicle_type_id":"4","last_reported":1718035832,"current_range_meters":0,"station_id":"ce4bgup2rcd13ifvqco0","pricing_plan_id":"cebpf4jnsgd1na2vs0mg"},{"bike_id":"844cc3ed-9236-4a24-9655-dbfdfb39dc59","system_id":"levelo_inurba_marseille","lat":43.317557,"lon":5.390173,"is_reserved":false,"is_disabled":false,"rental_uris":{"android":"levelo://app?vid=844cc3ed-9236-4a24-9655-dbfdfb39dc59","ios":"levelo://app?vid=844cc3ed-9236-4a24-9655-dbfdfb39dc59"},"vehicle_type_id":"4","last_reported":1718035832,"current_range_meters":14400,"station_id":"ce4bhqp2rcd13ifvqhng","pricing_plan_id":"cebpf4jnsgd1na2vs0mg"},{"bike_id":"8c77690f-3886-413a-91fd-8db50332479b","system_id":"levelo_inurba_marseille","lat":43.29715,"lon":5.37853,"is_reserved":false,"is_disabled":false,"rental_uris":{"android":"levelo://app?vid=8c77690f-3886-413a-91fd-8db50332479b","ios":"levelo://app?vid=8c77690f-3886-413a-91fd-8db50332479b"},"vehicle_type_id":"4","last_reported":1718035832,"current_range_meters":30800,"station_id":"","pricing_plan_id":"cebpf4jnsgd1na2vs0mg"},{"bike_id":"5225d47a-c3be-4666-a6e7-982c07ace7a8","system_id":"levelo_inurba_marseille","lat":43.298037,"lon":5.381066,"is_reserved":false,"is_disabled":false,"rental_uris":{"android":"levelo://app?vid=5225d47a-c3be-4666-a6e7-982c07ace7a8","ios":"levelo://app?vid=5225d47a-c3be-4666-a6e7-982c07ace7a8"},"vehicle_type_id":"4","last_reported":1718035832,"current_range_meters":0,"station_id":"ce4bgip2rcd13ifvqbb0","pricing_plan_id":"cebpf4jnsgd1na2vs0mg"},{"bike_id":"d38baf74-79c0-4276-b86a-7bb15eccdcdc","system_id":"levelo_inurba_marseille","lat":43.298037,"lon":5.381066,"is_reserved":false,"is_disabled":false,"rental_uris":{"android":"levelo://app?vid=d38baf74-79c0-4276-b86a-7bb15eccdcdc","ios":"levelo://app?vid=d38baf74-79c0-4276-b86a-7bb15eccdcdc"},"vehicle_type_id":"4","last_reported":1718035832,"current_range_meters":0,"station_id":"ce4bgip2rcd13ifvqbb0","pricing_plan_id":"cebpf4jnsgd1na2vs0mg"},{"bike_id":"7f2250f3-f1d1-4cbc-aa9b-4d578dbe08ef","system_id":"levelo_inurba_marseille","lat":43.295761,"lon":5.375148,"is_reserved":false,"is_disabled":false,"rental_uris":{"android":"levelo://app?vid=7f2250f3-f1d1-4cbc-aa9b-4d578dbe08ef","ios":"levelo://app?vid=7f2250f3-f1d1-4cbc-aa9b-4d578dbe08ef"},"vehicle_type_id":"4","last_reported":1718035832,"current_range_meters":0,"station_id":"","pricing_plan_id":"cebpf4jnsgd1na2vs0mg"},{"bike_id":"356143bc-892a-4a49-9859-e2d759c0c90c","system_id":"levelo_inurba_marseille","lat":43.29572,"lon":5.37525,"is_reserved":false,"is_disabled":false,"rental_uris":{"android":"levelo://app?vid=356143bc-892a-4a49-9859-e2d759c0c90c","ios":"levelo://app?vid=356143bc-892a-4a49-9859-e2d759c0c90c"},"vehicle_type_id":"4","last_reported":1718035832,"current_range_meters":0,"station_id":"ce4bgh92rcd13ifvqb50","pricing_plan_id":"cebpf4jnsgd1na2vs0mg"},{"bike_id":"c0c0c3fe-1873-43f2-9ec7-2a589f1873c3","system_id":"levelo_inurba_marseille","lat":43.304278,"lon":5.388868,"is_reserved":false,"is_disabled":false,"rental_uris":{"android":"levelo://app?vid=c0c0c3fe-1873-43f2-9ec7-2a589f1873c3","ios":"levelo://app?vid=c0c0c3fe-1873-43f2-9ec7-2a589f1873c3"},"vehicle_type_id":"4","last_reported":1718035832,"current_range_meters":23200,"station_id":"ce4bgk12rcd13ifvqbi0","pricing_plan_id":"cebpf4jnsgd1na2vs0mg"},{"bike_id":"cabf515b-b711-454e-9204-22e357cbd64e","system_id":"levelo_inurba_marseille","lat":43.298037,"lon":5.381066,"is_reserved":false,"is_disabled":false,"rental_uris":{"android":"levelo://app?vid=cabf515b-b711-454e-9204-22e357cbd64e","ios":"levelo://app?vid=cabf515b-b711-454e-9204-22e357cbd64e"},"vehicle_type_id":"4","last_reported":1718035832,"current_range_meters":7600,"station_id":"ce4bgip2rcd13ifvqbb0","pricing_plan_id":"cebpf4jnsgd1na2vs0mg"},{"bike_id":"a0362d02-b72a-40bc-8193-91f68f7d9fab","system_id":"levelo_inurba_marseille","lat":43.299724,"lon":5.384848,"is_reserved":false,"is_disabled":false,"rental_uris":{"android":"levelo://app?vid=a0362d02-b72a-40bc-8193-91f68f7d9fab","ios":"levelo://app?vid=a0362d02-b72a-40bc-8193-91f68f7d9fab"},"vehicle_type_id":"4","last_reported":1718035832,"current_range_meters":16800,"station_id":"ce4bgj92rcd13ifvqbd0","pricing_plan_id":"cebpf4jnsgd1na2vs0mg"},{"bike_id":"a4f2e340-b259-4823-aad3-933857cec9ab","system_id":"levelo_inurba_marseille","lat":43.299724,"lon":5.384848,"is_reserved":false,"is_disabled":false,"rental_uris":{"android":"levelo://app?vid=a4f2e340-b259-4823-aad3-933857cec9ab","ios":"levelo://app?vid=a4f2e340-b259-4823-aad3-933857cec9ab"},"vehicle_type_id":"4","last_reported":1718035832,"current_range_meters":16800,"station_id":"ce4bgj92rcd13ifvqbd0","pricing_plan_id":"cebpf4jnsgd1na2vs0mg"},{"bike_id":"cda1139f-d640-4ec7-b5f5-fa03c75651ad","system_id":"levelo_inurba_marseille","lat":43.298556,"lon":5.383843,"is_reserved":false,"is_disabled":false,"rental_uris":{"android":"levelo://app?vid=cda1139f-d640-4ec7-b5f5-fa03c75651ad","ios":"levelo://app?vid=cda1139f-d640-4ec7-b5f5-fa03c75651ad"},"vehicle_type_id":"4","last_reported":1718035832,"current_range_meters":26400,"station_id":"","pricing_plan_id":"cebpf4jnsgd1na2vs0mg"},{"bike_id":"ad269404-14c7-42ce-a853-ee3b545823ac","system_id":"levelo_inurba_marseille","lat":43.29464,"lon":5.35856,"is_reserved":false,"is_disabled":false,"rental_uris":{"android":"levelo://app?vid=ad269404-14c7-42ce-a853-ee3b545823ac","ios":"levelo://app?vid=ad269404-14c7-42ce-a853-ee3b545823ac"},"vehicle_type_id":"4","last_reported":1718035832,"current_range_meters":0,"station_id":"","pricing_plan_id":"cebpf4jnsgd1na2vs0mg"},{"bike_id":"b07e9fa2-3d4e-4437-844f-c2442fcb1a9e","system_id":"levelo_inurba_marseille","lat":43.32367,"lon":5.388836,"is_reserved":false,"is_disabled":false,"rental_uris":{"android":"levelo://app?vid=b07e9fa2-3d4e-4437-844f-c2442fcb1a9e","ios":"levelo://app?vid=b07e9fa2-3d4e-4437-844f-c2442fcb1a9e"},"vehicle_type_id":"4","last_reported":1718035832,"current_range_meters":0,"station_id":"ce4bhqp2rcd13ifvqhog","pricing_plan_id":"cebpf4jnsgd1na2vs0mg"},{"bike_id":"e3f61d7a-09c2-43c0-805e-27ff6e488b61","system_id":"levelo_inurba_marseille","lat":43.29597,"lon":5.38104,"is_reserved":false,"is_disabled":false,"rental_uris":{"android":"levelo://app?vid=e3f61d7a-09c2-43c0-805e-27ff6e488b61","ios":"levelo://app?vid=e3f61d7a-09c2-43c0-805e-27ff6e488b61"},"vehicle_type_id":"4","last_reported":1718035832,"current_range_meters":12400,"station_id":"ce4bgl12rcd13ifvqbo0","pricing_plan_id":"cebpf4jnsgd1na2vs0mg"},{"bike_id":"826156e0-4a3e-476a-811a-65ad7f114ba5","system_id":"levelo_inurba_marseille","lat":43.29602,"lon":5.381084,"is_reserved":false,"is_disabled":false,"rental_uris":{"android":"levelo://app?vid=826156e0-4a3e-476a-811a-65ad7f114ba5","ios":"levelo://app?vid=826156e0-4a3e-476a-811a-65ad7f114ba5"},"vehicle_type_id":"4","last_reported":1718035832,"current_range_meters":25200,"station_id":"ce4bgl12rcd13ifvqbo0","pricing_plan_id":"cebpf4jnsgd1na2vs0mg"},{"bike_id":"091d0760-44da-4d52-91d5-c81ebd757699","system_id":"levelo_inurba_marseille","lat":43.289184,"lon":5.366408,"is_reserved":false,"is_disabled":false,"rental_uris":{"android":"levelo://app?vid=091d0760-44da-4d52-91d5-c81ebd757699","ios":"levelo://app?vid=091d0760-44da-4d52-91d5-c81ebd757699"},"vehicle_type_id":"4","last_reported":1718035832,"current_range_meters":12800,"station_id":"ce4bhap2rcd13ifvqek0","pricing_plan_id":"cebpf4jnsgd1na2vs0mg"},{"bike_id":"1e571132-73e2-41c6-a642-e3d8de904fcc","system_id":"levelo_inurba_marseille","lat":43.293259,"lon":5.371586,"is_reserved":false,"is_disabled":false,"rental_uris":{"android":"levelo://app?vid=1e571132-73e2-41c6-a642-e3d8de904fcc","ios":"levelo://app?vid=1e571132-73e2-41c6-a642-e3d8de904fcc"},"vehicle_type_id":"4","last_reported":1718035832,"current_range_meters":16000,"station_id":"ce4bgh92rcd13ifvqb40","pricing_plan_id":"cebpf4jnsgd1na2vs0mg"},{"bike_id":"2067f086-b07e-4322-89f1-ed9f7f910a01","system_id":"levelo_inurba_marseille","lat":43.293259,"lon":5.371586,"is_reserved":false,"is_disabled":false,"rental_uris":{"android":"levelo://app?vid=2067f086-b07e-4322-89f1-ed9f7f910a01","ios":"levelo://app?vid=2067f086-b07e-4322-89f1-ed9f7f910a01"},"vehicle_type_id":"4","last_reported":1718035832,"current_range_meters":16800,"station_id":"ce4bgh92rcd13ifvqb40","pricing_plan_id":"cebpf4jnsgd1na2vs0mg"},{"bike_id":"47ed272e-9c00-46ca-af78-ee805a2faba0","system_id":"levelo_inurba_marseille","lat":43.293259,"lon":5.371586,"is_reserved":false,"is_disabled":false,"rental_uris":{"android":"levelo://app?vid=47ed272e-9c00-46ca-af78-ee805a2faba0","ios":"levelo://app?vid=47ed272e-9c00-46ca-af78-ee805a2faba0"},"vehicle_type_id":"4","last_reported":1718035832,"current_range_meters":0,"station_id":"ce4bgh92rcd13ifvqb40","pricing_plan_id":"cebpf4jnsgd1na2vs0mg"},{"bike_id":"a02b5032-5cb7-4337-9a61-f0fb5294a336","system_id":"levelo_inurba_marseille","lat":43.292749,"lon":5.368402,"is_reserved":false,"is_disabled":false,"rental_uris":{"android":"levelo://app?vid=a02b5032-5cb7-4337-9a61-f0fb5294a336","ios":"levelo://app?vid=a02b5032-5cb7-4337-9a61-f0fb5294a336"},"vehicle_type_id":"4","last_reported":1718035832,"current_range_meters":0,"station_id":"ce4bhbp2rcd13ifvqesg","pricing_plan_id":"cebpf4jnsgd1na2vs0mg"},{"bike_id":"9b95acb3-4149-4ed6-aee4-c51b32115d2f","system_id":"levelo_inurba_marseille","lat":43.2936,"lon":5.37835,"is_reserved":false,"is_disabled":false,"rental_uris":{"android":"levelo://app?vid=9b95acb3-4149-4ed6-aee4-c51b32115d2f","ios":"levelo://app?vid=9b95acb3-4149-4ed6-aee4-c51b32115d2f"},"vehicle_type_id":"4","last_reported":1718035832,"current_range_meters":26400,"station_id":"ce4bgjh2rcd13ifvqbf0","pricing_plan_id":"cebpf4jnsgd1na2vs0mg"},{"bike_id":"27b83305-a7d6-4f93-84f7-6bcbab83c495","system_id":"levelo_inurba_marseille","lat":43.29231,"lon":5.36413,"is_reserved":false,"is_disabled":false,"rental_uris":{"android":"levelo://app?vid=27b83305-a7d6-4f93-84f7-6bcbab83c495","ios":"levelo://app?vid=27b83305-a7d6-4f93-84f7-6bcbab83c495"},"vehicle_type_id":"4","last_reported":1718035832,"current_range_meters":24000,"station_id":"","pricing_plan_id":"cebpf4jnsgd1na2vs0mg"},{"bike_id":"91d315d1-39be-4157-abde-d05cf33f6ab8","system_id":"levelo_inurba_marseille","lat":43.293009,"lon":5.374584,"is_reserved":false,"is_disabled":false,"rental_uris":{"android":"levelo://app?vid=91d315d1-39be-4157-abde-d05cf33f6ab8","ios":"levelo://app?vid=91d315d1-39be-4157-abde-d05cf33f6ab8"},"vehicle_type_id":"4","last_reported":1718035832,"current_range_meters":18400,"station_id":"ce4bgi12rcd13ifvqb70","pricing_plan_id":"cebpf4jnsgd1na2vs0mg"},{"bike_id":"09f45af8-e464-4a3c-a55b-d45bbedeebf4","system_id":"levelo_inurba_marseille","lat":43.305994,"lon":5.393687,"is_reserved":false,"is_disabled":false,"rental_uris":{"android":"levelo://app?vid=09f45af8-e464-4a3c-a55b-d45bbedeebf4","ios":"levelo://app?vid=09f45af8-e464-4a3c-a55b-d45bbedeebf4"},"vehicle_type_id":"4","last_reported":1718035832,"current_range_meters":6400,"station_id":"ce4bh0p2rcd13ifvqd80","pricing_plan_id":"cebpf4jnsgd1na2vs0mg"},{"bike_id":"8e419080-d1e6-418b-9fdd-4ce8f982df5d","system_id":"levelo_inurba_marseille","lat":43.293009,"lon":5.374584,"is_reserved":false,"is_disabled":false,"rental_uris":{"android":"levelo://app?vid=8e419080-d1e6-418b-9fdd-4ce8f982df5d","ios":"levelo://app?vid=8e419080-d1e6-418b-9fdd-4ce8f982df5d"},"vehicle_type_id":"4","last_reported":1718035832,"current_range_meters":10000,"station_id":"ce4bgi12rcd13ifvqb70","pricing_plan_id":"cebpf4jnsgd1na2vs0mg"},{"bike_id":"3cb63895-5180-4336-a13a-e798144e840d","system_id":"levelo_inurba_marseille","lat":43.29375,"lon":5.37842,"is_reserved":false,"is_disabled":false,"rental_uris":{"android":"levelo://app?vid=3cb63895-5180-4336-a13a-e798144e840d","ios":"levelo://app?vid=3cb63895-5180-4336-a13a-e798144e840d"},"vehicle_type_id":"4","last_reported":1718035832,"current_range_meters":22400,"station_id":"","pricing_plan_id":"cebpf4jnsgd1na2vs0mg"},{"bike_id":"478d4591-c0b8-46b2-ad3f-769cd1c54399","system_id":"levelo_inurba_marseille","lat":43.2936,"lon":5.37835,"is_reserved":false,"is_disabled":false,"rental_uris":{"android":"levelo://app?vid=478d4591-c0b8-46b2-ad3f-769cd1c54399","ios":"levelo://app?vid=478d4591-c0b8-46b2-ad3f-769cd1c54399"},"vehicle_type_id":"4","last_reported":1718035832,"current_range_meters":800,"station_id":"ce4bgjh2rcd13ifvqbf0","pricing_plan_id":"cebpf4jnsgd1na2vs0mg"},{"bike_id":"fd1df2c1-2e8f-4ef7-a27f-917a1ba06cd8","system_id":"levelo_inurba_marseille","lat":43.29371,"lon":5.37832,"is_reserved":false,"is_disabled":false,"rental_uris":{"android":"levelo://app?vid=fd1df2c1-2e8f-4ef7-a27f-917a1ba06cd8","ios":"levelo://app?vid=fd1df2c1-2e8f-4ef7-a27f-917a1ba06cd8"},"vehicle_type_id":"4","last_reported":1718035832,"current_range_meters":0,"station_id":"ce4bgjh2rcd13ifvqbf0","pricing_plan_id":"cebpf4jnsgd1na2vs0mg"},{"bike_id":"eb2e32b7-a45c-4027-b576-2e4111b73941","system_id":"levelo_inurba_marseille","lat":43.2936,"lon":5.37835,"is_reserved":false,"is_disabled":false,"rental_uris":{"android":"levelo://app?vid=eb2e32b7-a45c-4027-b576-2e4111b73941","ios":"levelo://app?vid=eb2e32b7-a45c-4027-b576-2e4111b73941"},"vehicle_type_id":"4","last_reported":1718035832,"current_range_meters":22000,"station_id":"ce4bgjh2rcd13ifvqbf0","pricing_plan_id":"cebpf4jnsgd1na2vs0mg"},{"bike_id":"066f4084-52a9-45b7-afa2-e4e06a4b9a2a","system_id":"levelo_inurba_marseille","lat":43.303007,"lon":5.39215,"is_reserved":false,"is_disabled":false,"rental_uris":{"android":"levelo://app?vid=066f4084-52a9-45b7-afa2-e4e06a4b9a2a","ios":"levelo://app?vid=066f4084-52a9-45b7-afa2-e4e06a4b9a2a"},"vehicle_type_id":"4","last_reported":1718035832,"current_range_meters":0,"station_id":"ce4bgkh2rcd13ifvqbk0","pricing_plan_id":"cebpf4jnsgd1na2vs0mg"},{"bike_id":"d722f0ef-0353-4267-8277-28921f17d0e2","system_id":"levelo_inurba_marseille","lat":43.298764,"lon":5.388973,"is_reserved":false,"is_disabled":false,"rental_uris":{"android":"levelo://app?vid=d722f0ef-0353-4267-8277-28921f17d0e2","ios":"levelo://app?vid=d722f0ef-0353-4267-8277-28921f17d0e2"},"vehicle_type_id":"4","last_reported":1718035832,"current_range_meters":0,"station_id":"ce4bh392rcd13ifvqdl0","pricing_plan_id":"cebpf4jnsgd1na2vs0mg"},{"bike_id":"0fa634ca-8a20-4872-b81b-c86bf234064f","system_id":"levelo_inurba_marseille","lat":43.2936,"lon":5.37835,"is_reserved":false,"is_disabled":false,"rental_uris":{"android":"levelo://app?vid=0fa634ca-8a20-4872-b81b-c86bf234064f","ios":"levelo://app?vid=0fa634ca-8a20-4872-b81b-c86bf234064f"},"vehicle_type_id":"4","last_reported":1718035832,"current_range_meters":0,"station_id":"ce4bgjh2rcd13ifvqbf0","pricing_plan_id":"cebpf4jnsgd1na2vs0mg"},{"bike_id":"ecedb4a9-9f1c-46e6-bfe2-7783289596ef","system_id":"levelo_inurba_marseille","lat":43.2936,"lon":5.37835,"is_reserved":false,"is_disabled":false,"rental_uris":{"android":"levelo://app?vid=ecedb4a9-9f1c-46e6-bfe2-7783289596ef","ios":"levelo://app?vid=ecedb4a9-9f1c-46e6-bfe2-7783289596ef"},"vehicle_type_id":"4","last_reported":1718035832,"current_range_meters":0,"station_id":"ce4bgjh2rcd13ifvqbf0","pricing_plan_id":"cebpf4jnsgd1na2vs0mg"},{"bike_id":"62624ea6-ddd9-4f1f-b3db-4c61345010cf","system_id":"levelo_inurba_marseille","lat":43.292311,"lon":5.360731,"is_reserved":false,"is_disabled":false,"rental_uris":{"android":"levelo://app?vid=62624ea6-ddd9-4f1f-b3db-4c61345010cf","ios":"levelo://app?vid=62624ea6-ddd9-4f1f-b3db-4c61345010cf"},"vehicle_type_id":"4","last_reported":1718035832,"current_range_meters":27200,"station_id":"ce4bhbh2rcd13ifvqeqg","pricing_plan_id":"cebpf4jnsgd1na2vs0mg"},{"bike_id":"e39bec54-0e8f-487d-8dae-36b3cb1ca3ce","system_id":"levelo_inurba_marseille","lat":43.291675,"lon":5.371583,"is_reserved":false,"is_disabled":false,"rental_uris":{"android":"levelo://app?vid=e39bec54-0e8f-487d-8dae-36b3cb1ca3ce","ios":"levelo://app?vid=e39bec54-0e8f-487d-8dae-36b3cb1ca3ce"},"vehicle_type_id":"4","last_reported":1718035832,"current_range_meters":5600,"station_id":"ce4bha92rcd13ifvqeh0","pricing_plan_id":"cebpf4jnsgd1na2vs0mg"},{"bike_id":"3d05c25c-3b11-477e-8265-5d7193ea352d","system_id":"levelo_inurba_marseille","lat":43.291994,"lon":5.357886,"is_reserved":false,"is_disabled":false,"rental_uris":{"android":"levelo://app?vid=3d05c25c-3b11-477e-8265-5d7193ea352d","ios":"levelo://app?vid=3d05c25c-3b11-477e-8265-5d7193ea352d"},"vehicle_type_id":"4","last_reported":1718035832,"current_range_meters":20000,"station_id":"ce4bhb12rcd13ifvqel0","pricing_plan_id":"cebpf4jnsgd1na2vs0mg"},{"bike_id":"58912c00-1f3c-4b0d-90cd-9be0503ba43f","system_id":"levelo_inurba_marseille","lat":43.291896,"lon":5.357959,"is_reserved":false,"is_disabled":false,"rental_uris":{"android":"levelo://app?vid=58912c00-1f3c-4b0d-90cd-9be0503ba43f","ios":"levelo://app?vid=58912c00-1f3c-4b0d-90cd-9be0503ba43f"},"vehicle_type_id":"4","last_reported":1718035832,"current_range_meters":14800,"station_id":"","pricing_plan_id":"cebpf4jnsgd1na2vs0mg"},{"bike_id":"4cfce6e2-fdb9-431d-9cc0-af45cfb077db","system_id":"levelo_inurba_marseille","lat":43.290779,"lon":5.371482,"is_reserved":false,"is_disabled":false,"rental_uris":{"android":"levelo://app?vid=4cfce6e2-fdb9-431d-9cc0-af45cfb077db","ios":"levelo://app?vid=4cfce6e2-fdb9-431d-9cc0-af45cfb077db"},"vehicle_type_id":"4","last_reported":1718035832,"current_range_meters":30400,"station_id":"ce4bh5p2rcd13ifvqe4g","pricing_plan_id":"cebpf4jnsgd1na2vs0mg"},{"bike_id":"6a8057a9-6b53-4a65-ba20-64f057c72e89","system_id":"levelo_inurba_marseille","lat":43.291675,"lon":5.378028,"is_reserved":false,"is_disabled":false,"rental_uris":{"android":"levelo://app?vid=6a8057a9-6b53-4a65-ba20-64f057c72e89","ios":"levelo://app?vid=6a8057a9-6b53-4a65-ba20-64f057c72e89"},"vehicle_type_id":"4","last_reported":1718035832,"current_range_meters":11600,"station_id":"","pricing_plan_id":"cebpf4jnsgd1na2vs0mg"},{"bike_id":"f817e1ba-30d3-47f9-8063-904a49eaae01","system_id":"levelo_inurba_marseille","lat":43.302008,"lon":5.394694,"is_reserved":false,"is_disabled":false,"rental_uris":{"android":"levelo://app?vid=f817e1ba-30d3-47f9-8063-904a49eaae01","ios":"levelo://app?vid=f817e1ba-30d3-47f9-8063-904a49eaae01"},"vehicle_type_id":"4","last_reported":1718035832,"current_range_meters":8800,"station_id":"ce4bh0p2rcd13ifvqd70","pricing_plan_id":"cebpf4jnsgd1na2vs0mg"},{"bike_id":"b68d40be-d309-49f2-ac3a-9044bf71717f","system_id":"levelo_inurba_marseille","lat":43.302008,"lon":5.394694,"is_reserved":false,"is_disabled":false,"rental_uris":{"android":"levelo://app?vid=b68d40be-d309-49f2-ac3a-9044bf71717f","ios":"levelo://app?vid=b68d40be-d309-49f2-ac3a-9044bf71717f"},"vehicle_type_id":"4","last_reported":1718035832,"current_range_meters":20800,"station_id":"ce4bh0p2rcd13ifvqd70","pricing_plan_id":"cebpf4jnsgd1na2vs0mg"},{"bike_id":"3ec2df4f-b1cb-43ed-ab12-39733c113e0c","system_id":"levelo_inurba_marseille","lat":43.290624,"lon":5.359245,"is_reserved":false,"is_disabled":false,"rental_uris":{"android":"levelo://app?vid=3ec2df4f-b1cb-43ed-ab12-39733c113e0c","ios":"levelo://app?vid=3ec2df4f-b1cb-43ed-ab12-39733c113e0c"},"vehicle_type_id":"4","last_reported":1718035832,"current_range_meters":17200,"station_id":"ce4bha92rcd13ifvqeg0","pricing_plan_id":"cebpf4jnsgd1na2vs0mg"},{"bike_id":"5477531a-469e-4ce6-8014-d2a21550b0f1","system_id":"levelo_inurba_marseille","lat":43.290631,"lon":5.359244,"is_reserved":false,"is_disabled":false,"rental_uris":{"android":"levelo://app?vid=5477531a-469e-4ce6-8014-d2a21550b0f1","ios":"levelo://app?vid=5477531a-469e-4ce6-8014-d2a21550b0f1"},"vehicle_type_id":"4","last_reported":1718035832,"current_range_meters":16000,"station_id":"ce4bha92rcd13ifvqeg0","pricing_plan_id":"cebpf4jnsgd1na2vs0mg"},{"bike_id":"6e0215fd-0bc0-43a4-ad0a-19bdfa6ffa47","system_id":"levelo_inurba_marseille","lat":43.290624,"lon":5.359245,"is_reserved":false,"is_disabled":false,"rental_uris":{"android":"levelo://app?vid=6e0215fd-0bc0-43a4-ad0a-19bdfa6ffa47","ios":"levelo://app?vid=6e0215fd-0bc0-43a4-ad0a-19bdfa6ffa47"},"vehicle_type_id":"4","last_reported":1718035832,"current_range_meters":19600,"station_id":"ce4bha92rcd13ifvqeg0","pricing_plan_id":"cebpf4jnsgd1na2vs0mg"},{"bike_id":"087ea128-cefc-418c-87dd-3bf4a32244f6","system_id":"levelo_inurba_marseille","lat":43.290631,"lon":5.359244,"is_reserved":false,"is_disabled":false,"rental_uris":{"android":"levelo://app?vid=087ea128-cefc-418c-87dd-3bf4a32244f6","ios":"levelo://app?vid=087ea128-cefc-418c-87dd-3bf4a32244f6"},"vehicle_type_id":"4","last_reported":1718035832,"current_range_meters":20400,"station_id":"ce4bha92rcd13ifvqeg0","pricing_plan_id":"cebpf4jnsgd1na2vs0mg"},{"bike_id":"3f0d426d-7cef-4f61-a52c-8f084db7dda0","system_id":"levelo_inurba_marseille","lat":43.294153,"lon":5.386305,"is_reserved":false,"is_disabled":false,"rental_uris":{"android":"levelo://app?vid=3f0d426d-7cef-4f61-a52c-8f084db7dda0","ios":"levelo://app?vid=3f0d426d-7cef-4f61-a52c-8f084db7dda0"},"vehicle_type_id":"4","last_reported":1718035832,"current_range_meters":7200,"station_id":"ce4bh2h2rcd13ifvqdh0","pricing_plan_id":"cebpf4jnsgd1na2vs0mg"},{"bike_id":"2d60d31b-a4b9-4f15-b592-6e649914b93d","system_id":"levelo_inurba_marseille","lat":43.290327,"lon":5.375711,"is_reserved":false,"is_disabled":false,"rental_uris":{"android":"levelo://app?vid=2d60d31b-a4b9-4f15-b592-6e649914b93d","ios":"levelo://app?vid=2d60d31b-a4b9-4f15-b592-6e649914b93d"},"vehicle_type_id":"4","last_reported":1718035832,"current_range_meters":12000,"station_id":"ce4bh692rcd13ifvqe90","pricing_plan_id":"cebpf4jnsgd1na2vs0mg"},{"bike_id":"0e3a597f-cf39-4aeb-9450-999e93540e2b","system_id":"levelo_inurba_marseille","lat":43.290319,"lon":5.375732,"is_reserved":false,"is_disabled":false,"rental_uris":{"android":"levelo://app?vid=0e3a597f-cf39-4aeb-9450-999e93540e2b","ios":"levelo://app?vid=0e3a597f-cf39-4aeb-9450-999e93540e2b"},"vehicle_type_id":"4","last_reported":1718035832,"current_range_meters":0,"station_id":"ce4bh692rcd13ifvqe90","pricing_plan_id":"cebpf4jnsgd1na2vs0mg"},{"bike_id":"c4a142b4-fa3a-4a21-a6e1-65cae459de63","system_id":"levelo_inurba_marseille","lat":43.294162,"lon":5.386292,"is_reserved":false,"is_disabled":false,"rental_uris":{"android":"levelo://app?vid=c4a142b4-fa3a-4a21-a6e1-65cae459de63","ios":"levelo://app?vid=c4a142b4-fa3a-4a21-a6e1-65cae459de63"},"vehicle_type_id":"4","last_reported":1718035832,"current_range_meters":12800,"station_id":"ce4bh2h2rcd13ifvqdh0","pricing_plan_id":"cebpf4jnsgd1na2vs0mg"},{"bike_id":"f4da3eba-2a24-408e-b57f-976d23358b24","system_id":"levelo_inurba_marseille","lat":43.294162,"lon":5.386292,"is_reserved":false,"is_disabled":false,"rental_uris":{"android":"levelo://app?vid=f4da3eba-2a24-408e-b57f-976d23358b24","ios":"levelo://app?vid=f4da3eba-2a24-408e-b57f-976d23358b24"},"vehicle_type_id":"4","last_reported":1718035832,"current_range_meters":18400,"station_id":"ce4bh2h2rcd13ifvqdh0","pricing_plan_id":"cebpf4jnsgd1na2vs0mg"},{"bike_id":"de0b768b-70fc-4e14-a51a-77ebc35acab5","system_id":"levelo_inurba_marseille","lat":43.294162,"lon":5.386292,"is_reserved":false,"is_disabled":false,"rental_uris":{"android":"levelo://app?vid=de0b768b-70fc-4e14-a51a-77ebc35acab5","ios":"levelo://app?vid=de0b768b-70fc-4e14-a51a-77ebc35acab5"},"vehicle_type_id":"4","last_reported":1718035832,"current_range_meters":5200,"station_id":"ce4bh2h2rcd13ifvqdh0","pricing_plan_id":"cebpf4jnsgd1na2vs0mg"},{"bike_id":"d054b2c9-9525-4c2d-b01a-735326205635","system_id":"levelo_inurba_marseille","lat":43.289184,"lon":5.366408,"is_reserved":false,"is_disabled":false,"rental_uris":{"android":"levelo://app?vid=d054b2c9-9525-4c2d-b01a-735326205635","ios":"levelo://app?vid=d054b2c9-9525-4c2d-b01a-735326205635"},"vehicle_type_id":"4","last_reported":1718035832,"current_range_meters":4000,"station_id":"ce4bhap2rcd13ifvqek0","pricing_plan_id":"cebpf4jnsgd1na2vs0mg"},{"bike_id":"9254b64f-7c21-4cac-be6b-8387f1b66d5d","system_id":"levelo_inurba_marseille","lat":43.289468,"lon":5.363719,"is_reserved":false,"is_disabled":false,"rental_uris":{"android":"levelo://app?vid=9254b64f-7c21-4cac-be6b-8387f1b66d5d","ios":"levelo://app?vid=9254b64f-7c21-4cac-be6b-8387f1b66d5d"},"vehicle_type_id":"4","last_reported":1718035832,"current_range_meters":28800,"station_id":"ce4bhc92rcd13ifvqetg","pricing_plan_id":"cebpf4jnsgd1na2vs0mg"},{"bike_id":"dca5d73d-5ae3-4e18-80a7-f8cc5e3281e4","system_id":"levelo_inurba_marseille","lat":43.29266,"lon":5.38386,"is_reserved":false,"is_disabled":false,"rental_uris":{"android":"levelo://app?vid=dca5d73d-5ae3-4e18-80a7-f8cc5e3281e4","ios":"levelo://app?vid=dca5d73d-5ae3-4e18-80a7-f8cc5e3281e4"},"vehicle_type_id":"4","last_reported":1718035832,"current_range_meters":5200,"station_id":"","pricing_plan_id":"cebpf4jnsgd1na2vs0mg"},{"bike_id":"995900d4-d608-4f37-b9aa-061bb6d62308","system_id":"levelo_inurba_marseille","lat":43.292644,"lon":5.384257,"is_reserved":false,"is_disabled":false,"rental_uris":{"android":"levelo://app?vid=995900d4-d608-4f37-b9aa-061bb6d62308","ios":"levelo://app?vid=995900d4-d608-4f37-b9aa-061bb6d62308"},"vehicle_type_id":"4","last_reported":1718035832,"current_range_meters":17200,"station_id":"ce4bh692rcd13ifvqea0","pricing_plan_id":"cebpf4jnsgd1na2vs0mg"},{"bike_id":"17027a35-ba05-4f3a-afcd-b3931a09554c","system_id":"levelo_inurba_marseille","lat":43.292644,"lon":5.384257,"is_reserved":false,"is_disabled":false,"rental_uris":{"android":"levelo://app?vid=17027a35-ba05-4f3a-afcd-b3931a09554c","ios":"levelo://app?vid=17027a35-ba05-4f3a-afcd-b3931a09554c"},"vehicle_type_id":"4","last_reported":1718035832,"current_range_meters":6800,"station_id":"ce4bh692rcd13ifvqea0","pricing_plan_id":"cebpf4jnsgd1na2vs0mg"},{"bike_id":"d93d7952-e32e-442f-8447-ad3edc4f16e0","system_id":"levelo_inurba_marseille","lat":43.290103,"lon":5.356114,"is_reserved":false,"is_disabled":false,"rental_uris":{"android":"levelo://app?vid=d93d7952-e32e-442f-8447-ad3edc4f16e0","ios":"levelo://app?vid=d93d7952-e32e-442f-8447-ad3edc4f16e0"},"vehicle_type_id":"4","last_reported":1718035832,"current_range_meters":30000,"station_id":"ce4bhb92rcd13ifvqen0","pricing_plan_id":"cebpf4jnsgd1na2vs0mg"},{"bike_id":"15e3b996-a963-40b7-999d-6ba2d7ab6cd8","system_id":"levelo_inurba_marseille","lat":43.29008,"lon":5.35614,"is_reserved":false,"is_disabled":false,"rental_uris":{"android":"levelo://app?vid=15e3b996-a963-40b7-999d-6ba2d7ab6cd8","ios":"levelo://app?vid=15e3b996-a963-40b7-999d-6ba2d7ab6cd8"},"vehicle_type_id":"4","last_reported":1718035832,"current_range_meters":24800,"station_id":"ce4bhb92rcd13ifvqen0","pricing_plan_id":"cebpf4jnsgd1na2vs0mg"},{"bike_id":"676ec0c3-aaf2-4bc1-9a31-6c5eb08fd6a6","system_id":"levelo_inurba_marseille","lat":43.290104,"lon":5.356111,"is_reserved":false,"is_disabled":false,"rental_uris":{"android":"levelo://app?vid=676ec0c3-aaf2-4bc1-9a31-6c5eb08fd6a6","ios":"levelo://app?vid=676ec0c3-aaf2-4bc1-9a31-6c5eb08fd6a6"},"vehicle_type_id":"4","last_reported":1718035832,"current_range_meters":800,"station_id":"ce4bhb92rcd13ifvqen0","pricing_plan_id":"cebpf4jnsgd1na2vs0mg"},{"bike_id":"6635b5c0-5c31-4ab4-9599-4d56dd04b512","system_id":"levelo_inurba_marseille","lat":43.290104,"lon":5.356111,"is_reserved":false,"is_disabled":false,"rental_uris":{"android":"levelo://app?vid=6635b5c0-5c31-4ab4-9599-4d56dd04b512","ios":"levelo://app?vid=6635b5c0-5c31-4ab4-9599-4d56dd04b512"},"vehicle_type_id":"4","last_reported":1718035832,"current_range_meters":1200,"station_id":"ce4bhb92rcd13ifvqen0","pricing_plan_id":"cebpf4jnsgd1na2vs0mg"},{"bike_id":"bb9f35df-e5ab-410d-8096-f7ad2dd6840b","system_id":"levelo_inurba_marseille","lat":43.290104,"lon":5.356111,"is_reserved":false,"is_disabled":false,"rental_uris":{"android":"levelo://app?vid=bb9f35df-e5ab-410d-8096-f7ad2dd6840b","ios":"levelo://app?vid=bb9f35df-e5ab-410d-8096-f7ad2dd6840b"},"vehicle_type_id":"4","last_reported":1718035832,"current_range_meters":4800,"station_id":"ce4bhb92rcd13ifvqen0","pricing_plan_id":"cebpf4jnsgd1na2vs0mg"},{"bike_id":"25d97c14-06d2-4f89-a6dd-eda03d3ee5a8","system_id":"levelo_inurba_marseille","lat":43.290022,"lon":5.356127,"is_reserved":false,"is_disabled":false,"rental_uris":{"android":"levelo://app?vid=25d97c14-06d2-4f89-a6dd-eda03d3ee5a8","ios":"levelo://app?vid=25d97c14-06d2-4f89-a6dd-eda03d3ee5a8"},"vehicle_type_id":"4","last_reported":1718035832,"current_range_meters":27600,"station_id":"ce4bhb92rcd13ifvqen0","pricing_plan_id":"cebpf4jnsgd1na2vs0mg"},{"bike_id":"590e40f8-2b32-4678-89af-96b72abfc635","system_id":"levelo_inurba_marseille","lat":43.29001,"lon":5.35614,"is_reserved":false,"is_disabled":false,"rental_uris":{"android":"levelo://app?vid=590e40f8-2b32-4678-89af-96b72abfc635","ios":"levelo://app?vid=590e40f8-2b32-4678-89af-96b72abfc635"},"vehicle_type_id":"4","last_reported":1718035832,"current_range_meters":30000,"station_id":"ce4bhb92rcd13ifvqen0","pricing_plan_id":"cebpf4jnsgd1na2vs0mg"},{"bike_id":"9a9c084c-eb90-4051-b488-f5c2be83a5d0","system_id":"levelo_inurba_marseille","lat":43.29101,"lon":5.38126,"is_reserved":false,"is_disabled":false,"rental_uris":{"android":"levelo://app?vid=9a9c084c-eb90-4051-b488-f5c2be83a5d0","ios":"levelo://app?vid=9a9c084c-eb90-4051-b488-f5c2be83a5d0"},"vehicle_type_id":"4","last_reported":1718035832,"current_range_meters":0,"station_id":"ce4bh512rcd13ifvqe2g","pricing_plan_id":"cebpf4jnsgd1na2vs0mg"},{"bike_id":"f7bd7b1f-9902-47eb-8638-cd13e784db89","system_id":"levelo_inurba_marseille","lat":43.290995,"lon":5.381361,"is_reserved":false,"is_disabled":false,"rental_uris":{"android":"levelo://app?vid=f7bd7b1f-9902-47eb-8638-cd13e784db89","ios":"levelo://app?vid=f7bd7b1f-9902-47eb-8638-cd13e784db89"},"vehicle_type_id":"4","last_reported":1718035832,"current_range_meters":19200,"station_id":"ce4bh512rcd13ifvqe2g","pricing_plan_id":"cebpf4jnsgd1na2vs0mg"},{"bike_id":"1beab0ad-122e-4554-9bd2-604d0b5f62f0","system_id":"levelo_inurba_marseille","lat":43.290995,"lon":5.381361,"is_reserved":false,"is_disabled":false,"rental_uris":{"android":"levelo://app?vid=1beab0ad-122e-4554-9bd2-604d0b5f62f0","ios":"levelo://app?vid=1beab0ad-122e-4554-9bd2-604d0b5f62f0"},"vehicle_type_id":"4","last_reported":1718035832,"current_range_meters":12000,"station_id":"ce4bh512rcd13ifvqe2g","pricing_plan_id":"cebpf4jnsgd1na2vs0mg"},{"bike_id":"c72870a4-ab3b-4af1-8ad2-e6abe1d8699f","system_id":"levelo_inurba_marseille","lat":43.29096,"lon":5.38124,"is_reserved":false,"is_disabled":false,"rental_uris":{"android":"levelo://app?vid=c72870a4-ab3b-4af1-8ad2-e6abe1d8699f","ios":"levelo://app?vid=c72870a4-ab3b-4af1-8ad2-e6abe1d8699f"},"vehicle_type_id":"4","last_reported":1718035832,"current_range_meters":12400,"station_id":"ce4bh512rcd13ifvqe2g","pricing_plan_id":"cebpf4jnsgd1na2vs0mg"},{"bike_id":"ff4da618-51ac-4602-afca-d9f271949f2d","system_id":"levelo_inurba_marseille","lat":43.290995,"lon":5.381361,"is_reserved":false,"is_disabled":false,"rental_uris":{"android":"levelo://app?vid=ff4da618-51ac-4602-afca-d9f271949f2d","ios":"levelo://app?vid=ff4da618-51ac-4602-afca-d9f271949f2d"},"vehicle_type_id":"4","last_reported":1718035832,"current_range_meters":6400,"station_id":"ce4bh512rcd13ifvqe2g","pricing_plan_id":"cebpf4jnsgd1na2vs0mg"},{"bike_id":"2e2cc868-2f1b-49e5-aec0-7d440321aee9","system_id":"levelo_inurba_marseille","lat":43.29091,"lon":5.38121,"is_reserved":false,"is_disabled":false,"rental_uris":{"android":"levelo://app?vid=2e2cc868-2f1b-49e5-aec0-7d440321aee9","ios":"levelo://app?vid=2e2cc868-2f1b-49e5-aec0-7d440321aee9"},"vehicle_type_id":"4","last_reported":1718035832,"current_range_meters":7200,"station_id":"ce4bh512rcd13ifvqe2g","pricing_plan_id":"cebpf4jnsgd1na2vs0mg"},{"bike_id":"327efb7a-94c4-4f75-b3d1-9030f0df1e8c","system_id":"levelo_inurba_marseille","lat":43.290995,"lon":5.381361,"is_reserved":false,"is_disabled":false,"rental_uris":{"android":"levelo://app?vid=327efb7a-94c4-4f75-b3d1-9030f0df1e8c","ios":"levelo://app?vid=327efb7a-94c4-4f75-b3d1-9030f0df1e8c"},"vehicle_type_id":"4","last_reported":1718035832,"current_range_meters":13200,"station_id":"ce4bh512rcd13ifvqe2g","pricing_plan_id":"cebpf4jnsgd1na2vs0mg"},{"bike_id":"6788df0e-6467-4309-a65e-e0bde4cc4191","system_id":"levelo_inurba_marseille","lat":43.290995,"lon":5.381361,"is_reserved":false,"is_disabled":false,"rental_uris":{"android":"levelo://app?vid=6788df0e-6467-4309-a65e-e0bde4cc4191","ios":"levelo://app?vid=6788df0e-6467-4309-a65e-e0bde4cc4191"},"vehicle_type_id":"4","last_reported":1718035832,"current_range_meters":14000,"station_id":"ce4bh512rcd13ifvqe2g","pricing_plan_id":"cebpf4jnsgd1na2vs0mg"},{"bike_id":"4a1c6ddf-0e93-46fb-9ded-4b71136610be","system_id":"levelo_inurba_marseille","lat":43.29095,"lon":5.38144,"is_reserved":false,"is_disabled":false,"rental_uris":{"android":"levelo://app?vid=4a1c6ddf-0e93-46fb-9ded-4b71136610be","ios":"levelo://app?vid=4a1c6ddf-0e93-46fb-9ded-4b71136610be"},"vehicle_type_id":"4","last_reported":1718035832,"current_range_meters":0,"station_id":"ce4bh512rcd13ifvqe2g","pricing_plan_id":"cebpf4jnsgd1na2vs0mg"},{"bike_id":"f6eb07ac-f69a-4904-8ee6-df4792d256d0","system_id":"levelo_inurba_marseille","lat":43.290995,"lon":5.381361,"is_reserved":false,"is_disabled":false,"rental_uris":{"android":"levelo://app?vid=f6eb07ac-f69a-4904-8ee6-df4792d256d0","ios":"levelo://app?vid=f6eb07ac-f69a-4904-8ee6-df4792d256d0"},"vehicle_type_id":"4","last_reported":1718035832,"current_range_meters":0,"station_id":"ce4bh512rcd13ifvqe2g","pricing_plan_id":"cebpf4jnsgd1na2vs0mg"},{"bike_id":"ab26240d-7942-4bdf-b7f9-c5e0399d265a","system_id":"levelo_inurba_marseille","lat":43.32997,"lon":5.39036,"is_reserved":false,"is_disabled":false,"rental_uris":{"android":"levelo://app?vid=ab26240d-7942-4bdf-b7f9-c5e0399d265a","ios":"levelo://app?vid=ab26240d-7942-4bdf-b7f9-c5e0399d265a"},"vehicle_type_id":"4","last_reported":1718035832,"current_range_meters":11200,"station_id":"ce4bhr92rcd13ifvqhrg","pricing_plan_id":"cebpf4jnsgd1na2vs0mg"},{"bike_id":"59b67e4d-8d79-4555-bdb3-fe5851fac66f","system_id":"levelo_inurba_marseille","lat":43.329999,"lon":5.390384,"is_reserved":false,"is_disabled":false,"rental_uris":{"android":"levelo://app?vid=59b67e4d-8d79-4555-bdb3-fe5851fac66f","ios":"levelo://app?vid=59b67e4d-8d79-4555-bdb3-fe5851fac66f"},"vehicle_type_id":"4","last_reported":1718035832,"current_range_meters":10000,"station_id":"ce4bhr92rcd13ifvqhrg","pricing_plan_id":"cebpf4jnsgd1na2vs0mg"},{"bike_id":"47fcdf31-83b4-4da0-91ca-5fec2e69702f","system_id":"levelo_inurba_marseille","lat":43.290995,"lon":5.381361,"is_reserved":false,"is_disabled":false,"rental_uris":{"android":"levelo://app?vid=47fcdf31-83b4-4da0-91ca-5fec2e69702f","ios":"levelo://app?vid=47fcdf31-83b4-4da0-91ca-5fec2e69702f"},"vehicle_type_id":"4","last_reported":1718035832,"current_range_meters":1200,"station_id":"ce4bh512rcd13ifvqe2g","pricing_plan_id":"cebpf4jnsgd1na2vs0mg"},{"bike_id":"d828b8c9-9828-4fb4-9d0c-48f21605649a","system_id":"levelo_inurba_marseille","lat":43.290995,"lon":5.381361,"is_reserved":false,"is_disabled":false,"rental_uris":{"android":"levelo://app?vid=d828b8c9-9828-4fb4-9d0c-48f21605649a","ios":"levelo://app?vid=d828b8c9-9828-4fb4-9d0c-48f21605649a"},"vehicle_type_id":"4","last_reported":1718035832,"current_range_meters":400,"station_id":"ce4bh512rcd13ifvqe2g","pricing_plan_id":"cebpf4jnsgd1na2vs0mg"},{"bike_id":"82fe3d43-5355-4f9a-a0ab-cd2caeece4cc","system_id":"levelo_inurba_marseille","lat":43.295169,"lon":5.390426,"is_reserved":false,"is_disabled":false,"rental_uris":{"android":"levelo://app?vid=82fe3d43-5355-4f9a-a0ab-cd2caeece4cc","ios":"levelo://app?vid=82fe3d43-5355-4f9a-a0ab-cd2caeece4cc"},"vehicle_type_id":"4","last_reported":1718035832,"current_range_meters":2800,"station_id":"ce4bh3p2rcd13ifvqdp0","pricing_plan_id":"cebpf4jnsgd1na2vs0mg"},{"bike_id":"9a458a84-9893-47c2-920e-a0682c528a3b","system_id":"levelo_inurba_marseille","lat":43.290994,"lon":5.382155,"is_reserved":false,"is_disabled":false,"rental_uris":{"android":"levelo://app?vid=9a458a84-9893-47c2-920e-a0682c528a3b","ios":"levelo://app?vid=9a458a84-9893-47c2-920e-a0682c528a3b"},"vehicle_type_id":"4","last_reported":1718035832,"current_range_meters":20800,"station_id":"ce4bh512rcd13ifvqe2g","pricing_plan_id":"cebpf4jnsgd1na2vs0mg"},{"bike_id":"3fda37fc-5296-4295-9161-32f0402b832e","system_id":"levelo_inurba_marseille","lat":43.33027,"lon":5.3905,"is_reserved":false,"is_disabled":false,"rental_uris":{"android":"levelo://app?vid=3fda37fc-5296-4295-9161-32f0402b832e","ios":"levelo://app?vid=3fda37fc-5296-4295-9161-32f0402b832e"},"vehicle_type_id":"4","last_reported":1718035832,"current_range_meters":12800,"station_id":"ce4bhr92rcd13ifvqhrg","pricing_plan_id":"cebpf4jnsgd1na2vs0mg"},{"bike_id":"574fa8a2-6943-49ab-b96b-b9f80ee6face","system_id":"levelo_inurba_marseille","lat":43.2901,"lon":5.381269,"is_reserved":false,"is_disabled":false,"rental_uris":{"android":"levelo://app?vid=574fa8a2-6943-49ab-b96b-b9f80ee6face","ios":"levelo://app?vid=574fa8a2-6943-49ab-b96b-b9f80ee6face"},"vehicle_type_id":"4","last_reported":1718035832,"current_range_meters":14400,"station_id":"ce4bh4p2rcd13ifvqe1g","pricing_plan_id":"cebpf4jnsgd1na2vs0mg"},{"bike_id":"f62175fd-a2b8-4091-af9d-ffab011a91b4","system_id":"levelo_inurba_marseille","lat":43.2901,"lon":5.381269,"is_reserved":false,"is_disabled":false,"rental_uris":{"android":"levelo://app?vid=f62175fd-a2b8-4091-af9d-ffab011a91b4","ios":"levelo://app?vid=f62175fd-a2b8-4091-af9d-ffab011a91b4"},"vehicle_type_id":"4","last_reported":1718035832,"current_range_meters":0,"station_id":"ce4bh4p2rcd13ifvqe1g","pricing_plan_id":"cebpf4jnsgd1na2vs0mg"},{"bike_id":"0f560bb7-ca6e-4579-b329-274a483d400e","system_id":"levelo_inurba_marseille","lat":43.2901,"lon":5.381269,"is_reserved":false,"is_disabled":false,"rental_uris":{"android":"levelo://app?vid=0f560bb7-ca6e-4579-b329-274a483d400e","ios":"levelo://app?vid=0f560bb7-ca6e-4579-b329-274a483d400e"},"vehicle_type_id":"4","last_reported":1718035832,"current_range_meters":800,"station_id":"ce4bh4p2rcd13ifvqe1g","pricing_plan_id":"cebpf4jnsgd1na2vs0mg"},{"bike_id":"b5161424-79f6-4d50-8fea-ae60ac201b00","system_id":"levelo_inurba_marseille","lat":43.2901,"lon":5.381269,"is_reserved":false,"is_disabled":false,"rental_uris":{"android":"levelo://app?vid=b5161424-79f6-4d50-8fea-ae60ac201b00","ios":"levelo://app?vid=b5161424-79f6-4d50-8fea-ae60ac201b00"},"vehicle_type_id":"4","last_reported":1718035832,"current_range_meters":6800,"station_id":"ce4bh4p2rcd13ifvqe1g","pricing_plan_id":"cebpf4jnsgd1na2vs0mg"},{"bike_id":"c2ef2dfa-036d-4c2e-96eb-87e42c670506","system_id":"levelo_inurba_marseille","lat":43.2901,"lon":5.381269,"is_reserved":false,"is_disabled":false,"rental_uris":{"android":"levelo://app?vid=c2ef2dfa-036d-4c2e-96eb-87e42c670506","ios":"levelo://app?vid=c2ef2dfa-036d-4c2e-96eb-87e42c670506"},"vehicle_type_id":"4","last_reported":1718035832,"current_range_meters":17200,"station_id":"ce4bh4p2rcd13ifvqe1g","pricing_plan_id":"cebpf4jnsgd1na2vs0mg"},{"bike_id":"ed49f778-c6ce-402b-9017-6d05c7657134","system_id":"levelo_inurba_marseille","lat":43.290094,"lon":5.381264,"is_reserved":false,"is_disabled":false,"rental_uris":{"android":"levelo://app?vid=ed49f778-c6ce-402b-9017-6d05c7657134","ios":"levelo://app?vid=ed49f778-c6ce-402b-9017-6d05c7657134"},"vehicle_type_id":"4","last_reported":1718035832,"current_range_meters":2400,"station_id":"ce4bh4p2rcd13ifvqe1g","pricing_plan_id":"cebpf4jnsgd1na2vs0mg"},{"bike_id":"0ed7a238-d43c-4d5a-89d0-60e911349d0b","system_id":"levelo_inurba_marseille","lat":43.323464,"lon":5.406297,"is_reserved":false,"is_disabled":false,"rental_uris":{"android":"levelo://app?vid=0ed7a238-d43c-4d5a-89d0-60e911349d0b","ios":"levelo://app?vid=0ed7a238-d43c-4d5a-89d0-60e911349d0b"},"vehicle_type_id":"4","last_reported":1718035832,"current_range_meters":6800,"station_id":"ce4bhq92rcd13ifvqhjg","pricing_plan_id":"cebpf4jnsgd1na2vs0mg"},{"bike_id":"b17e867e-c0f6-49c1-b91a-7b354ca6d67b","system_id":"levelo_inurba_marseille","lat":43.337444,"lon":5.374475,"is_reserved":false,"is_disabled":false,"rental_uris":{"android":"levelo://app?vid=b17e867e-c0f6-49c1-b91a-7b354ca6d67b","ios":"levelo://app?vid=b17e867e-c0f6-49c1-b91a-7b354ca6d67b"},"vehicle_type_id":"4","last_reported":1718035832,"current_range_meters":31200,"station_id":"","pricing_plan_id":"cebpf4jnsgd1na2vs0mg"},{"bike_id":"58e8b916-c44f-4c8a-9407-698e8f6d9d5c","system_id":"levelo_inurba_marseille","lat":43.3375,"lon":5.37455,"is_reserved":false,"is_disabled":false,"rental_uris":{"android":"levelo://app?vid=58e8b916-c44f-4c8a-9407-698e8f6d9d5c","ios":"levelo://app?vid=58e8b916-c44f-4c8a-9407-698e8f6d9d5c"},"vehicle_type_id":"4","last_reported":1718035832,"current_range_meters":8400,"station_id":"","pricing_plan_id":"cebpf4jnsgd1na2vs0mg"},{"bike_id":"867195e1-7316-48d0-a5d2-4e339e9cac06","system_id":"levelo_inurba_marseille","lat":43.30642,"lon":5.401031,"is_reserved":false,"is_disabled":false,"rental_uris":{"android":"levelo://app?vid=867195e1-7316-48d0-a5d2-4e339e9cac06","ios":"levelo://app?vid=867195e1-7316-48d0-a5d2-4e339e9cac06"},"vehicle_type_id":"4","last_reported":1718035832,"current_range_meters":1600,"station_id":"ce4bh112rcd13ifvqda0","pricing_plan_id":"cebpf4jnsgd1na2vs0mg"},{"bike_id":"10f4a90c-fda5-4fa5-8083-6ddd742b5e3f","system_id":"levelo_inurba_marseille","lat":43.301117,"lon":5.398795,"is_reserved":false,"is_disabled":false,"rental_uris":{"android":"levelo://app?vid=10f4a90c-fda5-4fa5-8083-6ddd742b5e3f","ios":"levelo://app?vid=10f4a90c-fda5-4fa5-8083-6ddd742b5e3f"},"vehicle_type_id":"4","last_reported":1718035832,"current_range_meters":7200,"station_id":"ce4bh0h2rcd13ifvqd40","pricing_plan_id":"cebpf4jnsgd1na2vs0mg"},{"bike_id":"52e5eca5-abe5-4b47-957c-efbfccddc17f","system_id":"levelo_inurba_marseille","lat":43.301117,"lon":5.398795,"is_reserved":false,"is_disabled":false,"rental_uris":{"android":"levelo://app?vid=52e5eca5-abe5-4b47-957c-efbfccddc17f","ios":"levelo://app?vid=52e5eca5-abe5-4b47-957c-efbfccddc17f"},"vehicle_type_id":"4","last_reported":1718035832,"current_range_meters":30800,"station_id":"ce4bh0h2rcd13ifvqd40","pricing_plan_id":"cebpf4jnsgd1na2vs0mg"},{"bike_id":"b22e5088-a62d-4d1b-99b6-d2825fb4cb20","system_id":"levelo_inurba_marseille","lat":43.301117,"lon":5.398795,"is_reserved":false,"is_disabled":false,"rental_uris":{"android":"levelo://app?vid=b22e5088-a62d-4d1b-99b6-d2825fb4cb20","ios":"levelo://app?vid=b22e5088-a62d-4d1b-99b6-d2825fb4cb20"},"vehicle_type_id":"4","last_reported":1718035832,"current_range_meters":28400,"station_id":"ce4bh0h2rcd13ifvqd40","pricing_plan_id":"cebpf4jnsgd1na2vs0mg"},{"bike_id":"f6d20481-d4e9-4cf5-b57a-1fe1052b47f3","system_id":"levelo_inurba_marseille","lat":43.28727,"lon":5.36097,"is_reserved":false,"is_disabled":false,"rental_uris":{"android":"levelo://app?vid=f6d20481-d4e9-4cf5-b57a-1fe1052b47f3","ios":"levelo://app?vid=f6d20481-d4e9-4cf5-b57a-1fe1052b47f3"},"vehicle_type_id":"4","last_reported":1718035832,"current_range_meters":0,"station_id":"cki0cbj6b192h4jlfktg","pricing_plan_id":"cebpf4jnsgd1na2vs0mg"},{"bike_id":"7906163b-1f8d-425f-8b6e-aba10e79bdee","system_id":"levelo_inurba_marseille","lat":43.286961,"lon":5.373785,"is_reserved":false,"is_disabled":false,"rental_uris":{"android":"levelo://app?vid=7906163b-1f8d-425f-8b6e-aba10e79bdee","ios":"levelo://app?vid=7906163b-1f8d-425f-8b6e-aba10e79bdee"},"vehicle_type_id":"4","last_reported":1718035832,"current_range_meters":25600,"station_id":"ce4bh3p2rcd13ifvqdq0","pricing_plan_id":"cebpf4jnsgd1na2vs0mg"},{"bike_id":"d5649d59-5a90-4194-9733-ba77b0b6bb1d","system_id":"levelo_inurba_marseille","lat":43.286961,"lon":5.373785,"is_reserved":false,"is_disabled":false,"rental_uris":{"android":"levelo://app?vid=d5649d59-5a90-4194-9733-ba77b0b6bb1d","ios":"levelo://app?vid=d5649d59-5a90-4194-9733-ba77b0b6bb1d"},"vehicle_type_id":"4","last_reported":1718035832,"current_range_meters":3200,"station_id":"ce4bh3p2rcd13ifvqdq0","pricing_plan_id":"cebpf4jnsgd1na2vs0mg"},{"bike_id":"c5d15dc8-6844-4814-8e5f-f8e024975eea","system_id":"levelo_inurba_marseille","lat":43.287014,"lon":5.373914,"is_reserved":false,"is_disabled":false,"rental_uris":{"android":"levelo://app?vid=c5d15dc8-6844-4814-8e5f-f8e024975eea","ios":"levelo://app?vid=c5d15dc8-6844-4814-8e5f-f8e024975eea"},"vehicle_type_id":"4","last_reported":1718035832,"current_range_meters":0,"station_id":"ce4bh3p2rcd13ifvqdq0","pricing_plan_id":"cebpf4jnsgd1na2vs0mg"},{"bike_id":"a5ebdc08-0d67-4b4a-8065-695441e720ee","system_id":"levelo_inurba_marseille","lat":43.295196,"lon":5.39397,"is_reserved":false,"is_disabled":false,"rental_uris":{"android":"levelo://app?vid=a5ebdc08-0d67-4b4a-8065-695441e720ee","ios":"levelo://app?vid=a5ebdc08-0d67-4b4a-8065-695441e720ee"},"vehicle_type_id":"4","last_reported":1718035832,"current_range_meters":0,"station_id":"ce4bh292rcd13ifvqdf0","pricing_plan_id":"cebpf4jnsgd1na2vs0mg"},{"bike_id":"0f28eb6c-3422-44f2-9f5e-98b24ca5ffd9","system_id":"levelo_inurba_marseille","lat":43.286591,"lon":5.363346,"is_reserved":false,"is_disabled":false,"rental_uris":{"android":"levelo://app?vid=0f28eb6c-3422-44f2-9f5e-98b24ca5ffd9","ios":"levelo://app?vid=0f28eb6c-3422-44f2-9f5e-98b24ca5ffd9"},"vehicle_type_id":"4","last_reported":1718035832,"current_range_meters":5600,"station_id":"ce4bhah2rcd13ifvqej0","pricing_plan_id":"cebpf4jnsgd1na2vs0mg"},{"bike_id":"a3e022e2-5e1e-4d22-9e2f-b91c079620d5","system_id":"levelo_inurba_marseille","lat":43.298681,"lon":5.397225,"is_reserved":false,"is_disabled":false,"rental_uris":{"android":"levelo://app?vid=a3e022e2-5e1e-4d22-9e2f-b91c079620d5","ios":"levelo://app?vid=a3e022e2-5e1e-4d22-9e2f-b91c079620d5"},"vehicle_type_id":"4","last_reported":1718035832,"current_range_meters":27600,"station_id":"ce4bh0h2rcd13ifvqd50","pricing_plan_id":"cebpf4jnsgd1na2vs0mg"},{"bike_id":"17e7668d-ed8f-4165-8592-80c3c78cac1f","system_id":"levelo_inurba_marseille","lat":43.286961,"lon":5.373785,"is_reserved":false,"is_disabled":false,"rental_uris":{"android":"levelo://app?vid=17e7668d-ed8f-4165-8592-80c3c78cac1f","ios":"levelo://app?vid=17e7668d-ed8f-4165-8592-80c3c78cac1f"},"vehicle_type_id":"4","last_reported":1718035832,"current_range_meters":10000,"station_id":"ce4bh3p2rcd13ifvqdq0","pricing_plan_id":"cebpf4jnsgd1na2vs0mg"},{"bike_id":"e00346f0-e0f7-4c38-9e08-8210237db9b6","system_id":"levelo_inurba_marseille","lat":43.286591,"lon":5.363346,"is_reserved":false,"is_disabled":false,"rental_uris":{"android":"levelo://app?vid=e00346f0-e0f7-4c38-9e08-8210237db9b6","ios":"levelo://app?vid=e00346f0-e0f7-4c38-9e08-8210237db9b6"},"vehicle_type_id":"4","last_reported":1718035832,"current_range_meters":0,"station_id":"ce4bhah2rcd13ifvqej0","pricing_plan_id":"cebpf4jnsgd1na2vs0mg"},{"bike_id":"45476678-0f09-4846-a251-796b9d9d1493","system_id":"levelo_inurba_marseille","lat":43.288308,"lon":5.380629,"is_reserved":false,"is_disabled":false,"rental_uris":{"android":"levelo://app?vid=45476678-0f09-4846-a251-796b9d9d1493","ios":"levelo://app?vid=45476678-0f09-4846-a251-796b9d9d1493"},"vehicle_type_id":"4","last_reported":1718035832,"current_range_meters":4800,"station_id":"","pricing_plan_id":"cebpf4jnsgd1na2vs0mg"},{"bike_id":"ad26d8ea-38e8-4995-ba49-c5554e98e429","system_id":"levelo_inurba_marseille","lat":43.30424,"lon":5.40133,"is_reserved":false,"is_disabled":false,"rental_uris":{"android":"levelo://app?vid=ad26d8ea-38e8-4995-ba49-c5554e98e429","ios":"levelo://app?vid=ad26d8ea-38e8-4995-ba49-c5554e98e429"},"vehicle_type_id":"4","last_reported":1718035832,"current_range_meters":25600,"station_id":"","pricing_plan_id":"cebpf4jnsgd1na2vs0mg"},{"bike_id":"a668459c-f414-4adc-afe6-fcc6130fea1b","system_id":"levelo_inurba_marseille","lat":43.29514,"lon":5.3941,"is_reserved":false,"is_disabled":false,"rental_uris":{"android":"levelo://app?vid=a668459c-f414-4adc-afe6-fcc6130fea1b","ios":"levelo://app?vid=a668459c-f414-4adc-afe6-fcc6130fea1b"},"vehicle_type_id":"4","last_reported":1718035832,"current_range_meters":0,"station_id":"ce4bh292rcd13ifvqdf0","pricing_plan_id":"cebpf4jnsgd1na2vs0mg"},{"bike_id":"a628dd93-5c82-4e40-905d-302acdd295b9","system_id":"levelo_inurba_marseille","lat":43.290345,"lon":5.38646,"is_reserved":false,"is_disabled":false,"rental_uris":{"android":"levelo://app?vid=a628dd93-5c82-4e40-905d-302acdd295b9","ios":"levelo://app?vid=a628dd93-5c82-4e40-905d-302acdd295b9"},"vehicle_type_id":"4","last_reported":1718035832,"current_range_meters":0,"station_id":"ce4bh4p2rcd13ifvqe0g","pricing_plan_id":"cebpf4jnsgd1na2vs0mg"},{"bike_id":"9390cb2b-0e09-4aea-8af6-518cdba4bf1f","system_id":"levelo_inurba_marseille","lat":43.302759,"lon":5.400793,"is_reserved":false,"is_disabled":false,"rental_uris":{"android":"levelo://app?vid=9390cb2b-0e09-4aea-8af6-518cdba4bf1f","ios":"levelo://app?vid=9390cb2b-0e09-4aea-8af6-518cdba4bf1f"},"vehicle_type_id":"4","last_reported":1718035832,"current_range_meters":0,"station_id":"ce4bgvh2rcd13ifvqcs0","pricing_plan_id":"cebpf4jnsgd1na2vs0mg"},{"bike_id":"e1f71a6c-3a66-4da5-a082-205b5648a923","system_id":"levelo_inurba_marseille","lat":43.290345,"lon":5.38646,"is_reserved":false,"is_disabled":false,"rental_uris":{"android":"levelo://app?vid=e1f71a6c-3a66-4da5-a082-205b5648a923","ios":"levelo://app?vid=e1f71a6c-3a66-4da5-a082-205b5648a923"},"vehicle_type_id":"4","last_reported":1718035832,"current_range_meters":26400,"station_id":"ce4bh4p2rcd13ifvqe0g","pricing_plan_id":"cebpf4jnsgd1na2vs0mg"},{"bike_id":"ce2c880d-fa54-47fb-b33c-ffdcdfb438eb","system_id":"levelo_inurba_marseille","lat":43.290345,"lon":5.38646,"is_reserved":false,"is_disabled":false,"rental_uris":{"android":"levelo://app?vid=ce2c880d-fa54-47fb-b33c-ffdcdfb438eb","ios":"levelo://app?vid=ce2c880d-fa54-47fb-b33c-ffdcdfb438eb"},"vehicle_type_id":"4","last_reported":1718035832,"current_range_meters":0,"station_id":"ce4bh4p2rcd13ifvqe0g","pricing_plan_id":"cebpf4jnsgd1na2vs0mg"},{"bike_id":"22fc8f61-16a9-4ec1-bb57-001360f53872","system_id":"levelo_inurba_marseille","lat":43.286039,"lon":5.370679,"is_reserved":false,"is_disabled":false,"rental_uris":{"android":"levelo://app?vid=22fc8f61-16a9-4ec1-bb57-001360f53872","ios":"levelo://app?vid=22fc8f61-16a9-4ec1-bb57-001360f53872"},"vehicle_type_id":"4","last_reported":1718035832,"current_range_meters":14800,"station_id":"ce4bht12rcd13ifvqi60","pricing_plan_id":"cebpf4jnsgd1na2vs0mg"},{"bike_id":"ce48cd26-9469-484e-a673-be61288f799a","system_id":"levelo_inurba_marseille","lat":43.28609,"lon":5.37065,"is_reserved":false,"is_disabled":false,"rental_uris":{"android":"levelo://app?vid=ce48cd26-9469-484e-a673-be61288f799a","ios":"levelo://app?vid=ce48cd26-9469-484e-a673-be61288f799a"},"vehicle_type_id":"4","last_reported":1718035832,"current_range_meters":0,"station_id":"","pricing_plan_id":"cebpf4jnsgd1na2vs0mg"},{"bike_id":"58bc69ed-9f66-49bb-ae51-fbfcfe1fcdbb","system_id":"levelo_inurba_marseille","lat":43.286039,"lon":5.370679,"is_reserved":false,"is_disabled":false,"rental_uris":{"android":"levelo://app?vid=58bc69ed-9f66-49bb-ae51-fbfcfe1fcdbb","ios":"levelo://app?vid=58bc69ed-9f66-49bb-ae51-fbfcfe1fcdbb"},"vehicle_type_id":"4","last_reported":1718035832,"current_range_meters":11600,"station_id":"ce4bht12rcd13ifvqi60","pricing_plan_id":"cebpf4jnsgd1na2vs0mg"},{"bike_id":"dd68c840-fb08-499b-9846-a99ed89fe836","system_id":"levelo_inurba_marseille","lat":43.291994,"lon":5.392907,"is_reserved":false,"is_disabled":false,"rental_uris":{"android":"levelo://app?vid=dd68c840-fb08-499b-9846-a99ed89fe836","ios":"levelo://app?vid=dd68c840-fb08-499b-9846-a99ed89fe836"},"vehicle_type_id":"4","last_reported":1718035832,"current_range_meters":0,"station_id":"ce4bh192rcd13ifvqdd0","pricing_plan_id":"cebpf4jnsgd1na2vs0mg"},{"bike_id":"a1b15b5f-4248-4ff6-941f-99beaf9ada36","system_id":"levelo_inurba_marseille","lat":43.291994,"lon":5.392907,"is_reserved":false,"is_disabled":false,"rental_uris":{"android":"levelo://app?vid=a1b15b5f-4248-4ff6-941f-99beaf9ada36","ios":"levelo://app?vid=a1b15b5f-4248-4ff6-941f-99beaf9ada36"},"vehicle_type_id":"4","last_reported":1718035832,"current_range_meters":0,"station_id":"ce4bh192rcd13ifvqdd0","pricing_plan_id":"cebpf4jnsgd1na2vs0mg"},{"bike_id":"8d1e99aa-b65a-4534-9f5b-bf7f0e993a0c","system_id":"levelo_inurba_marseille","lat":43.284538,"lon":5.358657,"is_reserved":false,"is_disabled":false,"rental_uris":{"android":"levelo://app?vid=8d1e99aa-b65a-4534-9f5b-bf7f0e993a0c","ios":"levelo://app?vid=8d1e99aa-b65a-4534-9f5b-bf7f0e993a0c"},"vehicle_type_id":"4","last_reported":1718035832,"current_range_meters":31600,"station_id":"ce4bhah2rcd13ifvqei0","pricing_plan_id":"cebpf4jnsgd1na2vs0mg"},{"bike_id":"7fd6455a-502c-4927-88f2-af0c96938802","system_id":"levelo_inurba_marseille","lat":43.284538,"lon":5.358657,"is_reserved":false,"is_disabled":false,"rental_uris":{"android":"levelo://app?vid=7fd6455a-502c-4927-88f2-af0c96938802","ios":"levelo://app?vid=7fd6455a-502c-4927-88f2-af0c96938802"},"vehicle_type_id":"4","last_reported":1718035832,"current_range_meters":18400,"station_id":"ce4bhah2rcd13ifvqei0","pricing_plan_id":"cebpf4jnsgd1na2vs0mg"},{"bike_id":"feb02808-36bd-4dad-9155-db319c605db3","system_id":"levelo_inurba_marseille","lat":43.284538,"lon":5.358657,"is_reserved":false,"is_disabled":false,"rental_uris":{"android":"levelo://app?vid=feb02808-36bd-4dad-9155-db319c605db3","ios":"levelo://app?vid=feb02808-36bd-4dad-9155-db319c605db3"},"vehicle_type_id":"4","last_reported":1718035832,"current_range_meters":24000,"station_id":"ce4bhah2rcd13ifvqei0","pricing_plan_id":"cebpf4jnsgd1na2vs0mg"},{"bike_id":"f7c2bfd4-3e27-4999-a858-c5d74ed8687d","system_id":"levelo_inurba_marseille","lat":43.284538,"lon":5.358657,"is_reserved":false,"is_disabled":false,"rental_uris":{"android":"levelo://app?vid=f7c2bfd4-3e27-4999-a858-c5d74ed8687d","ios":"levelo://app?vid=f7c2bfd4-3e27-4999-a858-c5d74ed8687d"},"vehicle_type_id":"4","last_reported":1718035832,"current_range_meters":0,"station_id":"ce4bhah2rcd13ifvqei0","pricing_plan_id":"cebpf4jnsgd1na2vs0mg"},{"bike_id":"33592b32-bb59-400d-8600-63aa95529ebc","system_id":"levelo_inurba_marseille","lat":43.284534,"lon":5.358662,"is_reserved":false,"is_disabled":false,"rental_uris":{"android":"levelo://app?vid=33592b32-bb59-400d-8600-63aa95529ebc","ios":"levelo://app?vid=33592b32-bb59-400d-8600-63aa95529ebc"},"vehicle_type_id":"4","last_reported":1718035832,"current_range_meters":31600,"station_id":"ce4bhah2rcd13ifvqei0","pricing_plan_id":"cebpf4jnsgd1na2vs0mg"},{"bike_id":"86deaeaf-9a64-4c71-9eac-d58b04b3afb8","system_id":"levelo_inurba_marseille","lat":43.284534,"lon":5.358662,"is_reserved":false,"is_disabled":false,"rental_uris":{"android":"levelo://app?vid=86deaeaf-9a64-4c71-9eac-d58b04b3afb8","ios":"levelo://app?vid=86deaeaf-9a64-4c71-9eac-d58b04b3afb8"},"vehicle_type_id":"4","last_reported":1718035832,"current_range_meters":6800,"station_id":"ce4bhah2rcd13ifvqei0","pricing_plan_id":"cebpf4jnsgd1na2vs0mg"},{"bike_id":"e7c319e9-ec4a-402b-88a8-3ba498944faa","system_id":"levelo_inurba_marseille","lat":43.284534,"lon":5.358662,"is_reserved":false,"is_disabled":false,"rental_uris":{"android":"levelo://app?vid=e7c319e9-ec4a-402b-88a8-3ba498944faa","ios":"levelo://app?vid=e7c319e9-ec4a-402b-88a8-3ba498944faa"},"vehicle_type_id":"4","last_reported":1718035832,"current_range_meters":14400,"station_id":"ce4bhah2rcd13ifvqei0","pricing_plan_id":"cebpf4jnsgd1na2vs0mg"},{"bike_id":"8aedab9e-0e62-4dc2-a794-8761369e0360","system_id":"levelo_inurba_marseille","lat":43.284534,"lon":5.358662,"is_reserved":false,"is_disabled":false,"rental_uris":{"android":"levelo://app?vid=8aedab9e-0e62-4dc2-a794-8761369e0360","ios":"levelo://app?vid=8aedab9e-0e62-4dc2-a794-8761369e0360"},"vehicle_type_id":"4","last_reported":1718035832,"current_range_meters":18800,"station_id":"ce4bhah2rcd13ifvqei0","pricing_plan_id":"cebpf4jnsgd1na2vs0mg"},{"bike_id":"90b0a15e-256f-48eb-8bc3-a7206d0c6464","system_id":"levelo_inurba_marseille","lat":43.284538,"lon":5.358657,"is_reserved":false,"is_disabled":false,"rental_uris":{"android":"levelo://app?vid=90b0a15e-256f-48eb-8bc3-a7206d0c6464","ios":"levelo://app?vid=90b0a15e-256f-48eb-8bc3-a7206d0c6464"},"vehicle_type_id":"4","last_reported":1718035832,"current_range_meters":15600,"station_id":"ce4bhah2rcd13ifvqei0","pricing_plan_id":"cebpf4jnsgd1na2vs0mg"},{"bike_id":"a0ac401c-10d9-4ab9-9543-e0e07e156538","system_id":"levelo_inurba_marseille","lat":43.294314,"lon":5.397498,"is_reserved":false,"is_disabled":false,"rental_uris":{"android":"levelo://app?vid=a0ac401c-10d9-4ab9-9543-e0e07e156538","ios":"levelo://app?vid=a0ac401c-10d9-4ab9-9543-e0e07e156538"},"vehicle_type_id":"4","last_reported":1718035832,"current_range_meters":18800,"station_id":"ce4bh3h2rcd13ifvqdo0","pricing_plan_id":"cebpf4jnsgd1na2vs0mg"},{"bike_id":"fc5575d8-b0ff-48e8-aa84-d1ec9399f53d","system_id":"levelo_inurba_marseille","lat":43.284534,"lon":5.358662,"is_reserved":false,"is_disabled":false,"rental_uris":{"android":"levelo://app?vid=fc5575d8-b0ff-48e8-aa84-d1ec9399f53d","ios":"levelo://app?vid=fc5575d8-b0ff-48e8-aa84-d1ec9399f53d"},"vehicle_type_id":"4","last_reported":1718035832,"current_range_meters":13200,"station_id":"ce4bhah2rcd13ifvqei0","pricing_plan_id":"cebpf4jnsgd1na2vs0mg"},{"bike_id":"b41bd550-791b-4030-86a9-06006db06016","system_id":"levelo_inurba_marseille","lat":43.294314,"lon":5.397498,"is_reserved":false,"is_disabled":false,"rental_uris":{"android":"levelo://app?vid=b41bd550-791b-4030-86a9-06006db06016","ios":"levelo://app?vid=b41bd550-791b-4030-86a9-06006db06016"},"vehicle_type_id":"4","last_reported":1718035832,"current_range_meters":10800,"station_id":"ce4bh3h2rcd13ifvqdo0","pricing_plan_id":"cebpf4jnsgd1na2vs0mg"},{"bike_id":"a29ff00d-2346-45cc-ad7d-999246669009","system_id":"levelo_inurba_marseille","lat":43.284534,"lon":5.358662,"is_reserved":false,"is_disabled":false,"rental_uris":{"android":"levelo://app?vid=a29ff00d-2346-45cc-ad7d-999246669009","ios":"levelo://app?vid=a29ff00d-2346-45cc-ad7d-999246669009"},"vehicle_type_id":"4","last_reported":1718035832,"current_range_meters":32000,"station_id":"ce4bhah2rcd13ifvqei0","pricing_plan_id":"cebpf4jnsgd1na2vs0mg"},{"bike_id":"89794ab4-9a82-46b2-bcce-2f41ec785d44","system_id":"levelo_inurba_marseille","lat":43.286328,"lon":5.351241,"is_reserved":false,"is_disabled":false,"rental_uris":{"android":"levelo://app?vid=89794ab4-9a82-46b2-bcce-2f41ec785d44","ios":"levelo://app?vid=89794ab4-9a82-46b2-bcce-2f41ec785d44"},"vehicle_type_id":"4","last_reported":1718035832,"current_range_meters":7600,"station_id":"ce4bhch2rcd13ifvqeug","pricing_plan_id":"cebpf4jnsgd1na2vs0mg"},{"bike_id":"4d7cfe8b-7074-4279-8d23-4c3e6408017f","system_id":"levelo_inurba_marseille","lat":43.284534,"lon":5.358662,"is_reserved":false,"is_disabled":false,"rental_uris":{"android":"levelo://app?vid=4d7cfe8b-7074-4279-8d23-4c3e6408017f","ios":"levelo://app?vid=4d7cfe8b-7074-4279-8d23-4c3e6408017f"},"vehicle_type_id":"4","last_reported":1718035832,"current_range_meters":0,"station_id":"ce4bhah2rcd13ifvqei0","pricing_plan_id":"cebpf4jnsgd1na2vs0mg"},{"bike_id":"f07a4f24-f619-453c-9498-b4b0e1f20cd2","system_id":"levelo_inurba_marseille","lat":43.284534,"lon":5.358662,"is_reserved":false,"is_disabled":false,"rental_uris":{"android":"levelo://app?vid=f07a4f24-f619-453c-9498-b4b0e1f20cd2","ios":"levelo://app?vid=f07a4f24-f619-453c-9498-b4b0e1f20cd2"},"vehicle_type_id":"4","last_reported":1718035832,"current_range_meters":31600,"station_id":"ce4bhah2rcd13ifvqei0","pricing_plan_id":"cebpf4jnsgd1na2vs0mg"},{"bike_id":"c1311968-1277-4cd1-a545-8a0179c8b5de","system_id":"levelo_inurba_marseille","lat":43.285848,"lon":5.350787,"is_reserved":false,"is_disabled":false,"rental_uris":{"android":"levelo://app?vid=c1311968-1277-4cd1-a545-8a0179c8b5de","ios":"levelo://app?vid=c1311968-1277-4cd1-a545-8a0179c8b5de"},"vehicle_type_id":"4","last_reported":1718035832,"current_range_meters":13600,"station_id":"ce4bhch2rcd13ifvqeug","pricing_plan_id":"cebpf4jnsgd1na2vs0mg"},{"bike_id":"84ed4239-a9b0-4d77-9697-e93cc841c5e9","system_id":"levelo_inurba_marseille","lat":43.28615,"lon":5.35119,"is_reserved":false,"is_disabled":false,"rental_uris":{"android":"levelo://app?vid=84ed4239-a9b0-4d77-9697-e93cc841c5e9","ios":"levelo://app?vid=84ed4239-a9b0-4d77-9697-e93cc841c5e9"},"vehicle_type_id":"4","last_reported":1718035832,"current_range_meters":28400,"station_id":"ce4bhch2rcd13ifvqeug","pricing_plan_id":"cebpf4jnsgd1na2vs0mg"},{"bike_id":"f97d9c61-5805-4606-b449-e253b45ee73d","system_id":"levelo_inurba_marseille","lat":43.28616,"lon":5.35106,"is_reserved":false,"is_disabled":false,"rental_uris":{"android":"levelo://app?vid=f97d9c61-5805-4606-b449-e253b45ee73d","ios":"levelo://app?vid=f97d9c61-5805-4606-b449-e253b45ee73d"},"vehicle_type_id":"4","last_reported":1718035832,"current_range_meters":28000,"station_id":"ce4bhch2rcd13ifvqeug","pricing_plan_id":"cebpf4jnsgd1na2vs0mg"},{"bike_id":"e6b1e69e-95fc-4733-935d-a107057dc642","system_id":"levelo_inurba_marseille","lat":43.28617,"lon":5.35099,"is_reserved":false,"is_disabled":false,"rental_uris":{"android":"levelo://app?vid=e6b1e69e-95fc-4733-935d-a107057dc642","ios":"levelo://app?vid=e6b1e69e-95fc-4733-935d-a107057dc642"},"vehicle_type_id":"4","last_reported":1718035832,"current_range_meters":29200,"station_id":"ce4bhch2rcd13ifvqeug","pricing_plan_id":"cebpf4jnsgd1na2vs0mg"},{"bike_id":"ec0ad901-85a9-43cd-a903-5ae7de36e2b4","system_id":"levelo_inurba_marseille","lat":43.286131,"lon":5.351003,"is_reserved":false,"is_disabled":false,"rental_uris":{"android":"levelo://app?vid=ec0ad901-85a9-43cd-a903-5ae7de36e2b4","ios":"levelo://app?vid=ec0ad901-85a9-43cd-a903-5ae7de36e2b4"},"vehicle_type_id":"4","last_reported":1718035832,"current_range_meters":27200,"station_id":"ce4bhch2rcd13ifvqeug","pricing_plan_id":"cebpf4jnsgd1na2vs0mg"},{"bike_id":"191df98f-29b1-41e3-91e6-9e3ddbe40480","system_id":"levelo_inurba_marseille","lat":43.28612,"lon":5.35098,"is_reserved":false,"is_disabled":false,"rental_uris":{"android":"levelo://app?vid=191df98f-29b1-41e3-91e6-9e3ddbe40480","ios":"levelo://app?vid=191df98f-29b1-41e3-91e6-9e3ddbe40480"},"vehicle_type_id":"4","last_reported":1718035832,"current_range_meters":21200,"station_id":"ce4bhch2rcd13ifvqeug","pricing_plan_id":"cebpf4jnsgd1na2vs0mg"},{"bike_id":"12ca9d7b-5a98-4cf0-8a28-b35bb6153606","system_id":"levelo_inurba_marseille","lat":43.28609,"lon":5.35093,"is_reserved":false,"is_disabled":false,"rental_uris":{"android":"levelo://app?vid=12ca9d7b-5a98-4cf0-8a28-b35bb6153606","ios":"levelo://app?vid=12ca9d7b-5a98-4cf0-8a28-b35bb6153606"},"vehicle_type_id":"4","last_reported":1718035832,"current_range_meters":11600,"station_id":"ce4bhch2rcd13ifvqeug","pricing_plan_id":"cebpf4jnsgd1na2vs0mg"},{"bike_id":"cfde2834-2c9e-4946-ba0d-3be9dae0990d","system_id":"levelo_inurba_marseille","lat":43.283998,"lon":5.375062,"is_reserved":false,"is_disabled":false,"rental_uris":{"android":"levelo://app?vid=cfde2834-2c9e-4946-ba0d-3be9dae0990d","ios":"levelo://app?vid=cfde2834-2c9e-4946-ba0d-3be9dae0990d"},"vehicle_type_id":"4","last_reported":1718035832,"current_range_meters":12400,"station_id":"ce4bh412rcd13ifvqds0","pricing_plan_id":"cebpf4jnsgd1na2vs0mg"},{"bike_id":"c9ba3162-db69-4052-a66a-b38399d8eff0","system_id":"levelo_inurba_marseille","lat":43.283998,"lon":5.375062,"is_reserved":false,"is_disabled":false,"rental_uris":{"android":"levelo://app?vid=c9ba3162-db69-4052-a66a-b38399d8eff0","ios":"levelo://app?vid=c9ba3162-db69-4052-a66a-b38399d8eff0"},"vehicle_type_id":"4","last_reported":1718035832,"current_range_meters":0,"station_id":"ce4bh412rcd13ifvqds0","pricing_plan_id":"cebpf4jnsgd1na2vs0mg"},{"bike_id":"ccd2b6d4-ed3e-4e9a-aa0b-05e9aeb10037","system_id":"levelo_inurba_marseille","lat":43.2841,"lon":5.37517,"is_reserved":false,"is_disabled":false,"rental_uris":{"android":"levelo://app?vid=ccd2b6d4-ed3e-4e9a-aa0b-05e9aeb10037","ios":"levelo://app?vid=ccd2b6d4-ed3e-4e9a-aa0b-05e9aeb10037"},"vehicle_type_id":"4","last_reported":1718035832,"current_range_meters":2000,"station_id":"ce4bh412rcd13ifvqds0","pricing_plan_id":"cebpf4jnsgd1na2vs0mg"},{"bike_id":"71108269-3fa0-4a7c-96b6-a1d883de5241","system_id":"levelo_inurba_marseille","lat":43.29574,"lon":5.3997,"is_reserved":false,"is_disabled":false,"rental_uris":{"android":"levelo://app?vid=71108269-3fa0-4a7c-96b6-a1d883de5241","ios":"levelo://app?vid=71108269-3fa0-4a7c-96b6-a1d883de5241"},"vehicle_type_id":"4","last_reported":1718035832,"current_range_meters":0,"station_id":"ce4bh312rcd13ifvqdj0","pricing_plan_id":"cebpf4jnsgd1na2vs0mg"},{"bike_id":"b7f1f9fc-f4b2-482e-b75a-5cc45a955495","system_id":"levelo_inurba_marseille","lat":43.283998,"lon":5.375062,"is_reserved":false,"is_disabled":false,"rental_uris":{"android":"levelo://app?vid=b7f1f9fc-f4b2-482e-b75a-5cc45a955495","ios":"levelo://app?vid=b7f1f9fc-f4b2-482e-b75a-5cc45a955495"},"vehicle_type_id":"4","last_reported":1718035832,"current_range_meters":0,"station_id":"ce4bh412rcd13ifvqds0","pricing_plan_id":"cebpf4jnsgd1na2vs0mg"},{"bike_id":"ae348b75-7bfb-4cd2-8d8b-419e8390ede1","system_id":"levelo_inurba_marseille","lat":43.28405,"lon":5.3752,"is_reserved":false,"is_disabled":false,"rental_uris":{"android":"levelo://app?vid=ae348b75-7bfb-4cd2-8d8b-419e8390ede1","ios":"levelo://app?vid=ae348b75-7bfb-4cd2-8d8b-419e8390ede1"},"vehicle_type_id":"4","last_reported":1718035832,"current_range_meters":8400,"station_id":"ce4bh412rcd13ifvqds0","pricing_plan_id":"cebpf4jnsgd1na2vs0mg"},{"bike_id":"7e93e9f0-d55a-4997-aa50-d08c4da25a0f","system_id":"levelo_inurba_marseille","lat":43.283998,"lon":5.375062,"is_reserved":false,"is_disabled":false,"rental_uris":{"android":"levelo://app?vid=7e93e9f0-d55a-4997-aa50-d08c4da25a0f","ios":"levelo://app?vid=7e93e9f0-d55a-4997-aa50-d08c4da25a0f"},"vehicle_type_id":"4","last_reported":1718035832,"current_range_meters":0,"station_id":"ce4bh412rcd13ifvqds0","pricing_plan_id":"cebpf4jnsgd1na2vs0mg"},{"bike_id":"88481829-f8bc-4e7b-9448-4ba9b8a37969","system_id":"levelo_inurba_marseille","lat":43.298433,"lon":5.362774,"is_reserved":false,"is_disabled":false,"rental_uris":{"android":"levelo://app?vid=88481829-f8bc-4e7b-9448-4ba9b8a37969","ios":"levelo://app?vid=88481829-f8bc-4e7b-9448-4ba9b8a37969"},"vehicle_type_id":"4","last_reported":1718035832,"current_range_meters":1600,"station_id":"ce4bgpp2rcd13ifvqc3g","pricing_plan_id":"cebpf4jnsgd1na2vs0mg"},{"bike_id":"f444c0aa-f01a-4626-9a37-c039694e940e","system_id":"levelo_inurba_marseille","lat":43.286595,"lon":5.386795,"is_reserved":false,"is_disabled":false,"rental_uris":{"android":"levelo://app?vid=f444c0aa-f01a-4626-9a37-c039694e940e","ios":"levelo://app?vid=f444c0aa-f01a-4626-9a37-c039694e940e"},"vehicle_type_id":"4","last_reported":1718035832,"current_range_meters":0,"station_id":"ce4bh492rcd13ifvqdug","pricing_plan_id":"cebpf4jnsgd1na2vs0mg"},{"bike_id":"1cb7ffaa-50aa-4458-a51f-d3007e6fcfca","system_id":"levelo_inurba_marseille","lat":43.31237,"lon":5.40762,"is_reserved":false,"is_disabled":false,"rental_uris":{"android":"levelo://app?vid=1cb7ffaa-50aa-4458-a51f-d3007e6fcfca","ios":"levelo://app?vid=1cb7ffaa-50aa-4458-a51f-d3007e6fcfca"},"vehicle_type_id":"4","last_reported":1718035832,"current_range_meters":25200,"station_id":"","pricing_plan_id":"cebpf4jnsgd1na2vs0mg"},{"bike_id":"b8196455-be68-4e46-b4c8-1ab4e608e0d7","system_id":"levelo_inurba_marseille","lat":43.28684,"lon":5.38704,"is_reserved":false,"is_disabled":false,"rental_uris":{"android":"levelo://app?vid=b8196455-be68-4e46-b4c8-1ab4e608e0d7","ios":"levelo://app?vid=b8196455-be68-4e46-b4c8-1ab4e608e0d7"},"vehicle_type_id":"4","last_reported":1718035832,"current_range_meters":0,"station_id":"ce4bh492rcd13ifvqdug","pricing_plan_id":"cebpf4jnsgd1na2vs0mg"},{"bike_id":"8147fd30-1e1a-452d-b6c3-3635e8d3431e","system_id":"levelo_inurba_marseille","lat":43.286595,"lon":5.386795,"is_reserved":false,"is_disabled":false,"rental_uris":{"android":"levelo://app?vid=8147fd30-1e1a-452d-b6c3-3635e8d3431e","ios":"levelo://app?vid=8147fd30-1e1a-452d-b6c3-3635e8d3431e"},"vehicle_type_id":"4","last_reported":1718035832,"current_range_meters":26000,"station_id":"ce4bh492rcd13ifvqdug","pricing_plan_id":"cebpf4jnsgd1na2vs0mg"},{"bike_id":"cee46986-4088-4248-b02a-108e738179f3","system_id":"levelo_inurba_marseille","lat":43.319179,"lon":5.407725,"is_reserved":false,"is_disabled":false,"rental_uris":{"android":"levelo://app?vid=cee46986-4088-4248-b02a-108e738179f3","ios":"levelo://app?vid=cee46986-4088-4248-b02a-108e738179f3"},"vehicle_type_id":"4","last_reported":1718035832,"current_range_meters":23600,"station_id":"ce4bhq12rcd13ifvqhig","pricing_plan_id":"cebpf4jnsgd1na2vs0mg"},{"bike_id":"ce33d7e7-00c2-4bc4-a09a-a245f8bca3eb","system_id":"levelo_inurba_marseille","lat":43.297946,"lon":5.404063,"is_reserved":false,"is_disabled":false,"rental_uris":{"android":"levelo://app?vid=ce33d7e7-00c2-4bc4-a09a-a245f8bca3eb","ios":"levelo://app?vid=ce33d7e7-00c2-4bc4-a09a-a245f8bca3eb"},"vehicle_type_id":"4","last_reported":1718035832,"current_range_meters":6400,"station_id":"ce4bh112rcd13ifvqd90","pricing_plan_id":"cebpf4jnsgd1na2vs0mg"},{"bike_id":"da86a6a7-1465-4227-b8e5-409a82d58e67","system_id":"levelo_inurba_marseille","lat":43.337168,"lon":5.391825,"is_reserved":false,"is_disabled":false,"rental_uris":{"android":"levelo://app?vid=da86a6a7-1465-4227-b8e5-409a82d58e67","ios":"levelo://app?vid=da86a6a7-1465-4227-b8e5-409a82d58e67"},"vehicle_type_id":"4","last_reported":1718035832,"current_range_meters":4400,"station_id":"ce4bhr92rcd13ifvqhsg","pricing_plan_id":"cebpf4jnsgd1na2vs0mg"},{"bike_id":"91261913-532a-40fb-a939-dbd425ab289f","system_id":"levelo_inurba_marseille","lat":43.33717,"lon":5.391857,"is_reserved":false,"is_disabled":false,"rental_uris":{"android":"levelo://app?vid=91261913-532a-40fb-a939-dbd425ab289f","ios":"levelo://app?vid=91261913-532a-40fb-a939-dbd425ab289f"},"vehicle_type_id":"4","last_reported":1718035832,"current_range_meters":21200,"station_id":"ce4bhr92rcd13ifvqhsg","pricing_plan_id":"cebpf4jnsgd1na2vs0mg"},{"bike_id":"b07f75de-6667-49b9-888e-04a8f07c6553","system_id":"levelo_inurba_marseille","lat":43.297946,"lon":5.404063,"is_reserved":false,"is_disabled":false,"rental_uris":{"android":"levelo://app?vid=b07f75de-6667-49b9-888e-04a8f07c6553","ios":"levelo://app?vid=b07f75de-6667-49b9-888e-04a8f07c6553"},"vehicle_type_id":"4","last_reported":1718035832,"current_range_meters":1600,"station_id":"ce4bh112rcd13ifvqd90","pricing_plan_id":"cebpf4jnsgd1na2vs0mg"},{"bike_id":"7c814ad2-1c6a-4832-81c6-5dc0bbb8f0e3","system_id":"levelo_inurba_marseille","lat":43.28872,"lon":5.39318,"is_reserved":false,"is_disabled":false,"rental_uris":{"android":"levelo://app?vid=7c814ad2-1c6a-4832-81c6-5dc0bbb8f0e3","ios":"levelo://app?vid=7c814ad2-1c6a-4832-81c6-5dc0bbb8f0e3"},"vehicle_type_id":"4","last_reported":1718035832,"current_range_meters":29200,"station_id":"","pricing_plan_id":"cebpf4jnsgd1na2vs0mg"},{"bike_id":"8d20c015-08e3-4ab4-8917-690e9e35453e","system_id":"levelo_inurba_marseille","lat":43.288497,"lon":5.393089,"is_reserved":false,"is_disabled":false,"rental_uris":{"android":"levelo://app?vid=8d20c015-08e3-4ab4-8917-690e9e35453e","ios":"levelo://app?vid=8d20c015-08e3-4ab4-8917-690e9e35453e"},"vehicle_type_id":"4","last_reported":1718035832,"current_range_meters":12800,"station_id":"ce4bh2p2rcd13ifvqdi0","pricing_plan_id":"cebpf4jnsgd1na2vs0mg"},{"bike_id":"816f539d-4258-43c3-a66f-c4730aba4c03","system_id":"levelo_inurba_marseille","lat":43.29795,"lon":5.404086,"is_reserved":false,"is_disabled":false,"rental_uris":{"android":"levelo://app?vid=816f539d-4258-43c3-a66f-c4730aba4c03","ios":"levelo://app?vid=816f539d-4258-43c3-a66f-c4730aba4c03"},"vehicle_type_id":"4","last_reported":1718035832,"current_range_meters":23200,"station_id":"ce4bh112rcd13ifvqd90","pricing_plan_id":"cebpf4jnsgd1na2vs0mg"},{"bike_id":"6051e19f-8657-4298-a234-da041121b560","system_id":"levelo_inurba_marseille","lat":43.284793,"lon":5.384119,"is_reserved":false,"is_disabled":false,"rental_uris":{"android":"levelo://app?vid=6051e19f-8657-4298-a234-da041121b560","ios":"levelo://app?vid=6051e19f-8657-4298-a234-da041121b560"},"vehicle_type_id":"4","last_reported":1718035832,"current_range_meters":0,"station_id":"ce4bh512rcd13ifvqe3g","pricing_plan_id":"cebpf4jnsgd1na2vs0mg"},{"bike_id":"affefc31-d8de-48de-8644-bd36decc97fb","system_id":"levelo_inurba_marseille","lat":43.29795,"lon":5.404086,"is_reserved":false,"is_disabled":false,"rental_uris":{"android":"levelo://app?vid=affefc31-d8de-48de-8644-bd36decc97fb","ios":"levelo://app?vid=affefc31-d8de-48de-8644-bd36decc97fb"},"vehicle_type_id":"4","last_reported":1718035832,"current_range_meters":12800,"station_id":"ce4bh112rcd13ifvqd90","pricing_plan_id":"cebpf4jnsgd1na2vs0mg"},{"bike_id":"4025fa08-44b2-4387-b717-496973e92241","system_id":"levelo_inurba_marseille","lat":43.288501,"lon":5.393087,"is_reserved":false,"is_disabled":false,"rental_uris":{"android":"levelo://app?vid=4025fa08-44b2-4387-b717-496973e92241","ios":"levelo://app?vid=4025fa08-44b2-4387-b717-496973e92241"},"vehicle_type_id":"4","last_reported":1718035832,"current_range_meters":0,"station_id":"ce4bh2p2rcd13ifvqdi0","pricing_plan_id":"cebpf4jnsgd1na2vs0mg"},{"bike_id":"9beada32-8765-4c73-8ff5-ff2d61f43bcf","system_id":"levelo_inurba_marseille","lat":43.288479,"lon":5.393262,"is_reserved":false,"is_disabled":false,"rental_uris":{"android":"levelo://app?vid=9beada32-8765-4c73-8ff5-ff2d61f43bcf","ios":"levelo://app?vid=9beada32-8765-4c73-8ff5-ff2d61f43bcf"},"vehicle_type_id":"4","last_reported":1718035832,"current_range_meters":0,"station_id":"ce4bh2p2rcd13ifvqdi0","pricing_plan_id":"cebpf4jnsgd1na2vs0mg"},{"bike_id":"004635dd-1215-443b-8ce5-2131885d7243","system_id":"levelo_inurba_marseille","lat":43.283494,"lon":5.380945,"is_reserved":false,"is_disabled":false,"rental_uris":{"android":"levelo://app?vid=004635dd-1215-443b-8ce5-2131885d7243","ios":"levelo://app?vid=004635dd-1215-443b-8ce5-2131885d7243"},"vehicle_type_id":"4","last_reported":1718035832,"current_range_meters":400,"station_id":"ce4bh412rcd13ifvqdr0","pricing_plan_id":"cebpf4jnsgd1na2vs0mg"},{"bike_id":"da1f70dd-5487-4c96-b430-78e8b5d2346e","system_id":"levelo_inurba_marseille","lat":43.284316,"lon":5.349931,"is_reserved":false,"is_disabled":false,"rental_uris":{"android":"levelo://app?vid=da1f70dd-5487-4c96-b430-78e8b5d2346e","ios":"levelo://app?vid=da1f70dd-5487-4c96-b430-78e8b5d2346e"},"vehicle_type_id":"4","last_reported":1718035832,"current_range_meters":20400,"station_id":"ce4bhbh2rcd13ifvqepg","pricing_plan_id":"cebpf4jnsgd1na2vs0mg"},{"bike_id":"3d2113c5-928c-4737-84b1-b04866ce0d3b","system_id":"levelo_inurba_marseille","lat":43.28429,"lon":5.349978,"is_reserved":false,"is_disabled":false,"rental_uris":{"android":"levelo://app?vid=3d2113c5-928c-4737-84b1-b04866ce0d3b","ios":"levelo://app?vid=3d2113c5-928c-4737-84b1-b04866ce0d3b"},"vehicle_type_id":"4","last_reported":1718035832,"current_range_meters":31200,"station_id":"ce4bhbh2rcd13ifvqepg","pricing_plan_id":"cebpf4jnsgd1na2vs0mg"},{"bike_id":"a4efaba4-58d2-4075-b1c4-497bf310af49","system_id":"levelo_inurba_marseille","lat":43.283494,"lon":5.380945,"is_reserved":false,"is_disabled":false,"rental_uris":{"android":"levelo://app?vid=a4efaba4-58d2-4075-b1c4-497bf310af49","ios":"levelo://app?vid=a4efaba4-58d2-4075-b1c4-497bf310af49"},"vehicle_type_id":"4","last_reported":1718035832,"current_range_meters":400,"station_id":"ce4bh412rcd13ifvqdr0","pricing_plan_id":"cebpf4jnsgd1na2vs0mg"},{"bike_id":"75ecbfc8-a6f9-4f87-9f4a-b66430ea12b7","system_id":"levelo_inurba_marseille","lat":43.284272,"lon":5.349942,"is_reserved":false,"is_disabled":false,"rental_uris":{"android":"levelo://app?vid=75ecbfc8-a6f9-4f87-9f4a-b66430ea12b7","ios":"levelo://app?vid=75ecbfc8-a6f9-4f87-9f4a-b66430ea12b7"},"vehicle_type_id":"4","last_reported":1718035832,"current_range_meters":25200,"station_id":"ce4bhbh2rcd13ifvqepg","pricing_plan_id":"cebpf4jnsgd1na2vs0mg"},