{"last_updated":1686863130,"ttl":30,"version":"2.2","data":{"bikes":[{"bike_id":"eeaaedfb-96ef-4f94-8d7e-0e09faa77b1a","system_id":"levelo_inurba_marseille","lat":43.31341,"lon":5.367098,"is_reserved":false,"is_disabled":false,"rental_uris":{"android":"levelo://app?vid=eeaaedfb-96ef-4f94-8d7e-0e09faa77b1a","ios":"levelo://app?vid=eeaaedfb-96ef-4f94-8d7e-0e09faa77b1a"},"vehicle_type_id":"4","last_reported":1686863131,"current_range_meters":0,"station_id":"ce4bgr92rcd13ifvqc6g","pricing_plan_id":"free"},{"bike_id":"a142fcc1-dd44-4e45-a4d3-f750f9811ffe","system_id":"levelo_inurba_marseille","lat":43.31231,"lon":5.36803,"is_reserved":false,"is_disabled":false,"rental_uris":{"android":"levelo://app?vid=a142fcc1-dd44-4e45-a4d3-f750f9811ffe","ios":"levelo://app?vid=a142fcc1-dd44-4e45-a4d3-f750f9811ffe"},"vehicle_type_id":"4","last_reported":1686863131,"current_range_meters":1200,"station_id":"","pricing_plan_id":"free"},{"bike_id":"df39cc7a-2478-4b52-9fff-14ef42bd10a9","system_id":"levelo_inurba_marseille","lat":43.312239,"lon":5.368562,"is_reserved":false,"is_disabled":false,"rental_uris":{"android":"levelo://app?vid=df39cc7a-2478-4b52-9fff-14ef42bd10a9","ios":"levelo://app?vid=df39cc7a-2478-4b52-9fff-14ef42bd10a9"},"vehicle_type_id":"4","last_reported":1686863131,"current_range_meters":4000,"station_id":"ce4bgl92rcd13ifvqbq0","pricing_plan_id":"free"},{"bike_id":"4291a96b-8a87-4f85-bc47-ab5c579a1baa","system_id":"levelo_inurba_marseille","lat":43.314811,"lon":5.373103,"is_reserved":false,"is_disabled":false,"rental_uris":{"android":"levelo://app?vid=4291a96b-8a87-4f85-bc47-ab5c579a1baa","ios":"levelo://app?vid=4291a96b-8a87-4f85-bc47-ab5c579a1baa"},"vehicle_type_id":"4","last_reported":1686863131,"current_range_meters":6000,"station_id":"ce4bgt12rcd13ifvqcd0","pricing_plan_id":"free"},{"bike_id":"1c636683-fe61-4c14-a7ef-11a158c4cca8","system_id":"levelo_inurba_marseille","lat":43.308614,"lon":5.372098,"is_reserved":false,"is_disabled":false,"rental_uris":{"android":"levelo://app?vid=1c636683-fe61-4c14-a7ef-11a158c4cca8","ios":"levelo://app?vid=1c636683-fe61-4c14-a7ef-11a158c4cca8"},"vehicle_type_id":"4","last_reported":1686863131,"current_range_meters":0,"station_id":"ce4bguh2rcd13ifvqckg","pricing_plan_id":"free"},{"bike_id":"26250d2f-00aa-4eef-b116-127ef2cd0bb2","system_id":"levelo_inurba_marseille","lat":43.305368,"lon":5.367343,"is_reserved":false,"is_disabled":false,"rental_uris":{"android":"levelo://app?vid=26250d2f-00aa-4eef-b116-127ef2cd0bb2","ios":"levelo://app?vid=26250d2f-00aa-4eef-b116-127ef2cd0bb2"},"vehicle_type_id":"4","last_reported":1686863131,"current_range_meters":0,"station_id":"ce4bgrp2rcd13ifvqc9g","pricing_plan_id":"free"},{"bike_id":"b69e101b-2ea9-4f54-b90f-80f04da3a48c","system_id":"levelo_inurba_marseille","lat":43.305989,"lon":5.37225,"is_reserved":false,"is_disabled":false,"rental_uris":{"android":"levelo://app?vid=b69e101b-2ea9-4f54-b90f-80f04da3a48c","ios":"levelo://app?vid=b69e101b-2ea9-4f54-b90f-80f04da3a48c"},"vehicle_type_id":"4","last_reported":1686863131,"current_range_meters":7200,"station_id":"ce4bgqh2rcd13ifvqc4g","pricing_plan_id":"free"},{"bike_id":"3445e2bd-2f5d-4c35-a8e3-4dc16999a9fa","system_id":"levelo_inurba_marseille","lat":43.305989,"lon":5.37225,"is_reserved":false,"is_disabled":false,"rental_uris":{"android":"levelo://app?vid=3445e2bd-2f5d-4c35-a8e3-4dc16999a9fa","ios":"levelo://app?vid=3445e2bd-2f5d-4c35-a8e3-4dc16999a9fa"},"vehicle_type_id":"4","last_reported":1686863131,"current_range_meters":30000,"station_id":"ce4bgqh2rcd13ifvqc4g","pricing_plan_id":"free"},{"bike_id":"a6114ae9-6ccc-4265-a09e-c42b9f1258fe","system_id":"levelo_inurba_marseille","lat":43.305989,"lon":5.37225,"is_reserved":false,"is_disabled":false,"rental_uris":{"android":"levelo://app?vid=a6114ae9-6ccc-4265-a09e-c42b9f1258fe","ios":"levelo://app?vid=a6114ae9-6ccc-4265-a09e-c42b9f1258fe"},"vehicle_type_id":"4","last_reported":1686863131,"current_range_meters":18800,"station_id":"ce4bgqh2rcd13ifvqc4g","pricing_plan_id":"free"},{"bike_id":"1891ee8c-025d-4563-99ed-f5b669fc413a","system_id":"levelo_inurba_marseille","lat":43.305989,"lon":5.37225,"is_reserved":false,"is_disabled":false,"rental_uris":{"android":"levelo://app?vid=1891ee8c-025d-4563-99ed-f5b669fc413a","ios":"levelo://app?vid=1891ee8c-025d-4563-99ed-f5b669fc413a"},"vehicle_type_id":"4","last_reported":1686863131,"current_range_meters":2000,"station_id":"ce4bgqh2rcd13ifvqc4g","pricing_plan_id":"free"},{"bike_id":"311d6358-8e4a-4ff8-9835-72a02c8afe5d","system_id":"levelo_inurba_marseille","lat":43.30604,"lon":5.37223,"is_reserved":false,"is_disabled":false,"rental_uris":{"android":"levelo://app?vid=311d6358-8e4a-4ff8-9835-72a02c8afe5d","ios":"levelo://app?vid=311d6358-8e4a-4ff8-9835-72a02c8afe5d"},"vehicle_type_id":"4","last_reported":1686863131,"current_range_meters":13600,"station_id":"ce4bgqh2rcd13ifvqc4g","pricing_plan_id":"free"},{"bike_id":"f6203872-deeb-41a3-ab77-724ce005752e","system_id":"levelo_inurba_marseille","lat":43.311125,"lon":5.377624,"is_reserved":false,"is_disabled":false,"rental_uris":{"android":"levelo://app?vid=f6203872-deeb-41a3-ab77-724ce005752e","ios":"levelo://app?vid=f6203872-deeb-41a3-ab77-724ce005752e"},"vehicle_type_id":"4","last_reported":1686863131,"current_range_meters":29600,"station_id":"ce4bgt92rcd13ifvqcg0","pricing_plan_id":"free"},{"bike_id":"999df34d-1397-465d-9417-fd26047fd169","system_id":"levelo_inurba_marseille","lat":43.311125,"lon":5.377624,"is_reserved":false,"is_disabled":false,"rental_uris":{"android":"levelo://app?vid=999df34d-1397-465d-9417-fd26047fd169","ios":"levelo://app?vid=999df34d-1397-465d-9417-fd26047fd169"},"vehicle_type_id":"4","last_reported":1686863131,"current_range_meters":4000,"station_id":"ce4bgt92rcd13ifvqcg0","pricing_plan_id":"free"},{"bike_id":"433e5a60-07c1-47ca-80a6-67b8eaefbdbb","system_id":"levelo_inurba_marseille","lat":43.311125,"lon":5.377624,"is_reserved":false,"is_disabled":false,"rental_uris":{"android":"levelo://app?vid=433e5a60-07c1-47ca-80a6-67b8eaefbdbb","ios":"levelo://app?vid=433e5a60-07c1-47ca-80a6-67b8eaefbdbb"},"vehicle_type_id":"4","last_reported":1686863131,"current_range_meters":0,"station_id":"ce4bgt92rcd13ifvqcg0","pricing_plan_id":"free"},{"bike_id":"71b19492-8130-42c2-9600-69777231be80","system_id":"levelo_inurba_marseille","lat":43.311125,"lon":5.377624,"is_reserved":false,"is_disabled":false,"rental_uris":{"android":"levelo://app?vid=71b19492-8130-42c2-9600-69777231be80","ios":"levelo://app?vid=71b19492-8130-42c2-9600-69777231be80"},"vehicle_type_id":"4","last_reported":1686863131,"current_range_meters":6400,"station_id":"ce4bgt92rcd13ifvqcg0","pricing_plan_id":"free"},{"bike_id":"eeb5764e-c48c-4e48-b63d-b4252bde3605","system_id":"levelo_inurba_marseille","lat":43.317075,"lon":5.377367,"is_reserved":false,"is_disabled":false,"rental_uris":{"android":"levelo://app?vid=eeb5764e-c48c-4e48-b63d-b4252bde3605","ios":"levelo://app?vid=eeb5764e-c48c-4e48-b63d-b4252bde3605"},"vehicle_type_id":"4","last_reported":1686863131,"current_range_meters":14400,"station_id":"ce4bgth2rcd13ifvqch0","pricing_plan_id":"free"},{"bike_id":"2424216c-0462-4ad0-b127-d0366c91b61c","system_id":"levelo_inurba_marseille","lat":43.317075,"lon":5.377367,"is_reserved":false,"is_disabled":false,"rental_uris":{"android":"levelo://app?vid=2424216c-0462-4ad0-b127-d0366c91b61c","ios":"levelo://app?vid=2424216c-0462-4ad0-b127-d0366c91b61c"},"vehicle_type_id":"4","last_reported":1686863131,"current_range_meters":31600,"station_id":"ce4bgth2rcd13ifvqch0","pricing_plan_id":"free"},{"bike_id":"d615bec8-d16a-4c36-8850-371d4102df2f","system_id":"levelo_inurba_marseille","lat":43.315289,"lon":5.380349,"is_reserved":false,"is_disabled":false,"rental_uris":{"android":"levelo://app?vid=d615bec8-d16a-4c36-8850-371d4102df2f","ios":"levelo://app?vid=d615bec8-d16a-4c36-8850-371d4102df2f"},"vehicle_type_id":"4","last_reported":1686863131,"current_range_meters":31200,"station_id":"ce4bhsp2rcd13ifvqi50","pricing_plan_id":"free"},{"bike_id":"cd8b6958-c31a-4a9d-8c48-cf838953f3b1","system_id":"levelo_inurba_marseille","lat":43.315289,"lon":5.380349,"is_reserved":false,"is_disabled":false,"rental_uris":{"android":"levelo://app?vid=cd8b6958-c31a-4a9d-8c48-cf838953f3b1","ios":"levelo://app?vid=cd8b6958-c31a-4a9d-8c48-cf838953f3b1"},"vehicle_type_id":"4","last_reported":1686863131,"current_range_meters":30400,"station_id":"ce4bhsp2rcd13ifvqi50","pricing_plan_id":"free"},{"bike_id":"7170a570-a6d0-47c4-aa28-4d171ddf30d1","system_id":"levelo_inurba_marseille","lat":43.315293,"lon":5.380349,"is_reserved":false,"is_disabled":false,"rental_uris":{"android":"levelo://app?vid=7170a570-a6d0-47c4-aa28-4d171ddf30d1","ios":"levelo://app?vid=7170a570-a6d0-47c4-aa28-4d171ddf30d1"},"vehicle_type_id":"4","last_reported":1686863131,"current_range_meters":17600,"station_id":"ce4bhsp2rcd13ifvqi50","pricing_plan_id":"free"},{"bike_id":"5ae2b31b-5738-4c93-a2fb-64e8edbc4b55","system_id":"levelo_inurba_marseille","lat":43.315289,"lon":5.380349,"is_reserved":false,"is_disabled":false,"rental_uris":{"android":"levelo://app?vid=5ae2b31b-5738-4c93-a2fb-64e8edbc4b55","ios":"levelo://app?vid=5ae2b31b-5738-4c93-a2fb-64e8edbc4b55"},"vehicle_type_id":"4","last_reported":1686863131,"current_range_meters":6400,"station_id":"ce4bhsp2rcd13ifvqi50","pricing_plan_id":"free"},{"bike_id":"59bbb2a5-7253-4740-8cf7-9ea05abbf84f","system_id":"levelo_inurba_marseille","lat":43.30842,"lon":5.38108,"is_reserved":false,"is_disabled":false,"rental_uris":{"android":"levelo://app?vid=59bbb2a5-7253-4740-8cf7-9ea05abbf84f","ios":"levelo://app?vid=59bbb2a5-7253-4740-8cf7-9ea05abbf84f"},"vehicle_type_id":"4","last_reported":1686863131,"current_range_meters":24000,"station_id":"","pricing_plan_id":"free"},{"bike_id":"ae33307b-fcd5-479b-9ae1-9002ed226c6e","system_id":"levelo_inurba_marseille","lat":43.308012,"lon":5.381511,"is_reserved":false,"is_disabled":false,"rental_uris":{"android":"levelo://app?vid=ae33307b-fcd5-479b-9ae1-9002ed226c6e","ios":"levelo://app?vid=ae33307b-fcd5-479b-9ae1-9002ed226c6e"},"vehicle_type_id":"4","last_reported":1686863131,"current_range_meters":18000,"station_id":"ce4bgt12rcd13ifvqce0","pricing_plan_id":"free"},{"bike_id":"54aef094-7e2f-4f81-a3cc-9725b2ac7d6a","system_id":"levelo_inurba_marseille","lat":43.308012,"lon":5.381511,"is_reserved":false,"is_disabled":false,"rental_uris":{"android":"levelo://app?vid=54aef094-7e2f-4f81-a3cc-9725b2ac7d6a","ios":"levelo://app?vid=54aef094-7e2f-4f81-a3cc-9725b2ac7d6a"},"vehicle_type_id":"4","last_reported":1686863131,"current_range_meters":17600,"station_id":"ce4bgt12rcd13ifvqce0","pricing_plan_id":"free"},{"bike_id":"32827146-2d6b-4fb1-b00e-6b2f535ca544","system_id":"levelo_inurba_marseille","lat":43.304606,"lon":5.379026,"is_reserved":false,"is_disabled":false,"rental_uris":{"android":"levelo://app?vid=32827146-2d6b-4fb1-b00e-6b2f535ca544","ios":"levelo://app?vid=32827146-2d6b-4fb1-b00e-6b2f535ca544"},"vehicle_type_id":"4","last_reported":1686863131,"current_range_meters":31600,"station_id":"ce4bgup2rcd13ifvqcn0","pricing_plan_id":"free"},{"bike_id":"fc4a69da-5dee-4c68-8631-20ee11bc487b","system_id":"levelo_inurba_marseille","lat":43.304606,"lon":5.379026,"is_reserved":false,"is_disabled":false,"rental_uris":{"android":"levelo://app?vid=fc4a69da-5dee-4c68-8631-20ee11bc487b","ios":"levelo://app?vid=fc4a69da-5dee-4c68-8631-20ee11bc487b"},"vehicle_type_id":"4","last_reported":1686863131,"current_range_meters":30800,"station_id":"ce4bgup2rcd13ifvqcn0","pricing_plan_id":"free"},{"bike_id":"9f66c586-36b8-410b-a384-4314decc6f7e","system_id":"levelo_inurba_marseille","lat":43.31994,"lon":5.38143,"is_reserved":false,"is_disabled":false,"rental_uris":{"android":"levelo://app?vid=9f66c586-36b8-410b-a384-4314decc6f7e","ios":"levelo://app?vid=9f66c586-36b8-410b-a384-4314decc6f7e"},"vehicle_type_id":"4","last_reported":1686863131,"current_range_meters":0,"station_id":"ce4bhr12rcd13ifvqhpg","pricing_plan_id":"free"},{"bike_id":"14a08899-349d-4c49-bd20-7204a0b2cd69","system_id":"levelo_inurba_marseille","lat":43.31992,"lon":5.38146,"is_reserved":false,"is_disabled":false,"rental_uris":{"android":"levelo://app?vid=14a08899-349d-4c49-bd20-7204a0b2cd69","ios":"levelo://app?vid=14a08899-349d-4c49-bd20-7204a0b2cd69"},"vehicle_type_id":"4","last_reported":1686863131,"current_range_meters":7200,"station_id":"ce4bhr12rcd13ifvqhpg","pricing_plan_id":"free"},{"bike_id":"c362f0e8-0431-494c-8f4e-329091583422","system_id":"levelo_inurba_marseille","lat":43.319935,"lon":5.381699,"is_reserved":false,"is_disabled":false,"rental_uris":{"android":"levelo://app?vid=c362f0e8-0431-494c-8f4e-329091583422","ios":"levelo://app?vid=c362f0e8-0431-494c-8f4e-329091583422"},"vehicle_type_id":"4","last_reported":1686863131,"current_range_meters":27600,"station_id":"ce4bhr12rcd13ifvqhpg","pricing_plan_id":"free"},{"bike_id":"973279cd-48b3-4da5-b019-6bde256ffa58","system_id":"levelo_inurba_marseille","lat":43.32009,"lon":5.38168,"is_reserved":false,"is_disabled":false,"rental_uris":{"android":"levelo://app?vid=973279cd-48b3-4da5-b019-6bde256ffa58","ios":"levelo://app?vid=973279cd-48b3-4da5-b019-6bde256ffa58"},"vehicle_type_id":"4","last_reported":1686863131,"current_range_meters":8000,"station_id":"ce4bhr12rcd13ifvqhpg","pricing_plan_id":"free"},{"bike_id":"0b87a59c-d009-4fad-9e2e-562672cda5fc","system_id":"levelo_inurba_marseille","lat":43.313571,"lon":5.384829,"is_reserved":false,"is_disabled":false,"rental_uris":{"android":"levelo://app?vid=0b87a59c-d009-4fad-9e2e-562672cda5fc","ios":"levelo://app?vid=0b87a59c-d009-4fad-9e2e-562672cda5fc"},"vehicle_type_id":"4","last_reported":1686863131,"current_range_meters":30800,"station_id":"ce4bgt92rcd13ifvqcf0","pricing_plan_id":"free"},{"bike_id":"d5a35a45-ee33-4f68-92d1-2281f6419f6e","system_id":"levelo_inurba_marseille","lat":43.313571,"lon":5.384829,"is_reserved":false,"is_disabled":false,"rental_uris":{"android":"levelo://app?vid=d5a35a45-ee33-4f68-92d1-2281f6419f6e","ios":"levelo://app?vid=d5a35a45-ee33-4f68-92d1-2281f6419f6e"},"vehicle_type_id":"4","last_reported":1686863131,"current_range_meters":21200,"station_id":"ce4bgt92rcd13ifvqcf0","pricing_plan_id":"free"},{"bike_id":"455ec81b-ef73-4668-ae45-bfd60fbf9d6d","system_id":"levelo_inurba_marseille","lat":43.311722,"lon":5.387247,"is_reserved":false,"is_disabled":false,"rental_uris":{"android":"levelo://app?vid=455ec81b-ef73-4668-ae45-bfd60fbf9d6d","ios":"levelo://app?vid=455ec81b-ef73-4668-ae45-bfd60fbf9d6d"},"vehicle_type_id":"4","last_reported":1686863131,"current_range_meters":6400,"station_id":"ce4bgv12rcd13ifvqcp0","pricing_plan_id":"free"},{"bike_id":"4ce4571a-1d29-4310-b5f8-42427b9c38f2","system_id":"levelo_inurba_marseille","lat":43.311722,"lon":5.387247,"is_reserved":false,"is_disabled":false,"rental_uris":{"android":"levelo://app?vid=4ce4571a-1d29-4310-b5f8-42427b9c38f2","ios":"levelo://app?vid=4ce4571a-1d29-4310-b5f8-42427b9c38f2"},"vehicle_type_id":"4","last_reported":1686863131,"current_range_meters":4400,"station_id":"ce4bgv12rcd13ifvqcp0","pricing_plan_id":"free"},{"bike_id":"6938353d-b323-4b5d-9339-e3d5397a084a","system_id":"levelo_inurba_marseille","lat":43.32805,"lon":5.36687,"is_reserved":false,"is_disabled":false,"rental_uris":{"android":"levelo://app?vid=6938353d-b323-4b5d-9339-e3d5397a084a","ios":"levelo://app?vid=6938353d-b323-4b5d-9339-e3d5397a084a"},"vehicle_type_id":"4","last_reported":1686863131,"current_range_meters":24800,"station_id":"","pricing_plan_id":"free"},{"bike_id":"ffa243d7-5d5a-4393-b530-320522627e2a","system_id":"levelo_inurba_marseille","lat":43.328371,"lon":5.366909,"is_reserved":false,"is_disabled":false,"rental_uris":{"android":"levelo://app?vid=ffa243d7-5d5a-4393-b530-320522627e2a","ios":"levelo://app?vid=ffa243d7-5d5a-4393-b530-320522627e2a"},"vehicle_type_id":"4","last_reported":1686863131,"current_range_meters":6000,"station_id":"ce4bhs92rcd13ifvqi0g","pricing_plan_id":"free"},{"bike_id":"7ccf94fb-4dda-4d8b-8fde-ca0864d65a46","system_id":"levelo_inurba_marseille","lat":43.29709,"lon":5.36608,"is_reserved":false,"is_disabled":false,"rental_uris":{"android":"levelo://app?vid=7ccf94fb-4dda-4d8b-8fde-ca0864d65a46","ios":"levelo://app?vid=7ccf94fb-4dda-4d8b-8fde-ca0864d65a46"},"vehicle_type_id":"4","last_reported":1686863131,"current_range_meters":31200,"station_id":"","pricing_plan_id":"free"},{"bike_id":"87e68ff6-78e1-4263-bc36-007ad786e600","system_id":"levelo_inurba_marseille","lat":43.296978,"lon":5.365912,"is_reserved":false,"is_disabled":false,"rental_uris":{"android":"levelo://app?vid=87e68ff6-78e1-4263-bc36-007ad786e600","ios":"levelo://app?vid=87e68ff6-78e1-4263-bc36-007ad786e600"},"vehicle_type_id":"4","last_reported":1686863131,"current_range_meters":0,"station_id":"","pricing_plan_id":"free"},{"bike_id":"88d0330c-5bb0-4a19-9b65-d4683b42e015","system_id":"levelo_inurba_marseille","lat":43.29683,"lon":5.36046,"is_reserved":false,"is_disabled":false,"rental_uris":{"android":"levelo://app?vid=88d0330c-5bb0-4a19-9b65-d4683b42e015","ios":"levelo://app?vid=88d0330c-5bb0-4a19-9b65-d4683b42e015"},"vehicle_type_id":"4","last_reported":1686863131,"current_range_meters":12800,"station_id":"ce4bgpp2rcd13ifvqc3g","pricing_plan_id":"free"},{"bike_id":"e2db888f-22f7-47ea-a18c-395bf1c4e308","system_id":"levelo_inurba_marseille","lat":43.309589,"lon":5.390258,"is_reserved":false,"is_disabled":false,"rental_uris":{"android":"levelo://app?vid=e2db888f-22f7-47ea-a18c-395bf1c4e308","ios":"levelo://app?vid=e2db888f-22f7-47ea-a18c-395bf1c4e308"},"vehicle_type_id":"4","last_reported":1686863131,"current_range_meters":26400,"station_id":"ce4bgup2rcd13ifvqco0","pricing_plan_id":"free"},{"bike_id":"f7c30870-5978-4ab7-80bf-a5b498df4ef0","system_id":"levelo_inurba_marseille","lat":43.296935,"lon":5.376544,"is_reserved":false,"is_disabled":false,"rental_uris":{"android":"levelo://app?vid=f7c30870-5978-4ab7-80bf-a5b498df4ef0","ios":"levelo://app?vid=f7c30870-5978-4ab7-80bf-a5b498df4ef0"},"vehicle_type_id":"4","last_reported":1686863131,"current_range_meters":800,"station_id":"ce4bgkh2rcd13ifvqbl0","pricing_plan_id":"free"},{"bike_id":"c64df87b-846c-4461-9c0e-504860b33ad4","system_id":"levelo_inurba_marseille","lat":43.299028,"lon":5.381509,"is_reserved":false,"is_disabled":false,"rental_uris":{"android":"levelo://app?vid=c64df87b-846c-4461-9c0e-504860b33ad4","ios":"levelo://app?vid=c64df87b-846c-4461-9c0e-504860b33ad4"},"vehicle_type_id":"4","last_reported":1686863131,"current_range_meters":28800,"station_id":"ce4bgj12rcd13ifvqbc0","pricing_plan_id":"free"},{"bike_id":"99bce36f-f682-453d-b07a-02bf132d6545","system_id":"levelo_inurba_marseille","lat":43.317557,"lon":5.390173,"is_reserved":false,"is_disabled":false,"rental_uris":{"android":"levelo://app?vid=99bce36f-f682-453d-b07a-02bf132d6545","ios":"levelo://app?vid=99bce36f-f682-453d-b07a-02bf132d6545"},"vehicle_type_id":"4","last_reported":1686863131,"current_range_meters":30400,"station_id":"ce4bhqp2rcd13ifvqhng","pricing_plan_id":"free"},{"bike_id":"113d8f7e-ffd1-4394-aaba-49ba04306712","system_id":"levelo_inurba_marseille","lat":43.317557,"lon":5.390173,"is_reserved":false,"is_disabled":false,"rental_uris":{"android":"levelo://app?vid=113d8f7e-ffd1-4394-aaba-49ba04306712","ios":"levelo://app?vid=113d8f7e-ffd1-4394-aaba-49ba04306712"},"vehicle_type_id":"4","last_reported":1686863131,"current_range_meters":14800,"station_id":"ce4bhqp2rcd13ifvqhng","pricing_plan_id":"free"},{"bike_id":"1911e093-d8d6-46bd-9f70-1bed64e4c4f8","system_id":"levelo_inurba_marseille","lat":43.317557,"lon":5.390173,"is_reserved":false,"is_disabled":false,"rental_uris":{"android":"levelo://app?vid=1911e093-d8d6-46bd-9f70-1bed64e4c4f8","ios":"levelo://app?vid=1911e093-d8d6-46bd-9f70-1bed64e4c4f8"},"vehicle_type_id":"4","last_reported":1686863131,"current_range_meters":21600,"station_id":"ce4bhqp2rcd13ifvqhng","pricing_plan_id":"free"},{"bike_id":"86c68bec-0949-4ae1-8145-b3d9b43d39cb","system_id":"levelo_inurba_marseille","lat":43.31192,"lon":5.39146,"is_reserved":false,"is_disabled":false,"rental_uris":{"android":"levelo://app?vid=86c68bec-0949-4ae1-8145-b3d9b43d39cb","ios":"levelo://app?vid=86c68bec-0949-4ae1-8145-b3d9b43d39cb"},"vehicle_type_id":"4","last_reported":1686863131,"current_range_meters":22800,"station_id":"","pricing_plan_id":"free"},{"bike_id":"41315340-4942-4bd2-a542-1c539ca12924","system_id":"levelo_inurba_marseille","lat":43.298037,"lon":5.381066,"is_reserved":false,"is_disabled":false,"rental_uris":{"android":"levelo://app?vid=41315340-4942-4bd2-a542-1c539ca12924","ios":"levelo://app?vid=41315340-4942-4bd2-a542-1c539ca12924"},"vehicle_type_id":"4","last_reported":1686863131,"current_range_meters":13600,"station_id":"ce4bgip2rcd13ifvqbb0","pricing_plan_id":"free"},{"bike_id":"ed046945-120c-4c56-bd9d-885f072e8df7","system_id":"levelo_inurba_marseille","lat":43.304278,"lon":5.388868,"is_reserved":false,"is_disabled":false,"rental_uris":{"android":"levelo://app?vid=ed046945-120c-4c56-bd9d-885f072e8df7","ios":"levelo://app?vid=ed046945-120c-4c56-bd9d-885f072e8df7"},"vehicle_type_id":"4","last_reported":1686863131,"current_range_meters":20000,"station_id":"ce4bgk12rcd13ifvqbi0","pricing_plan_id":"free"},{"bike_id":"d2fbb49a-0b21-4f64-a360-f090e21fdc58","system_id":"levelo_inurba_marseille","lat":43.304278,"lon":5.388868,"is_reserved":false,"is_disabled":false,"rental_uris":{"android":"levelo://app?vid=d2fbb49a-0b21-4f64-a360-f090e21fdc58","ios":"levelo://app?vid=d2fbb49a-0b21-4f64-a360-f090e21fdc58"},"vehicle_type_id":"4","last_reported":1686863131,"current_range_meters":12000,"station_id":"ce4bgk12rcd13ifvqbi0","pricing_plan_id":"free"},{"bike_id":"cbef19a3-ffd6-45b1-88fd-03c1eca916b2","system_id":"levelo_inurba_marseille","lat":43.296263,"lon":5.377094,"is_reserved":false,"is_disabled":false,"rental_uris":{"android":"levelo://app?vid=cbef19a3-ffd6-45b1-88fd-03c1eca916b2","ios":"levelo://app?vid=cbef19a3-ffd6-45b1-88fd-03c1eca916b2"},"vehicle_type_id":"4","last_reported":1686863131,"current_range_meters":10800,"station_id":"ce4bgi92rcd13ifvqb90","pricing_plan_id":"free"},{"bike_id":"36ddad8a-10a5-4450-957d-ed2b63ffc789","system_id":"levelo_inurba_marseille","lat":43.299717,"lon":5.384845,"is_reserved":false,"is_disabled":false,"rental_uris":{"android":"levelo://app?vid=36ddad8a-10a5-4450-957d-ed2b63ffc789","ios":"levelo://app?vid=36ddad8a-10a5-4450-957d-ed2b63ffc789"},"vehicle_type_id":"4","last_reported":1686863131,"current_range_meters":30400,"station_id":"ce4bgj92rcd13ifvqbd0","pricing_plan_id":"free"},{"bike_id":"0b6c5716-4cde-44d3-baf3-872d8ca70d01","system_id":"levelo_inurba_marseille","lat":43.2997,"lon":5.38496,"is_reserved":false,"is_disabled":false,"rental_uris":{"android":"levelo://app?vid=0b6c5716-4cde-44d3-baf3-872d8ca70d01","ios":"levelo://app?vid=0b6c5716-4cde-44d3-baf3-872d8ca70d01"},"vehicle_type_id":"4","last_reported":1686863131,"current_range_meters":400,"station_id":"ce4bgj92rcd13ifvqbd0","pricing_plan_id":"free"},{"bike_id":"2c9ad911-25e0-4222-8751-d809dfadd582","system_id":"levelo_inurba_marseille","lat":43.32361,"lon":5.38882,"is_reserved":false,"is_disabled":false,"rental_uris":{"android":"levelo://app?vid=2c9ad911-25e0-4222-8751-d809dfadd582","ios":"levelo://app?vid=2c9ad911-25e0-4222-8751-d809dfadd582"},"vehicle_type_id":"4","last_reported":1686863131,"current_range_meters":9600,"station_id":"ce4bhqp2rcd13ifvqhog","pricing_plan_id":"free"},{"bike_id":"4e609ef0-2e17-4e6c-ba3b-29daedaa2e8a","system_id":"levelo_inurba_marseille","lat":43.32367,"lon":5.388836,"is_reserved":false,"is_disabled":false,"rental_uris":{"android":"levelo://app?vid=4e609ef0-2e17-4e6c-ba3b-29daedaa2e8a","ios":"levelo://app?vid=4e609ef0-2e17-4e6c-ba3b-29daedaa2e8a"},"vehicle_type_id":"4","last_reported":1686863131,"current_range_meters":23200,"station_id":"ce4bhqp2rcd13ifvqhog","pricing_plan_id":"free"},{"bike_id":"1ec19360-5608-4b6a-8bfe-14a613caaed7","system_id":"levelo_inurba_marseille","lat":43.32367,"lon":5.38885,"is_reserved":false,"is_disabled":false,"rental_uris":{"android":"levelo://app?vid=1ec19360-5608-4b6a-8bfe-14a613caaed7","ios":"levelo://app?vid=1ec19360-5608-4b6a-8bfe-14a613caaed7"},"vehicle_type_id":"4","last_reported":1686863131,"current_range_meters":26800,"station_id":"ce4bhqp2rcd13ifvqhog","pricing_plan_id":"free"},{"bike_id":"8efe28a7-1b11-45ef-b67b-d84e782e6c4b","system_id":"levelo_inurba_marseille","lat":43.309589,"lon":5.390258,"is_reserved":false,"is_disabled":false,"rental_uris":{"android":"levelo://app?vid=8efe28a7-1b11-45ef-b67b-d84e782e6c4b","ios":"levelo://app?vid=8efe28a7-1b11-45ef-b67b-d84e782e6c4b"},"vehicle_type_id":"4","last_reported":1686863131,"current_range_meters":0,"station_id":"ce4bgup2rcd13ifvqco0","pricing_plan_id":"free"},{"bike_id":"a6e8cbe0-d359-41db-8546-1c50631ba04a","system_id":"levelo_inurba_marseille","lat":43.293009,"lon":5.374584,"is_reserved":false,"is_disabled":false,"rental_uris":{"android":"levelo://app?vid=a6e8cbe0-d359-41db-8546-1c50631ba04a","ios":"levelo://app?vid=a6e8cbe0-d359-41db-8546-1c50631ba04a"},"vehicle_type_id":"4","last_reported":1686863131,"current_range_meters":0,"station_id":"ce4bgi12rcd13ifvqb70","pricing_plan_id":"free"},{"bike_id":"9dce6bbd-fb7c-412d-9691-e75a8f1f8ed4","system_id":"levelo_inurba_marseille","lat":43.305994,"lon":5.393687,"is_reserved":false,"is_disabled":false,"rental_uris":{"android":"levelo://app?vid=9dce6bbd-fb7c-412d-9691-e75a8f1f8ed4","ios":"levelo://app?vid=9dce6bbd-fb7c-412d-9691-e75a8f1f8ed4"},"vehicle_type_id":"4","last_reported":1686863131,"current_range_meters":31200,"station_id":"ce4bh0p2rcd13ifvqd80","pricing_plan_id":"free"},{"bike_id":"d3e5ec50-cdd2-4dda-b3aa-56eb536bbb12","system_id":"levelo_inurba_marseille","lat":43.29268,"lon":5.35976,"is_reserved":false,"is_disabled":false,"rental_uris":{"android":"levelo://app?vid=d3e5ec50-cdd2-4dda-b3aa-56eb536bbb12","ios":"levelo://app?vid=d3e5ec50-cdd2-4dda-b3aa-56eb536bbb12"},"vehicle_type_id":"4","last_reported":1686863131,"current_range_meters":28800,"station_id":"","pricing_plan_id":"free"},{"bike_id":"e819e7fa-2249-435a-bf2b-58feba36e585","system_id":"levelo_inurba_marseille","lat":43.30097,"lon":5.39075,"is_reserved":false,"is_disabled":false,"rental_uris":{"android":"levelo://app?vid=e819e7fa-2249-435a-bf2b-58feba36e585","ios":"levelo://app?vid=e819e7fa-2249-435a-bf2b-58feba36e585"},"vehicle_type_id":"4","last_reported":1686863131,"current_range_meters":6800,"station_id":"ce4bh192rcd13ifvqdb0","pricing_plan_id":"free"},{"bike_id":"d7f08e22-e353-43ac-8a8f-cd986429259b","system_id":"levelo_inurba_marseille","lat":43.30084,"lon":5.39081,"is_reserved":false,"is_disabled":false,"rental_uris":{"android":"levelo://app?vid=d7f08e22-e353-43ac-8a8f-cd986429259b","ios":"levelo://app?vid=d7f08e22-e353-43ac-8a8f-cd986429259b"},"vehicle_type_id":"4","last_reported":1686863131,"current_range_meters":7200,"station_id":"ce4bh192rcd13ifvqdb0","pricing_plan_id":"free"},{"bike_id":"a2a6eb46-ce2a-4a97-8ee5-aa01fd45a88b","system_id":"levelo_inurba_marseille","lat":43.298764,"lon":5.388973,"is_reserved":false,"is_disabled":false,"rental_uris":{"android":"levelo://app?vid=a2a6eb46-ce2a-4a97-8ee5-aa01fd45a88b","ios":"levelo://app?vid=a2a6eb46-ce2a-4a97-8ee5-aa01fd45a88b"},"vehicle_type_id":"4","last_reported":1686863131,"current_range_meters":27200,"station_id":"ce4bh392rcd13ifvqdl0","pricing_plan_id":"free"},{"bike_id":"e275adb2-0c22-4ff3-bd7e-64b02de87a7d","system_id":"levelo_inurba_marseille","lat":43.313291,"lon":5.396838,"is_reserved":false,"is_disabled":false,"rental_uris":{"android":"levelo://app?vid=e275adb2-0c22-4ff3-bd7e-64b02de87a7d","ios":"levelo://app?vid=e275adb2-0c22-4ff3-bd7e-64b02de87a7d"},"vehicle_type_id":"4","last_reported":1686863131,"current_range_meters":4000,"station_id":"ce4bgvp2rcd13ifvqcu0","pricing_plan_id":"free"},{"bike_id":"b30003d8-62f7-4571-86c1-5a69e947cbb4","system_id":"levelo_inurba_marseille","lat":43.31321,"lon":5.39696,"is_reserved":false,"is_disabled":false,"rental_uris":{"android":"levelo://app?vid=b30003d8-62f7-4571-86c1-5a69e947cbb4","ios":"levelo://app?vid=b30003d8-62f7-4571-86c1-5a69e947cbb4"},"vehicle_type_id":"4","last_reported":1686863131,"current_range_meters":0,"station_id":"ce4bgvp2rcd13ifvqcu0","pricing_plan_id":"free"},{"bike_id":"4e1ad3fa-c223-4650-ab03-64369f3f6458","system_id":"levelo_inurba_marseille","lat":43.309038,"lon":5.396546,"is_reserved":false,"is_disabled":false,"rental_uris":{"android":"levelo://app?vid=4e1ad3fa-c223-4650-ab03-64369f3f6458","ios":"levelo://app?vid=4e1ad3fa-c223-4650-ab03-64369f3f6458"},"vehicle_type_id":"4","last_reported":1686863131,"current_range_meters":18400,"station_id":"ce4bh012rcd13ifvqcv0","pricing_plan_id":"free"},{"bike_id":"3c75d78a-8700-47ee-8b80-e96e0b0c5746","system_id":"levelo_inurba_marseille","lat":43.309038,"lon":5.396546,"is_reserved":false,"is_disabled":false,"rental_uris":{"android":"levelo://app?vid=3c75d78a-8700-47ee-8b80-e96e0b0c5746","ios":"levelo://app?vid=3c75d78a-8700-47ee-8b80-e96e0b0c5746"},"vehicle_type_id":"4","last_reported":1686863131,"current_range_meters":10000,"station_id":"ce4bh012rcd13ifvqcv0","pricing_plan_id":"free"},{"bike_id":"ff44794b-bd71-4da2-8587-e06f051f6a29","system_id":"levelo_inurba_marseille","lat":43.309038,"lon":5.396546,"is_reserved":false,"is_disabled":false,"rental_uris":{"android":"levelo://app?vid=ff44794b-bd71-4da2-8587-e06f051f6a29","ios":"levelo://app?vid=ff44794b-bd71-4da2-8587-e06f051f6a29"},"vehicle_type_id":"4","last_reported":1686863131,"current_range_meters":13200,"station_id":"ce4bh012rcd13ifvqcv0","pricing_plan_id":"free"},{"bike_id":"a8414a31-b306-4141-a194-429e4a575ed7","system_id":"levelo_inurba_marseille","lat":43.309038,"lon":5.396546,"is_reserved":false,"is_disabled":false,"rental_uris":{"android":"levelo://app?vid=a8414a31-b306-4141-a194-429e4a575ed7","ios":"levelo://app?vid=a8414a31-b306-4141-a194-429e4a575ed7"},"vehicle_type_id":"4","last_reported":1686863131,"current_range_meters":18400,"station_id":"ce4bh012rcd13ifvqcv0","pricing_plan_id":"free"},{"bike_id":"a7b2a4df-0afa-4f2c-bb10-7b3e48d4e96a","system_id":"levelo_inurba_marseille","lat":43.309038,"lon":5.396546,"is_reserved":false,"is_disabled":false,"rental_uris":{"android":"levelo://app?vid=a7b2a4df-0afa-4f2c-bb10-7b3e48d4e96a","ios":"levelo://app?vid=a7b2a4df-0afa-4f2c-bb10-7b3e48d4e96a"},"vehicle_type_id":"4","last_reported":1686863131,"current_range_meters":18800,"station_id":"ce4bh012rcd13ifvqcv0","pricing_plan_id":"free"},{"bike_id":"0bd27e14-b5d0-488a-ad8f-3cd9d0116824","system_id":"levelo_inurba_marseille","lat":43.29529,"lon":5.385581,"is_reserved":false,"is_disabled":false,"rental_uris":{"android":"levelo://app?vid=0bd27e14-b5d0-488a-ad8f-3cd9d0116824","ios":"levelo://app?vid=0bd27e14-b5d0-488a-ad8f-3cd9d0116824"},"vehicle_type_id":"4","last_reported":1686863131,"current_range_meters":22000,"station_id":"ce4bgih2rcd13ifvqba0","pricing_plan_id":"free"},{"bike_id":"57b48d14-15b0-4eee-946c-b3d032c65ee9","system_id":"levelo_inurba_marseille","lat":43.29529,"lon":5.385581,"is_reserved":false,"is_disabled":false,"rental_uris":{"android":"levelo://app?vid=57b48d14-15b0-4eee-946c-b3d032c65ee9","ios":"levelo://app?vid=57b48d14-15b0-4eee-946c-b3d032c65ee9"},"vehicle_type_id":"4","last_reported":1686863131,"current_range_meters":10000,"station_id":"ce4bgih2rcd13ifvqba0","pricing_plan_id":"free"},{"bike_id":"7122eae2-ecd5-4b25-8f89-eac6eb6be671","system_id":"levelo_inurba_marseille","lat":43.29529,"lon":5.385581,"is_reserved":false,"is_disabled":false,"rental_uris":{"android":"levelo://app?vid=7122eae2-ecd5-4b25-8f89-eac6eb6be671","ios":"levelo://app?vid=7122eae2-ecd5-4b25-8f89-eac6eb6be671"},"vehicle_type_id":"4","last_reported":1686863131,"current_range_meters":16400,"station_id":"ce4bgih2rcd13ifvqba0","pricing_plan_id":"free"},{"bike_id":"d567f5ee-b5f2-4710-abc2-83c93a8ac083","system_id":"levelo_inurba_marseille","lat":43.29529,"lon":5.385581,"is_reserved":false,"is_disabled":false,"rental_uris":{"android":"levelo://app?vid=d567f5ee-b5f2-4710-abc2-83c93a8ac083","ios":"levelo://app?vid=d567f5ee-b5f2-4710-abc2-83c93a8ac083"},"vehicle_type_id":"4","last_reported":1686863131,"current_range_meters":15200,"station_id":"ce4bgih2rcd13ifvqba0","pricing_plan_id":"free"},{"bike_id":"5dee4aa2-1cea-4756-b175-44ec8f641638","system_id":"levelo_inurba_marseille","lat":43.302008,"lon":5.394694,"is_reserved":false,"is_disabled":false,"rental_uris":{"android":"levelo://app?vid=5dee4aa2-1cea-4756-b175-44ec8f641638","ios":"levelo://app?vid=5dee4aa2-1cea-4756-b175-44ec8f641638"},"vehicle_type_id":"4","last_reported":1686863131,"current_range_meters":6400,"station_id":"ce4bh0p2rcd13ifvqd70","pricing_plan_id":"free"},{"bike_id":"929b958b-1ea0-4773-8711-53c20f3dd472","system_id":"levelo_inurba_marseille","lat":43.302008,"lon":5.394694,"is_reserved":false,"is_disabled":false,"rental_uris":{"android":"levelo://app?vid=929b958b-1ea0-4773-8711-53c20f3dd472","ios":"levelo://app?vid=929b958b-1ea0-4773-8711-53c20f3dd472"},"vehicle_type_id":"4","last_reported":1686863131,"current_range_meters":18400,"station_id":"ce4bh0p2rcd13ifvqd70","pricing_plan_id":"free"},{"bike_id":"3e758cda-1d47-491e-8f04-728333b51421","system_id":"levelo_inurba_marseille","lat":43.29044,"lon":5.35927,"is_reserved":false,"is_disabled":false,"rental_uris":{"android":"levelo://app?vid=3e758cda-1d47-491e-8f04-728333b51421","ios":"levelo://app?vid=3e758cda-1d47-491e-8f04-728333b51421"},"vehicle_type_id":"4","last_reported":1686863131,"current_range_meters":0,"station_id":"ce4bha92rcd13ifvqeg0","pricing_plan_id":"free"},{"bike_id":"872bb353-8bf3-4464-8996-a0517cc538fb","system_id":"levelo_inurba_marseille","lat":43.294162,"lon":5.386292,"is_reserved":false,"is_disabled":false,"rental_uris":{"android":"levelo://app?vid=872bb353-8bf3-4464-8996-a0517cc538fb","ios":"levelo://app?vid=872bb353-8bf3-4464-8996-a0517cc538fb"},"vehicle_type_id":"4","last_reported":1686863131,"current_range_meters":29200,"station_id":"ce4bh2h2rcd13ifvqdh0","pricing_plan_id":"free"},{"bike_id":"4828fe20-4ccb-48a7-91cd-ef88cd86a8a1","system_id":"levelo_inurba_marseille","lat":43.330462,"lon":5.38915,"is_reserved":false,"is_disabled":false,"rental_uris":{"android":"levelo://app?vid=4828fe20-4ccb-48a7-91cd-ef88cd86a8a1","ios":"levelo://app?vid=4828fe20-4ccb-48a7-91cd-ef88cd86a8a1"},"vehicle_type_id":"4","last_reported":1686863131,"current_range_meters":24800,"station_id":"","pricing_plan_id":"free"},{"bike_id":"513aa769-b5f0-4494-856c-70a507b14ee5","system_id":"levelo_inurba_marseille","lat":43.29109,"lon":5.38124,"is_reserved":false,"is_disabled":false,"rental_uris":{"android":"levelo://app?vid=513aa769-b5f0-4494-856c-70a507b14ee5","ios":"levelo://app?vid=513aa769-b5f0-4494-856c-70a507b14ee5"},"vehicle_type_id":"4","last_reported":1686863131,"current_range_meters":28400,"station_id":"ce4bh512rcd13ifvqe2g","pricing_plan_id":"free"},{"bike_id":"f77f259f-c88e-4b8e-859d-24c554235651","system_id":"levelo_inurba_marseille","lat":43.29107,"lon":5.38127,"is_reserved":false,"is_disabled":false,"rental_uris":{"android":"levelo://app?vid=f77f259f-c88e-4b8e-859d-24c554235651","ios":"levelo://app?vid=f77f259f-c88e-4b8e-859d-24c554235651"},"vehicle_type_id":"4","last_reported":1686863131,"current_range_meters":31200,"station_id":"ce4bh512rcd13ifvqe2g","pricing_plan_id":"free"},{"bike_id":"d602e7f3-7ed9-450a-8800-b6704c9fefc0","system_id":"levelo_inurba_marseille","lat":43.290995,"lon":5.381361,"is_reserved":false,"is_disabled":false,"rental_uris":{"android":"levelo://app?vid=d602e7f3-7ed9-450a-8800-b6704c9fefc0","ios":"levelo://app?vid=d602e7f3-7ed9-450a-8800-b6704c9fefc0"},"vehicle_type_id":"4","last_reported":1686863131,"current_range_meters":6000,"station_id":"ce4bh512rcd13ifvqe2g","pricing_plan_id":"free"},{"bike_id":"9e698f82-9b64-4c50-83f4-b850f07bcde3","system_id":"levelo_inurba_marseille","lat":43.290995,"lon":5.381361,"is_reserved":false,"is_disabled":false,"rental_uris":{"android":"levelo://app?vid=9e698f82-9b64-4c50-83f4-b850f07bcde3","ios":"levelo://app?vid=9e698f82-9b64-4c50-83f4-b850f07bcde3"},"vehicle_type_id":"4","last_reported":1686863131,"current_range_meters":26800,"station_id":"ce4bh512rcd13ifvqe2g","pricing_plan_id":"free"},{"bike_id":"b66158d5-9ef1-491d-9b86-813cb6dbf51b","system_id":"levelo_inurba_marseille","lat":43.291,"lon":5.38137,"is_reserved":false,"is_disabled":false,"rental_uris":{"android":"levelo://app?vid=b66158d5-9ef1-491d-9b86-813cb6dbf51b","ios":"levelo://app?vid=b66158d5-9ef1-491d-9b86-813cb6dbf51b"},"vehicle_type_id":"4","last_reported":1686863131,"current_range_meters":14400,"station_id":"ce4bh512rcd13ifvqe2g","pricing_plan_id":"free"},{"bike_id":"0efaf132-a33e-42bb-9a8c-39d3b521f556","system_id":"levelo_inurba_marseille","lat":43.29095,"lon":5.38149,"is_reserved":false,"is_disabled":false,"rental_uris":{"android":"levelo://app?vid=0efaf132-a33e-42bb-9a8c-39d3b521f556","ios":"levelo://app?vid=0efaf132-a33e-42bb-9a8c-39d3b521f556"},"vehicle_type_id":"4","last_reported":1686863131,"current_range_meters":30800,"station_id":"ce4bh512rcd13ifvqe2g","pricing_plan_id":"free"},{"bike_id":"2adb9559-8e77-4593-bfac-33e34fed7ea9","system_id":"levelo_inurba_marseille","lat":43.289743,"lon":5.378304,"is_reserved":false,"is_disabled":false,"rental_uris":{"android":"levelo://app?vid=2adb9559-8e77-4593-bfac-33e34fed7ea9","ios":"levelo://app?vid=2adb9559-8e77-4593-bfac-33e34fed7ea9"},"vehicle_type_id":"4","last_reported":1686863131,"current_range_meters":14800,"station_id":"ce4bh9p2rcd13ifvqed0","pricing_plan_id":"free"},{"bike_id":"b0911ec0-1918-4494-91d3-e5d57c7e140b","system_id":"levelo_inurba_marseille","lat":43.28983,"lon":5.37831,"is_reserved":false,"is_disabled":false,"rental_uris":{"android":"levelo://app?vid=b0911ec0-1918-4494-91d3-e5d57c7e140b","ios":"levelo://app?vid=b0911ec0-1918-4494-91d3-e5d57c7e140b"},"vehicle_type_id":"4","last_reported":1686863131,"current_range_meters":31200,"station_id":"ce4bh9p2rcd13ifvqed0","pricing_plan_id":"free"},{"bike_id":"13d5a42e-daac-4dee-b9dc-10feb0e254dc","system_id":"levelo_inurba_marseille","lat":43.297814,"lon":5.393513,"is_reserved":false,"is_disabled":false,"rental_uris":{"android":"levelo://app?vid=13d5a42e-daac-4dee-b9dc-10feb0e254dc","ios":"levelo://app?vid=13d5a42e-daac-4dee-b9dc-10feb0e254dc"},"vehicle_type_id":"4","last_reported":1686863131,"current_range_meters":2800,"station_id":"chh1huq6cuj3fo74tm60","pricing_plan_id":"free"},{"bike_id":"b5b53834-5e69-48cc-a021-89a2f3ab7599","system_id":"levelo_inurba_marseille","lat":43.29033,"lon":5.38146,"is_reserved":false,"is_disabled":false,"rental_uris":{"android":"levelo://app?vid=b5b53834-5e69-48cc-a021-89a2f3ab7599","ios":"levelo://app?vid=b5b53834-5e69-48cc-a021-89a2f3ab7599"},"vehicle_type_id":"4","last_reported":1686863131,"current_range_meters":31200,"station_id":"ce4bh4p2rcd13ifvqe1g","pricing_plan_id":"free"},{"bike_id":"ffae3325-bd5a-4737-ad72-5ccdd8e87e2d","system_id":"levelo_inurba_marseille","lat":43.29029,"lon":5.38138,"is_reserved":false,"is_disabled":false,"rental_uris":{"android":"levelo://app?vid=ffae3325-bd5a-4737-ad72-5ccdd8e87e2d","ios":"levelo://app?vid=ffae3325-bd5a-4737-ad72-5ccdd8e87e2d"},"vehicle_type_id":"4","last_reported":1686863131,"current_range_meters":29600,"station_id":"ce4bh4p2rcd13ifvqe1g","pricing_plan_id":"free"},{"bike_id":"e8924c46-ff03-410f-8d7a-d3f501734266","system_id":"levelo_inurba_marseille","lat":43.28852,"lon":5.35846,"is_reserved":false,"is_disabled":false,"rental_uris":{"android":"levelo://app?vid=e8924c46-ff03-410f-8d7a-d3f501734266","ios":"levelo://app?vid=e8924c46-ff03-410f-8d7a-d3f501734266"},"vehicle_type_id":"4","last_reported":1686863131,"current_range_meters":4400,"station_id":"ce4bhb12rcd13ifvqem0","pricing_plan_id":"free"},{"bike_id":"c0fb8083-e02d-4dec-b1b9-fa095e6c5b75","system_id":"levelo_inurba_marseille","lat":43.337396,"lon":5.374526,"is_reserved":false,"is_disabled":false,"rental_uris":{"android":"levelo://app?vid=c0fb8083-e02d-4dec-b1b9-fa095e6c5b75","ios":"levelo://app?vid=c0fb8083-e02d-4dec-b1b9-fa095e6c5b75"},"vehicle_type_id":"4","last_reported":1686863131,"current_range_meters":4000,"station_id":"ce4bhp92rcd13ifvqhag","pricing_plan_id":"free"},{"bike_id":"3dfe341f-61e7-4079-ad7e-4c4a90a90229","system_id":"levelo_inurba_marseille","lat":43.309371,"lon":5.401449,"is_reserved":false,"is_disabled":false,"rental_uris":{"android":"levelo://app?vid=3dfe341f-61e7-4079-ad7e-4c4a90a90229","ios":"levelo://app?vid=3dfe341f-61e7-4079-ad7e-4c4a90a90229"},"vehicle_type_id":"4","last_reported":1686863131,"current_range_meters":18800,"station_id":"ce4bgvp2rcd13ifvqct0","pricing_plan_id":"free"},{"bike_id":"f01cb20e-912b-40d2-ad57-b1c3e62cd7ba","system_id":"levelo_inurba_marseille","lat":43.309371,"lon":5.401449,"is_reserved":false,"is_disabled":false,"rental_uris":{"android":"levelo://app?vid=f01cb20e-912b-40d2-ad57-b1c3e62cd7ba","ios":"levelo://app?vid=f01cb20e-912b-40d2-ad57-b1c3e62cd7ba"},"vehicle_type_id":"4","last_reported":1686863131,"current_range_meters":18000,"station_id":"ce4bgvp2rcd13ifvqct0","pricing_plan_id":"free"},{"bike_id":"052594a2-1ade-4fb2-a4ed-9a03802e3f88","system_id":"levelo_inurba_marseille","lat":43.306412,"lon":5.401035,"is_reserved":false,"is_disabled":false,"rental_uris":{"android":"levelo://app?vid=052594a2-1ade-4fb2-a4ed-9a03802e3f88","ios":"levelo://app?vid=052594a2-1ade-4fb2-a4ed-9a03802e3f88"},"vehicle_type_id":"4","last_reported":1686863131,"current_range_meters":4800,"station_id":"ce4bh112rcd13ifvqda0","pricing_plan_id":"free"},{"bike_id":"10cdb518-e270-4caa-b225-2f800bd44b58","system_id":"levelo_inurba_marseille","lat":43.33766,"lon":5.37429,"is_reserved":false,"is_disabled":false,"rental_uris":{"android":"levelo://app?vid=10cdb518-e270-4caa-b225-2f800bd44b58","ios":"levelo://app?vid=10cdb518-e270-4caa-b225-2f800bd44b58"},"vehicle_type_id":"4","last_reported":1686863131,"current_range_meters":24400,"station_id":"","pricing_plan_id":"free"},{"bike_id":"e67b74df-a415-4444-a302-f71dae903bbb","system_id":"levelo_inurba_marseille","lat":43.30642,"lon":5.401031,"is_reserved":false,"is_disabled":false,"rental_uris":{"android":"levelo://app?vid=e67b74df-a415-4444-a302-f71dae903bbb","ios":"levelo://app?vid=e67b74df-a415-4444-a302-f71dae903bbb"},"vehicle_type_id":"4","last_reported":1686863131,"current_range_meters":2000,"station_id":"ce4bh112rcd13ifvqda0","pricing_plan_id":"free"},{"bike_id":"90ede98e-dc4a-4323-aed3-b45ce7abb23c","system_id":"levelo_inurba_marseille","lat":43.30144,"lon":5.39858,"is_reserved":false,"is_disabled":false,"rental_uris":{"android":"levelo://app?vid=90ede98e-dc4a-4323-aed3-b45ce7abb23c","ios":"levelo://app?vid=90ede98e-dc4a-4323-aed3-b45ce7abb23c"},"vehicle_type_id":"4","last_reported":1686863131,"current_range_meters":10000,"station_id":"","pricing_plan_id":"free"},{"bike_id":"ece0fcd9-bc3b-4b06-9f82-f6545f6de1bb","system_id":"levelo_inurba_marseille","lat":43.28718,"lon":5.37405,"is_reserved":false,"is_disabled":false,"rental_uris":{"android":"levelo://app?vid=ece0fcd9-bc3b-4b06-9f82-f6545f6de1bb","ios":"levelo://app?vid=ece0fcd9-bc3b-4b06-9f82-f6545f6de1bb"},"vehicle_type_id":"4","last_reported":1686863131,"current_range_meters":11600,"station_id":"","pricing_plan_id":"free"},{"bike_id":"2eca9e35-5a01-4680-989e-197769f7ece9","system_id":"levelo_inurba_marseille","lat":43.286591,"lon":5.363346,"is_reserved":false,"is_disabled":false,"rental_uris":{"android":"levelo://app?vid=2eca9e35-5a01-4680-989e-197769f7ece9","ios":"levelo://app?vid=2eca9e35-5a01-4680-989e-197769f7ece9"},"vehicle_type_id":"4","last_reported":1686863131,"current_range_meters":0,"station_id":"ce4bhah2rcd13ifvqej0","pricing_plan_id":"free"},{"bike_id":"bae2d3d1-7192-4bf8-b2af-191800d2d235","system_id":"levelo_inurba_marseille","lat":43.286591,"lon":5.363346,"is_reserved":false,"is_disabled":false,"rental_uris":{"android":"levelo://app?vid=bae2d3d1-7192-4bf8-b2af-191800d2d235","ios":"levelo://app?vid=bae2d3d1-7192-4bf8-b2af-191800d2d235"},"vehicle_type_id":"4","last_reported":1686863131,"current_range_meters":31600,"station_id":"ce4bhah2rcd13ifvqej0","pricing_plan_id":"free"},{"bike_id":"55cf0135-7493-4e82-98c1-a2e5985c6c99","system_id":"levelo_inurba_marseille","lat":43.286591,"lon":5.363346,"is_reserved":false,"is_disabled":false,"rental_uris":{"android":"levelo://app?vid=55cf0135-7493-4e82-98c1-a2e5985c6c99","ios":"levelo://app?vid=55cf0135-7493-4e82-98c1-a2e5985c6c99"},"vehicle_type_id":"4","last_reported":1686863131,"current_range_meters":29600,"station_id":"ce4bhah2rcd13ifvqej0","pricing_plan_id":"free"},{"bike_id":"05b5e554-ea24-4a8b-9576-3ba502a7fa03","system_id":"levelo_inurba_marseille","lat":43.287013,"lon":5.373851,"is_reserved":false,"is_disabled":false,"rental_uris":{"android":"levelo://app?vid=05b5e554-ea24-4a8b-9576-3ba502a7fa03","ios":"levelo://app?vid=05b5e554-ea24-4a8b-9576-3ba502a7fa03"},"vehicle_type_id":"4","last_reported":1686863131,"current_range_meters":0,"station_id":"","pricing_plan_id":"free"},{"bike_id":"dacf9107-5b2e-4d00-9883-c08bcd68b574","system_id":"levelo_inurba_marseille","lat":43.302759,"lon":5.400793,"is_reserved":false,"is_disabled":false,"rental_uris":{"android":"levelo://app?vid=dacf9107-5b2e-4d00-9883-c08bcd68b574","ios":"levelo://app?vid=dacf9107-5b2e-4d00-9883-c08bcd68b574"},"vehicle_type_id":"4","last_reported":1686863131,"current_range_meters":12000,"station_id":"ce4bgvh2rcd13ifvqcs0","pricing_plan_id":"free"},{"bike_id":"98ce8bb1-baeb-492c-b322-d26bf95536fa","system_id":"levelo_inurba_marseille","lat":43.31644,"lon":5.40431,"is_reserved":false,"is_disabled":false,"rental_uris":{"android":"levelo://app?vid=98ce8bb1-baeb-492c-b322-d26bf95536fa","ios":"levelo://app?vid=98ce8bb1-baeb-492c-b322-d26bf95536fa"},"vehicle_type_id":"4","last_reported":1686863131,"current_range_meters":22800,"station_id":"ce4bh012rcd13ifvqd00","pricing_plan_id":"free"},{"bike_id":"c8a87011-d1e9-468b-a29a-a070555c1de6","system_id":"levelo_inurba_marseille","lat":43.31644,"lon":5.40438,"is_reserved":false,"is_disabled":false,"rental_uris":{"android":"levelo://app?vid=c8a87011-d1e9-468b-a29a-a070555c1de6","ios":"levelo://app?vid=c8a87011-d1e9-468b-a29a-a070555c1de6"},"vehicle_type_id":"4","last_reported":1686863131,"current_range_meters":400,"station_id":"ce4bh012rcd13ifvqd00","pricing_plan_id":"free"},{"bike_id":"21201f90-c16e-4e3b-8600-e96b91765947","system_id":"levelo_inurba_marseille","lat":43.284534,"lon":5.358662,"is_reserved":false,"is_disabled":false,"rental_uris":{"android":"levelo://app?vid=21201f90-c16e-4e3b-8600-e96b91765947","ios":"levelo://app?vid=21201f90-c16e-4e3b-8600-e96b91765947"},"vehicle_type_id":"4","last_reported":1686863131,"current_range_meters":9200,"station_id":"ce4bhah2rcd13ifvqei0","pricing_plan_id":"free"},{"bike_id":"914e440f-43d3-44d7-95d0-a9f35f787c25","system_id":"levelo_inurba_marseille","lat":43.284534,"lon":5.358662,"is_reserved":false,"is_disabled":false,"rental_uris":{"android":"levelo://app?vid=914e440f-43d3-44d7-95d0-a9f35f787c25","ios":"levelo://app?vid=914e440f-43d3-44d7-95d0-a9f35f787c25"},"vehicle_type_id":"4","last_reported":1686863131,"current_range_meters":13600,"station_id":"ce4bhah2rcd13ifvqei0","pricing_plan_id":"free"},{"bike_id":"a873eedf-271a-4a9c-aee7-24ebf383d22b","system_id":"levelo_inurba_marseille","lat":43.284534,"lon":5.358662,"is_reserved":false,"is_disabled":false,"rental_uris":{"android":"levelo://app?vid=a873eedf-271a-4a9c-aee7-24ebf383d22b","ios":"levelo://app?vid=a873eedf-271a-4a9c-aee7-24ebf383d22b"},"vehicle_type_id":"4","last_reported":1686863131,"current_range_meters":0,"station_id":"ce4bhah2rcd13ifvqei0","pricing_plan_id":"free"},{"bike_id":"e64504cb-6a7a-4bca-a135-4c3721d6df09","system_id":"levelo_inurba_marseille","lat":43.284534,"lon":5.358662,"is_reserved":false,"is_disabled":false,"rental_uris":{"android":"levelo://app?vid=e64504cb-6a7a-4bca-a135-4c3721d6df09","ios":"levelo://app?vid=e64504cb-6a7a-4bca-a135-4c3721d6df09"},"vehicle_type_id":"4","last_reported":1686863131,"current_range_meters":0,"station_id":"ce4bhah2rcd13ifvqei0","pricing_plan_id":"free"},{"bike_id":"b0fbedc7-081f-4dc9-afa4-59242757298c","system_id":"levelo_inurba_marseille","lat":43.284534,"lon":5.358662,"is_reserved":false,"is_disabled":false,"rental_uris":{"android":"levelo://app?vid=b0fbedc7-081f-4dc9-afa4-59242757298c","ios":"levelo://app?vid=b0fbedc7-081f-4dc9-afa4-59242757298c"},"vehicle_type_id":"4","last_reported":1686863131,"current_range_meters":12000,"station_id":"ce4bhah2rcd13ifvqei0","pricing_plan_id":"free"},{"bike_id":"994c4b2a-83f3-4806-921e-145ca56b92e7","system_id":"levelo_inurba_marseille","lat":43.28415,"lon":5.3751,"is_reserved":false,"is_disabled":false,"rental_uris":{"android":"levelo://app?vid=994c4b2a-83f3-4806-921e-145ca56b92e7","ios":"levelo://app?vid=994c4b2a-83f3-4806-921e-145ca56b92e7"},"vehicle_type_id":"4","last_reported":1686863131,"current_range_meters":16800,"station_id":"ce4bh412rcd13ifvqds0","pricing_plan_id":"free"},{"bike_id":"7e00ad48-3108-4d95-8310-04223f142cde","system_id":"levelo_inurba_marseille","lat":43.29571,"lon":5.39964,"is_reserved":false,"is_disabled":false,"rental_uris":{"android":"levelo://app?vid=7e00ad48-3108-4d95-8310-04223f142cde","ios":"levelo://app?vid=7e00ad48-3108-4d95-8310-04223f142cde"},"vehicle_type_id":"4","last_reported":1686863131,"current_range_meters":30000,"station_id":"ce4bh312rcd13ifvqdj0","pricing_plan_id":"free"},{"bike_id":"87cc5b16-46e4-4a8f-841d-3c4865b79d57","system_id":"levelo_inurba_marseille","lat":43.295713,"lon":5.399639,"is_reserved":false,"is_disabled":false,"rental_uris":{"android":"levelo://app?vid=87cc5b16-46e4-4a8f-841d-3c4865b79d57","ios":"levelo://app?vid=87cc5b16-46e4-4a8f-841d-3c4865b79d57"},"vehicle_type_id":"4","last_reported":1686863131,"current_range_meters":800,"station_id":"ce4bh312rcd13ifvqdj0","pricing_plan_id":"free"},{"bike_id":"fd347dd7-9010-459a-a7bb-0121e38366c8","system_id":"levelo_inurba_marseille","lat":43.295713,"lon":5.399639,"is_reserved":false,"is_disabled":false,"rental_uris":{"android":"levelo://app?vid=fd347dd7-9010-459a-a7bb-0121e38366c8","ios":"levelo://app?vid=fd347dd7-9010-459a-a7bb-0121e38366c8"},"vehicle_type_id":"4","last_reported":1686863131,"current_range_meters":2000,"station_id":"ce4bh312rcd13ifvqdj0","pricing_plan_id":"free"},{"bike_id":"75b957c0-e5c1-4dcc-931a-2ebbfec4ee3f","system_id":"levelo_inurba_marseille","lat":43.295713,"lon":5.399639,"is_reserved":false,"is_disabled":false,"rental_uris":{"android":"levelo://app?vid=75b957c0-e5c1-4dcc-931a-2ebbfec4ee3f","ios":"levelo://app?vid=75b957c0-e5c1-4dcc-931a-2ebbfec4ee3f"},"vehicle_type_id":"4","last_reported":1686863131,"current_range_meters":7600,"station_id":"ce4bh312rcd13ifvqdj0","pricing_plan_id":"free"},{"bike_id":"2f417df1-7f02-4e50-98c1-40d74bf84790","system_id":"levelo_inurba_marseille","lat":43.286631,"lon":5.386695,"is_reserved":false,"is_disabled":false,"rental_uris":{"android":"levelo://app?vid=2f417df1-7f02-4e50-98c1-40d74bf84790","ios":"levelo://app?vid=2f417df1-7f02-4e50-98c1-40d74bf84790"},"vehicle_type_id":"4","last_reported":1686863131,"current_range_meters":24000,"station_id":"ce4bh492rcd13ifvqdug","pricing_plan_id":"free"},{"bike_id":"de6084de-eabf-4b89-947f-12d902de9f9b","system_id":"levelo_inurba_marseille","lat":43.286595,"lon":5.386795,"is_reserved":false,"is_disabled":false,"rental_uris":{"android":"levelo://app?vid=de6084de-eabf-4b89-947f-12d902de9f9b","ios":"levelo://app?vid=de6084de-eabf-4b89-947f-12d902de9f9b"},"vehicle_type_id":"4","last_reported":1686863131,"current_range_meters":800,"station_id":"ce4bh492rcd13ifvqdug","pricing_plan_id":"free"},{"bike_id":"16e5fedd-6e86-436a-a0a2-72c7cd60a6ea","system_id":"levelo_inurba_marseille","lat":43.32338,"lon":5.40618,"is_reserved":false,"is_disabled":false,"rental_uris":{"android":"levelo://app?vid=16e5fedd-6e86-436a-a0a2-72c7cd60a6ea","ios":"levelo://app?vid=16e5fedd-6e86-436a-a0a2-72c7cd60a6ea"},"vehicle_type_id":"4","last_reported":1686863131,"current_range_meters":31600,"station_id":"ce4bhq92rcd13ifvqhjg","pricing_plan_id":"free"},{"bike_id":"39f6ae1d-0bf0-4d03-9bfa-2ea3bbbb992c","system_id":"levelo_inurba_marseille","lat":43.323464,"lon":5.406297,"is_reserved":false,"is_disabled":false,"rental_uris":{"android":"levelo://app?vid=39f6ae1d-0bf0-4d03-9bfa-2ea3bbbb992c","ios":"levelo://app?vid=39f6ae1d-0bf0-4d03-9bfa-2ea3bbbb992c"},"vehicle_type_id":"4","last_reported":1686863131,"current_range_meters":30800,"station_id":"ce4bhq92rcd13ifvqhjg","pricing_plan_id":"free"},{"bike_id":"26c128b2-24ff-4735-8883-1c86ed16010f","system_id":"levelo_inurba_marseille","lat":43.33731,"lon":5.39188,"is_reserved":false,"is_disabled":false,"rental_uris":{"android":"levelo://app?vid=26c128b2-24ff-4735-8883-1c86ed16010f","ios":"levelo://app?vid=26c128b2-24ff-4735-8883-1c86ed16010f"},"vehicle_type_id":"4","last_reported":1686863131,"current_range_meters":4000,"station_id":"","pricing_plan_id":"free"},{"bike_id":"d81628fe-169f-4284-b77a-0b1b925c572f","system_id":"levelo_inurba_marseille","lat":43.284793,"lon":5.384119,"is_reserved":false,"is_disabled":false,"rental_uris":{"android":"levelo://app?vid=d81628fe-169f-4284-b77a-0b1b925c572f","ios":"levelo://app?vid=d81628fe-169f-4284-b77a-0b1b925c572f"},"vehicle_type_id":"4","last_reported":1686863131,"current_range_meters":4800,"station_id":"ce4bh512rcd13ifvqe3g","pricing_plan_id":"free"},{"bike_id":"00b4d942-d645-4a17-a320-9c02b5ecca68","system_id":"levelo_inurba_marseille","lat":43.288497,"lon":5.393089,"is_reserved":false,"is_disabled":false,"rental_uris":{"android":"levelo://app?vid=00b4d942-d645-4a17-a320-9c02b5ecca68","ios":"levelo://app?vid=00b4d942-d645-4a17-a320-9c02b5ecca68"},"vehicle_type_id":"4","last_reported":1686863131,"current_range_meters":20400,"station_id":"ce4bh2p2rcd13ifvqdi0","pricing_plan_id":"free"},{"bike_id":"fd4d5b44-8622-4b34-b433-8b919a4b18d7","system_id":"levelo_inurba_marseille","lat":43.284787,"lon":5.384116,"is_reserved":false,"is_disabled":false,"rental_uris":{"android":"levelo://app?vid=fd4d5b44-8622-4b34-b433-8b919a4b18d7","ios":"levelo://app?vid=fd4d5b44-8622-4b34-b433-8b919a4b18d7"},"vehicle_type_id":"4","last_reported":1686863131,"current_range_meters":4800,"station_id":"ce4bh512rcd13ifvqe3g","pricing_plan_id":"free"},{"bike_id":"1e30c649-d6ae-489a-8866-7e7c217f6245","system_id":"levelo_inurba_marseille","lat":43.288497,"lon":5.393089,"is_reserved":false,"is_disabled":false,"rental_uris":{"android":"levelo://app?vid=1e30c649-d6ae-489a-8866-7e7c217f6245","ios":"levelo://app?vid=1e30c649-d6ae-489a-8866-7e7c217f6245"},"vehicle_type_id":"4","last_reported":1686863131,"current_range_meters":24000,"station_id":"ce4bh2p2rcd13ifvqdi0","pricing_plan_id":"free"},{"bike_id":"8d259ba8-5fe4-4144-b59d-b4d7c110ac6a","system_id":"levelo_inurba_marseille","lat":43.283498,"lon":5.380948,"is_reserved":false,"is_disabled":false,"rental_uris":{"android":"levelo://app?vid=8d259ba8-5fe4-4144-b59d-b4d7c110ac6a","ios":"levelo://app?vid=8d259ba8-5fe4-4144-b59d-b4d7c110ac6a"},"vehicle_type_id":"4","last_reported":1686863131,"current_range_meters":19200,"station_id":"ce4bh412rcd13ifvqdr0","pricing_plan_id":"free"},{"bike_id":"3ce48866-e4ef-4775-ae02-38f87dacbc46","system_id":"levelo_inurba_marseille","lat":43.283494,"lon":5.380945,"is_reserved":false,"is_disabled":false,"rental_uris":{"android":"levelo://app?vid=3ce48866-e4ef-4775-ae02-38f87dacbc46","ios":"levelo://app?vid=3ce48866-e4ef-4775-ae02-38f87dacbc46"},"vehicle_type_id":"4","last_reported":1686863131,"current_range_meters":6000,"station_id":"ce4bh412rcd13ifvqdr0","pricing_plan_id":"free"},{"bike_id":"9b9db7c9-6c68-44c0-b3b4-922d570abf41","system_id":"levelo_inurba_marseille","lat":43.283494,"lon":5.380945,"is_reserved":false,"is_disabled":false,"rental_uris":{"android":"levelo://app?vid=9b9db7c9-6c68-44c0-b3b4-922d570abf41","ios":"levelo://app?vid=9b9db7c9-6c68-44c0-b3b4-922d570abf41"},"vehicle_type_id":"4","last_reported":1686863131,"current_range_meters":4000,"station_id":"ce4bh412rcd13ifvqdr0","pricing_plan_id":"free"},{"bike_id":"81078cbd-f24a-43b7-b114-76dbd1a33c13","system_id":"levelo_inurba_marseille","lat":43.284219,"lon":5.3497,"is_reserved":false,"is_disabled":false,"rental_uris":{"android":"levelo://app?vid=81078cbd-f24a-43b7-b114-76dbd1a33c13","ios":"levelo://app?vid=81078cbd-f24a-43b7-b114-76dbd1a33c13"},"vehicle_type_id":"4","last_reported":1686863131,"current_range_meters":800,"station_id":"ce4bhbh2rcd13ifvqepg","pricing_plan_id":"free"},{"bike_id":"5bc543d5-dbbc-4856-9191-4beb587dc8ad","system_id":"levelo_inurba_marseille","lat":43.28039,"lon":5.369297,"is_reserved":false,"is_disabled":false,"rental_uris":{"android":"levelo://app?vid=5bc543d5-dbbc-4856-9191-4beb587dc8ad","ios":"levelo://app?vid=5bc543d5-dbbc-4856-9191-4beb587dc8ad"},"vehicle_type_id":"4","last_reported":1686863131,"current_range_meters":24000,"station_id":"ce4bha12rcd13ifvqef0","pricing_plan_id":"free"},{"bike_id":"070eff4f-b6c3-4dbd-bb90-da32ffeb2053","system_id":"levelo_inurba_marseille","lat":43.283502,"lon":5.386471,"is_reserved":false,"is_disabled":false,"rental_uris":{"android":"levelo://app?vid=070eff4f-b6c3-4dbd-bb90-da32ffeb2053","ios":"levelo://app?vid=070eff4f-b6c3-4dbd-bb90-da32ffeb2053"},"vehicle_type_id":"4","last_reported":1686863131,"current_range_meters":30800,"station_id":"ce4bh492rcd13ifvqdvg","pricing_plan_id":"free"},{"bike_id":"f5c54144-e449-40b6-a4d7-d82fc6d5dcb0","system_id":"levelo_inurba_marseille","lat":43.283502,"lon":5.386471,"is_reserved":false,"is_disabled":false,"rental_uris":{"android":"levelo://app?vid=f5c54144-e449-40b6-a4d7-d82fc6d5dcb0","ios":"levelo://app?vid=f5c54144-e449-40b6-a4d7-d82fc6d5dcb0"},"vehicle_type_id":"4","last_reported":1686863131,"current_range_meters":31200,"station_id":"ce4bh492rcd13ifvqdvg","pricing_plan_id":"free"},{"bike_id":"6e2e503e-f0ca-42a1-b6ea-4ab018ff3449","system_id":"levelo_inurba_marseille","lat":43.282731,"lon":5.350584,"is_reserved":false,"is_disabled":false,"rental_uris":{"android":"levelo://app?vid=6e2e503e-f0ca-42a1-b6ea-4ab018ff3449","ios":"levelo://app?vid=6e2e503e-f0ca-42a1-b6ea-4ab018ff3449"},"vehicle_type_id":"4","last_reported":1686863131,"current_range_meters":1200,"station_id":"ce4bhbp2rcd13ifvqerg","pricing_plan_id":"free"},{"bike_id":"51071d86-90c0-4991-a3d8-40edb3780ac0","system_id":"levelo_inurba_marseille","lat":43.28369,"lon":5.38637,"is_reserved":false,"is_disabled":false,"rental_uris":{"android":"levelo://app?vid=51071d86-90c0-4991-a3d8-40edb3780ac0","ios":"levelo://app?vid=51071d86-90c0-4991-a3d8-40edb3780ac0"},"vehicle_type_id":"4","last_reported":1686863131,"current_range_meters":15600,"station_id":"ce4bh492rcd13ifvqdvg","pricing_plan_id":"free"},{"bike_id":"9f5514ca-958a-41f8-9ab1-92c44f586d5d","system_id":"levelo_inurba_marseille","lat":43.28265,"lon":5.350733,"is_reserved":false,"is_disabled":false,"rental_uris":{"android":"levelo://app?vid=9f5514ca-958a-41f8-9ab1-92c44f586d5d","ios":"levelo://app?vid=9f5514ca-958a-41f8-9ab1-92c44f586d5d"},"vehicle_type_id":"4","last_reported":1686863131,"current_range_meters":31200,"station_id":"ce4bhbp2rcd13ifvqerg","pricing_plan_id":"free"},{"bike_id":"11060602-af07-4dd7-ac99-f35cad73f0d0","system_id":"levelo_inurba_marseille","lat":43.283502,"lon":5.386471,"is_reserved":false,"is_disabled":false,"rental_uris":{"android":"levelo://app?vid=11060602-af07-4dd7-ac99-f35cad73f0d0","ios":"levelo://app?vid=11060602-af07-4dd7-ac99-f35cad73f0d0"},"vehicle_type_id":"4","last_reported":1686863131,"current_range_meters":3600,"station_id":"ce4bh492rcd13ifvqdvg","pricing_plan_id":"free"},{"bike_id":"622d6a6f-8a7c-42ba-a1e6-812faf3c2dab","system_id":"levelo_inurba_marseille","lat":43.28262,"lon":5.35074,"is_reserved":false,"is_disabled":false,"rental_uris":{"android":"levelo://app?vid=622d6a6f-8a7c-42ba-a1e6-812faf3c2dab","ios":"levelo://app?vid=622d6a6f-8a7c-42ba-a1e6-812faf3c2dab"},"vehicle_type_id":"4","last_reported":1686863131,"current_range_meters":31200,"station_id":"ce4bhbp2rcd13ifvqerg","pricing_plan_id":"free"},{"bike_id":"bb18a490-58b8-414e-9173-91a031851149","system_id":"levelo_inurba_marseille","lat":43.282635,"lon":5.350685,"is_reserved":false,"is_disabled":false,"rental_uris":{"android":"levelo://app?vid=bb18a490-58b8-414e-9173-91a031851149","ios":"levelo://app?vid=bb18a490-58b8-414e-9173-91a031851149"},"vehicle_type_id":"4","last_reported":1686863131,"current_range_meters":31200,"station_id":"ce4bhbp2rcd13ifvqerg","pricing_plan_id":"free"},{"bike_id":"e2e148c9-6712-4d4a-a008-14f6823e6146","system_id":"levelo_inurba_marseille","lat":43.28039,"lon":5.369297,"is_reserved":false,"is_disabled":false,"rental_uris":{"android":"levelo://app?vid=e2e148c9-6712-4d4a-a008-14f6823e6146","ios":"levelo://app?vid=e2e148c9-6712-4d4a-a008-14f6823e6146"},"vehicle_type_id":"4","last_reported":1686863131,"current_range_meters":25200,"station_id":"ce4bha12rcd13ifvqef0","pricing_plan_id":"free"},{"bike_id":"199899a7-290c-4486-8ee7-5fd83d73d1cf","system_id":"levelo_inurba_marseille","lat":43.28039,"lon":5.369297,"is_reserved":false,"is_disabled":false,"rental_uris":{"android":"levelo://app?vid=199899a7-290c-4486-8ee7-5fd83d73d1cf","ios":"levelo://app?vid=199899a7-290c-4486-8ee7-5fd83d73d1cf"},"vehicle_type_id":"4","last_reported":1686863131,"current_range_meters":10000,"station_id":"ce4bha12rcd13ifvqef0","pricing_plan_id":"free"},{"bike_id":"2f4b8017-9cae-417f-b662-034f3a181fd0","system_id":"levelo_inurba_marseille","lat":43.290412,"lon":5.399633,"is_reserved":false,"is_disabled":false,"rental_uris":{"android":"levelo://app?vid=2f4b8017-9cae-417f-b662-034f3a181fd0","ios":"levelo://app?vid=2f4b8017-9cae-417f-b662-034f3a181fd0"},"vehicle_type_id":"4","last_reported":1686863131,"current_range_meters":7200,"station_id":"ce4bh392rcd13ifvqdm0","pricing_plan_id":"free"},{"bike_id":"cffd77f0-95d4-4e98-8bfa-94beb6ca3937","system_id":"levelo_inurba_marseille","lat":43.290412,"lon":5.399633,"is_reserved":false,"is_disabled":false,"rental_uris":{"android":"levelo://app?vid=cffd77f0-95d4-4e98-8bfa-94beb6ca3937","ios":"levelo://app?vid=cffd77f0-95d4-4e98-8bfa-94beb6ca3937"},"vehicle_type_id":"4","last_reported":1686863131,"current_range_meters":26400,"station_id":"ce4bh392rcd13ifvqdm0","pricing_plan_id":"free"},{"bike_id":"742fb553-e745-4249-8de8-dcc00781687c","system_id":"levelo_inurba_marseille","lat":43.28116,"lon":5.37831,"is_reserved":false,"is_disabled":false,"rental_uris":{"android":"levelo://app?vid=742fb553-e745-4249-8de8-dcc00781687c","ios":"levelo://app?vid=742fb553-e745-4249-8de8-dcc00781687c"},"vehicle_type_id":"4","last_reported":1686863131,"current_range_meters":31200,"station_id":"ce4bha12rcd13ifvqee0","pricing_plan_id":"free"},{"bike_id":"d22173a7-32ec-48e1-9c0d-ad1730377144","system_id":"levelo_inurba_marseille","lat":43.281044,"lon":5.378308,"is_reserved":false,"is_disabled":false,"rental_uris":{"android":"levelo://app?vid=d22173a7-32ec-48e1-9c0d-ad1730377144","ios":"levelo://app?vid=d22173a7-32ec-48e1-9c0d-ad1730377144"},"vehicle_type_id":"4","last_reported":1686863131,"current_range_meters":20000,"station_id":"ce4bha12rcd13ifvqee0","pricing_plan_id":"free"},{"bike_id":"aa81995d-6081-4a66-a6ec-75ba2ee3f6b8","system_id":"levelo_inurba_marseille","lat":43.28106,"lon":5.37833,"is_reserved":false,"is_disabled":false,"rental_uris":{"android":"levelo://app?vid=aa81995d-6081-4a66-a6ec-75ba2ee3f6b8","ios":"levelo://app?vid=aa81995d-6081-4a66-a6ec-75ba2ee3f6b8"},"vehicle_type_id":"4","last_reported":1686863131,"current_range_meters":31200,"station_id":"ce4bha12rcd13ifvqee0","pricing_plan_id":"free"},{"bike_id":"74a8bca5-5841-4263-91fe-dcc7d8903341","system_id":"levelo_inurba_marseille","lat":43.281044,"lon":5.378308,"is_reserved":false,"is_disabled":false,"rental_uris":{"android":"levelo://app?vid=74a8bca5-5841-4263-91fe-dcc7d8903341","ios":"levelo://app?vid=74a8bca5-5841-4263-91fe-dcc7d8903341"},"vehicle_type_id":"4","last_reported":1686863131,"current_range_meters":31200,"station_id":"ce4bha12rcd13ifvqee0","pricing_plan_id":"free"},{"bike_id":"fabf1260-b9fb-463f-9a96-680a63eb2b33","system_id":"levelo_inurba_marseille","lat":43.280959,"lon":5.378357,"is_reserved":false,"is_disabled":false,"rental_uris":{"android":"levelo://app?vid=fabf1260-b9fb-463f-9a96-680a63eb2b33","ios":"levelo://app?vid=fabf1260-b9fb-463f-9a96-680a63eb2b33"},"vehicle_type_id":"4","last_reported":1686863131,"current_range_meters":3200,"station_id":"","pricing_plan_id":"free"},{"bike_id":"b20ca1dc-7b4a-4a7b-814d-e42100e57ffd","system_id":"levelo_inurba_marseille","lat":43.284462,"lon":5.392121,"is_reserved":false,"is_disabled":false,"rental_uris":{"android":"levelo://app?vid=b20ca1dc-7b4a-4a7b-814d-e42100e57ffd","ios":"levelo://app?vid=b20ca1dc-7b4a-4a7b-814d-e42100e57ffd"},"vehicle_type_id":"4","last_reported":1686863131,"current_range_meters":17200,"station_id":"ce4bhoh2rcd13ifvqh5g","pricing_plan_id":"free"},{"bike_id":"81eef93a-a0be-46df-be13-a6121db1ea10","system_id":"levelo_inurba_marseille","lat":43.284462,"lon":5.392121,"is_reserved":false,"is_disabled":false,"rental_uris":{"android":"levelo://app?vid=81eef93a-a0be-46df-be13-a6121db1ea10","ios":"levelo://app?vid=81eef93a-a0be-46df-be13-a6121db1ea10"},"vehicle_type_id":"4","last_reported":1686863131,"current_range_meters":22800,"station_id":"ce4bhoh2rcd13ifvqh5g","pricing_plan_id":"free"},{"bike_id":"61ae1735-18a4-4fa8-baa8-e7e4c3dc872d","system_id":"levelo_inurba_marseille","lat":43.284462,"lon":5.392121,"is_reserved":false,"is_disabled":false,"rental_uris":{"android":"levelo://app?vid=61ae1735-18a4-4fa8-baa8-e7e4c3dc872d","ios":"levelo://app?vid=61ae1735-18a4-4fa8-baa8-e7e4c3dc872d"},"vehicle_type_id":"4","last_reported":1686863131,"current_range_meters":29200,"station_id":"ce4bhoh2rcd13ifvqh5g","pricing_plan_id":"free"},{"bike_id":"0cec1efc-5fdb-4389-8362-3076f5c23d4e","system_id":"levelo_inurba_marseille","lat":43.284462,"lon":5.392121,"is_reserved":false,"is_disabled":false,"rental_uris":{"android":"levelo://app?vid=0cec1efc-5fdb-4389-8362-3076f5c23d4e","ios":"levelo://app?vid=0cec1efc-5fdb-4389-8362-3076f5c23d4e"},"vehicle_type_id":"4","last_reported":1686863131,"current_range_meters":27200,"station_id":"ce4bhoh2rcd13ifvqh5g","pricing_plan_id":"free"},{"bike_id":"6cae0a94-345f-4443-9ae8-ec495a96fea9","system_id":"levelo_inurba_marseille","lat":43.280256,"lon":5.379723,"is_reserved":false,"is_disabled":false,"rental_uris":{"android":"levelo://app?vid=6cae0a94-345f-4443-9ae8-ec495a96fea9","ios":"levelo://app?vid=6cae0a94-345f-4443-9ae8-ec495a96fea9"},"vehicle_type_id":"4","last_reported":1686863131,"current_range_meters":20400,"station_id":"","pricing_plan_id":"free"},{"bike_id":"30952b62-bd18-4495-b44d-f7e3af0dd50e","system_id":"levelo_inurba_marseille","lat":43.28573,"lon":5.394992,"is_reserved":false,"is_disabled":false,"rental_uris":{"android":"levelo://app?vid=30952b62-bd18-4495-b44d-f7e3af0dd50e","ios":"levelo://app?vid=30952b62-bd18-4495-b44d-f7e3af0dd50e"},"vehicle_type_id":"4","last_reported":1686863131,"current_range_meters":7200,"station_id":"ce4bh292rcd13ifvqdg0","pricing_plan_id":"free"},{"bike_id":"54e83a07-881b-48aa-9994-dead08b5a6a9","system_id":"levelo_inurba_marseille","lat":43.285742,"lon":5.395004,"is_reserved":false,"is_disabled":false,"rental_uris":{"android":"levelo://app?vid=54e83a07-881b-48aa-9994-dead08b5a6a9","ios":"levelo://app?vid=54e83a07-881b-48aa-9994-dead08b5a6a9"},"vehicle_type_id":"4","last_reported":1686863131,"current_range_meters":26800,"station_id":"ce4bh292rcd13ifvqdg0","pricing_plan_id":"free"},{"bike_id":"49d008b6-d353-4a4b-a0e0-bf37a69f1bfe","system_id":"levelo_inurba_marseille","lat":43.28573,"lon":5.394992,"is_reserved":false,"is_disabled":false,"rental_uris":{"android":"levelo://app?vid=49d008b6-d353-4a4b-a0e0-bf37a69f1bfe","ios":"levelo://app?vid=49d008b6-d353-4a4b-a0e0-bf37a69f1bfe"},"vehicle_type_id":"4","last_reported":1686863131,"current_range_meters":21600,"station_id":"ce4bh292rcd13ifvqdg0","pricing_plan_id":"free"},{"bike_id":"1d3ba9f1-e296-4afc-9937-a7cfa6e9b93d","system_id":"levelo_inurba_marseille","lat":43.285742,"lon":5.395004,"is_reserved":false,"is_disabled":false,"rental_uris":{"android":"levelo://app?vid=1d3ba9f1-e296-4afc-9937-a7cfa6e9b93d","ios":"levelo://app?vid=1d3ba9f1-e296-4afc-9937-a7cfa6e9b93d"},"vehicle_type_id":"4","last_reported":1686863131,"current_range_meters":26800,"station_id":"ce4bh292rcd13ifvqdg0","pricing_plan_id":"free"},{"bike_id":"54b0f0c4-72cf-4375-bd01-e2f23cd949af","system_id":"levelo_inurba_marseille","lat":43.326605,"lon":5.409903,"is_reserved":false,"is_disabled":false,"rental_uris":{"android":"levelo://app?vid=54b0f0c4-72cf-4375-bd01-e2f23cd949af","ios":"levelo://app?vid=54b0f0c4-72cf-4375-bd01-e2f23cd949af"},"vehicle_type_id":"4","last_reported":1686863131,"current_range_meters":24000,"station_id":"ce4bhpp2rcd13ifvqhgg","pricing_plan_id":"free"},{"bike_id":"04bdda83-11c6-4765-8dfd-f0185a804f64","system_id":"levelo_inurba_marseille","lat":43.27905,"lon":5.38017,"is_reserved":false,"is_disabled":false,"rental_uris":{"android":"levelo://app?vid=04bdda83-11c6-4765-8dfd-f0185a804f64","ios":"levelo://app?vid=04bdda83-11c6-4765-8dfd-f0185a804f64"},"vehicle_type_id":"4","last_reported":1686863131,"current_range_meters":25600,"station_id":"","pricing_plan_id":"free"},{"bike_id":"02f679b4-1c56-49dc-bec0-0d1ee2f42648","system_id":"levelo_inurba_marseille","lat":43.27901,"lon":5.38019,"is_reserved":false,"is_disabled":false,"rental_uris":{"android":"levelo://app?vid=02f679b4-1c56-49dc-bec0-0d1ee2f42648","ios":"levelo://app?vid=02f679b4-1c56-49dc-bec0-0d1ee2f42648"},"vehicle_type_id":"4","last_reported":1686863131,"current_range_meters":6000,"station_id":"","pricing_plan_id":"free"},{"bike_id":"ca5ae337-77d1-42f6-9bb7-25723fbee9fb","system_id":"levelo_inurba_marseille","lat":43.27898,"lon":5.38011,"is_reserved":false,"is_disabled":false,"rental_uris":{"android":"levelo://app?vid=ca5ae337-77d1-42f6-9bb7-25723fbee9fb","ios":"levelo://app?vid=ca5ae337-77d1-42f6-9bb7-25723fbee9fb"},"vehicle_type_id":"4","last_reported":1686863131,"current_range_meters":0,"station_id":"","pricing_plan_id":"free"},{"bike_id":"a7f8d9e6-969c-46cf-bc31-86dc41b713e7","system_id":"levelo_inurba_marseille","lat":43.28706,"lon":5.39982,"is_reserved":false,"is_disabled":false,"rental_uris":{"android":"levelo://app?vid=a7f8d9e6-969c-46cf-bc31-86dc41b713e7","ios":"levelo://app?vid=a7f8d9e6-969c-46cf-bc31-86dc41b713e7"},"vehicle_type_id":"4","last_reported":1686863131,"current_range_meters":6800,"station_id":"ce4bho92rcd13ifvqh3g","pricing_plan_id":"free"},{"bike_id":"ef584c1f-1074-4570-8caa-59960306af3e","system_id":"levelo_inurba_marseille","lat":43.287154,"lon":5.399979,"is_reserved":false,"is_disabled":false,"rental_uris":{"android":"levelo://app?vid=ef584c1f-1074-4570-8caa-59960306af3e","ios":"levelo://app?vid=ef584c1f-1074-4570-8caa-59960306af3e"},"vehicle_type_id":"4","last_reported":1686863131,"current_range_meters":0,"station_id":"ce4bho92rcd13ifvqh3g","pricing_plan_id":"free"},{"bike_id":"946de8b7-01be-4aad-9f0e-39fae7941628","system_id":"levelo_inurba_marseille","lat":43.287154,"lon":5.399979,"is_reserved":false,"is_disabled":false,"rental_uris":{"android":"levelo://app?vid=946de8b7-01be-4aad-9f0e-39fae7941628","ios":"levelo://app?vid=946de8b7-01be-4aad-9f0e-39fae7941628"},"vehicle_type_id":"4","last_reported":1686863131,"current_range_meters":0,"station_id":"ce4bho92rcd13ifvqh3g","pricing_plan_id":"free"},{"bike_id":"6726f068-5eda-4898-8825-063024c01492","system_id":"levelo_inurba_marseille","lat":43.28701,"lon":5.3998,"is_reserved":false,"is_disabled":false,"rental_uris":{"android":"levelo://app?vid=6726f068-5eda-4898-8825-063024c01492","ios":"levelo://app?vid=6726f068-5eda-4898-8825-063024c01492"},"vehicle_type_id":"4","last_reported":1686863131,"current_range_meters":26000,"station_id":"ce4bho92rcd13ifvqh3g","pricing_plan_id":"free"},{"bike_id":"d1816290-ceb3-480c-914c-8cd16fa9657e","system_id":"levelo_inurba_marseille","lat":43.320045,"lon":5.415046,"is_reserved":false,"is_disabled":false,"rental_uris":{"android":"levelo://app?vid=d1816290-ceb3-480c-914c-8cd16fa9657e","ios":"levelo://app?vid=d1816290-ceb3-480c-914c-8cd16fa9657e"},"vehicle_type_id":"4","last_reported":1686863131,"current_range_meters":22800,"station_id":"ce4bhq92rcd13ifvqhkg","pricing_plan_id":"free"},{"bike_id":"b8897943-f4fa-4437-9a87-f5b595b23060","system_id":"levelo_inurba_marseille","lat":43.32046,"lon":5.41539,"is_reserved":false,"is_disabled":false,"rental_uris":{"android":"levelo://app?vid=b8897943-f4fa-4437-9a87-f5b595b23060","ios":"levelo://app?vid=b8897943-f4fa-4437-9a87-f5b595b23060"},"vehicle_type_id":"4","last_reported":1686863131,"current_range_meters":27200,"station_id":"ce4bhq92rcd13ifvqhkg","pricing_plan_id":"free"},{"bike_id":"a39ec750-1e0c-4e6e-860b-1932ca108867","system_id":"levelo_inurba_marseille","lat":43.320045,"lon":5.415046,"is_reserved":false,"is_disabled":false,"rental_uris":{"android":"levelo://app?vid=a39ec750-1e0c-4e6e-860b-1932ca108867","ios":"levelo://app?vid=a39ec750-1e0c-4e6e-860b-1932ca108867"},"vehicle_type_id":"4","last_reported":1686863131,"current_range_meters":31600,"station_id":"ce4bhq92rcd13ifvqhkg","pricing_plan_id":"free"},{"bike_id":"b82a4b5e-9079-4ee1-a37c-675e175e1295","system_id":"levelo_inurba_marseille","lat":43.32026,"lon":5.4157,"is_reserved":false,"is_disabled":false,"rental_uris":{"android":"levelo://app?vid=b82a4b5e-9079-4ee1-a37c-675e175e1295","ios":"levelo://app?vid=b82a4b5e-9079-4ee1-a37c-675e175e1295"},"vehicle_type_id":"4","last_reported":1686863131,"current_range_meters":27600,"station_id":"ce4bhq92rcd13ifvqhkg","pricing_plan_id":"free"},{"bike_id":"1487d8e6-f69a-4df7-86b2-f5daa21cab9c","system_id":"levelo_inurba_marseille","lat":43.292571,"lon":5.409107,"is_reserved":false,"is_disabled":false,"rental_uris":{"android":"levelo://app?vid=1487d8e6-f69a-4df7-86b2-f5daa21cab9c","ios":"levelo://app?vid=1487d8e6-f69a-4df7-86b2-f5daa21cab9c"},"vehicle_type_id":"4","last_reported":1686863131,"current_range_meters":5200,"station_id":"ce4bh192rcd13ifvqdc0","pricing_plan_id":"free"},{"bike_id":"56e06248-8c4d-445c-b83b-7b8b844ed72b","system_id":"levelo_inurba_marseille","lat":43.292571,"lon":5.409107,"is_reserved":false,"is_disabled":false,"rental_uris":{"android":"levelo://app?vid=56e06248-8c4d-445c-b83b-7b8b844ed72b","ios":"levelo://app?vid=56e06248-8c4d-445c-b83b-7b8b844ed72b"},"vehicle_type_id":"4","last_reported":1686863131,"current_range_meters":18800,"station_id":"ce4bh192rcd13ifvqdc0","pricing_plan_id":"free"},{"bike_id":"dad94c9f-351e-4387-9420-bcbe1151a2ef","system_id":"levelo_inurba_marseille","lat":43.292571,"lon":5.409107,"is_reserved":false,"is_disabled":false,"rental_uris":{"android":"levelo://app?vid=dad94c9f-351e-4387-9420-bcbe1151a2ef","ios":"levelo://app?vid=dad94c9f-351e-4387-9420-bcbe1151a2ef"},"vehicle_type_id":"4","last_reported":1686863131,"current_range_meters":18000,"station_id":"ce4bh192rcd13ifvqdc0","pricing_plan_id":"free"},{"bike_id":"9bba3495-767a-414e-81af-ac0ab6b33320","system_id":"levelo_inurba_marseille","lat":43.32543,"lon":5.41423,"is_reserved":false,"is_disabled":false,"rental_uris":{"android":"levelo://app?vid=9bba3495-767a-414e-81af-ac0ab6b33320","ios":"levelo://app?vid=9bba3495-767a-414e-81af-ac0ab6b33320"},"vehicle_type_id":"4","last_reported":1686863131,"current_range_meters":28400,"station_id":"ce4bhq12rcd13ifvqhhg","pricing_plan_id":"free"},{"bike_id":"27ae0813-1b6c-476e-b26e-7f8f4fc5b3d2","system_id":"levelo_inurba_marseille","lat":43.292571,"lon":5.409107,"is_reserved":false,"is_disabled":false,"rental_uris":{"android":"levelo://app?vid=27ae0813-1b6c-476e-b26e-7f8f4fc5b3d2","ios":"levelo://app?vid=27ae0813-1b6c-476e-b26e-7f8f4fc5b3d2"},"vehicle_type_id":"4","last_reported":1686863131,"current_range_meters":18800,"station_id":"ce4bh192rcd13ifvqdc0","pricing_plan_id":"free"},{"bike_id":"7446fad7-62fe-436d-848c-80026a7bd0db","system_id":"levelo_inurba_marseille","lat":43.292571,"lon":5.409107,"is_reserved":false,"is_disabled":false,"rental_uris":{"android":"levelo://app?vid=7446fad7-62fe-436d-848c-80026a7bd0db","ios":"levelo://app?vid=7446fad7-62fe-436d-848c-80026a7bd0db"},"vehicle_type_id":"4","last_reported":1686863131,"current_range_meters":20800,"station_id":"ce4bh192rcd13ifvqdc0","pricing_plan_id":"free"},{"bike_id":"5022f31c-3431-48c0-899d-4f3fa33c4729","system_id":"levelo_inurba_marseille","lat":43.325233,"lon":5.414318,"is_reserved":false,"is_disabled":false,"rental_uris":{"android":"levelo://app?vid=5022f31c-3431-48c0-899d-4f3fa33c4729","ios":"levelo://app?vid=5022f31c-3431-48c0-899d-4f3fa33c4729"},"vehicle_type_id":"4","last_reported":1686863131,"current_range_meters":25200,"station_id":"ce4bhq12rcd13ifvqhhg","pricing_plan_id":"free"},{"bike_id":"808a7b2e-b853-410d-a028-60d905433bc1","system_id":"levelo_inurba_marseille","lat":43.325233,"lon":5.414318,"is_reserved":false,"is_disabled":false,"rental_uris":{"android":"levelo://app?vid=808a7b2e-b853-410d-a028-60d905433bc1","ios":"levelo://app?vid=808a7b2e-b853-410d-a028-60d905433bc1"},"vehicle_type_id":"4","last_reported":1686863131,"current_range_meters":31600,"station_id":"ce4bhq12rcd13ifvqhhg","pricing_plan_id":"free"},{"bike_id":"622354ac-a6d9-47ef-a647-bee38dc54ec8","system_id":"levelo_inurba_marseille","lat":43.278401,"lon":5.392152,"is_reserved":false,"is_disabled":false,"rental_uris":{"android":"levelo://app?vid=622354ac-a6d9-47ef-a647-bee38dc54ec8","ios":"levelo://app?vid=622354ac-a6d9-47ef-a647-bee38dc54ec8"},"vehicle_type_id":"4","last_reported":1686863131,"current_range_meters":12800,"station_id":"ce4bhjp2rcd13ifvqga0","pricing_plan_id":"free"},{"bike_id":"0cb2d861-8c01-4c72-9827-1de4d3b23d77","system_id":"levelo_inurba_marseille","lat":43.278399,"lon":5.392139,"is_reserved":false,"is_disabled":false,"rental_uris":{"android":"levelo://app?vid=0cb2d861-8c01-4c72-9827-1de4d3b23d77","ios":"levelo://app?vid=0cb2d861-8c01-4c72-9827-1de4d3b23d77"},"vehicle_type_id":"4","last_reported":1686863131,"current_range_meters":14000,"station_id":"ce4bhjp2rcd13ifvqga0","pricing_plan_id":"free"},{"bike_id":"f5e170c1-e02a-4a06-8b19-6fa592cd147a","system_id":"levelo_inurba_marseille","lat":43.278401,"lon":5.392152,"is_reserved":false,"is_disabled":false,"rental_uris":{"android":"levelo://app?vid=f5e170c1-e02a-4a06-8b19-6fa592cd147a","ios":"levelo://app?vid=f5e170c1-e02a-4a06-8b19-6fa592cd147a"},"vehicle_type_id":"4","last_reported":1686863131,"current_range_meters":24400,"station_id":"ce4bhjp2rcd13ifvqga0","pricing_plan_id":"free"},{"bike_id":"15d0e642-25d5-4d2d-bd10-f64561b57398","system_id":"levelo_inurba_marseille","lat":43.278399,"lon":5.392139,"is_reserved":false,"is_disabled":false,"rental_uris":{"android":"levelo://app?vid=15d0e642-25d5-4d2d-bd10-f64561b57398","ios":"levelo://app?vid=15d0e642-25d5-4d2d-bd10-f64561b57398"},"vehicle_type_id":"4","last_reported":1686863131,"current_range_meters":28800,"station_id":"ce4bhjp2rcd13ifvqga0","pricing_plan_id":"free"},{"bike_id":"949c3b93-9525-4f53-ac82-9c7f5c90c1ae","system_id":"levelo_inurba_marseille","lat":43.33612,"lon":5.410321,"is_reserved":false,"is_disabled":false,"rental_uris":{"android":"levelo://app?vid=949c3b93-9525-4f53-ac82-9c7f5c90c1ae","ios":"levelo://app?vid=949c3b93-9525-4f53-ac82-9c7f5c90c1ae"},"vehicle_type_id":"4","last_reported":1686863131,"current_range_meters":27600,"station_id":"ce4bhqh2rcd13ifvqhmg","pricing_plan_id":"free"},{"bike_id":"dd00075e-1c02-4db7-a345-ddb4f8c4712a","system_id":"levelo_inurba_marseille","lat":43.33612,"lon":5.410321,"is_reserved":false,"is_disabled":false,"rental_uris":{"android":"levelo://app?vid=dd00075e-1c02-4db7-a345-ddb4f8c4712a","ios":"levelo://app?vid=dd00075e-1c02-4db7-a345-ddb4f8c4712a"},"vehicle_type_id":"4","last_reported":1686863131,"current_range_meters":16800,"station_id":"ce4bhqh2rcd13ifvqhmg","pricing_plan_id":"free"},{"bike_id":"f343dcf5-7438-4df3-949e-d35f604d0ee0","system_id":"levelo_inurba_marseille","lat":43.336134,"lon":5.410341,"is_reserved":false,"is_disabled":false,"rental_uris":{"android":"levelo://app?vid=f343dcf5-7438-4df3-949e-d35f604d0ee0","ios":"levelo://app?vid=f343dcf5-7438-4df3-949e-d35f604d0ee0"},"vehicle_type_id":"4","last_reported":1686863131,"current_range_meters":22800,"station_id":"ce4bhqh2rcd13ifvqhmg","pricing_plan_id":"free"},{"bike_id":"fb9e15b2-2c6d-433d-ba4a-3d4f97010ade","system_id":"levelo_inurba_marseille","lat":43.33612,"lon":5.410321,"is_reserved":false,"is_disabled":false,"rental_uris":{"android":"levelo://app?vid=fb9e15b2-2c6d-433d-ba4a-3d4f97010ade","ios":"levelo://app?vid=fb9e15b2-2c6d-433d-ba4a-3d4f97010ade"},"vehicle_type_id":"4","last_reported":1686863131,"current_range_meters":28800,"station_id":"ce4bhqh2rcd13ifvqhmg","pricing_plan_id":"free"},{"bike_id":"711a099d-e08b-4fff-8d86-0344dc44f1fe","system_id":"levelo_inurba_marseille","lat":43.33612,"lon":5.410321,"is_reserved":false,"is_disabled":false,"rental_uris":{"android":"levelo://app?vid=711a099d-e08b-4fff-8d86-0344dc44f1fe","ios":"levelo://app?vid=711a099d-e08b-4fff-8d86-0344dc44f1fe"},"vehicle_type_id":"4","last_reported":1686863131,"current_range_meters":31200,"station_id":"ce4bhqh2rcd13ifvqhmg","pricing_plan_id":"free"},{"bike_id":"6f859fac-365b-42e3-802d-f6dd032e193b","system_id":"levelo_inurba_marseille","lat":43.336134,"lon":5.410341,"is_reserved":false,"is_disabled":false,"rental_uris":{"android":"levelo://app?vid=6f859fac-365b-42e3-802d-f6dd032e193b","ios":"levelo://app?vid=6f859fac-365b-42e3-802d-f6dd032e193b"},"vehicle_type_id":"4","last_reported":1686863131,"current_range_meters":28800,"station_id":"ce4bhqh2rcd13ifvqhmg","pricing_plan_id":"free"},{"bike_id":"3fdb20cc-fc5b-4039-b55b-89d461f4a89c","system_id":"levelo_inurba_marseille","lat":43.336134,"lon":5.410341,"is_reserved":false,"is_disabled":false,"rental_uris":{"android":"levelo://app?vid=3fdb20cc-fc5b-4039-b55b-89d461f4a89c","ios":"levelo://app?vid=3fdb20cc-fc5b-4039-b55b-89d461f4a89c"},"vehicle_type_id":"4","last_reported":1686863131,"current_range_meters":2400,"station_id":"ce4bhqh2rcd13ifvqhmg","pricing_plan_id":"free"},{"bike_id":"e9eb313b-3930-4675-b197-cbd043c32cb0","system_id":"levelo_inurba_marseille","lat":43.33612,"lon":5.410321,"is_reserved":false,"is_disabled":false,"rental_uris":{"android":"levelo://app?vid=e9eb313b-3930-4675-b197-cbd043c32cb0","ios":"levelo://app?vid=e9eb313b-3930-4675-b197-cbd043c32cb0"},"vehicle_type_id":"4","last_reported":1686863131,"current_range_meters":28400,"station_id":"ce4bhqh2rcd13ifvqhmg","pricing_plan_id":"free"},{"bike_id":"3123fecf-8555-4431-974b-abaab72abf2c","system_id":"levelo_inurba_marseille","lat":43.336134,"lon":5.410341,"is_reserved":false,"is_disabled":false,"rental_uris":{"android":"levelo://app?vid=3123fecf-8555-4431-974b-abaab72abf2c","ios":"levelo://app?vid=3123fecf-8555-4431-974b-abaab72abf2c"},"vehicle_type_id":"4","last_reported":1686863131,"current_range_meters":31600,"station_id":"ce4bhqh2rcd13ifvqhmg","pricing_plan_id":"free"},{"bike_id":"9d9ef0f9-4045-439c-9cf9-feb6d2e28ef1","system_id":"levelo_inurba_marseille","lat":43.33612,"lon":5.410321,"is_reserved":false,"is_disabled":false,"rental_uris":{"android":"levelo://app?vid=9d9ef0f9-4045-439c-9cf9-feb6d2e28ef1","ios":"levelo://app?vid=9d9ef0f9-4045-439c-9cf9-feb6d2e28ef1"},"vehicle_type_id":"4","last_reported":1686863131,"current_range_meters":31600,"station_id":"ce4bhqh2rcd13ifvqhmg","pricing_plan_id":"free"},{"bike_id":"f5c0eadf-42c9-4cce-8b50-b4d194aac325","system_id":"levelo_inurba_marseille","lat":43.317121,"lon":5.423936,"is_reserved":false,"is_disabled":false,"rental_uris":{"android":"levelo://app?vid=f5c0eadf-42c9-4cce-8b50-b4d194aac325","ios":"levelo://app?vid=f5c0eadf-42c9-4cce-8b50-b4d194aac325"},"vehicle_type_id":"4","last_reported":1686863131,"current_range_meters":400,"station_id":"ce4bhp92rcd13ifvqhbg","pricing_plan_id":"free"},{"bike_id":"50b89acf-0b2c-4816-aed1-d20aa4f290a2","system_id":"levelo_inurba_marseille","lat":43.317121,"lon":5.423936,"is_reserved":false,"is_disabled":false,"rental_uris":{"android":"levelo://app?vid=50b89acf-0b2c-4816-aed1-d20aa4f290a2","ios":"levelo://app?vid=50b89acf-0b2c-4816-aed1-d20aa4f290a2"},"vehicle_type_id":"4","last_reported":1686863131,"current_range_meters":18800,"station_id":"ce4bhp92rcd13ifvqhbg","pricing_plan_id":"free"},{"bike_id":"3fa8ebdc-aa99-4ea6-a910-7119710cb2b1","system_id":"levelo_inurba_marseille","lat":43.317121,"lon":5.423936,"is_reserved":false,"is_disabled":false,"rental_uris":{"android":"levelo://app?vid=3fa8ebdc-aa99-4ea6-a910-7119710cb2b1","ios":"levelo://app?vid=3fa8ebdc-aa99-4ea6-a910-7119710cb2b1"},"vehicle_type_id":"4","last_reported":1686863131,"current_range_meters":19200,"station_id":"ce4bhp92rcd13ifvqhbg","pricing_plan_id":"free"},{"bike_id":"e02287b1-056f-4bc4-9646-47090fe04fbf","system_id":"levelo_inurba_marseille","lat":43.317121,"lon":5.423936,"is_reserved":false,"is_disabled":false,"rental_uris":{"android":"levelo://app?vid=e02287b1-056f-4bc4-9646-47090fe04fbf","ios":"levelo://app?vid=e02287b1-056f-4bc4-9646-47090fe04fbf"},"vehicle_type_id":"4","last_reported":1686863131,"current_range_meters":31600,"station_id":"ce4bhp92rcd13ifvqhbg","pricing_plan_id":"free"},{"bike_id":"f82c4e0b-ce86-4de4-962b-f266d6ba506e","system_id":"levelo_inurba_marseille","lat":43.273125,"lon":5.390731,"is_reserved":false,"is_disabled":false,"rental_uris":{"android":"levelo://app?vid=f82c4e0b-ce86-4de4-962b-f266d6ba506e","ios":"levelo://app?vid=f82c4e0b-ce86-4de4-962b-f266d6ba506e"},"vehicle_type_id":"4","last_reported":1686863131,"current_range_meters":15600,"station_id":"ce4bhgp2rcd13ifvqfe0","pricing_plan_id":"free"},{"bike_id":"326b453c-f42e-4f99-97cc-3c8ecf046add","system_id":"levelo_inurba_marseille","lat":43.27426,"lon":5.39411,"is_reserved":false,"is_disabled":false,"rental_uris":{"android":"levelo://app?vid=326b453c-f42e-4f99-97cc-3c8ecf046add","ios":"levelo://app?vid=326b453c-f42e-4f99-97cc-3c8ecf046add"},"vehicle_type_id":"4","last_reported":1686863131,"current_range_meters":31200,"station_id":"ce4bhdp2rcd13ifvqf20","pricing_plan_id":"free"},{"bike_id":"b6ae69e0-7c94-485c-91e3-c97468913591","system_id":"levelo_inurba_marseille","lat":43.295523,"lon":5.422926,"is_reserved":false,"is_disabled":false,"rental_uris":{"android":"levelo://app?vid=b6ae69e0-7c94-485c-91e3-c97468913591","ios":"levelo://app?vid=b6ae69e0-7c94-485c-91e3-c97468913591"},"vehicle_type_id":"4","last_reported":1686863131,"current_range_meters":400,"station_id":"ce4bhph2rcd13ifvqhdg","pricing_plan_id":"free"},{"bike_id":"d2ae6b09-5671-44d1-b691-d8c21f32e96b","system_id":"levelo_inurba_marseille","lat":43.272124,"lon":5.391768,"is_reserved":false,"is_disabled":false,"rental_uris":{"android":"levelo://app?vid=d2ae6b09-5671-44d1-b691-d8c21f32e96b","ios":"levelo://app?vid=d2ae6b09-5671-44d1-b691-d8c21f32e96b"},"vehicle_type_id":"4","last_reported":1686863131,"current_range_meters":4800,"station_id":"ce4bhhp2rcd13ifvqfm0","pricing_plan_id":"free"},{"bike_id":"9fea0695-d6d7-4916-bf93-53b5e49bd558","system_id":"levelo_inurba_marseille","lat":43.27809,"lon":5.40709,"is_reserved":false,"is_disabled":false,"rental_uris":{"android":"levelo://app?vid=9fea0695-d6d7-4916-bf93-53b5e49bd558","ios":"levelo://app?vid=9fea0695-d6d7-4916-bf93-53b5e49bd558"},"vehicle_type_id":"4","last_reported":1686863131,"current_range_meters":7600,"station_id":"ce4bhnh2rcd13ifvqgtg","pricing_plan_id":"free"},{"bike_id":"6275aaca-a354-407f-be44-df40f2969d44","system_id":"levelo_inurba_marseille","lat":43.26681,"lon":5.382694,"is_reserved":false,"is_disabled":false,"rental_uris":{"android":"levelo://app?vid=6275aaca-a354-407f-be44-df40f2969d44","ios":"levelo://app?vid=6275aaca-a354-407f-be44-df40f2969d44"},"vehicle_type_id":"4","last_reported":1686863131,"current_range_meters":31600,"station_id":"ce4bhg92rcd13ifvqf90","pricing_plan_id":"free"},{"bike_id":"cfba2fbe-9ed5-423f-b411-8d6c38451715","system_id":"levelo_inurba_marseille","lat":43.26681,"lon":5.382694,"is_reserved":false,"is_disabled":false,"rental_uris":{"android":"levelo://app?vid=cfba2fbe-9ed5-423f-b411-8d6c38451715","ios":"levelo://app?vid=cfba2fbe-9ed5-423f-b411-8d6c38451715"},"vehicle_type_id":"4","last_reported":1686863131,"current_range_meters":31200,"station_id":"ce4bhg92rcd13ifvqf90","pricing_plan_id":"free"},{"bike_id":"8f12b3e4-d904-4681-a504-f4abd09d4d5b","system_id":"levelo_inurba_marseille","lat":43.26511,"lon":5.37283,"is_reserved":false,"is_disabled":false,"rental_uris":{"android":"levelo://app?vid=8f12b3e4-d904-4681-a504-f4abd09d4d5b","ios":"levelo://app?vid=8f12b3e4-d904-4681-a504-f4abd09d4d5b"},"vehicle_type_id":"4","last_reported":1686863131,"current_range_meters":17600,"station_id":"","pricing_plan_id":"free"},{"bike_id":"52b6437a-5f8c-40a5-a4ed-d7d118dc8793","system_id":"levelo_inurba_marseille","lat":43.27996,"lon":5.416624,"is_reserved":false,"is_disabled":false,"rental_uris":{"android":"levelo://app?vid=52b6437a-5f8c-40a5-a4ed-d7d118dc8793","ios":"levelo://app?vid=52b6437a-5f8c-40a5-a4ed-d7d118dc8793"},"vehicle_type_id":"4","last_reported":1686863131,"current_range_meters":19200,"station_id":"ce4bho12rcd13ifvqh1g","pricing_plan_id":"free"},{"bike_id":"d829be1b-62aa-40a6-96d5-b22e3727648a","system_id":"levelo_inurba_marseille","lat":43.27996,"lon":5.416624,"is_reserved":false,"is_disabled":false,"rental_uris":{"android":"levelo://app?vid=d829be1b-62aa-40a6-96d5-b22e3727648a","ios":"levelo://app?vid=d829be1b-62aa-40a6-96d5-b22e3727648a"},"vehicle_type_id":"4","last_reported":1686863131,"current_range_meters":1200,"station_id":"ce4bho12rcd13ifvqh1g","pricing_plan_id":"free"},{"bike_id":"7b8ca91e-be66-4194-9937-d5f41902484d","system_id":"levelo_inurba_marseille","lat":43.27996,"lon":5.416624,"is_reserved":false,"is_disabled":false,"rental_uris":{"android":"levelo://app?vid=7b8ca91e-be66-4194-9937-d5f41902484d","ios":"levelo://app?vid=7b8ca91e-be66-4194-9937-d5f41902484d"},"vehicle_type_id":"4","last_reported":1686863131,"current_range_meters":12800,"station_id":"ce4bho12rcd13ifvqh1g","pricing_plan_id":"free"},{"bike_id":"3f8beed2-37b2-4063-9440-2d50a385399e","system_id":"levelo_inurba_marseille","lat":43.27996,"lon":5.416624,"is_reserved":false,"is_disabled":false,"rental_uris":{"android":"levelo://app?vid=3f8beed2-37b2-4063-9440-2d50a385399e","ios":"levelo://app?vid=3f8beed2-37b2-4063-9440-2d50a385399e"},"vehicle_type_id":"4","last_reported":1686863131,"current_range_meters":2000,"station_id":"ce4bho12rcd13ifvqh1g","pricing_plan_id":"free"},{"bike_id":"749898e0-7e19-4b81-b542-6dc75e4e531e","system_id":"levelo_inurba_marseille","lat":43.27989,"lon":5.41653,"is_reserved":false,"is_disabled":false,"rental_uris":{"android":"levelo://app?vid=749898e0-7e19-4b81-b542-6dc75e4e531e","ios":"levelo://app?vid=749898e0-7e19-4b81-b542-6dc75e4e531e"},"vehicle_type_id":"4","last_reported":1686863131,"current_range_meters":2800,"station_id":"ce4bho12rcd13ifvqh1g","pricing_plan_id":"free"},{"bike_id":"5c4ea747-d1dd-42ab-a0ba-21f306372130","system_id":"levelo_inurba_marseille","lat":43.27996,"lon":5.416624,"is_reserved":false,"is_disabled":false,"rental_uris":{"android":"levelo://app?vid=5c4ea747-d1dd-42ab-a0ba-21f306372130","ios":"levelo://app?vid=5c4ea747-d1dd-42ab-a0ba-21f306372130"},"vehicle_type_id":"4","last_reported":1686863131,"current_range_meters":20400,"station_id":"ce4bho12rcd13ifvqh1g","pricing_plan_id":"free"},{"bike_id":"484e96b0-62c7-4601-82a9-3a38d5e3a30a","system_id":"levelo_inurba_marseille","lat":43.27996,"lon":5.416624,"is_reserved":false,"is_disabled":false,"rental_uris":{"android":"levelo://app?vid=484e96b0-62c7-4601-82a9-3a38d5e3a30a","ios":"levelo://app?vid=484e96b0-62c7-4601-82a9-3a38d5e3a30a"},"vehicle_type_id":"4","last_reported":1686863131,"current_range_meters":0,"station_id":"ce4bho12rcd13ifvqh1g","pricing_plan_id":"free"},{"bike_id":"cbaf7c75-be10-4a2d-b192-fa4ebf8e2763","system_id":"levelo_inurba_marseille","lat":43.27996,"lon":5.416624,"is_reserved":false,"is_disabled":false,"rental_uris":{"android":"levelo://app?vid=cbaf7c75-be10-4a2d-b192-fa4ebf8e2763","ios":"levelo://app?vid=cbaf7c75-be10-4a2d-b192-fa4ebf8e2763"},"vehicle_type_id":"4","last_reported":1686863131,"current_range_meters":0,"station_id":"ce4bho12rcd13ifvqh1g","pricing_plan_id":"free"},{"bike_id":"1a99213b-7835-43f9-9650-2e4f75d6fbd1","system_id":"levelo_inurba_marseille","lat":43.27996,"lon":5.416624,"is_reserved":false,"is_disabled":false,"rental_uris":{"android":"levelo://app?vid=1a99213b-7835-43f9-9650-2e4f75d6fbd1","ios":"levelo://app?vid=1a99213b-7835-43f9-9650-2e4f75d6fbd1"},"vehicle_type_id":"4","last_reported":1686863131,"current_range_meters":12800,"station_id":"ce4bho12rcd13ifvqh1g","pricing_plan_id":"free"},{"bike_id":"3987290e-fd4b-4f2b-81c0-57fca98f9cde","system_id":"levelo_inurba_marseille","lat":43.26781,"lon":5.39418,"is_reserved":false,"is_disabled":false,"rental_uris":{"android":"levelo://app?vid=3987290e-fd4b-4f2b-81c0-57fca98f9cde","ios":"levelo://app?vid=3987290e-fd4b-4f2b-81c0-57fca98f9cde"},"vehicle_type_id":"4","last_reported":1686863131,"current_range_meters":30000,"station_id":"ce4bhh12rcd13ifvqfg0","pricing_plan_id":"free"},{"bike_id":"9be000a7-c6b6-4f12-98bc-f187ad54e568","system_id":"levelo_inurba_marseille","lat":43.308,"lon":5.43521,"is_reserved":false,"is_disabled":false,"rental_uris":{"android":"levelo://app?vid=9be000a7-c6b6-4f12-98bc-f187ad54e568","ios":"levelo://app?vid=9be000a7-c6b6-4f12-98bc-f187ad54e568"},"vehicle_type_id":"4","last_reported":1686863131,"current_range_meters":18000,"station_id":"","pricing_plan_id":"free"},{"bike_id":"74088c92-caa8-4325-93ba-3194bcea9d62","system_id":"levelo_inurba_marseille","lat":43.30801,"lon":5.43525,"is_reserved":false,"is_disabled":false,"rental_uris":{"android":"levelo://app?vid=74088c92-caa8-4325-93ba-3194bcea9d62","ios":"levelo://app?vid=74088c92-caa8-4325-93ba-3194bcea9d62"},"vehicle_type_id":"4","last_reported":1686863131,"current_range_meters":1200,"station_id":"","pricing_plan_id":"free"},{"bike_id":"2fa6184a-d16c-4ef0-aa49-ef882f15bbe1","system_id":"levelo_inurba_marseille","lat":43.30799,"lon":5.43526,"is_reserved":false,"is_disabled":false,"rental_uris":{"android":"levelo://app?vid=2fa6184a-d16c-4ef0-aa49-ef882f15bbe1","ios":"levelo://app?vid=2fa6184a-d16c-4ef0-aa49-ef882f15bbe1"},"vehicle_type_id":"4","last_reported":1686863131,"current_range_meters":11200,"station_id":"","pricing_plan_id":"free"},{"bike_id":"78e97d53-9c5c-46cb-b7c7-4d7a3e7a8100","system_id":"levelo_inurba_marseille","lat":43.308,"lon":5.43528,"is_reserved":false,"is_disabled":false,"rental_uris":{"android":"levelo://app?vid=78e97d53-9c5c-46cb-b7c7-4d7a3e7a8100","ios":"levelo://app?vid=78e97d53-9c5c-46cb-b7c7-4d7a3e7a8100"},"vehicle_type_id":"4","last_reported":1686863131,"current_range_meters":19600,"station_id":"","pricing_plan_id":"free"},{"bike_id":"ca61b9c5-d4f5-43c1-8a7b-789801270589","system_id":"levelo_inurba_marseille","lat":43.261782,"lon":5.374515,"is_reserved":false,"is_disabled":false,"rental_uris":{"android":"levelo://app?vid=ca61b9c5-d4f5-43c1-8a7b-789801270589","ios":"levelo://app?vid=ca61b9c5-d4f5-43c1-8a7b-789801270589"},"vehicle_type_id":"4","last_reported":1686863131,"current_range_meters":23600,"station_id":"ce4bhgp2rcd13ifvqfc0","pricing_plan_id":"free"},{"bike_id":"0d86b3bc-7ea2-48dd-a08f-0418e1b792a8","system_id":"levelo_inurba_marseille","lat":43.261782,"lon":5.374515,"is_reserved":false,"is_disabled":false,"rental_uris":{"android":"levelo://app?vid=0d86b3bc-7ea2-48dd-a08f-0418e1b792a8","ios":"levelo://app?vid=0d86b3bc-7ea2-48dd-a08f-0418e1b792a8"},"vehicle_type_id":"4","last_reported":1686863131,"current_range_meters":23200,"station_id":"ce4bhgp2rcd13ifvqfc0","pricing_plan_id":"free"},{"bike_id":"a4529d84-2572-4690-9d01-c98829216b72","system_id":"levelo_inurba_marseille","lat":43.317104,"lon":5.436818,"is_reserved":false,"is_disabled":false,"rental_uris":{"android":"levelo://app?vid=a4529d84-2572-4690-9d01-c98829216b72","ios":"levelo://app?vid=a4529d84-2572-4690-9d01-c98829216b72"},"vehicle_type_id":"4","last_reported":1686863131,"current_range_meters":4400,"station_id":"ce4bhp92rcd13ifvqhcg","pricing_plan_id":"free"},{"bike_id":"f9938518-c63f-4d80-bc36-ea3dddc8779f","system_id":"levelo_inurba_marseille","lat":43.317104,"lon":5.436818,"is_reserved":false,"is_disabled":false,"rental_uris":{"android":"levelo://app?vid=f9938518-c63f-4d80-bc36-ea3dddc8779f","ios":"levelo://app?vid=f9938518-c63f-4d80-bc36-ea3dddc8779f"},"vehicle_type_id":"4","last_reported":1686863131,"current_range_meters":31200,"station_id":"ce4bhp92rcd13ifvqhcg","pricing_plan_id":"free"},{"bike_id":"14d950e8-0be6-4d17-887e-2aa52ba454bf","system_id":"levelo_inurba_marseille","lat":43.271388,"lon":5.409269,"is_reserved":false,"is_disabled":false,"rental_uris":{"android":"levelo://app?vid=14d950e8-0be6-4d17-887e-2aa52ba454bf","ios":"levelo://app?vid=14d950e8-0be6-4d17-887e-2aa52ba454bf"},"vehicle_type_id":"4","last_reported":1686863131,"current_range_meters":24800,"station_id":"ce4bhl12rcd13ifvqgf0","pricing_plan_id":"free"},{"bike_id":"a06f347c-c4fb-464c-87e9-69bce83caae8","system_id":"levelo_inurba_marseille","lat":43.271388,"lon":5.409269,"is_reserved":false,"is_disabled":false,"rental_uris":{"android":"levelo://app?vid=a06f347c-c4fb-464c-87e9-69bce83caae8","ios":"levelo://app?vid=a06f347c-c4fb-464c-87e9-69bce83caae8"},"vehicle_type_id":"4","last_reported":1686863131,"current_range_meters":23600,"station_id":"ce4bhl12rcd13ifvqgf0","pricing_plan_id":"free"},{"bike_id":"105d388f-6463-4aeb-a083-d8b8ce680623","system_id":"levelo_inurba_marseille","lat":43.271368,"lon":5.40928,"is_reserved":false,"is_disabled":false,"rental_uris":{"android":"levelo://app?vid=105d388f-6463-4aeb-a083-d8b8ce680623","ios":"levelo://app?vid=105d388f-6463-4aeb-a083-d8b8ce680623"},"vehicle_type_id":"4","last_reported":1686863131,"current_range_meters":11600,"station_id":"ce4bhl12rcd13ifvqgf0","pricing_plan_id":"free"},{"bike_id":"78bfd6e1-405b-4aa6-abf0-061f070712e1","system_id":"levelo_inurba_marseille","lat":43.271388,"lon":5.409269,"is_reserved":false,"is_disabled":false,"rental_uris":{"android":"levelo://app?vid=78bfd6e1-405b-4aa6-abf0-061f070712e1","ios":"levelo://app?vid=78bfd6e1-405b-4aa6-abf0-061f070712e1"},"vehicle_type_id":"4","last_reported":1686863131,"current_range_meters":30800,"station_id":"ce4bhl12rcd13ifvqgf0","pricing_plan_id":"free"},{"bike_id":"90f2d3bd-803b-4c76-828e-f575bcf1cf4b","system_id":"levelo_inurba_marseille","lat":43.271368,"lon":5.40928,"is_reserved":false,"is_disabled":false,"rental_uris":{"android":"levelo://app?vid=90f2d3bd-803b-4c76-828e-f575bcf1cf4b","ios":"levelo://app?vid=90f2d3bd-803b-4c76-828e-f575bcf1cf4b"},"vehicle_type_id":"4","last_reported":1686863131,"current_range_meters":24400,"station_id":"ce4bhl12rcd13ifvqgf0","pricing_plan_id":"free"},{"bike_id":"5137a758-9a33-4c6f-8ca9-7bcf26cfab19","system_id":"levelo_inurba_marseille","lat":43.271368,"lon":5.40928,"is_reserved":false,"is_disabled":false,"rental_uris":{"android":"levelo://app?vid=5137a758-9a33-4c6f-8ca9-7bcf26cfab19","ios":"levelo://app?vid=5137a758-9a33-4c6f-8ca9-7bcf26cfab19"},"vehicle_type_id":"4","last_reported":1686863131,"current_range_meters":23600,"station_id":"ce4bhl12rcd13ifvqgf0","pricing_plan_id":"free"},{"bike_id":"8cef4df0-69b8-4c21-a763-577c04b1e207","system_id":"levelo_inurba_marseille","lat":43.271729,"lon":5.410009,"is_reserved":false,"is_disabled":false,"rental_uris":{"android":"levelo://app?vid=8cef4df0-69b8-4c21-a763-577c04b1e207","ios":"levelo://app?vid=8cef4df0-69b8-4c21-a763-577c04b1e207"},"vehicle_type_id":"4","last_reported":1686863131,"current_range_meters":24400,"station_id":"","pricing_plan_id":"free"},{"bike_id":"caba676e-9f8c-4ce1-8649-3a3c8d84a1c6","system_id":"levelo_inurba_marseille","lat":43.267959,"lon":5.402685,"is_reserved":false,"is_disabled":false,"rental_uris":{"android":"levelo://app?vid=caba676e-9f8c-4ce1-8649-3a3c8d84a1c6","ios":"levelo://app?vid=caba676e-9f8c-4ce1-8649-3a3c8d84a1c6"},"vehicle_type_id":"4","last_reported":1686863131,"current_range_meters":3600,"station_id":"ce501612rcd8frsf0b60","pricing_plan_id":"free"},