{"last_updated":1734102586,"ttl":60,"version":"2.2","data":{"bikes":[{"bike_id":"45c22bfb-3859-46ca-bbdd-b43970628095","system_id":"levelo_inurba_marseille","lat":43.2318,"lon":5.39993,"is_reserved":false,"is_disabled":false,"rental_uris":{"android":"levelo://app?vid=45c22bfb-3859-46ca-bbdd-b43970628095","ios":"levelo://app?vid=45c22bfb-3859-46ca-bbdd-b43970628095"},"vehicle_type_id":"4","last_reported":1734102586,"current_range_meters":27600,"station_id":"ce4bhn12rcd13ifvqgqg","pricing_plan_id":"cebpf4jnsgd1na2vs0mg"},{"bike_id":"3e5d99b9-1aaf-48b9-b5fb-fb7a0b5b1ba5","system_id":"levelo_inurba_marseille","lat":43.290359,"lon":5.392333,"is_reserved":false,"is_disabled":true,"rental_uris":{"android":"levelo://app?vid=3e5d99b9-1aaf-48b9-b5fb-fb7a0b5b1ba5","ios":"levelo://app?vid=3e5d99b9-1aaf-48b9-b5fb-fb7a0b5b1ba5"},"vehicle_type_id":"4","last_reported":1734102586,"current_range_meters":0,"station_id":"","pricing_plan_id":"cebpf4jnsgd1na2vs0mg"},{"bike_id":"f7070c24-0741-4108-946a-7b129424159b","system_id":"levelo_inurba_marseille","lat":43.29574,"lon":5.3997,"is_reserved":false,"is_disabled":false,"rental_uris":{"android":"levelo://app?vid=f7070c24-0741-4108-946a-7b129424159b","ios":"levelo://app?vid=f7070c24-0741-4108-946a-7b129424159b"},"vehicle_type_id":"4","last_reported":1734102586,"current_range_meters":16800,"station_id":"ce4bh312rcd13ifvqdj0","pricing_plan_id":"cebpf4jnsgd1na2vs0mg"},{"bike_id":"ed18df8c-5a65-436b-b0b8-5f5d8d39d343","system_id":"levelo_inurba_marseille","lat":43.26013,"lon":5.37546,"is_reserved":false,"is_disabled":true,"rental_uris":{"android":"levelo://app?vid=ed18df8c-5a65-436b-b0b8-5f5d8d39d343","ios":"levelo://app?vid=ed18df8c-5a65-436b-b0b8-5f5d8d39d343"},"vehicle_type_id":"4","last_reported":1734102586,"current_range_meters":0,"station_id":"ce4bhgh2rcd13ifvqfa0","pricing_plan_id":"cebpf4jnsgd1na2vs0mg"},{"bike_id":"29873741-f947-4e51-bacc-657c39196a45","system_id":"levelo_inurba_marseille","lat":43.30607,"lon":5.37217,"is_reserved":false,"is_disabled":false,"rental_uris":{"android":"levelo://app?vid=29873741-f947-4e51-bacc-657c39196a45","ios":"levelo://app?vid=29873741-f947-4e51-bacc-657c39196a45"},"vehicle_type_id":"4","last_reported":1734102586,"current_range_meters":38000,"station_id":"ce4bgqh2rcd13ifvqc4g","pricing_plan_id":"cebpf4jnsgd1na2vs0mg"},{"bike_id":"c1ba8960-5c9e-478d-9f51-c4bd04bfae50","system_id":"levelo_inurba_marseille","lat":43.30783,"lon":5.37652,"is_reserved":false,"is_disabled":false,"rental_uris":{"android":"levelo://app?vid=c1ba8960-5c9e-478d-9f51-c4bd04bfae50","ios":"levelo://app?vid=c1ba8960-5c9e-478d-9f51-c4bd04bfae50"},"vehicle_type_id":"4","last_reported":1734102586,"current_range_meters":24000,"station_id":"ce4bgv92rcd13ifvqcq0","pricing_plan_id":"cebpf4jnsgd1na2vs0mg"},{"bike_id":"ffd95177-d0c3-4ef3-8e4f-16f4129469fa","system_id":"levelo_inurba_marseille","lat":43.29973,"lon":5.37175,"is_reserved":false,"is_disabled":false,"rental_uris":{"android":"levelo://app?vid=ffd95177-d0c3-4ef3-8e4f-16f4129469fa","ios":"levelo://app?vid=ffd95177-d0c3-4ef3-8e4f-16f4129469fa"},"vehicle_type_id":"4","last_reported":1734102586,"current_range_meters":25600,"station_id":"ce4bgr92rcd13ifvqc7g","pricing_plan_id":"cebpf4jnsgd1na2vs0mg"},{"bike_id":"14684748-3e43-415e-ba24-b2f98bfe3f59","system_id":"levelo_inurba_marseille","lat":43.29266,"lon":5.38439,"is_reserved":false,"is_disabled":false,"rental_uris":{"android":"levelo://app?vid=14684748-3e43-415e-ba24-b2f98bfe3f59","ios":"levelo://app?vid=14684748-3e43-415e-ba24-b2f98bfe3f59"},"vehicle_type_id":"4","last_reported":1734102586,"current_range_meters":6400,"station_id":"ce4bh692rcd13ifvqea0","pricing_plan_id":"cebpf4jnsgd1na2vs0mg"},{"bike_id":"b8614285-aa94-4c00-a0b6-01c267f31b93","system_id":"levelo_inurba_marseille","lat":43.30946,"lon":5.37466,"is_reserved":false,"is_disabled":false,"rental_uris":{"android":"levelo://app?vid=b8614285-aa94-4c00-a0b6-01c267f31b93","ios":"levelo://app?vid=b8614285-aa94-4c00-a0b6-01c267f31b93"},"vehicle_type_id":"4","last_reported":1734102586,"current_range_meters":26800,"station_id":"","pricing_plan_id":"cebpf4jnsgd1na2vs0mg"},{"bike_id":"9dd6c75a-e948-42d6-9b26-28540afc6cc6","system_id":"levelo_inurba_marseille","lat":43.2885,"lon":5.35868,"is_reserved":false,"is_disabled":false,"rental_uris":{"android":"levelo://app?vid=9dd6c75a-e948-42d6-9b26-28540afc6cc6","ios":"levelo://app?vid=9dd6c75a-e948-42d6-9b26-28540afc6cc6"},"vehicle_type_id":"4","last_reported":1734102586,"current_range_meters":22800,"station_id":"ce4bhb12rcd13ifvqem0","pricing_plan_id":"cebpf4jnsgd1na2vs0mg"},{"bike_id":"d6e9779e-14cf-45bc-bbcf-d6aa9fcf7e33","system_id":"levelo_inurba_marseille","lat":43.26191,"lon":5.3745,"is_reserved":false,"is_disabled":false,"rental_uris":{"android":"levelo://app?vid=d6e9779e-14cf-45bc-bbcf-d6aa9fcf7e33","ios":"levelo://app?vid=d6e9779e-14cf-45bc-bbcf-d6aa9fcf7e33"},"vehicle_type_id":"4","last_reported":1734102586,"current_range_meters":32400,"station_id":"ce4bhgp2rcd13ifvqfc0","pricing_plan_id":"cebpf4jnsgd1na2vs0mg"},{"bike_id":"80cd0f41-9ec3-4465-98b1-c1d034f6ad44","system_id":"levelo_inurba_marseille","lat":43.28924,"lon":5.38414,"is_reserved":false,"is_disabled":false,"rental_uris":{"android":"levelo://app?vid=80cd0f41-9ec3-4465-98b1-c1d034f6ad44","ios":"levelo://app?vid=80cd0f41-9ec3-4465-98b1-c1d034f6ad44"},"vehicle_type_id":"4","last_reported":1734102586,"current_range_meters":24400,"station_id":"ce4bh612rcd13ifvqe6g","pricing_plan_id":"cebpf4jnsgd1na2vs0mg"},{"bike_id":"50050334-1e2a-479c-9949-068ede2f4fcb","system_id":"levelo_inurba_marseille","lat":43.26557,"lon":5.37287,"is_reserved":false,"is_disabled":false,"rental_uris":{"android":"levelo://app?vid=50050334-1e2a-479c-9949-068ede2f4fcb","ios":"levelo://app?vid=50050334-1e2a-479c-9949-068ede2f4fcb"},"vehicle_type_id":"4","last_reported":1734102586,"current_range_meters":32800,"station_id":"ce4bhg12rcd13ifvqf70","pricing_plan_id":"cebpf4jnsgd1na2vs0mg"},{"bike_id":"f53a51f1-6db0-4716-9c45-7ac4c7fcd208","system_id":"levelo_inurba_marseille","lat":43.32281,"lon":5.38282,"is_reserved":false,"is_disabled":false,"rental_uris":{"android":"levelo://app?vid=f53a51f1-6db0-4716-9c45-7ac4c7fcd208","ios":"levelo://app?vid=f53a51f1-6db0-4716-9c45-7ac4c7fcd208"},"vehicle_type_id":"4","last_reported":1734102586,"current_range_meters":36000,"station_id":"ce4bhr12rcd13ifvqhqg","pricing_plan_id":"cebpf4jnsgd1na2vs0mg"},{"bike_id":"980f96eb-32c9-4906-98f6-c44dbf4c84a1","system_id":"levelo_inurba_marseille","lat":43.27455,"lon":5.40073,"is_reserved":false,"is_disabled":true,"rental_uris":{"android":"levelo://app?vid=980f96eb-32c9-4906-98f6-c44dbf4c84a1","ios":"levelo://app?vid=980f96eb-32c9-4906-98f6-c44dbf4c84a1"},"vehicle_type_id":"4","last_reported":1734102586,"current_range_meters":0,"station_id":"","pricing_plan_id":"cebpf4jnsgd1na2vs0mg"},{"bike_id":"0e210861-ee58-4784-b1a9-266a1a1a4e13","system_id":"levelo_inurba_marseille","lat":43.26784,"lon":5.39411,"is_reserved":false,"is_disabled":false,"rental_uris":{"android":"levelo://app?vid=0e210861-ee58-4784-b1a9-266a1a1a4e13","ios":"levelo://app?vid=0e210861-ee58-4784-b1a9-266a1a1a4e13"},"vehicle_type_id":"4","last_reported":1734102586,"current_range_meters":11200,"station_id":"ce4bhh12rcd13ifvqfg0","pricing_plan_id":"cebpf4jnsgd1na2vs0mg"},{"bike_id":"d64735b9-3201-48f9-b7d1-d8bd9269830f","system_id":"levelo_inurba_marseille","lat":43.31328,"lon":5.39706,"is_reserved":false,"is_disabled":false,"rental_uris":{"android":"levelo://app?vid=d64735b9-3201-48f9-b7d1-d8bd9269830f","ios":"levelo://app?vid=d64735b9-3201-48f9-b7d1-d8bd9269830f"},"vehicle_type_id":"4","last_reported":1734102586,"current_range_meters":36800,"station_id":"ce4bgvp2rcd13ifvqcu0","pricing_plan_id":"cebpf4jnsgd1na2vs0mg"},{"bike_id":"ee633bd0-40f5-46a9-aaab-947219add634","system_id":"levelo_inurba_marseille","lat":43.29191,"lon":5.35808,"is_reserved":false,"is_disabled":false,"rental_uris":{"android":"levelo://app?vid=ee633bd0-40f5-46a9-aaab-947219add634","ios":"levelo://app?vid=ee633bd0-40f5-46a9-aaab-947219add634"},"vehicle_type_id":"4","last_reported":1734102586,"current_range_meters":29600,"station_id":"ce4bhb12rcd13ifvqel0","pricing_plan_id":"cebpf4jnsgd1na2vs0mg"},{"bike_id":"1167dadb-747b-40ef-a624-b080d05cda60","system_id":"levelo_inurba_marseille","lat":43.27813,"lon":5.40709,"is_reserved":false,"is_disabled":false,"rental_uris":{"android":"levelo://app?vid=1167dadb-747b-40ef-a624-b080d05cda60","ios":"levelo://app?vid=1167dadb-747b-40ef-a624-b080d05cda60"},"vehicle_type_id":"4","last_reported":1734102586,"current_range_meters":28000,"station_id":"ce4bhnh2rcd13ifvqgtg","pricing_plan_id":"cebpf4jnsgd1na2vs0mg"},{"bike_id":"79996b39-7535-43e2-aeac-84a2dd5f7520","system_id":"levelo_inurba_marseille","lat":43.27991,"lon":5.41658,"is_reserved":false,"is_disabled":false,"rental_uris":{"android":"levelo://app?vid=79996b39-7535-43e2-aeac-84a2dd5f7520","ios":"levelo://app?vid=79996b39-7535-43e2-aeac-84a2dd5f7520"},"vehicle_type_id":"4","last_reported":1734102586,"current_range_meters":36800,"station_id":"ce4bho12rcd13ifvqh1g","pricing_plan_id":"cebpf4jnsgd1na2vs0mg"},{"bike_id":"68341feb-c70b-4c28-91d5-1c7269ec3b3a","system_id":"levelo_inurba_marseille","lat":43.30262,"lon":5.39253,"is_reserved":false,"is_disabled":false,"rental_uris":{"android":"levelo://app?vid=68341feb-c70b-4c28-91d5-1c7269ec3b3a","ios":"levelo://app?vid=68341feb-c70b-4c28-91d5-1c7269ec3b3a"},"vehicle_type_id":"4","last_reported":1734102586,"current_range_meters":9600,"station_id":"","pricing_plan_id":"cebpf4jnsgd1na2vs0mg"},{"bike_id":"875ede67-8200-4581-aa83-87d1e9b0a364","system_id":"levelo_inurba_marseille","lat":43.28155,"lon":5.42652,"is_reserved":false,"is_disabled":true,"rental_uris":{"android":"levelo://app?vid=875ede67-8200-4581-aa83-87d1e9b0a364","ios":"levelo://app?vid=875ede67-8200-4581-aa83-87d1e9b0a364"},"vehicle_type_id":"4","last_reported":1734102586,"current_range_meters":0,"station_id":"ce4bhnh2rcd13ifvqgug","pricing_plan_id":"cebpf4jnsgd1na2vs0mg"},{"bike_id":"bd50466d-5d53-43f4-b18d-48cdf96e4f54","system_id":"levelo_inurba_marseille","lat":43.28723,"lon":5.37926,"is_reserved":false,"is_disabled":false,"rental_uris":{"android":"levelo://app?vid=bd50466d-5d53-43f4-b18d-48cdf96e4f54","ios":"levelo://app?vid=bd50466d-5d53-43f4-b18d-48cdf96e4f54"},"vehicle_type_id":"4","last_reported":1734102586,"current_range_meters":16400,"station_id":"ce4bh9p2rcd13ifvqec0","pricing_plan_id":"cebpf4jnsgd1na2vs0mg"},{"bike_id":"d5c89c1f-3bad-4af2-9449-e04c277a4696","system_id":"levelo_inurba_marseille","lat":43.29944,"lon":5.41319,"is_reserved":false,"is_disabled":true,"rental_uris":{"android":"levelo://app?vid=d5c89c1f-3bad-4af2-9449-e04c277a4696","ios":"levelo://app?vid=d5c89c1f-3bad-4af2-9449-e04c277a4696"},"vehicle_type_id":"4","last_reported":1734102586,"current_range_meters":33600,"station_id":"ce4bhp12rcd13ifvqh9g","pricing_plan_id":"cebpf4jnsgd1na2vs0mg"},{"bike_id":"9638bd5a-6709-4ae5-844c-ab1839e55063","system_id":"levelo_inurba_marseille","lat":43.22916,"lon":5.35392,"is_reserved":false,"is_disabled":false,"rental_uris":{"android":"levelo://app?vid=9638bd5a-6709-4ae5-844c-ab1839e55063","ios":"levelo://app?vid=9638bd5a-6709-4ae5-844c-ab1839e55063"},"vehicle_type_id":"4","last_reported":1734102586,"current_range_meters":25200,"station_id":"cpo3532slgdg3j2ikp40","pricing_plan_id":"cebpf4jnsgd1na2vs0mg"},{"bike_id":"5dcb142e-3766-4e2c-b1fe-c9ebbc5d3c50","system_id":"levelo_inurba_marseille","lat":43.31982,"lon":5.38151,"is_reserved":false,"is_disabled":false,"rental_uris":{"android":"levelo://app?vid=5dcb142e-3766-4e2c-b1fe-c9ebbc5d3c50","ios":"levelo://app?vid=5dcb142e-3766-4e2c-b1fe-c9ebbc5d3c50"},"vehicle_type_id":"4","last_reported":1734102586,"current_range_meters":8000,"station_id":"ce4bhr12rcd13ifvqhpg","pricing_plan_id":"cebpf4jnsgd1na2vs0mg"},{"bike_id":"c4d762e0-8b01-4ca5-9e19-d4264a5fb99d","system_id":"levelo_inurba_marseille","lat":43.29851,"lon":5.36293,"is_reserved":false,"is_disabled":false,"rental_uris":{"android":"levelo://app?vid=c4d762e0-8b01-4ca5-9e19-d4264a5fb99d","ios":"levelo://app?vid=c4d762e0-8b01-4ca5-9e19-d4264a5fb99d"},"vehicle_type_id":"4","last_reported":1734102586,"current_range_meters":32800,"station_id":"ce4bgpp2rcd13ifvqc3g","pricing_plan_id":"cebpf4jnsgd1na2vs0mg"},{"bike_id":"516bcbce-8b75-4610-9ee5-df08b7034853","system_id":"levelo_inurba_marseille","lat":43.26783,"lon":5.39433,"is_reserved":false,"is_disabled":false,"rental_uris":{"android":"levelo://app?vid=516bcbce-8b75-4610-9ee5-df08b7034853","ios":"levelo://app?vid=516bcbce-8b75-4610-9ee5-df08b7034853"},"vehicle_type_id":"4","last_reported":1734102586,"current_range_meters":4800,"station_id":"ce4bhh12rcd13ifvqfg0","pricing_plan_id":"cebpf4jnsgd1na2vs0mg"},{"bike_id":"5fbabd30-11ec-41ea-86fb-d95789efeb3d","system_id":"levelo_inurba_marseille","lat":43.27071,"lon":5.42283,"is_reserved":false,"is_disabled":false,"rental_uris":{"android":"levelo://app?vid=5fbabd30-11ec-41ea-86fb-d95789efeb3d","ios":"levelo://app?vid=5fbabd30-11ec-41ea-86fb-d95789efeb3d"},"vehicle_type_id":"4","last_reported":1734102586,"current_range_meters":19200,"station_id":"ce4bhk92rcd13ifvqgb0","pricing_plan_id":"cebpf4jnsgd1na2vs0mg"},{"bike_id":"40d31821-f6b0-49d1-8f76-93f8e2d43cef","system_id":"levelo_inurba_marseille","lat":43.2512,"lon":5.40318,"is_reserved":false,"is_disabled":false,"rental_uris":{"android":"levelo://app?vid=40d31821-f6b0-49d1-8f76-93f8e2d43cef","ios":"levelo://app?vid=40d31821-f6b0-49d1-8f76-93f8e2d43cef"},"vehicle_type_id":"4","last_reported":1734102586,"current_range_meters":9200,"station_id":"ce4bhlh2rcd13ifvqgig","pricing_plan_id":"cebpf4jnsgd1na2vs0mg"},{"bike_id":"1d6773db-71a4-488f-9949-cc8fc3fad786","system_id":"levelo_inurba_marseille","lat":43.29622,"lon":5.3717,"is_reserved":false,"is_disabled":false,"rental_uris":{"android":"levelo://app?vid=1d6773db-71a4-488f-9949-cc8fc3fad786","ios":"levelo://app?vid=1d6773db-71a4-488f-9949-cc8fc3fad786"},"vehicle_type_id":"4","last_reported":1734102586,"current_range_meters":21600,"station_id":"ce4bgnh2rcd13ifvqc0g","pricing_plan_id":"cebpf4jnsgd1na2vs0mg"},{"bike_id":"94e1f871-2269-4dc0-b678-810d929953a4","system_id":"levelo_inurba_marseille","lat":43.26557,"lon":5.37283,"is_reserved":false,"is_disabled":false,"rental_uris":{"android":"levelo://app?vid=94e1f871-2269-4dc0-b678-810d929953a4","ios":"levelo://app?vid=94e1f871-2269-4dc0-b678-810d929953a4"},"vehicle_type_id":"4","last_reported":1734102586,"current_range_meters":29600,"station_id":"ce4bhg12rcd13ifvqf70","pricing_plan_id":"cebpf4jnsgd1na2vs0mg"},{"bike_id":"9658b4e0-946e-4511-8e18-b51586108f8c","system_id":"levelo_inurba_marseille","lat":43.33742,"lon":5.37376,"is_reserved":false,"is_disabled":false,"rental_uris":{"android":"levelo://app?vid=9658b4e0-946e-4511-8e18-b51586108f8c","ios":"levelo://app?vid=9658b4e0-946e-4511-8e18-b51586108f8c"},"vehicle_type_id":"4","last_reported":1734102586,"current_range_meters":38800,"station_id":"","pricing_plan_id":"cebpf4jnsgd1na2vs0mg"},{"bike_id":"495986c7-e02a-4c20-a1dc-c3edae2c8c07","system_id":"levelo_inurba_marseille","lat":43.30176,"lon":5.37357,"is_reserved":false,"is_disabled":false,"rental_uris":{"android":"levelo://app?vid=495986c7-e02a-4c20-a1dc-c3edae2c8c07","ios":"levelo://app?vid=495986c7-e02a-4c20-a1dc-c3edae2c8c07"},"vehicle_type_id":"4","last_reported":1734102586,"current_range_meters":28400,"station_id":"","pricing_plan_id":"cebpf4jnsgd1na2vs0mg"},{"bike_id":"62deda22-1fb7-432c-b85a-e74584847620","system_id":"levelo_inurba_marseille","lat":43.30542,"lon":5.36563,"is_reserved":false,"is_disabled":false,"rental_uris":{"android":"levelo://app?vid=62deda22-1fb7-432c-b85a-e74584847620","ios":"levelo://app?vid=62deda22-1fb7-432c-b85a-e74584847620"},"vehicle_type_id":"4","last_reported":1734102586,"current_range_meters":3600,"station_id":"ce4bgs12rcd13ifvqcag","pricing_plan_id":"cebpf4jnsgd1na2vs0mg"},{"bike_id":"9bfcebe4-fee2-409c-a8ab-5608ab6f061f","system_id":"levelo_inurba_marseille","lat":43.27811,"lon":5.40716,"is_reserved":false,"is_disabled":true,"rental_uris":{"android":"levelo://app?vid=9bfcebe4-fee2-409c-a8ab-5608ab6f061f","ios":"levelo://app?vid=9bfcebe4-fee2-409c-a8ab-5608ab6f061f"},"vehicle_type_id":"4","last_reported":1734102586,"current_range_meters":38400,"station_id":"ce4bhnh2rcd13ifvqgtg","pricing_plan_id":"cebpf4jnsgd1na2vs0mg"},{"bike_id":"0e8a89dc-4e73-48a3-8682-6696627877b1","system_id":"levelo_inurba_marseille","lat":43.31748,"lon":5.39042,"is_reserved":false,"is_disabled":false,"rental_uris":{"android":"levelo://app?vid=0e8a89dc-4e73-48a3-8682-6696627877b1","ios":"levelo://app?vid=0e8a89dc-4e73-48a3-8682-6696627877b1"},"vehicle_type_id":"4","last_reported":1734102586,"current_range_meters":38800,"station_id":"ce4bhqp2rcd13ifvqhng","pricing_plan_id":"cebpf4jnsgd1na2vs0mg"},{"bike_id":"edaea664-24e0-4d6c-aa7a-497f5c5f88f6","system_id":"levelo_inurba_marseille","lat":43.27006,"lon":5.39142,"is_reserved":false,"is_disabled":true,"rental_uris":{"android":"levelo://app?vid=edaea664-24e0-4d6c-aa7a-497f5c5f88f6","ios":"levelo://app?vid=edaea664-24e0-4d6c-aa7a-497f5c5f88f6"},"vehicle_type_id":"4","last_reported":1734102586,"current_range_meters":0,"station_id":"","pricing_plan_id":"cebpf4jnsgd1na2vs0mg"},{"bike_id":"68c09d6c-1d1f-480c-8ece-3565831517fa","system_id":"levelo_inurba_marseille","lat":43.31519,"lon":5.38038,"is_reserved":false,"is_disabled":false,"rental_uris":{"android":"levelo://app?vid=68c09d6c-1d1f-480c-8ece-3565831517fa","ios":"levelo://app?vid=68c09d6c-1d1f-480c-8ece-3565831517fa"},"vehicle_type_id":"4","last_reported":1734102586,"current_range_meters":17200,"station_id":"ce4bhsp2rcd13ifvqi50","pricing_plan_id":"cebpf4jnsgd1na2vs0mg"},{"bike_id":"20cd681c-e1b2-4e02-a36a-4c0f539a1945","system_id":"levelo_inurba_marseille","lat":43.29982,"lon":5.37178,"is_reserved":false,"is_disabled":true,"rental_uris":{"android":"levelo://app?vid=20cd681c-e1b2-4e02-a36a-4c0f539a1945","ios":"levelo://app?vid=20cd681c-e1b2-4e02-a36a-4c0f539a1945"},"vehicle_type_id":"4","last_reported":1734102586,"current_range_meters":1200,"station_id":"ce4bgr92rcd13ifvqc7g","pricing_plan_id":"cebpf4jnsgd1na2vs0mg"},{"bike_id":"fb12fca9-b9a8-4ecd-9866-fd2ad0b38bf2","system_id":"levelo_inurba_marseille","lat":43.280153,"lon":5.378245,"is_reserved":false,"is_disabled":false,"rental_uris":{"android":"levelo://app?vid=fb12fca9-b9a8-4ecd-9866-fd2ad0b38bf2","ios":"levelo://app?vid=fb12fca9-b9a8-4ecd-9866-fd2ad0b38bf2"},"vehicle_type_id":"4","last_reported":1734102586,"current_range_meters":35200,"station_id":"","pricing_plan_id":"cebpf4jnsgd1na2vs0mg"},{"bike_id":"c3b9900c-446d-4007-a4b1-94618c1a312d","system_id":"levelo_inurba_marseille","lat":43.3167,"lon":5.37681,"is_reserved":false,"is_disabled":false,"rental_uris":{"android":"levelo://app?vid=c3b9900c-446d-4007-a4b1-94618c1a312d","ios":"levelo://app?vid=c3b9900c-446d-4007-a4b1-94618c1a312d"},"vehicle_type_id":"4","last_reported":1734102586,"current_range_meters":30000,"station_id":"ce4bgth2rcd13ifvqch0","pricing_plan_id":"cebpf4jnsgd1na2vs0mg"},{"bike_id":"031809f5-fdc4-4687-967d-86d6a0becf47","system_id":"levelo_inurba_marseille","lat":43.25867,"lon":5.39899,"is_reserved":false,"is_disabled":false,"rental_uris":{"android":"levelo://app?vid=031809f5-fdc4-4687-967d-86d6a0becf47","ios":"levelo://app?vid=031809f5-fdc4-4687-967d-86d6a0becf47"},"vehicle_type_id":"4","last_reported":1734102586,"current_range_meters":38400,"station_id":"ce4bhl92rcd13ifvqghg","pricing_plan_id":"cebpf4jnsgd1na2vs0mg"},{"bike_id":"99c28eb3-8125-46ab-a400-98468082d40c","system_id":"levelo_inurba_marseille","lat":43.27672,"lon":5.38899,"is_reserved":false,"is_disabled":false,"rental_uris":{"android":"levelo://app?vid=99c28eb3-8125-46ab-a400-98468082d40c","ios":"levelo://app?vid=99c28eb3-8125-46ab-a400-98468082d40c"},"vehicle_type_id":"4","last_reported":1734102586,"current_range_meters":39200,"station_id":"ce4bhi12rcd13ifvqfo0","pricing_plan_id":"cebpf4jnsgd1na2vs0mg"},{"bike_id":"516f14a4-04fe-406e-80c1-e9be448aafa5","system_id":"levelo_inurba_marseille","lat":43.3055,"lon":5.36545,"is_reserved":false,"is_disabled":false,"rental_uris":{"android":"levelo://app?vid=516f14a4-04fe-406e-80c1-e9be448aafa5","ios":"levelo://app?vid=516f14a4-04fe-406e-80c1-e9be448aafa5"},"vehicle_type_id":"4","last_reported":1734102586,"current_range_meters":39200,"station_id":"ce4bgs12rcd13ifvqcag","pricing_plan_id":"cebpf4jnsgd1na2vs0mg"},{"bike_id":"c66f0454-3e74-494e-aaa0-29cb545d1f03","system_id":"levelo_inurba_marseille","lat":43.26558,"lon":5.3901,"is_reserved":false,"is_disabled":false,"rental_uris":{"android":"levelo://app?vid=c66f0454-3e74-494e-aaa0-29cb545d1f03","ios":"levelo://app?vid=c66f0454-3e74-494e-aaa0-29cb545d1f03"},"vehicle_type_id":"4","last_reported":1734102586,"current_range_meters":17600,"station_id":"ce4bhe12rcd13ifvqf30","pricing_plan_id":"cebpf4jnsgd1na2vs0mg"},{"bike_id":"75d005f1-a104-4287-b501-1002db049ee7","system_id":"levelo_inurba_marseille","lat":43.33731,"lon":5.39219,"is_reserved":false,"is_disabled":false,"rental_uris":{"android":"levelo://app?vid=75d005f1-a104-4287-b501-1002db049ee7","ios":"levelo://app?vid=75d005f1-a104-4287-b501-1002db049ee7"},"vehicle_type_id":"4","last_reported":1734102586,"current_range_meters":38800,"station_id":"ce4bhr92rcd13ifvqhsg","pricing_plan_id":"cebpf4jnsgd1na2vs0mg"},{"bike_id":"9c1ce7b6-f5d4-48dd-b699-4ec030edf6d0","system_id":"levelo_inurba_marseille","lat":43.33007,"lon":5.39046,"is_reserved":false,"is_disabled":false,"rental_uris":{"android":"levelo://app?vid=9c1ce7b6-f5d4-48dd-b699-4ec030edf6d0","ios":"levelo://app?vid=9c1ce7b6-f5d4-48dd-b699-4ec030edf6d0"},"vehicle_type_id":"4","last_reported":1734102586,"current_range_meters":16400,"station_id":"ce4bhr92rcd13ifvqhrg","pricing_plan_id":"cebpf4jnsgd1na2vs0mg"},{"bike_id":"11a0305a-18c4-4aed-a646-3160a85bff30","system_id":"levelo_inurba_marseille","lat":43.30146,"lon":5.37424,"is_reserved":false,"is_disabled":false,"rental_uris":{"android":"levelo://app?vid=11a0305a-18c4-4aed-a646-3160a85bff30","ios":"levelo://app?vid=11a0305a-18c4-4aed-a646-3160a85bff30"},"vehicle_type_id":"4","last_reported":1734102586,"current_range_meters":21600,"station_id":"ce4bgs92rcd13ifvqcc0","pricing_plan_id":"cebpf4jnsgd1na2vs0mg"},{"bike_id":"30b7f7b0-cffb-44e8-9e23-86428fe1183d","system_id":"levelo_inurba_marseille","lat":43.23073,"lon":5.35497,"is_reserved":false,"is_disabled":false,"rental_uris":{"android":"levelo://app?vid=30b7f7b0-cffb-44e8-9e23-86428fe1183d","ios":"levelo://app?vid=30b7f7b0-cffb-44e8-9e23-86428fe1183d"},"vehicle_type_id":"4","last_reported":1734102586,"current_range_meters":38000,"station_id":"cpo3342slgdg3j2ifvpg","pricing_plan_id":"cebpf4jnsgd1na2vs0mg"},{"bike_id":"f88f3ddc-a5b6-46a4-a952-1748d0e2a1c1","system_id":"levelo_inurba_marseille","lat":43.29199,"lon":5.39306,"is_reserved":false,"is_disabled":false,"rental_uris":{"android":"levelo://app?vid=f88f3ddc-a5b6-46a4-a952-1748d0e2a1c1","ios":"levelo://app?vid=f88f3ddc-a5b6-46a4-a952-1748d0e2a1c1"},"vehicle_type_id":"4","last_reported":1734102586,"current_range_meters":36400,"station_id":"ce4bh192rcd13ifvqdd0","pricing_plan_id":"cebpf4jnsgd1na2vs0mg"},{"bike_id":"c962957d-ec10-4997-96e1-a869343f922e","system_id":"levelo_inurba_marseille","lat":43.32653,"lon":5.36094,"is_reserved":false,"is_disabled":false,"rental_uris":{"android":"levelo://app?vid=c962957d-ec10-4997-96e1-a869343f922e","ios":"levelo://app?vid=c962957d-ec10-4997-96e1-a869343f922e"},"vehicle_type_id":"4","last_reported":1734102586,"current_range_meters":6000,"station_id":"","pricing_plan_id":"cebpf4jnsgd1na2vs0mg"},{"bike_id":"7906f1d8-f676-4e86-bb36-c3a9dd69bddb","system_id":"levelo_inurba_marseille","lat":43.30136,"lon":5.37406,"is_reserved":false,"is_disabled":false,"rental_uris":{"android":"levelo://app?vid=7906f1d8-f676-4e86-bb36-c3a9dd69bddb","ios":"levelo://app?vid=7906f1d8-f676-4e86-bb36-c3a9dd69bddb"},"vehicle_type_id":"4","last_reported":1734102586,"current_range_meters":34000,"station_id":"ce4bgs92rcd13ifvqcc0","pricing_plan_id":"cebpf4jnsgd1na2vs0mg"},{"bike_id":"b8908221-62ab-4e55-819d-21411fec3c59","system_id":"levelo_inurba_marseille","lat":43.3054,"lon":5.36556,"is_reserved":false,"is_disabled":false,"rental_uris":{"android":"levelo://app?vid=b8908221-62ab-4e55-819d-21411fec3c59","ios":"levelo://app?vid=b8908221-62ab-4e55-819d-21411fec3c59"},"vehicle_type_id":"4","last_reported":1734102586,"current_range_meters":17200,"station_id":"ce4bgs12rcd13ifvqcag","pricing_plan_id":"cebpf4jnsgd1na2vs0mg"},{"bike_id":"d91b5df0-159f-484a-81cb-b5f4c0ca79fa","system_id":"levelo_inurba_marseille","lat":43.299099,"lon":5.38164,"is_reserved":false,"is_disabled":false,"rental_uris":{"android":"levelo://app?vid=d91b5df0-159f-484a-81cb-b5f4c0ca79fa","ios":"levelo://app?vid=d91b5df0-159f-484a-81cb-b5f4c0ca79fa"},"vehicle_type_id":"4","last_reported":1734102586,"current_range_meters":36000,"station_id":"ce4bgj12rcd13ifvqbc0","pricing_plan_id":"cebpf4jnsgd1na2vs0mg"},{"bike_id":"5313f15a-6be9-4e32-afca-b26d6d5068af","system_id":"levelo_inurba_marseille","lat":43.26571,"lon":5.39012,"is_reserved":false,"is_disabled":false,"rental_uris":{"android":"levelo://app?vid=5313f15a-6be9-4e32-afca-b26d6d5068af","ios":"levelo://app?vid=5313f15a-6be9-4e32-afca-b26d6d5068af"},"vehicle_type_id":"4","last_reported":1734102586,"current_range_meters":6800,"station_id":"ce4bhe12rcd13ifvqf30","pricing_plan_id":"cebpf4jnsgd1na2vs0mg"},{"bike_id":"de5976c1-1779-4039-aa99-aa31d0c02ea5","system_id":"levelo_inurba_marseille","lat":43.30327,"lon":5.40433,"is_reserved":false,"is_disabled":false,"rental_uris":{"android":"levelo://app?vid=de5976c1-1779-4039-aa99-aa31d0c02ea5","ios":"levelo://app?vid=de5976c1-1779-4039-aa99-aa31d0c02ea5"},"vehicle_type_id":"4","last_reported":1734102586,"current_range_meters":33200,"station_id":"ce4bh012rcd13ifvqd10","pricing_plan_id":"cebpf4jnsgd1na2vs0mg"},{"bike_id":"55781f66-d3d0-4002-bde7-8c29df69b8fa","system_id":"levelo_inurba_marseille","lat":43.30536,"lon":5.36546,"is_reserved":false,"is_disabled":false,"rental_uris":{"android":"levelo://app?vid=55781f66-d3d0-4002-bde7-8c29df69b8fa","ios":"levelo://app?vid=55781f66-d3d0-4002-bde7-8c29df69b8fa"},"vehicle_type_id":"4","last_reported":1734102586,"current_range_meters":18000,"station_id":"ce4bgs12rcd13ifvqcag","pricing_plan_id":"cebpf4jnsgd1na2vs0mg"},{"bike_id":"49f0e66c-de97-47bf-8d35-a7cf59267304","system_id":"levelo_inurba_marseille","lat":43.25122,"lon":5.40321,"is_reserved":false,"is_disabled":false,"rental_uris":{"android":"levelo://app?vid=49f0e66c-de97-47bf-8d35-a7cf59267304","ios":"levelo://app?vid=49f0e66c-de97-47bf-8d35-a7cf59267304"},"vehicle_type_id":"4","last_reported":1734102586,"current_range_meters":19600,"station_id":"ce4bhlh2rcd13ifvqgig","pricing_plan_id":"cebpf4jnsgd1na2vs0mg"},{"bike_id":"d9e255be-40da-4f35-827b-15ee7b448fc1","system_id":"levelo_inurba_marseille","lat":43.28856,"lon":5.35842,"is_reserved":false,"is_disabled":false,"rental_uris":{"android":"levelo://app?vid=d9e255be-40da-4f35-827b-15ee7b448fc1","ios":"levelo://app?vid=d9e255be-40da-4f35-827b-15ee7b448fc1"},"vehicle_type_id":"4","last_reported":1734102586,"current_range_meters":38800,"station_id":"ce4bhb12rcd13ifvqem0","pricing_plan_id":"cebpf4jnsgd1na2vs0mg"},{"bike_id":"da345435-a4ab-4142-96e2-d4c3515056c7","system_id":"levelo_inurba_marseille","lat":43.30133,"lon":5.38788,"is_reserved":false,"is_disabled":true,"rental_uris":{"android":"levelo://app?vid=da345435-a4ab-4142-96e2-d4c3515056c7","ios":"levelo://app?vid=da345435-a4ab-4142-96e2-d4c3515056c7"},"vehicle_type_id":"4","last_reported":1734102586,"current_range_meters":0,"station_id":"ce4bghh2rcd13ifvqb60","pricing_plan_id":"cebpf4jnsgd1na2vs0mg"},{"bike_id":"76e93fa2-5a2a-4a23-bca1-a3b3b09d1323","system_id":"levelo_inurba_marseille","lat":43.27179,"lon":5.40991,"is_reserved":false,"is_disabled":false,"rental_uris":{"android":"levelo://app?vid=76e93fa2-5a2a-4a23-bca1-a3b3b09d1323","ios":"levelo://app?vid=76e93fa2-5a2a-4a23-bca1-a3b3b09d1323"},"vehicle_type_id":"4","last_reported":1734102586,"current_range_meters":37600,"station_id":"ce4bhl12rcd13ifvqgf0","pricing_plan_id":"cebpf4jnsgd1na2vs0mg"},{"bike_id":"30091b2c-2be2-4f28-9300-5ef32534f0bb","system_id":"levelo_inurba_marseille","lat":43.28462,"lon":5.35894,"is_reserved":false,"is_disabled":true,"rental_uris":{"android":"levelo://app?vid=30091b2c-2be2-4f28-9300-5ef32534f0bb","ios":"levelo://app?vid=30091b2c-2be2-4f28-9300-5ef32534f0bb"},"vehicle_type_id":"4","last_reported":1734102586,"current_range_meters":1200,"station_id":"ce4bhah2rcd13ifvqei0","pricing_plan_id":"cebpf4jnsgd1na2vs0mg"},{"bike_id":"246c7cb4-a1ed-488e-9b2f-1d2024ac9c9e","system_id":"levelo_inurba_marseille","lat":43.25122,"lon":5.40316,"is_reserved":false,"is_disabled":false,"rental_uris":{"android":"levelo://app?vid=246c7cb4-a1ed-488e-9b2f-1d2024ac9c9e","ios":"levelo://app?vid=246c7cb4-a1ed-488e-9b2f-1d2024ac9c9e"},"vehicle_type_id":"4","last_reported":1734102586,"current_range_meters":34800,"station_id":"ce4bhlh2rcd13ifvqgig","pricing_plan_id":"cebpf4jnsgd1na2vs0mg"},{"bike_id":"143ccd8e-9541-44bb-a0f3-805b2d1001bb","system_id":"levelo_inurba_marseille","lat":43.291966,"lon":5.393304,"is_reserved":false,"is_disabled":false,"rental_uris":{"android":"levelo://app?vid=143ccd8e-9541-44bb-a0f3-805b2d1001bb","ios":"levelo://app?vid=143ccd8e-9541-44bb-a0f3-805b2d1001bb"},"vehicle_type_id":"4","last_reported":1734102586,"current_range_meters":18800,"station_id":"ce4bh192rcd13ifvqdd0","pricing_plan_id":"cebpf4jnsgd1na2vs0mg"},{"bike_id":"dbd1ed54-903e-4439-a026-6c8e1b4bc70d","system_id":"levelo_inurba_marseille","lat":43.29039,"lon":5.35921,"is_reserved":false,"is_disabled":false,"rental_uris":{"android":"levelo://app?vid=dbd1ed54-903e-4439-a026-6c8e1b4bc70d","ios":"levelo://app?vid=dbd1ed54-903e-4439-a026-6c8e1b4bc70d"},"vehicle_type_id":"4","last_reported":1734102586,"current_range_meters":32000,"station_id":"ce4bha92rcd13ifvqeg0","pricing_plan_id":"cebpf4jnsgd1na2vs0mg"},{"bike_id":"f0860a4c-1e7e-4dfe-8452-f7620763819f","system_id":"levelo_inurba_marseille","lat":43.29921,"lon":5.37473,"is_reserved":false,"is_disabled":false,"rental_uris":{"android":"levelo://app?vid=f0860a4c-1e7e-4dfe-8452-f7620763819f","ios":"levelo://app?vid=f0860a4c-1e7e-4dfe-8452-f7620763819f"},"vehicle_type_id":"4","last_reported":1734102586,"current_range_meters":19200,"station_id":"ce4bgjh2rcd13ifvqbg0","pricing_plan_id":"cebpf4jnsgd1na2vs0mg"},{"bike_id":"af67ac53-ba21-4ff0-8334-95679e9ff2cc","system_id":"levelo_inurba_marseille","lat":43.278805,"lon":5.388003,"is_reserved":false,"is_disabled":true,"rental_uris":{"android":"levelo://app?vid=af67ac53-ba21-4ff0-8334-95679e9ff2cc","ios":"levelo://app?vid=af67ac53-ba21-4ff0-8334-95679e9ff2cc"},"vehicle_type_id":"4","last_reported":1734102586,"current_range_meters":6000,"station_id":"","pricing_plan_id":"cebpf4jnsgd1na2vs0mg"},{"bike_id":"faf81d0d-c5e2-4655-bb0f-565fe5a58008","system_id":"levelo_inurba_marseille","lat":43.29306,"lon":5.3746,"is_reserved":false,"is_disabled":false,"rental_uris":{"android":"levelo://app?vid=faf81d0d-c5e2-4655-bb0f-565fe5a58008","ios":"levelo://app?vid=faf81d0d-c5e2-4655-bb0f-565fe5a58008"},"vehicle_type_id":"4","last_reported":1734102586,"current_range_meters":33600,"station_id":"ce4bgi12rcd13ifvqb70","pricing_plan_id":"cebpf4jnsgd1na2vs0mg"},{"bike_id":"3903656d-798a-4545-bc14-ee4c78b5cc52","system_id":"levelo_inurba_marseille","lat":43.30094,"lon":5.39074,"is_reserved":false,"is_disabled":false,"rental_uris":{"android":"levelo://app?vid=3903656d-798a-4545-bc14-ee4c78b5cc52","ios":"levelo://app?vid=3903656d-798a-4545-bc14-ee4c78b5cc52"},"vehicle_type_id":"4","last_reported":1734102586,"current_range_meters":25200,"station_id":"ce4bh192rcd13ifvqdb0","pricing_plan_id":"cebpf4jnsgd1na2vs0mg"},{"bike_id":"d8d7ffef-ae54-446a-a28c-8265164b47ce","system_id":"levelo_inurba_marseille","lat":43.29166,"lon":5.43918,"is_reserved":false,"is_disabled":true,"rental_uris":{"android":"levelo://app?vid=d8d7ffef-ae54-446a-a28c-8265164b47ce","ios":"levelo://app?vid=d8d7ffef-ae54-446a-a28c-8265164b47ce"},"vehicle_type_id":"4","last_reported":1734102586,"current_range_meters":29600,"station_id":"","pricing_plan_id":"cebpf4jnsgd1na2vs0mg"},{"bike_id":"68632167-20c0-48bf-9318-c10edab0d9bb","system_id":"levelo_inurba_marseille","lat":43.28851,"lon":5.39313,"is_reserved":false,"is_disabled":false,"rental_uris":{"android":"levelo://app?vid=68632167-20c0-48bf-9318-c10edab0d9bb","ios":"levelo://app?vid=68632167-20c0-48bf-9318-c10edab0d9bb"},"vehicle_type_id":"4","last_reported":1734102586,"current_range_meters":30000,"station_id":"ce4bh2p2rcd13ifvqdi0","pricing_plan_id":"cebpf4jnsgd1na2vs0mg"},{"bike_id":"c5768e7e-b244-4dfc-973f-384fac771fcc","system_id":"levelo_inurba_marseille","lat":43.27895,"lon":5.41414,"is_reserved":false,"is_disabled":true,"rental_uris":{"android":"levelo://app?vid=c5768e7e-b244-4dfc-973f-384fac771fcc","ios":"levelo://app?vid=c5768e7e-b244-4dfc-973f-384fac771fcc"},"vehicle_type_id":"4","last_reported":1734102586,"current_range_meters":0,"station_id":"","pricing_plan_id":"cebpf4jnsgd1na2vs0mg"},{"bike_id":"d65fcea9-51ba-41f0-86fd-e798dfdd6f09","system_id":"levelo_inurba_marseille","lat":43.2867,"lon":5.38338,"is_reserved":false,"is_disabled":true,"rental_uris":{"android":"levelo://app?vid=d65fcea9-51ba-41f0-86fd-e798dfdd6f09","ios":"levelo://app?vid=d65fcea9-51ba-41f0-86fd-e798dfdd6f09"},"vehicle_type_id":"4","last_reported":1734102586,"current_range_meters":0,"station_id":"","pricing_plan_id":"cebpf4jnsgd1na2vs0mg"},{"bike_id":"3cffa040-7e8b-4d9e-a1bd-b8a78d782447","system_id":"levelo_inurba_marseille","lat":43.314905,"lon":5.373088,"is_reserved":false,"is_disabled":true,"rental_uris":{"android":"levelo://app?vid=3cffa040-7e8b-4d9e-a1bd-b8a78d782447","ios":"levelo://app?vid=3cffa040-7e8b-4d9e-a1bd-b8a78d782447"},"vehicle_type_id":"4","last_reported":1734102586,"current_range_meters":3600,"station_id":"","pricing_plan_id":"cebpf4jnsgd1na2vs0mg"},{"bike_id":"7e49be71-0e26-44b2-83c0-bc0ababab313","system_id":"levelo_inurba_marseille","lat":43.2653,"lon":5.39066,"is_reserved":false,"is_disabled":false,"rental_uris":{"android":"levelo://app?vid=7e49be71-0e26-44b2-83c0-bc0ababab313","ios":"levelo://app?vid=7e49be71-0e26-44b2-83c0-bc0ababab313"},"vehicle_type_id":"4","last_reported":1734102586,"current_range_meters":38800,"station_id":"","pricing_plan_id":"cebpf4jnsgd1na2vs0mg"},{"bike_id":"e44d44c6-dcab-40ec-966f-064cdbc258c8","system_id":"levelo_inurba_marseille","lat":43.2694,"lon":5.40252,"is_reserved":false,"is_disabled":false,"rental_uris":{"android":"levelo://app?vid=e44d44c6-dcab-40ec-966f-064cdbc258c8","ios":"levelo://app?vid=e44d44c6-dcab-40ec-966f-064cdbc258c8"},"vehicle_type_id":"4","last_reported":1734102586,"current_range_meters":38800,"station_id":"cjm6bp8fraef2m0cb0m0","pricing_plan_id":"cebpf4jnsgd1na2vs0mg"},{"bike_id":"d0b14166-ade0-47a9-8864-f0cc0f20aea8","system_id":"levelo_inurba_marseille","lat":43.30423,"lon":5.39751,"is_reserved":false,"is_disabled":false,"rental_uris":{"android":"levelo://app?vid=d0b14166-ade0-47a9-8864-f0cc0f20aea8","ios":"levelo://app?vid=d0b14166-ade0-47a9-8864-f0cc0f20aea8"},"vehicle_type_id":"4","last_reported":1734102586,"current_range_meters":22800,"station_id":"ce4bh092rcd13ifvqd20","pricing_plan_id":"cebpf4jnsgd1na2vs0mg"},{"bike_id":"f6308ed5-ccbb-4e12-b2e0-874552bb4cda","system_id":"levelo_inurba_marseille","lat":43.29768,"lon":5.37716,"is_reserved":false,"is_disabled":false,"rental_uris":{"android":"levelo://app?vid=f6308ed5-ccbb-4e12-b2e0-874552bb4cda","ios":"levelo://app?vid=f6308ed5-ccbb-4e12-b2e0-874552bb4cda"},"vehicle_type_id":"4","last_reported":1734102586,"current_range_meters":38800,"station_id":"","pricing_plan_id":"cebpf4jnsgd1na2vs0mg"},{"bike_id":"64203de9-e72b-4d66-9a84-7a315c7ed37f","system_id":"levelo_inurba_marseille","lat":43.29495,"lon":5.37445,"is_reserved":false,"is_disabled":true,"rental_uris":{"android":"levelo://app?vid=64203de9-e72b-4d66-9a84-7a315c7ed37f","ios":"levelo://app?vid=64203de9-e72b-4d66-9a84-7a315c7ed37f"},"vehicle_type_id":"4","last_reported":1734102586,"current_range_meters":0,"station_id":"","pricing_plan_id":"cebpf4jnsgd1na2vs0mg"},{"bike_id":"d24f2605-a1b1-44df-9042-a81f759d8506","system_id":"levelo_inurba_marseille","lat":43.26193,"lon":5.37449,"is_reserved":false,"is_disabled":false,"rental_uris":{"android":"levelo://app?vid=d24f2605-a1b1-44df-9042-a81f759d8506","ios":"levelo://app?vid=d24f2605-a1b1-44df-9042-a81f759d8506"},"vehicle_type_id":"4","last_reported":1734102586,"current_range_meters":16800,"station_id":"ce4bhgp2rcd13ifvqfc0","pricing_plan_id":"cebpf4jnsgd1na2vs0mg"},{"bike_id":"76af30ab-27aa-4350-8972-f8a294ad6b70","system_id":"levelo_inurba_marseille","lat":43.33027,"lon":5.39042,"is_reserved":false,"is_disabled":false,"rental_uris":{"android":"levelo://app?vid=76af30ab-27aa-4350-8972-f8a294ad6b70","ios":"levelo://app?vid=76af30ab-27aa-4350-8972-f8a294ad6b70"},"vehicle_type_id":"4","last_reported":1734102586,"current_range_meters":38800,"station_id":"ce4bhr92rcd13ifvqhrg","pricing_plan_id":"cebpf4jnsgd1na2vs0mg"},{"bike_id":"3d6063d3-f0fb-4c5b-8f58-8d5c9ed6bd87","system_id":"levelo_inurba_marseille","lat":43.25003,"lon":5.38926,"is_reserved":false,"is_disabled":true,"rental_uris":{"android":"levelo://app?vid=3d6063d3-f0fb-4c5b-8f58-8d5c9ed6bd87","ios":"levelo://app?vid=3d6063d3-f0fb-4c5b-8f58-8d5c9ed6bd87"},"vehicle_type_id":"4","last_reported":1734102586,"current_range_meters":400,"station_id":"ce4bhgp2rcd13ifvqfd0","pricing_plan_id":"cebpf4jnsgd1na2vs0mg"},{"bike_id":"c9179a56-6ac3-49b3-8785-0da77ec0b66c","system_id":"levelo_inurba_marseille","lat":43.29848,"lon":5.36264,"is_reserved":false,"is_disabled":false,"rental_uris":{"android":"levelo://app?vid=c9179a56-6ac3-49b3-8785-0da77ec0b66c","ios":"levelo://app?vid=c9179a56-6ac3-49b3-8785-0da77ec0b66c"},"vehicle_type_id":"4","last_reported":1734102586,"current_range_meters":38800,"station_id":"ce4bgpp2rcd13ifvqc3g","pricing_plan_id":"cebpf4jnsgd1na2vs0mg"},{"bike_id":"38bf081e-5615-478e-a2a1-1bb6fe2b9efd","system_id":"levelo_inurba_marseille","lat":43.30895,"lon":5.371993,"is_reserved":false,"is_disabled":false,"rental_uris":{"android":"levelo://app?vid=38bf081e-5615-478e-a2a1-1bb6fe2b9efd","ios":"levelo://app?vid=38bf081e-5615-478e-a2a1-1bb6fe2b9efd"},"vehicle_type_id":"4","last_reported":1734102586,"current_range_meters":38800,"station_id":"ce4bguh2rcd13ifvqckg","pricing_plan_id":"cebpf4jnsgd1na2vs0mg"},{"bike_id":"83697503-ebb6-4133-8865-690e94a16a9b","system_id":"levelo_inurba_marseille","lat":43.24179,"lon":5.3973,"is_reserved":false,"is_disabled":true,"rental_uris":{"android":"levelo://app?vid=83697503-ebb6-4133-8865-690e94a16a9b","ios":"levelo://app?vid=83697503-ebb6-4133-8865-690e94a16a9b"},"vehicle_type_id":"4","last_reported":1734102586,"current_range_meters":0,"station_id":"ce4bhn12rcd13ifvqgpg","pricing_plan_id":"cebpf4jnsgd1na2vs0mg"},{"bike_id":"b0aa13fd-c47a-46ab-9688-5b039a967c39","system_id":"levelo_inurba_marseille","lat":43.29634,"lon":5.40603,"is_reserved":false,"is_disabled":false,"rental_uris":{"android":"levelo://app?vid=b0aa13fd-c47a-46ab-9688-5b039a967c39","ios":"levelo://app?vid=b0aa13fd-c47a-46ab-9688-5b039a967c39"},"vehicle_type_id":"4","last_reported":1734102586,"current_range_meters":38800,"station_id":"ce4bh0h2rcd13ifvqd60","pricing_plan_id":"cebpf4jnsgd1na2vs0mg"},{"bike_id":"d87ba911-d3aa-4936-9d4f-72ef00c85519","system_id":"levelo_inurba_marseille","lat":43.28899,"lon":5.36121,"is_reserved":false,"is_disabled":false,"rental_uris":{"android":"levelo://app?vid=d87ba911-d3aa-4936-9d4f-72ef00c85519","ios":"levelo://app?vid=d87ba911-d3aa-4936-9d4f-72ef00c85519"},"vehicle_type_id":"4","last_reported":1734102586,"current_range_meters":30800,"station_id":"","pricing_plan_id":"cebpf4jnsgd1na2vs0mg"},{"bike_id":"a3c888cf-f755-4305-b37d-7ad0a1c2f3df","system_id":"levelo_inurba_marseille","lat":43.26565,"lon":5.39009,"is_reserved":false,"is_disabled":false,"rental_uris":{"android":"levelo://app?vid=a3c888cf-f755-4305-b37d-7ad0a1c2f3df","ios":"levelo://app?vid=a3c888cf-f755-4305-b37d-7ad0a1c2f3df"},"vehicle_type_id":"4","last_reported":1734102586,"current_range_meters":14400,"station_id":"ce4bhe12rcd13ifvqf30","pricing_plan_id":"cebpf4jnsgd1na2vs0mg"},{"bike_id":"72c3906b-b608-44de-a3ad-888baf0246ea","system_id":"levelo_inurba_marseille","lat":43.27904,"lon":5.3802,"is_reserved":false,"is_disabled":false,"rental_uris":{"android":"levelo://app?vid=72c3906b-b608-44de-a3ad-888baf0246ea","ios":"levelo://app?vid=72c3906b-b608-44de-a3ad-888baf0246ea"},"vehicle_type_id":"4","last_reported":1734102586,"current_range_meters":19200,"station_id":"ce4bhf92rcd13ifvqf50","pricing_plan_id":"cebpf4jnsgd1na2vs0mg"},{"bike_id":"18449eca-7cd4-4637-aad8-d740a9109818","system_id":"levelo_inurba_marseille","lat":43.26803,"lon":5.4026,"is_reserved":false,"is_disabled":false,"rental_uris":{"android":"levelo://app?vid=18449eca-7cd4-4637-aad8-d740a9109818","ios":"levelo://app?vid=18449eca-7cd4-4637-aad8-d740a9109818"},"vehicle_type_id":"4","last_reported":1734102586,"current_range_meters":38400,"station_id":"ce501612rcd8frsf0b60","pricing_plan_id":"cebpf4jnsgd1na2vs0mg"},{"bike_id":"34e4619a-c0b1-431b-9d78-b8dd63c0c3a3","system_id":"levelo_inurba_marseille","lat":43.30803,"lon":5.38161,"is_reserved":false,"is_disabled":true,"rental_uris":{"android":"levelo://app?vid=34e4619a-c0b1-431b-9d78-b8dd63c0c3a3","ios":"levelo://app?vid=34e4619a-c0b1-431b-9d78-b8dd63c0c3a3"},"vehicle_type_id":"4","last_reported":1734102586,"current_range_meters":27200,"station_id":"ce4bgt12rcd13ifvqce0","pricing_plan_id":"cebpf4jnsgd1na2vs0mg"},{"bike_id":"0b08691d-ed94-4236-9a7e-f42e972feee5","system_id":"levelo_inurba_marseille","lat":43.27613,"lon":5.36118,"is_reserved":false,"is_disabled":false,"rental_uris":{"android":"levelo://app?vid=0b08691d-ed94-4236-9a7e-f42e972feee5","ios":"levelo://app?vid=0b08691d-ed94-4236-9a7e-f42e972feee5"},"vehicle_type_id":"4","last_reported":1734102586,"current_range_meters":16400,"station_id":"ce4bgj92rcd13ifvqbe0","pricing_plan_id":"cebpf4jnsgd1na2vs0mg"},{"bike_id":"4351c11b-3b2c-4da3-bdee-2898234311bc","system_id":"levelo_inurba_marseille","lat":43.28568,"lon":5.39499,"is_reserved":false,"is_disabled":false,"rental_uris":{"android":"levelo://app?vid=4351c11b-3b2c-4da3-bdee-2898234311bc","ios":"levelo://app?vid=4351c11b-3b2c-4da3-bdee-2898234311bc"},"vehicle_type_id":"4","last_reported":1734102586,"current_range_meters":2800,"station_id":"ce4bh292rcd13ifvqdg0","pricing_plan_id":"cebpf4jnsgd1na2vs0mg"},{"bike_id":"ed1834cc-513f-4871-b5ce-20d2733bca13","system_id":"levelo_inurba_marseille","lat":43.29702,"lon":5.37705,"is_reserved":false,"is_disabled":false,"rental_uris":{"android":"levelo://app?vid=ed1834cc-513f-4871-b5ce-20d2733bca13","ios":"levelo://app?vid=ed1834cc-513f-4871-b5ce-20d2733bca13"},"vehicle_type_id":"4","last_reported":1734102586,"current_range_meters":30800,"station_id":"ce4bgkh2rcd13ifvqbl0","pricing_plan_id":"cebpf4jnsgd1na2vs0mg"},{"bike_id":"818ef841-d8c0-4c92-9c0c-4a12654cda95","system_id":"levelo_inurba_marseille","lat":43.30595,"lon":5.37265,"is_reserved":false,"is_disabled":false,"rental_uris":{"android":"levelo://app?vid=818ef841-d8c0-4c92-9c0c-4a12654cda95","ios":"levelo://app?vid=818ef841-d8c0-4c92-9c0c-4a12654cda95"},"vehicle_type_id":"4","last_reported":1734102586,"current_range_meters":28000,"station_id":"ce4bgqh2rcd13ifvqc4g","pricing_plan_id":"cebpf4jnsgd1na2vs0mg"},{"bike_id":"de78bc13-10a3-4ec7-bfa0-2b3d5fb981eb","system_id":"levelo_inurba_marseille","lat":43.31834,"lon":5.38089,"is_reserved":false,"is_disabled":false,"rental_uris":{"android":"levelo://app?vid=de78bc13-10a3-4ec7-bfa0-2b3d5fb981eb","ios":"levelo://app?vid=de78bc13-10a3-4ec7-bfa0-2b3d5fb981eb"},"vehicle_type_id":"4","last_reported":1734102586,"current_range_meters":38000,"station_id":"","pricing_plan_id":"cebpf4jnsgd1na2vs0mg"},{"bike_id":"dfb3e551-1fd6-4efe-a533-b3bc1609c2ca","system_id":"levelo_inurba_marseille","lat":43.24802,"lon":5.37455,"is_reserved":false,"is_disabled":false,"rental_uris":{"android":"levelo://app?vid=dfb3e551-1fd6-4efe-a533-b3bc1609c2ca","ios":"levelo://app?vid=dfb3e551-1fd6-4efe-a533-b3bc1609c2ca"},"vehicle_type_id":"4","last_reported":1734102586,"current_range_meters":37600,"station_id":"ce4bhgh2rcd13ifvqfb0","pricing_plan_id":"cebpf4jnsgd1na2vs0mg"},{"bike_id":"5dbe0cc8-0124-4103-a487-3d921e54d4fc","system_id":"levelo_inurba_marseille","lat":43.31077,"lon":5.38351,"is_reserved":false,"is_disabled":false,"rental_uris":{"android":"levelo://app?vid=5dbe0cc8-0124-4103-a487-3d921e54d4fc","ios":"levelo://app?vid=5dbe0cc8-0124-4103-a487-3d921e54d4fc"},"vehicle_type_id":"4","last_reported":1734102586,"current_range_meters":35200,"station_id":"ce4bgv92rcd13ifvqcr0","pricing_plan_id":"cebpf4jnsgd1na2vs0mg"},{"bike_id":"b49413d5-80bf-4f20-a182-1af0fd1da140","system_id":"levelo_inurba_marseille","lat":43.30221,"lon":5.39477,"is_reserved":false,"is_disabled":false,"rental_uris":{"android":"levelo://app?vid=b49413d5-80bf-4f20-a182-1af0fd1da140","ios":"levelo://app?vid=b49413d5-80bf-4f20-a182-1af0fd1da140"},"vehicle_type_id":"4","last_reported":1734102586,"current_range_meters":39200,"station_id":"ce4bh0p2rcd13ifvqd70","pricing_plan_id":"cebpf4jnsgd1na2vs0mg"},{"bike_id":"61599a05-4235-42b1-9bea-399f66e6737e","system_id":"levelo_inurba_marseille","lat":43.29968,"lon":5.38494,"is_reserved":false,"is_disabled":false,"rental_uris":{"android":"levelo://app?vid=61599a05-4235-42b1-9bea-399f66e6737e","ios":"levelo://app?vid=61599a05-4235-42b1-9bea-399f66e6737e"},"vehicle_type_id":"4","last_reported":1734102586,"current_range_meters":19600,"station_id":"ce4bgj92rcd13ifvqbd0","pricing_plan_id":"cebpf4jnsgd1na2vs0mg"},{"bike_id":"ccc9e736-395b-4466-94dc-6a787309142a","system_id":"levelo_inurba_marseille","lat":43.31452,"lon":5.37577,"is_reserved":false,"is_disabled":true,"rental_uris":{"android":"levelo://app?vid=ccc9e736-395b-4466-94dc-6a787309142a","ios":"levelo://app?vid=ccc9e736-395b-4466-94dc-6a787309142a"},"vehicle_type_id":"4","last_reported":1734102586,"current_range_meters":800,"station_id":"","pricing_plan_id":"cebpf4jnsgd1na2vs0mg"},{"bike_id":"97b55a38-976a-4015-b3d7-3ad989b0be89","system_id":"levelo_inurba_marseille","lat":43.33022,"lon":5.39037,"is_reserved":false,"is_disabled":false,"rental_uris":{"android":"levelo://app?vid=97b55a38-976a-4015-b3d7-3ad989b0be89","ios":"levelo://app?vid=97b55a38-976a-4015-b3d7-3ad989b0be89"},"vehicle_type_id":"4","last_reported":1734102586,"current_range_meters":39200,"station_id":"ce4bhr92rcd13ifvqhrg","pricing_plan_id":"cebpf4jnsgd1na2vs0mg"},{"bike_id":"4e8ab36c-f128-49fc-a4e0-3b12b1455292","system_id":"levelo_inurba_marseille","lat":43.29024,"lon":5.38651,"is_reserved":false,"is_disabled":false,"rental_uris":{"android":"levelo://app?vid=4e8ab36c-f128-49fc-a4e0-3b12b1455292","ios":"levelo://app?vid=4e8ab36c-f128-49fc-a4e0-3b12b1455292"},"vehicle_type_id":"4","last_reported":1734102586,"current_range_meters":30400,"station_id":"ce4bh4p2rcd13ifvqe0g","pricing_plan_id":"cebpf4jnsgd1na2vs0mg"},{"bike_id":"265a59a5-1f8b-40cd-bb56-038ad2f60a5d","system_id":"levelo_inurba_marseille","lat":43.29019,"lon":5.39985,"is_reserved":false,"is_disabled":true,"rental_uris":{"android":"levelo://app?vid=265a59a5-1f8b-40cd-bb56-038ad2f60a5d","ios":"levelo://app?vid=265a59a5-1f8b-40cd-bb56-038ad2f60a5d"},"vehicle_type_id":"4","last_reported":1734102586,"current_range_meters":38000,"station_id":"ce4bh392rcd13ifvqdm0","pricing_plan_id":"cebpf4jnsgd1na2vs0mg"},{"bike_id":"6bc7401a-ad66-4e4d-bfd6-a954bc5b40c0","system_id":"levelo_inurba_marseille","lat":43.337527,"lon":5.37441,"is_reserved":false,"is_disabled":false,"rental_uris":{"android":"levelo://app?vid=6bc7401a-ad66-4e4d-bfd6-a954bc5b40c0","ios":"levelo://app?vid=6bc7401a-ad66-4e4d-bfd6-a954bc5b40c0"},"vehicle_type_id":"4","last_reported":1734102586,"current_range_meters":30000,"station_id":"","pricing_plan_id":"cebpf4jnsgd1na2vs0mg"},{"bike_id":"4bac8f48-0631-4c42-a0a3-9215ee2bf75e","system_id":"levelo_inurba_marseille","lat":43.28845,"lon":5.35861,"is_reserved":false,"is_disabled":false,"rental_uris":{"android":"levelo://app?vid=4bac8f48-0631-4c42-a0a3-9215ee2bf75e","ios":"levelo://app?vid=4bac8f48-0631-4c42-a0a3-9215ee2bf75e"},"vehicle_type_id":"4","last_reported":1734102586,"current_range_meters":29600,"station_id":"ce4bhb12rcd13ifvqem0","pricing_plan_id":"cebpf4jnsgd1na2vs0mg"},{"bike_id":"f0a4f587-2333-4a7a-8819-09121e495e1b","system_id":"levelo_inurba_marseille","lat":43.22935,"lon":5.3538,"is_reserved":false,"is_disabled":false,"rental_uris":{"android":"levelo://app?vid=f0a4f587-2333-4a7a-8819-09121e495e1b","ios":"levelo://app?vid=f0a4f587-2333-4a7a-8819-09121e495e1b"},"vehicle_type_id":"4","last_reported":1734102586,"current_range_meters":4400,"station_id":"cpo3532slgdg3j2ikp40","pricing_plan_id":"cebpf4jnsgd1na2vs0mg"},{"bike_id":"d03ed5ce-e520-4069-9e0e-9e1df4579056","system_id":"levelo_inurba_marseille","lat":43.29841,"lon":5.36275,"is_reserved":false,"is_disabled":false,"rental_uris":{"android":"levelo://app?vid=d03ed5ce-e520-4069-9e0e-9e1df4579056","ios":"levelo://app?vid=d03ed5ce-e520-4069-9e0e-9e1df4579056"},"vehicle_type_id":"4","last_reported":1734102586,"current_range_meters":37600,"station_id":"ce4bgpp2rcd13ifvqc3g","pricing_plan_id":"cebpf4jnsgd1na2vs0mg"},{"bike_id":"7ef92d55-7ad7-49c7-b174-ec42f301e973","system_id":"levelo_inurba_marseille","lat":43.31722,"lon":5.42403,"is_reserved":false,"is_disabled":false,"rental_uris":{"android":"levelo://app?vid=7ef92d55-7ad7-49c7-b174-ec42f301e973","ios":"levelo://app?vid=7ef92d55-7ad7-49c7-b174-ec42f301e973"},"vehicle_type_id":"4","last_reported":1734102586,"current_range_meters":38000,"station_id":"ce4bhp92rcd13ifvqhbg","pricing_plan_id":"cebpf4jnsgd1na2vs0mg"},{"bike_id":"2dee43c0-fdea-43a1-b4e6-145a89881ec0","system_id":"levelo_inurba_marseille","lat":43.29034,"lon":5.38646,"is_reserved":false,"is_disabled":false,"rental_uris":{"android":"levelo://app?vid=2dee43c0-fdea-43a1-b4e6-145a89881ec0","ios":"levelo://app?vid=2dee43c0-fdea-43a1-b4e6-145a89881ec0"},"vehicle_type_id":"4","last_reported":1734102586,"current_range_meters":38800,"station_id":"ce4bh4p2rcd13ifvqe0g","pricing_plan_id":"cebpf4jnsgd1na2vs0mg"},{"bike_id":"eb1496f4-67ed-47fd-8660-60023378367f","system_id":"levelo_inurba_marseille","lat":43.294212,"lon":5.374322,"is_reserved":false,"is_disabled":true,"rental_uris":{"android":"levelo://app?vid=eb1496f4-67ed-47fd-8660-60023378367f","ios":"levelo://app?vid=eb1496f4-67ed-47fd-8660-60023378367f"},"vehicle_type_id":"4","last_reported":1734102586,"current_range_meters":0,"station_id":"","pricing_plan_id":"cebpf4jnsgd1na2vs0mg"},{"bike_id":"e00ff95c-e07a-4dcb-8c7a-74e1a33e0f56","system_id":"levelo_inurba_marseille","lat":43.28454,"lon":5.35903,"is_reserved":false,"is_disabled":false,"rental_uris":{"android":"levelo://app?vid=e00ff95c-e07a-4dcb-8c7a-74e1a33e0f56","ios":"levelo://app?vid=e00ff95c-e07a-4dcb-8c7a-74e1a33e0f56"},"vehicle_type_id":"4","last_reported":1734102586,"current_range_meters":38800,"station_id":"ce4bhah2rcd13ifvqei0","pricing_plan_id":"cebpf4jnsgd1na2vs0mg"},{"bike_id":"b6d0feca-9655-4ea5-a518-ab095aa8bc30","system_id":"levelo_inurba_marseille","lat":43.28845,"lon":5.35866,"is_reserved":false,"is_disabled":false,"rental_uris":{"android":"levelo://app?vid=b6d0feca-9655-4ea5-a518-ab095aa8bc30","ios":"levelo://app?vid=b6d0feca-9655-4ea5-a518-ab095aa8bc30"},"vehicle_type_id":"4","last_reported":1734102586,"current_range_meters":6000,"station_id":"ce4bhb12rcd13ifvqem0","pricing_plan_id":"cebpf4jnsgd1na2vs0mg"},{"bike_id":"a2e3bf37-f1e5-4b35-adeb-0da3e0fe69d3","system_id":"levelo_inurba_marseille","lat":43.28638,"lon":5.38608,"is_reserved":false,"is_disabled":true,"rental_uris":{"android":"levelo://app?vid=a2e3bf37-f1e5-4b35-adeb-0da3e0fe69d3","ios":"levelo://app?vid=a2e3bf37-f1e5-4b35-adeb-0da3e0fe69d3"},"vehicle_type_id":"4","last_reported":1734102586,"current_range_meters":0,"station_id":"","pricing_plan_id":"cebpf4jnsgd1na2vs0mg"},{"bike_id":"edbf62ee-bc64-47a8-8d99-9d7a62f67036","system_id":"levelo_inurba_marseille","lat":43.29972,"lon":5.37187,"is_reserved":false,"is_disabled":false,"rental_uris":{"android":"levelo://app?vid=edbf62ee-bc64-47a8-8d99-9d7a62f67036","ios":"levelo://app?vid=edbf62ee-bc64-47a8-8d99-9d7a62f67036"},"vehicle_type_id":"4","last_reported":1734102586,"current_range_meters":14800,"station_id":"ce4bgr92rcd13ifvqc7g","pricing_plan_id":"cebpf4jnsgd1na2vs0mg"},{"bike_id":"1b04d415-10b6-4085-a10e-8bba44c3d11d","system_id":"levelo_inurba_marseille","lat":43.26823,"lon":5.40247,"is_reserved":false,"is_disabled":false,"rental_uris":{"android":"levelo://app?vid=1b04d415-10b6-4085-a10e-8bba44c3d11d","ios":"levelo://app?vid=1b04d415-10b6-4085-a10e-8bba44c3d11d"},"vehicle_type_id":"4","last_reported":1734102586,"current_range_meters":33600,"station_id":"ce501612rcd8frsf0b60","pricing_plan_id":"cebpf4jnsgd1na2vs0mg"},{"bike_id":"0441a8a0-99ac-44d0-a1a7-d4207595c9ab","system_id":"levelo_inurba_marseille","lat":43.30546,"lon":5.36549,"is_reserved":false,"is_disabled":false,"rental_uris":{"android":"levelo://app?vid=0441a8a0-99ac-44d0-a1a7-d4207595c9ab","ios":"levelo://app?vid=0441a8a0-99ac-44d0-a1a7-d4207595c9ab"},"vehicle_type_id":"4","last_reported":1734102586,"current_range_meters":10000,"station_id":"ce4bgs12rcd13ifvqcag","pricing_plan_id":"cebpf4jnsgd1na2vs0mg"},{"bike_id":"17eea0e3-9ed7-499c-9d9a-a53baec02312","system_id":"levelo_inurba_marseille","lat":43.28852,"lon":5.35858,"is_reserved":false,"is_disabled":false,"rental_uris":{"android":"levelo://app?vid=17eea0e3-9ed7-499c-9d9a-a53baec02312","ios":"levelo://app?vid=17eea0e3-9ed7-499c-9d9a-a53baec02312"},"vehicle_type_id":"4","last_reported":1734102586,"current_range_meters":36400,"station_id":"ce4bhb12rcd13ifvqem0","pricing_plan_id":"cebpf4jnsgd1na2vs0mg"},{"bike_id":"ec927667-9164-479a-b446-395f55c955bb","system_id":"levelo_inurba_marseille","lat":43.22924,"lon":5.35383,"is_reserved":false,"is_disabled":false,"rental_uris":{"android":"levelo://app?vid=ec927667-9164-479a-b446-395f55c955bb","ios":"levelo://app?vid=ec927667-9164-479a-b446-395f55c955bb"},"vehicle_type_id":"4","last_reported":1734102586,"current_range_meters":38800,"station_id":"cpo3532slgdg3j2ikp40","pricing_plan_id":"cebpf4jnsgd1na2vs0mg"},{"bike_id":"6c5a781e-39f7-482d-94aa-fe363f58b99c","system_id":"levelo_inurba_marseille","lat":43.29969,"lon":5.37185,"is_reserved":false,"is_disabled":false,"rental_uris":{"android":"levelo://app?vid=6c5a781e-39f7-482d-94aa-fe363f58b99c","ios":"levelo://app?vid=6c5a781e-39f7-482d-94aa-fe363f58b99c"},"vehicle_type_id":"4","last_reported":1734102586,"current_range_meters":20800,"station_id":"ce4bgr92rcd13ifvqc7g","pricing_plan_id":"cebpf4jnsgd1na2vs0mg"},{"bike_id":"0d1fc68b-9b79-41e9-8b2b-e106d261be5e","system_id":"levelo_inurba_marseille","lat":43.29718,"lon":5.37691,"is_reserved":false,"is_disabled":false,"rental_uris":{"android":"levelo://app?vid=0d1fc68b-9b79-41e9-8b2b-e106d261be5e","ios":"levelo://app?vid=0d1fc68b-9b79-41e9-8b2b-e106d261be5e"},"vehicle_type_id":"4","last_reported":1734102586,"current_range_meters":24800,"station_id":"ce4bgkh2rcd13ifvqbl0","pricing_plan_id":"cebpf4jnsgd1na2vs0mg"},{"bike_id":"e74372ac-2a6c-47ae-afc7-e1b4e1c3d13f","system_id":"levelo_inurba_marseille","lat":43.23035,"lon":5.35496,"is_reserved":false,"is_disabled":false,"rental_uris":{"android":"levelo://app?vid=e74372ac-2a6c-47ae-afc7-e1b4e1c3d13f","ios":"levelo://app?vid=e74372ac-2a6c-47ae-afc7-e1b4e1c3d13f"},"vehicle_type_id":"4","last_reported":1734102586,"current_range_meters":38800,"station_id":"cpo3342slgdg3j2ifvpg","pricing_plan_id":"cebpf4jnsgd1na2vs0mg"},{"bike_id":"462f2285-dc7c-4ae1-8cf3-3242b4d177cf","system_id":"levelo_inurba_marseille","lat":43.27073,"lon":5.42281,"is_reserved":false,"is_disabled":false,"rental_uris":{"android":"levelo://app?vid=462f2285-dc7c-4ae1-8cf3-3242b4d177cf","ios":"levelo://app?vid=462f2285-dc7c-4ae1-8cf3-3242b4d177cf"},"vehicle_type_id":"4","last_reported":1734102586,"current_range_meters":11200,"station_id":"ce4bhk92rcd13ifvqgb0","pricing_plan_id":"cebpf4jnsgd1na2vs0mg"},{"bike_id":"e193ef0e-e328-415a-a8ad-7b8f709bf396","system_id":"levelo_inurba_marseille","lat":43.28491,"lon":5.37904,"is_reserved":false,"is_disabled":true,"rental_uris":{"android":"levelo://app?vid=e193ef0e-e328-415a-a8ad-7b8f709bf396","ios":"levelo://app?vid=e193ef0e-e328-415a-a8ad-7b8f709bf396"},"vehicle_type_id":"4","last_reported":1734102586,"current_range_meters":24400,"station_id":"","pricing_plan_id":"cebpf4jnsgd1na2vs0mg"},{"bike_id":"9a6269d5-83ea-4140-ab37-1fa12f16bd71","system_id":"levelo_inurba_marseille","lat":43.31756,"lon":5.3901,"is_reserved":false,"is_disabled":false,"rental_uris":{"android":"levelo://app?vid=9a6269d5-83ea-4140-ab37-1fa12f16bd71","ios":"levelo://app?vid=9a6269d5-83ea-4140-ab37-1fa12f16bd71"},"vehicle_type_id":"4","last_reported":1734102586,"current_range_meters":36000,"station_id":"ce4bhqp2rcd13ifvqhng","pricing_plan_id":"cebpf4jnsgd1na2vs0mg"},{"bike_id":"dc9c821e-2725-4050-8780-a060ff761a8c","system_id":"levelo_inurba_marseille","lat":43.311165,"lon":5.377602,"is_reserved":false,"is_disabled":false,"rental_uris":{"android":"levelo://app?vid=dc9c821e-2725-4050-8780-a060ff761a8c","ios":"levelo://app?vid=dc9c821e-2725-4050-8780-a060ff761a8c"},"vehicle_type_id":"4","last_reported":1734102586,"current_range_meters":38800,"station_id":"ce4bgt92rcd13ifvqcg0","pricing_plan_id":"cebpf4jnsgd1na2vs0mg"},{"bike_id":"1f3bb220-68bc-4ae2-ad43-3a927d11010e","system_id":"levelo_inurba_marseille","lat":43.27055,"lon":5.40267,"is_reserved":false,"is_disabled":false,"rental_uris":{"android":"levelo://app?vid=1f3bb220-68bc-4ae2-ad43-3a927d11010e","ios":"levelo://app?vid=1f3bb220-68bc-4ae2-ad43-3a927d11010e"},"vehicle_type_id":"4","last_reported":1734102586,"current_range_meters":38800,"station_id":"ce4bhk92rcd13ifvqgc0","pricing_plan_id":"cebpf4jnsgd1na2vs0mg"},{"bike_id":"57bbb0a4-9a21-4b29-bb56-0da24d8623b9","system_id":"levelo_inurba_marseille","lat":43.29998,"lon":5.37442,"is_reserved":false,"is_disabled":false,"rental_uris":{"android":"levelo://app?vid=57bbb0a4-9a21-4b29-bb56-0da24d8623b9","ios":"levelo://app?vid=57bbb0a4-9a21-4b29-bb56-0da24d8623b9"},"vehicle_type_id":"4","last_reported":1734102586,"current_range_meters":27600,"station_id":"ce4bgr92rcd13ifvqc7g","pricing_plan_id":"cebpf4jnsgd1na2vs0mg"},{"bike_id":"e17c26a3-0495-447c-8dde-035e82994274","system_id":"levelo_inurba_marseille","lat":43.2928,"lon":5.40125,"is_reserved":false,"is_disabled":false,"rental_uris":{"android":"levelo://app?vid=e17c26a3-0495-447c-8dde-035e82994274","ios":"levelo://app?vid=e17c26a3-0495-447c-8dde-035e82994274"},"vehicle_type_id":"4","last_reported":1734102586,"current_range_meters":36000,"station_id":"ce4bh312rcd13ifvqdk0","pricing_plan_id":"cebpf4jnsgd1na2vs0mg"},{"bike_id":"7c09797a-3be5-43ac-a86a-823f279e69c9","system_id":"levelo_inurba_marseille","lat":43.29734,"lon":5.37691,"is_reserved":false,"is_disabled":false,"rental_uris":{"android":"levelo://app?vid=7c09797a-3be5-43ac-a86a-823f279e69c9","ios":"levelo://app?vid=7c09797a-3be5-43ac-a86a-823f279e69c9"},"vehicle_type_id":"4","last_reported":1734102586,"current_range_meters":38800,"station_id":"ce4bgkh2rcd13ifvqbl0","pricing_plan_id":"cebpf4jnsgd1na2vs0mg"},{"bike_id":"600cf92a-c7f3-45d7-b875-136a9995c250","system_id":"levelo_inurba_marseille","lat":43.25113,"lon":5.40319,"is_reserved":false,"is_disabled":false,"rental_uris":{"android":"levelo://app?vid=600cf92a-c7f3-45d7-b875-136a9995c250","ios":"levelo://app?vid=600cf92a-c7f3-45d7-b875-136a9995c250"},"vehicle_type_id":"4","last_reported":1734102586,"current_range_meters":10800,"station_id":"ce4bhlh2rcd13ifvqgig","pricing_plan_id":"cebpf4jnsgd1na2vs0mg"},{"bike_id":"c35ac8f6-56ee-4406-a628-ca31135984cc","system_id":"levelo_inurba_marseille","lat":43.23183,"lon":5.39984,"is_reserved":false,"is_disabled":false,"rental_uris":{"android":"levelo://app?vid=c35ac8f6-56ee-4406-a628-ca31135984cc","ios":"levelo://app?vid=c35ac8f6-56ee-4406-a628-ca31135984cc"},"vehicle_type_id":"4","last_reported":1734102586,"current_range_meters":24400,"station_id":"ce4bhn12rcd13ifvqgqg","pricing_plan_id":"cebpf4jnsgd1na2vs0mg"},{"bike_id":"f43b60c0-f88c-4e14-af84-90e9e26b07b0","system_id":"levelo_inurba_marseille","lat":43.31345,"lon":5.37276,"is_reserved":false,"is_disabled":false,"rental_uris":{"android":"levelo://app?vid=f43b60c0-f88c-4e14-af84-90e9e26b07b0","ios":"levelo://app?vid=f43b60c0-f88c-4e14-af84-90e9e26b07b0"},"vehicle_type_id":"4","last_reported":1734102586,"current_range_meters":10000,"station_id":"","pricing_plan_id":"cebpf4jnsgd1na2vs0mg"},{"bike_id":"bde168cb-e40d-4d30-9ebd-9cecf4a5254f","system_id":"levelo_inurba_marseille","lat":43.28831,"lon":5.35847,"is_reserved":false,"is_disabled":true,"rental_uris":{"android":"levelo://app?vid=bde168cb-e40d-4d30-9ebd-9cecf4a5254f","ios":"levelo://app?vid=bde168cb-e40d-4d30-9ebd-9cecf4a5254f"},"vehicle_type_id":"4","last_reported":1734102586,"current_range_meters":0,"station_id":"ce4bhb12rcd13ifvqem0","pricing_plan_id":"cebpf4jnsgd1na2vs0mg"},{"bike_id":"c73fd65c-c59e-42a4-9324-c18a4537e298","system_id":"levelo_inurba_marseille","lat":43.31167,"lon":5.38719,"is_reserved":false,"is_disabled":false,"rental_uris":{"android":"levelo://app?vid=c73fd65c-c59e-42a4-9324-c18a4537e298","ios":"levelo://app?vid=c73fd65c-c59e-42a4-9324-c18a4537e298"},"vehicle_type_id":"4","last_reported":1734102586,"current_range_meters":39200,"station_id":"ce4bgv12rcd13ifvqcp0","pricing_plan_id":"cebpf4jnsgd1na2vs0mg"},{"bike_id":"fbc7e8ef-a1a7-4bf7-b94c-b7c2f6725445","system_id":"levelo_inurba_marseille","lat":43.31334,"lon":5.39696,"is_reserved":false,"is_disabled":false,"rental_uris":{"android":"levelo://app?vid=fbc7e8ef-a1a7-4bf7-b94c-b7c2f6725445","ios":"levelo://app?vid=fbc7e8ef-a1a7-4bf7-b94c-b7c2f6725445"},"vehicle_type_id":"4","last_reported":1734102586,"current_range_meters":36400,"station_id":"ce4bgvp2rcd13ifvqcu0","pricing_plan_id":"cebpf4jnsgd1na2vs0mg"},{"bike_id":"db54b76a-dc03-4bb2-9e54-89ef2fc9fe7b","system_id":"levelo_inurba_marseille","lat":43.29876,"lon":5.39737,"is_reserved":false,"is_disabled":false,"rental_uris":{"android":"levelo://app?vid=db54b76a-dc03-4bb2-9e54-89ef2fc9fe7b","ios":"levelo://app?vid=db54b76a-dc03-4bb2-9e54-89ef2fc9fe7b"},"vehicle_type_id":"4","last_reported":1734102586,"current_range_meters":24000,"station_id":"ce4bh0h2rcd13ifvqd50","pricing_plan_id":"cebpf4jnsgd1na2vs0mg"},{"bike_id":"002069da-d74c-4e41-ae54-1da711c0eed6","system_id":"levelo_inurba_marseille","lat":43.285906,"lon":5.41296,"is_reserved":false,"is_disabled":true,"rental_uris":{"android":"levelo://app?vid=002069da-d74c-4e41-ae54-1da711c0eed6","ios":"levelo://app?vid=002069da-d74c-4e41-ae54-1da711c0eed6"},"vehicle_type_id":"4","last_reported":1734102586,"current_range_meters":0,"station_id":"","pricing_plan_id":"cebpf4jnsgd1na2vs0mg"},{"bike_id":"383d718b-71ee-4c45-8695-123073f9fcd7","system_id":"levelo_inurba_marseille","lat":43.26029,"lon":5.37547,"is_reserved":false,"is_disabled":false,"rental_uris":{"android":"levelo://app?vid=383d718b-71ee-4c45-8695-123073f9fcd7","ios":"levelo://app?vid=383d718b-71ee-4c45-8695-123073f9fcd7"},"vehicle_type_id":"4","last_reported":1734102586,"current_range_meters":38800,"station_id":"ce4bhgh2rcd13ifvqfa0","pricing_plan_id":"cebpf4jnsgd1na2vs0mg"},{"bike_id":"003fcc20-75cd-4e78-9b9a-bd60ee138a76","system_id":"levelo_inurba_marseille","lat":43.25567,"lon":5.38252,"is_reserved":false,"is_disabled":false,"rental_uris":{"android":"levelo://app?vid=003fcc20-75cd-4e78-9b9a-bd60ee138a76","ios":"levelo://app?vid=003fcc20-75cd-4e78-9b9a-bd60ee138a76"},"vehicle_type_id":"4","last_reported":1734102586,"current_range_meters":37600,"station_id":"ce4bhih2rcd13ifvqfs0","pricing_plan_id":"cebpf4jnsgd1na2vs0mg"},{"bike_id":"83fcea8f-1e88-49ba-bc20-81aefc165c49","system_id":"levelo_inurba_marseille","lat":43.28459,"lon":5.35884,"is_reserved":false,"is_disabled":false,"rental_uris":{"android":"levelo://app?vid=83fcea8f-1e88-49ba-bc20-81aefc165c49","ios":"levelo://app?vid=83fcea8f-1e88-49ba-bc20-81aefc165c49"},"vehicle_type_id":"4","last_reported":1734102586,"current_range_meters":30800,"station_id":"ce4bhah2rcd13ifvqei0","pricing_plan_id":"cebpf4jnsgd1na2vs0mg"},{"bike_id":"0dc53ed0-703c-41c7-a7ba-e5fe121ea6cc","system_id":"levelo_inurba_marseille","lat":43.2896,"lon":5.37881,"is_reserved":false,"is_disabled":false,"rental_uris":{"android":"levelo://app?vid=0dc53ed0-703c-41c7-a7ba-e5fe121ea6cc","ios":"levelo://app?vid=0dc53ed0-703c-41c7-a7ba-e5fe121ea6cc"},"vehicle_type_id":"4","last_reported":1734102586,"current_range_meters":33200,"station_id":"ce4bh9p2rcd13ifvqed0","pricing_plan_id":"cebpf4jnsgd1na2vs0mg"},{"bike_id":"44762c8e-cc04-433d-bd0d-ed29a861e064","system_id":"levelo_inurba_marseille","lat":43.26776,"lon":5.39421,"is_reserved":false,"is_disabled":false,"rental_uris":{"android":"levelo://app?vid=44762c8e-cc04-433d-bd0d-ed29a861e064","ios":"levelo://app?vid=44762c8e-cc04-433d-bd0d-ed29a861e064"},"vehicle_type_id":"4","last_reported":1734102586,"current_range_meters":6800,"station_id":"ce4bhh12rcd13ifvqfg0","pricing_plan_id":"cebpf4jnsgd1na2vs0mg"},{"bike_id":"1e09aea1-6592-4606-838e-01c5295332d1","system_id":"levelo_inurba_marseille","lat":43.32666,"lon":5.40987,"is_reserved":false,"is_disabled":true,"rental_uris":{"android":"levelo://app?vid=1e09aea1-6592-4606-838e-01c5295332d1","ios":"levelo://app?vid=1e09aea1-6592-4606-838e-01c5295332d1"},"vehicle_type_id":"4","last_reported":1734102586,"current_range_meters":32800,"station_id":"ce4bhpp2rcd13ifvqhgg","pricing_plan_id":"cebpf4jnsgd1na2vs0mg"},{"bike_id":"a590330b-ba5e-4b05-9a5b-39bdae114fa0","system_id":"levelo_inurba_marseille","lat":43.33023,"lon":5.39049,"is_reserved":false,"is_disabled":false,"rental_uris":{"android":"levelo://app?vid=a590330b-ba5e-4b05-9a5b-39bdae114fa0","ios":"levelo://app?vid=a590330b-ba5e-4b05-9a5b-39bdae114fa0"},"vehicle_type_id":"4","last_reported":1734102586,"current_range_meters":10800,"station_id":"ce4bhr92rcd13ifvqhrg","pricing_plan_id":"cebpf4jnsgd1na2vs0mg"},{"bike_id":"be3d60a6-6fb6-4cc8-81d6-6fe96ff5ee23","system_id":"levelo_inurba_marseille","lat":43.230683,"lon":5.354945,"is_reserved":false,"is_disabled":false,"rental_uris":{"android":"levelo://app?vid=be3d60a6-6fb6-4cc8-81d6-6fe96ff5ee23","ios":"levelo://app?vid=be3d60a6-6fb6-4cc8-81d6-6fe96ff5ee23"},"vehicle_type_id":"4","last_reported":1734102586,"current_range_meters":38400,"station_id":"cpo3342slgdg3j2ifvpg","pricing_plan_id":"cebpf4jnsgd1na2vs0mg"},{"bike_id":"2a177ad7-3a85-47c7-b56c-48e29ea6a919","system_id":"levelo_inurba_marseille","lat":43.29603,"lon":5.38109,"is_reserved":false,"is_disabled":false,"rental_uris":{"android":"levelo://app?vid=2a177ad7-3a85-47c7-b56c-48e29ea6a919","ios":"levelo://app?vid=2a177ad7-3a85-47c7-b56c-48e29ea6a919"},"vehicle_type_id":"4","last_reported":1734102586,"current_range_meters":24400,"station_id":"ce4bgl12rcd13ifvqbo0","pricing_plan_id":"cebpf4jnsgd1na2vs0mg"},{"bike_id":"318832c8-cb76-4e72-a2cc-2dfaedd59f28","system_id":"levelo_inurba_marseille","lat":43.297953,"lon":5.38097,"is_reserved":false,"is_disabled":false,"rental_uris":{"android":"levelo://app?vid=318832c8-cb76-4e72-a2cc-2dfaedd59f28","ios":"levelo://app?vid=318832c8-cb76-4e72-a2cc-2dfaedd59f28"},"vehicle_type_id":"4","last_reported":1734102586,"current_range_meters":38400,"station_id":"ce4bgip2rcd13ifvqbb0","pricing_plan_id":"cebpf4jnsgd1na2vs0mg"},{"bike_id":"5a347e26-b262-431b-90c9-dc44152bfdaa","system_id":"levelo_inurba_marseille","lat":43.25008,"lon":5.38929,"is_reserved":false,"is_disabled":false,"rental_uris":{"android":"levelo://app?vid=5a347e26-b262-431b-90c9-dc44152bfdaa","ios":"levelo://app?vid=5a347e26-b262-431b-90c9-dc44152bfdaa"},"vehicle_type_id":"4","last_reported":1734102586,"current_range_meters":39200,"station_id":"ce4bhgp2rcd13ifvqfd0","pricing_plan_id":"cebpf4jnsgd1na2vs0mg"},{"bike_id":"da15a7af-b98b-4274-ab13-f3fc077f857c","system_id":"levelo_inurba_marseille","lat":43.29417,"lon":5.38626,"is_reserved":false,"is_disabled":true,"rental_uris":{"android":"levelo://app?vid=da15a7af-b98b-4274-ab13-f3fc077f857c","ios":"levelo://app?vid=da15a7af-b98b-4274-ab13-f3fc077f857c"},"vehicle_type_id":"4","last_reported":1734102586,"current_range_meters":400,"station_id":"ce4bh2h2rcd13ifvqdh0","pricing_plan_id":"cebpf4jnsgd1na2vs0mg"},{"bike_id":"ebdbc8d5-b290-4e69-aa5c-3c2a17f728a0","system_id":"levelo_inurba_marseille","lat":43.30164,"lon":5.37397,"is_reserved":false,"is_disabled":false,"rental_uris":{"android":"levelo://app?vid=ebdbc8d5-b290-4e69-aa5c-3c2a17f728a0","ios":"levelo://app?vid=ebdbc8d5-b290-4e69-aa5c-3c2a17f728a0"},"vehicle_type_id":"4","last_reported":1734102586,"current_range_meters":38800,"station_id":"ce4bgs92rcd13ifvqcc0","pricing_plan_id":"cebpf4jnsgd1na2vs0mg"},{"bike_id":"9355ab3e-21fd-4863-ba89-65f38c307af7","system_id":"levelo_inurba_marseille","lat":43.29521,"lon":5.37762,"is_reserved":false,"is_disabled":false,"rental_uris":{"android":"levelo://app?vid=9355ab3e-21fd-4863-ba89-65f38c307af7","ios":"levelo://app?vid=9355ab3e-21fd-4863-ba89-65f38c307af7"},"vehicle_type_id":"4","last_reported":1734102586,"current_range_meters":16800,"station_id":"ce4bgkp2rcd13ifvqbmg","pricing_plan_id":"cebpf4jnsgd1na2vs0mg"},{"bike_id":"9332f19c-96e3-47ac-8807-c5c2384614c0","system_id":"levelo_inurba_marseille","lat":43.23055,"lon":5.35507,"is_reserved":false,"is_disabled":false,"rental_uris":{"android":"levelo://app?vid=9332f19c-96e3-47ac-8807-c5c2384614c0","ios":"levelo://app?vid=9332f19c-96e3-47ac-8807-c5c2384614c0"},"vehicle_type_id":"4","last_reported":1734102586,"current_range_meters":6800,"station_id":"cpo3342slgdg3j2ifvpg","pricing_plan_id":"cebpf4jnsgd1na2vs0mg"},{"bike_id":"d903c7a0-8941-429b-9f97-31c04aeae91c","system_id":"levelo_inurba_marseille","lat":43.28847,"lon":5.3583,"is_reserved":false,"is_disabled":false,"rental_uris":{"android":"levelo://app?vid=d903c7a0-8941-429b-9f97-31c04aeae91c","ios":"levelo://app?vid=d903c7a0-8941-429b-9f97-31c04aeae91c"},"vehicle_type_id":"4","last_reported":1734102586,"current_range_meters":38800,"station_id":"ce4bhb12rcd13ifvqem0","pricing_plan_id":"cebpf4jnsgd1na2vs0mg"},{"bike_id":"48df90b3-60a6-410c-9ded-0a619a8f8ff6","system_id":"levelo_inurba_marseille","lat":43.29557,"lon":5.42295,"is_reserved":false,"is_disabled":false,"rental_uris":{"android":"levelo://app?vid=48df90b3-60a6-410c-9ded-0a619a8f8ff6","ios":"levelo://app?vid=48df90b3-60a6-410c-9ded-0a619a8f8ff6"},"vehicle_type_id":"4","last_reported":1734102586,"current_range_meters":38000,"station_id":"ce4bhph2rcd13ifvqhdg","pricing_plan_id":"cebpf4jnsgd1na2vs0mg"},{"bike_id":"7e522f96-83a9-48ae-9b19-01a58b30c285","system_id":"levelo_inurba_marseille","lat":43.30459,"lon":5.379,"is_reserved":false,"is_disabled":false,"rental_uris":{"android":"levelo://app?vid=7e522f96-83a9-48ae-9b19-01a58b30c285","ios":"levelo://app?vid=7e522f96-83a9-48ae-9b19-01a58b30c285"},"vehicle_type_id":"4","last_reported":1734102586,"current_range_meters":2800,"station_id":"ce4bgup2rcd13ifvqcn0","pricing_plan_id":"cebpf4jnsgd1na2vs0mg"},{"bike_id":"a8942e43-f3d6-46fd-8576-2cc6b2787f3e","system_id":"levelo_inurba_marseille","lat":43.33003,"lon":5.39043,"is_reserved":false,"is_disabled":false,"rental_uris":{"android":"levelo://app?vid=a8942e43-f3d6-46fd-8576-2cc6b2787f3e","ios":"levelo://app?vid=a8942e43-f3d6-46fd-8576-2cc6b2787f3e"},"vehicle_type_id":"4","last_reported":1734102586,"current_range_meters":20400,"station_id":"ce4bhr92rcd13ifvqhrg","pricing_plan_id":"cebpf4jnsgd1na2vs0mg"},{"bike_id":"ef3db57d-5b63-4a69-8887-6cc7ded4098d","system_id":"levelo_inurba_marseille","lat":43.29369,"lon":5.37859,"is_reserved":false,"is_disabled":false,"rental_uris":{"android":"levelo://app?vid=ef3db57d-5b63-4a69-8887-6cc7ded4098d","ios":"levelo://app?vid=ef3db57d-5b63-4a69-8887-6cc7ded4098d"},"vehicle_type_id":"4","last_reported":1734102586,"current_range_meters":24400,"station_id":"ce4bgjh2rcd13ifvqbf0","pricing_plan_id":"cebpf4jnsgd1na2vs0mg"},{"bike_id":"36f5ef6a-7d9a-4435-85bf-e5ee11242117","system_id":"levelo_inurba_marseille","lat":43.28832,"lon":5.35871,"is_reserved":false,"is_disabled":false,"rental_uris":{"android":"levelo://app?vid=36f5ef6a-7d9a-4435-85bf-e5ee11242117","ios":"levelo://app?vid=36f5ef6a-7d9a-4435-85bf-e5ee11242117"},"vehicle_type_id":"4","last_reported":1734102586,"current_range_meters":38400,"station_id":"ce4bhb12rcd13ifvqem0","pricing_plan_id":"cebpf4jnsgd1na2vs0mg"},{"bike_id":"225f282b-3073-4357-9356-9088bd7241f7","system_id":"levelo_inurba_marseille","lat":43.26791,"lon":5.40275,"is_reserved":false,"is_disabled":false,"rental_uris":{"android":"levelo://app?vid=225f282b-3073-4357-9356-9088bd7241f7","ios":"levelo://app?vid=225f282b-3073-4357-9356-9088bd7241f7"},"vehicle_type_id":"4","last_reported":1734102586,"current_range_meters":30400,"station_id":"ce501612rcd8frsf0b60","pricing_plan_id":"cebpf4jnsgd1na2vs0mg"},{"bike_id":"2dc7fe9b-b1d4-443b-8bcb-dbe7f31138f0","system_id":"levelo_inurba_marseille","lat":43.30427,"lon":5.37845,"is_reserved":false,"is_disabled":true,"rental_uris":{"android":"levelo://app?vid=2dc7fe9b-b1d4-443b-8bcb-dbe7f31138f0","ios":"levelo://app?vid=2dc7fe9b-b1d4-443b-8bcb-dbe7f31138f0"},"vehicle_type_id":"4","last_reported":1734102586,"current_range_meters":0,"station_id":"ce4bgup2rcd13ifvqcn0","pricing_plan_id":"cebpf4jnsgd1na2vs0mg"},{"bike_id":"87564d6b-4317-473c-b172-6d7f7917155b","system_id":"levelo_inurba_marseille","lat":43.30876,"lon":5.39657,"is_reserved":false,"is_disabled":false,"rental_uris":{"android":"levelo://app?vid=87564d6b-4317-473c-b172-6d7f7917155b","ios":"levelo://app?vid=87564d6b-4317-473c-b172-6d7f7917155b"},"vehicle_type_id":"4","last_reported":1734102586,"current_range_meters":33200,"station_id":"ce4bh012rcd13ifvqcv0","pricing_plan_id":"cebpf4jnsgd1na2vs0mg"},{"bike_id":"d9008dfe-b979-4a11-befa-94d820914500","system_id":"levelo_inurba_marseille","lat":43.2756,"lon":5.38432,"is_reserved":false,"is_disabled":false,"rental_uris":{"android":"levelo://app?vid=d9008dfe-b979-4a11-befa-94d820914500","ios":"levelo://app?vid=d9008dfe-b979-4a11-befa-94d820914500"},"vehicle_type_id":"4","last_reported":1734102586,"current_range_meters":26000,"station_id":"ce4bhh92rcd13ifvqfi0","pricing_plan_id":"cebpf4jnsgd1na2vs0mg"},{"bike_id":"1432cf1d-5f52-496b-8b0f-41af200811c1","system_id":"levelo_inurba_marseille","lat":43.296,"lon":5.37504,"is_reserved":false,"is_disabled":false,"rental_uris":{"android":"levelo://app?vid=1432cf1d-5f52-496b-8b0f-41af200811c1","ios":"levelo://app?vid=1432cf1d-5f52-496b-8b0f-41af200811c1"},"vehicle_type_id":"4","last_reported":1734102586,"current_range_meters":28400,"station_id":"ce4bgh92rcd13ifvqb50","pricing_plan_id":"cebpf4jnsgd1na2vs0mg"},{"bike_id":"b6354536-1262-4e3f-991a-c388c46bfa2e","system_id":"levelo_inurba_marseille","lat":43.31364,"lon":5.38496,"is_reserved":false,"is_disabled":false,"rental_uris":{"android":"levelo://app?vid=b6354536-1262-4e3f-991a-c388c46bfa2e","ios":"levelo://app?vid=b6354536-1262-4e3f-991a-c388c46bfa2e"},"vehicle_type_id":"4","last_reported":1734102586,"current_range_meters":35200,"station_id":"ce4bgt92rcd13ifvqcf0","pricing_plan_id":"cebpf4jnsgd1na2vs0mg"},{"bike_id":"d233cf4a-0f54-4e8d-9828-73e369fbdb18","system_id":"levelo_inurba_marseille","lat":43.28945,"lon":5.36404,"is_reserved":false,"is_disabled":false,"rental_uris":{"android":"levelo://app?vid=d233cf4a-0f54-4e8d-9828-73e369fbdb18","ios":"levelo://app?vid=d233cf4a-0f54-4e8d-9828-73e369fbdb18"},"vehicle_type_id":"4","last_reported":1734102586,"current_range_meters":38800,"station_id":"ce4bhc92rcd13ifvqetg","pricing_plan_id":"cebpf4jnsgd1na2vs0mg"},{"bike_id":"f3cb3fa5-f996-4779-a72c-c8dc29955965","system_id":"levelo_inurba_marseille","lat":43.26561,"lon":5.37305,"is_reserved":false,"is_disabled":false,"rental_uris":{"android":"levelo://app?vid=f3cb3fa5-f996-4779-a72c-c8dc29955965","ios":"levelo://app?vid=f3cb3fa5-f996-4779-a72c-c8dc29955965"},"vehicle_type_id":"4","last_reported":1734102586,"current_range_meters":27200,"station_id":"ce4bhg12rcd13ifvqf70","pricing_plan_id":"cebpf4jnsgd1na2vs0mg"},{"bike_id":"6e6a004b-462d-4b03-aeaa-2611256f0d89","system_id":"levelo_inurba_marseille","lat":43.2812,"lon":5.38936,"is_reserved":false,"is_disabled":true,"rental_uris":{"android":"levelo://app?vid=6e6a004b-462d-4b03-aeaa-2611256f0d89","ios":"levelo://app?vid=6e6a004b-462d-4b03-aeaa-2611256f0d89"},"vehicle_type_id":"4","last_reported":1734102586,"current_range_meters":0,"station_id":"","pricing_plan_id":"cebpf4jnsgd1na2vs0mg"},{"bike_id":"896b0fa9-a884-432f-b6a0-68a0a1aa6006","system_id":"levelo_inurba_marseille","lat":43.29982,"lon":5.3854,"is_reserved":false,"is_disabled":false,"rental_uris":{"android":"levelo://app?vid=896b0fa9-a884-432f-b6a0-68a0a1aa6006","ios":"levelo://app?vid=896b0fa9-a884-432f-b6a0-68a0a1aa6006"},"vehicle_type_id":"4","last_reported":1734102586,"current_range_meters":37600,"station_id":"ce4bgj92rcd13ifvqbd0","pricing_plan_id":"cebpf4jnsgd1na2vs0mg"},{"bike_id":"14845a8f-c0c8-4311-843d-ef820014914a","system_id":"levelo_inurba_marseille","lat":43.26802,"lon":5.40273,"is_reserved":false,"is_disabled":false,"rental_uris":{"android":"levelo://app?vid=14845a8f-c0c8-4311-843d-ef820014914a","ios":"levelo://app?vid=14845a8f-c0c8-4311-843d-ef820014914a"},"vehicle_type_id":"4","last_reported":1734102586,"current_range_meters":36800,"station_id":"ce501612rcd8frsf0b60","pricing_plan_id":"cebpf4jnsgd1na2vs0mg"},{"bike_id":"7ed717ae-c9fd-42f5-be65-845966da6b46","system_id":"levelo_inurba_marseille","lat":43.33762,"lon":5.37442,"is_reserved":false,"is_disabled":false,"rental_uris":{"android":"levelo://app?vid=7ed717ae-c9fd-42f5-be65-845966da6b46","ios":"levelo://app?vid=7ed717ae-c9fd-42f5-be65-845966da6b46"},"vehicle_type_id":"4","last_reported":1734102586,"current_range_meters":38400,"station_id":"","pricing_plan_id":"cebpf4jnsgd1na2vs0mg"},{"bike_id":"d6fffe95-279f-4f4a-acf8-3816725ad43e","system_id":"levelo_inurba_marseille","lat":43.30796,"lon":5.3766,"is_reserved":false,"is_disabled":false,"rental_uris":{"android":"levelo://app?vid=d6fffe95-279f-4f4a-acf8-3816725ad43e","ios":"levelo://app?vid=d6fffe95-279f-4f4a-acf8-3816725ad43e"},"vehicle_type_id":"4","last_reported":1734102586,"current_range_meters":38800,"station_id":"ce4bgv92rcd13ifvqcq0","pricing_plan_id":"cebpf4jnsgd1na2vs0mg"},{"bike_id":"fe1bd84d-5958-4aab-bead-e2dfc74722c9","system_id":"levelo_inurba_marseille","lat":43.29026,"lon":5.38649,"is_reserved":false,"is_disabled":false,"rental_uris":{"android":"levelo://app?vid=fe1bd84d-5958-4aab-bead-e2dfc74722c9","ios":"levelo://app?vid=fe1bd84d-5958-4aab-bead-e2dfc74722c9"},"vehicle_type_id":"4","last_reported":1734102586,"current_range_meters":26000,"station_id":"ce4bh4p2rcd13ifvqe0g","pricing_plan_id":"cebpf4jnsgd1na2vs0mg"},{"bike_id":"2d1f5de4-ddc0-49a4-ad52-68f1f903b108","system_id":"levelo_inurba_marseille","lat":43.26555,"lon":5.37285,"is_reserved":false,"is_disabled":true,"rental_uris":{"android":"levelo://app?vid=2d1f5de4-ddc0-49a4-ad52-68f1f903b108","ios":"levelo://app?vid=2d1f5de4-ddc0-49a4-ad52-68f1f903b108"},"vehicle_type_id":"4","last_reported":1734102586,"current_range_meters":0,"station_id":"ce4bhg12rcd13ifvqf70","pricing_plan_id":"cebpf4jnsgd1na2vs0mg"},{"bike_id":"1340c5e3-d5f0-40d5-ba9c-52f23fa31443","system_id":"levelo_inurba_marseille","lat":43.30306,"lon":5.36893,"is_reserved":false,"is_disabled":true,"rental_uris":{"android":"levelo://app?vid=1340c5e3-d5f0-40d5-ba9c-52f23fa31443","ios":"levelo://app?vid=1340c5e3-d5f0-40d5-ba9c-52f23fa31443"},"vehicle_type_id":"4","last_reported":1734102586,"current_range_meters":0,"station_id":"ce4bgqh2rcd13ifvqc5g","pricing_plan_id":"cebpf4jnsgd1na2vs0mg"},{"bike_id":"e738fcc8-c725-46f1-b7fe-8f522bd56ad4","system_id":"levelo_inurba_marseille","lat":43.22932,"lon":5.35375,"is_reserved":false,"is_disabled":false,"rental_uris":{"android":"levelo://app?vid=e738fcc8-c725-46f1-b7fe-8f522bd56ad4","ios":"levelo://app?vid=e738fcc8-c725-46f1-b7fe-8f522bd56ad4"},"vehicle_type_id":"4","last_reported":1734102586,"current_range_meters":6400,"station_id":"cpo3532slgdg3j2ikp40","pricing_plan_id":"cebpf4jnsgd1na2vs0mg"},{"bike_id":"978bce4a-4ce2-4d4c-9dc7-c42a0edfcb96","system_id":"levelo_inurba_marseille","lat":43.23154,"lon":5.43716,"is_reserved":false,"is_disabled":true,"rental_uris":{"android":"levelo://app?vid=978bce4a-4ce2-4d4c-9dc7-c42a0edfcb96","ios":"levelo://app?vid=978bce4a-4ce2-4d4c-9dc7-c42a0edfcb96"},"vehicle_type_id":"4","last_reported":1734102586,"current_range_meters":0,"station_id":"ce4bhmp2rcd13ifvqgog","pricing_plan_id":"cebpf4jnsgd1na2vs0mg"},{"bike_id":"869c77dd-fd54-44af-81c5-6db638c0b222","system_id":"levelo_inurba_marseille","lat":43.30335,"lon":5.4044,"is_reserved":false,"is_disabled":false,"rental_uris":{"android":"levelo://app?vid=869c77dd-fd54-44af-81c5-6db638c0b222","ios":"levelo://app?vid=869c77dd-fd54-44af-81c5-6db638c0b222"},"vehicle_type_id":"4","last_reported":1734102586,"current_range_meters":38800,"station_id":"ce4bh012rcd13ifvqd10","pricing_plan_id":"cebpf4jnsgd1na2vs0mg"},{"bike_id":"7965bd8b-65b9-4460-9e65-36f253ebc53b","system_id":"levelo_inurba_marseille","lat":43.32052,"lon":5.41549,"is_reserved":false,"is_disabled":false,"rental_uris":{"android":"levelo://app?vid=7965bd8b-65b9-4460-9e65-36f253ebc53b","ios":"levelo://app?vid=7965bd8b-65b9-4460-9e65-36f253ebc53b"},"vehicle_type_id":"4","last_reported":1734102586,"current_range_meters":23200,"station_id":"ce4bhq92rcd13ifvqhkg","pricing_plan_id":"cebpf4jnsgd1na2vs0mg"},{"bike_id":"0ffc6b8d-2ddb-4335-86e7-92f0e64a897e","system_id":"levelo_inurba_marseille","lat":43.29857,"lon":5.36295,"is_reserved":false,"is_disabled":false,"rental_uris":{"android":"levelo://app?vid=0ffc6b8d-2ddb-4335-86e7-92f0e64a897e","ios":"levelo://app?vid=0ffc6b8d-2ddb-4335-86e7-92f0e64a897e"},"vehicle_type_id":"4","last_reported":1734102586,"current_range_meters":4000,"station_id":"ce4bgpp2rcd13ifvqc3g","pricing_plan_id":"cebpf4jnsgd1na2vs0mg"},{"bike_id":"e5192aff-1008-4e7e-b82a-23b5df79d920","system_id":"levelo_inurba_marseille","lat":43.29568,"lon":5.42289,"is_reserved":false,"is_disabled":true,"rental_uris":{"android":"levelo://app?vid=e5192aff-1008-4e7e-b82a-23b5df79d920","ios":"levelo://app?vid=e5192aff-1008-4e7e-b82a-23b5df79d920"},"vehicle_type_id":"4","last_reported":1734102586,"current_range_meters":0,"station_id":"ce4bhph2rcd13ifvqhdg","pricing_plan_id":"cebpf4jnsgd1na2vs0mg"},{"bike_id":"4de7d333-0978-4662-802f-4f78e78ee143","system_id":"levelo_inurba_marseille","lat":43.27994,"lon":5.40034,"is_reserved":false,"is_disabled":false,"rental_uris":{"android":"levelo://app?vid=4de7d333-0978-4662-802f-4f78e78ee143","ios":"levelo://app?vid=4de7d333-0978-4662-802f-4f78e78ee143"},"vehicle_type_id":"4","last_reported":1734102586,"current_range_meters":37600,"station_id":"ce4bho92rcd13ifvqh4g","pricing_plan_id":"cebpf4jnsgd1na2vs0mg"},{"bike_id":"400924dc-8f30-43a2-84e4-042f443d3fa7","system_id":"levelo_inurba_marseille","lat":43.24548,"lon":5.39513,"is_reserved":false,"is_disabled":false,"rental_uris":{"android":"levelo://app?vid=400924dc-8f30-43a2-84e4-042f443d3fa7","ios":"levelo://app?vid=400924dc-8f30-43a2-84e4-042f443d3fa7"},"vehicle_type_id":"4","last_reported":1734102586,"current_range_meters":30800,"station_id":"ce4bhlp2rcd13ifvqgjg","pricing_plan_id":"cebpf4jnsgd1na2vs0mg"},{"bike_id":"a5589391-a7e4-412b-9a87-f917b2322580","system_id":"levelo_inurba_marseille","lat":43.23051,"lon":5.35492,"is_reserved":false,"is_disabled":false,"rental_uris":{"android":"levelo://app?vid=a5589391-a7e4-412b-9a87-f917b2322580","ios":"levelo://app?vid=a5589391-a7e4-412b-9a87-f917b2322580"},"vehicle_type_id":"4","last_reported":1734102586,"current_range_meters":38400,"station_id":"cpo3342slgdg3j2ifvpg","pricing_plan_id":"cebpf4jnsgd1na2vs0mg"},{"bike_id":"950745b5-6492-438d-b17c-adeaaa0c16a9","system_id":"levelo_inurba_marseille","lat":43.29528,"lon":5.38544,"is_reserved":false,"is_disabled":false,"rental_uris":{"android":"levelo://app?vid=950745b5-6492-438d-b17c-adeaaa0c16a9","ios":"levelo://app?vid=950745b5-6492-438d-b17c-adeaaa0c16a9"},"vehicle_type_id":"4","last_reported":1734102586,"current_range_meters":26000,"station_id":"ce4bgih2rcd13ifvqba0","pricing_plan_id":"cebpf4jnsgd1na2vs0mg"},{"bike_id":"103e9cb3-a529-4d55-b047-75adf6d60c18","system_id":"levelo_inurba_marseille","lat":43.27961,"lon":5.39941,"is_reserved":false,"is_disabled":true,"rental_uris":{"android":"levelo://app?vid=103e9cb3-a529-4d55-b047-75adf6d60c18","ios":"levelo://app?vid=103e9cb3-a529-4d55-b047-75adf6d60c18"},"vehicle_type_id":"4","last_reported":1734102586,"current_range_meters":0,"station_id":"","pricing_plan_id":"cebpf4jnsgd1na2vs0mg"},{"bike_id":"9f6edf01-748c-401f-9fc5-e91fa31a072c","system_id":"levelo_inurba_marseille","lat":43.33019,"lon":5.39039,"is_reserved":false,"is_disabled":false,"rental_uris":{"android":"levelo://app?vid=9f6edf01-748c-401f-9fc5-e91fa31a072c","ios":"levelo://app?vid=9f6edf01-748c-401f-9fc5-e91fa31a072c"},"vehicle_type_id":"4","last_reported":1734102586,"current_range_meters":38800,"station_id":"ce4bhr92rcd13ifvqhrg","pricing_plan_id":"cebpf4jnsgd1na2vs0mg"},{"bike_id":"cf114bb8-ce3e-43ba-8e23-69bcac3003fd","system_id":"levelo_inurba_marseille","lat":43.33756,"lon":5.3742,"is_reserved":false,"is_disabled":false,"rental_uris":{"android":"levelo://app?vid=cf114bb8-ce3e-43ba-8e23-69bcac3003fd","ios":"levelo://app?vid=cf114bb8-ce3e-43ba-8e23-69bcac3003fd"},"vehicle_type_id":"4","last_reported":1734102586,"current_range_meters":24800,"station_id":"","pricing_plan_id":"cebpf4jnsgd1na2vs0mg"},{"bike_id":"c97feedc-904d-46f1-be6a-00d3ae44948e","system_id":"levelo_inurba_marseille","lat":43.26497,"lon":5.39537,"is_reserved":false,"is_disabled":false,"rental_uris":{"android":"levelo://app?vid=c97feedc-904d-46f1-be6a-00d3ae44948e","ios":"levelo://app?vid=c97feedc-904d-46f1-be6a-00d3ae44948e"},"vehicle_type_id":"4","last_reported":1734102586,"current_range_meters":8800,"station_id":"ce4bhi12rcd13ifvqfq0","pricing_plan_id":"cebpf4jnsgd1na2vs0mg"},{"bike_id":"1edcb435-be97-41f8-aa8c-4a20808cef7c","system_id":"levelo_inurba_marseille","lat":43.26806,"lon":5.40277,"is_reserved":false,"is_disabled":false,"rental_uris":{"android":"levelo://app?vid=1edcb435-be97-41f8-aa8c-4a20808cef7c","ios":"levelo://app?vid=1edcb435-be97-41f8-aa8c-4a20808cef7c"},"vehicle_type_id":"4","last_reported":1734102586,"current_range_meters":4800,"station_id":"ce501612rcd8frsf0b60","pricing_plan_id":"cebpf4jnsgd1na2vs0mg"},{"bike_id":"da2d321d-30bf-4354-b6fb-e4990eab58a0","system_id":"levelo_inurba_marseille","lat":43.2732,"lon":5.39084,"is_reserved":false,"is_disabled":false,"rental_uris":{"android":"levelo://app?vid=da2d321d-30bf-4354-b6fb-e4990eab58a0","ios":"levelo://app?vid=da2d321d-30bf-4354-b6fb-e4990eab58a0"},"vehicle_type_id":"4","last_reported":1734102586,"current_range_meters":10800,"station_id":"ce4bhgp2rcd13ifvqfe0","pricing_plan_id":"cebpf4jnsgd1na2vs0mg"},{"bike_id":"c20734a3-7bdd-4abd-9532-4d0a22f17c80","system_id":"levelo_inurba_marseille","lat":43.29604,"lon":5.37708,"is_reserved":false,"is_disabled":false,"rental_uris":{"android":"levelo://app?vid=c20734a3-7bdd-4abd-9532-4d0a22f17c80","ios":"levelo://app?vid=c20734a3-7bdd-4abd-9532-4d0a22f17c80"},"vehicle_type_id":"4","last_reported":1734102586,"current_range_meters":38400,"station_id":"ce4bgi92rcd13ifvqb90","pricing_plan_id":"cebpf4jnsgd1na2vs0mg"},{"bike_id":"a46e3ccb-8bc2-4640-85fb-260de600c1f9","system_id":"levelo_inurba_marseille","lat":43.33736,"lon":5.37418,"is_reserved":false,"is_disabled":false,"rental_uris":{"android":"levelo://app?vid=a46e3ccb-8bc2-4640-85fb-260de600c1f9","ios":"levelo://app?vid=a46e3ccb-8bc2-4640-85fb-260de600c1f9"},"vehicle_type_id":"4","last_reported":1734102586,"current_range_meters":38800,"station_id":"","pricing_plan_id":"cebpf4jnsgd1na2vs0mg"},{"bike_id":"0676962b-e6d0-4301-b2eb-1a64d605e62b","system_id":"levelo_inurba_marseille","lat":43.33164,"lon":5.38721,"is_reserved":false,"is_disabled":false,"rental_uris":{"android":"levelo://app?vid=0676962b-e6d0-4301-b2eb-1a64d605e62b","ios":"levelo://app?vid=0676962b-e6d0-4301-b2eb-1a64d605e62b"},"vehicle_type_id":"4","last_reported":1734102586,"current_range_meters":30800,"station_id":"","pricing_plan_id":"cebpf4jnsgd1na2vs0mg"},{"bike_id":"8ef058d1-2e7b-4f0c-a166-82c9812eec49","system_id":"levelo_inurba_marseille","lat":43.30922,"lon":5.40151,"is_reserved":false,"is_disabled":false,"rental_uris":{"android":"levelo://app?vid=8ef058d1-2e7b-4f0c-a166-82c9812eec49","ios":"levelo://app?vid=8ef058d1-2e7b-4f0c-a166-82c9812eec49"},"vehicle_type_id":"4","last_reported":1734102586,"current_range_meters":22000,"station_id":"ce4bgvp2rcd13ifvqct0","pricing_plan_id":"cebpf4jnsgd1na2vs0mg"},{"bike_id":"ca3bf6a0-806c-4046-b219-bbea4c2ba646","system_id":"levelo_inurba_marseille","lat":43.23201,"lon":5.35549,"is_reserved":false,"is_disabled":false,"rental_uris":{"android":"levelo://app?vid=ca3bf6a0-806c-4046-b219-bbea4c2ba646","ios":"levelo://app?vid=ca3bf6a0-806c-4046-b219-bbea4c2ba646"},"vehicle_type_id":"4","last_reported":1734102586,"current_range_meters":39200,"station_id":"ce4bhu92rcd13ifvqi70","pricing_plan_id":"cebpf4jnsgd1na2vs0mg"},{"bike_id":"c55818ae-f8a8-462a-89db-411fed4cfa5b","system_id":"levelo_inurba_marseille","lat":43.31075,"lon":5.38349,"is_reserved":false,"is_disabled":false,"rental_uris":{"android":"levelo://app?vid=c55818ae-f8a8-462a-89db-411fed4cfa5b","ios":"levelo://app?vid=c55818ae-f8a8-462a-89db-411fed4cfa5b"},"vehicle_type_id":"4","last_reported":1734102586,"current_range_meters":13600,"station_id":"ce4bgv92rcd13ifvqcr0","pricing_plan_id":"cebpf4jnsgd1na2vs0mg"},{"bike_id":"46b2fdec-0870-4ae2-84dc-b1f57512351e","system_id":"levelo_inurba_marseille","lat":43.337444,"lon":5.374475,"is_reserved":false,"is_disabled":true,"rental_uris":{"android":"levelo://app?vid=46b2fdec-0870-4ae2-84dc-b1f57512351e","ios":"levelo://app?vid=46b2fdec-0870-4ae2-84dc-b1f57512351e"},"vehicle_type_id":"4","last_reported":1734102586,"current_range_meters":0,"station_id":"","pricing_plan_id":"cebpf4jnsgd1na2vs0mg"},{"bike_id":"6cfacfdd-ec66-43ba-8b29-b01b39c814ec","system_id":"levelo_inurba_marseille","lat":43.29031,"lon":5.35907,"is_reserved":false,"is_disabled":false,"rental_uris":{"android":"levelo://app?vid=6cfacfdd-ec66-43ba-8b29-b01b39c814ec","ios":"levelo://app?vid=6cfacfdd-ec66-43ba-8b29-b01b39c814ec"},"vehicle_type_id":"4","last_reported":1734102586,"current_range_meters":18000,"station_id":"ce4bha92rcd13ifvqeg0","pricing_plan_id":"cebpf4jnsgd1na2vs0mg"},{"bike_id":"aa79a861-df04-4624-8727-f17cfda404ba","system_id":"levelo_inurba_marseille","lat":43.32115,"lon":5.36764,"is_reserved":false,"is_disabled":false,"rental_uris":{"android":"levelo://app?vid=aa79a861-df04-4624-8727-f17cfda404ba","ios":"levelo://app?vid=aa79a861-df04-4624-8727-f17cfda404ba"},"vehicle_type_id":"4","last_reported":1734102586,"current_range_meters":38800,"station_id":"ce4bhrh2rcd13ifvqhug","pricing_plan_id":"cebpf4jnsgd1na2vs0mg"},{"bike_id":"cbe01e99-0ff7-479e-ac8d-a89f5a65b0d8","system_id":"levelo_inurba_marseille","lat":43.25579,"lon":5.38236,"is_reserved":false,"is_disabled":false,"rental_uris":{"android":"levelo://app?vid=cbe01e99-0ff7-479e-ac8d-a89f5a65b0d8","ios":"levelo://app?vid=cbe01e99-0ff7-479e-ac8d-a89f5a65b0d8"},"vehicle_type_id":"4","last_reported":1734102586,"current_range_meters":36800,"station_id":"ce4bhih2rcd13ifvqfs0","pricing_plan_id":"cebpf4jnsgd1na2vs0mg"},{"bike_id":"78fd63a2-4d82-4ee7-ab6e-ad6b91af6f4b","system_id":"levelo_inurba_marseille","lat":43.28423,"lon":5.34996,"is_reserved":false,"is_disabled":false,"rental_uris":{"android":"levelo://app?vid=78fd63a2-4d82-4ee7-ab6e-ad6b91af6f4b","ios":"levelo://app?vid=78fd63a2-4d82-4ee7-ab6e-ad6b91af6f4b"},"vehicle_type_id":"4","last_reported":1734102586,"current_range_meters":32000,"station_id":"ce4bhbh2rcd13ifvqepg","pricing_plan_id":"cebpf4jnsgd1na2vs0mg"},{"bike_id":"027efd01-1704-450c-9868-b79312fd3dde","system_id":"levelo_inurba_marseille","lat":43.25728,"lon":5.41107,"is_reserved":false,"is_disabled":false,"rental_uris":{"android":"levelo://app?vid=027efd01-1704-450c-9868-b79312fd3dde","ios":"levelo://app?vid=027efd01-1704-450c-9868-b79312fd3dde"},"vehicle_type_id":"4","last_reported":1734102586,"current_range_meters":38800,"station_id":"ce4bhkp2rcd13ifvqgd0","pricing_plan_id":"cebpf4jnsgd1na2vs0mg"},{"bike_id":"ecbdb7da-22b1-405b-9b8e-6fa5021a2d09","system_id":"levelo_inurba_marseille","lat":43.29973,"lon":5.37149,"is_reserved":false,"is_disabled":false,"rental_uris":{"android":"levelo://app?vid=ecbdb7da-22b1-405b-9b8e-6fa5021a2d09","ios":"levelo://app?vid=ecbdb7da-22b1-405b-9b8e-6fa5021a2d09"},"vehicle_type_id":"4","last_reported":1734102586,"current_range_meters":39200,"station_id":"ce4bgr92rcd13ifvqc7g","pricing_plan_id":"cebpf4jnsgd1na2vs0mg"},{"bike_id":"87d90e29-2713-4c68-826a-052e91d72a23","system_id":"levelo_inurba_marseille","lat":43.30544,"lon":5.36544,"is_reserved":false,"is_disabled":false,"rental_uris":{"android":"levelo://app?vid=87d90e29-2713-4c68-826a-052e91d72a23","ios":"levelo://app?vid=87d90e29-2713-4c68-826a-052e91d72a23"},"vehicle_type_id":"4","last_reported":1734102586,"current_range_meters":29600,"station_id":"ce4bgs12rcd13ifvqcag","pricing_plan_id":"cebpf4jnsgd1na2vs0mg"},{"bike_id":"2439b886-b053-4742-9e64-0c9d960d2098","system_id":"levelo_inurba_marseille","lat":43.33773,"lon":5.37439,"is_reserved":false,"is_disabled":false,"rental_uris":{"android":"levelo://app?vid=2439b886-b053-4742-9e64-0c9d960d2098","ios":"levelo://app?vid=2439b886-b053-4742-9e64-0c9d960d2098"},"vehicle_type_id":"4","last_reported":1734102586,"current_range_meters":38800,"station_id":"","pricing_plan_id":"cebpf4jnsgd1na2vs0mg"},{"bike_id":"2448f112-093b-44a4-8c49-c482af2ba024","system_id":"levelo_inurba_marseille","lat":43.23049,"lon":5.35489,"is_reserved":false,"is_disabled":false,"rental_uris":{"android":"levelo://app?vid=2448f112-093b-44a4-8c49-c482af2ba024","ios":"levelo://app?vid=2448f112-093b-44a4-8c49-c482af2ba024"},"vehicle_type_id":"4","last_reported":1734102586,"current_range_meters":26000,"station_id":"cpo3342slgdg3j2ifvpg","pricing_plan_id":"cebpf4jnsgd1na2vs0mg"},{"bike_id":"4bfa3b33-cae2-4982-bbb3-e7fb84fb7967","system_id":"levelo_inurba_marseille","lat":43.27909,"lon":5.39579,"is_reserved":false,"is_disabled":false,"rental_uris":{"android":"levelo://app?vid=4bfa3b33-cae2-4982-bbb3-e7fb84fb7967","ios":"levelo://app?vid=4bfa3b33-cae2-4982-bbb3-e7fb84fb7967"},"vehicle_type_id":"4","last_reported":1734102586,"current_range_meters":24800,"station_id":"ce4bhf92rcd13ifvqf40","pricing_plan_id":"cebpf4jnsgd1na2vs0mg"},{"bike_id":"cade26dd-3be1-45a4-87e6-a2b7038d8c49","system_id":"levelo_inurba_marseille","lat":43.30934,"lon":5.40141,"is_reserved":false,"is_disabled":false,"rental_uris":{"android":"levelo://app?vid=cade26dd-3be1-45a4-87e6-a2b7038d8c49","ios":"levelo://app?vid=cade26dd-3be1-45a4-87e6-a2b7038d8c49"},"vehicle_type_id":"4","last_reported":1734102586,"current_range_meters":3200,"station_id":"ce4bgvp2rcd13ifvqct0","pricing_plan_id":"cebpf4jnsgd1na2vs0mg"},{"bike_id":"47b83216-658f-475c-8a11-b87ded17aa98","system_id":"levelo_inurba_marseille","lat":43.28006,"lon":5.40007,"is_reserved":false,"is_disabled":false,"rental_uris":{"android":"levelo://app?vid=47b83216-658f-475c-8a11-b87ded17aa98","ios":"levelo://app?vid=47b83216-658f-475c-8a11-b87ded17aa98"},"vehicle_type_id":"4","last_reported":1734102586,"current_range_meters":37600,"station_id":"ce4bho92rcd13ifvqh4g","pricing_plan_id":"cebpf4jnsgd1na2vs0mg"},{"bike_id":"9065d0e5-f2b7-4f9b-b43c-71ceb5ce391a","system_id":"levelo_inurba_marseille","lat":43.22932,"lon":5.35378,"is_reserved":false,"is_disabled":false,"rental_uris":{"android":"levelo://app?vid=9065d0e5-f2b7-4f9b-b43c-71ceb5ce391a","ios":"levelo://app?vid=9065d0e5-f2b7-4f9b-b43c-71ceb5ce391a"},"vehicle_type_id":"4","last_reported":1734102586,"current_range_meters":34800,"station_id":"cpo3532slgdg3j2ikp40","pricing_plan_id":"cebpf4jnsgd1na2vs0mg"},{"bike_id":"36fe7f2d-6b60-46ad-a5d3-ec5715357c26","system_id":"levelo_inurba_marseille","lat":43.337695,"lon":5.374371,"is_reserved":false,"is_disabled":false,"rental_uris":{"android":"levelo://app?vid=36fe7f2d-6b60-46ad-a5d3-ec5715357c26","ios":"levelo://app?vid=36fe7f2d-6b60-46ad-a5d3-ec5715357c26"},"vehicle_type_id":"4","last_reported":1734102586,"current_range_meters":38000,"station_id":"","pricing_plan_id":"cebpf4jnsgd1na2vs0mg"},{"bike_id":"6d05f7ba-808a-4403-b1f3-f8483fec843c","system_id":"levelo_inurba_marseille","lat":43.231827,"lon":5.355592,"is_reserved":false,"is_disabled":false,"rental_uris":{"android":"levelo://app?vid=6d05f7ba-808a-4403-b1f3-f8483fec843c","ios":"levelo://app?vid=6d05f7ba-808a-4403-b1f3-f8483fec843c"},"vehicle_type_id":"4","last_reported":1734102586,"current_range_meters":26800,"station_id":"ce4bhu92rcd13ifvqi70","pricing_plan_id":"cebpf4jnsgd1na2vs0mg"},{"bike_id":"637889e3-94e2-46bc-af58-ccaabaf8741b","system_id":"levelo_inurba_marseille","lat":43.30123,"lon":5.37396,"is_reserved":false,"is_disabled":false,"rental_uris":{"android":"levelo://app?vid=637889e3-94e2-46bc-af58-ccaabaf8741b","ios":"levelo://app?vid=637889e3-94e2-46bc-af58-ccaabaf8741b"},"vehicle_type_id":"4","last_reported":1734102586,"current_range_meters":33200,"station_id":"ce4bgs92rcd13ifvqcc0","pricing_plan_id":"cebpf4jnsgd1na2vs0mg"},{"bike_id":"002001b1-09c4-47ba-9cf7-8be3bee5d9d4","system_id":"levelo_inurba_marseille","lat":43.32996,"lon":5.39018,"is_reserved":false,"is_disabled":false,"rental_uris":{"android":"levelo://app?vid=002001b1-09c4-47ba-9cf7-8be3bee5d9d4","ios":"levelo://app?vid=002001b1-09c4-47ba-9cf7-8be3bee5d9d4"},"vehicle_type_id":"4","last_reported":1734102586,"current_range_meters":24800,"station_id":"ce4bhr92rcd13ifvqhrg","pricing_plan_id":"cebpf4jnsgd1na2vs0mg"},{"bike_id":"2281d3e4-0b1b-418d-8aaa-08d2f663cd5e","system_id":"levelo_inurba_marseille","lat":43.32665,"lon":5.40995,"is_reserved":false,"is_disabled":true,"rental_uris":{"android":"levelo://app?vid=2281d3e4-0b1b-418d-8aaa-08d2f663cd5e","ios":"levelo://app?vid=2281d3e4-0b1b-418d-8aaa-08d2f663cd5e"},"vehicle_type_id":"4","last_reported":1734102586,"current_range_meters":0,"station_id":"ce4bhpp2rcd13ifvqhgg","pricing_plan_id":"cebpf4jnsgd1na2vs0mg"},{"bike_id":"733d48b5-3e3e-4902-9af1-a9d5ec11e190","system_id":"levelo_inurba_marseille","lat":43.27495,"lon":5.42448,"is_reserved":false,"is_disabled":true,"rental_uris":{"android":"levelo://app?vid=733d48b5-3e3e-4902-9af1-a9d5ec11e190","ios":"levelo://app?vid=733d48b5-3e3e-4902-9af1-a9d5ec11e190"},"vehicle_type_id":"4","last_reported":1734102586,"current_range_meters":400,"station_id":"ce4bhn92rcd13ifvqgrg","pricing_plan_id":"cebpf4jnsgd1na2vs0mg"},{"bike_id":"9c8c1480-9ffa-4086-913c-c2125a6eb848","system_id":"levelo_inurba_marseille","lat":43.22931,"lon":5.35378,"is_reserved":false,"is_disabled":false,"rental_uris":{"android":"levelo://app?vid=9c8c1480-9ffa-4086-913c-c2125a6eb848","ios":"levelo://app?vid=9c8c1480-9ffa-4086-913c-c2125a6eb848"},"vehicle_type_id":"4","last_reported":1734102586,"current_range_meters":32000,"station_id":"cpo3532slgdg3j2ikp40","pricing_plan_id":"cebpf4jnsgd1na2vs0mg"},{"bike_id":"b9fe9746-8359-46fb-893f-8867bb03a3a2","system_id":"levelo_inurba_marseille","lat":43.29188,"lon":5.3931,"is_reserved":false,"is_disabled":true,"rental_uris":{"android":"levelo://app?vid=b9fe9746-8359-46fb-893f-8867bb03a3a2","ios":"levelo://app?vid=b9fe9746-8359-46fb-893f-8867bb03a3a2"},"vehicle_type_id":"4","last_reported":1734102586,"current_range_meters":24400,"station_id":"ce4bh192rcd13ifvqdd0","pricing_plan_id":"cebpf4jnsgd1na2vs0mg"},