{"last_updated":1726722567,"ttl":30,"version":"2.2","data":{"bikes":[{"bike_id":"53f85c0f-9bc3-428d-8e67-2607741aa3ee","system_id":"levelo_inurba_marseille","lat":43.3254,"lon":5.4144,"is_reserved":false,"is_disabled":false,"rental_uris":{"android":"levelo://app?vid=53f85c0f-9bc3-428d-8e67-2607741aa3ee","ios":"levelo://app?vid=53f85c0f-9bc3-428d-8e67-2607741aa3ee"},"vehicle_type_id":"4","last_reported":1726722567,"current_range_meters":14400,"station_id":"ce4bhq12rcd13ifvqhhg","pricing_plan_id":"cebpf4jnsgd1na2vs0mg"},{"bike_id":"12679f1c-674e-42f5-9e40-29bc963981ac","system_id":"levelo_inurba_marseille","lat":43.27954,"lon":5.41027,"is_reserved":false,"is_disabled":false,"rental_uris":{"android":"levelo://app?vid=12679f1c-674e-42f5-9e40-29bc963981ac","ios":"levelo://app?vid=12679f1c-674e-42f5-9e40-29bc963981ac"},"vehicle_type_id":"4","last_reported":1726722567,"current_range_meters":35200,"station_id":"ce4bhnp2rcd13ifvqh0g","pricing_plan_id":"cebpf4jnsgd1na2vs0mg"},{"bike_id":"0288d614-6e4f-4934-ad15-cf509b72b6b9","system_id":"levelo_inurba_marseille","lat":43.27491,"lon":5.42454,"is_reserved":false,"is_disabled":false,"rental_uris":{"android":"levelo://app?vid=0288d614-6e4f-4934-ad15-cf509b72b6b9","ios":"levelo://app?vid=0288d614-6e4f-4934-ad15-cf509b72b6b9"},"vehicle_type_id":"4","last_reported":1726722567,"current_range_meters":38400,"station_id":"ce4bhn92rcd13ifvqgrg","pricing_plan_id":"cebpf4jnsgd1na2vs0mg"},{"bike_id":"3eb6c9c2-4c2a-48cf-b6ca-2051c0baa353","system_id":"levelo_inurba_marseille","lat":43.25868,"lon":5.39905,"is_reserved":false,"is_disabled":false,"rental_uris":{"android":"levelo://app?vid=3eb6c9c2-4c2a-48cf-b6ca-2051c0baa353","ios":"levelo://app?vid=3eb6c9c2-4c2a-48cf-b6ca-2051c0baa353"},"vehicle_type_id":"4","last_reported":1726722567,"current_range_meters":32800,"station_id":"ce4bhl92rcd13ifvqghg","pricing_plan_id":"cebpf4jnsgd1na2vs0mg"},{"bike_id":"2b28efac-746d-48a4-98a4-8063646b0c13","system_id":"levelo_inurba_marseille","lat":43.26809,"lon":5.40264,"is_reserved":false,"is_disabled":false,"rental_uris":{"android":"levelo://app?vid=2b28efac-746d-48a4-98a4-8063646b0c13","ios":"levelo://app?vid=2b28efac-746d-48a4-98a4-8063646b0c13"},"vehicle_type_id":"4","last_reported":1726722567,"current_range_meters":28400,"station_id":"ce501612rcd8frsf0b60","pricing_plan_id":"cebpf4jnsgd1na2vs0mg"},{"bike_id":"6a3ddc2a-1be4-4577-a233-5cc468852dcd","system_id":"levelo_inurba_marseille","lat":43.28667,"lon":5.3635,"is_reserved":false,"is_disabled":false,"rental_uris":{"android":"levelo://app?vid=6a3ddc2a-1be4-4577-a233-5cc468852dcd","ios":"levelo://app?vid=6a3ddc2a-1be4-4577-a233-5cc468852dcd"},"vehicle_type_id":"4","last_reported":1726722567,"current_range_meters":38800,"station_id":"ce4bhah2rcd13ifvqej0","pricing_plan_id":"cebpf4jnsgd1na2vs0mg"},{"bike_id":"6cb80f7a-647c-431f-af80-0a5fa80b3e12","system_id":"levelo_inurba_marseille","lat":43.3133,"lon":5.39692,"is_reserved":false,"is_disabled":false,"rental_uris":{"android":"levelo://app?vid=6cb80f7a-647c-431f-af80-0a5fa80b3e12","ios":"levelo://app?vid=6cb80f7a-647c-431f-af80-0a5fa80b3e12"},"vehicle_type_id":"4","last_reported":1726722567,"current_range_meters":12000,"station_id":"ce4bgvp2rcd13ifvqcu0","pricing_plan_id":"cebpf4jnsgd1na2vs0mg"},{"bike_id":"dd0d6c40-5bec-4397-8580-2628aae2ec2a","system_id":"levelo_inurba_marseille","lat":43.22926,"lon":5.3538,"is_reserved":false,"is_disabled":false,"rental_uris":{"android":"levelo://app?vid=dd0d6c40-5bec-4397-8580-2628aae2ec2a","ios":"levelo://app?vid=dd0d6c40-5bec-4397-8580-2628aae2ec2a"},"vehicle_type_id":"4","last_reported":1726722567,"current_range_meters":38000,"station_id":"cpo3532slgdg3j2ikp40","pricing_plan_id":"cebpf4jnsgd1na2vs0mg"},{"bike_id":"64c965d1-5882-4cc1-b789-3a68c462abe0","system_id":"levelo_inurba_marseille","lat":43.29873,"lon":5.43629,"is_reserved":false,"is_disabled":false,"rental_uris":{"android":"levelo://app?vid=64c965d1-5882-4cc1-b789-3a68c462abe0","ios":"levelo://app?vid=64c965d1-5882-4cc1-b789-3a68c462abe0"},"vehicle_type_id":"4","last_reported":1726722567,"current_range_meters":34800,"station_id":"ce4bhpp2rcd13ifvqhfg","pricing_plan_id":"cebpf4jnsgd1na2vs0mg"},{"bike_id":"bacb43fb-672e-47ff-a284-9b934c0afb36","system_id":"levelo_inurba_marseille","lat":43.265,"lon":5.39531,"is_reserved":false,"is_disabled":false,"rental_uris":{"android":"levelo://app?vid=bacb43fb-672e-47ff-a284-9b934c0afb36","ios":"levelo://app?vid=bacb43fb-672e-47ff-a284-9b934c0afb36"},"vehicle_type_id":"4","last_reported":1726722567,"current_range_meters":31200,"station_id":"ce4bhi12rcd13ifvqfq0","pricing_plan_id":"cebpf4jnsgd1na2vs0mg"},{"bike_id":"0d1bc426-802a-417c-a284-12ea603100ea","system_id":"levelo_inurba_marseille","lat":43.31331,"lon":5.3969,"is_reserved":false,"is_disabled":false,"rental_uris":{"android":"levelo://app?vid=0d1bc426-802a-417c-a284-12ea603100ea","ios":"levelo://app?vid=0d1bc426-802a-417c-a284-12ea603100ea"},"vehicle_type_id":"4","last_reported":1726722567,"current_range_meters":23200,"station_id":"ce4bgvp2rcd13ifvqcu0","pricing_plan_id":"cebpf4jnsgd1na2vs0mg"},{"bike_id":"fe5cc69f-135c-4287-96fa-c3129f56eaa3","system_id":"levelo_inurba_marseille","lat":43.29259,"lon":5.40902,"is_reserved":false,"is_disabled":false,"rental_uris":{"android":"levelo://app?vid=fe5cc69f-135c-4287-96fa-c3129f56eaa3","ios":"levelo://app?vid=fe5cc69f-135c-4287-96fa-c3129f56eaa3"},"vehicle_type_id":"4","last_reported":1726722567,"current_range_meters":28800,"station_id":"ce4bh192rcd13ifvqdc0","pricing_plan_id":"cebpf4jnsgd1na2vs0mg"},{"bike_id":"12ca8798-d15b-49cc-a8e7-75f7c34ba400","system_id":"levelo_inurba_marseille","lat":43.33026,"lon":5.39039,"is_reserved":false,"is_disabled":false,"rental_uris":{"android":"levelo://app?vid=12ca8798-d15b-49cc-a8e7-75f7c34ba400","ios":"levelo://app?vid=12ca8798-d15b-49cc-a8e7-75f7c34ba400"},"vehicle_type_id":"4","last_reported":1726722567,"current_range_meters":32400,"station_id":"ce4bhr92rcd13ifvqhrg","pricing_plan_id":"cebpf4jnsgd1na2vs0mg"},{"bike_id":"6cbf7334-272b-475e-b8aa-f44f29cebaae","system_id":"levelo_inurba_marseille","lat":43.30476,"lon":5.379,"is_reserved":false,"is_disabled":false,"rental_uris":{"android":"levelo://app?vid=6cbf7334-272b-475e-b8aa-f44f29cebaae","ios":"levelo://app?vid=6cbf7334-272b-475e-b8aa-f44f29cebaae"},"vehicle_type_id":"4","last_reported":1726722567,"current_range_meters":38800,"station_id":"ce4bgup2rcd13ifvqcn0","pricing_plan_id":"cebpf4jnsgd1na2vs0mg"},{"bike_id":"3f0a2a24-4a5a-47db-939d-31e92accc7a0","system_id":"levelo_inurba_marseille","lat":43.27056,"lon":5.40265,"is_reserved":false,"is_disabled":false,"rental_uris":{"android":"levelo://app?vid=3f0a2a24-4a5a-47db-939d-31e92accc7a0","ios":"levelo://app?vid=3f0a2a24-4a5a-47db-939d-31e92accc7a0"},"vehicle_type_id":"4","last_reported":1726722567,"current_range_meters":10000,"station_id":"ce4bhk92rcd13ifvqgc0","pricing_plan_id":"cebpf4jnsgd1na2vs0mg"},{"bike_id":"6f053d45-12be-48f9-8716-4a49ec88d502","system_id":"levelo_inurba_marseille","lat":43.28425,"lon":5.39175,"is_reserved":false,"is_disabled":false,"rental_uris":{"android":"levelo://app?vid=6f053d45-12be-48f9-8716-4a49ec88d502","ios":"levelo://app?vid=6f053d45-12be-48f9-8716-4a49ec88d502"},"vehicle_type_id":"4","last_reported":1726722567,"current_range_meters":36400,"station_id":"ce4bhoh2rcd13ifvqh5g","pricing_plan_id":"cebpf4jnsgd1na2vs0mg"},{"bike_id":"e532fd53-ad12-4848-82ea-70ac934c1c37","system_id":"levelo_inurba_marseille","lat":43.337444,"lon":5.374475,"is_reserved":false,"is_disabled":false,"rental_uris":{"android":"levelo://app?vid=e532fd53-ad12-4848-82ea-70ac934c1c37","ios":"levelo://app?vid=e532fd53-ad12-4848-82ea-70ac934c1c37"},"vehicle_type_id":"4","last_reported":1726722567,"current_range_meters":17200,"station_id":"","pricing_plan_id":"cebpf4jnsgd1na2vs0mg"},{"bike_id":"16aff90c-07c9-446e-b8cf-7b04ea13322c","system_id":"levelo_inurba_marseille","lat":43.28152,"lon":5.42635,"is_reserved":false,"is_disabled":false,"rental_uris":{"android":"levelo://app?vid=16aff90c-07c9-446e-b8cf-7b04ea13322c","ios":"levelo://app?vid=16aff90c-07c9-446e-b8cf-7b04ea13322c"},"vehicle_type_id":"4","last_reported":1726722567,"current_range_meters":36400,"station_id":"ce4bhnh2rcd13ifvqgug","pricing_plan_id":"cebpf4jnsgd1na2vs0mg"},{"bike_id":"7fcc774b-0393-40d3-ba89-40b45460a7e2","system_id":"levelo_inurba_marseille","lat":43.31693,"lon":5.40464,"is_reserved":false,"is_disabled":false,"rental_uris":{"android":"levelo://app?vid=7fcc774b-0393-40d3-ba89-40b45460a7e2","ios":"levelo://app?vid=7fcc774b-0393-40d3-ba89-40b45460a7e2"},"vehicle_type_id":"4","last_reported":1726722567,"current_range_meters":19200,"station_id":"ce4bh012rcd13ifvqd00","pricing_plan_id":"cebpf4jnsgd1na2vs0mg"},{"bike_id":"9a7bef7e-aa27-4b3e-b3a0-16082888faf1","system_id":"levelo_inurba_marseille","lat":43.25935,"lon":5.40906,"is_reserved":false,"is_disabled":false,"rental_uris":{"android":"levelo://app?vid=9a7bef7e-aa27-4b3e-b3a0-16082888faf1","ios":"levelo://app?vid=9a7bef7e-aa27-4b3e-b3a0-16082888faf1"},"vehicle_type_id":"4","last_reported":1726722567,"current_range_meters":36400,"station_id":"ce4bhm92rcd13ifvqglg","pricing_plan_id":"cebpf4jnsgd1na2vs0mg"},{"bike_id":"e4c9e20e-ec4f-4080-996d-f0df0a493f71","system_id":"levelo_inurba_marseille","lat":43.30331,"lon":5.40437,"is_reserved":false,"is_disabled":false,"rental_uris":{"android":"levelo://app?vid=e4c9e20e-ec4f-4080-996d-f0df0a493f71","ios":"levelo://app?vid=e4c9e20e-ec4f-4080-996d-f0df0a493f71"},"vehicle_type_id":"4","last_reported":1726722567,"current_range_meters":9200,"station_id":"ce4bh012rcd13ifvqd10","pricing_plan_id":"cebpf4jnsgd1na2vs0mg"},{"bike_id":"ab6b454d-e1a8-4eaf-8a0e-951053d26f42","system_id":"levelo_inurba_marseille","lat":43.30201,"lon":5.39464,"is_reserved":false,"is_disabled":false,"rental_uris":{"android":"levelo://app?vid=ab6b454d-e1a8-4eaf-8a0e-951053d26f42","ios":"levelo://app?vid=ab6b454d-e1a8-4eaf-8a0e-951053d26f42"},"vehicle_type_id":"4","last_reported":1726722567,"current_range_meters":24400,"station_id":"ce4bh0p2rcd13ifvqd70","pricing_plan_id":"cebpf4jnsgd1na2vs0mg"},{"bike_id":"2db44151-2f7b-460b-84e2-a13f0a535ee3","system_id":"levelo_inurba_marseille","lat":43.30143,"lon":5.374171,"is_reserved":false,"is_disabled":false,"rental_uris":{"android":"levelo://app?vid=2db44151-2f7b-460b-84e2-a13f0a535ee3","ios":"levelo://app?vid=2db44151-2f7b-460b-84e2-a13f0a535ee3"},"vehicle_type_id":"4","last_reported":1726722567,"current_range_meters":33200,"station_id":"ce4bgs92rcd13ifvqcc0","pricing_plan_id":"cebpf4jnsgd1na2vs0mg"},{"bike_id":"31984896-19d8-4961-9d12-66e62eb7e1b9","system_id":"levelo_inurba_marseille","lat":43.2862,"lon":5.35107,"is_reserved":false,"is_disabled":false,"rental_uris":{"android":"levelo://app?vid=31984896-19d8-4961-9d12-66e62eb7e1b9","ios":"levelo://app?vid=31984896-19d8-4961-9d12-66e62eb7e1b9"},"vehicle_type_id":"4","last_reported":1726722567,"current_range_meters":38000,"station_id":"ce4bhch2rcd13ifvqeug","pricing_plan_id":"cebpf4jnsgd1na2vs0mg"},{"bike_id":"61c3fb8d-f1ae-4f0e-a433-68e4163be93e","system_id":"levelo_inurba_marseille","lat":43.28408,"lon":5.37511,"is_reserved":false,"is_disabled":false,"rental_uris":{"android":"levelo://app?vid=61c3fb8d-f1ae-4f0e-a433-68e4163be93e","ios":"levelo://app?vid=61c3fb8d-f1ae-4f0e-a433-68e4163be93e"},"vehicle_type_id":"4","last_reported":1726722567,"current_range_meters":4800,"station_id":"ce4bh412rcd13ifvqds0","pricing_plan_id":"cebpf4jnsgd1na2vs0mg"},{"bike_id":"e996e3df-b160-4971-a4b8-ae588a6e2273","system_id":"levelo_inurba_marseille","lat":43.31086,"lon":5.42423,"is_reserved":false,"is_disabled":false,"rental_uris":{"android":"levelo://app?vid=e996e3df-b160-4971-a4b8-ae588a6e2273","ios":"levelo://app?vid=e996e3df-b160-4971-a4b8-ae588a6e2273"},"vehicle_type_id":"4","last_reported":1726722567,"current_range_meters":28400,"station_id":"ce4bhp92rcd13ifvqhag","pricing_plan_id":"cebpf4jnsgd1na2vs0mg"},{"bike_id":"74810271-6dca-4928-9cc4-6c7ab5945949","system_id":"levelo_inurba_marseille","lat":43.30892,"lon":5.37183,"is_reserved":false,"is_disabled":false,"rental_uris":{"android":"levelo://app?vid=74810271-6dca-4928-9cc4-6c7ab5945949","ios":"levelo://app?vid=74810271-6dca-4928-9cc4-6c7ab5945949"},"vehicle_type_id":"4","last_reported":1726722567,"current_range_meters":30000,"station_id":"ce4bguh2rcd13ifvqckg","pricing_plan_id":"cebpf4jnsgd1na2vs0mg"},{"bike_id":"1aa3e3b2-159d-4932-a9aa-65a304bbc094","system_id":"levelo_inurba_marseille","lat":43.23192,"lon":5.39983,"is_reserved":false,"is_disabled":false,"rental_uris":{"android":"levelo://app?vid=1aa3e3b2-159d-4932-a9aa-65a304bbc094","ios":"levelo://app?vid=1aa3e3b2-159d-4932-a9aa-65a304bbc094"},"vehicle_type_id":"4","last_reported":1726722567,"current_range_meters":38800,"station_id":"ce4bhn12rcd13ifvqgqg","pricing_plan_id":"cebpf4jnsgd1na2vs0mg"},{"bike_id":"3a50afd2-cdfd-4dd4-900b-cf09c58ce3d6","system_id":"levelo_inurba_marseille","lat":43.27072,"lon":5.42277,"is_reserved":false,"is_disabled":false,"rental_uris":{"android":"levelo://app?vid=3a50afd2-cdfd-4dd4-900b-cf09c58ce3d6","ios":"levelo://app?vid=3a50afd2-cdfd-4dd4-900b-cf09c58ce3d6"},"vehicle_type_id":"4","last_reported":1726722567,"current_range_meters":30000,"station_id":"ce4bhk92rcd13ifvqgb0","pricing_plan_id":"cebpf4jnsgd1na2vs0mg"},{"bike_id":"a97e5b63-323f-49bf-b8f4-10855af50a7b","system_id":"levelo_inurba_marseille","lat":43.28367,"lon":5.38639,"is_reserved":false,"is_disabled":false,"rental_uris":{"android":"levelo://app?vid=a97e5b63-323f-49bf-b8f4-10855af50a7b","ios":"levelo://app?vid=a97e5b63-323f-49bf-b8f4-10855af50a7b"},"vehicle_type_id":"4","last_reported":1726722567,"current_range_meters":36400,"station_id":"ce4bh492rcd13ifvqdvg","pricing_plan_id":"cebpf4jnsgd1na2vs0mg"},{"bike_id":"1990f9ed-b0a9-4db5-8aa8-97b4d764c0af","system_id":"levelo_inurba_marseille","lat":43.26682,"lon":5.38279,"is_reserved":false,"is_disabled":false,"rental_uris":{"android":"levelo://app?vid=1990f9ed-b0a9-4db5-8aa8-97b4d764c0af","ios":"levelo://app?vid=1990f9ed-b0a9-4db5-8aa8-97b4d764c0af"},"vehicle_type_id":"4","last_reported":1726722567,"current_range_meters":38000,"station_id":"ce4bhg92rcd13ifvqf90","pricing_plan_id":"cebpf4jnsgd1na2vs0mg"},{"bike_id":"bed91c9d-d86a-48eb-9707-c4bc0626e228","system_id":"levelo_inurba_marseille","lat":43.24669,"lon":5.38163,"is_reserved":false,"is_disabled":false,"rental_uris":{"android":"levelo://app?vid=bed91c9d-d86a-48eb-9707-c4bc0626e228","ios":"levelo://app?vid=bed91c9d-d86a-48eb-9707-c4bc0626e228"},"vehicle_type_id":"4","last_reported":1726722567,"current_range_meters":25600,"station_id":"ce4bhih2rcd13ifvqfr0","pricing_plan_id":"cebpf4jnsgd1na2vs0mg"},{"bike_id":"c8b16021-ad4f-4c1b-80b1-7d1b9c811227","system_id":"levelo_inurba_marseille","lat":43.32363,"lon":5.38876,"is_reserved":false,"is_disabled":false,"rental_uris":{"android":"levelo://app?vid=c8b16021-ad4f-4c1b-80b1-7d1b9c811227","ios":"levelo://app?vid=c8b16021-ad4f-4c1b-80b1-7d1b9c811227"},"vehicle_type_id":"4","last_reported":1726722567,"current_range_meters":6800,"station_id":"ce4bhqp2rcd13ifvqhog","pricing_plan_id":"cebpf4jnsgd1na2vs0mg"},{"bike_id":"68a7d5ca-7f3c-4e66-a6c0-328197e4d20f","system_id":"levelo_inurba_marseille","lat":43.29009,"lon":5.35614,"is_reserved":false,"is_disabled":false,"rental_uris":{"android":"levelo://app?vid=68a7d5ca-7f3c-4e66-a6c0-328197e4d20f","ios":"levelo://app?vid=68a7d5ca-7f3c-4e66-a6c0-328197e4d20f"},"vehicle_type_id":"4","last_reported":1726722567,"current_range_meters":39200,"station_id":"ce4bhb92rcd13ifvqen0","pricing_plan_id":"cebpf4jnsgd1na2vs0mg"},{"bike_id":"50de8ccf-64bd-477b-8d03-26108308de41","system_id":"levelo_inurba_marseille","lat":43.288025,"lon":5.400157,"is_reserved":false,"is_disabled":false,"rental_uris":{"android":"levelo://app?vid=50de8ccf-64bd-477b-8d03-26108308de41","ios":"levelo://app?vid=50de8ccf-64bd-477b-8d03-26108308de41"},"vehicle_type_id":"4","last_reported":1726722567,"current_range_meters":36800,"station_id":"ce4bhh12rcd13ifvqfg0","pricing_plan_id":"cebpf4jnsgd1na2vs0mg"},{"bike_id":"15936ed4-a2a4-4ebf-8af4-75867624e631","system_id":"levelo_inurba_marseille","lat":43.2981,"lon":5.3711,"is_reserved":false,"is_disabled":false,"rental_uris":{"android":"levelo://app?vid=15936ed4-a2a4-4ebf-8af4-75867624e631","ios":"levelo://app?vid=15936ed4-a2a4-4ebf-8af4-75867624e631"},"vehicle_type_id":"4","last_reported":1726722567,"current_range_meters":38800,"station_id":"ce4bgop2rcd13ifvqc1g","pricing_plan_id":"cebpf4jnsgd1na2vs0mg"},{"bike_id":"06f1b919-967b-45a0-9e5c-c2e5886b2e9c","system_id":"levelo_inurba_marseille","lat":43.30126,"lon":5.39874,"is_reserved":false,"is_disabled":false,"rental_uris":{"android":"levelo://app?vid=06f1b919-967b-45a0-9e5c-c2e5886b2e9c","ios":"levelo://app?vid=06f1b919-967b-45a0-9e5c-c2e5886b2e9c"},"vehicle_type_id":"4","last_reported":1726722567,"current_range_meters":38800,"station_id":"ce4bh0h2rcd13ifvqd40","pricing_plan_id":"cebpf4jnsgd1na2vs0mg"},{"bike_id":"6fca5209-2cfc-475c-bf2d-19e350f4b119","system_id":"levelo_inurba_marseille","lat":43.31169,"lon":5.38707,"is_reserved":false,"is_disabled":false,"rental_uris":{"android":"levelo://app?vid=6fca5209-2cfc-475c-bf2d-19e350f4b119","ios":"levelo://app?vid=6fca5209-2cfc-475c-bf2d-19e350f4b119"},"vehicle_type_id":"4","last_reported":1726722567,"current_range_meters":33200,"station_id":"ce4bgv12rcd13ifvqcp0","pricing_plan_id":"cebpf4jnsgd1na2vs0mg"},{"bike_id":"d2215a02-5977-47d7-a4f8-3dbd554e2366","system_id":"levelo_inurba_marseille","lat":43.31284,"lon":5.4016,"is_reserved":false,"is_disabled":false,"rental_uris":{"android":"levelo://app?vid=d2215a02-5977-47d7-a4f8-3dbd554e2366","ios":"levelo://app?vid=d2215a02-5977-47d7-a4f8-3dbd554e2366"},"vehicle_type_id":"4","last_reported":1726722567,"current_range_meters":30400,"station_id":"ce4bh092rcd13ifvqd30","pricing_plan_id":"cebpf4jnsgd1na2vs0mg"},{"bike_id":"562f8830-0282-4afb-ad74-0edfeab1f1c1","system_id":"levelo_inurba_marseille","lat":43.24071,"lon":5.3776,"is_reserved":false,"is_disabled":false,"rental_uris":{"android":"levelo://app?vid=562f8830-0282-4afb-ad74-0edfeab1f1c1","ios":"levelo://app?vid=562f8830-0282-4afb-ad74-0edfeab1f1c1"},"vehicle_type_id":"4","last_reported":1726722567,"current_range_meters":33200,"station_id":"ce4bhnp2rcd13ifvqgvg","pricing_plan_id":"cebpf4jnsgd1na2vs0mg"},{"bike_id":"90d40abe-b095-4f0b-8811-2a51c6549295","system_id":"levelo_inurba_marseille","lat":43.26055,"lon":5.39395,"is_reserved":false,"is_disabled":false,"rental_uris":{"android":"levelo://app?vid=90d40abe-b095-4f0b-8811-2a51c6549295","ios":"levelo://app?vid=90d40abe-b095-4f0b-8811-2a51c6549295"},"vehicle_type_id":"4","last_reported":1726722567,"current_range_meters":38800,"station_id":"ce4bhh92rcd13ifvqfj0","pricing_plan_id":"cebpf4jnsgd1na2vs0mg"},{"bike_id":"187f7ecf-ccc0-4e0f-a855-d748a5435d6f","system_id":"levelo_inurba_marseille","lat":43.24676,"lon":5.38155,"is_reserved":false,"is_disabled":false,"rental_uris":{"android":"levelo://app?vid=187f7ecf-ccc0-4e0f-a855-d748a5435d6f","ios":"levelo://app?vid=187f7ecf-ccc0-4e0f-a855-d748a5435d6f"},"vehicle_type_id":"4","last_reported":1726722567,"current_range_meters":19200,"station_id":"ce4bhih2rcd13ifvqfr0","pricing_plan_id":"cebpf4jnsgd1na2vs0mg"},{"bike_id":"503364ec-3315-4abd-a585-069a4f356547","system_id":"levelo_inurba_marseille","lat":43.28469,"lon":5.35872,"is_reserved":false,"is_disabled":false,"rental_uris":{"android":"levelo://app?vid=503364ec-3315-4abd-a585-069a4f356547","ios":"levelo://app?vid=503364ec-3315-4abd-a585-069a4f356547"},"vehicle_type_id":"4","last_reported":1726722567,"current_range_meters":38000,"station_id":"ce4bhah2rcd13ifvqei0","pricing_plan_id":"cebpf4jnsgd1na2vs0mg"},{"bike_id":"0a3ffc0e-8e0f-478e-a002-b5e086f1ac54","system_id":"levelo_inurba_marseille","lat":43.25713,"lon":5.41112,"is_reserved":false,"is_disabled":false,"rental_uris":{"android":"levelo://app?vid=0a3ffc0e-8e0f-478e-a002-b5e086f1ac54","ios":"levelo://app?vid=0a3ffc0e-8e0f-478e-a002-b5e086f1ac54"},"vehicle_type_id":"4","last_reported":1726722567,"current_range_meters":37600,"station_id":"ce4bhkp2rcd13ifvqgd0","pricing_plan_id":"cebpf4jnsgd1na2vs0mg"},{"bike_id":"c2272d1c-de85-40c3-8a06-70b6bf4106b7","system_id":"levelo_inurba_marseille","lat":43.30802,"lon":5.43529,"is_reserved":false,"is_disabled":false,"rental_uris":{"android":"levelo://app?vid=c2272d1c-de85-40c3-8a06-70b6bf4106b7","ios":"levelo://app?vid=c2272d1c-de85-40c3-8a06-70b6bf4106b7"},"vehicle_type_id":"4","last_reported":1726722567,"current_range_meters":38000,"station_id":"ce4bhph2rcd13ifvqheg","pricing_plan_id":"cebpf4jnsgd1na2vs0mg"},{"bike_id":"797c8efa-4ed8-4359-a4dc-da2fb4ed6560","system_id":"levelo_inurba_marseille","lat":43.25825,"lon":5.39435,"is_reserved":false,"is_disabled":false,"rental_uris":{"android":"levelo://app?vid=797c8efa-4ed8-4359-a4dc-da2fb4ed6560","ios":"levelo://app?vid=797c8efa-4ed8-4359-a4dc-da2fb4ed6560"},"vehicle_type_id":"4","last_reported":1726722567,"current_range_meters":38800,"station_id":"ce4bhip2rcd13ifvqft0","pricing_plan_id":"cebpf4jnsgd1na2vs0mg"},{"bike_id":"3a25a5b1-9593-4cec-86f9-39274f1b1719","system_id":"levelo_inurba_marseille","lat":43.27568,"lon":5.3842,"is_reserved":false,"is_disabled":false,"rental_uris":{"android":"levelo://app?vid=3a25a5b1-9593-4cec-86f9-39274f1b1719","ios":"levelo://app?vid=3a25a5b1-9593-4cec-86f9-39274f1b1719"},"vehicle_type_id":"4","last_reported":1726722567,"current_range_meters":32400,"station_id":"ce4bhh92rcd13ifvqfi0","pricing_plan_id":"cebpf4jnsgd1na2vs0mg"},{"bike_id":"2a79b0f0-6e76-40e2-8425-8908e5d5a735","system_id":"levelo_inurba_marseille","lat":43.30882,"lon":5.3964,"is_reserved":false,"is_disabled":false,"rental_uris":{"android":"levelo://app?vid=2a79b0f0-6e76-40e2-8425-8908e5d5a735","ios":"levelo://app?vid=2a79b0f0-6e76-40e2-8425-8908e5d5a735"},"vehicle_type_id":"4","last_reported":1726722567,"current_range_meters":28800,"station_id":"ce4bh012rcd13ifvqcv0","pricing_plan_id":"cebpf4jnsgd1na2vs0mg"},{"bike_id":"5c20a958-d490-41db-84a7-f9730ee7ce03","system_id":"levelo_inurba_marseille","lat":43.29568,"lon":5.39967,"is_reserved":false,"is_disabled":false,"rental_uris":{"android":"levelo://app?vid=5c20a958-d490-41db-84a7-f9730ee7ce03","ios":"levelo://app?vid=5c20a958-d490-41db-84a7-f9730ee7ce03"},"vehicle_type_id":"4","last_reported":1726722567,"current_range_meters":19200,"station_id":"ce4bh312rcd13ifvqdj0","pricing_plan_id":"cebpf4jnsgd1na2vs0mg"},{"bike_id":"38b7aaaa-5299-4007-8e90-4889ff1d3ce7","system_id":"levelo_inurba_marseille","lat":43.23149,"lon":5.43719,"is_reserved":false,"is_disabled":false,"rental_uris":{"android":"levelo://app?vid=38b7aaaa-5299-4007-8e90-4889ff1d3ce7","ios":"levelo://app?vid=38b7aaaa-5299-4007-8e90-4889ff1d3ce7"},"vehicle_type_id":"4","last_reported":1726722567,"current_range_meters":38800,"station_id":"ce4bhmp2rcd13ifvqgog","pricing_plan_id":"cebpf4jnsgd1na2vs0mg"},{"bike_id":"ab8b1643-9e7f-47cc-b599-33f414e2c958","system_id":"levelo_inurba_marseille","lat":43.23192,"lon":5.39986,"is_reserved":false,"is_disabled":false,"rental_uris":{"android":"levelo://app?vid=ab8b1643-9e7f-47cc-b599-33f414e2c958","ios":"levelo://app?vid=ab8b1643-9e7f-47cc-b599-33f414e2c958"},"vehicle_type_id":"4","last_reported":1726722567,"current_range_meters":38000,"station_id":"ce4bhn12rcd13ifvqgqg","pricing_plan_id":"cebpf4jnsgd1na2vs0mg"},{"bike_id":"ddc2f7e6-d23b-4d89-96bc-a18a7029d574","system_id":"levelo_inurba_marseille","lat":43.31757,"lon":5.39013,"is_reserved":false,"is_disabled":false,"rental_uris":{"android":"levelo://app?vid=ddc2f7e6-d23b-4d89-96bc-a18a7029d574","ios":"levelo://app?vid=ddc2f7e6-d23b-4d89-96bc-a18a7029d574"},"vehicle_type_id":"4","last_reported":1726722567,"current_range_meters":30800,"station_id":"ce4bhqp2rcd13ifvqhng","pricing_plan_id":"cebpf4jnsgd1na2vs0mg"},{"bike_id":"c2667222-5d26-4d9c-a938-761c480fe584","system_id":"levelo_inurba_marseille","lat":43.3302,"lon":5.39048,"is_reserved":false,"is_disabled":false,"rental_uris":{"android":"levelo://app?vid=c2667222-5d26-4d9c-a938-761c480fe584","ios":"levelo://app?vid=c2667222-5d26-4d9c-a938-761c480fe584"},"vehicle_type_id":"4","last_reported":1726722567,"current_range_meters":8000,"station_id":"ce4bhr92rcd13ifvqhrg","pricing_plan_id":"cebpf4jnsgd1na2vs0mg"},{"bike_id":"fcafa99b-a808-43dd-a42a-2a120b6cb165","system_id":"levelo_inurba_marseille","lat":43.28107,"lon":5.37843,"is_reserved":false,"is_disabled":false,"rental_uris":{"android":"levelo://app?vid=fcafa99b-a808-43dd-a42a-2a120b6cb165","ios":"levelo://app?vid=fcafa99b-a808-43dd-a42a-2a120b6cb165"},"vehicle_type_id":"4","last_reported":1726722567,"current_range_meters":7200,"station_id":"ce4bha12rcd13ifvqee0","pricing_plan_id":"cebpf4jnsgd1na2vs0mg"},{"bike_id":"7c01414b-caf6-4ee1-85f1-2c9de71dff39","system_id":"levelo_inurba_marseille","lat":43.30956,"lon":5.39019,"is_reserved":false,"is_disabled":false,"rental_uris":{"android":"levelo://app?vid=7c01414b-caf6-4ee1-85f1-2c9de71dff39","ios":"levelo://app?vid=7c01414b-caf6-4ee1-85f1-2c9de71dff39"},"vehicle_type_id":"4","last_reported":1726722567,"current_range_meters":38800,"station_id":"ce4bgup2rcd13ifvqco0","pricing_plan_id":"cebpf4jnsgd1na2vs0mg"},{"bike_id":"ddca4962-c40e-46ba-8aef-4fa6c38b3949","system_id":"levelo_inurba_marseille","lat":43.26582,"lon":5.390325,"is_reserved":false,"is_disabled":false,"rental_uris":{"android":"levelo://app?vid=ddca4962-c40e-46ba-8aef-4fa6c38b3949","ios":"levelo://app?vid=ddca4962-c40e-46ba-8aef-4fa6c38b3949"},"vehicle_type_id":"4","last_reported":1726722567,"current_range_meters":24400,"station_id":"ce4bhe12rcd13ifvqf30","pricing_plan_id":"cebpf4jnsgd1na2vs0mg"},{"bike_id":"29c85230-4fc7-4947-8308-e6475be47e8b","system_id":"levelo_inurba_marseille","lat":43.30216,"lon":5.39469,"is_reserved":false,"is_disabled":false,"rental_uris":{"android":"levelo://app?vid=29c85230-4fc7-4947-8308-e6475be47e8b","ios":"levelo://app?vid=29c85230-4fc7-4947-8308-e6475be47e8b"},"vehicle_type_id":"4","last_reported":1726722567,"current_range_meters":38000,"station_id":"ce4bh0p2rcd13ifvqd70","pricing_plan_id":"cebpf4jnsgd1na2vs0mg"},{"bike_id":"31674790-8365-40d2-bdef-19029206a5f3","system_id":"levelo_inurba_marseille","lat":43.30472,"lon":5.37906,"is_reserved":false,"is_disabled":false,"rental_uris":{"android":"levelo://app?vid=31674790-8365-40d2-bdef-19029206a5f3","ios":"levelo://app?vid=31674790-8365-40d2-bdef-19029206a5f3"},"vehicle_type_id":"4","last_reported":1726722567,"current_range_meters":34800,"station_id":"ce4bgup2rcd13ifvqcn0","pricing_plan_id":"cebpf4jnsgd1na2vs0mg"},{"bike_id":"62eb189b-4726-4a15-9e17-9e114ba84d2b","system_id":"levelo_inurba_marseille","lat":43.2721,"lon":5.39178,"is_reserved":false,"is_disabled":false,"rental_uris":{"android":"levelo://app?vid=62eb189b-4726-4a15-9e17-9e114ba84d2b","ios":"levelo://app?vid=62eb189b-4726-4a15-9e17-9e114ba84d2b"},"vehicle_type_id":"4","last_reported":1726722567,"current_range_meters":32800,"station_id":"ce4bhhp2rcd13ifvqfm0","pricing_plan_id":"cebpf4jnsgd1na2vs0mg"},{"bike_id":"b79b65a6-4c6c-4d8f-bb87-c44e3dfdf0aa","system_id":"levelo_inurba_marseille","lat":43.292635,"lon":5.400953,"is_reserved":false,"is_disabled":false,"rental_uris":{"android":"levelo://app?vid=b79b65a6-4c6c-4d8f-bb87-c44e3dfdf0aa","ios":"levelo://app?vid=b79b65a6-4c6c-4d8f-bb87-c44e3dfdf0aa"},"vehicle_type_id":"4","last_reported":1726722567,"current_range_meters":35600,"station_id":"ce4bh312rcd13ifvqdk0","pricing_plan_id":"cebpf4jnsgd1na2vs0mg"},{"bike_id":"9bafb4dc-7b3c-497a-972e-220e15e36475","system_id":"levelo_inurba_marseille","lat":43.31126,"lon":5.37759,"is_reserved":false,"is_disabled":false,"rental_uris":{"android":"levelo://app?vid=9bafb4dc-7b3c-497a-972e-220e15e36475","ios":"levelo://app?vid=9bafb4dc-7b3c-497a-972e-220e15e36475"},"vehicle_type_id":"4","last_reported":1726722567,"current_range_meters":12400,"station_id":"ce4bgt92rcd13ifvqcg0","pricing_plan_id":"cebpf4jnsgd1na2vs0mg"},{"bike_id":"a538cd01-543d-4d95-8352-6985f9eb5891","system_id":"levelo_inurba_marseille","lat":43.31325,"lon":5.39692,"is_reserved":false,"is_disabled":false,"rental_uris":{"android":"levelo://app?vid=a538cd01-543d-4d95-8352-6985f9eb5891","ios":"levelo://app?vid=a538cd01-543d-4d95-8352-6985f9eb5891"},"vehicle_type_id":"4","last_reported":1726722567,"current_range_meters":25200,"station_id":"ce4bgvp2rcd13ifvqcu0","pricing_plan_id":"cebpf4jnsgd1na2vs0mg"},{"bike_id":"1bdaddb0-3afa-41b4-b612-d2bd6db18652","system_id":"levelo_inurba_marseille","lat":43.28104,"lon":5.37838,"is_reserved":false,"is_disabled":false,"rental_uris":{"android":"levelo://app?vid=1bdaddb0-3afa-41b4-b612-d2bd6db18652","ios":"levelo://app?vid=1bdaddb0-3afa-41b4-b612-d2bd6db18652"},"vehicle_type_id":"4","last_reported":1726722567,"current_range_meters":30800,"station_id":"ce4bha12rcd13ifvqee0","pricing_plan_id":"cebpf4jnsgd1na2vs0mg"},{"bike_id":"215e1243-d773-4d5c-99dd-c9c39a44c76c","system_id":"levelo_inurba_marseille","lat":43.31288,"lon":5.40164,"is_reserved":false,"is_disabled":false,"rental_uris":{"android":"levelo://app?vid=215e1243-d773-4d5c-99dd-c9c39a44c76c","ios":"levelo://app?vid=215e1243-d773-4d5c-99dd-c9c39a44c76c"},"vehicle_type_id":"4","last_reported":1726722567,"current_range_meters":39200,"station_id":"ce4bh092rcd13ifvqd30","pricing_plan_id":"cebpf4jnsgd1na2vs0mg"},{"bike_id":"bd0c32ad-ace2-4601-bc1a-c884899eba0e","system_id":"levelo_inurba_marseille","lat":43.31368,"lon":5.38495,"is_reserved":false,"is_disabled":false,"rental_uris":{"android":"levelo://app?vid=bd0c32ad-ace2-4601-bc1a-c884899eba0e","ios":"levelo://app?vid=bd0c32ad-ace2-4601-bc1a-c884899eba0e"},"vehicle_type_id":"4","last_reported":1726722567,"current_range_meters":31200,"station_id":"ce4bgt92rcd13ifvqcf0","pricing_plan_id":"cebpf4jnsgd1na2vs0mg"},{"bike_id":"cf77cca8-17f7-4c5a-80c8-ce308a9f7b62","system_id":"levelo_inurba_marseille","lat":43.27671,"lon":5.38905,"is_reserved":false,"is_disabled":false,"rental_uris":{"android":"levelo://app?vid=cf77cca8-17f7-4c5a-80c8-ce308a9f7b62","ios":"levelo://app?vid=cf77cca8-17f7-4c5a-80c8-ce308a9f7b62"},"vehicle_type_id":"4","last_reported":1726722567,"current_range_meters":37600,"station_id":"ce4bhi12rcd13ifvqfo0","pricing_plan_id":"cebpf4jnsgd1na2vs0mg"},{"bike_id":"a0ea4c20-eeae-4054-a4b5-699b69c4c176","system_id":"levelo_inurba_marseille","lat":43.29558,"lon":5.42287,"is_reserved":false,"is_disabled":false,"rental_uris":{"android":"levelo://app?vid=a0ea4c20-eeae-4054-a4b5-699b69c4c176","ios":"levelo://app?vid=a0ea4c20-eeae-4054-a4b5-699b69c4c176"},"vehicle_type_id":"4","last_reported":1726722567,"current_range_meters":16000,"station_id":"ce4bhph2rcd13ifvqhdg","pricing_plan_id":"cebpf4jnsgd1na2vs0mg"},{"bike_id":"81e22808-3d9b-455a-be94-79e784cb9295","system_id":"levelo_inurba_marseille","lat":43.33017,"lon":5.39034,"is_reserved":false,"is_disabled":false,"rental_uris":{"android":"levelo://app?vid=81e22808-3d9b-455a-be94-79e784cb9295","ios":"levelo://app?vid=81e22808-3d9b-455a-be94-79e784cb9295"},"vehicle_type_id":"4","last_reported":1726722567,"current_range_meters":39200,"station_id":"ce4bhr92rcd13ifvqhrg","pricing_plan_id":"cebpf4jnsgd1na2vs0mg"},{"bike_id":"be1daa72-8cb0-413e-b38f-e08cf175585b","system_id":"levelo_inurba_marseille","lat":43.30247,"lon":5.40079,"is_reserved":false,"is_disabled":false,"rental_uris":{"android":"levelo://app?vid=be1daa72-8cb0-413e-b38f-e08cf175585b","ios":"levelo://app?vid=be1daa72-8cb0-413e-b38f-e08cf175585b"},"vehicle_type_id":"4","last_reported":1726722567,"current_range_meters":36800,"station_id":"ce4bgvh2rcd13ifvqcs0","pricing_plan_id":"cebpf4jnsgd1na2vs0mg"},{"bike_id":"f73cab25-e77c-47a3-8def-b8875f74ecae","system_id":"levelo_inurba_marseille","lat":43.27848,"lon":5.39192,"is_reserved":false,"is_disabled":false,"rental_uris":{"android":"levelo://app?vid=f73cab25-e77c-47a3-8def-b8875f74ecae","ios":"levelo://app?vid=f73cab25-e77c-47a3-8def-b8875f74ecae"},"vehicle_type_id":"4","last_reported":1726722567,"current_range_meters":6800,"station_id":"ce4bhjp2rcd13ifvqga0","pricing_plan_id":"cebpf4jnsgd1na2vs0mg"},{"bike_id":"471f5d2b-6054-4015-b2d1-3adfb1b3fc49","system_id":"levelo_inurba_marseille","lat":43.24069,"lon":5.3776,"is_reserved":false,"is_disabled":false,"rental_uris":{"android":"levelo://app?vid=471f5d2b-6054-4015-b2d1-3adfb1b3fc49","ios":"levelo://app?vid=471f5d2b-6054-4015-b2d1-3adfb1b3fc49"},"vehicle_type_id":"4","last_reported":1726722567,"current_range_meters":8000,"station_id":"ce4bhnp2rcd13ifvqgvg","pricing_plan_id":"cebpf4jnsgd1na2vs0mg"},{"bike_id":"7e1d5be8-2c3f-48ef-aa1e-14f1f3130ebe","system_id":"levelo_inurba_marseille","lat":43.23962,"lon":5.36638,"is_reserved":false,"is_disabled":false,"rental_uris":{"android":"levelo://app?vid=7e1d5be8-2c3f-48ef-aa1e-14f1f3130ebe","ios":"levelo://app?vid=7e1d5be8-2c3f-48ef-aa1e-14f1f3130ebe"},"vehicle_type_id":"4","last_reported":1726722567,"current_range_meters":37600,"station_id":"ce4bhi12rcd13ifvqfp0","pricing_plan_id":"cebpf4jnsgd1na2vs0mg"},{"bike_id":"065a2a60-4855-4dea-b7dd-2a45ee19806d","system_id":"levelo_inurba_marseille","lat":43.28937,"lon":5.36394,"is_reserved":false,"is_disabled":false,"rental_uris":{"android":"levelo://app?vid=065a2a60-4855-4dea-b7dd-2a45ee19806d","ios":"levelo://app?vid=065a2a60-4855-4dea-b7dd-2a45ee19806d"},"vehicle_type_id":"4","last_reported":1726722567,"current_range_meters":38000,"station_id":"ce4bhc92rcd13ifvqetg","pricing_plan_id":"cebpf4jnsgd1na2vs0mg"},{"bike_id":"3478db76-45d7-45d3-b887-36ba03898ebd","system_id":"levelo_inurba_marseille","lat":43.23152,"lon":5.43711,"is_reserved":false,"is_disabled":false,"rental_uris":{"android":"levelo://app?vid=3478db76-45d7-45d3-b887-36ba03898ebd","ios":"levelo://app?vid=3478db76-45d7-45d3-b887-36ba03898ebd"},"vehicle_type_id":"4","last_reported":1726722567,"current_range_meters":38800,"station_id":"ce4bhmp2rcd13ifvqgog","pricing_plan_id":"cebpf4jnsgd1na2vs0mg"},{"bike_id":"c62d3c7a-4410-4d75-888f-2f933ddc6928","system_id":"levelo_inurba_marseille","lat":43.31715,"lon":5.43706,"is_reserved":false,"is_disabled":false,"rental_uris":{"android":"levelo://app?vid=c62d3c7a-4410-4d75-888f-2f933ddc6928","ios":"levelo://app?vid=c62d3c7a-4410-4d75-888f-2f933ddc6928"},"vehicle_type_id":"4","last_reported":1726722567,"current_range_meters":38400,"station_id":"ce4bhp92rcd13ifvqhcg","pricing_plan_id":"cebpf4jnsgd1na2vs0mg"},{"bike_id":"a8cf1998-7f9f-4af3-9620-4b99d5e3ad99","system_id":"levelo_inurba_marseille","lat":43.28465,"lon":5.35881,"is_reserved":false,"is_disabled":false,"rental_uris":{"android":"levelo://app?vid=a8cf1998-7f9f-4af3-9620-4b99d5e3ad99","ios":"levelo://app?vid=a8cf1998-7f9f-4af3-9620-4b99d5e3ad99"},"vehicle_type_id":"4","last_reported":1726722567,"current_range_meters":18000,"station_id":"ce4bhah2rcd13ifvqei0","pricing_plan_id":"cebpf4jnsgd1na2vs0mg"},{"bike_id":"6a40ebd4-6609-423d-b563-24fd2b95477a","system_id":"levelo_inurba_marseille","lat":43.303348,"lon":5.404431,"is_reserved":false,"is_disabled":false,"rental_uris":{"android":"levelo://app?vid=6a40ebd4-6609-423d-b563-24fd2b95477a","ios":"levelo://app?vid=6a40ebd4-6609-423d-b563-24fd2b95477a"},"vehicle_type_id":"4","last_reported":1726722567,"current_range_meters":31200,"station_id":"ce4bh012rcd13ifvqd10","pricing_plan_id":"cebpf4jnsgd1na2vs0mg"},{"bike_id":"86d2fbbc-c469-4ea8-9619-326d1c533696","system_id":"levelo_inurba_marseille","lat":43.25488,"lon":5.37648,"is_reserved":false,"is_disabled":false,"rental_uris":{"android":"levelo://app?vid=86d2fbbc-c469-4ea8-9619-326d1c533696","ios":"levelo://app?vid=86d2fbbc-c469-4ea8-9619-326d1c533696"},"vehicle_type_id":"4","last_reported":1726722567,"current_range_meters":38000,"station_id":"ce4bhh12rcd13ifvqff0","pricing_plan_id":"cebpf4jnsgd1na2vs0mg"},{"bike_id":"52a4eacc-2aea-42e6-ab8c-9b93247667e8","system_id":"levelo_inurba_marseille","lat":43.33731,"lon":5.39184,"is_reserved":false,"is_disabled":false,"rental_uris":{"android":"levelo://app?vid=52a4eacc-2aea-42e6-ab8c-9b93247667e8","ios":"levelo://app?vid=52a4eacc-2aea-42e6-ab8c-9b93247667e8"},"vehicle_type_id":"4","last_reported":1726722567,"current_range_meters":25600,"station_id":"ce4bhr92rcd13ifvqhsg","pricing_plan_id":"cebpf4jnsgd1na2vs0mg"},{"bike_id":"a7ec649a-e17d-4f88-b0c2-2dd13506f258","system_id":"levelo_inurba_marseille","lat":43.28151,"lon":5.42643,"is_reserved":false,"is_disabled":false,"rental_uris":{"android":"levelo://app?vid=a7ec649a-e17d-4f88-b0c2-2dd13506f258","ios":"levelo://app?vid=a7ec649a-e17d-4f88-b0c2-2dd13506f258"},"vehicle_type_id":"4","last_reported":1726722567,"current_range_meters":20800,"station_id":"ce4bhnh2rcd13ifvqgug","pricing_plan_id":"cebpf4jnsgd1na2vs0mg"},{"bike_id":"78302c5c-57ba-443b-b8c7-febe002db022","system_id":"levelo_inurba_marseille","lat":43.28683,"lon":5.38654,"is_reserved":false,"is_disabled":false,"rental_uris":{"android":"levelo://app?vid=78302c5c-57ba-443b-b8c7-febe002db022","ios":"levelo://app?vid=78302c5c-57ba-443b-b8c7-febe002db022"},"vehicle_type_id":"4","last_reported":1726722567,"current_range_meters":38000,"station_id":"ce4bh492rcd13ifvqdug","pricing_plan_id":"cebpf4jnsgd1na2vs0mg"},{"bike_id":"2c2ad4aa-7723-4b5e-80a9-d6122f1b7baf","system_id":"levelo_inurba_marseille","lat":43.25502,"lon":5.37652,"is_reserved":false,"is_disabled":false,"rental_uris":{"android":"levelo://app?vid=2c2ad4aa-7723-4b5e-80a9-d6122f1b7baf","ios":"levelo://app?vid=2c2ad4aa-7723-4b5e-80a9-d6122f1b7baf"},"vehicle_type_id":"4","last_reported":1726722567,"current_range_meters":38000,"station_id":"ce4bhh12rcd13ifvqff0","pricing_plan_id":"cebpf4jnsgd1na2vs0mg"},{"bike_id":"8f63ed9f-0d3a-4ab5-baf2-ef0c4ac64707","system_id":"levelo_inurba_marseille","lat":43.29556,"lon":5.42284,"is_reserved":false,"is_disabled":false,"rental_uris":{"android":"levelo://app?vid=8f63ed9f-0d3a-4ab5-baf2-ef0c4ac64707","ios":"levelo://app?vid=8f63ed9f-0d3a-4ab5-baf2-ef0c4ac64707"},"vehicle_type_id":"4","last_reported":1726722567,"current_range_meters":38800,"station_id":"ce4bhph2rcd13ifvqhdg","pricing_plan_id":"cebpf4jnsgd1na2vs0mg"},{"bike_id":"e9bc85b8-d4a5-405b-b67d-7fd24c60d2e4","system_id":"levelo_inurba_marseille","lat":43.27959,"lon":5.3871,"is_reserved":false,"is_disabled":false,"rental_uris":{"android":"levelo://app?vid=e9bc85b8-d4a5-405b-b67d-7fd24c60d2e4","ios":"levelo://app?vid=e9bc85b8-d4a5-405b-b67d-7fd24c60d2e4"},"vehicle_type_id":"4","last_reported":1726722567,"current_range_meters":38800,"station_id":"ce4bhg12rcd13ifvqf80","pricing_plan_id":"cebpf4jnsgd1na2vs0mg"},{"bike_id":"86d2afc3-1bd4-4fe5-b347-119a3a37d916","system_id":"levelo_inurba_marseille","lat":43.268,"lon":5.4026,"is_reserved":false,"is_disabled":false,"rental_uris":{"android":"levelo://app?vid=86d2afc3-1bd4-4fe5-b347-119a3a37d916","ios":"levelo://app?vid=86d2afc3-1bd4-4fe5-b347-119a3a37d916"},"vehicle_type_id":"4","last_reported":1726722567,"current_range_meters":38800,"station_id":"ce501612rcd8frsf0b60","pricing_plan_id":"cebpf4jnsgd1na2vs0mg"},{"bike_id":"beb15bd0-b449-4862-b0ef-bc6b9508122c","system_id":"levelo_inurba_marseille","lat":43.27619,"lon":5.36097,"is_reserved":false,"is_disabled":false,"rental_uris":{"android":"levelo://app?vid=beb15bd0-b449-4862-b0ef-bc6b9508122c","ios":"levelo://app?vid=beb15bd0-b449-4862-b0ef-bc6b9508122c"},"vehicle_type_id":"4","last_reported":1726722567,"current_range_meters":4800,"station_id":"ce4bgj92rcd13ifvqbe0","pricing_plan_id":"cebpf4jnsgd1na2vs0mg"},{"bike_id":"58bb50e3-d916-4077-8fe5-efcdacba84c1","system_id":"levelo_inurba_marseille","lat":43.29812,"lon":5.40396,"is_reserved":false,"is_disabled":false,"rental_uris":{"android":"levelo://app?vid=58bb50e3-d916-4077-8fe5-efcdacba84c1","ios":"levelo://app?vid=58bb50e3-d916-4077-8fe5-efcdacba84c1"},"vehicle_type_id":"4","last_reported":1726722567,"current_range_meters":8800,"station_id":"ce4bh112rcd13ifvqd90","pricing_plan_id":"cebpf4jnsgd1na2vs0mg"},{"bike_id":"5d78b308-9505-4ed0-832a-dc6eb31a5971","system_id":"levelo_inurba_marseille","lat":43.25582,"lon":5.3824,"is_reserved":false,"is_disabled":false,"rental_uris":{"android":"levelo://app?vid=5d78b308-9505-4ed0-832a-dc6eb31a5971","ios":"levelo://app?vid=5d78b308-9505-4ed0-832a-dc6eb31a5971"},"vehicle_type_id":"4","last_reported":1726722567,"current_range_meters":22000,"station_id":"ce4bhih2rcd13ifvqfs0","pricing_plan_id":"cebpf4jnsgd1na2vs0mg"},{"bike_id":"ba54f573-336a-40ad-b931-1ca2a8b1e077","system_id":"levelo_inurba_marseille","lat":43.25822,"lon":5.39428,"is_reserved":false,"is_disabled":false,"rental_uris":{"android":"levelo://app?vid=ba54f573-336a-40ad-b931-1ca2a8b1e077","ios":"levelo://app?vid=ba54f573-336a-40ad-b931-1ca2a8b1e077"},"vehicle_type_id":"4","last_reported":1726722567,"current_range_meters":36800,"station_id":"ce4bhip2rcd13ifvqft0","pricing_plan_id":"cebpf4jnsgd1na2vs0mg"},{"bike_id":"c4c8acd1-ff3d-4806-8174-cea36604d882","system_id":"levelo_inurba_marseille","lat":43.29949,"lon":5.41318,"is_reserved":false,"is_disabled":false,"rental_uris":{"android":"levelo://app?vid=c4c8acd1-ff3d-4806-8174-cea36604d882","ios":"levelo://app?vid=c4c8acd1-ff3d-4806-8174-cea36604d882"},"vehicle_type_id":"4","last_reported":1726722567,"current_range_meters":32400,"station_id":"ce4bhp12rcd13ifvqh9g","pricing_plan_id":"cebpf4jnsgd1na2vs0mg"},{"bike_id":"7296939a-e07b-445c-bd52-40cde8ccbba2","system_id":"levelo_inurba_marseille","lat":43.26023,"lon":5.3755,"is_reserved":false,"is_disabled":false,"rental_uris":{"android":"levelo://app?vid=7296939a-e07b-445c-bd52-40cde8ccbba2","ios":"levelo://app?vid=7296939a-e07b-445c-bd52-40cde8ccbba2"},"vehicle_type_id":"4","last_reported":1726722567,"current_range_meters":38400,"station_id":"ce4bhgh2rcd13ifvqfa0","pricing_plan_id":"cebpf4jnsgd1na2vs0mg"},{"bike_id":"9ed9a460-9271-4e06-aa0c-9eb70f42c1a7","system_id":"levelo_inurba_marseille","lat":43.2996,"lon":5.41313,"is_reserved":false,"is_disabled":false,"rental_uris":{"android":"levelo://app?vid=9ed9a460-9271-4e06-aa0c-9eb70f42c1a7","ios":"levelo://app?vid=9ed9a460-9271-4e06-aa0c-9eb70f42c1a7"},"vehicle_type_id":"4","last_reported":1726722567,"current_range_meters":14800,"station_id":"ce4bhp12rcd13ifvqh9g","pricing_plan_id":"cebpf4jnsgd1na2vs0mg"},{"bike_id":"a84ccf15-a62f-4b0b-9163-e457f54dff33","system_id":"levelo_inurba_marseille","lat":43.28151,"lon":5.4264,"is_reserved":false,"is_disabled":false,"rental_uris":{"android":"levelo://app?vid=a84ccf15-a62f-4b0b-9163-e457f54dff33","ios":"levelo://app?vid=a84ccf15-a62f-4b0b-9163-e457f54dff33"},"vehicle_type_id":"4","last_reported":1726722567,"current_range_meters":10800,"station_id":"ce4bhnh2rcd13ifvqgug","pricing_plan_id":"cebpf4jnsgd1na2vs0mg"},{"bike_id":"ed88dff4-af81-458a-bbd1-0770ef3c8a66","system_id":"levelo_inurba_marseille","lat":43.31135,"lon":5.37764,"is_reserved":false,"is_disabled":false,"rental_uris":{"android":"levelo://app?vid=ed88dff4-af81-458a-bbd1-0770ef3c8a66","ios":"levelo://app?vid=ed88dff4-af81-458a-bbd1-0770ef3c8a66"},"vehicle_type_id":"4","last_reported":1726722567,"current_range_meters":38000,"station_id":"ce4bgt92rcd13ifvqcg0","pricing_plan_id":"cebpf4jnsgd1na2vs0mg"},{"bike_id":"4f56741b-84aa-4dc7-a8f4-5ceb5a9e3d2a","system_id":"levelo_inurba_marseille","lat":43.28433,"lon":5.34987,"is_reserved":false,"is_disabled":false,"rental_uris":{"android":"levelo://app?vid=4f56741b-84aa-4dc7-a8f4-5ceb5a9e3d2a","ios":"levelo://app?vid=4f56741b-84aa-4dc7-a8f4-5ceb5a9e3d2a"},"vehicle_type_id":"4","last_reported":1726722567,"current_range_meters":38000,"station_id":"ce4bhbh2rcd13ifvqepg","pricing_plan_id":"cebpf4jnsgd1na2vs0mg"},{"bike_id":"cc338b51-de8a-4346-93c7-87ded02658c0","system_id":"levelo_inurba_marseille","lat":43.30874,"lon":5.39635,"is_reserved":false,"is_disabled":false,"rental_uris":{"android":"levelo://app?vid=cc338b51-de8a-4346-93c7-87ded02658c0","ios":"levelo://app?vid=cc338b51-de8a-4346-93c7-87ded02658c0"},"vehicle_type_id":"4","last_reported":1726722567,"current_range_meters":24000,"station_id":"ce4bh012rcd13ifvqcv0","pricing_plan_id":"cebpf4jnsgd1na2vs0mg"},{"bike_id":"7dc72c49-617f-47c4-b0e5-528202463068","system_id":"levelo_inurba_marseille","lat":43.27565,"lon":5.38422,"is_reserved":false,"is_disabled":false,"rental_uris":{"android":"levelo://app?vid=7dc72c49-617f-47c4-b0e5-528202463068","ios":"levelo://app?vid=7dc72c49-617f-47c4-b0e5-528202463068"},"vehicle_type_id":"4","last_reported":1726722567,"current_range_meters":32000,"station_id":"ce4bhh92rcd13ifvqfi0","pricing_plan_id":"cebpf4jnsgd1na2vs0mg"},{"bike_id":"62dbec1d-fa55-48b3-b291-31b55eebbfe1","system_id":"levelo_inurba_marseille","lat":43.2407,"lon":5.37763,"is_reserved":false,"is_disabled":false,"rental_uris":{"android":"levelo://app?vid=62dbec1d-fa55-48b3-b291-31b55eebbfe1","ios":"levelo://app?vid=62dbec1d-fa55-48b3-b291-31b55eebbfe1"},"vehicle_type_id":"4","last_reported":1726722567,"current_range_meters":38800,"station_id":"ce4bhnp2rcd13ifvqgvg","pricing_plan_id":"cebpf4jnsgd1na2vs0mg"},{"bike_id":"9f45568e-ff2a-4df0-937f-9e4c01f1a806","system_id":"levelo_inurba_marseille","lat":43.29719,"lon":5.36604,"is_reserved":false,"is_disabled":false,"rental_uris":{"android":"levelo://app?vid=9f45568e-ff2a-4df0-937f-9e4c01f1a806","ios":"levelo://app?vid=9f45568e-ff2a-4df0-937f-9e4c01f1a806"},"vehicle_type_id":"4","last_reported":1726722567,"current_range_meters":12400,"station_id":"ce4bhgp2rcd13ifvqfd0","pricing_plan_id":"cebpf4jnsgd1na2vs0mg"},{"bike_id":"f8035fcb-070e-49c0-b435-603a1bbb7858","system_id":"levelo_inurba_marseille","lat":43.29912,"lon":5.3814,"is_reserved":false,"is_disabled":false,"rental_uris":{"android":"levelo://app?vid=f8035fcb-070e-49c0-b435-603a1bbb7858","ios":"levelo://app?vid=f8035fcb-070e-49c0-b435-603a1bbb7858"},"vehicle_type_id":"4","last_reported":1726722567,"current_range_meters":16800,"station_id":"ce4bgj12rcd13ifvqbc0","pricing_plan_id":"cebpf4jnsgd1na2vs0mg"},{"bike_id":"ef34c70d-2e65-48fd-bb4f-c142f621d359","system_id":"levelo_inurba_marseille","lat":43.24549,"lon":5.39529,"is_reserved":false,"is_disabled":false,"rental_uris":{"android":"levelo://app?vid=ef34c70d-2e65-48fd-bb4f-c142f621d359","ios":"levelo://app?vid=ef34c70d-2e65-48fd-bb4f-c142f621d359"},"vehicle_type_id":"4","last_reported":1726722567,"current_range_meters":38000,"station_id":"ce4bhlp2rcd13ifvqgjg","pricing_plan_id":"cebpf4jnsgd1na2vs0mg"},{"bike_id":"4637f38a-faa6-4c8b-ae8d-2112023d8ec3","system_id":"levelo_inurba_marseille","lat":43.25587,"lon":5.38244,"is_reserved":false,"is_disabled":false,"rental_uris":{"android":"levelo://app?vid=4637f38a-faa6-4c8b-ae8d-2112023d8ec3","ios":"levelo://app?vid=4637f38a-faa6-4c8b-ae8d-2112023d8ec3"},"vehicle_type_id":"4","last_reported":1726722567,"current_range_meters":38800,"station_id":"ce4bhih2rcd13ifvqfs0","pricing_plan_id":"cebpf4jnsgd1na2vs0mg"},{"bike_id":"938a1d8e-8f7a-4dbb-a7f7-9b765b9ff51b","system_id":"levelo_inurba_marseille","lat":43.27622,"lon":5.36107,"is_reserved":false,"is_disabled":false,"rental_uris":{"android":"levelo://app?vid=938a1d8e-8f7a-4dbb-a7f7-9b765b9ff51b","ios":"levelo://app?vid=938a1d8e-8f7a-4dbb-a7f7-9b765b9ff51b"},"vehicle_type_id":"4","last_reported":1726722567,"current_range_meters":24400,"station_id":"ce4bgj92rcd13ifvqbe0","pricing_plan_id":"cebpf4jnsgd1na2vs0mg"},{"bike_id":"fa77e604-95b4-476d-a30f-499c3aaf710d","system_id":"levelo_inurba_marseille","lat":43.33726,"lon":5.39177,"is_reserved":false,"is_disabled":false,"rental_uris":{"android":"levelo://app?vid=fa77e604-95b4-476d-a30f-499c3aaf710d","ios":"levelo://app?vid=fa77e604-95b4-476d-a30f-499c3aaf710d"},"vehicle_type_id":"4","last_reported":1726722567,"current_range_meters":6800,"station_id":"ce4bhr92rcd13ifvqhsg","pricing_plan_id":"cebpf4jnsgd1na2vs0mg"},{"bike_id":"7620db55-f9a9-48d3-8e71-922c33f82c8f","system_id":"levelo_inurba_marseille","lat":43.3302,"lon":5.39034,"is_reserved":false,"is_disabled":false,"rental_uris":{"android":"levelo://app?vid=7620db55-f9a9-48d3-8e71-922c33f82c8f","ios":"levelo://app?vid=7620db55-f9a9-48d3-8e71-922c33f82c8f"},"vehicle_type_id":"4","last_reported":1726722567,"current_range_meters":39200,"station_id":"ce4bhr92rcd13ifvqhrg","pricing_plan_id":"cebpf4jnsgd1na2vs0mg"},{"bike_id":"b775ebe1-fdb3-45a6-b154-91ab4c03d521","system_id":"levelo_inurba_marseille","lat":43.290527,"lon":5.378041,"is_reserved":false,"is_disabled":false,"rental_uris":{"android":"levelo://app?vid=b775ebe1-fdb3-45a6-b154-91ab4c03d521","ios":"levelo://app?vid=b775ebe1-fdb3-45a6-b154-91ab4c03d521"},"vehicle_type_id":"4","last_reported":1726722567,"current_range_meters":33600,"station_id":"ce4bhap2rcd13ifvqek0","pricing_plan_id":"cebpf4jnsgd1na2vs0mg"},{"bike_id":"1397a30c-d848-4ca4-b952-1fb1c2bd8c48","system_id":"levelo_inurba_marseille","lat":43.30156,"lon":5.38077,"is_reserved":false,"is_disabled":false,"rental_uris":{"android":"levelo://app?vid=1397a30c-d848-4ca4-b952-1fb1c2bd8c48","ios":"levelo://app?vid=1397a30c-d848-4ca4-b952-1fb1c2bd8c48"},"vehicle_type_id":"4","last_reported":1726722567,"current_range_meters":16000,"station_id":"ce4bgjp2rcd13ifvqbh0","pricing_plan_id":"cebpf4jnsgd1na2vs0mg"},{"bike_id":"6bea07ff-b7cf-43d7-9614-efd55ed0f2d6","system_id":"levelo_inurba_marseille","lat":43.24649,"lon":5.38888,"is_reserved":false,"is_disabled":false,"rental_uris":{"android":"levelo://app?vid=6bea07ff-b7cf-43d7-9614-efd55ed0f2d6","ios":"levelo://app?vid=6bea07ff-b7cf-43d7-9614-efd55ed0f2d6"},"vehicle_type_id":"4","last_reported":1726722567,"current_range_meters":28000,"station_id":"ce4bhg12rcd13ifvqf60","pricing_plan_id":"cebpf4jnsgd1na2vs0mg"},{"bike_id":"5304ed70-fad3-470c-b0c3-63f08a2a0a36","system_id":"levelo_inurba_marseille","lat":43.31329,"lon":5.39697,"is_reserved":false,"is_disabled":false,"rental_uris":{"android":"levelo://app?vid=5304ed70-fad3-470c-b0c3-63f08a2a0a36","ios":"levelo://app?vid=5304ed70-fad3-470c-b0c3-63f08a2a0a36"},"vehicle_type_id":"4","last_reported":1726722567,"current_range_meters":15200,"station_id":"ce4bgvp2rcd13ifvqcu0","pricing_plan_id":"cebpf4jnsgd1na2vs0mg"},{"bike_id":"b98cc236-ecfc-4f95-a0d2-c8d32e366fa1","system_id":"levelo_inurba_marseille","lat":43.28617,"lon":5.35106,"is_reserved":false,"is_disabled":false,"rental_uris":{"android":"levelo://app?vid=b98cc236-ecfc-4f95-a0d2-c8d32e366fa1","ios":"levelo://app?vid=b98cc236-ecfc-4f95-a0d2-c8d32e366fa1"},"vehicle_type_id":"4","last_reported":1726722567,"current_range_meters":30800,"station_id":"ce4bhch2rcd13ifvqeug","pricing_plan_id":"cebpf4jnsgd1na2vs0mg"},{"bike_id":"1889ec3f-8ea1-4b72-8a71-6e0afec0da58","system_id":"levelo_inurba_marseille","lat":43.30954,"lon":5.39041,"is_reserved":false,"is_disabled":false,"rental_uris":{"android":"levelo://app?vid=1889ec3f-8ea1-4b72-8a71-6e0afec0da58","ios":"levelo://app?vid=1889ec3f-8ea1-4b72-8a71-6e0afec0da58"},"vehicle_type_id":"4","last_reported":1726722567,"current_range_meters":38800,"station_id":"ce4bgup2rcd13ifvqco0","pricing_plan_id":"cebpf4jnsgd1na2vs0mg"},{"bike_id":"9be94feb-a495-4651-8693-da9a946157ae","system_id":"levelo_inurba_marseille","lat":43.25008,"lon":5.38919,"is_reserved":false,"is_disabled":false,"rental_uris":{"android":"levelo://app?vid=9be94feb-a495-4651-8693-da9a946157ae","ios":"levelo://app?vid=9be94feb-a495-4651-8693-da9a946157ae"},"vehicle_type_id":"4","last_reported":1726722567,"current_range_meters":16800,"station_id":"ce4bhgp2rcd13ifvqfd0","pricing_plan_id":"cebpf4jnsgd1na2vs0mg"},{"bike_id":"8b92f07f-bbfd-414c-9917-9010c838ca72","system_id":"levelo_inurba_marseille","lat":43.32483,"lon":5.36557,"is_reserved":false,"is_disabled":false,"rental_uris":{"android":"levelo://app?vid=8b92f07f-bbfd-414c-9917-9010c838ca72","ios":"levelo://app?vid=8b92f07f-bbfd-414c-9917-9010c838ca72"},"vehicle_type_id":"4","last_reported":1726722567,"current_range_meters":38800,"station_id":"ce4bhs12rcd13ifvqhvg","pricing_plan_id":"cebpf4jnsgd1na2vs0mg"},{"bike_id":"3710a2f5-286d-4699-84da-a3841549612e","system_id":"levelo_inurba_marseille","lat":43.27836,"lon":5.39214,"is_reserved":false,"is_disabled":false,"rental_uris":{"android":"levelo://app?vid=3710a2f5-286d-4699-84da-a3841549612e","ios":"levelo://app?vid=3710a2f5-286d-4699-84da-a3841549612e"},"vehicle_type_id":"4","last_reported":1726722567,"current_range_meters":37600,"station_id":"ce4bhjp2rcd13ifvqga0","pricing_plan_id":"cebpf4jnsgd1na2vs0mg"},{"bike_id":"f3b40b72-252f-4ea8-a838-f4021093cd20","system_id":"levelo_inurba_marseille","lat":43.30351,"lon":5.41876,"is_reserved":false,"is_disabled":false,"rental_uris":{"android":"levelo://app?vid=f3b40b72-252f-4ea8-a838-f4021093cd20","ios":"levelo://app?vid=f3b40b72-252f-4ea8-a838-f4021093cd20"},"vehicle_type_id":"4","last_reported":1726722567,"current_range_meters":8000,"station_id":"ce4bhop2rcd13ifvqh7g","pricing_plan_id":"cebpf4jnsgd1na2vs0mg"},{"bike_id":"5853071a-a7de-43ad-87c8-982495d79fa0","system_id":"levelo_inurba_marseille","lat":43.25009,"lon":5.38916,"is_reserved":false,"is_disabled":false,"rental_uris":{"android":"levelo://app?vid=5853071a-a7de-43ad-87c8-982495d79fa0","ios":"levelo://app?vid=5853071a-a7de-43ad-87c8-982495d79fa0"},"vehicle_type_id":"4","last_reported":1726722567,"current_range_meters":36400,"station_id":"ce4bhgp2rcd13ifvqfd0","pricing_plan_id":"cebpf4jnsgd1na2vs0mg"},{"bike_id":"9b6292ef-7c1a-4148-b586-1e7d7dce9938","system_id":"levelo_inurba_marseille","lat":43.24664,"lon":5.38158,"is_reserved":false,"is_disabled":false,"rental_uris":{"android":"levelo://app?vid=9b6292ef-7c1a-4148-b586-1e7d7dce9938","ios":"levelo://app?vid=9b6292ef-7c1a-4148-b586-1e7d7dce9938"},"vehicle_type_id":"4","last_reported":1726722567,"current_range_meters":30400,"station_id":"ce4bhih2rcd13ifvqfr0","pricing_plan_id":"cebpf4jnsgd1na2vs0mg"},{"bike_id":"d3e60262-2fdc-49bf-a741-f1dc25a79b0c","system_id":"levelo_inurba_marseille","lat":43.28941,"lon":5.36631,"is_reserved":false,"is_disabled":false,"rental_uris":{"android":"levelo://app?vid=d3e60262-2fdc-49bf-a741-f1dc25a79b0c","ios":"levelo://app?vid=d3e60262-2fdc-49bf-a741-f1dc25a79b0c"},"vehicle_type_id":"4","last_reported":1726722567,"current_range_meters":30000,"station_id":"ce4bhap2rcd13ifvqek0","pricing_plan_id":"cebpf4jnsgd1na2vs0mg"},{"bike_id":"316473a3-098e-4790-8abd-9617353ea0fa","system_id":"levelo_inurba_marseille","lat":43.29256,"lon":5.40913,"is_reserved":false,"is_disabled":false,"rental_uris":{"android":"levelo://app?vid=316473a3-098e-4790-8abd-9617353ea0fa","ios":"levelo://app?vid=316473a3-098e-4790-8abd-9617353ea0fa"},"vehicle_type_id":"4","last_reported":1726722567,"current_range_meters":39200,"station_id":"ce4bh192rcd13ifvqdc0","pricing_plan_id":"cebpf4jnsgd1na2vs0mg"},{"bike_id":"6633b6e3-05d8-4c7d-8546-e37429ac0537","system_id":"levelo_inurba_marseille","lat":43.29045,"lon":5.39966,"is_reserved":false,"is_disabled":false,"rental_uris":{"android":"levelo://app?vid=6633b6e3-05d8-4c7d-8546-e37429ac0537","ios":"levelo://app?vid=6633b6e3-05d8-4c7d-8546-e37429ac0537"},"vehicle_type_id":"4","last_reported":1726722567,"current_range_meters":8400,"station_id":"ce4bh392rcd13ifvqdm0","pricing_plan_id":"cebpf4jnsgd1na2vs0mg"},{"bike_id":"0c101ec3-357a-4678-af6b-2f0c2a8531d5","system_id":"levelo_inurba_marseille","lat":43.3119,"lon":5.38706,"is_reserved":false,"is_disabled":false,"rental_uris":{"android":"levelo://app?vid=0c101ec3-357a-4678-af6b-2f0c2a8531d5","ios":"levelo://app?vid=0c101ec3-357a-4678-af6b-2f0c2a8531d5"},"vehicle_type_id":"4","last_reported":1726722567,"current_range_meters":25600,"station_id":"ce4bgv12rcd13ifvqcp0","pricing_plan_id":"cebpf4jnsgd1na2vs0mg"},{"bike_id":"ad264040-f36d-4d24-971d-436e2a7964b5","system_id":"levelo_inurba_marseille","lat":43.29256,"lon":5.40903,"is_reserved":false,"is_disabled":false,"rental_uris":{"android":"levelo://app?vid=ad264040-f36d-4d24-971d-436e2a7964b5","ios":"levelo://app?vid=ad264040-f36d-4d24-971d-436e2a7964b5"},"vehicle_type_id":"4","last_reported":1726722567,"current_range_meters":8000,"station_id":"ce4bh192rcd13ifvqdc0","pricing_plan_id":"cebpf4jnsgd1na2vs0mg"},{"bike_id":"7a8a8512-1a66-4773-a439-892950d478f5","system_id":"levelo_inurba_marseille","lat":43.28074,"lon":5.39655,"is_reserved":false,"is_disabled":false,"rental_uris":{"android":"levelo://app?vid=7a8a8512-1a66-4773-a439-892950d478f5","ios":"levelo://app?vid=7a8a8512-1a66-4773-a439-892950d478f5"},"vehicle_type_id":"4","last_reported":1726722567,"current_range_meters":38800,"station_id":"ce4bho12rcd13ifvqh2g","pricing_plan_id":"cebpf4jnsgd1na2vs0mg"},{"bike_id":"b18d8b94-ea3f-41c4-a439-b580881ddfe3","system_id":"levelo_inurba_marseille","lat":43.31331,"lon":5.39688,"is_reserved":false,"is_disabled":false,"rental_uris":{"android":"levelo://app?vid=b18d8b94-ea3f-41c4-a439-b580881ddfe3","ios":"levelo://app?vid=b18d8b94-ea3f-41c4-a439-b580881ddfe3"},"vehicle_type_id":"4","last_reported":1726722567,"current_range_meters":38400,"station_id":"ce4bgvp2rcd13ifvqcu0","pricing_plan_id":"cebpf4jnsgd1na2vs0mg"},{"bike_id":"e0173d18-6c8e-483c-9db6-bd92135cda26","system_id":"levelo_inurba_marseille","lat":43.32,"lon":5.38148,"is_reserved":false,"is_disabled":false,"rental_uris":{"android":"levelo://app?vid=e0173d18-6c8e-483c-9db6-bd92135cda26","ios":"levelo://app?vid=e0173d18-6c8e-483c-9db6-bd92135cda26"},"vehicle_type_id":"4","last_reported":1726722567,"current_range_meters":20400,"station_id":"ce4bhr12rcd13ifvqhpg","pricing_plan_id":"cebpf4jnsgd1na2vs0mg"},{"bike_id":"05410574-e19a-470a-bce7-ed8f6ab9135a","system_id":"levelo_inurba_marseille","lat":43.31713,"lon":5.43702,"is_reserved":false,"is_disabled":false,"rental_uris":{"android":"levelo://app?vid=05410574-e19a-470a-bce7-ed8f6ab9135a","ios":"levelo://app?vid=05410574-e19a-470a-bce7-ed8f6ab9135a"},"vehicle_type_id":"4","last_reported":1726722567,"current_range_meters":9600,"station_id":"ce4bhp92rcd13ifvqhcg","pricing_plan_id":"cebpf4jnsgd1na2vs0mg"},{"bike_id":"73ceb026-6b50-4e98-b640-97585503568e","system_id":"levelo_inurba_marseille","lat":43.2572,"lon":5.41115,"is_reserved":false,"is_disabled":false,"rental_uris":{"android":"levelo://app?vid=73ceb026-6b50-4e98-b640-97585503568e","ios":"levelo://app?vid=73ceb026-6b50-4e98-b640-97585503568e"},"vehicle_type_id":"4","last_reported":1726722567,"current_range_meters":38000,"station_id":"ce4bhkp2rcd13ifvqgd0","pricing_plan_id":"cebpf4jnsgd1na2vs0mg"},{"bike_id":"ebaa7e84-5f69-4efe-8e95-7ff79c4a8283","system_id":"levelo_inurba_marseille","lat":43.28079,"lon":5.39637,"is_reserved":false,"is_disabled":false,"rental_uris":{"android":"levelo://app?vid=ebaa7e84-5f69-4efe-8e95-7ff79c4a8283","ios":"levelo://app?vid=ebaa7e84-5f69-4efe-8e95-7ff79c4a8283"},"vehicle_type_id":"4","last_reported":1726722567,"current_range_meters":37600,"station_id":"ce4bho12rcd13ifvqh2g","pricing_plan_id":"cebpf4jnsgd1na2vs0mg"},{"bike_id":"7f85c424-76bf-4e62-aa08-945834d9fa36","system_id":"levelo_inurba_marseille","lat":43.30469,"lon":5.379,"is_reserved":false,"is_disabled":false,"rental_uris":{"android":"levelo://app?vid=7f85c424-76bf-4e62-aa08-945834d9fa36","ios":"levelo://app?vid=7f85c424-76bf-4e62-aa08-945834d9fa36"},"vehicle_type_id":"4","last_reported":1726722567,"current_range_meters":38800,"station_id":"ce4bgup2rcd13ifvqcn0","pricing_plan_id":"cebpf4jnsgd1na2vs0mg"},{"bike_id":"1a19a916-b83e-4d63-89c2-f2c7f562a65a","system_id":"levelo_inurba_marseille","lat":43.24068,"lon":5.37758,"is_reserved":false,"is_disabled":false,"rental_uris":{"android":"levelo://app?vid=1a19a916-b83e-4d63-89c2-f2c7f562a65a","ios":"levelo://app?vid=1a19a916-b83e-4d63-89c2-f2c7f562a65a"},"vehicle_type_id":"4","last_reported":1726722567,"current_range_meters":8400,"station_id":"ce4bhnp2rcd13ifvqgvg","pricing_plan_id":"cebpf4jnsgd1na2vs0mg"},{"bike_id":"55fed244-caf4-46e6-99fc-fcd916ddb5b7","system_id":"levelo_inurba_marseille","lat":43.23201,"lon":5.35545,"is_reserved":false,"is_disabled":false,"rental_uris":{"android":"levelo://app?vid=55fed244-caf4-46e6-99fc-fcd916ddb5b7","ios":"levelo://app?vid=55fed244-caf4-46e6-99fc-fcd916ddb5b7"},"vehicle_type_id":"4","last_reported":1726722567,"current_range_meters":20800,"station_id":"ce4bhu92rcd13ifvqi70","pricing_plan_id":"cebpf4jnsgd1na2vs0mg"},{"bike_id":"4d6f430e-a89c-4f5a-a87a-ca0e6d05c74c","system_id":"levelo_inurba_marseille","lat":43.25996,"lon":5.40817,"is_reserved":false,"is_disabled":false,"rental_uris":{"android":"levelo://app?vid=4d6f430e-a89c-4f5a-a87a-ca0e6d05c74c","ios":"levelo://app?vid=4d6f430e-a89c-4f5a-a87a-ca0e6d05c74c"},"vehicle_type_id":"4","last_reported":1726722567,"current_range_meters":31200,"station_id":"","pricing_plan_id":"cebpf4jnsgd1na2vs0mg"},{"bike_id":"21a7c1b2-4865-4949-850c-bd549c3501b6","system_id":"levelo_inurba_marseille","lat":43.30806,"lon":5.38147,"is_reserved":false,"is_disabled":false,"rental_uris":{"android":"levelo://app?vid=21a7c1b2-4865-4949-850c-bd549c3501b6","ios":"levelo://app?vid=21a7c1b2-4865-4949-850c-bd549c3501b6"},"vehicle_type_id":"4","last_reported":1726722567,"current_range_meters":38400,"station_id":"ce4bgt12rcd13ifvqce0","pricing_plan_id":"cebpf4jnsgd1na2vs0mg"},{"bike_id":"62e335eb-aaec-4647-b7e9-321a9f4dff46","system_id":"levelo_inurba_marseille","lat":43.28452,"lon":5.3589,"is_reserved":false,"is_disabled":false,"rental_uris":{"android":"levelo://app?vid=62e335eb-aaec-4647-b7e9-321a9f4dff46","ios":"levelo://app?vid=62e335eb-aaec-4647-b7e9-321a9f4dff46"},"vehicle_type_id":"4","last_reported":1726722567,"current_range_meters":38000,"station_id":"ce4bhah2rcd13ifvqei0","pricing_plan_id":"cebpf4jnsgd1na2vs0mg"},{"bike_id":"ee68800c-f319-4020-b038-a34d6349dff4","system_id":"levelo_inurba_marseille","lat":43.283569,"lon":5.399905,"is_reserved":false,"is_disabled":false,"rental_uris":{"android":"levelo://app?vid=ee68800c-f319-4020-b038-a34d6349dff4","ios":"levelo://app?vid=ee68800c-f319-4020-b038-a34d6349dff4"},"vehicle_type_id":"4","last_reported":1726722567,"current_range_meters":19200,"station_id":"ce4bhmp2rcd13ifvqgog","pricing_plan_id":"cebpf4jnsgd1na2vs0mg"},{"bike_id":"3e5ce477-7f69-4c9f-bf73-e98e38620e8a","system_id":"levelo_inurba_marseille","lat":43.31772,"lon":5.39006,"is_reserved":false,"is_disabled":false,"rental_uris":{"android":"levelo://app?vid=3e5ce477-7f69-4c9f-bf73-e98e38620e8a","ios":"levelo://app?vid=3e5ce477-7f69-4c9f-bf73-e98e38620e8a"},"vehicle_type_id":"4","last_reported":1726722567,"current_range_meters":38800,"station_id":"ce4bhqp2rcd13ifvqhng","pricing_plan_id":"cebpf4jnsgd1na2vs0mg"},{"bike_id":"0518cea5-5bd4-4a81-977f-0d8a52018b0d","system_id":"levelo_inurba_marseille","lat":43.29045,"lon":5.39958,"is_reserved":false,"is_disabled":false,"rental_uris":{"android":"levelo://app?vid=0518cea5-5bd4-4a81-977f-0d8a52018b0d","ios":"levelo://app?vid=0518cea5-5bd4-4a81-977f-0d8a52018b0d"},"vehicle_type_id":"4","last_reported":1726722567,"current_range_meters":25200,"station_id":"ce4bh392rcd13ifvqdm0","pricing_plan_id":"cebpf4jnsgd1na2vs0mg"},{"bike_id":"677498c9-746b-4650-9a8e-2c7479635944","system_id":"levelo_inurba_marseille","lat":43.33019,"lon":5.39047,"is_reserved":false,"is_disabled":false,"rental_uris":{"android":"levelo://app?vid=677498c9-746b-4650-9a8e-2c7479635944","ios":"levelo://app?vid=677498c9-746b-4650-9a8e-2c7479635944"},"vehicle_type_id":"4","last_reported":1726722567,"current_range_meters":10000,"station_id":"ce4bhr92rcd13ifvqhrg","pricing_plan_id":"cebpf4jnsgd1na2vs0mg"},{"bike_id":"cbeedc7e-fdd0-4a52-877a-44d39f8f32fa","system_id":"levelo_inurba_marseille","lat":43.29596,"lon":5.36736,"is_reserved":false,"is_disabled":false,"rental_uris":{"android":"levelo://app?vid=cbeedc7e-fdd0-4a52-877a-44d39f8f32fa","ios":"levelo://app?vid=cbeedc7e-fdd0-4a52-877a-44d39f8f32fa"},"vehicle_type_id":"4","last_reported":1726722567,"current_range_meters":36400,"station_id":"ce4bgph2rcd13ifvqc2g","pricing_plan_id":"cebpf4jnsgd1na2vs0mg"},{"bike_id":"bee0e7c0-a7b3-4aa5-ab3e-0f242b502b94","system_id":"levelo_inurba_marseille","lat":43.31075,"lon":5.38355,"is_reserved":false,"is_disabled":false,"rental_uris":{"android":"levelo://app?vid=bee0e7c0-a7b3-4aa5-ab3e-0f242b502b94","ios":"levelo://app?vid=bee0e7c0-a7b3-4aa5-ab3e-0f242b502b94"},"vehicle_type_id":"4","last_reported":1726722567,"current_range_meters":9600,"station_id":"ce4bgv92rcd13ifvqcr0","pricing_plan_id":"cebpf4jnsgd1na2vs0mg"},{"bike_id":"3e99e2ac-cdfd-4893-be50-20dbb5272dd6","system_id":"levelo_inurba_marseille","lat":43.30802,"lon":5.43516,"is_reserved":false,"is_disabled":false,"rental_uris":{"android":"levelo://app?vid=3e99e2ac-cdfd-4893-be50-20dbb5272dd6","ios":"levelo://app?vid=3e99e2ac-cdfd-4893-be50-20dbb5272dd6"},"vehicle_type_id":"4","last_reported":1726722567,"current_range_meters":38400,"station_id":"ce4bhph2rcd13ifvqheg","pricing_plan_id":"cebpf4jnsgd1na2vs0mg"},{"bike_id":"7d1ee808-291a-4e08-9c9a-7318984664a1","system_id":"levelo_inurba_marseille","lat":43.30895,"lon":5.37184,"is_reserved":false,"is_disabled":false,"rental_uris":{"android":"levelo://app?vid=7d1ee808-291a-4e08-9c9a-7318984664a1","ios":"levelo://app?vid=7d1ee808-291a-4e08-9c9a-7318984664a1"},"vehicle_type_id":"4","last_reported":1726722567,"current_range_meters":33600,"station_id":"ce4bguh2rcd13ifvqckg","pricing_plan_id":"cebpf4jnsgd1na2vs0mg"},{"bike_id":"af627a65-999b-4825-8c8e-4ee52f7513d4","system_id":"levelo_inurba_marseille","lat":43.30882,"lon":5.39636,"is_reserved":false,"is_disabled":false,"rental_uris":{"android":"levelo://app?vid=af627a65-999b-4825-8c8e-4ee52f7513d4","ios":"levelo://app?vid=af627a65-999b-4825-8c8e-4ee52f7513d4"},"vehicle_type_id":"4","last_reported":1726722567,"current_range_meters":38800,"station_id":"ce4bh012rcd13ifvqcv0","pricing_plan_id":"cebpf4jnsgd1na2vs0mg"},{"bike_id":"2cbb6dd5-2ec8-4ba5-808a-c5301f897d27","system_id":"levelo_inurba_marseille","lat":43.23961,"lon":5.36616,"is_reserved":false,"is_disabled":false,"rental_uris":{"android":"levelo://app?vid=2cbb6dd5-2ec8-4ba5-808a-c5301f897d27","ios":"levelo://app?vid=2cbb6dd5-2ec8-4ba5-808a-c5301f897d27"},"vehicle_type_id":"4","last_reported":1726722567,"current_range_meters":24400,"station_id":"ce4bhi12rcd13ifvqfp0","pricing_plan_id":"cebpf4jnsgd1na2vs0mg"},{"bike_id":"f5ddcaf2-4df3-4791-8314-9ff825829baa","system_id":"levelo_inurba_marseille","lat":43.28454,"lon":5.35891,"is_reserved":false,"is_disabled":false,"rental_uris":{"android":"levelo://app?vid=f5ddcaf2-4df3-4791-8314-9ff825829baa","ios":"levelo://app?vid=f5ddcaf2-4df3-4791-8314-9ff825829baa"},"vehicle_type_id":"4","last_reported":1726722567,"current_range_meters":24400,"station_id":"ce4bhah2rcd13ifvqei0","pricing_plan_id":"cebpf4jnsgd1na2vs0mg"},{"bike_id":"2681092f-5c7e-4a6b-9c0c-f39edeb78b76","system_id":"levelo_inurba_marseille","lat":43.2418,"lon":5.39737,"is_reserved":false,"is_disabled":false,"rental_uris":{"android":"levelo://app?vid=2681092f-5c7e-4a6b-9c0c-f39edeb78b76","ios":"levelo://app?vid=2681092f-5c7e-4a6b-9c0c-f39edeb78b76"},"vehicle_type_id":"4","last_reported":1726722567,"current_range_meters":38800,"station_id":"ce4bhn12rcd13ifvqgpg","pricing_plan_id":"cebpf4jnsgd1na2vs0mg"},{"bike_id":"1478a44f-74d8-48d2-a01f-74a3a0b9df5a","system_id":"levelo_inurba_marseille","lat":43.3127,"lon":5.4017,"is_reserved":false,"is_disabled":false,"rental_uris":{"android":"levelo://app?vid=1478a44f-74d8-48d2-a01f-74a3a0b9df5a","ios":"levelo://app?vid=1478a44f-74d8-48d2-a01f-74a3a0b9df5a"},"vehicle_type_id":"4","last_reported":1726722567,"current_range_meters":38800,"station_id":"ce4bh092rcd13ifvqd30","pricing_plan_id":"cebpf4jnsgd1na2vs0mg"},{"bike_id":"3d933b8e-67b6-4b5d-be72-7523e1cd1af2","system_id":"levelo_inurba_marseille","lat":43.28466,"lon":5.35893,"is_reserved":false,"is_disabled":false,"rental_uris":{"android":"levelo://app?vid=3d933b8e-67b6-4b5d-be72-7523e1cd1af2","ios":"levelo://app?vid=3d933b8e-67b6-4b5d-be72-7523e1cd1af2"},"vehicle_type_id":"4","last_reported":1726722567,"current_range_meters":30400,"station_id":"ce4bhah2rcd13ifvqei0","pricing_plan_id":"cebpf4jnsgd1na2vs0mg"},{"bike_id":"d1192baf-bcb5-4108-a265-bbfa58c9cc61","system_id":"levelo_inurba_marseille","lat":43.25121,"lon":5.40321,"is_reserved":false,"is_disabled":false,"rental_uris":{"android":"levelo://app?vid=d1192baf-bcb5-4108-a265-bbfa58c9cc61","ios":"levelo://app?vid=d1192baf-bcb5-4108-a265-bbfa58c9cc61"},"vehicle_type_id":"4","last_reported":1726722567,"current_range_meters":38800,"station_id":"ce4bhlh2rcd13ifvqgig","pricing_plan_id":"cebpf4jnsgd1na2vs0mg"},{"bike_id":"10074ca6-1985-4939-a802-8c358e57d5bb","system_id":"levelo_inurba_marseille","lat":43.31891,"lon":5.40726,"is_reserved":false,"is_disabled":false,"rental_uris":{"android":"levelo://app?vid=10074ca6-1985-4939-a802-8c358e57d5bb","ios":"levelo://app?vid=10074ca6-1985-4939-a802-8c358e57d5bb"},"vehicle_type_id":"4","last_reported":1726722567,"current_range_meters":38000,"station_id":"ce4bhq12rcd13ifvqhig","pricing_plan_id":"cebpf4jnsgd1na2vs0mg"},{"bike_id":"52fffaf1-dd98-4e0a-a39d-48011512624f","system_id":"levelo_inurba_marseille","lat":43.25498,"lon":5.3765,"is_reserved":false,"is_disabled":false,"rental_uris":{"android":"levelo://app?vid=52fffaf1-dd98-4e0a-a39d-48011512624f","ios":"levelo://app?vid=52fffaf1-dd98-4e0a-a39d-48011512624f"},"vehicle_type_id":"4","last_reported":1726722567,"current_range_meters":30400,"station_id":"ce4bhh12rcd13ifvqff0","pricing_plan_id":"cebpf4jnsgd1na2vs0mg"},{"bike_id":"4e8c7bf2-1715-4e97-99d2-be97e34e672f","system_id":"levelo_inurba_marseille","lat":43.29904,"lon":5.37467,"is_reserved":false,"is_disabled":false,"rental_uris":{"android":"levelo://app?vid=4e8c7bf2-1715-4e97-99d2-be97e34e672f","ios":"levelo://app?vid=4e8c7bf2-1715-4e97-99d2-be97e34e672f"},"vehicle_type_id":"4","last_reported":1726722567,"current_range_meters":38000,"station_id":"ce4bgj12rcd13ifvqbc0","pricing_plan_id":"cebpf4jnsgd1na2vs0mg"},{"bike_id":"de268f51-9584-4adc-87a7-5847e45d9d4d","system_id":"levelo_inurba_marseille","lat":43.30422,"lon":5.41284,"is_reserved":false,"is_disabled":false,"rental_uris":{"android":"levelo://app?vid=de268f51-9584-4adc-87a7-5847e45d9d4d","ios":"levelo://app?vid=de268f51-9584-4adc-87a7-5847e45d9d4d"},"vehicle_type_id":"4","last_reported":1726722567,"current_range_meters":37600,"station_id":"ce4bhop2rcd13ifvqh8g","pricing_plan_id":"cebpf4jnsgd1na2vs0mg"},{"bike_id":"998ddacb-a930-414c-8e03-6e6d234ecf40","system_id":"levelo_inurba_marseille","lat":43.3042,"lon":5.41277,"is_reserved":false,"is_disabled":false,"rental_uris":{"android":"levelo://app?vid=998ddacb-a930-414c-8e03-6e6d234ecf40","ios":"levelo://app?vid=998ddacb-a930-414c-8e03-6e6d234ecf40"},"vehicle_type_id":"4","last_reported":1726722567,"current_range_meters":36000,"station_id":"ce4bhop2rcd13ifvqh8g","pricing_plan_id":"cebpf4jnsgd1na2vs0mg"},{"bike_id":"792c2cbf-6092-4748-9d3d-35dc9decb089","system_id":"levelo_inurba_marseille","lat":43.30878,"lon":5.39648,"is_reserved":false,"is_disabled":false,"rental_uris":{"android":"levelo://app?vid=792c2cbf-6092-4748-9d3d-35dc9decb089","ios":"levelo://app?vid=792c2cbf-6092-4748-9d3d-35dc9decb089"},"vehicle_type_id":"4","last_reported":1726722567,"current_range_meters":38800,"station_id":"ce4bh012rcd13ifvqcv0","pricing_plan_id":"cebpf4jnsgd1na2vs0mg"},{"bike_id":"37804655-3b91-46a3-b91b-1ceef89e4f83","system_id":"levelo_inurba_marseille","lat":43.28464,"lon":5.35893,"is_reserved":false,"is_disabled":false,"rental_uris":{"android":"levelo://app?vid=37804655-3b91-46a3-b91b-1ceef89e4f83","ios":"levelo://app?vid=37804655-3b91-46a3-b91b-1ceef89e4f83"},"vehicle_type_id":"4","last_reported":1726722567,"current_range_meters":5600,"station_id":"ce4bhah2rcd13ifvqei0","pricing_plan_id":"cebpf4jnsgd1na2vs0mg"},{"bike_id":"d37aa318-9eec-42e5-ad66-edcb803356f0","system_id":"levelo_inurba_marseille","lat":43.27805,"lon":5.42798,"is_reserved":false,"is_disabled":false,"rental_uris":{"android":"levelo://app?vid=d37aa318-9eec-42e5-ad66-edcb803356f0","ios":"levelo://app?vid=d37aa318-9eec-42e5-ad66-edcb803356f0"},"vehicle_type_id":"4","last_reported":1726722567,"current_range_meters":6800,"station_id":"","pricing_plan_id":"cebpf4jnsgd1na2vs0mg"},{"bike_id":"b51480c2-9b9c-41e3-9bfc-f3e2a0ce7444","system_id":"levelo_inurba_marseille","lat":43.23193,"lon":5.35547,"is_reserved":false,"is_disabled":false,"rental_uris":{"android":"levelo://app?vid=b51480c2-9b9c-41e3-9bfc-f3e2a0ce7444","ios":"levelo://app?vid=b51480c2-9b9c-41e3-9bfc-f3e2a0ce7444"},"vehicle_type_id":"4","last_reported":1726722567,"current_range_meters":38800,"station_id":"ce4bhu92rcd13ifvqi70","pricing_plan_id":"cebpf4jnsgd1na2vs0mg"},{"bike_id":"6e6af154-aff3-4ede-8e20-d77df68958a4","system_id":"levelo_inurba_marseille","lat":43.29522,"lon":5.39408,"is_reserved":false,"is_disabled":false,"rental_uris":{"android":"levelo://app?vid=6e6af154-aff3-4ede-8e20-d77df68958a4","ios":"levelo://app?vid=6e6af154-aff3-4ede-8e20-d77df68958a4"},"vehicle_type_id":"4","last_reported":1726722567,"current_range_meters":37600,"station_id":"ce4bh292rcd13ifvqdf0","pricing_plan_id":"cebpf4jnsgd1na2vs0mg"},{"bike_id":"fc7f8545-7ad0-47c8-aa10-6c11238ab170","system_id":"levelo_inurba_marseille","lat":43.30783,"lon":5.37649,"is_reserved":false,"is_disabled":false,"rental_uris":{"android":"levelo://app?vid=fc7f8545-7ad0-47c8-aa10-6c11238ab170","ios":"levelo://app?vid=fc7f8545-7ad0-47c8-aa10-6c11238ab170"},"vehicle_type_id":"4","last_reported":1726722567,"current_range_meters":37600,"station_id":"ce4bgv92rcd13ifvqcq0","pricing_plan_id":"cebpf4jnsgd1na2vs0mg"},{"bike_id":"99207ce7-6e05-4cba-9ee3-b73cf3c7bc9b","system_id":"levelo_inurba_marseille","lat":43.28076,"lon":5.3965,"is_reserved":false,"is_disabled":false,"rental_uris":{"android":"levelo://app?vid=99207ce7-6e05-4cba-9ee3-b73cf3c7bc9b","ios":"levelo://app?vid=99207ce7-6e05-4cba-9ee3-b73cf3c7bc9b"},"vehicle_type_id":"4","last_reported":1726722567,"current_range_meters":33200,"station_id":"ce4bho12rcd13ifvqh2g","pricing_plan_id":"cebpf4jnsgd1na2vs0mg"},{"bike_id":"93ba4ede-58ab-412a-bc91-fb80ea0cb912","system_id":"levelo_inurba_marseille","lat":43.30886,"lon":5.3965,"is_reserved":false,"is_disabled":false,"rental_uris":{"android":"levelo://app?vid=93ba4ede-58ab-412a-bc91-fb80ea0cb912","ios":"levelo://app?vid=93ba4ede-58ab-412a-bc91-fb80ea0cb912"},"vehicle_type_id":"4","last_reported":1726722567,"current_range_meters":11600,"station_id":"ce4bh012rcd13ifvqcv0","pricing_plan_id":"cebpf4jnsgd1na2vs0mg"},{"bike_id":"2b714e73-49f8-4f26-bb6d-7d72ce23aabc","system_id":"levelo_inurba_marseille","lat":43.23054,"lon":5.35493,"is_reserved":false,"is_disabled":false,"rental_uris":{"android":"levelo://app?vid=2b714e73-49f8-4f26-bb6d-7d72ce23aabc","ios":"levelo://app?vid=2b714e73-49f8-4f26-bb6d-7d72ce23aabc"},"vehicle_type_id":"4","last_reported":1726722567,"current_range_meters":4400,"station_id":"cpo3342slgdg3j2ifvpg","pricing_plan_id":"cebpf4jnsgd1na2vs0mg"},{"bike_id":"aaa9860e-7f0a-4e29-a689-c35352e15701","system_id":"levelo_inurba_marseille","lat":43.31082,"lon":5.38357,"is_reserved":false,"is_disabled":false,"rental_uris":{"android":"levelo://app?vid=aaa9860e-7f0a-4e29-a689-c35352e15701","ios":"levelo://app?vid=aaa9860e-7f0a-4e29-a689-c35352e15701"},"vehicle_type_id":"4","last_reported":1726722567,"current_range_meters":19200,"station_id":"ce4bgv92rcd13ifvqcr0","pricing_plan_id":"cebpf4jnsgd1na2vs0mg"},{"bike_id":"e83172ba-34b9-4e83-8493-d5f27864064b","system_id":"levelo_inurba_marseille","lat":43.28105,"lon":5.37843,"is_reserved":false,"is_disabled":false,"rental_uris":{"android":"levelo://app?vid=e83172ba-34b9-4e83-8493-d5f27864064b","ios":"levelo://app?vid=e83172ba-34b9-4e83-8493-d5f27864064b"},"vehicle_type_id":"4","last_reported":1726722567,"current_range_meters":38000,"station_id":"ce4bha12rcd13ifvqee0","pricing_plan_id":"cebpf4jnsgd1na2vs0mg"},{"bike_id":"12542261-d57f-4cfe-ac92-16a387247919","system_id":"levelo_inurba_marseille","lat":43.27052,"lon":5.40257,"is_reserved":false,"is_disabled":false,"rental_uris":{"android":"levelo://app?vid=12542261-d57f-4cfe-ac92-16a387247919","ios":"levelo://app?vid=12542261-d57f-4cfe-ac92-16a387247919"},"vehicle_type_id":"4","last_reported":1726722567,"current_range_meters":36000,"station_id":"ce4bhk92rcd13ifvqgc0","pricing_plan_id":"cebpf4jnsgd1na2vs0mg"},{"bike_id":"88c89d81-1a10-47ab-a150-a989251d7a76","system_id":"levelo_inurba_marseille","lat":43.25873,"lon":5.39895,"is_reserved":false,"is_disabled":false,"rental_uris":{"android":"levelo://app?vid=88c89d81-1a10-47ab-a150-a989251d7a76","ios":"levelo://app?vid=88c89d81-1a10-47ab-a150-a989251d7a76"},"vehicle_type_id":"4","last_reported":1726722567,"current_range_meters":4400,"station_id":"ce4bhl92rcd13ifvqghg","pricing_plan_id":"cebpf4jnsgd1na2vs0mg"},{"bike_id":"2e64ac77-37d0-42c4-9b89-df897b66197d","system_id":"levelo_inurba_marseille","lat":43.29964,"lon":5.41321,"is_reserved":false,"is_disabled":false,"rental_uris":{"android":"levelo://app?vid=2e64ac77-37d0-42c4-9b89-df897b66197d","ios":"levelo://app?vid=2e64ac77-37d0-42c4-9b89-df897b66197d"},"vehicle_type_id":"4","last_reported":1726722567,"current_range_meters":39200,"station_id":"ce4bhp12rcd13ifvqh9g","pricing_plan_id":"cebpf4jnsgd1na2vs0mg"},{"bike_id":"451cd4e6-d747-4d42-b652-d593351ccec4","system_id":"levelo_inurba_marseille","lat":43.24391,"lon":5.37055,"is_reserved":false,"is_disabled":false,"rental_uris":{"android":"levelo://app?vid=451cd4e6-d747-4d42-b652-d593351ccec4","ios":"levelo://app?vid=451cd4e6-d747-4d42-b652-d593351ccec4"},"vehicle_type_id":"4","last_reported":1726722567,"current_range_meters":37600,"station_id":"ce4bhhh2rcd13ifvqfk0","pricing_plan_id":"cebpf4jnsgd1na2vs0mg"},{"bike_id":"59fbe0c1-3e23-478b-af85-53d14385768b","system_id":"levelo_inurba_marseille","lat":43.31082,"lon":5.42432,"is_reserved":false,"is_disabled":false,"rental_uris":{"android":"levelo://app?vid=59fbe0c1-3e23-478b-af85-53d14385768b","ios":"levelo://app?vid=59fbe0c1-3e23-478b-af85-53d14385768b"},"vehicle_type_id":"4","last_reported":1726722567,"current_range_meters":40000,"station_id":"ce4bhp92rcd13ifvqhag","pricing_plan_id":"cebpf4jnsgd1na2vs0mg"},{"bike_id":"13b57b80-59e8-43e9-b969-57ed41f63348","system_id":"levelo_inurba_marseille","lat":43.2841,"lon":5.37509,"is_reserved":false,"is_disabled":false,"rental_uris":{"android":"levelo://app?vid=13b57b80-59e8-43e9-b969-57ed41f63348","ios":"levelo://app?vid=13b57b80-59e8-43e9-b969-57ed41f63348"},"vehicle_type_id":"4","last_reported":1726722567,"current_range_meters":9600,"station_id":"ce4bh412rcd13ifvqds0","pricing_plan_id":"cebpf4jnsgd1na2vs0mg"},{"bike_id":"ae9e0c62-1af7-4e3f-ba33-3af442c40e0b","system_id":"levelo_inurba_marseille","lat":43.2762,"lon":5.36108,"is_reserved":false,"is_disabled":false,"rental_uris":{"android":"levelo://app?vid=ae9e0c62-1af7-4e3f-ba33-3af442c40e0b","ios":"levelo://app?vid=ae9e0c62-1af7-4e3f-ba33-3af442c40e0b"},"vehicle_type_id":"4","last_reported":1726722567,"current_range_meters":38800,"station_id":"ce4bgj92rcd13ifvqbe0","pricing_plan_id":"cebpf4jnsgd1na2vs0mg"},{"bike_id":"965d8976-302f-4510-81d4-1368c6090897","system_id":"levelo_inurba_marseille","lat":43.31173,"lon":5.38707,"is_reserved":false,"is_disabled":false,"rental_uris":{"android":"levelo://app?vid=965d8976-302f-4510-81d4-1368c6090897","ios":"levelo://app?vid=965d8976-302f-4510-81d4-1368c6090897"},"vehicle_type_id":"4","last_reported":1726722567,"current_range_meters":38800,"station_id":"ce4bgv12rcd13ifvqcp0","pricing_plan_id":"cebpf4jnsgd1na2vs0mg"},{"bike_id":"900bdbb4-aec8-4224-af5c-48f9085f93e9","system_id":"levelo_inurba_marseille","lat":43.2481,"lon":5.37461,"is_reserved":false,"is_disabled":false,"rental_uris":{"android":"levelo://app?vid=900bdbb4-aec8-4224-af5c-48f9085f93e9","ios":"levelo://app?vid=900bdbb4-aec8-4224-af5c-48f9085f93e9"},"vehicle_type_id":"4","last_reported":1726722567,"current_range_meters":37600,"station_id":"ce4bhgh2rcd13ifvqfb0","pricing_plan_id":"cebpf4jnsgd1na2vs0mg"},{"bike_id":"ec05964d-d663-4fec-b9e8-4e41de596dcf","system_id":"levelo_inurba_marseille","lat":43.30554,"lon":5.38429,"is_reserved":false,"is_disabled":false,"rental_uris":{"android":"levelo://app?vid=ec05964d-d663-4fec-b9e8-4e41de596dcf","ios":"levelo://app?vid=ec05964d-d663-4fec-b9e8-4e41de596dcf"},"vehicle_type_id":"4","last_reported":1726722567,"current_range_meters":38800,"station_id":"ce4bgg92rcd13ifvqb30","pricing_plan_id":"cebpf4jnsgd1na2vs0mg"},{"bike_id":"0f68b7ac-68c8-4a03-8a2d-199df41d57e6","system_id":"levelo_inurba_marseille","lat":43.29461,"lon":5.38201,"is_reserved":false,"is_disabled":false,"rental_uris":{"android":"levelo://app?vid=0f68b7ac-68c8-4a03-8a2d-199df41d57e6","ios":"levelo://app?vid=0f68b7ac-68c8-4a03-8a2d-199df41d57e6"},"vehicle_type_id":"4","last_reported":1726722567,"current_range_meters":20800,"station_id":"","pricing_plan_id":"cebpf4jnsgd1na2vs0mg"},{"bike_id":"02c639a4-fe62-499a-a69a-f474d98d7667","system_id":"levelo_inurba_marseille","lat":43.28465,"lon":5.35882,"is_reserved":false,"is_disabled":false,"rental_uris":{"android":"levelo://app?vid=02c639a4-fe62-499a-a69a-f474d98d7667","ios":"levelo://app?vid=02c639a4-fe62-499a-a69a-f474d98d7667"},"vehicle_type_id":"4","last_reported":1726722567,"current_range_meters":37600,"station_id":"ce4bhah2rcd13ifvqei0","pricing_plan_id":"cebpf4jnsgd1na2vs0mg"},{"bike_id":"fcebcf63-b320-4f6b-a46f-b56e14268634","system_id":"levelo_inurba_marseille","lat":43.28411,"lon":5.37495,"is_reserved":false,"is_disabled":false,"rental_uris":{"android":"levelo://app?vid=fcebcf63-b320-4f6b-a46f-b56e14268634","ios":"levelo://app?vid=fcebcf63-b320-4f6b-a46f-b56e14268634"},"vehicle_type_id":"4","last_reported":1726722567,"current_range_meters":32000,"station_id":"ce4bh412rcd13ifvqds0","pricing_plan_id":"cebpf4jnsgd1na2vs0mg"},{"bike_id":"6dd17a2f-59bb-4453-859d-2c09ab795824","system_id":"levelo_inurba_marseille","lat":43.33023,"lon":5.39049,"is_reserved":false,"is_disabled":false,"rental_uris":{"android":"levelo://app?vid=6dd17a2f-59bb-4453-859d-2c09ab795824","ios":"levelo://app?vid=6dd17a2f-59bb-4453-859d-2c09ab795824"},"vehicle_type_id":"4","last_reported":1726722567,"current_range_meters":19600,"station_id":"ce4bhr92rcd13ifvqhrg","pricing_plan_id":"cebpf4jnsgd1na2vs0mg"},{"bike_id":"682c326f-9756-4537-a3eb-f525cbc855ff","system_id":"levelo_inurba_marseille","lat":43.25723,"lon":5.41108,"is_reserved":false,"is_disabled":false,"rental_uris":{"android":"levelo://app?vid=682c326f-9756-4537-a3eb-f525cbc855ff","ios":"levelo://app?vid=682c326f-9756-4537-a3eb-f525cbc855ff"},"vehicle_type_id":"4","last_reported":1726722567,"current_range_meters":39200,"station_id":"ce4bhkp2rcd13ifvqgd0","pricing_plan_id":"cebpf4jnsgd1na2vs0mg"},{"bike_id":"5c4240fb-258c-46fa-88e1-337a0cfb2b36","system_id":"levelo_inurba_marseille","lat":43.28453,"lon":5.35892,"is_reserved":false,"is_disabled":false,"rental_uris":{"android":"levelo://app?vid=5c4240fb-258c-46fa-88e1-337a0cfb2b36","ios":"levelo://app?vid=5c4240fb-258c-46fa-88e1-337a0cfb2b36"},"vehicle_type_id":"4","last_reported":1726722567,"current_range_meters":8000,"station_id":"ce4bhah2rcd13ifvqei0","pricing_plan_id":"cebpf4jnsgd1na2vs0mg"},{"bike_id":"93f9b3fa-d09d-4be4-be05-476f0e1d19f7","system_id":"levelo_inurba_marseille","lat":43.28155,"lon":5.42647,"is_reserved":false,"is_disabled":false,"rental_uris":{"android":"levelo://app?vid=93f9b3fa-d09d-4be4-be05-476f0e1d19f7","ios":"levelo://app?vid=93f9b3fa-d09d-4be4-be05-476f0e1d19f7"},"vehicle_type_id":"4","last_reported":1726722567,"current_range_meters":30800,"station_id":"ce4bhnh2rcd13ifvqgug","pricing_plan_id":"cebpf4jnsgd1na2vs0mg"},{"bike_id":"f2c95146-36ce-4175-8035-0c4ee99efa92","system_id":"levelo_inurba_marseille","lat":43.23194,"lon":5.35557,"is_reserved":false,"is_disabled":false,"rental_uris":{"android":"levelo://app?vid=f2c95146-36ce-4175-8035-0c4ee99efa92","ios":"levelo://app?vid=f2c95146-36ce-4175-8035-0c4ee99efa92"},"vehicle_type_id":"4","last_reported":1726722567,"current_range_meters":9200,"station_id":"ce4bhu92rcd13ifvqi70","pricing_plan_id":"cebpf4jnsgd1na2vs0mg"},{"bike_id":"a3caa959-3c7d-49c8-96bc-e3bb68eba2bc","system_id":"levelo_inurba_marseille","lat":43.2919,"lon":5.35795,"is_reserved":false,"is_disabled":false,"rental_uris":{"android":"levelo://app?vid=a3caa959-3c7d-49c8-96bc-e3bb68eba2bc","ios":"levelo://app?vid=a3caa959-3c7d-49c8-96bc-e3bb68eba2bc"},"vehicle_type_id":"4","last_reported":1726722567,"current_range_meters":38400,"station_id":"ce4bhb12rcd13ifvqel0","pricing_plan_id":"cebpf4jnsgd1na2vs0mg"},{"bike_id":"5b14412f-5627-4fa0-91b3-50b2be3fc9c5","system_id":"levelo_inurba_marseille","lat":43.25725,"lon":5.41108,"is_reserved":false,"is_disabled":false,"rental_uris":{"android":"levelo://app?vid=5b14412f-5627-4fa0-91b3-50b2be3fc9c5","ios":"levelo://app?vid=5b14412f-5627-4fa0-91b3-50b2be3fc9c5"},"vehicle_type_id":"4","last_reported":1726722567,"current_range_meters":38800,"station_id":"ce4bhkp2rcd13ifvqgd0","pricing_plan_id":"cebpf4jnsgd1na2vs0mg"},{"bike_id":"cbbd5298-7062-4b40-8beb-e6fded5d191a","system_id":"levelo_inurba_marseille","lat":43.30888,"lon":5.37191,"is_reserved":false,"is_disabled":false,"rental_uris":{"android":"levelo://app?vid=cbbd5298-7062-4b40-8beb-e6fded5d191a","ios":"levelo://app?vid=cbbd5298-7062-4b40-8beb-e6fded5d191a"},"vehicle_type_id":"4","last_reported":1726722567,"current_range_meters":34800,"station_id":"ce4bguh2rcd13ifvqckg","pricing_plan_id":"cebpf4jnsgd1na2vs0mg"},{"bike_id":"0d05c508-4763-4f96-a524-270654e3615d","system_id":"levelo_inurba_marseille","lat":43.30468,"lon":5.37898,"is_reserved":false,"is_disabled":false,"rental_uris":{"android":"levelo://app?vid=0d05c508-4763-4f96-a524-270654e3615d","ios":"levelo://app?vid=0d05c508-4763-4f96-a524-270654e3615d"},"vehicle_type_id":"4","last_reported":1726722567,"current_range_meters":36400,"station_id":"ce4bgup2rcd13ifvqcn0","pricing_plan_id":"cebpf4jnsgd1na2vs0mg"},{"bike_id":"de2f9752-5a0c-44c9-8b7a-1ce62875c38d","system_id":"levelo_inurba_marseille","lat":43.28701,"lon":5.39975,"is_reserved":false,"is_disabled":false,"rental_uris":{"android":"levelo://app?vid=de2f9752-5a0c-44c9-8b7a-1ce62875c38d","ios":"levelo://app?vid=de2f9752-5a0c-44c9-8b7a-1ce62875c38d"},"vehicle_type_id":"4","last_reported":1726722567,"current_range_meters":24400,"station_id":"ce4bho92rcd13ifvqh3g","pricing_plan_id":"cebpf4jnsgd1na2vs0mg"},{"bike_id":"113ca948-2325-463d-b40c-ba755261b048","system_id":"levelo_inurba_marseille","lat":43.28466,"lon":5.35873,"is_reserved":false,"is_disabled":false,"rental_uris":{"android":"levelo://app?vid=113ca948-2325-463d-b40c-ba755261b048","ios":"levelo://app?vid=113ca948-2325-463d-b40c-ba755261b048"},"vehicle_type_id":"4","last_reported":1726722567,"current_range_meters":19600,"station_id":"ce4bhah2rcd13ifvqei0","pricing_plan_id":"cebpf4jnsgd1na2vs0mg"},{"bike_id":"29162098-9d12-42fa-abb3-21d506b55998","system_id":"levelo_inurba_marseille","lat":43.27958,"lon":5.41041,"is_reserved":false,"is_disabled":false,"rental_uris":{"android":"levelo://app?vid=29162098-9d12-42fa-abb3-21d506b55998","ios":"levelo://app?vid=29162098-9d12-42fa-abb3-21d506b55998"},"vehicle_type_id":"4","last_reported":1726722567,"current_range_meters":33200,"station_id":"ce4bhnp2rcd13ifvqh0g","pricing_plan_id":"cebpf4jnsgd1na2vs0mg"},{"bike_id":"750e8351-13f9-43b0-b164-24061995e5de","system_id":"levelo_inurba_marseille","lat":43.30894,"lon":5.37188,"is_reserved":false,"is_disabled":false,"rental_uris":{"android":"levelo://app?vid=750e8351-13f9-43b0-b164-24061995e5de","ios":"levelo://app?vid=750e8351-13f9-43b0-b164-24061995e5de"},"vehicle_type_id":"4","last_reported":1726722567,"current_range_meters":38800,"station_id":"ce4bguh2rcd13ifvqckg","pricing_plan_id":"cebpf4jnsgd1na2vs0mg"},{"bike_id":"2fd5ba6a-f478-410a-a11a-7ba05971c030","system_id":"levelo_inurba_marseille","lat":43.25725,"lon":5.41106,"is_reserved":false,"is_disabled":false,"rental_uris":{"android":"levelo://app?vid=2fd5ba6a-f478-410a-a11a-7ba05971c030","ios":"levelo://app?vid=2fd5ba6a-f478-410a-a11a-7ba05971c030"},"vehicle_type_id":"4","last_reported":1726722567,"current_range_meters":38800,"station_id":"ce4bhkp2rcd13ifvqgd0","pricing_plan_id":"cebpf4jnsgd1na2vs0mg"},{"bike_id":"db5bed51-afb9-4548-98e9-7b7ae226c501","system_id":"levelo_inurba_marseille","lat":43.33756,"lon":5.37453,"is_reserved":false,"is_disabled":false,"rental_uris":{"android":"levelo://app?vid=db5bed51-afb9-4548-98e9-7b7ae226c501","ios":"levelo://app?vid=db5bed51-afb9-4548-98e9-7b7ae226c501"},"vehicle_type_id":"4","last_reported":1726722567,"current_range_meters":32400,"station_id":"","pricing_plan_id":"cebpf4jnsgd1na2vs0mg"},{"bike_id":"6a78926c-7c24-4114-b69b-79fe85c63250","system_id":"levelo_inurba_marseille","lat":43.30889,"lon":5.39652,"is_reserved":false,"is_disabled":false,"rental_uris":{"android":"levelo://app?vid=6a78926c-7c24-4114-b69b-79fe85c63250","ios":"levelo://app?vid=6a78926c-7c24-4114-b69b-79fe85c63250"},"vehicle_type_id":"4","last_reported":1726722567,"current_range_meters":38800,"station_id":"ce4bh012rcd13ifvqcv0","pricing_plan_id":"cebpf4jnsgd1na2vs0mg"},{"bike_id":"ac0ff1a2-c5fd-48c6-95b3-18e8d9ed2a30","system_id":"levelo_inurba_marseille","lat":43.27181,"lon":5.40989,"is_reserved":false,"is_disabled":false,"rental_uris":{"android":"levelo://app?vid=ac0ff1a2-c5fd-48c6-95b3-18e8d9ed2a30","ios":"levelo://app?vid=ac0ff1a2-c5fd-48c6-95b3-18e8d9ed2a30"},"vehicle_type_id":"4","last_reported":1726722567,"current_range_meters":8800,"station_id":"ce4bhl12rcd13ifvqgf0","pricing_plan_id":"cebpf4jnsgd1na2vs0mg"},{"bike_id":"881cc09c-b245-4e9b-8838-30c9e03bb596","system_id":"levelo_inurba_marseille","lat":43.30547,"lon":5.36695,"is_reserved":false,"is_disabled":false,"rental_uris":{"android":"levelo://app?vid=881cc09c-b245-4e9b-8838-30c9e03bb596","ios":"levelo://app?vid=881cc09c-b245-4e9b-8838-30c9e03bb596"},"vehicle_type_id":"4","last_reported":1726722567,"current_range_meters":38800,"station_id":"ce4bgrp2rcd13ifvqc9g","pricing_plan_id":"cebpf4jnsgd1na2vs0mg"},{"bike_id":"f1925469-9217-450d-9259-fc5ba656a5ff","system_id":"levelo_inurba_marseille","lat":43.25934,"lon":5.40911,"is_reserved":false,"is_disabled":false,"rental_uris":{"android":"levelo://app?vid=f1925469-9217-450d-9259-fc5ba656a5ff","ios":"levelo://app?vid=f1925469-9217-450d-9259-fc5ba656a5ff"},"vehicle_type_id":"4","last_reported":1726722567,"current_range_meters":38400,"station_id":"ce4bhm92rcd13ifvqglg","pricing_plan_id":"cebpf4jnsgd1na2vs0mg"},{"bike_id":"69399783-5eae-4af9-ae4b-1495b2d249b1","system_id":"levelo_inurba_marseille","lat":43.24164,"lon":5.36392,"is_reserved":false,"is_disabled":false,"rental_uris":{"android":"levelo://app?vid=69399783-5eae-4af9-ae4b-1495b2d249b1","ios":"levelo://app?vid=69399783-5eae-4af9-ae4b-1495b2d249b1"},"vehicle_type_id":"4","last_reported":1726722567,"current_range_meters":35200,"station_id":"cpo36qri1sfpv3e86is0","pricing_plan_id":"cebpf4jnsgd1na2vs0mg"},{"bike_id":"3f513f49-e3b1-4c4c-bbdc-e5ae3b2b72d3","system_id":"levelo_inurba_marseille","lat":43.27492,"lon":5.42451,"is_reserved":false,"is_disabled":false,"rental_uris":{"android":"levelo://app?vid=3f513f49-e3b1-4c4c-bbdc-e5ae3b2b72d3","ios":"levelo://app?vid=3f513f49-e3b1-4c4c-bbdc-e5ae3b2b72d3"},"vehicle_type_id":"4","last_reported":1726722567,"current_range_meters":22400,"station_id":"ce4bhn92rcd13ifvqgrg","pricing_plan_id":"cebpf4jnsgd1na2vs0mg"},{"bike_id":"023b13a7-6618-44f3-9637-e4d6b2b8db34","system_id":"levelo_inurba_marseille","lat":43.25722,"lon":5.41109,"is_reserved":false,"is_disabled":false,"rental_uris":{"android":"levelo://app?vid=023b13a7-6618-44f3-9637-e4d6b2b8db34","ios":"levelo://app?vid=023b13a7-6618-44f3-9637-e4d6b2b8db34"},"vehicle_type_id":"4","last_reported":1726722567,"current_range_meters":38800,"station_id":"ce4bhkp2rcd13ifvqgd0","pricing_plan_id":"cebpf4jnsgd1na2vs0mg"},{"bike_id":"d06834b6-14ec-477c-92f7-a04b5630a0da","system_id":"levelo_inurba_marseille","lat":43.2655,"lon":5.37292,"is_reserved":false,"is_disabled":false,"rental_uris":{"android":"levelo://app?vid=d06834b6-14ec-477c-92f7-a04b5630a0da","ios":"levelo://app?vid=d06834b6-14ec-477c-92f7-a04b5630a0da"},"vehicle_type_id":"4","last_reported":1726722567,"current_range_meters":7200,"station_id":"ce4bhg12rcd13ifvqf70","pricing_plan_id":"cebpf4jnsgd1na2vs0mg"},{"bike_id":"c2e37a50-a4d6-4422-b245-40f3fa5f4cd1","system_id":"levelo_inurba_marseille","lat":43.2732,"lon":5.39084,"is_reserved":false,"is_disabled":false,"rental_uris":{"android":"levelo://app?vid=c2e37a50-a4d6-4422-b245-40f3fa5f4cd1","ios":"levelo://app?vid=c2e37a50-a4d6-4422-b245-40f3fa5f4cd1"},"vehicle_type_id":"4","last_reported":1726722567,"current_range_meters":7200,"station_id":"ce4bhgp2rcd13ifvqfe0","pricing_plan_id":"cebpf4jnsgd1na2vs0mg"},{"bike_id":"a2b21f76-0c0e-4c0c-a7bd-4e82cf3b2a52","system_id":"levelo_inurba_marseille","lat":43.29973,"lon":5.38483,"is_reserved":false,"is_disabled":false,"rental_uris":{"android":"levelo://app?vid=a2b21f76-0c0e-4c0c-a7bd-4e82cf3b2a52","ios":"levelo://app?vid=a2b21f76-0c0e-4c0c-a7bd-4e82cf3b2a52"},"vehicle_type_id":"4","last_reported":1726722567,"current_range_meters":37600,"station_id":"ce4bgj92rcd13ifvqbd0","pricing_plan_id":"cebpf4jnsgd1na2vs0mg"},{"bike_id":"2a02a26f-7ad3-47bb-a66f-dad3d347c4c9","system_id":"levelo_inurba_marseille","lat":43.25107,"lon":5.40331,"is_reserved":false,"is_disabled":false,"rental_uris":{"android":"levelo://app?vid=2a02a26f-7ad3-47bb-a66f-dad3d347c4c9","ios":"levelo://app?vid=2a02a26f-7ad3-47bb-a66f-dad3d347c4c9"},"vehicle_type_id":"4","last_reported":1726722567,"current_range_meters":13600,"station_id":"ce4bhlh2rcd13ifvqgig","pricing_plan_id":"cebpf4jnsgd1na2vs0mg"},{"bike_id":"e5b0ee22-a192-442b-bfde-ae0c7d8bec85","system_id":"levelo_inurba_marseille","lat":43.31294,"lon":5.40159,"is_reserved":false,"is_disabled":false,"rental_uris":{"android":"levelo://app?vid=e5b0ee22-a192-442b-bfde-ae0c7d8bec85","ios":"levelo://app?vid=e5b0ee22-a192-442b-bfde-ae0c7d8bec85"},"vehicle_type_id":"4","last_reported":1726722567,"current_range_meters":39200,"station_id":"ce4bh092rcd13ifvqd30","pricing_plan_id":"cebpf4jnsgd1na2vs0mg"},{"bike_id":"a811345e-c046-4ee5-87fd-576f86d7c458","system_id":"levelo_inurba_marseille","lat":43.25932,"lon":5.40908,"is_reserved":false,"is_disabled":false,"rental_uris":{"android":"levelo://app?vid=a811345e-c046-4ee5-87fd-576f86d7c458","ios":"levelo://app?vid=a811345e-c046-4ee5-87fd-576f86d7c458"},"vehicle_type_id":"4","last_reported":1726722567,"current_range_meters":38000,"station_id":"ce4bhm92rcd13ifvqglg","pricing_plan_id":"cebpf4jnsgd1na2vs0mg"},{"bike_id":"6228b1a7-edf5-4578-8675-6da3a2ed3f0e","system_id":"levelo_inurba_marseille","lat":43.2903,"lon":5.35923,"is_reserved":false,"is_disabled":false,"rental_uris":{"android":"levelo://app?vid=6228b1a7-edf5-4578-8675-6da3a2ed3f0e","ios":"levelo://app?vid=6228b1a7-edf5-4578-8675-6da3a2ed3f0e"},"vehicle_type_id":"4","last_reported":1726722567,"current_range_meters":17200,"station_id":"ce4bha92rcd13ifvqeg0","pricing_plan_id":"cebpf4jnsgd1na2vs0mg"},{"bike_id":"955951c0-82ad-457e-818d-1db9706d249f","system_id":"levelo_inurba_marseille","lat":43.28459,"lon":5.35881,"is_reserved":false,"is_disabled":false,"rental_uris":{"android":"levelo://app?vid=955951c0-82ad-457e-818d-1db9706d249f","ios":"levelo://app?vid=955951c0-82ad-457e-818d-1db9706d249f"},"vehicle_type_id":"4","last_reported":1726722567,"current_range_meters":38800,"station_id":"ce4bhah2rcd13ifvqei0","pricing_plan_id":"cebpf4jnsgd1na2vs0mg"},{"bike_id":"58014cc6-4f39-4119-a8a0-cdc0e2507820","system_id":"levelo_inurba_marseille","lat":43.32286,"lon":5.38275,"is_reserved":false,"is_disabled":false,"rental_uris":{"android":"levelo://app?vid=58014cc6-4f39-4119-a8a0-cdc0e2507820","ios":"levelo://app?vid=58014cc6-4f39-4119-a8a0-cdc0e2507820"},"vehicle_type_id":"4","last_reported":1726722567,"current_range_meters":39200,"station_id":"ce4bhr12rcd13ifvqhqg","pricing_plan_id":"cebpf4jnsgd1na2vs0mg"},{"bike_id":"ecb1ba9f-0f40-462e-818b-566e669a18e1","system_id":"levelo_inurba_marseille","lat":43.26565,"lon":5.38999,"is_reserved":false,"is_disabled":false,"rental_uris":{"android":"levelo://app?vid=ecb1ba9f-0f40-462e-818b-566e669a18e1","ios":"levelo://app?vid=ecb1ba9f-0f40-462e-818b-566e669a18e1"},"vehicle_type_id":"4","last_reported":1726722567,"current_range_meters":38400,"station_id":"ce4bhe12rcd13ifvqf30","pricing_plan_id":"cebpf4jnsgd1na2vs0mg"},{"bike_id":"c415b8e2-3457-4018-99fc-a6ee10d52e0c","system_id":"levelo_inurba_marseille","lat":43.2917,"lon":5.37158,"is_reserved":false,"is_disabled":false,"rental_uris":{"android":"levelo://app?vid=c415b8e2-3457-4018-99fc-a6ee10d52e0c","ios":"levelo://app?vid=c415b8e2-3457-4018-99fc-a6ee10d52e0c"},"vehicle_type_id":"4","last_reported":1726722567,"current_range_meters":38000,"station_id":"ce4bha92rcd13ifvqeh0","pricing_plan_id":"cebpf4jnsgd1na2vs0mg"},{"bike_id":"b168231b-2f3d-4b28-bd24-348b4b373070","system_id":"levelo_inurba_marseille","lat":43.31328,"lon":5.3969,"is_reserved":false,"is_disabled":false,"rental_uris":{"android":"levelo://app?vid=b168231b-2f3d-4b28-bd24-348b4b373070","ios":"levelo://app?vid=b168231b-2f3d-4b28-bd24-348b4b373070"},"vehicle_type_id":"4","last_reported":1726722567,"current_range_meters":37600,"station_id":"ce4bgvp2rcd13ifvqcu0","pricing_plan_id":"cebpf4jnsgd1na2vs0mg"},{"bike_id":"67101e27-2fdd-4e84-bdf7-495c619879ab","system_id":"levelo_inurba_marseille","lat":43.31999,"lon":5.38147,"is_reserved":false,"is_disabled":false,"rental_uris":{"android":"levelo://app?vid=67101e27-2fdd-4e84-bdf7-495c619879ab","ios":"levelo://app?vid=67101e27-2fdd-4e84-bdf7-495c619879ab"},"vehicle_type_id":"4","last_reported":1726722567,"current_range_meters":10000,"station_id":"ce4bhr12rcd13ifvqhpg","pricing_plan_id":"cebpf4jnsgd1na2vs0mg"},{"bike_id":"13ee2a72-83d4-4ef5-8ab9-b048ac85604d","system_id":"levelo_inurba_marseille","lat":43.28461,"lon":5.35887,"is_reserved":false,"is_disabled":false,"rental_uris":{"android":"levelo://app?vid=13ee2a72-83d4-4ef5-8ab9-b048ac85604d","ios":"levelo://app?vid=13ee2a72-83d4-4ef5-8ab9-b048ac85604d"},"vehicle_type_id":"4","last_reported":1726722567,"current_range_meters":38400,"station_id":"ce4bhah2rcd13ifvqei0","pricing_plan_id":"cebpf4jnsgd1na2vs0mg"},{"bike_id":"9de036c4-decb-465b-a775-32e663a8924f","system_id":"levelo_inurba_marseille","lat":43.33024,"lon":5.39039,"is_reserved":false,"is_disabled":false,"rental_uris":{"android":"levelo://app?vid=9de036c4-decb-465b-a775-32e663a8924f","ios":"levelo://app?vid=9de036c4-decb-465b-a775-32e663a8924f"},"vehicle_type_id":"4","last_reported":1726722567,"current_range_meters":38800,"station_id":"ce4bhr92rcd13ifvqhrg","pricing_plan_id":"cebpf4jnsgd1na2vs0mg"},{"bike_id":"52fad775-eaa7-4fbb-8da8-4cd4b09b2125","system_id":"levelo_inurba_marseille","lat":43.3189,"lon":5.4073,"is_reserved":false,"is_disabled":false,"rental_uris":{"android":"levelo://app?vid=52fad775-eaa7-4fbb-8da8-4cd4b09b2125","ios":"levelo://app?vid=52fad775-eaa7-4fbb-8da8-4cd4b09b2125"},"vehicle_type_id":"4","last_reported":1726722567,"current_range_meters":38800,"station_id":"ce4bhq12rcd13ifvqhig","pricing_plan_id":"cebpf4jnsgd1na2vs0mg"},{"bike_id":"3eda4607-df67-4e07-b923-8887faadc06b","system_id":"levelo_inurba_marseille","lat":43.30893,"lon":5.37182,"is_reserved":false,"is_disabled":false,"rental_uris":{"android":"levelo://app?vid=3eda4607-df67-4e07-b923-8887faadc06b","ios":"levelo://app?vid=3eda4607-df67-4e07-b923-8887faadc06b"},"vehicle_type_id":"4","last_reported":1726722567,"current_range_meters":38400,"station_id":"ce4bguh2rcd13ifvqckg","pricing_plan_id":"cebpf4jnsgd1na2vs0mg"},{"bike_id":"3a643a13-d852-4164-b5f1-2086ca5ef5c3","system_id":"levelo_inurba_marseille","lat":43.30295,"lon":5.36958,"is_reserved":false,"is_disabled":false,"rental_uris":{"android":"levelo://app?vid=3a643a13-d852-4164-b5f1-2086ca5ef5c3","ios":"levelo://app?vid=3a643a13-d852-4164-b5f1-2086ca5ef5c3"},"vehicle_type_id":"4","last_reported":1726722567,"current_range_meters":16000,"station_id":"ce4bgqh2rcd13ifvqc5g","pricing_plan_id":"cebpf4jnsgd1na2vs0mg"},{"bike_id":"b0aa9608-e495-4afb-986f-f111d9b6e73f","system_id":"levelo_inurba_marseille","lat":43.28575,"lon":5.39493,"is_reserved":false,"is_disabled":false,"rental_uris":{"android":"levelo://app?vid=b0aa9608-e495-4afb-986f-f111d9b6e73f","ios":"levelo://app?vid=b0aa9608-e495-4afb-986f-f111d9b6e73f"},"vehicle_type_id":"4","last_reported":1726722567,"current_range_meters":36800,"station_id":"ce4bh292rcd13ifvqdg0","pricing_plan_id":"cebpf4jnsgd1na2vs0mg"},