{"last_updated":1752354554,"ttl":60,"version":"2.2","data":{"bikes":[{"bike_id":"733cdf2f-9344-485e-af92-546feccd0261","system_id":"levelo_inurba_marseille","lat":43.30545,"lon":5.365609,"is_reserved":false,"is_disabled":true,"rental_uris":{"android":"levelo://app?vid=733cdf2f-9344-485e-af92-546feccd0261","ios":"levelo://app?vid=733cdf2f-9344-485e-af92-546feccd0261"},"vehicle_type_id":"4","last_reported":1752354554,"current_range_meters":2800,"station_id":"ce4bgs12rcd13ifvqcag","pricing_plan_id":"cebpf4jnsgd1na2vs0mg"},{"bike_id":"0608d800-097b-4f70-a518-7bebbd73d51f","system_id":"levelo_inurba_marseille","lat":43.31367,"lon":5.38509,"is_reserved":false,"is_disabled":true,"rental_uris":{"android":"levelo://app?vid=0608d800-097b-4f70-a518-7bebbd73d51f","ios":"levelo://app?vid=0608d800-097b-4f70-a518-7bebbd73d51f"},"vehicle_type_id":"4","last_reported":1752354554,"current_range_meters":2800,"station_id":"ce4bgt92rcd13ifvqcf0","pricing_plan_id":"cebpf4jnsgd1na2vs0mg"},{"bike_id":"018313c7-b50c-42d9-b5e4-065ecc4c2e68","system_id":"levelo_inurba_marseille","lat":43.24168,"lon":5.36403,"is_reserved":false,"is_disabled":false,"rental_uris":{"android":"levelo://app?vid=018313c7-b50c-42d9-b5e4-065ecc4c2e68","ios":"levelo://app?vid=018313c7-b50c-42d9-b5e4-065ecc4c2e68"},"vehicle_type_id":"4","last_reported":1752354554,"current_range_meters":3600,"station_id":"cpo36qri1sfpv3e86is0","pricing_plan_id":"cebpf4jnsgd1na2vs0mg"},{"bike_id":"5c0448b2-8814-4934-b665-27ab2eac725a","system_id":"levelo_inurba_marseille","lat":43.265,"lon":5.39541,"is_reserved":false,"is_disabled":false,"rental_uris":{"android":"levelo://app?vid=5c0448b2-8814-4934-b665-27ab2eac725a","ios":"levelo://app?vid=5c0448b2-8814-4934-b665-27ab2eac725a"},"vehicle_type_id":"4","last_reported":1752354554,"current_range_meters":3600,"station_id":"ce4bhi12rcd13ifvqfq0","pricing_plan_id":"cebpf4jnsgd1na2vs0mg"},{"bike_id":"def9bf80-7c31-408c-ae18-95542be99913","system_id":"levelo_inurba_marseille","lat":43.23177,"lon":5.39999,"is_reserved":false,"is_disabled":false,"rental_uris":{"android":"levelo://app?vid=def9bf80-7c31-408c-ae18-95542be99913","ios":"levelo://app?vid=def9bf80-7c31-408c-ae18-95542be99913"},"vehicle_type_id":"4","last_reported":1752354554,"current_range_meters":3200,"station_id":"ce4bhn12rcd13ifvqgqg","pricing_plan_id":"cebpf4jnsgd1na2vs0mg"},{"bike_id":"66e74c09-ea3e-47be-89b6-8c543a42c51d","system_id":"levelo_inurba_marseille","lat":43.27203,"lon":5.39189,"is_reserved":false,"is_disabled":false,"rental_uris":{"android":"levelo://app?vid=66e74c09-ea3e-47be-89b6-8c543a42c51d","ios":"levelo://app?vid=66e74c09-ea3e-47be-89b6-8c543a42c51d"},"vehicle_type_id":"4","last_reported":1752354554,"current_range_meters":3600,"station_id":"ce4bhhp2rcd13ifvqfm0","pricing_plan_id":"cebpf4jnsgd1na2vs0mg"},{"bike_id":"d555cc7d-6d27-4ff4-8d2a-e66c675dd6d4","system_id":"levelo_inurba_marseille","lat":43.24801,"lon":5.3747,"is_reserved":false,"is_disabled":false,"rental_uris":{"android":"levelo://app?vid=d555cc7d-6d27-4ff4-8d2a-e66c675dd6d4","ios":"levelo://app?vid=d555cc7d-6d27-4ff4-8d2a-e66c675dd6d4"},"vehicle_type_id":"4","last_reported":1752354554,"current_range_meters":4000,"station_id":"ce4bhgh2rcd13ifvqfb0","pricing_plan_id":"cebpf4jnsgd1na2vs0mg"},{"bike_id":"5744d274-e943-416d-a6ae-a74284da96e2","system_id":"levelo_inurba_marseille","lat":43.23185,"lon":5.39984,"is_reserved":false,"is_disabled":false,"rental_uris":{"android":"levelo://app?vid=5744d274-e943-416d-a6ae-a74284da96e2","ios":"levelo://app?vid=5744d274-e943-416d-a6ae-a74284da96e2"},"vehicle_type_id":"4","last_reported":1752354554,"current_range_meters":4000,"station_id":"ce4bhn12rcd13ifvqgqg","pricing_plan_id":"cebpf4jnsgd1na2vs0mg"},{"bike_id":"df6a9db1-97f8-40db-911c-fddb5a810a9f","system_id":"levelo_inurba_marseille","lat":43.25084,"lon":5.39531,"is_reserved":false,"is_disabled":false,"rental_uris":{"android":"levelo://app?vid=df6a9db1-97f8-40db-911c-fddb5a810a9f","ios":"levelo://app?vid=df6a9db1-97f8-40db-911c-fddb5a810a9f"},"vehicle_type_id":"4","last_reported":1752354554,"current_range_meters":4400,"station_id":"ce4bhm12rcd13ifvqgkg","pricing_plan_id":"cebpf4jnsgd1na2vs0mg"},{"bike_id":"be5909ab-3946-4c27-8725-9a42a836a048","system_id":"levelo_inurba_marseille","lat":43.24081,"lon":5.37744,"is_reserved":false,"is_disabled":false,"rental_uris":{"android":"levelo://app?vid=be5909ab-3946-4c27-8725-9a42a836a048","ios":"levelo://app?vid=be5909ab-3946-4c27-8725-9a42a836a048"},"vehicle_type_id":"4","last_reported":1752354554,"current_range_meters":4400,"station_id":"ce4bhnp2rcd13ifvqgvg","pricing_plan_id":"cebpf4jnsgd1na2vs0mg"},{"bike_id":"0857f8c0-ef27-4578-bbef-3ddae52a6f58","system_id":"levelo_inurba_marseille","lat":43.24164,"lon":5.36394,"is_reserved":false,"is_disabled":false,"rental_uris":{"android":"levelo://app?vid=0857f8c0-ef27-4578-bbef-3ddae52a6f58","ios":"levelo://app?vid=0857f8c0-ef27-4578-bbef-3ddae52a6f58"},"vehicle_type_id":"4","last_reported":1752354554,"current_range_meters":4800,"station_id":"cpo36qri1sfpv3e86is0","pricing_plan_id":"cebpf4jnsgd1na2vs0mg"},{"bike_id":"777d207c-e68c-424a-9e86-a47703665703","system_id":"levelo_inurba_marseille","lat":43.29974,"lon":5.37182,"is_reserved":false,"is_disabled":false,"rental_uris":{"android":"levelo://app?vid=777d207c-e68c-424a-9e86-a47703665703","ios":"levelo://app?vid=777d207c-e68c-424a-9e86-a47703665703"},"vehicle_type_id":"4","last_reported":1752354554,"current_range_meters":5600,"station_id":"ce4bgr92rcd13ifvqc7g","pricing_plan_id":"cebpf4jnsgd1na2vs0mg"},{"bike_id":"3771dc3e-d5c6-4b9a-9be3-1316002c403a","system_id":"levelo_inurba_marseille","lat":43.26195,"lon":5.37452,"is_reserved":false,"is_disabled":false,"rental_uris":{"android":"levelo://app?vid=3771dc3e-d5c6-4b9a-9be3-1316002c403a","ios":"levelo://app?vid=3771dc3e-d5c6-4b9a-9be3-1316002c403a"},"vehicle_type_id":"4","last_reported":1752354554,"current_range_meters":5600,"station_id":"ce4bhgp2rcd13ifvqfc0","pricing_plan_id":"cebpf4jnsgd1na2vs0mg"},{"bike_id":"71b22fb5-963a-482d-a3f0-bc40e72a0d9d","system_id":"levelo_inurba_marseille","lat":43.28414,"lon":5.37521,"is_reserved":false,"is_disabled":false,"rental_uris":{"android":"levelo://app?vid=71b22fb5-963a-482d-a3f0-bc40e72a0d9d","ios":"levelo://app?vid=71b22fb5-963a-482d-a3f0-bc40e72a0d9d"},"vehicle_type_id":"4","last_reported":1752354554,"current_range_meters":4800,"station_id":"ce4bh412rcd13ifvqds0","pricing_plan_id":"cebpf4jnsgd1na2vs0mg"},{"bike_id":"b25e716b-466d-4073-bda9-c1fa6de3ef16","system_id":"levelo_inurba_marseille","lat":43.29288,"lon":5.37441,"is_reserved":false,"is_disabled":true,"rental_uris":{"android":"levelo://app?vid=b25e716b-466d-4073-bda9-c1fa6de3ef16","ios":"levelo://app?vid=b25e716b-466d-4073-bda9-c1fa6de3ef16"},"vehicle_type_id":"4","last_reported":1752354554,"current_range_meters":6000,"station_id":"ce4bgi12rcd13ifvqb70","pricing_plan_id":"cebpf4jnsgd1na2vs0mg"},{"bike_id":"4701a18c-d6c0-4281-9efd-8c244f45f570","system_id":"levelo_inurba_marseille","lat":43.32427,"lon":5.39001,"is_reserved":false,"is_disabled":true,"rental_uris":{"android":"levelo://app?vid=4701a18c-d6c0-4281-9efd-8c244f45f570","ios":"levelo://app?vid=4701a18c-d6c0-4281-9efd-8c244f45f570"},"vehicle_type_id":"4","last_reported":1752354554,"current_range_meters":6400,"station_id":"","pricing_plan_id":"cebpf4jnsgd1na2vs0mg"},{"bike_id":"11aaf6a5-e0b0-42b2-816c-85620b1b990e","system_id":"levelo_inurba_marseille","lat":43.27058,"lon":5.40264,"is_reserved":false,"is_disabled":false,"rental_uris":{"android":"levelo://app?vid=11aaf6a5-e0b0-42b2-816c-85620b1b990e","ios":"levelo://app?vid=11aaf6a5-e0b0-42b2-816c-85620b1b990e"},"vehicle_type_id":"4","last_reported":1752354554,"current_range_meters":6400,"station_id":"ce4bhk92rcd13ifvqgc0","pricing_plan_id":"cebpf4jnsgd1na2vs0mg"},{"bike_id":"cb9282c9-0a04-426f-af4a-9dc494a82650","system_id":"levelo_inurba_marseille","lat":43.225037,"lon":5.347922,"is_reserved":false,"is_disabled":false,"rental_uris":{"android":"levelo://app?vid=cb9282c9-0a04-426f-af4a-9dc494a82650","ios":"levelo://app?vid=cb9282c9-0a04-426f-af4a-9dc494a82650"},"vehicle_type_id":"4","last_reported":1752354554,"current_range_meters":6400,"station_id":"","pricing_plan_id":"cebpf4jnsgd1na2vs0mg"},{"bike_id":"534ed68d-5ceb-43a8-968b-be30f01dfa74","system_id":"levelo_inurba_marseille","lat":43.2822,"lon":5.39106,"is_reserved":false,"is_disabled":false,"rental_uris":{"android":"levelo://app?vid=534ed68d-5ceb-43a8-968b-be30f01dfa74","ios":"levelo://app?vid=534ed68d-5ceb-43a8-968b-be30f01dfa74"},"vehicle_type_id":"4","last_reported":1752354554,"current_range_meters":6800,"station_id":"","pricing_plan_id":"cebpf4jnsgd1na2vs0mg"},{"bike_id":"bced4aa7-a628-4057-a6e6-27edc27c5e17","system_id":"levelo_inurba_marseille","lat":43.21196,"lon":5.3507,"is_reserved":false,"is_disabled":false,"rental_uris":{"android":"levelo://app?vid=bced4aa7-a628-4057-a6e6-27edc27c5e17","ios":"levelo://app?vid=bced4aa7-a628-4057-a6e6-27edc27c5e17"},"vehicle_type_id":"4","last_reported":1752354554,"current_range_meters":6800,"station_id":"st_cvj6sg6p6f1abm77japg","pricing_plan_id":"cebpf4jnsgd1na2vs0mg"},{"bike_id":"9d0db895-1a4d-468a-8ea2-ae147f694c27","system_id":"levelo_inurba_marseille","lat":43.292676,"lon":5.384346,"is_reserved":false,"is_disabled":false,"rental_uris":{"android":"levelo://app?vid=9d0db895-1a4d-468a-8ea2-ae147f694c27","ios":"levelo://app?vid=9d0db895-1a4d-468a-8ea2-ae147f694c27"},"vehicle_type_id":"4","last_reported":1752354554,"current_range_meters":6800,"station_id":"ce4bgt12rcd13ifvqce0","pricing_plan_id":"cebpf4jnsgd1na2vs0mg"},{"bike_id":"60eafcd8-841e-486c-9daa-36f9145d82b4","system_id":"levelo_inurba_marseille","lat":43.254979,"lon":5.376503,"is_reserved":false,"is_disabled":false,"rental_uris":{"android":"levelo://app?vid=60eafcd8-841e-486c-9daa-36f9145d82b4","ios":"levelo://app?vid=60eafcd8-841e-486c-9daa-36f9145d82b4"},"vehicle_type_id":"4","last_reported":1752354554,"current_range_meters":6800,"station_id":"ce4bhh12rcd13ifvqff0","pricing_plan_id":"cebpf4jnsgd1na2vs0mg"},{"bike_id":"2d525522-e6dc-4040-9c4c-8e2e7a587583","system_id":"levelo_inurba_marseille","lat":43.291775,"lon":5.37523,"is_reserved":false,"is_disabled":false,"rental_uris":{"android":"levelo://app?vid=2d525522-e6dc-4040-9c4c-8e2e7a587583","ios":"levelo://app?vid=2d525522-e6dc-4040-9c4c-8e2e7a587583"},"vehicle_type_id":"4","last_reported":1752354554,"current_range_meters":7200,"station_id":"","pricing_plan_id":"cebpf4jnsgd1na2vs0mg"},{"bike_id":"0f1287f9-390e-4629-ab8e-ad2d35ff61ae","system_id":"levelo_inurba_marseille","lat":43.2558,"lon":5.38241,"is_reserved":false,"is_disabled":true,"rental_uris":{"android":"levelo://app?vid=0f1287f9-390e-4629-ab8e-ad2d35ff61ae","ios":"levelo://app?vid=0f1287f9-390e-4629-ab8e-ad2d35ff61ae"},"vehicle_type_id":"4","last_reported":1752354554,"current_range_meters":7200,"station_id":"ce4bhih2rcd13ifvqfs0","pricing_plan_id":"cebpf4jnsgd1na2vs0mg"},{"bike_id":"9cfd6456-96d6-4709-b8e9-a2d43bbe2701","system_id":"levelo_inurba_marseille","lat":43.25862,"lon":5.39902,"is_reserved":false,"is_disabled":false,"rental_uris":{"android":"levelo://app?vid=9cfd6456-96d6-4709-b8e9-a2d43bbe2701","ios":"levelo://app?vid=9cfd6456-96d6-4709-b8e9-a2d43bbe2701"},"vehicle_type_id":"4","last_reported":1752354554,"current_range_meters":7200,"station_id":"ce4bhl92rcd13ifvqghg","pricing_plan_id":"cebpf4jnsgd1na2vs0mg"},{"bike_id":"b0778bac-1658-412a-8273-088f6a3f6447","system_id":"levelo_inurba_marseille","lat":43.24177,"lon":5.364,"is_reserved":false,"is_disabled":false,"rental_uris":{"android":"levelo://app?vid=b0778bac-1658-412a-8273-088f6a3f6447","ios":"levelo://app?vid=b0778bac-1658-412a-8273-088f6a3f6447"},"vehicle_type_id":"4","last_reported":1752354554,"current_range_meters":8000,"station_id":"cpo36qri1sfpv3e86is0","pricing_plan_id":"cebpf4jnsgd1na2vs0mg"},{"bike_id":"5f5443f9-983c-4c6f-aef0-b24145e1f923","system_id":"levelo_inurba_marseille","lat":43.28421,"lon":5.37519,"is_reserved":false,"is_disabled":false,"rental_uris":{"android":"levelo://app?vid=5f5443f9-983c-4c6f-aef0-b24145e1f923","ios":"levelo://app?vid=5f5443f9-983c-4c6f-aef0-b24145e1f923"},"vehicle_type_id":"4","last_reported":1752354554,"current_range_meters":8000,"station_id":"ce4bh412rcd13ifvqds0","pricing_plan_id":"cebpf4jnsgd1na2vs0mg"},{"bike_id":"9a721a67-800d-41fb-b2c2-3309f63164c3","system_id":"levelo_inurba_marseille","lat":43.21187,"lon":5.35079,"is_reserved":false,"is_disabled":false,"rental_uris":{"android":"levelo://app?vid=9a721a67-800d-41fb-b2c2-3309f63164c3","ios":"levelo://app?vid=9a721a67-800d-41fb-b2c2-3309f63164c3"},"vehicle_type_id":"4","last_reported":1752354554,"current_range_meters":8000,"station_id":"st_cvj6sg6p6f1abm77japg","pricing_plan_id":"cebpf4jnsgd1na2vs0mg"},{"bike_id":"a5ca7410-24c5-405f-b9ae-029576c1c975","system_id":"levelo_inurba_marseille","lat":43.31555,"lon":5.42385,"is_reserved":false,"is_disabled":false,"rental_uris":{"android":"levelo://app?vid=a5ca7410-24c5-405f-b9ae-029576c1c975","ios":"levelo://app?vid=a5ca7410-24c5-405f-b9ae-029576c1c975"},"vehicle_type_id":"4","last_reported":1752354554,"current_range_meters":8000,"station_id":"","pricing_plan_id":"cebpf4jnsgd1na2vs0mg"},{"bike_id":"595e9351-a7ce-45de-8995-771f7d9fe86e","system_id":"levelo_inurba_marseille","lat":43.309243,"lon":5.378088,"is_reserved":false,"is_disabled":false,"rental_uris":{"android":"levelo://app?vid=595e9351-a7ce-45de-8995-771f7d9fe86e","ios":"levelo://app?vid=595e9351-a7ce-45de-8995-771f7d9fe86e"},"vehicle_type_id":"4","last_reported":1752354554,"current_range_meters":8400,"station_id":"","pricing_plan_id":"cebpf4jnsgd1na2vs0mg"},{"bike_id":"077f3bc7-11ed-4d51-a7ba-eebc33439806","system_id":"levelo_inurba_marseille","lat":43.30796,"lon":5.3815,"is_reserved":false,"is_disabled":false,"rental_uris":{"android":"levelo://app?vid=077f3bc7-11ed-4d51-a7ba-eebc33439806","ios":"levelo://app?vid=077f3bc7-11ed-4d51-a7ba-eebc33439806"},"vehicle_type_id":"4","last_reported":1752354554,"current_range_meters":8400,"station_id":"ce4bgt12rcd13ifvqce0","pricing_plan_id":"cebpf4jnsgd1na2vs0mg"},{"bike_id":"2f0ba75c-aff3-43f4-857b-fc7c66f4e426","system_id":"levelo_inurba_marseille","lat":43.309663,"lon":5.390267,"is_reserved":false,"is_disabled":true,"rental_uris":{"android":"levelo://app?vid=2f0ba75c-aff3-43f4-857b-fc7c66f4e426","ios":"levelo://app?vid=2f0ba75c-aff3-43f4-857b-fc7c66f4e426"},"vehicle_type_id":"4","last_reported":1752354554,"current_range_meters":8400,"station_id":"ce4bgup2rcd13ifvqco0","pricing_plan_id":"cebpf4jnsgd1na2vs0mg"},{"bike_id":"5f6082ef-e4fa-4931-9809-c53d0a27bb00","system_id":"levelo_inurba_marseille","lat":43.2841,"lon":5.375217,"is_reserved":false,"is_disabled":true,"rental_uris":{"android":"levelo://app?vid=5f6082ef-e4fa-4931-9809-c53d0a27bb00","ios":"levelo://app?vid=5f6082ef-e4fa-4931-9809-c53d0a27bb00"},"vehicle_type_id":"4","last_reported":1752354554,"current_range_meters":8800,"station_id":"ce4bh412rcd13ifvqds0","pricing_plan_id":"cebpf4jnsgd1na2vs0mg"},{"bike_id":"39082b06-84fa-428b-973b-7d9e7977c28a","system_id":"levelo_inurba_marseille","lat":43.29308,"lon":5.37182,"is_reserved":false,"is_disabled":false,"rental_uris":{"android":"levelo://app?vid=39082b06-84fa-428b-973b-7d9e7977c28a","ios":"levelo://app?vid=39082b06-84fa-428b-973b-7d9e7977c28a"},"vehicle_type_id":"4","last_reported":1752354554,"current_range_meters":8800,"station_id":"ce4bgh92rcd13ifvqb40","pricing_plan_id":"cebpf4jnsgd1na2vs0mg"},{"bike_id":"e3a75ee9-c614-467b-8cc2-f813bcef2ab1","system_id":"levelo_inurba_marseille","lat":43.33743,"lon":5.3919,"is_reserved":false,"is_disabled":true,"rental_uris":{"android":"levelo://app?vid=e3a75ee9-c614-467b-8cc2-f813bcef2ab1","ios":"levelo://app?vid=e3a75ee9-c614-467b-8cc2-f813bcef2ab1"},"vehicle_type_id":"4","last_reported":1752354554,"current_range_meters":8800,"station_id":"ce4bhr92rcd13ifvqhsg","pricing_plan_id":"cebpf4jnsgd1na2vs0mg"},{"bike_id":"097106d7-0dc8-4152-8540-cae0e1de8dea","system_id":"levelo_inurba_marseille","lat":43.21196,"lon":5.35086,"is_reserved":false,"is_disabled":false,"rental_uris":{"android":"levelo://app?vid=097106d7-0dc8-4152-8540-cae0e1de8dea","ios":"levelo://app?vid=097106d7-0dc8-4152-8540-cae0e1de8dea"},"vehicle_type_id":"4","last_reported":1752354554,"current_range_meters":9200,"station_id":"st_cvj6sg6p6f1abm77japg","pricing_plan_id":"cebpf4jnsgd1na2vs0mg"},{"bike_id":"03251f63-26eb-493f-9d65-8e11851ca687","system_id":"levelo_inurba_marseille","lat":43.288377,"lon":5.393453,"is_reserved":false,"is_disabled":true,"rental_uris":{"android":"levelo://app?vid=03251f63-26eb-493f-9d65-8e11851ca687","ios":"levelo://app?vid=03251f63-26eb-493f-9d65-8e11851ca687"},"vehicle_type_id":"4","last_reported":1752354554,"current_range_meters":9200,"station_id":"ce4bh2p2rcd13ifvqdi0","pricing_plan_id":"cebpf4jnsgd1na2vs0mg"},{"bike_id":"8929c1bf-fd4d-44e4-aa66-b3eb6538c998","system_id":"levelo_inurba_marseille","lat":43.28572,"lon":5.42963,"is_reserved":false,"is_disabled":false,"rental_uris":{"android":"levelo://app?vid=8929c1bf-fd4d-44e4-aa66-b3eb6538c998","ios":"levelo://app?vid=8929c1bf-fd4d-44e4-aa66-b3eb6538c998"},"vehicle_type_id":"4","last_reported":1752354554,"current_range_meters":9600,"station_id":"","pricing_plan_id":"cebpf4jnsgd1na2vs0mg"},{"bike_id":"5a71ab42-51f6-4d74-8942-e5c8339f2255","system_id":"levelo_inurba_marseille","lat":43.31762,"lon":5.39012,"is_reserved":false,"is_disabled":true,"rental_uris":{"android":"levelo://app?vid=5a71ab42-51f6-4d74-8942-e5c8339f2255","ios":"levelo://app?vid=5a71ab42-51f6-4d74-8942-e5c8339f2255"},"vehicle_type_id":"4","last_reported":1752354554,"current_range_meters":9600,"station_id":"ce4bhqp2rcd13ifvqhng","pricing_plan_id":"cebpf4jnsgd1na2vs0mg"},{"bike_id":"df61839a-7a72-4634-9960-e8ea0d9a8d35","system_id":"levelo_inurba_marseille","lat":43.239474,"lon":5.366089,"is_reserved":false,"is_disabled":true,"rental_uris":{"android":"levelo://app?vid=df61839a-7a72-4634-9960-e8ea0d9a8d35","ios":"levelo://app?vid=df61839a-7a72-4634-9960-e8ea0d9a8d35"},"vehicle_type_id":"4","last_reported":1752354554,"current_range_meters":9600,"station_id":"","pricing_plan_id":"cebpf4jnsgd1na2vs0mg"},{"bike_id":"474dbbba-7244-4a63-87a6-f9879f03b547","system_id":"levelo_inurba_marseille","lat":43.2619,"lon":5.37451,"is_reserved":false,"is_disabled":false,"rental_uris":{"android":"levelo://app?vid=474dbbba-7244-4a63-87a6-f9879f03b547","ios":"levelo://app?vid=474dbbba-7244-4a63-87a6-f9879f03b547"},"vehicle_type_id":"4","last_reported":1752354554,"current_range_meters":9600,"station_id":"ce4bhgp2rcd13ifvqfc0","pricing_plan_id":"cebpf4jnsgd1na2vs0mg"},{"bike_id":"75bb1dd6-50a7-47a9-9e4b-6b29bd46237a","system_id":"levelo_inurba_marseille","lat":43.21217,"lon":5.35063,"is_reserved":false,"is_disabled":false,"rental_uris":{"android":"levelo://app?vid=75bb1dd6-50a7-47a9-9e4b-6b29bd46237a","ios":"levelo://app?vid=75bb1dd6-50a7-47a9-9e4b-6b29bd46237a"},"vehicle_type_id":"4","last_reported":1752354554,"current_range_meters":9600,"station_id":"st_cvj6sg6p6f1abm77japg","pricing_plan_id":"cebpf4jnsgd1na2vs0mg"},{"bike_id":"87f44255-c8ce-4fad-bacb-933464dd0ba7","system_id":"levelo_inurba_marseille","lat":43.31322,"lon":5.39695,"is_reserved":false,"is_disabled":false,"rental_uris":{"android":"levelo://app?vid=87f44255-c8ce-4fad-bacb-933464dd0ba7","ios":"levelo://app?vid=87f44255-c8ce-4fad-bacb-933464dd0ba7"},"vehicle_type_id":"4","last_reported":1752354554,"current_range_meters":9600,"station_id":"ce4bgvp2rcd13ifvqcu0","pricing_plan_id":"cebpf4jnsgd1na2vs0mg"},{"bike_id":"46cacac0-84b7-4c70-a453-a1cb8250fb4d","system_id":"levelo_inurba_marseille","lat":43.33792,"lon":5.37443,"is_reserved":false,"is_disabled":false,"rental_uris":{"android":"levelo://app?vid=46cacac0-84b7-4c70-a453-a1cb8250fb4d","ios":"levelo://app?vid=46cacac0-84b7-4c70-a453-a1cb8250fb4d"},"vehicle_type_id":"4","last_reported":1752354554,"current_range_meters":10000,"station_id":"","pricing_plan_id":"cebpf4jnsgd1na2vs0mg"},{"bike_id":"21f51f77-8b78-488b-a42e-44d2a504cf11","system_id":"levelo_inurba_marseille","lat":43.2416,"lon":5.36395,"is_reserved":false,"is_disabled":true,"rental_uris":{"android":"levelo://app?vid=21f51f77-8b78-488b-a42e-44d2a504cf11","ios":"levelo://app?vid=21f51f77-8b78-488b-a42e-44d2a504cf11"},"vehicle_type_id":"4","last_reported":1752354554,"current_range_meters":10000,"station_id":"cpo36qri1sfpv3e86is0","pricing_plan_id":"cebpf4jnsgd1na2vs0mg"},{"bike_id":"5a1aa169-e8de-4c42-8232-f9cf794c57f1","system_id":"levelo_inurba_marseille","lat":43.21197,"lon":5.35082,"is_reserved":false,"is_disabled":false,"rental_uris":{"android":"levelo://app?vid=5a1aa169-e8de-4c42-8232-f9cf794c57f1","ios":"levelo://app?vid=5a1aa169-e8de-4c42-8232-f9cf794c57f1"},"vehicle_type_id":"4","last_reported":1752354554,"current_range_meters":10800,"station_id":"st_cvj6sg6p6f1abm77japg","pricing_plan_id":"cebpf4jnsgd1na2vs0mg"},{"bike_id":"65c82f02-f2c0-4665-93b4-9504f8fbfe64","system_id":"levelo_inurba_marseille","lat":43.29537,"lon":5.38547,"is_reserved":false,"is_disabled":false,"rental_uris":{"android":"levelo://app?vid=65c82f02-f2c0-4665-93b4-9504f8fbfe64","ios":"levelo://app?vid=65c82f02-f2c0-4665-93b4-9504f8fbfe64"},"vehicle_type_id":"4","last_reported":1752354554,"current_range_meters":10000,"station_id":"ce4bgih2rcd13ifvqba0","pricing_plan_id":"cebpf4jnsgd1na2vs0mg"},{"bike_id":"1d89a6ea-47a8-4f73-9a32-b462012979df","system_id":"levelo_inurba_marseille","lat":43.32111,"lon":5.3677,"is_reserved":false,"is_disabled":false,"rental_uris":{"android":"levelo://app?vid=1d89a6ea-47a8-4f73-9a32-b462012979df","ios":"levelo://app?vid=1d89a6ea-47a8-4f73-9a32-b462012979df"},"vehicle_type_id":"4","last_reported":1752354554,"current_range_meters":10000,"station_id":"ce4bhrh2rcd13ifvqhug","pricing_plan_id":"cebpf4jnsgd1na2vs0mg"},{"bike_id":"87bee25a-a1a0-401c-94f1-d1e22c4c1b60","system_id":"levelo_inurba_marseille","lat":43.25084,"lon":5.39537,"is_reserved":false,"is_disabled":false,"rental_uris":{"android":"levelo://app?vid=87bee25a-a1a0-401c-94f1-d1e22c4c1b60","ios":"levelo://app?vid=87bee25a-a1a0-401c-94f1-d1e22c4c1b60"},"vehicle_type_id":"4","last_reported":1752354554,"current_range_meters":10800,"station_id":"ce4bhm12rcd13ifvqgkg","pricing_plan_id":"cebpf4jnsgd1na2vs0mg"},{"bike_id":"5e4cc90f-bbda-4f7b-b9ab-71d48d3cfbc6","system_id":"levelo_inurba_marseille","lat":43.313511,"lon":5.367021,"is_reserved":false,"is_disabled":false,"rental_uris":{"android":"levelo://app?vid=5e4cc90f-bbda-4f7b-b9ab-71d48d3cfbc6","ios":"levelo://app?vid=5e4cc90f-bbda-4f7b-b9ab-71d48d3cfbc6"},"vehicle_type_id":"4","last_reported":1752354554,"current_range_meters":10800,"station_id":"ce4bgr92rcd13ifvqc6g","pricing_plan_id":"cebpf4jnsgd1na2vs0mg"},{"bike_id":"61198919-e72c-4fce-bc96-126627987dc0","system_id":"levelo_inurba_marseille","lat":43.29583,"lon":5.37883,"is_reserved":false,"is_disabled":false,"rental_uris":{"android":"levelo://app?vid=61198919-e72c-4fce-bc96-126627987dc0","ios":"levelo://app?vid=61198919-e72c-4fce-bc96-126627987dc0"},"vehicle_type_id":"4","last_reported":1752354554,"current_range_meters":10800,"station_id":"","pricing_plan_id":"cebpf4jnsgd1na2vs0mg"},{"bike_id":"d33c74ed-791f-4f00-818b-0a666c3e7727","system_id":"levelo_inurba_marseille","lat":43.3025,"lon":5.40088,"is_reserved":false,"is_disabled":false,"rental_uris":{"android":"levelo://app?vid=d33c74ed-791f-4f00-818b-0a666c3e7727","ios":"levelo://app?vid=d33c74ed-791f-4f00-818b-0a666c3e7727"},"vehicle_type_id":"4","last_reported":1752354554,"current_range_meters":10800,"station_id":"ce4bgvh2rcd13ifvqcs0","pricing_plan_id":"cebpf4jnsgd1na2vs0mg"},{"bike_id":"c7efad06-cf68-4230-8d49-a6579fb2e483","system_id":"levelo_inurba_marseille","lat":43.29502,"lon":5.37602,"is_reserved":false,"is_disabled":false,"rental_uris":{"android":"levelo://app?vid=c7efad06-cf68-4230-8d49-a6579fb2e483","ios":"levelo://app?vid=c7efad06-cf68-4230-8d49-a6579fb2e483"},"vehicle_type_id":"4","last_reported":1752354554,"current_range_meters":10800,"station_id":"","pricing_plan_id":"cebpf4jnsgd1na2vs0mg"},{"bike_id":"30082c6b-4a7b-4638-a4ae-66135ff7d26c","system_id":"levelo_inurba_marseille","lat":43.23195,"lon":5.3555,"is_reserved":false,"is_disabled":false,"rental_uris":{"android":"levelo://app?vid=30082c6b-4a7b-4638-a4ae-66135ff7d26c","ios":"levelo://app?vid=30082c6b-4a7b-4638-a4ae-66135ff7d26c"},"vehicle_type_id":"4","last_reported":1752354554,"current_range_meters":10800,"station_id":"ce4bhu92rcd13ifvqi70","pricing_plan_id":"cebpf4jnsgd1na2vs0mg"},{"bike_id":"4e18f6a0-cf0a-4e54-823e-14d073e25d70","system_id":"levelo_inurba_marseille","lat":43.28041,"lon":5.36942,"is_reserved":false,"is_disabled":true,"rental_uris":{"android":"levelo://app?vid=4e18f6a0-cf0a-4e54-823e-14d073e25d70","ios":"levelo://app?vid=4e18f6a0-cf0a-4e54-823e-14d073e25d70"},"vehicle_type_id":"4","last_reported":1752354554,"current_range_meters":10800,"station_id":"ce4bha12rcd13ifvqef0","pricing_plan_id":"cebpf4jnsgd1na2vs0mg"},{"bike_id":"0b24b222-21f4-41b5-8056-7438e1e3ced1","system_id":"levelo_inurba_marseille","lat":43.241655,"lon":5.363972,"is_reserved":false,"is_disabled":false,"rental_uris":{"android":"levelo://app?vid=0b24b222-21f4-41b5-8056-7438e1e3ced1","ios":"levelo://app?vid=0b24b222-21f4-41b5-8056-7438e1e3ced1"},"vehicle_type_id":"4","last_reported":1752354554,"current_range_meters":10800,"station_id":"cpo36qri1sfpv3e86is0","pricing_plan_id":"cebpf4jnsgd1na2vs0mg"},{"bike_id":"c453155a-5220-48fc-922b-600ca54f8ab5","system_id":"levelo_inurba_marseille","lat":43.28669,"lon":5.36342,"is_reserved":false,"is_disabled":true,"rental_uris":{"android":"levelo://app?vid=c453155a-5220-48fc-922b-600ca54f8ab5","ios":"levelo://app?vid=c453155a-5220-48fc-922b-600ca54f8ab5"},"vehicle_type_id":"4","last_reported":1752354554,"current_range_meters":10800,"station_id":"ce4bhah2rcd13ifvqej0","pricing_plan_id":"cebpf4jnsgd1na2vs0mg"},{"bike_id":"ffe907d6-7ed9-401c-9d9c-e32dcd8dda6d","system_id":"levelo_inurba_marseille","lat":43.29249,"lon":5.38444,"is_reserved":false,"is_disabled":false,"rental_uris":{"android":"levelo://app?vid=ffe907d6-7ed9-401c-9d9c-e32dcd8dda6d","ios":"levelo://app?vid=ffe907d6-7ed9-401c-9d9c-e32dcd8dda6d"},"vehicle_type_id":"4","last_reported":1752354554,"current_range_meters":11200,"station_id":"ce4bh692rcd13ifvqea0","pricing_plan_id":"cebpf4jnsgd1na2vs0mg"},{"bike_id":"ab6cb234-c8d6-4ce4-ab4f-b14b364484d3","system_id":"levelo_inurba_marseille","lat":43.30152,"lon":5.38188,"is_reserved":false,"is_disabled":false,"rental_uris":{"android":"levelo://app?vid=ab6cb234-c8d6-4ce4-ab4f-b14b364484d3","ios":"levelo://app?vid=ab6cb234-c8d6-4ce4-ab4f-b14b364484d3"},"vehicle_type_id":"4","last_reported":1752354554,"current_range_meters":11200,"station_id":"","pricing_plan_id":"cebpf4jnsgd1na2vs0mg"},{"bike_id":"dbba3321-20c7-4989-a7b5-ea9ab2c4b3e8","system_id":"levelo_inurba_marseille","lat":43.261935,"lon":5.374477,"is_reserved":false,"is_disabled":false,"rental_uris":{"android":"levelo://app?vid=dbba3321-20c7-4989-a7b5-ea9ab2c4b3e8","ios":"levelo://app?vid=dbba3321-20c7-4989-a7b5-ea9ab2c4b3e8"},"vehicle_type_id":"4","last_reported":1752354554,"current_range_meters":11200,"station_id":"ce4bhgp2rcd13ifvqfc0","pricing_plan_id":"cebpf4jnsgd1na2vs0mg"},{"bike_id":"5cf29819-6390-4355-bb40-16c62cef1501","system_id":"levelo_inurba_marseille","lat":43.284154,"lon":5.34975,"is_reserved":false,"is_disabled":false,"rental_uris":{"android":"levelo://app?vid=5cf29819-6390-4355-bb40-16c62cef1501","ios":"levelo://app?vid=5cf29819-6390-4355-bb40-16c62cef1501"},"vehicle_type_id":"4","last_reported":1752354554,"current_range_meters":11600,"station_id":"","pricing_plan_id":"cebpf4jnsgd1na2vs0mg"},{"bike_id":"75072b64-d972-4486-a3c8-db33773b01ca","system_id":"levelo_inurba_marseille","lat":43.32652,"lon":5.40996,"is_reserved":false,"is_disabled":false,"rental_uris":{"android":"levelo://app?vid=75072b64-d972-4486-a3c8-db33773b01ca","ios":"levelo://app?vid=75072b64-d972-4486-a3c8-db33773b01ca"},"vehicle_type_id":"4","last_reported":1752354554,"current_range_meters":11600,"station_id":"ce4bhpp2rcd13ifvqhgg","pricing_plan_id":"cebpf4jnsgd1na2vs0mg"},{"bike_id":"c816310d-8ff0-4290-b10a-aad431dd902c","system_id":"levelo_inurba_marseille","lat":43.21743,"lon":5.34602,"is_reserved":false,"is_disabled":true,"rental_uris":{"android":"levelo://app?vid=c816310d-8ff0-4290-b10a-aad431dd902c","ios":"levelo://app?vid=c816310d-8ff0-4290-b10a-aad431dd902c"},"vehicle_type_id":"4","last_reported":1752354554,"current_range_meters":12000,"station_id":"st_cvj6r9ubvosntc0bgbag","pricing_plan_id":"cebpf4jnsgd1na2vs0mg"},{"bike_id":"d502518b-cea4-4a93-9e26-6385d9028156","system_id":"levelo_inurba_marseille","lat":43.295349,"lon":5.385473,"is_reserved":false,"is_disabled":false,"rental_uris":{"android":"levelo://app?vid=d502518b-cea4-4a93-9e26-6385d9028156","ios":"levelo://app?vid=d502518b-cea4-4a93-9e26-6385d9028156"},"vehicle_type_id":"4","last_reported":1752354554,"current_range_meters":12000,"station_id":"ce4bhb12rcd13ifvqem0","pricing_plan_id":"cebpf4jnsgd1na2vs0mg"},{"bike_id":"cb69c6e7-d151-477a-aa79-0ad7ae7ddff7","system_id":"levelo_inurba_marseille","lat":43.31115,"lon":5.37763,"is_reserved":false,"is_disabled":false,"rental_uris":{"android":"levelo://app?vid=cb69c6e7-d151-477a-aa79-0ad7ae7ddff7","ios":"levelo://app?vid=cb69c6e7-d151-477a-aa79-0ad7ae7ddff7"},"vehicle_type_id":"4","last_reported":1752354554,"current_range_meters":12000,"station_id":"ce4bgt92rcd13ifvqcg0","pricing_plan_id":"cebpf4jnsgd1na2vs0mg"},{"bike_id":"287a81f7-10c7-4b0f-bb36-f8e82013e149","system_id":"levelo_inurba_marseille","lat":43.29279,"lon":5.40122,"is_reserved":false,"is_disabled":false,"rental_uris":{"android":"levelo://app?vid=287a81f7-10c7-4b0f-bb36-f8e82013e149","ios":"levelo://app?vid=287a81f7-10c7-4b0f-bb36-f8e82013e149"},"vehicle_type_id":"4","last_reported":1752354554,"current_range_meters":12000,"station_id":"ce4bh312rcd13ifvqdk0","pricing_plan_id":"cebpf4jnsgd1na2vs0mg"},{"bike_id":"38815d2b-48df-4038-9515-127ee3516d98","system_id":"levelo_inurba_marseille","lat":43.31082,"lon":5.42434,"is_reserved":false,"is_disabled":false,"rental_uris":{"android":"levelo://app?vid=38815d2b-48df-4038-9515-127ee3516d98","ios":"levelo://app?vid=38815d2b-48df-4038-9515-127ee3516d98"},"vehicle_type_id":"4","last_reported":1752354554,"current_range_meters":12000,"station_id":"ce4bhp92rcd13ifvqhag","pricing_plan_id":"cebpf4jnsgd1na2vs0mg"},{"bike_id":"6bd7002a-7d96-44e0-bd6c-ca0cb9be047d","system_id":"levelo_inurba_marseille","lat":43.26175,"lon":5.3747,"is_reserved":false,"is_disabled":false,"rental_uris":{"android":"levelo://app?vid=6bd7002a-7d96-44e0-bd6c-ca0cb9be047d","ios":"levelo://app?vid=6bd7002a-7d96-44e0-bd6c-ca0cb9be047d"},"vehicle_type_id":"4","last_reported":1752354554,"current_range_meters":12000,"station_id":"ce4bhgp2rcd13ifvqfc0","pricing_plan_id":"cebpf4jnsgd1na2vs0mg"},{"bike_id":"48167428-318e-40e4-8acf-b6c7fceb9c42","system_id":"levelo_inurba_marseille","lat":43.287249,"lon":5.360916,"is_reserved":false,"is_disabled":false,"rental_uris":{"android":"levelo://app?vid=48167428-318e-40e4-8acf-b6c7fceb9c42","ios":"levelo://app?vid=48167428-318e-40e4-8acf-b6c7fceb9c42"},"vehicle_type_id":"4","last_reported":1752354554,"current_range_meters":12000,"station_id":"cki0cbj6b192h4jlfktg","pricing_plan_id":"cebpf4jnsgd1na2vs0mg"},{"bike_id":"098a6fc1-ebc8-413f-92af-a35bdc0f970b","system_id":"levelo_inurba_marseille","lat":43.25863,"lon":5.39905,"is_reserved":false,"is_disabled":false,"rental_uris":{"android":"levelo://app?vid=098a6fc1-ebc8-413f-92af-a35bdc0f970b","ios":"levelo://app?vid=098a6fc1-ebc8-413f-92af-a35bdc0f970b"},"vehicle_type_id":"4","last_reported":1752354554,"current_range_meters":12400,"station_id":"ce4bhl92rcd13ifvqghg","pricing_plan_id":"cebpf4jnsgd1na2vs0mg"},{"bike_id":"8a1d06ba-2115-4a2f-84a8-48907a4a37ec","system_id":"levelo_inurba_marseille","lat":43.29301,"lon":5.3716,"is_reserved":false,"is_disabled":false,"rental_uris":{"android":"levelo://app?vid=8a1d06ba-2115-4a2f-84a8-48907a4a37ec","ios":"levelo://app?vid=8a1d06ba-2115-4a2f-84a8-48907a4a37ec"},"vehicle_type_id":"4","last_reported":1752354554,"current_range_meters":12400,"station_id":"ce4bgh92rcd13ifvqb40","pricing_plan_id":"cebpf4jnsgd1na2vs0mg"},{"bike_id":"ee5338dd-18a1-4b48-a5b0-f8c72f7b1319","system_id":"levelo_inurba_marseille","lat":43.31873,"lon":5.36818,"is_reserved":false,"is_disabled":false,"rental_uris":{"android":"levelo://app?vid=ee5338dd-18a1-4b48-a5b0-f8c72f7b1319","ios":"levelo://app?vid=ee5338dd-18a1-4b48-a5b0-f8c72f7b1319"},"vehicle_type_id":"4","last_reported":1752354554,"current_range_meters":12400,"station_id":"","pricing_plan_id":"cebpf4jnsgd1na2vs0mg"},{"bike_id":"ad3a92a9-aac6-4694-a2f3-20c935fef2b6","system_id":"levelo_inurba_marseille","lat":43.292986,"lon":5.374656,"is_reserved":false,"is_disabled":false,"rental_uris":{"android":"levelo://app?vid=ad3a92a9-aac6-4694-a2f3-20c935fef2b6","ios":"levelo://app?vid=ad3a92a9-aac6-4694-a2f3-20c935fef2b6"},"vehicle_type_id":"4","last_reported":1752354554,"current_range_meters":12400,"station_id":"","pricing_plan_id":"cebpf4jnsgd1na2vs0mg"},{"bike_id":"92e154b4-028c-4974-88b2-e4f9a14dc7a9","system_id":"levelo_inurba_marseille","lat":43.24651,"lon":5.38885,"is_reserved":false,"is_disabled":false,"rental_uris":{"android":"levelo://app?vid=92e154b4-028c-4974-88b2-e4f9a14dc7a9","ios":"levelo://app?vid=92e154b4-028c-4974-88b2-e4f9a14dc7a9"},"vehicle_type_id":"4","last_reported":1752354554,"current_range_meters":12400,"station_id":"ce4bhg12rcd13ifvqf60","pricing_plan_id":"cebpf4jnsgd1na2vs0mg"},{"bike_id":"d1230de7-193d-4e2b-bbd5-fd802b9c41e1","system_id":"levelo_inurba_marseille","lat":43.28936,"lon":5.36637,"is_reserved":false,"is_disabled":false,"rental_uris":{"android":"levelo://app?vid=d1230de7-193d-4e2b-bbd5-fd802b9c41e1","ios":"levelo://app?vid=d1230de7-193d-4e2b-bbd5-fd802b9c41e1"},"vehicle_type_id":"4","last_reported":1752354554,"current_range_meters":12400,"station_id":"ce4bhap2rcd13ifvqek0","pricing_plan_id":"cebpf4jnsgd1na2vs0mg"},{"bike_id":"7f02047d-a6cd-43f4-a617-996f2b9a8bc8","system_id":"levelo_inurba_marseille","lat":43.32326,"lon":5.36682,"is_reserved":false,"is_disabled":false,"rental_uris":{"android":"levelo://app?vid=7f02047d-a6cd-43f4-a617-996f2b9a8bc8","ios":"levelo://app?vid=7f02047d-a6cd-43f4-a617-996f2b9a8bc8"},"vehicle_type_id":"4","last_reported":1752354554,"current_range_meters":12800,"station_id":"","pricing_plan_id":"cebpf4jnsgd1na2vs0mg"},{"bike_id":"470d1e9d-8c05-40b8-a6b2-039f183b9f6a","system_id":"levelo_inurba_marseille","lat":43.23189,"lon":5.35556,"is_reserved":false,"is_disabled":true,"rental_uris":{"android":"levelo://app?vid=470d1e9d-8c05-40b8-a6b2-039f183b9f6a","ios":"levelo://app?vid=470d1e9d-8c05-40b8-a6b2-039f183b9f6a"},"vehicle_type_id":"4","last_reported":1752354554,"current_range_meters":12800,"station_id":"ce4bhu92rcd13ifvqi70","pricing_plan_id":"cebpf4jnsgd1na2vs0mg"},{"bike_id":"dec0260e-662d-4be0-bc35-d8d0072aa468","system_id":"levelo_inurba_marseille","lat":43.29519,"lon":5.39417,"is_reserved":false,"is_disabled":false,"rental_uris":{"android":"levelo://app?vid=dec0260e-662d-4be0-bc35-d8d0072aa468","ios":"levelo://app?vid=dec0260e-662d-4be0-bc35-d8d0072aa468"},"vehicle_type_id":"4","last_reported":1752354554,"current_range_meters":13600,"station_id":"ce4bh292rcd13ifvqdf0","pricing_plan_id":"cebpf4jnsgd1na2vs0mg"},{"bike_id":"48308127-2879-4d60-803d-8d87ca31d7af","system_id":"levelo_inurba_marseille","lat":43.30296,"lon":5.39213,"is_reserved":false,"is_disabled":false,"rental_uris":{"android":"levelo://app?vid=48308127-2879-4d60-803d-8d87ca31d7af","ios":"levelo://app?vid=48308127-2879-4d60-803d-8d87ca31d7af"},"vehicle_type_id":"4","last_reported":1752354554,"current_range_meters":12800,"station_id":"ce4bgkh2rcd13ifvqbk0","pricing_plan_id":"cebpf4jnsgd1na2vs0mg"},{"bike_id":"297f7a4d-6e86-4c62-9995-41f8589188c2","system_id":"levelo_inurba_marseille","lat":43.29258,"lon":5.38453,"is_reserved":false,"is_disabled":false,"rental_uris":{"android":"levelo://app?vid=297f7a4d-6e86-4c62-9995-41f8589188c2","ios":"levelo://app?vid=297f7a4d-6e86-4c62-9995-41f8589188c2"},"vehicle_type_id":"4","last_reported":1752354554,"current_range_meters":13600,"station_id":"ce4bh692rcd13ifvqea0","pricing_plan_id":"cebpf4jnsgd1na2vs0mg"},{"bike_id":"4a7defd4-5e25-4492-b8dc-5d683c3e3690","system_id":"levelo_inurba_marseille","lat":43.26696,"lon":5.38277,"is_reserved":false,"is_disabled":false,"rental_uris":{"android":"levelo://app?vid=4a7defd4-5e25-4492-b8dc-5d683c3e3690","ios":"levelo://app?vid=4a7defd4-5e25-4492-b8dc-5d683c3e3690"},"vehicle_type_id":"4","last_reported":1752354554,"current_range_meters":13600,"station_id":"ce4bhg92rcd13ifvqf90","pricing_plan_id":"cebpf4jnsgd1na2vs0mg"},{"bike_id":"280d281e-02fe-4137-81fe-ea972de0e22f","system_id":"levelo_inurba_marseille","lat":43.303517,"lon":5.39345,"is_reserved":false,"is_disabled":false,"rental_uris":{"android":"levelo://app?vid=280d281e-02fe-4137-81fe-ea972de0e22f","ios":"levelo://app?vid=280d281e-02fe-4137-81fe-ea972de0e22f"},"vehicle_type_id":"4","last_reported":1752354554,"current_range_meters":13600,"station_id":"ce4bgvp2rcd13ifvqcu0","pricing_plan_id":"cebpf4jnsgd1na2vs0mg"},{"bike_id":"d3a6e38c-d49f-4352-88a6-de4e89f5067a","system_id":"levelo_inurba_marseille","lat":43.26227,"lon":5.40451,"is_reserved":false,"is_disabled":false,"rental_uris":{"android":"levelo://app?vid=d3a6e38c-d49f-4352-88a6-de4e89f5067a","ios":"levelo://app?vid=d3a6e38c-d49f-4352-88a6-de4e89f5067a"},"vehicle_type_id":"4","last_reported":1752354554,"current_range_meters":13600,"station_id":"ce4bhmh2rcd13ifvqgmg","pricing_plan_id":"cebpf4jnsgd1na2vs0mg"},{"bike_id":"2c01c085-a118-4b6b-9ba6-2000ce1f20ec","system_id":"levelo_inurba_marseille","lat":43.28681,"lon":5.37899,"is_reserved":false,"is_disabled":false,"rental_uris":{"android":"levelo://app?vid=2c01c085-a118-4b6b-9ba6-2000ce1f20ec","ios":"levelo://app?vid=2c01c085-a118-4b6b-9ba6-2000ce1f20ec"},"vehicle_type_id":"4","last_reported":1752354554,"current_range_meters":13600,"station_id":"","pricing_plan_id":"cebpf4jnsgd1na2vs0mg"},{"bike_id":"2cd6be5f-2b60-427a-9cc4-eeed3cf5a194","system_id":"levelo_inurba_marseille","lat":43.27942,"lon":5.41057,"is_reserved":false,"is_disabled":false,"rental_uris":{"android":"levelo://app?vid=2cd6be5f-2b60-427a-9cc4-eeed3cf5a194","ios":"levelo://app?vid=2cd6be5f-2b60-427a-9cc4-eeed3cf5a194"},"vehicle_type_id":"4","last_reported":1752354554,"current_range_meters":13600,"station_id":"ce4bhnp2rcd13ifvqh0g","pricing_plan_id":"cebpf4jnsgd1na2vs0mg"},{"bike_id":"3f2f54ea-4770-4590-b19e-824f4e2eec26","system_id":"levelo_inurba_marseille","lat":43.26026,"lon":5.37561,"is_reserved":false,"is_disabled":false,"rental_uris":{"android":"levelo://app?vid=3f2f54ea-4770-4590-b19e-824f4e2eec26","ios":"levelo://app?vid=3f2f54ea-4770-4590-b19e-824f4e2eec26"},"vehicle_type_id":"4","last_reported":1752354554,"current_range_meters":13600,"station_id":"ce4bhgh2rcd13ifvqfa0","pricing_plan_id":"cebpf4jnsgd1na2vs0mg"},{"bike_id":"383a2485-518e-4235-b1cd-0ebf65ba74a5","system_id":"levelo_inurba_marseille","lat":43.29533,"lon":5.38564,"is_reserved":false,"is_disabled":true,"rental_uris":{"android":"levelo://app?vid=383a2485-518e-4235-b1cd-0ebf65ba74a5","ios":"levelo://app?vid=383a2485-518e-4235-b1cd-0ebf65ba74a5"},"vehicle_type_id":"4","last_reported":1752354554,"current_range_meters":14000,"station_id":"ce4bgih2rcd13ifvqba0","pricing_plan_id":"cebpf4jnsgd1na2vs0mg"},{"bike_id":"737ead6f-e608-42f1-8a55-8949c954e8e3","system_id":"levelo_inurba_marseille","lat":43.21226,"lon":5.3507,"is_reserved":false,"is_disabled":false,"rental_uris":{"android":"levelo://app?vid=737ead6f-e608-42f1-8a55-8949c954e8e3","ios":"levelo://app?vid=737ead6f-e608-42f1-8a55-8949c954e8e3"},"vehicle_type_id":"4","last_reported":1752354554,"current_range_meters":14000,"station_id":"","pricing_plan_id":"cebpf4jnsgd1na2vs0mg"},{"bike_id":"7bb2812a-b96e-400f-831c-7b8a97727eef","system_id":"levelo_inurba_marseille","lat":43.31713,"lon":5.37743,"is_reserved":false,"is_disabled":false,"rental_uris":{"android":"levelo://app?vid=7bb2812a-b96e-400f-831c-7b8a97727eef","ios":"levelo://app?vid=7bb2812a-b96e-400f-831c-7b8a97727eef"},"vehicle_type_id":"4","last_reported":1752354554,"current_range_meters":14400,"station_id":"ce4bgth2rcd13ifvqch0","pricing_plan_id":"cebpf4jnsgd1na2vs0mg"},{"bike_id":"3756969e-c913-4463-b8d5-f958fdd0684c","system_id":"levelo_inurba_marseille","lat":43.23188,"lon":5.39999,"is_reserved":false,"is_disabled":false,"rental_uris":{"android":"levelo://app?vid=3756969e-c913-4463-b8d5-f958fdd0684c","ios":"levelo://app?vid=3756969e-c913-4463-b8d5-f958fdd0684c"},"vehicle_type_id":"4","last_reported":1752354554,"current_range_meters":14400,"station_id":"ce4bhn12rcd13ifvqgqg","pricing_plan_id":"cebpf4jnsgd1na2vs0mg"},{"bike_id":"51890362-46b0-4ee7-9f02-afbf036d064e","system_id":"levelo_inurba_marseille","lat":43.2121,"lon":5.35254,"is_reserved":false,"is_disabled":false,"rental_uris":{"android":"levelo://app?vid=51890362-46b0-4ee7-9f02-afbf036d064e","ios":"levelo://app?vid=51890362-46b0-4ee7-9f02-afbf036d064e"},"vehicle_type_id":"4","last_reported":1752354554,"current_range_meters":14400,"station_id":"st_cvj6sg6p6f1abm77japg","pricing_plan_id":"cebpf4jnsgd1na2vs0mg"},{"bike_id":"2a591a55-0db5-4532-a78c-6b1eb465ecdc","system_id":"levelo_inurba_marseille","lat":43.29887,"lon":5.38899,"is_reserved":false,"is_disabled":false,"rental_uris":{"android":"levelo://app?vid=2a591a55-0db5-4532-a78c-6b1eb465ecdc","ios":"levelo://app?vid=2a591a55-0db5-4532-a78c-6b1eb465ecdc"},"vehicle_type_id":"4","last_reported":1752354554,"current_range_meters":14400,"station_id":"ce4bh392rcd13ifvqdl0","pricing_plan_id":"cebpf4jnsgd1na2vs0mg"},{"bike_id":"ff12513b-478c-4f81-9d13-9e238175c660","system_id":"levelo_inurba_marseille","lat":43.29517,"lon":5.3856,"is_reserved":false,"is_disabled":false,"rental_uris":{"android":"levelo://app?vid=ff12513b-478c-4f81-9d13-9e238175c660","ios":"levelo://app?vid=ff12513b-478c-4f81-9d13-9e238175c660"},"vehicle_type_id":"4","last_reported":1752354554,"current_range_meters":14400,"station_id":"ce4bgih2rcd13ifvqba0","pricing_plan_id":"cebpf4jnsgd1na2vs0mg"},{"bike_id":"49801dc2-618a-44b8-84ae-416cd87fdbe9","system_id":"levelo_inurba_marseille","lat":43.33781,"lon":5.37469,"is_reserved":false,"is_disabled":false,"rental_uris":{"android":"levelo://app?vid=49801dc2-618a-44b8-84ae-416cd87fdbe9","ios":"levelo://app?vid=49801dc2-618a-44b8-84ae-416cd87fdbe9"},"vehicle_type_id":"4","last_reported":1752354554,"current_range_meters":14400,"station_id":"","pricing_plan_id":"cebpf4jnsgd1na2vs0mg"},{"bike_id":"a0137104-c9f4-434a-a5e3-80725cd5a2b4","system_id":"levelo_inurba_marseille","lat":43.21186,"lon":5.35077,"is_reserved":false,"is_disabled":false,"rental_uris":{"android":"levelo://app?vid=a0137104-c9f4-434a-a5e3-80725cd5a2b4","ios":"levelo://app?vid=a0137104-c9f4-434a-a5e3-80725cd5a2b4"},"vehicle_type_id":"4","last_reported":1752354554,"current_range_meters":14400,"station_id":"st_cvj6sg6p6f1abm77japg","pricing_plan_id":"cebpf4jnsgd1na2vs0mg"},{"bike_id":"c3455266-2b79-4fd9-b0cd-450056d6b1c3","system_id":"levelo_inurba_marseille","lat":43.30947,"lon":5.39031,"is_reserved":false,"is_disabled":false,"rental_uris":{"android":"levelo://app?vid=c3455266-2b79-4fd9-b0cd-450056d6b1c3","ios":"levelo://app?vid=c3455266-2b79-4fd9-b0cd-450056d6b1c3"},"vehicle_type_id":"4","last_reported":1752354554,"current_range_meters":14400,"station_id":"ce4bgup2rcd13ifvqco0","pricing_plan_id":"cebpf4jnsgd1na2vs0mg"},{"bike_id":"70a3251b-be60-49b6-b49e-dcbf236b80f6","system_id":"levelo_inurba_marseille","lat":43.30325,"lon":5.40431,"is_reserved":false,"is_disabled":false,"rental_uris":{"android":"levelo://app?vid=70a3251b-be60-49b6-b49e-dcbf236b80f6","ios":"levelo://app?vid=70a3251b-be60-49b6-b49e-dcbf236b80f6"},"vehicle_type_id":"4","last_reported":1752354554,"current_range_meters":14400,"station_id":"ce4bh012rcd13ifvqd10","pricing_plan_id":"cebpf4jnsgd1na2vs0mg"},{"bike_id":"4ba7c9a6-c620-4530-868c-55eb52cdec6d","system_id":"levelo_inurba_marseille","lat":43.28697,"lon":5.39996,"is_reserved":false,"is_disabled":false,"rental_uris":{"android":"levelo://app?vid=4ba7c9a6-c620-4530-868c-55eb52cdec6d","ios":"levelo://app?vid=4ba7c9a6-c620-4530-868c-55eb52cdec6d"},"vehicle_type_id":"4","last_reported":1752354554,"current_range_meters":14800,"station_id":"ce4bho92rcd13ifvqh3g","pricing_plan_id":"cebpf4jnsgd1na2vs0mg"},{"bike_id":"d7d851de-d966-47dc-9bd8-1a9ae0c433a4","system_id":"levelo_inurba_marseille","lat":43.22494,"lon":5.34802,"is_reserved":false,"is_disabled":false,"rental_uris":{"android":"levelo://app?vid=d7d851de-d966-47dc-9bd8-1a9ae0c433a4","ios":"levelo://app?vid=d7d851de-d966-47dc-9bd8-1a9ae0c433a4"},"vehicle_type_id":"4","last_reported":1752354554,"current_range_meters":14800,"station_id":"st_cvj5dfep6f1abm77gieg","pricing_plan_id":"cebpf4jnsgd1na2vs0mg"},{"bike_id":"854d5dbd-9ed2-47cd-9380-9348e08a193d","system_id":"levelo_inurba_marseille","lat":43.29905,"lon":5.37481,"is_reserved":false,"is_disabled":false,"rental_uris":{"android":"levelo://app?vid=854d5dbd-9ed2-47cd-9380-9348e08a193d","ios":"levelo://app?vid=854d5dbd-9ed2-47cd-9380-9348e08a193d"},"vehicle_type_id":"4","last_reported":1752354554,"current_range_meters":15200,"station_id":"ce4bgjh2rcd13ifvqbg0","pricing_plan_id":"cebpf4jnsgd1na2vs0mg"},{"bike_id":"01ec080a-2072-40fe-8f02-ee71150e5d55","system_id":"levelo_inurba_marseille","lat":43.29271,"lon":5.36845,"is_reserved":false,"is_disabled":false,"rental_uris":{"android":"levelo://app?vid=01ec080a-2072-40fe-8f02-ee71150e5d55","ios":"levelo://app?vid=01ec080a-2072-40fe-8f02-ee71150e5d55"},"vehicle_type_id":"4","last_reported":1752354554,"current_range_meters":15200,"station_id":"ce4bhbp2rcd13ifvqesg","pricing_plan_id":"cebpf4jnsgd1na2vs0mg"},{"bike_id":"ccc3e868-99cb-4e41-a4b5-ae85386271e5","system_id":"levelo_inurba_marseille","lat":43.31068,"lon":5.38361,"is_reserved":false,"is_disabled":false,"rental_uris":{"android":"levelo://app?vid=ccc3e868-99cb-4e41-a4b5-ae85386271e5","ios":"levelo://app?vid=ccc3e868-99cb-4e41-a4b5-ae85386271e5"},"vehicle_type_id":"4","last_reported":1752354554,"current_range_meters":15200,"station_id":"ce4bgv92rcd13ifvqcr0","pricing_plan_id":"cebpf4jnsgd1na2vs0mg"},{"bike_id":"00bc0b3b-e317-4a17-a011-a3a9a29d816a","system_id":"levelo_inurba_marseille","lat":43.21201,"lon":5.35039,"is_reserved":false,"is_disabled":false,"rental_uris":{"android":"levelo://app?vid=00bc0b3b-e317-4a17-a011-a3a9a29d816a","ios":"levelo://app?vid=00bc0b3b-e317-4a17-a011-a3a9a29d816a"},"vehicle_type_id":"4","last_reported":1752354554,"current_range_meters":15200,"station_id":"st_cvj6sg6p6f1abm77japg","pricing_plan_id":"cebpf4jnsgd1na2vs0mg"},{"bike_id":"8d42a2f6-7ad0-4517-82b7-74b6dab84a8c","system_id":"levelo_inurba_marseille","lat":43.30611,"lon":5.37223,"is_reserved":false,"is_disabled":false,"rental_uris":{"android":"levelo://app?vid=8d42a2f6-7ad0-4517-82b7-74b6dab84a8c","ios":"levelo://app?vid=8d42a2f6-7ad0-4517-82b7-74b6dab84a8c"},"vehicle_type_id":"4","last_reported":1752354554,"current_range_meters":15200,"station_id":"ce4bgqh2rcd13ifvqc4g","pricing_plan_id":"cebpf4jnsgd1na2vs0mg"},{"bike_id":"e6e72963-b2bd-4a67-a076-069cdfba7612","system_id":"levelo_inurba_marseille","lat":43.30429,"lon":5.41298,"is_reserved":false,"is_disabled":false,"rental_uris":{"android":"levelo://app?vid=e6e72963-b2bd-4a67-a076-069cdfba7612","ios":"levelo://app?vid=e6e72963-b2bd-4a67-a076-069cdfba7612"},"vehicle_type_id":"4","last_reported":1752354554,"current_range_meters":15200,"station_id":"ce4bhop2rcd13ifvqh8g","pricing_plan_id":"cebpf4jnsgd1na2vs0mg"},{"bike_id":"fd4ea8a4-19a2-471d-a213-096f14af8bf9","system_id":"levelo_inurba_marseille","lat":43.29269,"lon":5.38444,"is_reserved":false,"is_disabled":false,"rental_uris":{"android":"levelo://app?vid=fd4ea8a4-19a2-471d-a213-096f14af8bf9","ios":"levelo://app?vid=fd4ea8a4-19a2-471d-a213-096f14af8bf9"},"vehicle_type_id":"4","last_reported":1752354554,"current_range_meters":15200,"station_id":"ce4bh692rcd13ifvqea0","pricing_plan_id":"cebpf4jnsgd1na2vs0mg"},{"bike_id":"4ab460f6-2b13-462f-a8b8-8ee3ec6489ea","system_id":"levelo_inurba_marseille","lat":43.26221,"lon":5.40468,"is_reserved":false,"is_disabled":false,"rental_uris":{"android":"levelo://app?vid=4ab460f6-2b13-462f-a8b8-8ee3ec6489ea","ios":"levelo://app?vid=4ab460f6-2b13-462f-a8b8-8ee3ec6489ea"},"vehicle_type_id":"4","last_reported":1752354554,"current_range_meters":15200,"station_id":"ce4bhmh2rcd13ifvqgmg","pricing_plan_id":"cebpf4jnsgd1na2vs0mg"},{"bike_id":"25548ffc-4576-4171-b8e0-e833fa4b2e60","system_id":"levelo_inurba_marseille","lat":43.29535,"lon":5.38548,"is_reserved":false,"is_disabled":false,"rental_uris":{"android":"levelo://app?vid=25548ffc-4576-4171-b8e0-e833fa4b2e60","ios":"levelo://app?vid=25548ffc-4576-4171-b8e0-e833fa4b2e60"},"vehicle_type_id":"4","last_reported":1752354554,"current_range_meters":15200,"station_id":"ce4bgih2rcd13ifvqba0","pricing_plan_id":"cebpf4jnsgd1na2vs0mg"},{"bike_id":"8b37f03f-f226-4bbc-8648-b109da7ba145","system_id":"levelo_inurba_marseille","lat":43.30536,"lon":5.366999,"is_reserved":false,"is_disabled":false,"rental_uris":{"android":"levelo://app?vid=8b37f03f-f226-4bbc-8648-b109da7ba145","ios":"levelo://app?vid=8b37f03f-f226-4bbc-8648-b109da7ba145"},"vehicle_type_id":"4","last_reported":1752354554,"current_range_meters":15200,"station_id":"","pricing_plan_id":"cebpf4jnsgd1na2vs0mg"},{"bike_id":"95612676-f81c-4caa-88c8-bcae4ee321b6","system_id":"levelo_inurba_marseille","lat":43.29001,"lon":5.35613,"is_reserved":false,"is_disabled":false,"rental_uris":{"android":"levelo://app?vid=95612676-f81c-4caa-88c8-bcae4ee321b6","ios":"levelo://app?vid=95612676-f81c-4caa-88c8-bcae4ee321b6"},"vehicle_type_id":"4","last_reported":1752354554,"current_range_meters":15200,"station_id":"ce4bhb92rcd13ifvqen0","pricing_plan_id":"cebpf4jnsgd1na2vs0mg"},{"bike_id":"740a8133-cdf7-472c-b2b6-e199dff03f1c","system_id":"levelo_inurba_marseille","lat":43.231953,"lon":5.399864,"is_reserved":false,"is_disabled":false,"rental_uris":{"android":"levelo://app?vid=740a8133-cdf7-472c-b2b6-e199dff03f1c","ios":"levelo://app?vid=740a8133-cdf7-472c-b2b6-e199dff03f1c"},"vehicle_type_id":"4","last_reported":1752354554,"current_range_meters":16000,"station_id":"ce4bhn12rcd13ifvqgqg","pricing_plan_id":"cebpf4jnsgd1na2vs0mg"},{"bike_id":"57692aae-9841-41ad-bc01-254866eaf8b0","system_id":"levelo_inurba_marseille","lat":43.32337,"lon":5.40635,"is_reserved":false,"is_disabled":false,"rental_uris":{"android":"levelo://app?vid=57692aae-9841-41ad-bc01-254866eaf8b0","ios":"levelo://app?vid=57692aae-9841-41ad-bc01-254866eaf8b0"},"vehicle_type_id":"4","last_reported":1752354554,"current_range_meters":16000,"station_id":"ce4bhq92rcd13ifvqhjg","pricing_plan_id":"cebpf4jnsgd1na2vs0mg"},{"bike_id":"016a0553-daa1-434d-8dba-ff1fbded5db8","system_id":"levelo_inurba_marseille","lat":43.22513,"lon":5.34784,"is_reserved":false,"is_disabled":false,"rental_uris":{"android":"levelo://app?vid=016a0553-daa1-434d-8dba-ff1fbded5db8","ios":"levelo://app?vid=016a0553-daa1-434d-8dba-ff1fbded5db8"},"vehicle_type_id":"4","last_reported":1752354554,"current_range_meters":16000,"station_id":"st_cvj5dfep6f1abm77gieg","pricing_plan_id":"cebpf4jnsgd1na2vs0mg"},{"bike_id":"54c42649-7aa4-4934-92f3-a23a386f7d15","system_id":"levelo_inurba_marseille","lat":43.2417,"lon":5.36406,"is_reserved":false,"is_disabled":false,"rental_uris":{"android":"levelo://app?vid=54c42649-7aa4-4934-92f3-a23a386f7d15","ios":"levelo://app?vid=54c42649-7aa4-4934-92f3-a23a386f7d15"},"vehicle_type_id":"4","last_reported":1752354554,"current_range_meters":16000,"station_id":"cpo36qri1sfpv3e86is0","pricing_plan_id":"cebpf4jnsgd1na2vs0mg"},{"bike_id":"f23760ff-ab61-4853-aa67-28aac93822c1","system_id":"levelo_inurba_marseille","lat":43.337444,"lon":5.374475,"is_reserved":false,"is_disabled":false,"rental_uris":{"android":"levelo://app?vid=f23760ff-ab61-4853-aa67-28aac93822c1","ios":"levelo://app?vid=f23760ff-ab61-4853-aa67-28aac93822c1"},"vehicle_type_id":"4","last_reported":1752354554,"current_range_meters":16000,"station_id":"","pricing_plan_id":"cebpf4jnsgd1na2vs0mg"},{"bike_id":"dcff0918-ab2a-4589-900b-b5609eb99255","system_id":"levelo_inurba_marseille","lat":43.29299,"lon":5.37172,"is_reserved":false,"is_disabled":false,"rental_uris":{"android":"levelo://app?vid=dcff0918-ab2a-4589-900b-b5609eb99255","ios":"levelo://app?vid=dcff0918-ab2a-4589-900b-b5609eb99255"},"vehicle_type_id":"4","last_reported":1752354554,"current_range_meters":16000,"station_id":"ce4bgh92rcd13ifvqb40","pricing_plan_id":"cebpf4jnsgd1na2vs0mg"},{"bike_id":"d3eb6ebc-944c-4672-ad0e-46dbd50d6295","system_id":"levelo_inurba_marseille","lat":43.26234,"lon":5.37447,"is_reserved":false,"is_disabled":false,"rental_uris":{"android":"levelo://app?vid=d3eb6ebc-944c-4672-ad0e-46dbd50d6295","ios":"levelo://app?vid=d3eb6ebc-944c-4672-ad0e-46dbd50d6295"},"vehicle_type_id":"4","last_reported":1752354554,"current_range_meters":16000,"station_id":"ce4bhgp2rcd13ifvqfc0","pricing_plan_id":"cebpf4jnsgd1na2vs0mg"},{"bike_id":"b105f991-1563-4fc4-9371-7364ce9b8c80","system_id":"levelo_inurba_marseille","lat":43.287285,"lon":5.395579,"is_reserved":false,"is_disabled":false,"rental_uris":{"android":"levelo://app?vid=b105f991-1563-4fc4-9371-7364ce9b8c80","ios":"levelo://app?vid=b105f991-1563-4fc4-9371-7364ce9b8c80"},"vehicle_type_id":"4","last_reported":1752354554,"current_range_meters":16000,"station_id":"","pricing_plan_id":"cebpf4jnsgd1na2vs0mg"},{"bike_id":"6d3f299a-d341-49bc-a1f9-7534528d9b67","system_id":"levelo_inurba_marseille","lat":43.23192,"lon":5.35562,"is_reserved":false,"is_disabled":false,"rental_uris":{"android":"levelo://app?vid=6d3f299a-d341-49bc-a1f9-7534528d9b67","ios":"levelo://app?vid=6d3f299a-d341-49bc-a1f9-7534528d9b67"},"vehicle_type_id":"4","last_reported":1752354554,"current_range_meters":16400,"station_id":"ce4bhu92rcd13ifvqi70","pricing_plan_id":"cebpf4jnsgd1na2vs0mg"},{"bike_id":"844b44b6-4e33-4917-878d-a3c647561239","system_id":"levelo_inurba_marseille","lat":43.30787,"lon":5.42478,"is_reserved":false,"is_disabled":false,"rental_uris":{"android":"levelo://app?vid=844b44b6-4e33-4917-878d-a3c647561239","ios":"levelo://app?vid=844b44b6-4e33-4917-878d-a3c647561239"},"vehicle_type_id":"4","last_reported":1752354554,"current_range_meters":16400,"station_id":"","pricing_plan_id":"cebpf4jnsgd1na2vs0mg"},{"bike_id":"4100bc4f-2218-4922-9dc2-ac7a30b24292","system_id":"levelo_inurba_marseille","lat":43.29529,"lon":5.38554,"is_reserved":false,"is_disabled":false,"rental_uris":{"android":"levelo://app?vid=4100bc4f-2218-4922-9dc2-ac7a30b24292","ios":"levelo://app?vid=4100bc4f-2218-4922-9dc2-ac7a30b24292"},"vehicle_type_id":"4","last_reported":1752354554,"current_range_meters":16400,"station_id":"ce4bgih2rcd13ifvqba0","pricing_plan_id":"cebpf4jnsgd1na2vs0mg"},{"bike_id":"4b8da722-ee9e-48a4-a5e5-3a8a10364708","system_id":"levelo_inurba_marseille","lat":43.3125,"lon":5.37819,"is_reserved":false,"is_disabled":false,"rental_uris":{"android":"levelo://app?vid=4b8da722-ee9e-48a4-a5e5-3a8a10364708","ios":"levelo://app?vid=4b8da722-ee9e-48a4-a5e5-3a8a10364708"},"vehicle_type_id":"4","last_reported":1752354554,"current_range_meters":16400,"station_id":"","pricing_plan_id":"cebpf4jnsgd1na2vs0mg"},{"bike_id":"531e4cf2-41fe-459c-b43c-b1bb20926426","system_id":"levelo_inurba_marseille","lat":43.25485,"lon":5.37647,"is_reserved":false,"is_disabled":false,"rental_uris":{"android":"levelo://app?vid=531e4cf2-41fe-459c-b43c-b1bb20926426","ios":"levelo://app?vid=531e4cf2-41fe-459c-b43c-b1bb20926426"},"vehicle_type_id":"4","last_reported":1752354554,"current_range_meters":16400,"station_id":"ce4bhh12rcd13ifvqff0","pricing_plan_id":"cebpf4jnsgd1na2vs0mg"},{"bike_id":"e34f5d7d-0125-44e4-b2d1-8a57ed3ee9a0","system_id":"levelo_inurba_marseille","lat":43.26051,"lon":5.3755,"is_reserved":false,"is_disabled":false,"rental_uris":{"android":"levelo://app?vid=e34f5d7d-0125-44e4-b2d1-8a57ed3ee9a0","ios":"levelo://app?vid=e34f5d7d-0125-44e4-b2d1-8a57ed3ee9a0"},"vehicle_type_id":"4","last_reported":1752354554,"current_range_meters":16400,"station_id":"ce4bhgh2rcd13ifvqfa0","pricing_plan_id":"cebpf4jnsgd1na2vs0mg"},{"bike_id":"49bcf0e7-1cba-4349-b852-7ccbe5a74697","system_id":"levelo_inurba_marseille","lat":43.30784,"lon":5.37641,"is_reserved":false,"is_disabled":false,"rental_uris":{"android":"levelo://app?vid=49bcf0e7-1cba-4349-b852-7ccbe5a74697","ios":"levelo://app?vid=49bcf0e7-1cba-4349-b852-7ccbe5a74697"},"vehicle_type_id":"4","last_reported":1752354554,"current_range_meters":16400,"station_id":"ce4bgv92rcd13ifvqcq0","pricing_plan_id":"cebpf4jnsgd1na2vs0mg"},{"bike_id":"c09b4acb-d816-4cfc-94be-3685545d9977","system_id":"levelo_inurba_marseille","lat":43.25502,"lon":5.37655,"is_reserved":false,"is_disabled":false,"rental_uris":{"android":"levelo://app?vid=c09b4acb-d816-4cfc-94be-3685545d9977","ios":"levelo://app?vid=c09b4acb-d816-4cfc-94be-3685545d9977"},"vehicle_type_id":"4","last_reported":1752354554,"current_range_meters":16400,"station_id":"ce4bhh12rcd13ifvqff0","pricing_plan_id":"cebpf4jnsgd1na2vs0mg"},{"bike_id":"5eabe7d9-59d5-477c-a3e5-5f916d17e1f3","system_id":"levelo_inurba_marseille","lat":43.27182,"lon":5.40991,"is_reserved":false,"is_disabled":false,"rental_uris":{"android":"levelo://app?vid=5eabe7d9-59d5-477c-a3e5-5f916d17e1f3","ios":"levelo://app?vid=5eabe7d9-59d5-477c-a3e5-5f916d17e1f3"},"vehicle_type_id":"4","last_reported":1752354554,"current_range_meters":16000,"station_id":"ce4bhl12rcd13ifvqgf0","pricing_plan_id":"cebpf4jnsgd1na2vs0mg"},{"bike_id":"d58f15b7-c439-4438-bede-d6877aa5dae5","system_id":"levelo_inurba_marseille","lat":43.28844,"lon":5.3932,"is_reserved":false,"is_disabled":false,"rental_uris":{"android":"levelo://app?vid=d58f15b7-c439-4438-bede-d6877aa5dae5","ios":"levelo://app?vid=d58f15b7-c439-4438-bede-d6877aa5dae5"},"vehicle_type_id":"4","last_reported":1752354554,"current_range_meters":16400,"station_id":"ce4bh2p2rcd13ifvqdi0","pricing_plan_id":"cebpf4jnsgd1na2vs0mg"},{"bike_id":"c1d0629c-eaee-41e7-8c10-68b0ec1b077d","system_id":"levelo_inurba_marseille","lat":43.3276,"lon":5.39101,"is_reserved":false,"is_disabled":false,"rental_uris":{"android":"levelo://app?vid=c1d0629c-eaee-41e7-8c10-68b0ec1b077d","ios":"levelo://app?vid=c1d0629c-eaee-41e7-8c10-68b0ec1b077d"},"vehicle_type_id":"4","last_reported":1752354554,"current_range_meters":16400,"station_id":"","pricing_plan_id":"cebpf4jnsgd1na2vs0mg"},{"bike_id":"44fa6e38-0925-4458-8c8f-bdce3c203299","system_id":"levelo_inurba_marseille","lat":43.2926,"lon":5.38439,"is_reserved":false,"is_disabled":false,"rental_uris":{"android":"levelo://app?vid=44fa6e38-0925-4458-8c8f-bdce3c203299","ios":"levelo://app?vid=44fa6e38-0925-4458-8c8f-bdce3c203299"},"vehicle_type_id":"4","last_reported":1752354554,"current_range_meters":16400,"station_id":"ce4bh692rcd13ifvqea0","pricing_plan_id":"cebpf4jnsgd1na2vs0mg"},{"bike_id":"cbd3cbb3-a3d9-4c52-8d8a-b0a35699f699","system_id":"levelo_inurba_marseille","lat":43.27628,"lon":5.36103,"is_reserved":false,"is_disabled":false,"rental_uris":{"android":"levelo://app?vid=cbd3cbb3-a3d9-4c52-8d8a-b0a35699f699","ios":"levelo://app?vid=cbd3cbb3-a3d9-4c52-8d8a-b0a35699f699"},"vehicle_type_id":"4","last_reported":1752354554,"current_range_meters":16400,"station_id":"ce4bgj92rcd13ifvqbe0","pricing_plan_id":"cebpf4jnsgd1na2vs0mg"},{"bike_id":"da0e1ad9-31f9-46f9-b6d6-0a658fd0816e","system_id":"levelo_inurba_marseille","lat":43.29256,"lon":5.38451,"is_reserved":false,"is_disabled":false,"rental_uris":{"android":"levelo://app?vid=da0e1ad9-31f9-46f9-b6d6-0a658fd0816e","ios":"levelo://app?vid=da0e1ad9-31f9-46f9-b6d6-0a658fd0816e"},"vehicle_type_id":"4","last_reported":1752354554,"current_range_meters":16800,"station_id":"ce4bh692rcd13ifvqea0","pricing_plan_id":"cebpf4jnsgd1na2vs0mg"},{"bike_id":"2e2823ec-bbf6-4824-8fc7-bca1e4a0f60d","system_id":"levelo_inurba_marseille","lat":43.278179,"lon":5.392457,"is_reserved":false,"is_disabled":false,"rental_uris":{"android":"levelo://app?vid=2e2823ec-bbf6-4824-8fc7-bca1e4a0f60d","ios":"levelo://app?vid=2e2823ec-bbf6-4824-8fc7-bca1e4a0f60d"},"vehicle_type_id":"4","last_reported":1752354554,"current_range_meters":16800,"station_id":"ce4bhjp2rcd13ifvqga0","pricing_plan_id":"cebpf4jnsgd1na2vs0mg"},{"bike_id":"80cbd47a-ac72-4ad5-8737-86d96a241c53","system_id":"levelo_inurba_marseille","lat":43.27368,"lon":5.36262,"is_reserved":false,"is_disabled":false,"rental_uris":{"android":"levelo://app?vid=80cbd47a-ac72-4ad5-8737-86d96a241c53","ios":"levelo://app?vid=80cbd47a-ac72-4ad5-8737-86d96a241c53"},"vehicle_type_id":"4","last_reported":1752354554,"current_range_meters":16800,"station_id":"ce4bhbh2rcd13ifvqeo0","pricing_plan_id":"cebpf4jnsgd1na2vs0mg"},{"bike_id":"76cc2f9d-978f-46b2-bb74-158db85a4fb3","system_id":"levelo_inurba_marseille","lat":43.23225,"lon":5.39948,"is_reserved":false,"is_disabled":false,"rental_uris":{"android":"levelo://app?vid=76cc2f9d-978f-46b2-bb74-158db85a4fb3","ios":"levelo://app?vid=76cc2f9d-978f-46b2-bb74-158db85a4fb3"},"vehicle_type_id":"4","last_reported":1752354554,"current_range_meters":16800,"station_id":"ce4bhn12rcd13ifvqgqg","pricing_plan_id":"cebpf4jnsgd1na2vs0mg"},{"bike_id":"a44f68aa-b920-4eb6-845e-df1183944a6b","system_id":"levelo_inurba_marseille","lat":43.28551,"lon":5.35081,"is_reserved":false,"is_disabled":true,"rental_uris":{"android":"levelo://app?vid=a44f68aa-b920-4eb6-845e-df1183944a6b","ios":"levelo://app?vid=a44f68aa-b920-4eb6-845e-df1183944a6b"},"vehicle_type_id":"4","last_reported":1752354554,"current_range_meters":16800,"station_id":"","pricing_plan_id":"cebpf4jnsgd1na2vs0mg"},{"bike_id":"e2ce6e8a-ef9f-4211-8776-042780e4931d","system_id":"levelo_inurba_marseille","lat":43.28444,"lon":5.34953,"is_reserved":false,"is_disabled":true,"rental_uris":{"android":"levelo://app?vid=e2ce6e8a-ef9f-4211-8776-042780e4931d","ios":"levelo://app?vid=e2ce6e8a-ef9f-4211-8776-042780e4931d"},"vehicle_type_id":"4","last_reported":1752354554,"current_range_meters":16800,"station_id":"ce4bhbh2rcd13ifvqepg","pricing_plan_id":"cebpf4jnsgd1na2vs0mg"},{"bike_id":"df40f023-f13c-49b0-b949-77aa55e16bc6","system_id":"levelo_inurba_marseille","lat":43.26207,"lon":5.37454,"is_reserved":false,"is_disabled":false,"rental_uris":{"android":"levelo://app?vid=df40f023-f13c-49b0-b949-77aa55e16bc6","ios":"levelo://app?vid=df40f023-f13c-49b0-b949-77aa55e16bc6"},"vehicle_type_id":"4","last_reported":1752354554,"current_range_meters":16800,"station_id":"ce4bhgp2rcd13ifvqfc0","pricing_plan_id":"cebpf4jnsgd1na2vs0mg"},{"bike_id":"40e17277-ff35-4a59-a20b-0c82eea17cd4","system_id":"levelo_inurba_marseille","lat":43.26202,"lon":5.37457,"is_reserved":false,"is_disabled":false,"rental_uris":{"android":"levelo://app?vid=40e17277-ff35-4a59-a20b-0c82eea17cd4","ios":"levelo://app?vid=40e17277-ff35-4a59-a20b-0c82eea17cd4"},"vehicle_type_id":"4","last_reported":1752354554,"current_range_meters":16800,"station_id":"ce4bhgp2rcd13ifvqfc0","pricing_plan_id":"cebpf4jnsgd1na2vs0mg"},{"bike_id":"4f65d4bb-b0b6-4832-a80d-f1fa8a0d5667","system_id":"levelo_inurba_marseille","lat":43.317093,"lon":5.437117,"is_reserved":false,"is_disabled":false,"rental_uris":{"android":"levelo://app?vid=4f65d4bb-b0b6-4832-a80d-f1fa8a0d5667","ios":"levelo://app?vid=4f65d4bb-b0b6-4832-a80d-f1fa8a0d5667"},"vehicle_type_id":"4","last_reported":1752354554,"current_range_meters":16800,"station_id":"ce4bhp92rcd13ifvqhcg","pricing_plan_id":"cebpf4jnsgd1na2vs0mg"},{"bike_id":"4a175d8f-eeed-4f1b-a5b3-5499317dcfdb","system_id":"levelo_inurba_marseille","lat":43.29524,"lon":5.38544,"is_reserved":false,"is_disabled":false,"rental_uris":{"android":"levelo://app?vid=4a175d8f-eeed-4f1b-a5b3-5499317dcfdb","ios":"levelo://app?vid=4a175d8f-eeed-4f1b-a5b3-5499317dcfdb"},"vehicle_type_id":"4","last_reported":1752354554,"current_range_meters":16800,"station_id":"ce4bgih2rcd13ifvqba0","pricing_plan_id":"cebpf4jnsgd1na2vs0mg"},{"bike_id":"f0db057c-08fc-4119-8562-656dfff8564d","system_id":"levelo_inurba_marseille","lat":43.27942,"lon":5.41047,"is_reserved":false,"is_disabled":false,"rental_uris":{"android":"levelo://app?vid=f0db057c-08fc-4119-8562-656dfff8564d","ios":"levelo://app?vid=f0db057c-08fc-4119-8562-656dfff8564d"},"vehicle_type_id":"4","last_reported":1752354554,"current_range_meters":16800,"station_id":"ce4bhnp2rcd13ifvqh0g","pricing_plan_id":"cebpf4jnsgd1na2vs0mg"},{"bike_id":"73e3e4bf-9938-467e-86bb-91a704461c73","system_id":"levelo_inurba_marseille","lat":43.29257,"lon":5.38437,"is_reserved":false,"is_disabled":false,"rental_uris":{"android":"levelo://app?vid=73e3e4bf-9938-467e-86bb-91a704461c73","ios":"levelo://app?vid=73e3e4bf-9938-467e-86bb-91a704461c73"},"vehicle_type_id":"4","last_reported":1752354554,"current_range_meters":17200,"station_id":"ce4bh692rcd13ifvqea0","pricing_plan_id":"cebpf4jnsgd1na2vs0mg"},{"bike_id":"3e8e03bf-ec25-49a9-be60-035cba3ce77e","system_id":"levelo_inurba_marseille","lat":43.29531,"lon":5.3854,"is_reserved":false,"is_disabled":false,"rental_uris":{"android":"levelo://app?vid=3e8e03bf-ec25-49a9-be60-035cba3ce77e","ios":"levelo://app?vid=3e8e03bf-ec25-49a9-be60-035cba3ce77e"},"vehicle_type_id":"4","last_reported":1752354554,"current_range_meters":17200,"station_id":"ce4bgih2rcd13ifvqba0","pricing_plan_id":"cebpf4jnsgd1na2vs0mg"},{"bike_id":"867d98f5-c689-4b8c-88dc-bb0a55b1f9f4","system_id":"levelo_inurba_marseille","lat":43.29535,"lon":5.38543,"is_reserved":false,"is_disabled":false,"rental_uris":{"android":"levelo://app?vid=867d98f5-c689-4b8c-88dc-bb0a55b1f9f4","ios":"levelo://app?vid=867d98f5-c689-4b8c-88dc-bb0a55b1f9f4"},"vehicle_type_id":"4","last_reported":1752354554,"current_range_meters":17200,"station_id":"ce4bgih2rcd13ifvqba0","pricing_plan_id":"cebpf4jnsgd1na2vs0mg"},{"bike_id":"9ac0406f-d24c-4cbb-96de-ba6903408475","system_id":"levelo_inurba_marseille","lat":43.29264,"lon":5.38445,"is_reserved":false,"is_disabled":false,"rental_uris":{"android":"levelo://app?vid=9ac0406f-d24c-4cbb-96de-ba6903408475","ios":"levelo://app?vid=9ac0406f-d24c-4cbb-96de-ba6903408475"},"vehicle_type_id":"4","last_reported":1752354554,"current_range_meters":17600,"station_id":"ce4bh692rcd13ifvqea0","pricing_plan_id":"cebpf4jnsgd1na2vs0mg"},{"bike_id":"8b35647d-58c6-4f68-9c78-22b31b5970be","system_id":"levelo_inurba_marseille","lat":43.288531,"lon":5.393214,"is_reserved":false,"is_disabled":false,"rental_uris":{"android":"levelo://app?vid=8b35647d-58c6-4f68-9c78-22b31b5970be","ios":"levelo://app?vid=8b35647d-58c6-4f68-9c78-22b31b5970be"},"vehicle_type_id":"4","last_reported":1752354554,"current_range_meters":17600,"station_id":"ce4bh2p2rcd13ifvqdi0","pricing_plan_id":"cebpf4jnsgd1na2vs0mg"},{"bike_id":"e7cee149-cc2f-452b-b3ad-0668fe14f3dc","system_id":"levelo_inurba_marseille","lat":43.27572,"lon":5.38428,"is_reserved":false,"is_disabled":false,"rental_uris":{"android":"levelo://app?vid=e7cee149-cc2f-452b-b3ad-0668fe14f3dc","ios":"levelo://app?vid=e7cee149-cc2f-452b-b3ad-0668fe14f3dc"},"vehicle_type_id":"4","last_reported":1752354554,"current_range_meters":17600,"station_id":"ce4bhh92rcd13ifvqfi0","pricing_plan_id":"cebpf4jnsgd1na2vs0mg"},{"bike_id":"a8830b52-7b57-46c5-8d4c-beadddaa5f60","system_id":"levelo_inurba_marseille","lat":43.26562,"lon":5.37311,"is_reserved":false,"is_disabled":false,"rental_uris":{"android":"levelo://app?vid=a8830b52-7b57-46c5-8d4c-beadddaa5f60","ios":"levelo://app?vid=a8830b52-7b57-46c5-8d4c-beadddaa5f60"},"vehicle_type_id":"4","last_reported":1752354554,"current_range_meters":17600,"station_id":"ce4bhg12rcd13ifvqf70","pricing_plan_id":"cebpf4jnsgd1na2vs0mg"},{"bike_id":"f9924005-c8ac-4086-8e25-9a21391f65ea","system_id":"levelo_inurba_marseille","lat":43.21192,"lon":5.35066,"is_reserved":false,"is_disabled":false,"rental_uris":{"android":"levelo://app?vid=f9924005-c8ac-4086-8e25-9a21391f65ea","ios":"levelo://app?vid=f9924005-c8ac-4086-8e25-9a21391f65ea"},"vehicle_type_id":"4","last_reported":1752354554,"current_range_meters":17600,"station_id":"st_cvj6sg6p6f1abm77japg","pricing_plan_id":"cebpf4jnsgd1na2vs0mg"},{"bike_id":"2afd10ce-5f23-4122-9c7a-a3416be941b2","system_id":"levelo_inurba_marseille","lat":43.26055,"lon":5.37545,"is_reserved":false,"is_disabled":true,"rental_uris":{"android":"levelo://app?vid=2afd10ce-5f23-4122-9c7a-a3416be941b2","ios":"levelo://app?vid=2afd10ce-5f23-4122-9c7a-a3416be941b2"},"vehicle_type_id":"4","last_reported":1752354554,"current_range_meters":17600,"station_id":"ce4bhgh2rcd13ifvqfa0","pricing_plan_id":"cebpf4jnsgd1na2vs0mg"},{"bike_id":"78624ead-c735-4948-b8fa-f55b2ec72dc0","system_id":"levelo_inurba_marseille","lat":43.24168,"lon":5.364,"is_reserved":false,"is_disabled":false,"rental_uris":{"android":"levelo://app?vid=78624ead-c735-4948-b8fa-f55b2ec72dc0","ios":"levelo://app?vid=78624ead-c735-4948-b8fa-f55b2ec72dc0"},"vehicle_type_id":"4","last_reported":1752354554,"current_range_meters":17600,"station_id":"cpo36qri1sfpv3e86is0","pricing_plan_id":"cebpf4jnsgd1na2vs0mg"},{"bike_id":"7048b274-bb73-4f78-bd84-2dffe4927289","system_id":"levelo_inurba_marseille","lat":43.29792,"lon":5.39377,"is_reserved":false,"is_disabled":true,"rental_uris":{"android":"levelo://app?vid=7048b274-bb73-4f78-bd84-2dffe4927289","ios":"levelo://app?vid=7048b274-bb73-4f78-bd84-2dffe4927289"},"vehicle_type_id":"4","last_reported":1752354554,"current_range_meters":17600,"station_id":"chh1huq6cuj3fo74tm60","pricing_plan_id":"cebpf4jnsgd1na2vs0mg"},{"bike_id":"826fa7b0-d3c3-4f7b-b2e4-ca771786f4ef","system_id":"levelo_inurba_marseille","lat":43.29252,"lon":5.38425,"is_reserved":false,"is_disabled":false,"rental_uris":{"android":"levelo://app?vid=826fa7b0-d3c3-4f7b-b2e4-ca771786f4ef","ios":"levelo://app?vid=826fa7b0-d3c3-4f7b-b2e4-ca771786f4ef"},"vehicle_type_id":"4","last_reported":1752354554,"current_range_meters":17600,"station_id":"ce4bh692rcd13ifvqea0","pricing_plan_id":"cebpf4jnsgd1na2vs0mg"},{"bike_id":"2e7fe8f1-cb52-4b2d-bbe6-28f609574842","system_id":"levelo_inurba_marseille","lat":43.27939,"lon":5.41045,"is_reserved":false,"is_disabled":false,"rental_uris":{"android":"levelo://app?vid=2e7fe8f1-cb52-4b2d-bbe6-28f609574842","ios":"levelo://app?vid=2e7fe8f1-cb52-4b2d-bbe6-28f609574842"},"vehicle_type_id":"4","last_reported":1752354554,"current_range_meters":17600,"station_id":"ce4bhnp2rcd13ifvqh0g","pricing_plan_id":"cebpf4jnsgd1na2vs0mg"},{"bike_id":"487a9dbd-c31d-40ca-b4a6-820bc8c8db04","system_id":"levelo_inurba_marseille","lat":43.30806,"lon":5.38144,"is_reserved":false,"is_disabled":false,"rental_uris":{"android":"levelo://app?vid=487a9dbd-c31d-40ca-b4a6-820bc8c8db04","ios":"levelo://app?vid=487a9dbd-c31d-40ca-b4a6-820bc8c8db04"},"vehicle_type_id":"4","last_reported":1752354554,"current_range_meters":17600,"station_id":"ce4bgt12rcd13ifvqce0","pricing_plan_id":"cebpf4jnsgd1na2vs0mg"},{"bike_id":"f2bc0789-b423-4281-ac6d-334972b8325a","system_id":"levelo_inurba_marseille","lat":43.29979,"lon":5.3848,"is_reserved":false,"is_disabled":false,"rental_uris":{"android":"levelo://app?vid=f2bc0789-b423-4281-ac6d-334972b8325a","ios":"levelo://app?vid=f2bc0789-b423-4281-ac6d-334972b8325a"},"vehicle_type_id":"4","last_reported":1752354554,"current_range_meters":17600,"station_id":"ce4bgj92rcd13ifvqbd0","pricing_plan_id":"cebpf4jnsgd1na2vs0mg"},{"bike_id":"9b40dc73-509b-4d2f-8a27-44696719b175","system_id":"levelo_inurba_marseille","lat":43.27078,"lon":5.4229,"is_reserved":false,"is_disabled":false,"rental_uris":{"android":"levelo://app?vid=9b40dc73-509b-4d2f-8a27-44696719b175","ios":"levelo://app?vid=9b40dc73-509b-4d2f-8a27-44696719b175"},"vehicle_type_id":"4","last_reported":1752354554,"current_range_meters":18000,"station_id":"ce4bhk92rcd13ifvqgb0","pricing_plan_id":"cebpf4jnsgd1na2vs0mg"},{"bike_id":"735f6469-5f72-4a25-bc39-e21f00163ed6","system_id":"levelo_inurba_marseille","lat":43.307953,"lon":5.381575,"is_reserved":false,"is_disabled":false,"rental_uris":{"android":"levelo://app?vid=735f6469-5f72-4a25-bc39-e21f00163ed6","ios":"levelo://app?vid=735f6469-5f72-4a25-bc39-e21f00163ed6"},"vehicle_type_id":"4","last_reported":1752354554,"current_range_meters":18000,"station_id":"ce4bgt12rcd13ifvqce0","pricing_plan_id":"cebpf4jnsgd1na2vs0mg"},{"bike_id":"6db2d44d-c7ca-41ac-b814-ccca58d47fae","system_id":"levelo_inurba_marseille","lat":43.2622,"lon":5.37465,"is_reserved":false,"is_disabled":false,"rental_uris":{"android":"levelo://app?vid=6db2d44d-c7ca-41ac-b814-ccca58d47fae","ios":"levelo://app?vid=6db2d44d-c7ca-41ac-b814-ccca58d47fae"},"vehicle_type_id":"4","last_reported":1752354554,"current_range_meters":18000,"station_id":"ce4bhgp2rcd13ifvqfc0","pricing_plan_id":"cebpf4jnsgd1na2vs0mg"},{"bike_id":"b606f300-9197-4497-8d28-e9c5f1eeeac0","system_id":"levelo_inurba_marseille","lat":43.29623,"lon":5.38117,"is_reserved":false,"is_disabled":false,"rental_uris":{"android":"levelo://app?vid=b606f300-9197-4497-8d28-e9c5f1eeeac0","ios":"levelo://app?vid=b606f300-9197-4497-8d28-e9c5f1eeeac0"},"vehicle_type_id":"4","last_reported":1752354554,"current_range_meters":18000,"station_id":"ce4bgl12rcd13ifvqbo0","pricing_plan_id":"cebpf4jnsgd1na2vs0mg"},{"bike_id":"718eafe4-1059-4d0b-9935-83404501b5b5","system_id":"levelo_inurba_marseille","lat":43.31712,"lon":5.37779,"is_reserved":false,"is_disabled":false,"rental_uris":{"android":"levelo://app?vid=718eafe4-1059-4d0b-9935-83404501b5b5","ios":"levelo://app?vid=718eafe4-1059-4d0b-9935-83404501b5b5"},"vehicle_type_id":"4","last_reported":1752354554,"current_range_meters":18000,"station_id":"ce4bgth2rcd13ifvqch0","pricing_plan_id":"cebpf4jnsgd1na2vs0mg"},{"bike_id":"081d645f-c8aa-463e-aeac-a5e66fcfeb00","system_id":"levelo_inurba_marseille","lat":43.26029,"lon":5.37555,"is_reserved":false,"is_disabled":false,"rental_uris":{"android":"levelo://app?vid=081d645f-c8aa-463e-aeac-a5e66fcfeb00","ios":"levelo://app?vid=081d645f-c8aa-463e-aeac-a5e66fcfeb00"},"vehicle_type_id":"4","last_reported":1752354554,"current_range_meters":18000,"station_id":"ce4bhgh2rcd13ifvqfa0","pricing_plan_id":"cebpf4jnsgd1na2vs0mg"},{"bike_id":"eaf67edf-afa5-42e2-bbf0-97699e148a26","system_id":"levelo_inurba_marseille","lat":43.29237,"lon":5.38453,"is_reserved":false,"is_disabled":false,"rental_uris":{"android":"levelo://app?vid=eaf67edf-afa5-42e2-bbf0-97699e148a26","ios":"levelo://app?vid=eaf67edf-afa5-42e2-bbf0-97699e148a26"},"vehicle_type_id":"4","last_reported":1752354554,"current_range_meters":18000,"station_id":"ce4bh692rcd13ifvqea0","pricing_plan_id":"cebpf4jnsgd1na2vs0mg"},{"bike_id":"0b697ac8-09ba-40f1-aa88-f86e79cf244d","system_id":"levelo_inurba_marseille","lat":43.260146,"lon":5.375348,"is_reserved":false,"is_disabled":false,"rental_uris":{"android":"levelo://app?vid=0b697ac8-09ba-40f1-aa88-f86e79cf244d","ios":"levelo://app?vid=0b697ac8-09ba-40f1-aa88-f86e79cf244d"},"vehicle_type_id":"4","last_reported":1752354554,"current_range_meters":18000,"station_id":"","pricing_plan_id":"cebpf4jnsgd1na2vs0mg"},{"bike_id":"c1d533fe-7510-4560-bb5a-8c35662f824c","system_id":"levelo_inurba_marseille","lat":43.28488,"lon":5.38427,"is_reserved":false,"is_disabled":false,"rental_uris":{"android":"levelo://app?vid=c1d533fe-7510-4560-bb5a-8c35662f824c","ios":"levelo://app?vid=c1d533fe-7510-4560-bb5a-8c35662f824c"},"vehicle_type_id":"4","last_reported":1752354554,"current_range_meters":18000,"station_id":"ce4bh512rcd13ifvqe3g","pricing_plan_id":"cebpf4jnsgd1na2vs0mg"},{"bike_id":"dbf78402-9380-4208-a15a-2558ad00150a","system_id":"levelo_inurba_marseille","lat":43.26198,"lon":5.37454,"is_reserved":false,"is_disabled":false,"rental_uris":{"android":"levelo://app?vid=dbf78402-9380-4208-a15a-2558ad00150a","ios":"levelo://app?vid=dbf78402-9380-4208-a15a-2558ad00150a"},"vehicle_type_id":"4","last_reported":1752354554,"current_range_meters":18000,"station_id":"ce4bhgp2rcd13ifvqfc0","pricing_plan_id":"cebpf4jnsgd1na2vs0mg"},{"bike_id":"d0f1cdfb-a1d0-48c8-bd73-259f60d4d655","system_id":"levelo_inurba_marseille","lat":43.29245,"lon":5.38443,"is_reserved":false,"is_disabled":false,"rental_uris":{"android":"levelo://app?vid=d0f1cdfb-a1d0-48c8-bd73-259f60d4d655","ios":"levelo://app?vid=d0f1cdfb-a1d0-48c8-bd73-259f60d4d655"},"vehicle_type_id":"4","last_reported":1752354554,"current_range_meters":18000,"station_id":"ce4bh692rcd13ifvqea0","pricing_plan_id":"cebpf4jnsgd1na2vs0mg"},{"bike_id":"6182d049-a5d8-422a-b0b9-1e868d3cc374","system_id":"levelo_inurba_marseille","lat":43.30949,"lon":5.3904,"is_reserved":false,"is_disabled":false,"rental_uris":{"android":"levelo://app?vid=6182d049-a5d8-422a-b0b9-1e868d3cc374","ios":"levelo://app?vid=6182d049-a5d8-422a-b0b9-1e868d3cc374"},"vehicle_type_id":"4","last_reported":1752354554,"current_range_meters":18800,"station_id":"ce4bgup2rcd13ifvqco0","pricing_plan_id":"cebpf4jnsgd1na2vs0mg"},{"bike_id":"300e41aa-f750-4dc7-8b55-65fc6d001d62","system_id":"levelo_inurba_marseille","lat":43.21185,"lon":5.35082,"is_reserved":false,"is_disabled":false,"rental_uris":{"android":"levelo://app?vid=300e41aa-f750-4dc7-8b55-65fc6d001d62","ios":"levelo://app?vid=300e41aa-f750-4dc7-8b55-65fc6d001d62"},"vehicle_type_id":"4","last_reported":1752354554,"current_range_meters":18800,"station_id":"st_cvj6sg6p6f1abm77japg","pricing_plan_id":"cebpf4jnsgd1na2vs0mg"},{"bike_id":"5c68c871-f366-492f-b587-75f7add52f31","system_id":"levelo_inurba_marseille","lat":43.30932,"lon":5.36832,"is_reserved":false,"is_disabled":false,"rental_uris":{"android":"levelo://app?vid=5c68c871-f366-492f-b587-75f7add52f31","ios":"levelo://app?vid=5c68c871-f366-492f-b587-75f7add52f31"},"vehicle_type_id":"4","last_reported":1752354554,"current_range_meters":18800,"station_id":"","pricing_plan_id":"cebpf4jnsgd1na2vs0mg"},{"bike_id":"adfe8be3-1e95-4a39-ba2c-619c92879657","system_id":"levelo_inurba_marseille","lat":43.2318,"lon":5.39985,"is_reserved":false,"is_disabled":false,"rental_uris":{"android":"levelo://app?vid=adfe8be3-1e95-4a39-ba2c-619c92879657","ios":"levelo://app?vid=adfe8be3-1e95-4a39-ba2c-619c92879657"},"vehicle_type_id":"4","last_reported":1752354554,"current_range_meters":17200,"station_id":"ce4bhn12rcd13ifvqgqg","pricing_plan_id":"cebpf4jnsgd1na2vs0mg"},{"bike_id":"8577aaca-7915-49c3-b3eb-bc84fe946baf","system_id":"levelo_inurba_marseille","lat":43.27558,"lon":5.41697,"is_reserved":false,"is_disabled":false,"rental_uris":{"android":"levelo://app?vid=8577aaca-7915-49c3-b3eb-bc84fe946baf","ios":"levelo://app?vid=8577aaca-7915-49c3-b3eb-bc84fe946baf"},"vehicle_type_id":"4","last_reported":1752354554,"current_range_meters":18800,"station_id":"","pricing_plan_id":"cebpf4jnsgd1na2vs0mg"},{"bike_id":"7b707764-6b84-40b0-9c98-a224a01d3ffc","system_id":"levelo_inurba_marseille","lat":43.29914,"lon":5.37463,"is_reserved":false,"is_disabled":false,"rental_uris":{"android":"levelo://app?vid=7b707764-6b84-40b0-9c98-a224a01d3ffc","ios":"levelo://app?vid=7b707764-6b84-40b0-9c98-a224a01d3ffc"},"vehicle_type_id":"4","last_reported":1752354554,"current_range_meters":18800,"station_id":"ce4bgjh2rcd13ifvqbg0","pricing_plan_id":"cebpf4jnsgd1na2vs0mg"},{"bike_id":"09334d41-cc3f-4830-ac12-e843115d37f5","system_id":"levelo_inurba_marseille","lat":43.29525,"lon":5.38539,"is_reserved":false,"is_disabled":false,"rental_uris":{"android":"levelo://app?vid=09334d41-cc3f-4830-ac12-e843115d37f5","ios":"levelo://app?vid=09334d41-cc3f-4830-ac12-e843115d37f5"},"vehicle_type_id":"4","last_reported":1752354554,"current_range_meters":18800,"station_id":"ce4bgih2rcd13ifvqba0","pricing_plan_id":"cebpf4jnsgd1na2vs0mg"},{"bike_id":"f70d4eb7-0483-4b22-b4af-6857c0805839","system_id":"levelo_inurba_marseille","lat":43.29911,"lon":5.38143,"is_reserved":false,"is_disabled":true,"rental_uris":{"android":"levelo://app?vid=f70d4eb7-0483-4b22-b4af-6857c0805839","ios":"levelo://app?vid=f70d4eb7-0483-4b22-b4af-6857c0805839"},"vehicle_type_id":"4","last_reported":1752354554,"current_range_meters":18800,"station_id":"ce4bgj12rcd13ifvqbc0","pricing_plan_id":"cebpf4jnsgd1na2vs0mg"},{"bike_id":"51ecb449-9edf-46be-b831-6d02721e6fa2","system_id":"levelo_inurba_marseille","lat":43.30963,"lon":5.39039,"is_reserved":false,"is_disabled":false,"rental_uris":{"android":"levelo://app?vid=51ecb449-9edf-46be-b831-6d02721e6fa2","ios":"levelo://app?vid=51ecb449-9edf-46be-b831-6d02721e6fa2"},"vehicle_type_id":"4","last_reported":1752354554,"current_range_meters":18800,"station_id":"ce4bgup2rcd13ifvqco0","pricing_plan_id":"cebpf4jnsgd1na2vs0mg"},{"bike_id":"fe84b5ed-e410-41a6-814d-0f806389542e","system_id":"levelo_inurba_marseille","lat":43.29572,"lon":5.37506,"is_reserved":false,"is_disabled":false,"rental_uris":{"android":"levelo://app?vid=fe84b5ed-e410-41a6-814d-0f806389542e","ios":"levelo://app?vid=fe84b5ed-e410-41a6-814d-0f806389542e"},"vehicle_type_id":"4","last_reported":1752354554,"current_range_meters":18800,"station_id":"ce4bgh92rcd13ifvqb50","pricing_plan_id":"cebpf4jnsgd1na2vs0mg"},{"bike_id":"c4beec9b-5510-4de0-ab71-424959dfb361","system_id":"levelo_inurba_marseille","lat":43.30328,"lon":5.40447,"is_reserved":false,"is_disabled":false,"rental_uris":{"android":"levelo://app?vid=c4beec9b-5510-4de0-ab71-424959dfb361","ios":"levelo://app?vid=c4beec9b-5510-4de0-ab71-424959dfb361"},"vehicle_type_id":"4","last_reported":1752354554,"current_range_meters":18800,"station_id":"ce4bh012rcd13ifvqd10","pricing_plan_id":"cebpf4jnsgd1na2vs0mg"},{"bike_id":"5ba1306e-17d8-4dbc-acca-4fbb012874e8","system_id":"levelo_inurba_marseille","lat":43.29255,"lon":5.38443,"is_reserved":false,"is_disabled":false,"rental_uris":{"android":"levelo://app?vid=5ba1306e-17d8-4dbc-acca-4fbb012874e8","ios":"levelo://app?vid=5ba1306e-17d8-4dbc-acca-4fbb012874e8"},"vehicle_type_id":"4","last_reported":1752354554,"current_range_meters":18800,"station_id":"ce4bh692rcd13ifvqea0","pricing_plan_id":"cebpf4jnsgd1na2vs0mg"},{"bike_id":"b335ce01-b3fd-4fa1-bb8c-91d26cd166c3","system_id":"levelo_inurba_marseille","lat":43.29867,"lon":5.39736,"is_reserved":false,"is_disabled":false,"rental_uris":{"android":"levelo://app?vid=b335ce01-b3fd-4fa1-bb8c-91d26cd166c3","ios":"levelo://app?vid=b335ce01-b3fd-4fa1-bb8c-91d26cd166c3"},"vehicle_type_id":"4","last_reported":1752354554,"current_range_meters":18800,"station_id":"ce4bh0h2rcd13ifvqd50","pricing_plan_id":"cebpf4jnsgd1na2vs0mg"},{"bike_id":"ac15c473-4cd8-4493-b788-5ef0a5b2449c","system_id":"levelo_inurba_marseille","lat":43.25087,"lon":5.39528,"is_reserved":false,"is_disabled":false,"rental_uris":{"android":"levelo://app?vid=ac15c473-4cd8-4493-b788-5ef0a5b2449c","ios":"levelo://app?vid=ac15c473-4cd8-4493-b788-5ef0a5b2449c"},"vehicle_type_id":"4","last_reported":1752354554,"current_range_meters":19200,"station_id":"ce4bhm12rcd13ifvqgkg","pricing_plan_id":"cebpf4jnsgd1na2vs0mg"},{"bike_id":"64748af8-28a3-4fb4-ae3a-6cf154d2bfa6","system_id":"levelo_inurba_marseille","lat":43.3044,"lon":5.38902,"is_reserved":false,"is_disabled":false,"rental_uris":{"android":"levelo://app?vid=64748af8-28a3-4fb4-ae3a-6cf154d2bfa6","ios":"levelo://app?vid=64748af8-28a3-4fb4-ae3a-6cf154d2bfa6"},"vehicle_type_id":"4","last_reported":1752354554,"current_range_meters":19200,"station_id":"","pricing_plan_id":"cebpf4jnsgd1na2vs0mg"},{"bike_id":"55699f15-aa2d-4fd6-a829-51e5af849929","system_id":"levelo_inurba_marseille","lat":43.31719,"lon":5.42404,"is_reserved":false,"is_disabled":false,"rental_uris":{"android":"levelo://app?vid=55699f15-aa2d-4fd6-a829-51e5af849929","ios":"levelo://app?vid=55699f15-aa2d-4fd6-a829-51e5af849929"},"vehicle_type_id":"4","last_reported":1752354554,"current_range_meters":19200,"station_id":"ce4bhp92rcd13ifvqhbg","pricing_plan_id":"cebpf4jnsgd1na2vs0mg"},{"bike_id":"899f3cd4-00cc-438c-bf29-379d610fdcc2","system_id":"levelo_inurba_marseille","lat":43.26019,"lon":5.3753,"is_reserved":false,"is_disabled":false,"rental_uris":{"android":"levelo://app?vid=899f3cd4-00cc-438c-bf29-379d610fdcc2","ios":"levelo://app?vid=899f3cd4-00cc-438c-bf29-379d610fdcc2"},"vehicle_type_id":"4","last_reported":1752354554,"current_range_meters":19200,"station_id":"ce4bhgh2rcd13ifvqfa0","pricing_plan_id":"cebpf4jnsgd1na2vs0mg"},{"bike_id":"e7ad04d3-27f4-4068-a301-495553e11775","system_id":"levelo_inurba_marseille","lat":43.29291,"lon":5.37192,"is_reserved":false,"is_disabled":false,"rental_uris":{"android":"levelo://app?vid=e7ad04d3-27f4-4068-a301-495553e11775","ios":"levelo://app?vid=e7ad04d3-27f4-4068-a301-495553e11775"},"vehicle_type_id":"4","last_reported":1752354554,"current_range_meters":19200,"station_id":"ce4bgh92rcd13ifvqb40","pricing_plan_id":"cebpf4jnsgd1na2vs0mg"},{"bike_id":"981574d4-04bc-489f-94b2-9a4ada8c4045","system_id":"levelo_inurba_marseille","lat":43.292805,"lon":5.401136,"is_reserved":false,"is_disabled":false,"rental_uris":{"android":"levelo://app?vid=981574d4-04bc-489f-94b2-9a4ada8c4045","ios":"levelo://app?vid=981574d4-04bc-489f-94b2-9a4ada8c4045"},"vehicle_type_id":"4","last_reported":1752354554,"current_range_meters":19200,"station_id":"ce4bh312rcd13ifvqdk0","pricing_plan_id":"cebpf4jnsgd1na2vs0mg"},{"bike_id":"da2c02f3-48e3-4993-a617-2d18de072603","system_id":"levelo_inurba_marseille","lat":43.29303,"lon":5.37184,"is_reserved":false,"is_disabled":false,"rental_uris":{"android":"levelo://app?vid=da2c02f3-48e3-4993-a617-2d18de072603","ios":"levelo://app?vid=da2c02f3-48e3-4993-a617-2d18de072603"},"vehicle_type_id":"4","last_reported":1752354554,"current_range_meters":19200,"station_id":"ce4bgh92rcd13ifvqb40","pricing_plan_id":"cebpf4jnsgd1na2vs0mg"},{"bike_id":"1bf2d551-15b1-424b-b262-5e53675978dc","system_id":"levelo_inurba_marseille","lat":43.31069,"lon":5.38355,"is_reserved":false,"is_disabled":false,"rental_uris":{"android":"levelo://app?vid=1bf2d551-15b1-424b-b262-5e53675978dc","ios":"levelo://app?vid=1bf2d551-15b1-424b-b262-5e53675978dc"},"vehicle_type_id":"4","last_reported":1752354554,"current_range_meters":19200,"station_id":"ce4bgv92rcd13ifvqcr0","pricing_plan_id":"cebpf4jnsgd1na2vs0mg"},{"bike_id":"971b1f31-a743-4191-95a5-bf861272f744","system_id":"levelo_inurba_marseille","lat":43.29029,"lon":5.38649,"is_reserved":false,"is_disabled":false,"rental_uris":{"android":"levelo://app?vid=971b1f31-a743-4191-95a5-bf861272f744","ios":"levelo://app?vid=971b1f31-a743-4191-95a5-bf861272f744"},"vehicle_type_id":"4","last_reported":1752354554,"current_range_meters":19200,"station_id":"ce4bh4p2rcd13ifvqe0g","pricing_plan_id":"cebpf4jnsgd1na2vs0mg"},{"bike_id":"9bfc7d3d-4e60-4f8a-9c32-ef3d0e77ec5b","system_id":"levelo_inurba_marseille","lat":43.21182,"lon":5.35095,"is_reserved":false,"is_disabled":false,"rental_uris":{"android":"levelo://app?vid=9bfc7d3d-4e60-4f8a-9c32-ef3d0e77ec5b","ios":"levelo://app?vid=9bfc7d3d-4e60-4f8a-9c32-ef3d0e77ec5b"},"vehicle_type_id":"4","last_reported":1752354554,"current_range_meters":19200,"station_id":"st_cvj6sg6p6f1abm77japg","pricing_plan_id":"cebpf4jnsgd1na2vs0mg"},{"bike_id":"c4989417-e8bd-434b-abe1-07224219f3a5","system_id":"levelo_inurba_marseille","lat":43.28447,"lon":5.35892,"is_reserved":false,"is_disabled":false,"rental_uris":{"android":"levelo://app?vid=c4989417-e8bd-434b-abe1-07224219f3a5","ios":"levelo://app?vid=c4989417-e8bd-434b-abe1-07224219f3a5"},"vehicle_type_id":"4","last_reported":1752354554,"current_range_meters":19200,"station_id":"ce4bhah2rcd13ifvqei0","pricing_plan_id":"cebpf4jnsgd1na2vs0mg"},{"bike_id":"7b9403c3-378d-4156-9e18-cf497a9eef2e","system_id":"levelo_inurba_marseille","lat":43.25477,"lon":5.37675,"is_reserved":false,"is_disabled":false,"rental_uris":{"android":"levelo://app?vid=7b9403c3-378d-4156-9e18-cf497a9eef2e","ios":"levelo://app?vid=7b9403c3-378d-4156-9e18-cf497a9eef2e"},"vehicle_type_id":"4","last_reported":1752354554,"current_range_meters":19600,"station_id":"ce4bhh12rcd13ifvqff0","pricing_plan_id":"cebpf4jnsgd1na2vs0mg"},{"bike_id":"cc4b685c-99b1-4612-81f2-73a6dae5d794","system_id":"levelo_inurba_marseille","lat":43.26203,"lon":5.37462,"is_reserved":false,"is_disabled":false,"rental_uris":{"android":"levelo://app?vid=cc4b685c-99b1-4612-81f2-73a6dae5d794","ios":"levelo://app?vid=cc4b685c-99b1-4612-81f2-73a6dae5d794"},"vehicle_type_id":"4","last_reported":1752354554,"current_range_meters":19600,"station_id":"ce4bhgp2rcd13ifvqfc0","pricing_plan_id":"cebpf4jnsgd1na2vs0mg"},{"bike_id":"918f86bb-73bc-4fe4-834d-3f4c6039e007","system_id":"levelo_inurba_marseille","lat":43.26208,"lon":5.37457,"is_reserved":false,"is_disabled":false,"rental_uris":{"android":"levelo://app?vid=918f86bb-73bc-4fe4-834d-3f4c6039e007","ios":"levelo://app?vid=918f86bb-73bc-4fe4-834d-3f4c6039e007"},"vehicle_type_id":"4","last_reported":1752354554,"current_range_meters":19600,"station_id":"ce4bhgp2rcd13ifvqfc0","pricing_plan_id":"cebpf4jnsgd1na2vs0mg"},{"bike_id":"c5ad1728-8e77-421e-827d-e75f13b8ab94","system_id":"levelo_inurba_marseille","lat":43.26215,"lon":5.37454,"is_reserved":false,"is_disabled":false,"rental_uris":{"android":"levelo://app?vid=c5ad1728-8e77-421e-827d-e75f13b8ab94","ios":"levelo://app?vid=c5ad1728-8e77-421e-827d-e75f13b8ab94"},"vehicle_type_id":"4","last_reported":1752354554,"current_range_meters":20000,"station_id":"ce4bhgp2rcd13ifvqfc0","pricing_plan_id":"cebpf4jnsgd1na2vs0mg"},{"bike_id":"f5a47db5-6fb2-46bd-a2de-efa4ad13bf60","system_id":"levelo_inurba_marseille","lat":43.21182,"lon":5.3507,"is_reserved":false,"is_disabled":false,"rental_uris":{"android":"levelo://app?vid=f5a47db5-6fb2-46bd-a2de-efa4ad13bf60","ios":"levelo://app?vid=f5a47db5-6fb2-46bd-a2de-efa4ad13bf60"},"vehicle_type_id":"4","last_reported":1752354554,"current_range_meters":19600,"station_id":"","pricing_plan_id":"cebpf4jnsgd1na2vs0mg"},{"bike_id":"320f66e8-827c-48fa-a9ef-f1c67030c362","system_id":"levelo_inurba_marseille","lat":43.28464,"lon":5.35897,"is_reserved":false,"is_disabled":false,"rental_uris":{"android":"levelo://app?vid=320f66e8-827c-48fa-a9ef-f1c67030c362","ios":"levelo://app?vid=320f66e8-827c-48fa-a9ef-f1c67030c362"},"vehicle_type_id":"4","last_reported":1752354554,"current_range_meters":20000,"station_id":"ce4bhah2rcd13ifvqei0","pricing_plan_id":"cebpf4jnsgd1na2vs0mg"},{"bike_id":"436e917a-7f3e-467e-946b-136c32e6f617","system_id":"levelo_inurba_marseille","lat":43.26227,"lon":5.40462,"is_reserved":false,"is_disabled":false,"rental_uris":{"android":"levelo://app?vid=436e917a-7f3e-467e-946b-136c32e6f617","ios":"levelo://app?vid=436e917a-7f3e-467e-946b-136c32e6f617"},"vehicle_type_id":"4","last_reported":1752354554,"current_range_meters":19600,"station_id":"ce4bhmh2rcd13ifvqgmg","pricing_plan_id":"cebpf4jnsgd1na2vs0mg"},{"bike_id":"58375fde-ca97-4dab-be52-59caf98323d3","system_id":"levelo_inurba_marseille","lat":43.26593,"lon":5.37246,"is_reserved":false,"is_disabled":true,"rental_uris":{"android":"levelo://app?vid=58375fde-ca97-4dab-be52-59caf98323d3","ios":"levelo://app?vid=58375fde-ca97-4dab-be52-59caf98323d3"},"vehicle_type_id":"4","last_reported":1752354554,"current_range_meters":19600,"station_id":"ce4bhg12rcd13ifvqf70","pricing_plan_id":"cebpf4jnsgd1na2vs0mg"},{"bike_id":"7d9e3f53-cf37-4d56-9ff5-57d7cc79d46c","system_id":"levelo_inurba_marseille","lat":43.29534,"lon":5.38553,"is_reserved":false,"is_disabled":false,"rental_uris":{"android":"levelo://app?vid=7d9e3f53-cf37-4d56-9ff5-57d7cc79d46c","ios":"levelo://app?vid=7d9e3f53-cf37-4d56-9ff5-57d7cc79d46c"},"vehicle_type_id":"4","last_reported":1752354554,"current_range_meters":19600,"station_id":"ce4bgih2rcd13ifvqba0","pricing_plan_id":"cebpf4jnsgd1na2vs0mg"},{"bike_id":"56f09403-a466-410a-916d-29f260962e7d","system_id":"levelo_inurba_marseille","lat":43.29544,"lon":5.38548,"is_reserved":false,"is_disabled":false,"rental_uris":{"android":"levelo://app?vid=56f09403-a466-410a-916d-29f260962e7d","ios":"levelo://app?vid=56f09403-a466-410a-916d-29f260962e7d"},"vehicle_type_id":"4","last_reported":1752354554,"current_range_meters":19600,"station_id":"ce4bgih2rcd13ifvqba0","pricing_plan_id":"cebpf4jnsgd1na2vs0mg"},{"bike_id":"cc6260c7-e588-42d7-afef-96c409802ccc","system_id":"levelo_inurba_marseille","lat":43.21188,"lon":5.35075,"is_reserved":false,"is_disabled":false,"rental_uris":{"android":"levelo://app?vid=cc6260c7-e588-42d7-afef-96c409802ccc","ios":"levelo://app?vid=cc6260c7-e588-42d7-afef-96c409802ccc"},"vehicle_type_id":"4","last_reported":1752354554,"current_range_meters":19600,"station_id":"st_cvj6sg6p6f1abm77japg","pricing_plan_id":"cebpf4jnsgd1na2vs0mg"},{"bike_id":"ece9d047-dc12-4ce6-82bf-fc7ad56a230c","system_id":"levelo_inurba_marseille","lat":43.28623,"lon":5.35106,"is_reserved":false,"is_disabled":true,"rental_uris":{"android":"levelo://app?vid=ece9d047-dc12-4ce6-82bf-fc7ad56a230c","ios":"levelo://app?vid=ece9d047-dc12-4ce6-82bf-fc7ad56a230c"},"vehicle_type_id":"4","last_reported":1752354554,"current_range_meters":19600,"station_id":"ce4bhch2rcd13ifvqeug","pricing_plan_id":"cebpf4jnsgd1na2vs0mg"},{"bike_id":"961bc26c-7f77-4eee-abb0-e1dc4f4ed919","system_id":"levelo_inurba_marseille","lat":43.28433,"lon":5.34987,"is_reserved":false,"is_disabled":true,"rental_uris":{"android":"levelo://app?vid=961bc26c-7f77-4eee-abb0-e1dc4f4ed919","ios":"levelo://app?vid=961bc26c-7f77-4eee-abb0-e1dc4f4ed919"},"vehicle_type_id":"4","last_reported":1752354554,"current_range_meters":20000,"station_id":"ce4bhbh2rcd13ifvqepg","pricing_plan_id":"cebpf4jnsgd1na2vs0mg"},{"bike_id":"ee17bcf1-2d57-453a-b3d0-e77594f406f1","system_id":"levelo_inurba_marseille","lat":43.26,"lon":5.37548,"is_reserved":false,"is_disabled":false,"rental_uris":{"android":"levelo://app?vid=ee17bcf1-2d57-453a-b3d0-e77594f406f1","ios":"levelo://app?vid=ee17bcf1-2d57-453a-b3d0-e77594f406f1"},"vehicle_type_id":"4","last_reported":1752354554,"current_range_meters":20000,"station_id":"ce4bhgh2rcd13ifvqfa0","pricing_plan_id":"cebpf4jnsgd1na2vs0mg"},{"bike_id":"10388035-8e57-4e34-8ec1-559555823a7c","system_id":"levelo_inurba_marseille","lat":43.31323,"lon":5.39692,"is_reserved":false,"is_disabled":false,"rental_uris":{"android":"levelo://app?vid=10388035-8e57-4e34-8ec1-559555823a7c","ios":"levelo://app?vid=10388035-8e57-4e34-8ec1-559555823a7c"},"vehicle_type_id":"4","last_reported":1752354554,"current_range_meters":20000,"station_id":"ce4bgvp2rcd13ifvqcu0","pricing_plan_id":"cebpf4jnsgd1na2vs0mg"},{"bike_id":"20eb7dcd-9a57-4563-bf6a-cf6f974011df","system_id":"levelo_inurba_marseille","lat":43.29527,"lon":5.38544,"is_reserved":false,"is_disabled":false,"rental_uris":{"android":"levelo://app?vid=20eb7dcd-9a57-4563-bf6a-cf6f974011df","ios":"levelo://app?vid=20eb7dcd-9a57-4563-bf6a-cf6f974011df"},"vehicle_type_id":"4","last_reported":1752354554,"current_range_meters":20000,"station_id":"ce4bgih2rcd13ifvqba0","pricing_plan_id":"cebpf4jnsgd1na2vs0mg"},{"bike_id":"059a4775-c8b3-4965-854c-46db5bc514d2","system_id":"levelo_inurba_marseille","lat":43.28412,"lon":5.37524,"is_reserved":false,"is_disabled":false,"rental_uris":{"android":"levelo://app?vid=059a4775-c8b3-4965-854c-46db5bc514d2","ios":"levelo://app?vid=059a4775-c8b3-4965-854c-46db5bc514d2"},"vehicle_type_id":"4","last_reported":1752354554,"current_range_meters":20000,"station_id":"ce4bh412rcd13ifvqds0","pricing_plan_id":"cebpf4jnsgd1na2vs0mg"},{"bike_id":"b423fec1-849c-4a4f-86c3-c05cbe39d75f","system_id":"levelo_inurba_marseille","lat":43.26212,"lon":5.37445,"is_reserved":false,"is_disabled":false,"rental_uris":{"android":"levelo://app?vid=b423fec1-849c-4a4f-86c3-c05cbe39d75f","ios":"levelo://app?vid=b423fec1-849c-4a4f-86c3-c05cbe39d75f"},"vehicle_type_id":"4","last_reported":1752354554,"current_range_meters":20000,"station_id":"ce4bhgp2rcd13ifvqfc0","pricing_plan_id":"cebpf4jnsgd1na2vs0mg"},{"bike_id":"28a0b227-45df-4117-8ee1-3c3fe241af02","system_id":"levelo_inurba_marseille","lat":43.29522,"lon":5.38521,"is_reserved":false,"is_disabled":false,"rental_uris":{"android":"levelo://app?vid=28a0b227-45df-4117-8ee1-3c3fe241af02","ios":"levelo://app?vid=28a0b227-45df-4117-8ee1-3c3fe241af02"},"vehicle_type_id":"4","last_reported":1752354554,"current_range_meters":20000,"station_id":"ce4bgih2rcd13ifvqba0","pricing_plan_id":"cebpf4jnsgd1na2vs0mg"},{"bike_id":"066d5f71-e483-408b-9680-4fddb10db47c","system_id":"levelo_inurba_marseille","lat":43.28681,"lon":5.38671,"is_reserved":false,"is_disabled":false,"rental_uris":{"android":"levelo://app?vid=066d5f71-e483-408b-9680-4fddb10db47c","ios":"levelo://app?vid=066d5f71-e483-408b-9680-4fddb10db47c"},"vehicle_type_id":"4","last_reported":1752354554,"current_range_meters":21600,"station_id":"ce4bh492rcd13ifvqdug","pricing_plan_id":"cebpf4jnsgd1na2vs0mg"},{"bike_id":"7d80377e-8c8b-466d-b275-5356b99e3e43","system_id":"levelo_inurba_marseille","lat":43.24653,"lon":5.38899,"is_reserved":false,"is_disabled":false,"rental_uris":{"android":"levelo://app?vid=7d80377e-8c8b-466d-b275-5356b99e3e43","ios":"levelo://app?vid=7d80377e-8c8b-466d-b275-5356b99e3e43"},"vehicle_type_id":"4","last_reported":1752354554,"current_range_meters":20000,"station_id":"ce4bhg12rcd13ifvqf60","pricing_plan_id":"cebpf4jnsgd1na2vs0mg"},{"bike_id":"599a1eef-b03a-47fe-87fa-7080e16c73a8","system_id":"levelo_inurba_marseille","lat":43.30947,"lon":5.39064,"is_reserved":false,"is_disabled":false,"rental_uris":{"android":"levelo://app?vid=599a1eef-b03a-47fe-87fa-7080e16c73a8","ios":"levelo://app?vid=599a1eef-b03a-47fe-87fa-7080e16c73a8"},"vehicle_type_id":"4","last_reported":1752354554,"current_range_meters":20000,"station_id":"ce4bgup2rcd13ifvqco0","pricing_plan_id":"cebpf4jnsgd1na2vs0mg"},{"bike_id":"329258d0-6c30-4af1-8cd4-e9d8eb568f76","system_id":"levelo_inurba_marseille","lat":43.29525,"lon":5.38543,"is_reserved":false,"is_disabled":false,"rental_uris":{"android":"levelo://app?vid=329258d0-6c30-4af1-8cd4-e9d8eb568f76","ios":"levelo://app?vid=329258d0-6c30-4af1-8cd4-e9d8eb568f76"},"vehicle_type_id":"4","last_reported":1752354554,"current_range_meters":20000,"station_id":"ce4bgih2rcd13ifvqba0","pricing_plan_id":"cebpf4jnsgd1na2vs0mg"},{"bike_id":"904d6a86-60ed-431a-b0ac-b0f35672ff9e","system_id":"levelo_inurba_marseille","lat":43.27952,"lon":5.4105,"is_reserved":false,"is_disabled":false,"rental_uris":{"android":"levelo://app?vid=904d6a86-60ed-431a-b0ac-b0f35672ff9e","ios":"levelo://app?vid=904d6a86-60ed-431a-b0ac-b0f35672ff9e"},"vehicle_type_id":"4","last_reported":1752354554,"current_range_meters":20000,"station_id":"ce4bhnp2rcd13ifvqh0g","pricing_plan_id":"cebpf4jnsgd1na2vs0mg"},{"bike_id":"7a888645-4b0c-4379-98d8-380a5347b74c","system_id":"levelo_inurba_marseille","lat":43.27363,"lon":5.3626,"is_reserved":false,"is_disabled":true,"rental_uris":{"android":"levelo://app?vid=7a888645-4b0c-4379-98d8-380a5347b74c","ios":"levelo://app?vid=7a888645-4b0c-4379-98d8-380a5347b74c"},"vehicle_type_id":"4","last_reported":1752354554,"current_range_meters":20400,"station_id":"ce4bhbh2rcd13ifvqeo0","pricing_plan_id":"cebpf4jnsgd1na2vs0mg"},{"bike_id":"95c3213a-0aaf-4f34-8c7d-426d6f049ca9","system_id":"levelo_inurba_marseille","lat":43.31362,"lon":5.38494,"is_reserved":false,"is_disabled":false,"rental_uris":{"android":"levelo://app?vid=95c3213a-0aaf-4f34-8c7d-426d6f049ca9","ios":"levelo://app?vid=95c3213a-0aaf-4f34-8c7d-426d6f049ca9"},"vehicle_type_id":"4","last_reported":1752354554,"current_range_meters":20400,"station_id":"ce4bgt92rcd13ifvqcf0","pricing_plan_id":"cebpf4jnsgd1na2vs0mg"},{"bike_id":"5fd40c6a-656c-4031-9bbd-10fae4e37bd7","system_id":"levelo_inurba_marseille","lat":43.29238,"lon":5.36617,"is_reserved":false,"is_disabled":false,"rental_uris":{"android":"levelo://app?vid=5fd40c6a-656c-4031-9bbd-10fae4e37bd7","ios":"levelo://app?vid=5fd40c6a-656c-4031-9bbd-10fae4e37bd7"},"vehicle_type_id":"4","last_reported":1752354554,"current_range_meters":20400,"station_id":"","pricing_plan_id":"cebpf4jnsgd1na2vs0mg"},{"bike_id":"91e36618-f857-45af-ac89-91d909da2db3","system_id":"levelo_inurba_marseille","lat":43.294444,"lon":5.385662,"is_reserved":false,"is_disabled":true,"rental_uris":{"android":"levelo://app?vid=91e36618-f857-45af-ac89-91d909da2db3","ios":"levelo://app?vid=91e36618-f857-45af-ac89-91d909da2db3"},"vehicle_type_id":"4","last_reported":1752354554,"current_range_meters":20400,"station_id":"ce4bh2h2rcd13ifvqdh0","pricing_plan_id":"cebpf4jnsgd1na2vs0mg"},