{"last_updated":1702163194,"ttl":30,"version":"2.2","data":{"bikes":[{"bike_id":"0fe40999-5a08-472f-9c0e-b9ab62e54a02","system_id":"levelo_inurba_marseille","lat":43.309076,"lon":5.368465,"is_reserved":false,"is_disabled":false,"rental_uris":{"android":"levelo://app?vid=0fe40999-5a08-472f-9c0e-b9ab62e54a02","ios":"levelo://app?vid=0fe40999-5a08-472f-9c0e-b9ab62e54a02"},"vehicle_type_id":"4","last_reported":1702163194,"current_range_meters":26800,"station_id":"ce4bgn92rcd13ifvqbvg","pricing_plan_id":"free"},{"bike_id":"0acfb66a-ad9f-451e-84dc-4de0499f7b3e","system_id":"levelo_inurba_marseille","lat":43.314811,"lon":5.373103,"is_reserved":false,"is_disabled":false,"rental_uris":{"android":"levelo://app?vid=0acfb66a-ad9f-451e-84dc-4de0499f7b3e","ios":"levelo://app?vid=0acfb66a-ad9f-451e-84dc-4de0499f7b3e"},"vehicle_type_id":"4","last_reported":1702163194,"current_range_meters":2800,"station_id":"ce4bgt12rcd13ifvqcd0","pricing_plan_id":"free"},{"bike_id":"be563e93-b17e-4620-ad92-0eee294546ce","system_id":"levelo_inurba_marseille","lat":43.305712,"lon":5.365641,"is_reserved":false,"is_disabled":false,"rental_uris":{"android":"levelo://app?vid=be563e93-b17e-4620-ad92-0eee294546ce","ios":"levelo://app?vid=be563e93-b17e-4620-ad92-0eee294546ce"},"vehicle_type_id":"4","last_reported":1702163194,"current_range_meters":26000,"station_id":"ce4bgs12rcd13ifvqcag","pricing_plan_id":"free"},{"bike_id":"9883ca29-c852-49ea-9b52-f2009479e128","system_id":"levelo_inurba_marseille","lat":43.307945,"lon":5.376487,"is_reserved":false,"is_disabled":false,"rental_uris":{"android":"levelo://app?vid=9883ca29-c852-49ea-9b52-f2009479e128","ios":"levelo://app?vid=9883ca29-c852-49ea-9b52-f2009479e128"},"vehicle_type_id":"4","last_reported":1702163194,"current_range_meters":9200,"station_id":"ce4bgv92rcd13ifvqcq0","pricing_plan_id":"free"},{"bike_id":"9ae367b1-a4f3-47aa-ab3b-c8db2ef55fdd","system_id":"levelo_inurba_marseille","lat":43.317075,"lon":5.377367,"is_reserved":false,"is_disabled":false,"rental_uris":{"android":"levelo://app?vid=9ae367b1-a4f3-47aa-ab3b-c8db2ef55fdd","ios":"levelo://app?vid=9ae367b1-a4f3-47aa-ab3b-c8db2ef55fdd"},"vehicle_type_id":"4","last_reported":1702163194,"current_range_meters":18000,"station_id":"ce4bgth2rcd13ifvqch0","pricing_plan_id":"free"},{"bike_id":"23c3a2f2-e11a-4b7e-a585-1e306c5a2572","system_id":"levelo_inurba_marseille","lat":43.303046,"lon":5.368981,"is_reserved":false,"is_disabled":false,"rental_uris":{"android":"levelo://app?vid=23c3a2f2-e11a-4b7e-a585-1e306c5a2572","ios":"levelo://app?vid=23c3a2f2-e11a-4b7e-a585-1e306c5a2572"},"vehicle_type_id":"4","last_reported":1702163194,"current_range_meters":28800,"station_id":"ce4bgqh2rcd13ifvqc5g","pricing_plan_id":"free"},{"bike_id":"cf63ca16-724c-4922-b38a-e44c883d7d49","system_id":"levelo_inurba_marseille","lat":43.31534,"lon":5.38029,"is_reserved":false,"is_disabled":false,"rental_uris":{"android":"levelo://app?vid=cf63ca16-724c-4922-b38a-e44c883d7d49","ios":"levelo://app?vid=cf63ca16-724c-4922-b38a-e44c883d7d49"},"vehicle_type_id":"4","last_reported":1702163194,"current_range_meters":24800,"station_id":"ce4bhsp2rcd13ifvqi50","pricing_plan_id":"free"},{"bike_id":"e8154267-dc64-4d27-a2b6-ec74c6705523","system_id":"levelo_inurba_marseille","lat":43.30803,"lon":5.38153,"is_reserved":false,"is_disabled":false,"rental_uris":{"android":"levelo://app?vid=e8154267-dc64-4d27-a2b6-ec74c6705523","ios":"levelo://app?vid=e8154267-dc64-4d27-a2b6-ec74c6705523"},"vehicle_type_id":"4","last_reported":1702163194,"current_range_meters":15200,"station_id":"ce4bgt12rcd13ifvqce0","pricing_plan_id":"free"},{"bike_id":"3d46c0af-4576-4f2f-87b0-0abde914ad06","system_id":"levelo_inurba_marseille","lat":43.308012,"lon":5.381511,"is_reserved":false,"is_disabled":false,"rental_uris":{"android":"levelo://app?vid=3d46c0af-4576-4f2f-87b0-0abde914ad06","ios":"levelo://app?vid=3d46c0af-4576-4f2f-87b0-0abde914ad06"},"vehicle_type_id":"4","last_reported":1702163194,"current_range_meters":0,"station_id":"ce4bgt12rcd13ifvqce0","pricing_plan_id":"free"},{"bike_id":"59b1982d-0c16-4fb6-a0ee-9acc09a937da","system_id":"levelo_inurba_marseille","lat":43.30154,"lon":5.37385,"is_reserved":false,"is_disabled":false,"rental_uris":{"android":"levelo://app?vid=59b1982d-0c16-4fb6-a0ee-9acc09a937da","ios":"levelo://app?vid=59b1982d-0c16-4fb6-a0ee-9acc09a937da"},"vehicle_type_id":"4","last_reported":1702163194,"current_range_meters":0,"station_id":"ce4bgs92rcd13ifvqcc0","pricing_plan_id":"free"},{"bike_id":"6e37762e-9052-4e50-acbe-d48c47a98e9a","system_id":"levelo_inurba_marseille","lat":43.30143,"lon":5.37413,"is_reserved":false,"is_disabled":false,"rental_uris":{"android":"levelo://app?vid=6e37762e-9052-4e50-acbe-d48c47a98e9a","ios":"levelo://app?vid=6e37762e-9052-4e50-acbe-d48c47a98e9a"},"vehicle_type_id":"4","last_reported":1702163194,"current_range_meters":10000,"station_id":"ce4bgs92rcd13ifvqcc0","pricing_plan_id":"free"},{"bike_id":"d8be298e-f4c0-4479-a66b-e307c680d7cc","system_id":"levelo_inurba_marseille","lat":43.31356,"lon":5.38493,"is_reserved":false,"is_disabled":false,"rental_uris":{"android":"levelo://app?vid=d8be298e-f4c0-4479-a66b-e307c680d7cc","ios":"levelo://app?vid=d8be298e-f4c0-4479-a66b-e307c680d7cc"},"vehicle_type_id":"4","last_reported":1702163194,"current_range_meters":22400,"station_id":"ce4bgt92rcd13ifvqcf0","pricing_plan_id":"free"},{"bike_id":"2b6bc695-d658-40c3-80e8-3cc8047e10b9","system_id":"levelo_inurba_marseille","lat":43.313571,"lon":5.384829,"is_reserved":false,"is_disabled":false,"rental_uris":{"android":"levelo://app?vid=2b6bc695-d658-40c3-80e8-3cc8047e10b9","ios":"levelo://app?vid=2b6bc695-d658-40c3-80e8-3cc8047e10b9"},"vehicle_type_id":"4","last_reported":1702163194,"current_range_meters":14400,"station_id":"ce4bgt92rcd13ifvqcf0","pricing_plan_id":"free"},{"bike_id":"4cb9dae5-2913-41d1-bdcf-6f9f5c97ce8a","system_id":"levelo_inurba_marseille","lat":43.313571,"lon":5.384829,"is_reserved":false,"is_disabled":false,"rental_uris":{"android":"levelo://app?vid=4cb9dae5-2913-41d1-bdcf-6f9f5c97ce8a","ios":"levelo://app?vid=4cb9dae5-2913-41d1-bdcf-6f9f5c97ce8a"},"vehicle_type_id":"4","last_reported":1702163194,"current_range_meters":21200,"station_id":"ce4bgt92rcd13ifvqcf0","pricing_plan_id":"free"},{"bike_id":"9acd56a4-a7e5-4d3c-a878-301030793438","system_id":"levelo_inurba_marseille","lat":43.311131,"lon":5.377651,"is_reserved":false,"is_disabled":false,"rental_uris":{"android":"levelo://app?vid=9acd56a4-a7e5-4d3c-a878-301030793438","ios":"levelo://app?vid=9acd56a4-a7e5-4d3c-a878-301030793438"},"vehicle_type_id":"4","last_reported":1702163194,"current_range_meters":20000,"station_id":"ce4bgt92rcd13ifvqcg0","pricing_plan_id":"free"},{"bike_id":"c0a64277-f5dd-4691-8acb-5c084fb0cfac","system_id":"levelo_inurba_marseille","lat":43.298433,"lon":5.362774,"is_reserved":false,"is_disabled":false,"rental_uris":{"android":"levelo://app?vid=c0a64277-f5dd-4691-8acb-5c084fb0cfac","ios":"levelo://app?vid=c0a64277-f5dd-4691-8acb-5c084fb0cfac"},"vehicle_type_id":"4","last_reported":1702163194,"current_range_meters":23200,"station_id":"ce4bgpp2rcd13ifvqc3g","pricing_plan_id":"free"},{"bike_id":"6bfe2fc5-7a9a-49d3-8431-23c60f93357d","system_id":"levelo_inurba_marseille","lat":43.31166,"lon":5.38719,"is_reserved":false,"is_disabled":false,"rental_uris":{"android":"levelo://app?vid=6bfe2fc5-7a9a-49d3-8431-23c60f93357d","ios":"levelo://app?vid=6bfe2fc5-7a9a-49d3-8431-23c60f93357d"},"vehicle_type_id":"4","last_reported":1702163194,"current_range_meters":20400,"station_id":"ce4bgv12rcd13ifvqcp0","pricing_plan_id":"free"},{"bike_id":"bbd2ff55-b4eb-46c2-b1b1-11df9760b54b","system_id":"levelo_inurba_marseille","lat":43.31172,"lon":5.38737,"is_reserved":false,"is_disabled":false,"rental_uris":{"android":"levelo://app?vid=bbd2ff55-b4eb-46c2-b1b1-11df9760b54b","ios":"levelo://app?vid=bbd2ff55-b4eb-46c2-b1b1-11df9760b54b"},"vehicle_type_id":"4","last_reported":1702163194,"current_range_meters":1200,"station_id":"ce4bgv12rcd13ifvqcp0","pricing_plan_id":"free"},{"bike_id":"0370f0dd-02e1-44c3-b626-7cdd11d7ffac","system_id":"levelo_inurba_marseille","lat":43.32288,"lon":5.38264,"is_reserved":false,"is_disabled":false,"rental_uris":{"android":"levelo://app?vid=0370f0dd-02e1-44c3-b626-7cdd11d7ffac","ios":"levelo://app?vid=0370f0dd-02e1-44c3-b626-7cdd11d7ffac"},"vehicle_type_id":"4","last_reported":1702163194,"current_range_meters":31200,"station_id":"ce4bhr12rcd13ifvqhqg","pricing_plan_id":"free"},{"bike_id":"c60cbb7e-9382-450f-b819-5c2450f4f643","system_id":"levelo_inurba_marseille","lat":43.32289,"lon":5.38271,"is_reserved":false,"is_disabled":false,"rental_uris":{"android":"levelo://app?vid=c60cbb7e-9382-450f-b819-5c2450f4f643","ios":"levelo://app?vid=c60cbb7e-9382-450f-b819-5c2450f4f643"},"vehicle_type_id":"4","last_reported":1702163194,"current_range_meters":3600,"station_id":"ce4bhr12rcd13ifvqhqg","pricing_plan_id":"free"},{"bike_id":"6ac675f1-e0be-498c-ad2f-b742a949d4b0","system_id":"levelo_inurba_marseille","lat":43.298218,"lon":5.374416,"is_reserved":false,"is_disabled":false,"rental_uris":{"android":"levelo://app?vid=6ac675f1-e0be-498c-ad2f-b742a949d4b0","ios":"levelo://app?vid=6ac675f1-e0be-498c-ad2f-b742a949d4b0"},"vehicle_type_id":"4","last_reported":1702163194,"current_range_meters":400,"station_id":"","pricing_plan_id":"free"},{"bike_id":"e38668b9-7cfe-4c50-9a40-f1088b293b9b","system_id":"levelo_inurba_marseille","lat":43.296745,"lon":5.372835,"is_reserved":false,"is_disabled":false,"rental_uris":{"android":"levelo://app?vid=e38668b9-7cfe-4c50-9a40-f1088b293b9b","ios":"levelo://app?vid=e38668b9-7cfe-4c50-9a40-f1088b293b9b"},"vehicle_type_id":"4","last_reported":1702163194,"current_range_meters":12400,"station_id":"ce4bgk12rcd13ifvqbj0","pricing_plan_id":"free"},{"bike_id":"92dc65d6-6823-4de3-93d4-056f738f090c","system_id":"levelo_inurba_marseille","lat":43.316538,"lon":5.38954,"is_reserved":false,"is_disabled":false,"rental_uris":{"android":"levelo://app?vid=92dc65d6-6823-4de3-93d4-056f738f090c","ios":"levelo://app?vid=92dc65d6-6823-4de3-93d4-056f738f090c"},"vehicle_type_id":"4","last_reported":1702163194,"current_range_meters":0,"station_id":"","pricing_plan_id":"free"},{"bike_id":"1391f894-b835-4388-a938-963d2b7904b8","system_id":"levelo_inurba_marseille","lat":43.317557,"lon":5.390173,"is_reserved":false,"is_disabled":false,"rental_uris":{"android":"levelo://app?vid=1391f894-b835-4388-a938-963d2b7904b8","ios":"levelo://app?vid=1391f894-b835-4388-a938-963d2b7904b8"},"vehicle_type_id":"4","last_reported":1702163194,"current_range_meters":29200,"station_id":"ce4bhqp2rcd13ifvqhng","pricing_plan_id":"free"},{"bike_id":"d69f04d9-84df-4f26-bc64-9f532752e790","system_id":"levelo_inurba_marseille","lat":43.31758,"lon":5.39022,"is_reserved":false,"is_disabled":false,"rental_uris":{"android":"levelo://app?vid=d69f04d9-84df-4f26-bc64-9f532752e790","ios":"levelo://app?vid=d69f04d9-84df-4f26-bc64-9f532752e790"},"vehicle_type_id":"4","last_reported":1702163194,"current_range_meters":2800,"station_id":"ce4bhqp2rcd13ifvqhng","pricing_plan_id":"free"},{"bike_id":"b70c5ff6-a5eb-4e27-a6db-ae0935e92ca4","system_id":"levelo_inurba_marseille","lat":43.29827,"lon":5.38309,"is_reserved":false,"is_disabled":false,"rental_uris":{"android":"levelo://app?vid=b70c5ff6-a5eb-4e27-a6db-ae0935e92ca4","ios":"levelo://app?vid=b70c5ff6-a5eb-4e27-a6db-ae0935e92ca4"},"vehicle_type_id":"4","last_reported":1702163194,"current_range_meters":0,"station_id":"","pricing_plan_id":"free"},{"bike_id":"6c312c32-7c31-4b7a-945b-b17dae261037","system_id":"levelo_inurba_marseille","lat":43.295995,"lon":5.381215,"is_reserved":false,"is_disabled":false,"rental_uris":{"android":"levelo://app?vid=6c312c32-7c31-4b7a-945b-b17dae261037","ios":"levelo://app?vid=6c312c32-7c31-4b7a-945b-b17dae261037"},"vehicle_type_id":"4","last_reported":1702163194,"current_range_meters":22400,"station_id":"ce4bgl12rcd13ifvqbo0","pricing_plan_id":"free"},{"bike_id":"761046af-7192-4f63-84e8-f6c7a00563ab","system_id":"levelo_inurba_marseille","lat":43.29261,"lon":5.37635,"is_reserved":false,"is_disabled":false,"rental_uris":{"android":"levelo://app?vid=761046af-7192-4f63-84e8-f6c7a00563ab","ios":"levelo://app?vid=761046af-7192-4f63-84e8-f6c7a00563ab"},"vehicle_type_id":"4","last_reported":1702163194,"current_range_meters":0,"station_id":"ce4bgi12rcd13ifvqb80","pricing_plan_id":"free"},{"bike_id":"ffe8e861-9583-46be-9da3-462d5c1037ee","system_id":"levelo_inurba_marseille","lat":43.29258,"lon":5.3763,"is_reserved":false,"is_disabled":false,"rental_uris":{"android":"levelo://app?vid=ffe8e861-9583-46be-9da3-462d5c1037ee","ios":"levelo://app?vid=ffe8e861-9583-46be-9da3-462d5c1037ee"},"vehicle_type_id":"4","last_reported":1702163194,"current_range_meters":9600,"station_id":"ce4bgi12rcd13ifvqb80","pricing_plan_id":"free"},{"bike_id":"5c79bc93-8f13-4c40-8a8c-8f35d3902245","system_id":"levelo_inurba_marseille","lat":43.332284,"lon":5.379763,"is_reserved":false,"is_disabled":false,"rental_uris":{"android":"levelo://app?vid=5c79bc93-8f13-4c40-8a8c-8f35d3902245","ios":"levelo://app?vid=5c79bc93-8f13-4c40-8a8c-8f35d3902245"},"vehicle_type_id":"4","last_reported":1702163194,"current_range_meters":12000,"station_id":"","pricing_plan_id":"free"},{"bike_id":"5ed66215-e812-4934-8bd8-05fa06e2778c","system_id":"levelo_inurba_marseille","lat":43.332418,"lon":5.379798,"is_reserved":false,"is_disabled":false,"rental_uris":{"android":"levelo://app?vid=5ed66215-e812-4934-8bd8-05fa06e2778c","ios":"levelo://app?vid=5ed66215-e812-4934-8bd8-05fa06e2778c"},"vehicle_type_id":"4","last_reported":1702163194,"current_range_meters":27200,"station_id":"","pricing_plan_id":"free"},{"bike_id":"401fe086-2828-4d63-bd6b-53603201f345","system_id":"levelo_inurba_marseille","lat":43.313291,"lon":5.396838,"is_reserved":false,"is_disabled":false,"rental_uris":{"android":"levelo://app?vid=401fe086-2828-4d63-bd6b-53603201f345","ios":"levelo://app?vid=401fe086-2828-4d63-bd6b-53603201f345"},"vehicle_type_id":"4","last_reported":1702163194,"current_range_meters":4000,"station_id":"ce4bgvp2rcd13ifvqcu0","pricing_plan_id":"free"},{"bike_id":"946c553e-df8f-4ce9-b6ae-027997ed4451","system_id":"levelo_inurba_marseille","lat":43.29187,"lon":5.35797,"is_reserved":false,"is_disabled":false,"rental_uris":{"android":"levelo://app?vid=946c553e-df8f-4ce9-b6ae-027997ed4451","ios":"levelo://app?vid=946c553e-df8f-4ce9-b6ae-027997ed4451"},"vehicle_type_id":"4","last_reported":1702163194,"current_range_meters":15200,"station_id":"ce4bhb12rcd13ifvqel0","pricing_plan_id":"free"},{"bike_id":"c0630aab-3bb0-43d3-8b9d-674ab7344152","system_id":"levelo_inurba_marseille","lat":43.313291,"lon":5.396838,"is_reserved":false,"is_disabled":false,"rental_uris":{"android":"levelo://app?vid=c0630aab-3bb0-43d3-8b9d-674ab7344152","ios":"levelo://app?vid=c0630aab-3bb0-43d3-8b9d-674ab7344152"},"vehicle_type_id":"4","last_reported":1702163194,"current_range_meters":11200,"station_id":"ce4bgvp2rcd13ifvqcu0","pricing_plan_id":"free"},{"bike_id":"e5e1556d-54f6-4de3-a906-092c27b81b2d","system_id":"levelo_inurba_marseille","lat":43.309038,"lon":5.396546,"is_reserved":false,"is_disabled":false,"rental_uris":{"android":"levelo://app?vid=e5e1556d-54f6-4de3-a906-092c27b81b2d","ios":"levelo://app?vid=e5e1556d-54f6-4de3-a906-092c27b81b2d"},"vehicle_type_id":"4","last_reported":1702163194,"current_range_meters":23600,"station_id":"ce4bh012rcd13ifvqcv0","pricing_plan_id":"free"},{"bike_id":"2de0a06f-e84b-4499-acfe-1b4dcfa05272","system_id":"levelo_inurba_marseille","lat":43.309038,"lon":5.396546,"is_reserved":false,"is_disabled":false,"rental_uris":{"android":"levelo://app?vid=2de0a06f-e84b-4499-acfe-1b4dcfa05272","ios":"levelo://app?vid=2de0a06f-e84b-4499-acfe-1b4dcfa05272"},"vehicle_type_id":"4","last_reported":1702163194,"current_range_meters":22000,"station_id":"ce4bh012rcd13ifvqcv0","pricing_plan_id":"free"},{"bike_id":"a708d672-2da2-407f-b67b-e307e6595921","system_id":"levelo_inurba_marseille","lat":43.302008,"lon":5.394694,"is_reserved":false,"is_disabled":false,"rental_uris":{"android":"levelo://app?vid=a708d672-2da2-407f-b67b-e307e6595921","ios":"levelo://app?vid=a708d672-2da2-407f-b67b-e307e6595921"},"vehicle_type_id":"4","last_reported":1702163194,"current_range_meters":400,"station_id":"ce4bh0p2rcd13ifvqd70","pricing_plan_id":"free"},{"bike_id":"ea39043c-001b-44d9-9aaa-7d2cf0e3185d","system_id":"levelo_inurba_marseille","lat":43.289184,"lon":5.366408,"is_reserved":false,"is_disabled":false,"rental_uris":{"android":"levelo://app?vid=ea39043c-001b-44d9-9aaa-7d2cf0e3185d","ios":"levelo://app?vid=ea39043c-001b-44d9-9aaa-7d2cf0e3185d"},"vehicle_type_id":"4","last_reported":1702163194,"current_range_meters":0,"station_id":"ce4bhap2rcd13ifvqek0","pricing_plan_id":"free"},{"bike_id":"a02a1b20-1fb1-4951-988a-77389649024d","system_id":"levelo_inurba_marseille","lat":43.289259,"lon":5.366364,"is_reserved":false,"is_disabled":false,"rental_uris":{"android":"levelo://app?vid=a02a1b20-1fb1-4951-988a-77389649024d","ios":"levelo://app?vid=a02a1b20-1fb1-4951-988a-77389649024d"},"vehicle_type_id":"4","last_reported":1702163194,"current_range_meters":10400,"station_id":"","pricing_plan_id":"free"},{"bike_id":"86ddf7bc-8eb9-4d8d-b828-239345a9dc5b","system_id":"levelo_inurba_marseille","lat":43.292642,"lon":5.384254,"is_reserved":false,"is_disabled":false,"rental_uris":{"android":"levelo://app?vid=86ddf7bc-8eb9-4d8d-b828-239345a9dc5b","ios":"levelo://app?vid=86ddf7bc-8eb9-4d8d-b828-239345a9dc5b"},"vehicle_type_id":"4","last_reported":1702163194,"current_range_meters":400,"station_id":"ce4bh692rcd13ifvqea0","pricing_plan_id":"free"},{"bike_id":"7229ab44-889a-4327-bbf2-a5feb65eb3e9","system_id":"levelo_inurba_marseille","lat":43.29778,"lon":5.39326,"is_reserved":false,"is_disabled":false,"rental_uris":{"android":"levelo://app?vid=7229ab44-889a-4327-bbf2-a5feb65eb3e9","ios":"levelo://app?vid=7229ab44-889a-4327-bbf2-a5feb65eb3e9"},"vehicle_type_id":"4","last_reported":1702163194,"current_range_meters":10800,"station_id":"chh1huq6cuj3fo74tm60","pricing_plan_id":"free"},{"bike_id":"5384da35-c6c5-455f-9850-61bb8fdb9575","system_id":"levelo_inurba_marseille","lat":43.289743,"lon":5.378304,"is_reserved":false,"is_disabled":false,"rental_uris":{"android":"levelo://app?vid=5384da35-c6c5-455f-9850-61bb8fdb9575","ios":"levelo://app?vid=5384da35-c6c5-455f-9850-61bb8fdb9575"},"vehicle_type_id":"4","last_reported":1702163194,"current_range_meters":10400,"station_id":"ce4bh9p2rcd13ifvqed0","pricing_plan_id":"free"},{"bike_id":"cb9d85c4-5d9c-4c40-b428-989f8a97eaad","system_id":"levelo_inurba_marseille","lat":43.288543,"lon":5.358435,"is_reserved":false,"is_disabled":false,"rental_uris":{"android":"levelo://app?vid=cb9d85c4-5d9c-4c40-b428-989f8a97eaad","ios":"levelo://app?vid=cb9d85c4-5d9c-4c40-b428-989f8a97eaad"},"vehicle_type_id":"4","last_reported":1702163194,"current_range_meters":0,"station_id":"ce4bhb12rcd13ifvqem0","pricing_plan_id":"free"},{"bike_id":"d704fbb5-a62e-41e0-b672-417a9fb48975","system_id":"levelo_inurba_marseille","lat":43.30642,"lon":5.401031,"is_reserved":false,"is_disabled":false,"rental_uris":{"android":"levelo://app?vid=d704fbb5-a62e-41e0-b672-417a9fb48975","ios":"levelo://app?vid=d704fbb5-a62e-41e0-b672-417a9fb48975"},"vehicle_type_id":"4","last_reported":1702163194,"current_range_meters":0,"station_id":"ce4bh112rcd13ifvqda0","pricing_plan_id":"free"},{"bike_id":"c147ebb3-141d-4c1a-9cd7-cd494fa1ade2","system_id":"levelo_inurba_marseille","lat":43.312761,"lon":5.401753,"is_reserved":false,"is_disabled":false,"rental_uris":{"android":"levelo://app?vid=c147ebb3-141d-4c1a-9cd7-cd494fa1ade2","ios":"levelo://app?vid=c147ebb3-141d-4c1a-9cd7-cd494fa1ade2"},"vehicle_type_id":"4","last_reported":1702163194,"current_range_meters":800,"station_id":"ce4bh092rcd13ifvqd30","pricing_plan_id":"free"},{"bike_id":"710b1091-385d-4534-b301-8e17eba81a71","system_id":"levelo_inurba_marseille","lat":43.31278,"lon":5.40176,"is_reserved":false,"is_disabled":false,"rental_uris":{"android":"levelo://app?vid=710b1091-385d-4534-b301-8e17eba81a71","ios":"levelo://app?vid=710b1091-385d-4534-b301-8e17eba81a71"},"vehicle_type_id":"4","last_reported":1702163194,"current_range_meters":15200,"station_id":"ce4bh092rcd13ifvqd30","pricing_plan_id":"free"},{"bike_id":"31cfcc3f-f89f-4358-8145-e3068d1723c9","system_id":"levelo_inurba_marseille","lat":43.312713,"lon":5.40188,"is_reserved":false,"is_disabled":false,"rental_uris":{"android":"levelo://app?vid=31cfcc3f-f89f-4358-8145-e3068d1723c9","ios":"levelo://app?vid=31cfcc3f-f89f-4358-8145-e3068d1723c9"},"vehicle_type_id":"4","last_reported":1702163194,"current_range_meters":0,"station_id":"ce4bh092rcd13ifvqd30","pricing_plan_id":"free"},{"bike_id":"02a511c2-b58c-4af5-983b-0edaf91e9428","system_id":"levelo_inurba_marseille","lat":43.306412,"lon":5.401035,"is_reserved":false,"is_disabled":false,"rental_uris":{"android":"levelo://app?vid=02a511c2-b58c-4af5-983b-0edaf91e9428","ios":"levelo://app?vid=02a511c2-b58c-4af5-983b-0edaf91e9428"},"vehicle_type_id":"4","last_reported":1702163194,"current_range_meters":27600,"station_id":"ce4bh112rcd13ifvqda0","pricing_plan_id":"free"},{"bike_id":"4fbb8453-0b53-4685-a3bd-dc7af58a572e","system_id":"levelo_inurba_marseille","lat":43.30642,"lon":5.401031,"is_reserved":false,"is_disabled":false,"rental_uris":{"android":"levelo://app?vid=4fbb8453-0b53-4685-a3bd-dc7af58a572e","ios":"levelo://app?vid=4fbb8453-0b53-4685-a3bd-dc7af58a572e"},"vehicle_type_id":"4","last_reported":1702163194,"current_range_meters":24000,"station_id":"ce4bh112rcd13ifvqda0","pricing_plan_id":"free"},{"bike_id":"05c7bcdb-4d6b-4e07-ac1a-125b441f90ed","system_id":"levelo_inurba_marseille","lat":43.286591,"lon":5.363346,"is_reserved":false,"is_disabled":false,"rental_uris":{"android":"levelo://app?vid=05c7bcdb-4d6b-4e07-ac1a-125b441f90ed","ios":"levelo://app?vid=05c7bcdb-4d6b-4e07-ac1a-125b441f90ed"},"vehicle_type_id":"4","last_reported":1702163194,"current_range_meters":4400,"station_id":"ce4bhah2rcd13ifvqej0","pricing_plan_id":"free"},{"bike_id":"b69104dd-303d-443a-8cac-854cb711d705","system_id":"levelo_inurba_marseille","lat":43.286961,"lon":5.373785,"is_reserved":false,"is_disabled":false,"rental_uris":{"android":"levelo://app?vid=b69104dd-303d-443a-8cac-854cb711d705","ios":"levelo://app?vid=b69104dd-303d-443a-8cac-854cb711d705"},"vehicle_type_id":"4","last_reported":1702163194,"current_range_meters":6400,"station_id":"ce4bh3p2rcd13ifvqdq0","pricing_plan_id":"free"},{"bike_id":"9f2c0df4-7b70-4f9b-ab58-f74664e96a7b","system_id":"levelo_inurba_marseille","lat":43.298681,"lon":5.397225,"is_reserved":false,"is_disabled":false,"rental_uris":{"android":"levelo://app?vid=9f2c0df4-7b70-4f9b-ab58-f74664e96a7b","ios":"levelo://app?vid=9f2c0df4-7b70-4f9b-ab58-f74664e96a7b"},"vehicle_type_id":"4","last_reported":1702163194,"current_range_meters":26400,"station_id":"ce4bh0h2rcd13ifvqd50","pricing_plan_id":"free"},{"bike_id":"6cc8acc9-ea00-49db-8491-b66c14b208e6","system_id":"levelo_inurba_marseille","lat":43.286961,"lon":5.373785,"is_reserved":false,"is_disabled":false,"rental_uris":{"android":"levelo://app?vid=6cc8acc9-ea00-49db-8491-b66c14b208e6","ios":"levelo://app?vid=6cc8acc9-ea00-49db-8491-b66c14b208e6"},"vehicle_type_id":"4","last_reported":1702163194,"current_range_meters":16800,"station_id":"ce4bh3p2rcd13ifvqdq0","pricing_plan_id":"free"},{"bike_id":"15eb060f-6b14-484a-813f-21b6e5c30e21","system_id":"levelo_inurba_marseille","lat":43.295196,"lon":5.39397,"is_reserved":false,"is_disabled":false,"rental_uris":{"android":"levelo://app?vid=15eb060f-6b14-484a-813f-21b6e5c30e21","ios":"levelo://app?vid=15eb060f-6b14-484a-813f-21b6e5c30e21"},"vehicle_type_id":"4","last_reported":1702163194,"current_range_meters":17600,"station_id":"ce4bh292rcd13ifvqdf0","pricing_plan_id":"free"},{"bike_id":"1b3326ed-082b-4cd4-95f0-504357d7ab7a","system_id":"levelo_inurba_marseille","lat":43.290336,"lon":5.386425,"is_reserved":false,"is_disabled":false,"rental_uris":{"android":"levelo://app?vid=1b3326ed-082b-4cd4-95f0-504357d7ab7a","ios":"levelo://app?vid=1b3326ed-082b-4cd4-95f0-504357d7ab7a"},"vehicle_type_id":"4","last_reported":1702163194,"current_range_meters":21600,"station_id":"ce4bh4p2rcd13ifvqe0g","pricing_plan_id":"free"},{"bike_id":"72474587-324d-422b-91a3-4ec4923f8bf1","system_id":"levelo_inurba_marseille","lat":43.302759,"lon":5.400793,"is_reserved":false,"is_disabled":false,"rental_uris":{"android":"levelo://app?vid=72474587-324d-422b-91a3-4ec4923f8bf1","ios":"levelo://app?vid=72474587-324d-422b-91a3-4ec4923f8bf1"},"vehicle_type_id":"4","last_reported":1702163194,"current_range_meters":13200,"station_id":"ce4bgvh2rcd13ifvqcs0","pricing_plan_id":"free"},{"bike_id":"143ad2b8-9187-4b3c-8746-156535d8496a","system_id":"levelo_inurba_marseille","lat":43.286039,"lon":5.370679,"is_reserved":false,"is_disabled":false,"rental_uris":{"android":"levelo://app?vid=143ad2b8-9187-4b3c-8746-156535d8496a","ios":"levelo://app?vid=143ad2b8-9187-4b3c-8746-156535d8496a"},"vehicle_type_id":"4","last_reported":1702163194,"current_range_meters":19600,"station_id":"ce4bht12rcd13ifvqi60","pricing_plan_id":"free"},{"bike_id":"d3b94379-b2aa-4cd5-aebc-857639d65bbc","system_id":"levelo_inurba_marseille","lat":43.286039,"lon":5.370681,"is_reserved":false,"is_disabled":false,"rental_uris":{"android":"levelo://app?vid=d3b94379-b2aa-4cd5-aebc-857639d65bbc","ios":"levelo://app?vid=d3b94379-b2aa-4cd5-aebc-857639d65bbc"},"vehicle_type_id":"4","last_reported":1702163194,"current_range_meters":14000,"station_id":"ce4bht12rcd13ifvqi60","pricing_plan_id":"free"},{"bike_id":"fce00258-e2d6-404d-812b-c908d68c0541","system_id":"levelo_inurba_marseille","lat":43.291994,"lon":5.392907,"is_reserved":false,"is_disabled":false,"rental_uris":{"android":"levelo://app?vid=fce00258-e2d6-404d-812b-c908d68c0541","ios":"levelo://app?vid=fce00258-e2d6-404d-812b-c908d68c0541"},"vehicle_type_id":"4","last_reported":1702163194,"current_range_meters":28800,"station_id":"ce4bh192rcd13ifvqdd0","pricing_plan_id":"free"},{"bike_id":"aca2608e-e86a-4577-94f0-a5c5e96261bb","system_id":"levelo_inurba_marseille","lat":43.294314,"lon":5.397498,"is_reserved":false,"is_disabled":false,"rental_uris":{"android":"levelo://app?vid=aca2608e-e86a-4577-94f0-a5c5e96261bb","ios":"levelo://app?vid=aca2608e-e86a-4577-94f0-a5c5e96261bb"},"vehicle_type_id":"4","last_reported":1702163194,"current_range_meters":3600,"station_id":"ce4bh3h2rcd13ifvqdo0","pricing_plan_id":"free"},{"bike_id":"0b93029d-414d-473a-8851-419ee9187b21","system_id":"levelo_inurba_marseille","lat":43.284538,"lon":5.358657,"is_reserved":false,"is_disabled":false,"rental_uris":{"android":"levelo://app?vid=0b93029d-414d-473a-8851-419ee9187b21","ios":"levelo://app?vid=0b93029d-414d-473a-8851-419ee9187b21"},"vehicle_type_id":"4","last_reported":1702163194,"current_range_meters":1200,"station_id":"ce4bhah2rcd13ifvqei0","pricing_plan_id":"free"},{"bike_id":"8c426643-5820-4b72-ad7e-17694fdd482f","system_id":"levelo_inurba_marseille","lat":43.284538,"lon":5.358657,"is_reserved":false,"is_disabled":false,"rental_uris":{"android":"levelo://app?vid=8c426643-5820-4b72-ad7e-17694fdd482f","ios":"levelo://app?vid=8c426643-5820-4b72-ad7e-17694fdd482f"},"vehicle_type_id":"4","last_reported":1702163194,"current_range_meters":16400,"station_id":"ce4bhah2rcd13ifvqei0","pricing_plan_id":"free"},{"bike_id":"098b3d21-e701-44bb-8019-39ba053a276e","system_id":"levelo_inurba_marseille","lat":43.283998,"lon":5.375062,"is_reserved":false,"is_disabled":false,"rental_uris":{"android":"levelo://app?vid=098b3d21-e701-44bb-8019-39ba053a276e","ios":"levelo://app?vid=098b3d21-e701-44bb-8019-39ba053a276e"},"vehicle_type_id":"4","last_reported":1702163194,"current_range_meters":19600,"station_id":"ce4bh412rcd13ifvqds0","pricing_plan_id":"free"},{"bike_id":"ed500275-818a-4865-8236-806f5101581a","system_id":"levelo_inurba_marseille","lat":43.283998,"lon":5.375062,"is_reserved":false,"is_disabled":false,"rental_uris":{"android":"levelo://app?vid=ed500275-818a-4865-8236-806f5101581a","ios":"levelo://app?vid=ed500275-818a-4865-8236-806f5101581a"},"vehicle_type_id":"4","last_reported":1702163194,"current_range_meters":17200,"station_id":"ce4bh412rcd13ifvqds0","pricing_plan_id":"free"},{"bike_id":"6c76a8b3-071e-4c20-8102-4ca1bc399ad9","system_id":"levelo_inurba_marseille","lat":43.295713,"lon":5.399639,"is_reserved":false,"is_disabled":false,"rental_uris":{"android":"levelo://app?vid=6c76a8b3-071e-4c20-8102-4ca1bc399ad9","ios":"levelo://app?vid=6c76a8b3-071e-4c20-8102-4ca1bc399ad9"},"vehicle_type_id":"4","last_reported":1702163194,"current_range_meters":23600,"station_id":"ce4bh312rcd13ifvqdj0","pricing_plan_id":"free"},{"bike_id":"e2e924d7-26df-4736-8ede-4441bcaacb10","system_id":"levelo_inurba_marseille","lat":43.28652,"lon":5.3862,"is_reserved":false,"is_disabled":false,"rental_uris":{"android":"levelo://app?vid=e2e924d7-26df-4736-8ede-4441bcaacb10","ios":"levelo://app?vid=e2e924d7-26df-4736-8ede-4441bcaacb10"},"vehicle_type_id":"4","last_reported":1702163194,"current_range_meters":17200,"station_id":"ce4bh492rcd13ifvqdug","pricing_plan_id":"free"},{"bike_id":"a0fe42ef-f5cf-4f28-aa3a-b8bad3c0fffb","system_id":"levelo_inurba_marseille","lat":43.319179,"lon":5.407725,"is_reserved":false,"is_disabled":false,"rental_uris":{"android":"levelo://app?vid=a0fe42ef-f5cf-4f28-aa3a-b8bad3c0fffb","ios":"levelo://app?vid=a0fe42ef-f5cf-4f28-aa3a-b8bad3c0fffb"},"vehicle_type_id":"4","last_reported":1702163194,"current_range_meters":28400,"station_id":"ce4bhq12rcd13ifvqhig","pricing_plan_id":"free"},{"bike_id":"a6933e1c-ff44-4387-b09b-3e19c18e88b4","system_id":"levelo_inurba_marseille","lat":43.323464,"lon":5.406297,"is_reserved":false,"is_disabled":false,"rental_uris":{"android":"levelo://app?vid=a6933e1c-ff44-4387-b09b-3e19c18e88b4","ios":"levelo://app?vid=a6933e1c-ff44-4387-b09b-3e19c18e88b4"},"vehicle_type_id":"4","last_reported":1702163194,"current_range_meters":21200,"station_id":"ce4bhq92rcd13ifvqhjg","pricing_plan_id":"free"},{"bike_id":"06b3aba6-9d1c-4e37-9a84-95de7cc08875","system_id":"levelo_inurba_marseille","lat":43.323464,"lon":5.406297,"is_reserved":false,"is_disabled":false,"rental_uris":{"android":"levelo://app?vid=06b3aba6-9d1c-4e37-9a84-95de7cc08875","ios":"levelo://app?vid=06b3aba6-9d1c-4e37-9a84-95de7cc08875"},"vehicle_type_id":"4","last_reported":1702163194,"current_range_meters":30000,"station_id":"ce4bhq92rcd13ifvqhjg","pricing_plan_id":"free"},{"bike_id":"2e3f5d1b-7227-4fd1-a3be-fcff682e2738","system_id":"levelo_inurba_marseille","lat":43.323464,"lon":5.406297,"is_reserved":false,"is_disabled":false,"rental_uris":{"android":"levelo://app?vid=2e3f5d1b-7227-4fd1-a3be-fcff682e2738","ios":"levelo://app?vid=2e3f5d1b-7227-4fd1-a3be-fcff682e2738"},"vehicle_type_id":"4","last_reported":1702163194,"current_range_meters":25600,"station_id":"ce4bhq92rcd13ifvqhjg","pricing_plan_id":"free"},{"bike_id":"33d78b75-41af-4f7b-ad4a-0b93d22b7176","system_id":"levelo_inurba_marseille","lat":43.323464,"lon":5.406297,"is_reserved":false,"is_disabled":false,"rental_uris":{"android":"levelo://app?vid=33d78b75-41af-4f7b-ad4a-0b93d22b7176","ios":"levelo://app?vid=33d78b75-41af-4f7b-ad4a-0b93d22b7176"},"vehicle_type_id":"4","last_reported":1702163194,"current_range_meters":17600,"station_id":"ce4bhq92rcd13ifvqhjg","pricing_plan_id":"free"},{"bike_id":"4da7061c-0a7d-407c-8ed7-5b8d45e64490","system_id":"levelo_inurba_marseille","lat":43.323464,"lon":5.406297,"is_reserved":false,"is_disabled":false,"rental_uris":{"android":"levelo://app?vid=4da7061c-0a7d-407c-8ed7-5b8d45e64490","ios":"levelo://app?vid=4da7061c-0a7d-407c-8ed7-5b8d45e64490"},"vehicle_type_id":"4","last_reported":1702163194,"current_range_meters":28800,"station_id":"ce4bhq92rcd13ifvqhjg","pricing_plan_id":"free"},{"bike_id":"f07f6d53-9c56-4320-a3ed-be25c3a1cc01","system_id":"levelo_inurba_marseille","lat":43.288501,"lon":5.393087,"is_reserved":false,"is_disabled":false,"rental_uris":{"android":"levelo://app?vid=f07f6d53-9c56-4320-a3ed-be25c3a1cc01","ios":"levelo://app?vid=f07f6d53-9c56-4320-a3ed-be25c3a1cc01"},"vehicle_type_id":"4","last_reported":1702163194,"current_range_meters":0,"station_id":"ce4bh2p2rcd13ifvqdi0","pricing_plan_id":"free"},{"bike_id":"c319c9b9-6749-4ad9-ac2c-6dc7da382aed","system_id":"levelo_inurba_marseille","lat":43.288501,"lon":5.393087,"is_reserved":false,"is_disabled":false,"rental_uris":{"android":"levelo://app?vid=c319c9b9-6749-4ad9-ac2c-6dc7da382aed","ios":"levelo://app?vid=c319c9b9-6749-4ad9-ac2c-6dc7da382aed"},"vehicle_type_id":"4","last_reported":1702163194,"current_range_meters":1200,"station_id":"ce4bh2p2rcd13ifvqdi0","pricing_plan_id":"free"},{"bike_id":"b1713140-d984-4493-930d-d1abd00d19e8","system_id":"levelo_inurba_marseille","lat":43.280382,"lon":5.369291,"is_reserved":false,"is_disabled":false,"rental_uris":{"android":"levelo://app?vid=b1713140-d984-4493-930d-d1abd00d19e8","ios":"levelo://app?vid=b1713140-d984-4493-930d-d1abd00d19e8"},"vehicle_type_id":"4","last_reported":1702163194,"current_range_meters":24000,"station_id":"ce4bha12rcd13ifvqef0","pricing_plan_id":"free"},{"bike_id":"9fd8e679-b93e-4949-884e-2f39fba186b9","system_id":"levelo_inurba_marseille","lat":43.29046,"lon":5.39962,"is_reserved":false,"is_disabled":false,"rental_uris":{"android":"levelo://app?vid=9fd8e679-b93e-4949-884e-2f39fba186b9","ios":"levelo://app?vid=9fd8e679-b93e-4949-884e-2f39fba186b9"},"vehicle_type_id":"4","last_reported":1702163194,"current_range_meters":0,"station_id":"ce4bh392rcd13ifvqdm0","pricing_plan_id":"free"},{"bike_id":"bbbb4a29-4dac-4a28-bc20-f74ceb75c186","system_id":"levelo_inurba_marseille","lat":43.28112,"lon":5.37837,"is_reserved":false,"is_disabled":false,"rental_uris":{"android":"levelo://app?vid=bbbb4a29-4dac-4a28-bc20-f74ceb75c186","ios":"levelo://app?vid=bbbb4a29-4dac-4a28-bc20-f74ceb75c186"},"vehicle_type_id":"4","last_reported":1702163194,"current_range_meters":0,"station_id":"ce4bha12rcd13ifvqee0","pricing_plan_id":"free"},{"bike_id":"ab7908d2-c4d2-42d4-8752-7de5f0ac26d7","system_id":"levelo_inurba_marseille","lat":43.296263,"lon":5.40601,"is_reserved":false,"is_disabled":false,"rental_uris":{"android":"levelo://app?vid=ab7908d2-c4d2-42d4-8752-7de5f0ac26d7","ios":"levelo://app?vid=ab7908d2-c4d2-42d4-8752-7de5f0ac26d7"},"vehicle_type_id":"4","last_reported":1702163194,"current_range_meters":10400,"station_id":"ce4bh0h2rcd13ifvqd60","pricing_plan_id":"free"},{"bike_id":"0bc1eb45-a665-44a3-8a8b-d748ef95b051","system_id":"levelo_inurba_marseille","lat":43.304188,"lon":5.412904,"is_reserved":false,"is_disabled":false,"rental_uris":{"android":"levelo://app?vid=0bc1eb45-a665-44a3-8a8b-d748ef95b051","ios":"levelo://app?vid=0bc1eb45-a665-44a3-8a8b-d748ef95b051"},"vehicle_type_id":"4","last_reported":1702163194,"current_range_meters":24800,"station_id":"ce4bhop2rcd13ifvqh8g","pricing_plan_id":"free"},{"bike_id":"e13da240-b979-40a8-bced-c55269ed8fc1","system_id":"levelo_inurba_marseille","lat":43.279087,"lon":5.380114,"is_reserved":false,"is_disabled":false,"rental_uris":{"android":"levelo://app?vid=e13da240-b979-40a8-bced-c55269ed8fc1","ios":"levelo://app?vid=e13da240-b979-40a8-bced-c55269ed8fc1"},"vehicle_type_id":"4","last_reported":1702163194,"current_range_meters":18000,"station_id":"ce4bhf92rcd13ifvqf50","pricing_plan_id":"free"},{"bike_id":"58f52f1b-f682-43f9-888f-474549184cf8","system_id":"levelo_inurba_marseille","lat":43.32215,"lon":5.41467,"is_reserved":false,"is_disabled":false,"rental_uris":{"android":"levelo://app?vid=58f52f1b-f682-43f9-888f-474549184cf8","ios":"levelo://app?vid=58f52f1b-f682-43f9-888f-474549184cf8"},"vehicle_type_id":"4","last_reported":1702163194,"current_range_meters":16000,"station_id":"","pricing_plan_id":"free"},{"bike_id":"5c52da34-9fed-42b6-af6a-cd1a09b843c0","system_id":"levelo_inurba_marseille","lat":43.292569,"lon":5.409107,"is_reserved":false,"is_disabled":false,"rental_uris":{"android":"levelo://app?vid=5c52da34-9fed-42b6-af6a-cd1a09b843c0","ios":"levelo://app?vid=5c52da34-9fed-42b6-af6a-cd1a09b843c0"},"vehicle_type_id":"4","last_reported":1702163194,"current_range_meters":11200,"station_id":"ce4bh192rcd13ifvqdc0","pricing_plan_id":"free"},{"bike_id":"a148b3ad-4229-40c7-b578-15b32d72e96b","system_id":"levelo_inurba_marseille","lat":43.32543,"lon":5.41422,"is_reserved":false,"is_disabled":false,"rental_uris":{"android":"levelo://app?vid=a148b3ad-4229-40c7-b578-15b32d72e96b","ios":"levelo://app?vid=a148b3ad-4229-40c7-b578-15b32d72e96b"},"vehicle_type_id":"4","last_reported":1702163194,"current_range_meters":29600,"station_id":"ce4bhq12rcd13ifvqhhg","pricing_plan_id":"free"},{"bike_id":"f08c2753-c2a8-4afa-ad61-d83c204365cf","system_id":"levelo_inurba_marseille","lat":43.292569,"lon":5.409107,"is_reserved":false,"is_disabled":false,"rental_uris":{"android":"levelo://app?vid=f08c2753-c2a8-4afa-ad61-d83c204365cf","ios":"levelo://app?vid=f08c2753-c2a8-4afa-ad61-d83c204365cf"},"vehicle_type_id":"4","last_reported":1702163194,"current_range_meters":19600,"station_id":"ce4bh192rcd13ifvqdc0","pricing_plan_id":"free"},{"bike_id":"571f8fa8-4180-43c0-80d0-67446cefd1a6","system_id":"levelo_inurba_marseille","lat":43.280784,"lon":5.396622,"is_reserved":false,"is_disabled":false,"rental_uris":{"android":"levelo://app?vid=571f8fa8-4180-43c0-80d0-67446cefd1a6","ios":"levelo://app?vid=571f8fa8-4180-43c0-80d0-67446cefd1a6"},"vehicle_type_id":"4","last_reported":1702163194,"current_range_meters":26400,"station_id":"ce4bho12rcd13ifvqh2g","pricing_plan_id":"free"},{"bike_id":"dfa92ed6-65e2-4d7b-afad-926463d2b88b","system_id":"levelo_inurba_marseille","lat":43.303837,"lon":5.418724,"is_reserved":false,"is_disabled":false,"rental_uris":{"android":"levelo://app?vid=dfa92ed6-65e2-4d7b-afad-926463d2b88b","ios":"levelo://app?vid=dfa92ed6-65e2-4d7b-afad-926463d2b88b"},"vehicle_type_id":"4","last_reported":1702163194,"current_range_meters":25200,"station_id":"ce4bhop2rcd13ifvqh7g","pricing_plan_id":"free"},{"bike_id":"4796beb2-3a14-49b4-bf74-72347a2a8caf","system_id":"levelo_inurba_marseille","lat":43.27572,"lon":5.38424,"is_reserved":false,"is_disabled":false,"rental_uris":{"android":"levelo://app?vid=4796beb2-3a14-49b4-bf74-72347a2a8caf","ios":"levelo://app?vid=4796beb2-3a14-49b4-bf74-72347a2a8caf"},"vehicle_type_id":"4","last_reported":1702163194,"current_range_meters":0,"station_id":"ce4bhh92rcd13ifvqfi0","pricing_plan_id":"free"},{"bike_id":"dec087dc-2f88-4bd2-9da7-57b7b745d402","system_id":"levelo_inurba_marseille","lat":43.273613,"lon":5.362705,"is_reserved":false,"is_disabled":false,"rental_uris":{"android":"levelo://app?vid=dec087dc-2f88-4bd2-9da7-57b7b745d402","ios":"levelo://app?vid=dec087dc-2f88-4bd2-9da7-57b7b745d402"},"vehicle_type_id":"4","last_reported":1702163194,"current_range_meters":26400,"station_id":"ce4bhbh2rcd13ifvqeo0","pricing_plan_id":"free"},{"bike_id":"02791883-a925-42a0-9dd3-b7193f6a574b","system_id":"levelo_inurba_marseille","lat":43.317168,"lon":5.424018,"is_reserved":false,"is_disabled":false,"rental_uris":{"android":"levelo://app?vid=02791883-a925-42a0-9dd3-b7193f6a574b","ios":"levelo://app?vid=02791883-a925-42a0-9dd3-b7193f6a574b"},"vehicle_type_id":"4","last_reported":1702163194,"current_range_meters":28800,"station_id":"ce4bhp92rcd13ifvqhbg","pricing_plan_id":"free"},{"bike_id":"88e59060-d458-48a8-8abe-8a1913097d92","system_id":"levelo_inurba_marseille","lat":43.31716,"lon":5.42402,"is_reserved":false,"is_disabled":false,"rental_uris":{"android":"levelo://app?vid=88e59060-d458-48a8-8abe-8a1913097d92","ios":"levelo://app?vid=88e59060-d458-48a8-8abe-8a1913097d92"},"vehicle_type_id":"4","last_reported":1702163194,"current_range_meters":23200,"station_id":"ce4bhp92rcd13ifvqhbg","pricing_plan_id":"free"},{"bike_id":"80038031-3601-4c51-b66a-c6c9131d41d1","system_id":"levelo_inurba_marseille","lat":43.310785,"lon":5.424305,"is_reserved":false,"is_disabled":false,"rental_uris":{"android":"levelo://app?vid=80038031-3601-4c51-b66a-c6c9131d41d1","ios":"levelo://app?vid=80038031-3601-4c51-b66a-c6c9131d41d1"},"vehicle_type_id":"4","last_reported":1702163194,"current_range_meters":30400,"station_id":"ce4bhp92rcd13ifvqhag","pricing_plan_id":"free"},{"bike_id":"e7bd1e73-4f86-473d-905c-a7b0f3d6ad8a","system_id":"levelo_inurba_marseille","lat":43.31723,"lon":5.42405,"is_reserved":false,"is_disabled":false,"rental_uris":{"android":"levelo://app?vid=e7bd1e73-4f86-473d-905c-a7b0f3d6ad8a","ios":"levelo://app?vid=e7bd1e73-4f86-473d-905c-a7b0f3d6ad8a"},"vehicle_type_id":"4","last_reported":1702163194,"current_range_meters":15600,"station_id":"ce4bhp92rcd13ifvqhbg","pricing_plan_id":"free"},{"bike_id":"63133364-316e-458e-b234-bbd4926c63fc","system_id":"levelo_inurba_marseille","lat":43.27583,"lon":5.39474,"is_reserved":false,"is_disabled":false,"rental_uris":{"android":"levelo://app?vid=63133364-316e-458e-b234-bbd4926c63fc","ios":"levelo://app?vid=63133364-316e-458e-b234-bbd4926c63fc"},"vehicle_type_id":"4","last_reported":1702163194,"current_range_meters":6000,"station_id":"","pricing_plan_id":"free"},{"bike_id":"06e55ed7-0626-4888-b11d-ce3935dc6e4f","system_id":"levelo_inurba_marseille","lat":43.273129,"lon":5.390725,"is_reserved":false,"is_disabled":false,"rental_uris":{"android":"levelo://app?vid=06e55ed7-0626-4888-b11d-ce3935dc6e4f","ios":"levelo://app?vid=06e55ed7-0626-4888-b11d-ce3935dc6e4f"},"vehicle_type_id":"4","last_reported":1702163194,"current_range_meters":13200,"station_id":"ce4bhgp2rcd13ifvqfe0","pricing_plan_id":"free"},{"bike_id":"93807ea1-c862-4894-a5aa-7cf490505cae","system_id":"levelo_inurba_marseille","lat":43.30418,"lon":5.42541,"is_reserved":false,"is_disabled":false,"rental_uris":{"android":"levelo://app?vid=93807ea1-c862-4894-a5aa-7cf490505cae","ios":"levelo://app?vid=93807ea1-c862-4894-a5aa-7cf490505cae"},"vehicle_type_id":"4","last_reported":1702163194,"current_range_meters":4000,"station_id":"ce4bhoh2rcd13ifvqh6g","pricing_plan_id":"free"},{"bike_id":"ea5b214b-e6ad-4713-a80f-64532b6a087e","system_id":"levelo_inurba_marseille","lat":43.295511,"lon":5.422926,"is_reserved":false,"is_disabled":false,"rental_uris":{"android":"levelo://app?vid=ea5b214b-e6ad-4713-a80f-64532b6a087e","ios":"levelo://app?vid=ea5b214b-e6ad-4713-a80f-64532b6a087e"},"vehicle_type_id":"4","last_reported":1702163194,"current_range_meters":11200,"station_id":"ce4bhph2rcd13ifvqhdg","pricing_plan_id":"free"},{"bike_id":"ba26dce2-d225-4f7e-a08a-3763a89080fb","system_id":"levelo_inurba_marseille","lat":43.27201,"lon":5.39188,"is_reserved":false,"is_disabled":false,"rental_uris":{"android":"levelo://app?vid=ba26dce2-d225-4f7e-a08a-3763a89080fb","ios":"levelo://app?vid=ba26dce2-d225-4f7e-a08a-3763a89080fb"},"vehicle_type_id":"4","last_reported":1702163194,"current_range_meters":0,"station_id":"ce4bhhp2rcd13ifvqfm0","pricing_plan_id":"free"},{"bike_id":"8f021145-48f8-459b-aef0-f8921e18b0a0","system_id":"levelo_inurba_marseille","lat":43.27214,"lon":5.3925,"is_reserved":false,"is_disabled":false,"rental_uris":{"android":"levelo://app?vid=8f021145-48f8-459b-aef0-f8921e18b0a0","ios":"levelo://app?vid=8f021145-48f8-459b-aef0-f8921e18b0a0"},"vehicle_type_id":"4","last_reported":1702163194,"current_range_meters":0,"station_id":"","pricing_plan_id":"free"},{"bike_id":"f0ebddec-d6cc-4cea-9205-f0ce292b2962","system_id":"levelo_inurba_marseille","lat":43.278128,"lon":5.407195,"is_reserved":false,"is_disabled":false,"rental_uris":{"android":"levelo://app?vid=f0ebddec-d6cc-4cea-9205-f0ce292b2962","ios":"levelo://app?vid=f0ebddec-d6cc-4cea-9205-f0ce292b2962"},"vehicle_type_id":"4","last_reported":1702163194,"current_range_meters":23600,"station_id":"ce4bhnh2rcd13ifvqgtg","pricing_plan_id":"free"},{"bike_id":"2c0ffe61-5c8b-42fc-9b3d-3c16301ffac5","system_id":"levelo_inurba_marseille","lat":43.278128,"lon":5.407195,"is_reserved":false,"is_disabled":false,"rental_uris":{"android":"levelo://app?vid=2c0ffe61-5c8b-42fc-9b3d-3c16301ffac5","ios":"levelo://app?vid=2c0ffe61-5c8b-42fc-9b3d-3c16301ffac5"},"vehicle_type_id":"4","last_reported":1702163194,"current_range_meters":26400,"station_id":"ce4bhnh2rcd13ifvqgtg","pricing_plan_id":"free"},{"bike_id":"d67c54fa-e754-430e-95f9-5b6f7ee47777","system_id":"levelo_inurba_marseille","lat":43.27992,"lon":5.4166,"is_reserved":false,"is_disabled":false,"rental_uris":{"android":"levelo://app?vid=d67c54fa-e754-430e-95f9-5b6f7ee47777","ios":"levelo://app?vid=d67c54fa-e754-430e-95f9-5b6f7ee47777"},"vehicle_type_id":"4","last_reported":1702163194,"current_range_meters":10800,"station_id":"ce4bho12rcd13ifvqh1g","pricing_plan_id":"free"},{"bike_id":"19cc942f-ece9-40d3-8083-cccfba7fe5b1","system_id":"levelo_inurba_marseille","lat":43.279881,"lon":5.416579,"is_reserved":false,"is_disabled":false,"rental_uris":{"android":"levelo://app?vid=19cc942f-ece9-40d3-8083-cccfba7fe5b1","ios":"levelo://app?vid=19cc942f-ece9-40d3-8083-cccfba7fe5b1"},"vehicle_type_id":"4","last_reported":1702163194,"current_range_meters":1600,"station_id":"ce4bho12rcd13ifvqh1g","pricing_plan_id":"free"},{"bike_id":"f775af8a-e9d0-4137-bc47-2421eaca9d18","system_id":"levelo_inurba_marseille","lat":43.267966,"lon":5.393976,"is_reserved":false,"is_disabled":false,"rental_uris":{"android":"levelo://app?vid=f775af8a-e9d0-4137-bc47-2421eaca9d18","ios":"levelo://app?vid=f775af8a-e9d0-4137-bc47-2421eaca9d18"},"vehicle_type_id":"4","last_reported":1702163194,"current_range_meters":18400,"station_id":"ce4bhh12rcd13ifvqfg0","pricing_plan_id":"free"},{"bike_id":"5645d1f0-f0ed-4459-8379-e30c1acc7822","system_id":"levelo_inurba_marseille","lat":43.267966,"lon":5.393976,"is_reserved":false,"is_disabled":false,"rental_uris":{"android":"levelo://app?vid=5645d1f0-f0ed-4459-8379-e30c1acc7822","ios":"levelo://app?vid=5645d1f0-f0ed-4459-8379-e30c1acc7822"},"vehicle_type_id":"4","last_reported":1702163194,"current_range_meters":23600,"station_id":"ce4bhh12rcd13ifvqfg0","pricing_plan_id":"free"},{"bike_id":"f007dd68-bc71-45a4-b633-17e3bd0cc1ef","system_id":"levelo_inurba_marseille","lat":43.26949,"lon":5.40262,"is_reserved":false,"is_disabled":false,"rental_uris":{"android":"levelo://app?vid=f007dd68-bc71-45a4-b633-17e3bd0cc1ef","ios":"levelo://app?vid=f007dd68-bc71-45a4-b633-17e3bd0cc1ef"},"vehicle_type_id":"4","last_reported":1702163194,"current_range_meters":20000,"station_id":"cjm6bp8fraef2m0cb0m0","pricing_plan_id":"free"},{"bike_id":"efce3206-6d32-4826-b5d6-39f58e58c1ba","system_id":"levelo_inurba_marseille","lat":43.269374,"lon":5.402562,"is_reserved":false,"is_disabled":false,"rental_uris":{"android":"levelo://app?vid=efce3206-6d32-4826-b5d6-39f58e58c1ba","ios":"levelo://app?vid=efce3206-6d32-4826-b5d6-39f58e58c1ba"},"vehicle_type_id":"4","last_reported":1702163194,"current_range_meters":15200,"station_id":"cjm6bp8fraef2m0cb0m0","pricing_plan_id":"free"},{"bike_id":"108618ca-9e40-4ef2-93b8-4990f8679836","system_id":"levelo_inurba_marseille","lat":43.26938,"lon":5.40263,"is_reserved":false,"is_disabled":false,"rental_uris":{"android":"levelo://app?vid=108618ca-9e40-4ef2-93b8-4990f8679836","ios":"levelo://app?vid=108618ca-9e40-4ef2-93b8-4990f8679836"},"vehicle_type_id":"4","last_reported":1702163194,"current_range_meters":4000,"station_id":"cjm6bp8fraef2m0cb0m0","pricing_plan_id":"free"},{"bike_id":"f6381c15-b243-4ef5-958f-51fcba2c84ca","system_id":"levelo_inurba_marseille","lat":43.261782,"lon":5.374515,"is_reserved":false,"is_disabled":false,"rental_uris":{"android":"levelo://app?vid=f6381c15-b243-4ef5-958f-51fcba2c84ca","ios":"levelo://app?vid=f6381c15-b243-4ef5-958f-51fcba2c84ca"},"vehicle_type_id":"4","last_reported":1702163194,"current_range_meters":17200,"station_id":"ce4bhgp2rcd13ifvqfc0","pricing_plan_id":"free"},{"bike_id":"dbacbb4a-9e99-4a7a-9713-43dac221ae4c","system_id":"levelo_inurba_marseille","lat":43.317104,"lon":5.436818,"is_reserved":false,"is_disabled":false,"rental_uris":{"android":"levelo://app?vid=dbacbb4a-9e99-4a7a-9713-43dac221ae4c","ios":"levelo://app?vid=dbacbb4a-9e99-4a7a-9713-43dac221ae4c"},"vehicle_type_id":"4","last_reported":1702163194,"current_range_meters":28800,"station_id":"ce4bhp92rcd13ifvqhcg","pricing_plan_id":"free"},{"bike_id":"6e4ef9a4-8ece-4932-b43b-b3a60d61a2ca","system_id":"levelo_inurba_marseille","lat":43.317104,"lon":5.436818,"is_reserved":false,"is_disabled":false,"rental_uris":{"android":"levelo://app?vid=6e4ef9a4-8ece-4932-b43b-b3a60d61a2ca","ios":"levelo://app?vid=6e4ef9a4-8ece-4932-b43b-b3a60d61a2ca"},"vehicle_type_id":"4","last_reported":1702163194,"current_range_meters":3200,"station_id":"ce4bhp92rcd13ifvqhcg","pricing_plan_id":"free"},{"bike_id":"4c31e607-69cd-4d90-9886-5068a0b6c89e","system_id":"levelo_inurba_marseille","lat":43.268135,"lon":5.402035,"is_reserved":false,"is_disabled":false,"rental_uris":{"android":"levelo://app?vid=4c31e607-69cd-4d90-9886-5068a0b6c89e","ios":"levelo://app?vid=4c31e607-69cd-4d90-9886-5068a0b6c89e"},"vehicle_type_id":"4","last_reported":1702163194,"current_range_meters":26800,"station_id":"ce501612rcd8frsf0b60","pricing_plan_id":"free"},{"bike_id":"e2a5fdfb-8206-4159-81d6-1ab96fe4d7e7","system_id":"levelo_inurba_marseille","lat":43.262012,"lon":5.379307,"is_reserved":false,"is_disabled":false,"rental_uris":{"android":"levelo://app?vid=e2a5fdfb-8206-4159-81d6-1ab96fe4d7e7","ios":"levelo://app?vid=e2a5fdfb-8206-4159-81d6-1ab96fe4d7e7"},"vehicle_type_id":"4","last_reported":1702163194,"current_range_meters":26800,"station_id":"ce4bhjp2rcd13ifvqg90","pricing_plan_id":"free"},{"bike_id":"d14fddf3-3638-41ff-a2e7-5c41cc7e7327","system_id":"levelo_inurba_marseille","lat":43.271368,"lon":5.40928,"is_reserved":false,"is_disabled":false,"rental_uris":{"android":"levelo://app?vid=d14fddf3-3638-41ff-a2e7-5c41cc7e7327","ios":"levelo://app?vid=d14fddf3-3638-41ff-a2e7-5c41cc7e7327"},"vehicle_type_id":"4","last_reported":1702163194,"current_range_meters":15200,"station_id":"ce4bhl12rcd13ifvqgf0","pricing_plan_id":"free"},{"bike_id":"5d1bf847-961d-4e6e-933c-317f152ad4a4","system_id":"levelo_inurba_marseille","lat":43.268117,"lon":5.402653,"is_reserved":false,"is_disabled":false,"rental_uris":{"android":"levelo://app?vid=5d1bf847-961d-4e6e-933c-317f152ad4a4","ios":"levelo://app?vid=5d1bf847-961d-4e6e-933c-317f152ad4a4"},"vehicle_type_id":"4","last_reported":1702163194,"current_range_meters":24400,"station_id":"ce501612rcd8frsf0b60","pricing_plan_id":"free"},{"bike_id":"5ab8506c-a8f6-4a3e-bfe9-ceb3d3a9bcde","system_id":"levelo_inurba_marseille","lat":43.2681,"lon":5.40265,"is_reserved":false,"is_disabled":false,"rental_uris":{"android":"levelo://app?vid=5ab8506c-a8f6-4a3e-bfe9-ceb3d3a9bcde","ios":"levelo://app?vid=5ab8506c-a8f6-4a3e-bfe9-ceb3d3a9bcde"},"vehicle_type_id":"4","last_reported":1702163194,"current_range_meters":15600,"station_id":"ce501612rcd8frsf0b60","pricing_plan_id":"free"},{"bike_id":"f6bfca0a-825e-4630-a1fd-bac9b7033a43","system_id":"levelo_inurba_marseille","lat":43.268018,"lon":5.402665,"is_reserved":false,"is_disabled":false,"rental_uris":{"android":"levelo://app?vid=f6bfca0a-825e-4630-a1fd-bac9b7033a43","ios":"levelo://app?vid=f6bfca0a-825e-4630-a1fd-bac9b7033a43"},"vehicle_type_id":"4","last_reported":1702163194,"current_range_meters":16800,"station_id":"ce501612rcd8frsf0b60","pricing_plan_id":"free"},{"bike_id":"fbe96d84-5f9d-4a41-91f0-499fd5a65183","system_id":"levelo_inurba_marseille","lat":43.268001,"lon":5.402685,"is_reserved":false,"is_disabled":false,"rental_uris":{"android":"levelo://app?vid=fbe96d84-5f9d-4a41-91f0-499fd5a65183","ios":"levelo://app?vid=fbe96d84-5f9d-4a41-91f0-499fd5a65183"},"vehicle_type_id":"4","last_reported":1702163194,"current_range_meters":27200,"station_id":"ce501612rcd8frsf0b60","pricing_plan_id":"free"},{"bike_id":"80c7a52b-aa97-49e8-9052-f1316167c45b","system_id":"levelo_inurba_marseille","lat":43.2675,"lon":5.40219,"is_reserved":false,"is_disabled":false,"rental_uris":{"android":"levelo://app?vid=80c7a52b-aa97-49e8-9052-f1316167c45b","ios":"levelo://app?vid=80c7a52b-aa97-49e8-9052-f1316167c45b"},"vehicle_type_id":"4","last_reported":1702163194,"current_range_meters":15200,"station_id":"","pricing_plan_id":"free"},{"bike_id":"2e501ecb-19fc-480f-9a67-fa584e9ea359","system_id":"levelo_inurba_marseille","lat":43.26752,"lon":5.40226,"is_reserved":false,"is_disabled":false,"rental_uris":{"android":"levelo://app?vid=2e501ecb-19fc-480f-9a67-fa584e9ea359","ios":"levelo://app?vid=2e501ecb-19fc-480f-9a67-fa584e9ea359"},"vehicle_type_id":"4","last_reported":1702163194,"current_range_meters":25200,"station_id":"","pricing_plan_id":"free"},{"bike_id":"a7b35256-5fbf-430f-9cf0-9272f7f5b3c7","system_id":"levelo_inurba_marseille","lat":43.281548,"lon":5.42643,"is_reserved":false,"is_disabled":false,"rental_uris":{"android":"levelo://app?vid=a7b35256-5fbf-430f-9cf0-9272f7f5b3c7","ios":"levelo://app?vid=a7b35256-5fbf-430f-9cf0-9272f7f5b3c7"},"vehicle_type_id":"4","last_reported":1702163194,"current_range_meters":6400,"station_id":"ce4bhnh2rcd13ifvqgug","pricing_plan_id":"free"},{"bike_id":"c4a32d8b-8a0b-4189-aa9f-2983a413dfe8","system_id":"levelo_inurba_marseille","lat":43.299,"lon":5.43662,"is_reserved":false,"is_disabled":false,"rental_uris":{"android":"levelo://app?vid=c4a32d8b-8a0b-4189-aa9f-2983a413dfe8","ios":"levelo://app?vid=c4a32d8b-8a0b-4189-aa9f-2983a413dfe8"},"vehicle_type_id":"4","last_reported":1702163194,"current_range_meters":28800,"station_id":"ce4bhpp2rcd13ifvqhfg","pricing_plan_id":"free"},{"bike_id":"83e2018e-7127-4415-8bbf-2e347a9c6750","system_id":"levelo_inurba_marseille","lat":43.29894,"lon":5.43662,"is_reserved":false,"is_disabled":false,"rental_uris":{"android":"levelo://app?vid=83e2018e-7127-4415-8bbf-2e347a9c6750","ios":"levelo://app?vid=83e2018e-7127-4415-8bbf-2e347a9c6750"},"vehicle_type_id":"4","last_reported":1702163194,"current_range_meters":28000,"station_id":"ce4bhpp2rcd13ifvqhfg","pricing_plan_id":"free"},{"bike_id":"70c52fa1-91be-4fbd-9217-7a0c668f9310","system_id":"levelo_inurba_marseille","lat":43.29899,"lon":5.43665,"is_reserved":false,"is_disabled":false,"rental_uris":{"android":"levelo://app?vid=70c52fa1-91be-4fbd-9217-7a0c668f9310","ios":"levelo://app?vid=70c52fa1-91be-4fbd-9217-7a0c668f9310"},"vehicle_type_id":"4","last_reported":1702163194,"current_range_meters":23600,"station_id":"ce4bhpp2rcd13ifvqhfg","pricing_plan_id":"free"},{"bike_id":"5f2d3882-2773-4d5c-828c-4c3c96bb97f7","system_id":"levelo_inurba_marseille","lat":43.298768,"lon":5.43643,"is_reserved":false,"is_disabled":false,"rental_uris":{"android":"levelo://app?vid=5f2d3882-2773-4d5c-828c-4c3c96bb97f7","ios":"levelo://app?vid=5f2d3882-2773-4d5c-828c-4c3c96bb97f7"},"vehicle_type_id":"4","last_reported":1702163194,"current_range_meters":30000,"station_id":"ce4bhpp2rcd13ifvqhfg","pricing_plan_id":"free"},{"bike_id":"6b17b896-99f2-456b-929e-df3811eeb274","system_id":"levelo_inurba_marseille","lat":43.298768,"lon":5.43643,"is_reserved":false,"is_disabled":false,"rental_uris":{"android":"levelo://app?vid=6b17b896-99f2-456b-929e-df3811eeb274","ios":"levelo://app?vid=6b17b896-99f2-456b-929e-df3811eeb274"},"vehicle_type_id":"4","last_reported":1702163194,"current_range_meters":28400,"station_id":"ce4bhpp2rcd13ifvqhfg","pricing_plan_id":"free"},{"bike_id":"526e7f56-0e21-4bd0-bc51-3dc5e827ee1d","system_id":"levelo_inurba_marseille","lat":43.299,"lon":5.43671,"is_reserved":false,"is_disabled":false,"rental_uris":{"android":"levelo://app?vid=526e7f56-0e21-4bd0-bc51-3dc5e827ee1d","ios":"levelo://app?vid=526e7f56-0e21-4bd0-bc51-3dc5e827ee1d"},"vehicle_type_id":"4","last_reported":1702163194,"current_range_meters":24400,"station_id":"ce4bhpp2rcd13ifvqhfg","pricing_plan_id":"free"},{"bike_id":"4f68f183-a711-4386-a731-e8ea8e2f115e","system_id":"levelo_inurba_marseille","lat":43.298768,"lon":5.43643,"is_reserved":false,"is_disabled":false,"rental_uris":{"android":"levelo://app?vid=4f68f183-a711-4386-a731-e8ea8e2f115e","ios":"levelo://app?vid=4f68f183-a711-4386-a731-e8ea8e2f115e"},"vehicle_type_id":"4","last_reported":1702163194,"current_range_meters":25600,"station_id":"ce4bhpp2rcd13ifvqhfg","pricing_plan_id":"free"},{"bike_id":"571189d9-1aa6-4660-b785-d8f0d693eb50","system_id":"levelo_inurba_marseille","lat":43.281548,"lon":5.42643,"is_reserved":false,"is_disabled":false,"rental_uris":{"android":"levelo://app?vid=571189d9-1aa6-4660-b785-d8f0d693eb50","ios":"levelo://app?vid=571189d9-1aa6-4660-b785-d8f0d693eb50"},"vehicle_type_id":"4","last_reported":1702163194,"current_range_meters":26800,"station_id":"ce4bhnh2rcd13ifvqgug","pricing_plan_id":"free"},{"bike_id":"ae2ee4ec-e0be-4650-a25d-ad306c6973d5","system_id":"levelo_inurba_marseille","lat":43.281548,"lon":5.42643,"is_reserved":false,"is_disabled":false,"rental_uris":{"android":"levelo://app?vid=ae2ee4ec-e0be-4650-a25d-ad306c6973d5","ios":"levelo://app?vid=ae2ee4ec-e0be-4650-a25d-ad306c6973d5"},"vehicle_type_id":"4","last_reported":1702163194,"current_range_meters":26000,"station_id":"ce4bhnh2rcd13ifvqgug","pricing_plan_id":"free"},{"bike_id":"ced98caa-8305-48e5-ae90-b812f3200f31","system_id":"levelo_inurba_marseille","lat":43.281548,"lon":5.42643,"is_reserved":false,"is_disabled":false,"rental_uris":{"android":"levelo://app?vid=ced98caa-8305-48e5-ae90-b812f3200f31","ios":"levelo://app?vid=ced98caa-8305-48e5-ae90-b812f3200f31"},"vehicle_type_id":"4","last_reported":1702163194,"current_range_meters":26800,"station_id":"ce4bhnh2rcd13ifvqgug","pricing_plan_id":"free"},{"bike_id":"c03e7c65-94ee-4f51-bb31-7322ab7baa32","system_id":"levelo_inurba_marseille","lat":43.281548,"lon":5.42643,"is_reserved":false,"is_disabled":false,"rental_uris":{"android":"levelo://app?vid=c03e7c65-94ee-4f51-bb31-7322ab7baa32","ios":"levelo://app?vid=c03e7c65-94ee-4f51-bb31-7322ab7baa32"},"vehicle_type_id":"4","last_reported":1702163194,"current_range_meters":0,"station_id":"ce4bhnh2rcd13ifvqgug","pricing_plan_id":"free"},{"bike_id":"139a27c7-f3ae-47e4-b585-f0759b6ba5b6","system_id":"levelo_inurba_marseille","lat":43.281548,"lon":5.42643,"is_reserved":false,"is_disabled":false,"rental_uris":{"android":"levelo://app?vid=139a27c7-f3ae-47e4-b585-f0759b6ba5b6","ios":"levelo://app?vid=139a27c7-f3ae-47e4-b585-f0759b6ba5b6"},"vehicle_type_id":"4","last_reported":1702163194,"current_range_meters":22000,"station_id":"ce4bhnh2rcd13ifvqgug","pricing_plan_id":"free"},{"bike_id":"971d63c2-83dd-41d1-be29-18106b6fda3e","system_id":"levelo_inurba_marseille","lat":43.281548,"lon":5.42643,"is_reserved":false,"is_disabled":false,"rental_uris":{"android":"levelo://app?vid=971d63c2-83dd-41d1-be29-18106b6fda3e","ios":"levelo://app?vid=971d63c2-83dd-41d1-be29-18106b6fda3e"},"vehicle_type_id":"4","last_reported":1702163194,"current_range_meters":5200,"station_id":"ce4bhnh2rcd13ifvqgug","pricing_plan_id":"free"},{"bike_id":"5525a139-c8f9-4163-ad42-51992063b245","system_id":"levelo_inurba_marseille","lat":43.281548,"lon":5.42643,"is_reserved":false,"is_disabled":false,"rental_uris":{"android":"levelo://app?vid=5525a139-c8f9-4163-ad42-51992063b245","ios":"levelo://app?vid=5525a139-c8f9-4163-ad42-51992063b245"},"vehicle_type_id":"4","last_reported":1702163194,"current_range_meters":22800,"station_id":"ce4bhnh2rcd13ifvqgug","pricing_plan_id":"free"},{"bike_id":"b9063a33-13b5-4cca-826c-3f51be03f8ec","system_id":"levelo_inurba_marseille","lat":43.281548,"lon":5.42643,"is_reserved":false,"is_disabled":false,"rental_uris":{"android":"levelo://app?vid=b9063a33-13b5-4cca-826c-3f51be03f8ec","ios":"levelo://app?vid=b9063a33-13b5-4cca-826c-3f51be03f8ec"},"vehicle_type_id":"4","last_reported":1702163194,"current_range_meters":31200,"station_id":"ce4bhnh2rcd13ifvqgug","pricing_plan_id":"free"},{"bike_id":"8381b6c0-a970-418d-b394-9f8eb4bf2cb5","system_id":"levelo_inurba_marseille","lat":43.281548,"lon":5.42643,"is_reserved":false,"is_disabled":false,"rental_uris":{"android":"levelo://app?vid=8381b6c0-a970-418d-b394-9f8eb4bf2cb5","ios":"levelo://app?vid=8381b6c0-a970-418d-b394-9f8eb4bf2cb5"},"vehicle_type_id":"4","last_reported":1702163194,"current_range_meters":14000,"station_id":"ce4bhnh2rcd13ifvqgug","pricing_plan_id":"free"},{"bike_id":"c8ee009b-fae8-46f1-84f1-c8bf04b35add","system_id":"levelo_inurba_marseille","lat":43.2607,"lon":5.393983,"is_reserved":false,"is_disabled":false,"rental_uris":{"android":"levelo://app?vid=c8ee009b-fae8-46f1-84f1-c8bf04b35add","ios":"levelo://app?vid=c8ee009b-fae8-46f1-84f1-c8bf04b35add"},"vehicle_type_id":"4","last_reported":1702163194,"current_range_meters":14800,"station_id":"ce4bhh92rcd13ifvqfj0","pricing_plan_id":"free"},{"bike_id":"4b961cec-d7ea-47bd-8b69-193b02ff897c","system_id":"levelo_inurba_marseille","lat":43.2607,"lon":5.393983,"is_reserved":false,"is_disabled":false,"rental_uris":{"android":"levelo://app?vid=4b961cec-d7ea-47bd-8b69-193b02ff897c","ios":"levelo://app?vid=4b961cec-d7ea-47bd-8b69-193b02ff897c"},"vehicle_type_id":"4","last_reported":1702163194,"current_range_meters":26000,"station_id":"ce4bhh92rcd13ifvqfj0","pricing_plan_id":"free"},{"bike_id":"c7ca1942-a897-4ebb-8b6b-b9e34177741c","system_id":"levelo_inurba_marseille","lat":43.2607,"lon":5.393983,"is_reserved":false,"is_disabled":false,"rental_uris":{"android":"levelo://app?vid=c7ca1942-a897-4ebb-8b6b-b9e34177741c","ios":"levelo://app?vid=c7ca1942-a897-4ebb-8b6b-b9e34177741c"},"vehicle_type_id":"4","last_reported":1702163194,"current_range_meters":16000,"station_id":"ce4bhh92rcd13ifvqfj0","pricing_plan_id":"free"},{"bike_id":"6a285a92-a82b-4ae9-b162-6bd6726e1bb9","system_id":"levelo_inurba_marseille","lat":43.258224,"lon":5.394369,"is_reserved":false,"is_disabled":false,"rental_uris":{"android":"levelo://app?vid=6a285a92-a82b-4ae9-b162-6bd6726e1bb9","ios":"levelo://app?vid=6a285a92-a82b-4ae9-b162-6bd6726e1bb9"},"vehicle_type_id":"4","last_reported":1702163194,"current_range_meters":25600,"station_id":"ce4bhip2rcd13ifvqft0","pricing_plan_id":"free"},{"bike_id":"deb6f3d1-b1dc-42f8-bb73-1372e62a4fce","system_id":"levelo_inurba_marseille","lat":43.258224,"lon":5.394369,"is_reserved":false,"is_disabled":false,"rental_uris":{"android":"levelo://app?vid=deb6f3d1-b1dc-42f8-bb73-1372e62a4fce","ios":"levelo://app?vid=deb6f3d1-b1dc-42f8-bb73-1372e62a4fce"},"vehicle_type_id":"4","last_reported":1702163194,"current_range_meters":4400,"station_id":"ce4bhip2rcd13ifvqft0","pricing_plan_id":"free"},{"bike_id":"d7389dfc-e0b8-468d-9cf6-2db040fd468b","system_id":"levelo_inurba_marseille","lat":43.258658,"lon":5.398935,"is_reserved":false,"is_disabled":false,"rental_uris":{"android":"levelo://app?vid=d7389dfc-e0b8-468d-9cf6-2db040fd468b","ios":"levelo://app?vid=d7389dfc-e0b8-468d-9cf6-2db040fd468b"},"vehicle_type_id":"4","last_reported":1702163194,"current_range_meters":26800,"station_id":"ce4bhl92rcd13ifvqghg","pricing_plan_id":"free"},{"bike_id":"bed40a52-06ec-4b51-aa24-15562c254850","system_id":"levelo_inurba_marseille","lat":43.2479,"lon":5.374457,"is_reserved":false,"is_disabled":false,"rental_uris":{"android":"levelo://app?vid=bed40a52-06ec-4b51-aa24-15562c254850","ios":"levelo://app?vid=bed40a52-06ec-4b51-aa24-15562c254850"},"vehicle_type_id":"4","last_reported":1702163194,"current_range_meters":14400,"station_id":"ce4bhgh2rcd13ifvqfb0","pricing_plan_id":"free"},{"bike_id":"89f6b9c7-2e47-467d-a5da-27592e88272c","system_id":"levelo_inurba_marseille","lat":43.250966,"lon":5.395186,"is_reserved":false,"is_disabled":false,"rental_uris":{"android":"levelo://app?vid=89f6b9c7-2e47-467d-a5da-27592e88272c","ios":"levelo://app?vid=89f6b9c7-2e47-467d-a5da-27592e88272c"},"vehicle_type_id":"4","last_reported":1702163194,"current_range_meters":30400,"station_id":"ce4bhm12rcd13ifvqgkg","pricing_plan_id":"free"},{"bike_id":"c5e1b697-970d-4de1-b78f-d964060d7cc1","system_id":"levelo_inurba_marseille","lat":43.24693,"lon":5.382096,"is_reserved":false,"is_disabled":false,"rental_uris":{"android":"levelo://app?vid=c5e1b697-970d-4de1-b78f-d964060d7cc1","ios":"levelo://app?vid=c5e1b697-970d-4de1-b78f-d964060d7cc1"},"vehicle_type_id":"4","last_reported":1702163194,"current_range_meters":6400,"station_id":"ce4bhih2rcd13ifvqfr0","pricing_plan_id":"free"},{"bike_id":"a8920d8d-5ea0-4643-b10d-8e8ab5bf009a","system_id":"levelo_inurba_marseille","lat":43.24693,"lon":5.382096,"is_reserved":false,"is_disabled":false,"rental_uris":{"android":"levelo://app?vid=a8920d8d-5ea0-4643-b10d-8e8ab5bf009a","ios":"levelo://app?vid=a8920d8d-5ea0-4643-b10d-8e8ab5bf009a"},"vehicle_type_id":"4","last_reported":1702163194,"current_range_meters":800,"station_id":"ce4bhih2rcd13ifvqfr0","pricing_plan_id":"free"},{"bike_id":"bee7e5fa-4c1b-44b3-aca5-fbd83bcb164f","system_id":"levelo_inurba_marseille","lat":43.24661,"lon":5.38166,"is_reserved":false,"is_disabled":false,"rental_uris":{"android":"levelo://app?vid=bee7e5fa-4c1b-44b3-aca5-fbd83bcb164f","ios":"levelo://app?vid=bee7e5fa-4c1b-44b3-aca5-fbd83bcb164f"},"vehicle_type_id":"4","last_reported":1702163194,"current_range_meters":21600,"station_id":"ce4bhih2rcd13ifvqfr0","pricing_plan_id":"free"},{"bike_id":"3f2977c7-2d3e-4b05-813b-c8cad00b1d30","system_id":"levelo_inurba_marseille","lat":43.25102,"lon":5.403214,"is_reserved":false,"is_disabled":false,"rental_uris":{"android":"levelo://app?vid=3f2977c7-2d3e-4b05-813b-c8cad00b1d30","ios":"levelo://app?vid=3f2977c7-2d3e-4b05-813b-c8cad00b1d30"},"vehicle_type_id":"4","last_reported":1702163194,"current_range_meters":5600,"station_id":"ce4bhlh2rcd13ifvqgig","pricing_plan_id":"free"},{"bike_id":"38c09074-6efe-49ff-9e95-5f42106037f5","system_id":"levelo_inurba_marseille","lat":43.25109,"lon":5.40322,"is_reserved":false,"is_disabled":false,"rental_uris":{"android":"levelo://app?vid=38c09074-6efe-49ff-9e95-5f42106037f5","ios":"levelo://app?vid=38c09074-6efe-49ff-9e95-5f42106037f5"},"vehicle_type_id":"4","last_reported":1702163194,"current_range_meters":8800,"station_id":"ce4bhlh2rcd13ifvqgig","pricing_plan_id":"free"},{"bike_id":"9dc6e68a-3233-4e75-b32d-e08b4c53470d","system_id":"levelo_inurba_marseille","lat":43.25109,"lon":5.40324,"is_reserved":false,"is_disabled":false,"rental_uris":{"android":"levelo://app?vid=9dc6e68a-3233-4e75-b32d-e08b4c53470d","ios":"levelo://app?vid=9dc6e68a-3233-4e75-b32d-e08b4c53470d"},"vehicle_type_id":"4","last_reported":1702163194,"current_range_meters":19600,"station_id":"ce4bhlh2rcd13ifvqgig","pricing_plan_id":"free"},{"bike_id":"d608bd2a-1e64-45d8-8604-2f7a0c32cafc","system_id":"levelo_inurba_marseille","lat":43.25105,"lon":5.40322,"is_reserved":false,"is_disabled":false,"rental_uris":{"android":"levelo://app?vid=d608bd2a-1e64-45d8-8604-2f7a0c32cafc","ios":"levelo://app?vid=d608bd2a-1e64-45d8-8604-2f7a0c32cafc"},"vehicle_type_id":"4","last_reported":1702163194,"current_range_meters":20400,"station_id":"ce4bhlh2rcd13ifvqgig","pricing_plan_id":"free"},{"bike_id":"d66641e6-78f2-4e47-8b40-cd8655dd05c7","system_id":"levelo_inurba_marseille","lat":43.243884,"lon":5.370737,"is_reserved":false,"is_disabled":false,"rental_uris":{"android":"levelo://app?vid=d66641e6-78f2-4e47-8b40-cd8655dd05c7","ios":"levelo://app?vid=d66641e6-78f2-4e47-8b40-cd8655dd05c7"},"vehicle_type_id":"4","last_reported":1702163194,"current_range_meters":20400,"station_id":"ce4bhhh2rcd13ifvqfk0","pricing_plan_id":"free"},{"bike_id":"e0027151-3876-4e17-8b4a-b5c8f5b31988","system_id":"levelo_inurba_marseille","lat":43.24072,"lon":5.37766,"is_reserved":false,"is_disabled":false,"rental_uris":{"android":"levelo://app?vid=e0027151-3876-4e17-8b4a-b5c8f5b31988","ios":"levelo://app?vid=e0027151-3876-4e17-8b4a-b5c8f5b31988"},"vehicle_type_id":"4","last_reported":1702163194,"current_range_meters":16400,"station_id":"ce4bhnp2rcd13ifvqgvg","pricing_plan_id":"free"},{"bike_id":"dca6d162-e5a2-4d99-89a0-bf726dda2dbf","system_id":"levelo_inurba_marseille","lat":43.239725,"lon":5.366216,"is_reserved":false,"is_disabled":false,"rental_uris":{"android":"levelo://app?vid=dca6d162-e5a2-4d99-89a0-bf726dda2dbf","ios":"levelo://app?vid=dca6d162-e5a2-4d99-89a0-bf726dda2dbf"},"vehicle_type_id":"4","last_reported":1702163194,"current_range_meters":4400,"station_id":"ce4bhi12rcd13ifvqfp0","pricing_plan_id":"free"},{"bike_id":"6ee27b94-91ff-4319-8004-5372243ff166","system_id":"levelo_inurba_marseille","lat":43.23971,"lon":5.36627,"is_reserved":false,"is_disabled":false,"rental_uris":{"android":"levelo://app?vid=6ee27b94-91ff-4319-8004-5372243ff166","ios":"levelo://app?vid=6ee27b94-91ff-4319-8004-5372243ff166"},"vehicle_type_id":"4","last_reported":1702163194,"current_range_meters":4400,"station_id":"ce4bhi12rcd13ifvqfp0","pricing_plan_id":"free"},{"bike_id":"b17e00c2-bf59-4ac0-bf9d-4e8ada93c9ba","system_id":"levelo_inurba_marseille","lat":43.241782,"lon":5.397261,"is_reserved":false,"is_disabled":false,"rental_uris":{"android":"levelo://app?vid=b17e00c2-bf59-4ac0-bf9d-4e8ada93c9ba","ios":"levelo://app?vid=b17e00c2-bf59-4ac0-bf9d-4e8ada93c9ba"},"vehicle_type_id":"4","last_reported":1702163194,"current_range_meters":24400,"station_id":"ce4bhn12rcd13ifvqgpg","pricing_plan_id":"free"},{"bike_id":"732a51d8-9b28-4d77-a335-d033a351a4ed","system_id":"levelo_inurba_marseille","lat":43.231919,"lon":5.355532,"is_reserved":false,"is_disabled":false,"rental_uris":{"android":"levelo://app?vid=732a51d8-9b28-4d77-a335-d033a351a4ed","ios":"levelo://app?vid=732a51d8-9b28-4d77-a335-d033a351a4ed"},"vehicle_type_id":"4","last_reported":1702163194,"current_range_meters":15600,"station_id":"ce4bhu92rcd13ifvqi70","pricing_plan_id":"free"},{"bike_id":"ab17fc38-eb79-448d-9157-5f64e2805185","system_id":"levelo_inurba_marseille","lat":43.231919,"lon":5.355532,"is_reserved":false,"is_disabled":false,"rental_uris":{"android":"levelo://app?vid=ab17fc38-eb79-448d-9157-5f64e2805185","ios":"levelo://app?vid=ab17fc38-eb79-448d-9157-5f64e2805185"},"vehicle_type_id":"4","last_reported":1702163194,"current_range_meters":12800,"station_id":"ce4bhu92rcd13ifvqi70","pricing_plan_id":"free"},{"bike_id":"db837267-81e3-439e-98cb-2684c730942d","system_id":"levelo_inurba_marseille","lat":43.231986,"lon":5.355511,"is_reserved":false,"is_disabled":false,"rental_uris":{"android":"levelo://app?vid=db837267-81e3-439e-98cb-2684c730942d","ios":"levelo://app?vid=db837267-81e3-439e-98cb-2684c730942d"},"vehicle_type_id":"4","last_reported":1702163194,"current_range_meters":18800,"station_id":"ce4bhu92rcd13ifvqi70","pricing_plan_id":"free"},{"bike_id":"8b55a09a-4145-4ec5-a5e4-2721ec70ed5c","system_id":"levelo_inurba_marseille","lat":43.23195,"lon":5.3555,"is_reserved":false,"is_disabled":false,"rental_uris":{"android":"levelo://app?vid=8b55a09a-4145-4ec5-a5e4-2721ec70ed5c","ios":"levelo://app?vid=8b55a09a-4145-4ec5-a5e4-2721ec70ed5c"},"vehicle_type_id":"4","last_reported":1702163194,"current_range_meters":12800,"station_id":"ce4bhu92rcd13ifvqi70","pricing_plan_id":"free"},{"bike_id":"efdf0b62-a012-45f2-a093-48aedd562b0c","system_id":"levelo_inurba_marseille","lat":43.231919,"lon":5.355532,"is_reserved":false,"is_disabled":false,"rental_uris":{"android":"levelo://app?vid=efdf0b62-a012-45f2-a093-48aedd562b0c","ios":"levelo://app?vid=efdf0b62-a012-45f2-a093-48aedd562b0c"},"vehicle_type_id":"4","last_reported":1702163194,"current_range_meters":20400,"station_id":"ce4bhu92rcd13ifvqi70","pricing_plan_id":"free"},{"bike_id":"bb7bc747-ded6-4030-8110-5ea800f6fe96","system_id":"levelo_inurba_marseille","lat":43.23194,"lon":5.35553,"is_reserved":false,"is_disabled":false,"rental_uris":{"android":"levelo://app?vid=bb7bc747-ded6-4030-8110-5ea800f6fe96","ios":"levelo://app?vid=bb7bc747-ded6-4030-8110-5ea800f6fe96"},"vehicle_type_id":"4","last_reported":1702163194,"current_range_meters":10400,"station_id":"ce4bhu92rcd13ifvqi70","pricing_plan_id":"free"},{"bike_id":"529449ae-9bd0-4a42-b2ad-b913b1c62c25","system_id":"levelo_inurba_marseille","lat":43.231919,"lon":5.355532,"is_reserved":false,"is_disabled":false,"rental_uris":{"android":"levelo://app?vid=529449ae-9bd0-4a42-b2ad-b913b1c62c25","ios":"levelo://app?vid=529449ae-9bd0-4a42-b2ad-b913b1c62c25"},"vehicle_type_id":"4","last_reported":1702163194,"current_range_meters":30000,"station_id":"ce4bhu92rcd13ifvqi70","pricing_plan_id":"free"},{"bike_id":"a8c501f0-1f0c-4126-b8d3-0e787022ce6a","system_id":"levelo_inurba_marseille","lat":43.231919,"lon":5.355532,"is_reserved":false,"is_disabled":false,"rental_uris":{"android":"levelo://app?vid=a8c501f0-1f0c-4126-b8d3-0e787022ce6a","ios":"levelo://app?vid=a8c501f0-1f0c-4126-b8d3-0e787022ce6a"},"vehicle_type_id":"4","last_reported":1702163194,"current_range_meters":30800,"station_id":"ce4bhu92rcd13ifvqi70","pricing_plan_id":"free"},{"bike_id":"446663db-0ff0-41b4-80f1-111b68ced5a4","system_id":"levelo_inurba_marseille","lat":43.23192,"lon":5.35551,"is_reserved":false,"is_disabled":false,"rental_uris":{"android":"levelo://app?vid=446663db-0ff0-41b4-80f1-111b68ced5a4","ios":"levelo://app?vid=446663db-0ff0-41b4-80f1-111b68ced5a4"},"vehicle_type_id":"4","last_reported":1702163194,"current_range_meters":17200,"station_id":"ce4bhu92rcd13ifvqi70","pricing_plan_id":"free"},{"bike_id":"88360225-83fa-42a7-aa9d-04d6e2f27256","system_id":"levelo_inurba_marseille","lat":43.231919,"lon":5.355532,"is_reserved":false,"is_disabled":false,"rental_uris":{"android":"levelo://app?vid=88360225-83fa-42a7-aa9d-04d6e2f27256","ios":"levelo://app?vid=88360225-83fa-42a7-aa9d-04d6e2f27256"},"vehicle_type_id":"4","last_reported":1702163194,"current_range_meters":23600,"station_id":"ce4bhu92rcd13ifvqi70","pricing_plan_id":"free"},{"bike_id":"291500d0-9d8c-4548-9a9d-9a7f79b46317","system_id":"levelo_inurba_marseille","lat":43.231794,"lon":5.400052,"is_reserved":false,"is_disabled":false,"rental_uris":{"android":"levelo://app?vid=291500d0-9d8c-4548-9a9d-9a7f79b46317","ios":"levelo://app?vid=291500d0-9d8c-4548-9a9d-9a7f79b46317"},"vehicle_type_id":"4","last_reported":1702163194,"current_range_meters":26000,"station_id":"ce4bhn12rcd13ifvqgqg","pricing_plan_id":"free"},{"bike_id":"92e5148d-4fb4-4386-8a07-4b4b7dd6e12c","system_id":"levelo_inurba_marseille","lat":43.231793,"lon":5.400044,"is_reserved":false,"is_disabled":false,"rental_uris":{"android":"levelo://app?vid=92e5148d-4fb4-4386-8a07-4b4b7dd6e12c","ios":"levelo://app?vid=92e5148d-4fb4-4386-8a07-4b4b7dd6e12c"},"vehicle_type_id":"4","last_reported":1702163194,"current_range_meters":14800,"station_id":"ce4bhn12rcd13ifvqgqg","pricing_plan_id":"free"},{"bike_id":"bfbb4102-66c5-4281-8850-ca35098b4665","system_id":"levelo_inurba_marseille","lat":43.231794,"lon":5.400052,"is_reserved":false,"is_disabled":false,"rental_uris":{"android":"levelo://app?vid=bfbb4102-66c5-4281-8850-ca35098b4665","ios":"levelo://app?vid=bfbb4102-66c5-4281-8850-ca35098b4665"},"vehicle_type_id":"4","last_reported":1702163194,"current_range_meters":24800,"station_id":"ce4bhn12rcd13ifvqgqg","pricing_plan_id":"free"},{"bike_id":"71fdd829-63ff-41d5-b3e3-495ff59647ad","system_id":"levelo_inurba_marseille","lat":43.231562,"lon":5.436933,"is_reserved":false,"is_disabled":false,"rental_uris":{"android":"levelo://app?vid=71fdd829-63ff-41d5-b3e3-495ff59647ad","ios":"levelo://app?vid=71fdd829-63ff-41d5-b3e3-495ff59647ad"},"vehicle_type_id":"4","last_reported":1702163194,"current_range_meters":15600,"station_id":"ce4bhmp2rcd13ifvqgog","pricing_plan_id":"free"}]}}