{"last_updated":1741676963,"ttl":60,"version":"2.2","data":{"bikes":[{"bike_id":"eda074eb-77af-4e4c-901c-478d03102cf3","system_id":"levelo_inurba_marseille","lat":43.33612,"lon":5.41034,"is_reserved":false,"is_disabled":false,"rental_uris":{"android":"levelo://app?vid=eda074eb-77af-4e4c-901c-478d03102cf3","ios":"levelo://app?vid=eda074eb-77af-4e4c-901c-478d03102cf3"},"vehicle_type_id":"4","last_reported":1741676963,"current_range_meters":2800,"station_id":"ce4bhqh2rcd13ifvqhmg","pricing_plan_id":"cebpf4jnsgd1na2vs0mg"},{"bike_id":"1e7a4e99-8d4d-435f-b805-ee7c194061e6","system_id":"levelo_inurba_marseille","lat":43.32043,"lon":5.41556,"is_reserved":false,"is_disabled":false,"rental_uris":{"android":"levelo://app?vid=1e7a4e99-8d4d-435f-b805-ee7c194061e6","ios":"levelo://app?vid=1e7a4e99-8d4d-435f-b805-ee7c194061e6"},"vehicle_type_id":"4","last_reported":1741676963,"current_range_meters":2800,"station_id":"ce4bhq92rcd13ifvqhkg","pricing_plan_id":"cebpf4jnsgd1na2vs0mg"},{"bike_id":"f3fa6453-d7fb-4953-a649-c7b65753202a","system_id":"levelo_inurba_marseille","lat":43.28703,"lon":5.37945,"is_reserved":false,"is_disabled":false,"rental_uris":{"android":"levelo://app?vid=f3fa6453-d7fb-4953-a649-c7b65753202a","ios":"levelo://app?vid=f3fa6453-d7fb-4953-a649-c7b65753202a"},"vehicle_type_id":"4","last_reported":1741676963,"current_range_meters":3200,"station_id":"ce4bh9p2rcd13ifvqec0","pricing_plan_id":"cebpf4jnsgd1na2vs0mg"},{"bike_id":"65ebf940-f6f1-4ba2-8b75-2b2127dd3199","system_id":"levelo_inurba_marseille","lat":43.2502,"lon":5.38074,"is_reserved":false,"is_disabled":false,"rental_uris":{"android":"levelo://app?vid=65ebf940-f6f1-4ba2-8b75-2b2127dd3199","ios":"levelo://app?vid=65ebf940-f6f1-4ba2-8b75-2b2127dd3199"},"vehicle_type_id":"4","last_reported":1741676963,"current_range_meters":3200,"station_id":"","pricing_plan_id":"cebpf4jnsgd1na2vs0mg"},{"bike_id":"ffabacd6-59d5-4e93-b987-7e83309d9413","system_id":"levelo_inurba_marseille","lat":43.29726,"lon":5.40125,"is_reserved":false,"is_disabled":false,"rental_uris":{"android":"levelo://app?vid=ffabacd6-59d5-4e93-b987-7e83309d9413","ios":"levelo://app?vid=ffabacd6-59d5-4e93-b987-7e83309d9413"},"vehicle_type_id":"4","last_reported":1741676963,"current_range_meters":3200,"station_id":"","pricing_plan_id":"cebpf4jnsgd1na2vs0mg"},{"bike_id":"58e479a9-c3a4-4826-ad96-179cb000b7c3","system_id":"levelo_inurba_marseille","lat":43.312143,"lon":5.367621,"is_reserved":false,"is_disabled":false,"rental_uris":{"android":"levelo://app?vid=58e479a9-c3a4-4826-ad96-179cb000b7c3","ios":"levelo://app?vid=58e479a9-c3a4-4826-ad96-179cb000b7c3"},"vehicle_type_id":"4","last_reported":1741676963,"current_range_meters":3600,"station_id":"ce4bgr92rcd13ifvqc6g","pricing_plan_id":"cebpf4jnsgd1na2vs0mg"},{"bike_id":"85858945-288d-4d7b-aac5-8cf9d060c580","system_id":"levelo_inurba_marseille","lat":43.32358,"lon":5.36756,"is_reserved":false,"is_disabled":false,"rental_uris":{"android":"levelo://app?vid=85858945-288d-4d7b-aac5-8cf9d060c580","ios":"levelo://app?vid=85858945-288d-4d7b-aac5-8cf9d060c580"},"vehicle_type_id":"4","last_reported":1741676963,"current_range_meters":3600,"station_id":"ce4bhsh2rcd13ifvqi2g","pricing_plan_id":"cebpf4jnsgd1na2vs0mg"},{"bike_id":"96886562-387d-4deb-8b80-1bc6653e972f","system_id":"levelo_inurba_marseille","lat":43.26225,"lon":5.40458,"is_reserved":false,"is_disabled":false,"rental_uris":{"android":"levelo://app?vid=96886562-387d-4deb-8b80-1bc6653e972f","ios":"levelo://app?vid=96886562-387d-4deb-8b80-1bc6653e972f"},"vehicle_type_id":"4","last_reported":1741676963,"current_range_meters":4000,"station_id":"ce4bhmh2rcd13ifvqgmg","pricing_plan_id":"cebpf4jnsgd1na2vs0mg"},{"bike_id":"35be52e8-6b84-4099-8ea0-f38652827724","system_id":"levelo_inurba_marseille","lat":43.30597,"lon":5.39352,"is_reserved":false,"is_disabled":true,"rental_uris":{"android":"levelo://app?vid=35be52e8-6b84-4099-8ea0-f38652827724","ios":"levelo://app?vid=35be52e8-6b84-4099-8ea0-f38652827724"},"vehicle_type_id":"4","last_reported":1741676963,"current_range_meters":4000,"station_id":"ce4bh0p2rcd13ifvqd80","pricing_plan_id":"cebpf4jnsgd1na2vs0mg"},{"bike_id":"48102a88-eb98-498c-a757-13e4050b7967","system_id":"levelo_inurba_marseille","lat":43.31159,"lon":5.38729,"is_reserved":false,"is_disabled":false,"rental_uris":{"android":"levelo://app?vid=48102a88-eb98-498c-a757-13e4050b7967","ios":"levelo://app?vid=48102a88-eb98-498c-a757-13e4050b7967"},"vehicle_type_id":"4","last_reported":1741676963,"current_range_meters":4000,"station_id":"ce4bgv12rcd13ifvqcp0","pricing_plan_id":"cebpf4jnsgd1na2vs0mg"},{"bike_id":"807afc88-ea82-4990-b568-328348602505","system_id":"levelo_inurba_marseille","lat":43.24374,"lon":5.37076,"is_reserved":false,"is_disabled":false,"rental_uris":{"android":"levelo://app?vid=807afc88-ea82-4990-b568-328348602505","ios":"levelo://app?vid=807afc88-ea82-4990-b568-328348602505"},"vehicle_type_id":"4","last_reported":1741676963,"current_range_meters":4000,"station_id":"ce4bhhh2rcd13ifvqfk0","pricing_plan_id":"cebpf4jnsgd1na2vs0mg"},{"bike_id":"7e4fb9e0-3677-4bd5-bd29-d1a197242817","system_id":"levelo_inurba_marseille","lat":43.28144,"lon":5.42656,"is_reserved":false,"is_disabled":false,"rental_uris":{"android":"levelo://app?vid=7e4fb9e0-3677-4bd5-bd29-d1a197242817","ios":"levelo://app?vid=7e4fb9e0-3677-4bd5-bd29-d1a197242817"},"vehicle_type_id":"4","last_reported":1741676963,"current_range_meters":4000,"station_id":"ce4bhnh2rcd13ifvqgug","pricing_plan_id":"cebpf4jnsgd1na2vs0mg"},{"bike_id":"19bd60c5-542c-4500-8a2c-03e914337044","system_id":"levelo_inurba_marseille","lat":43.28425,"lon":5.37508,"is_reserved":false,"is_disabled":false,"rental_uris":{"android":"levelo://app?vid=19bd60c5-542c-4500-8a2c-03e914337044","ios":"levelo://app?vid=19bd60c5-542c-4500-8a2c-03e914337044"},"vehicle_type_id":"4","last_reported":1741676963,"current_range_meters":4400,"station_id":"ce4bh412rcd13ifvqds0","pricing_plan_id":"cebpf4jnsgd1na2vs0mg"},{"bike_id":"a0c0d3a4-361a-46c3-8b2b-737a3196fa68","system_id":"levelo_inurba_marseille","lat":43.32041,"lon":5.41544,"is_reserved":false,"is_disabled":false,"rental_uris":{"android":"levelo://app?vid=a0c0d3a4-361a-46c3-8b2b-737a3196fa68","ios":"levelo://app?vid=a0c0d3a4-361a-46c3-8b2b-737a3196fa68"},"vehicle_type_id":"4","last_reported":1741676963,"current_range_meters":4400,"station_id":"ce4bhq92rcd13ifvqhkg","pricing_plan_id":"cebpf4jnsgd1na2vs0mg"},{"bike_id":"9030c250-9a38-4a96-b065-17c38176ead9","system_id":"levelo_inurba_marseille","lat":43.30211,"lon":5.39478,"is_reserved":false,"is_disabled":false,"rental_uris":{"android":"levelo://app?vid=9030c250-9a38-4a96-b065-17c38176ead9","ios":"levelo://app?vid=9030c250-9a38-4a96-b065-17c38176ead9"},"vehicle_type_id":"4","last_reported":1741676963,"current_range_meters":4400,"station_id":"ce4bh0p2rcd13ifvqd70","pricing_plan_id":"cebpf4jnsgd1na2vs0mg"},{"bike_id":"4fc19c94-dee7-4d1b-b8c3-5bb386def1e7","system_id":"levelo_inurba_marseille","lat":43.24079,"lon":5.3775,"is_reserved":false,"is_disabled":false,"rental_uris":{"android":"levelo://app?vid=4fc19c94-dee7-4d1b-b8c3-5bb386def1e7","ios":"levelo://app?vid=4fc19c94-dee7-4d1b-b8c3-5bb386def1e7"},"vehicle_type_id":"4","last_reported":1741676963,"current_range_meters":4400,"station_id":"ce4bhnp2rcd13ifvqgvg","pricing_plan_id":"cebpf4jnsgd1na2vs0mg"},{"bike_id":"57bb9620-7e1d-4375-9183-8aca42377c8c","system_id":"levelo_inurba_marseille","lat":43.30466,"lon":5.38218,"is_reserved":false,"is_disabled":false,"rental_uris":{"android":"levelo://app?vid=57bb9620-7e1d-4375-9183-8aca42377c8c","ios":"levelo://app?vid=57bb9620-7e1d-4375-9183-8aca42377c8c"},"vehicle_type_id":"4","last_reported":1741676963,"current_range_meters":4400,"station_id":"","pricing_plan_id":"cebpf4jnsgd1na2vs0mg"},{"bike_id":"dfe85f43-440a-4855-9184-d3de4832bcc7","system_id":"levelo_inurba_marseille","lat":43.2654,"lon":5.37315,"is_reserved":false,"is_disabled":true,"rental_uris":{"android":"levelo://app?vid=dfe85f43-440a-4855-9184-d3de4832bcc7","ios":"levelo://app?vid=dfe85f43-440a-4855-9184-d3de4832bcc7"},"vehicle_type_id":"4","last_reported":1741676963,"current_range_meters":4800,"station_id":"ce4bhg12rcd13ifvqf70","pricing_plan_id":"cebpf4jnsgd1na2vs0mg"},{"bike_id":"b104001a-10f7-4c93-b613-2b76cb885027","system_id":"levelo_inurba_marseille","lat":43.31145,"lon":5.37112,"is_reserved":false,"is_disabled":false,"rental_uris":{"android":"levelo://app?vid=b104001a-10f7-4c93-b613-2b76cb885027","ios":"levelo://app?vid=b104001a-10f7-4c93-b613-2b76cb885027"},"vehicle_type_id":"4","last_reported":1741676963,"current_range_meters":4800,"station_id":"","pricing_plan_id":"cebpf4jnsgd1na2vs0mg"},{"bike_id":"a3627e72-4c8b-4bea-b4f7-c6a62bebd8c4","system_id":"levelo_inurba_marseille","lat":43.29519,"lon":5.39049,"is_reserved":false,"is_disabled":false,"rental_uris":{"android":"levelo://app?vid=a3627e72-4c8b-4bea-b4f7-c6a62bebd8c4","ios":"levelo://app?vid=a3627e72-4c8b-4bea-b4f7-c6a62bebd8c4"},"vehicle_type_id":"4","last_reported":1741676963,"current_range_meters":4800,"station_id":"ce4bh3p2rcd13ifvqdp0","pricing_plan_id":"cebpf4jnsgd1na2vs0mg"},{"bike_id":"ff5b2e4a-cfcc-4193-9732-04c5f17aa254","system_id":"levelo_inurba_marseille","lat":43.27495,"lon":5.42456,"is_reserved":false,"is_disabled":false,"rental_uris":{"android":"levelo://app?vid=ff5b2e4a-cfcc-4193-9732-04c5f17aa254","ios":"levelo://app?vid=ff5b2e4a-cfcc-4193-9732-04c5f17aa254"},"vehicle_type_id":"4","last_reported":1741676963,"current_range_meters":5600,"station_id":"ce4bhn92rcd13ifvqgrg","pricing_plan_id":"cebpf4jnsgd1na2vs0mg"},{"bike_id":"7f08542c-3622-4bee-8852-d0974c0ec085","system_id":"levelo_inurba_marseille","lat":43.24184,"lon":5.36319,"is_reserved":false,"is_disabled":false,"rental_uris":{"android":"levelo://app?vid=7f08542c-3622-4bee-8852-d0974c0ec085","ios":"levelo://app?vid=7f08542c-3622-4bee-8852-d0974c0ec085"},"vehicle_type_id":"4","last_reported":1741676963,"current_range_meters":5600,"station_id":"","pricing_plan_id":"cebpf4jnsgd1na2vs0mg"},{"bike_id":"3c57a3fc-75b6-4e79-8a13-aa2e0eee3189","system_id":"levelo_inurba_marseille","lat":43.28155,"lon":5.42644,"is_reserved":false,"is_disabled":false,"rental_uris":{"android":"levelo://app?vid=3c57a3fc-75b6-4e79-8a13-aa2e0eee3189","ios":"levelo://app?vid=3c57a3fc-75b6-4e79-8a13-aa2e0eee3189"},"vehicle_type_id":"4","last_reported":1741676963,"current_range_meters":5600,"station_id":"ce4bhnh2rcd13ifvqgug","pricing_plan_id":"cebpf4jnsgd1na2vs0mg"},{"bike_id":"ae40c0ce-3c12-4d0b-bbf9-30cde05c01af","system_id":"levelo_inurba_marseille","lat":43.25931,"lon":5.40907,"is_reserved":false,"is_disabled":false,"rental_uris":{"android":"levelo://app?vid=ae40c0ce-3c12-4d0b-bbf9-30cde05c01af","ios":"levelo://app?vid=ae40c0ce-3c12-4d0b-bbf9-30cde05c01af"},"vehicle_type_id":"4","last_reported":1741676963,"current_range_meters":5600,"station_id":"ce4bhm92rcd13ifvqglg","pricing_plan_id":"cebpf4jnsgd1na2vs0mg"},{"bike_id":"8b3a1cef-7086-440d-9b28-f81f5e2d89f7","system_id":"levelo_inurba_marseille","lat":43.25109,"lon":5.40322,"is_reserved":false,"is_disabled":false,"rental_uris":{"android":"levelo://app?vid=8b3a1cef-7086-440d-9b28-f81f5e2d89f7","ios":"levelo://app?vid=8b3a1cef-7086-440d-9b28-f81f5e2d89f7"},"vehicle_type_id":"4","last_reported":1741676963,"current_range_meters":5600,"station_id":"ce4bhlh2rcd13ifvqgig","pricing_plan_id":"cebpf4jnsgd1na2vs0mg"},{"bike_id":"c936cde0-c04e-49b4-8ed8-090ddb9f540f","system_id":"levelo_inurba_marseille","lat":43.28354,"lon":5.38108,"is_reserved":false,"is_disabled":false,"rental_uris":{"android":"levelo://app?vid=c936cde0-c04e-49b4-8ed8-090ddb9f540f","ios":"levelo://app?vid=c936cde0-c04e-49b4-8ed8-090ddb9f540f"},"vehicle_type_id":"4","last_reported":1741676963,"current_range_meters":6000,"station_id":"ce4bh412rcd13ifvqdr0","pricing_plan_id":"cebpf4jnsgd1na2vs0mg"},{"bike_id":"2fbb2f0e-b64e-445e-a2b3-ee5227dc63e4","system_id":"levelo_inurba_marseille","lat":43.26919,"lon":5.36709,"is_reserved":false,"is_disabled":false,"rental_uris":{"android":"levelo://app?vid=2fbb2f0e-b64e-445e-a2b3-ee5227dc63e4","ios":"levelo://app?vid=2fbb2f0e-b64e-445e-a2b3-ee5227dc63e4"},"vehicle_type_id":"4","last_reported":1741676963,"current_range_meters":6000,"station_id":"","pricing_plan_id":"cebpf4jnsgd1na2vs0mg"},{"bike_id":"985f52b8-4d4c-4dfb-9514-2c7fb63e1202","system_id":"levelo_inurba_marseille","lat":43.24393,"lon":5.37044,"is_reserved":false,"is_disabled":true,"rental_uris":{"android":"levelo://app?vid=985f52b8-4d4c-4dfb-9514-2c7fb63e1202","ios":"levelo://app?vid=985f52b8-4d4c-4dfb-9514-2c7fb63e1202"},"vehicle_type_id":"4","last_reported":1741676963,"current_range_meters":6000,"station_id":"ce4bhhh2rcd13ifvqfk0","pricing_plan_id":"cebpf4jnsgd1na2vs0mg"},{"bike_id":"b959c791-794c-4d96-afa4-07e88c4340a2","system_id":"levelo_inurba_marseille","lat":43.28096,"lon":5.37845,"is_reserved":false,"is_disabled":false,"rental_uris":{"android":"levelo://app?vid=b959c791-794c-4d96-afa4-07e88c4340a2","ios":"levelo://app?vid=b959c791-794c-4d96-afa4-07e88c4340a2"},"vehicle_type_id":"4","last_reported":1741676963,"current_range_meters":5600,"station_id":"ce4bha12rcd13ifvqee0","pricing_plan_id":"cebpf4jnsgd1na2vs0mg"},{"bike_id":"3dae5a5c-e282-442d-9602-c683df498b14","system_id":"levelo_inurba_marseille","lat":43.27058,"lon":5.40268,"is_reserved":false,"is_disabled":false,"rental_uris":{"android":"levelo://app?vid=3dae5a5c-e282-442d-9602-c683df498b14","ios":"levelo://app?vid=3dae5a5c-e282-442d-9602-c683df498b14"},"vehicle_type_id":"4","last_reported":1741676963,"current_range_meters":6000,"station_id":"ce4bhk92rcd13ifvqgc0","pricing_plan_id":"cebpf4jnsgd1na2vs0mg"},{"bike_id":"d6b8b55b-28e0-4afb-9cbd-5f5195446675","system_id":"levelo_inurba_marseille","lat":43.27487,"lon":5.42469,"is_reserved":false,"is_disabled":false,"rental_uris":{"android":"levelo://app?vid=d6b8b55b-28e0-4afb-9cbd-5f5195446675","ios":"levelo://app?vid=d6b8b55b-28e0-4afb-9cbd-5f5195446675"},"vehicle_type_id":"4","last_reported":1741676963,"current_range_meters":6000,"station_id":"ce4bhn92rcd13ifvqgrg","pricing_plan_id":"cebpf4jnsgd1na2vs0mg"},{"bike_id":"87c40d47-5266-4f6a-9a89-01987f8bf62c","system_id":"levelo_inurba_marseille","lat":43.262353,"lon":5.404522,"is_reserved":false,"is_disabled":false,"rental_uris":{"android":"levelo://app?vid=87c40d47-5266-4f6a-9a89-01987f8bf62c","ios":"levelo://app?vid=87c40d47-5266-4f6a-9a89-01987f8bf62c"},"vehicle_type_id":"4","last_reported":1741676963,"current_range_meters":6000,"station_id":"ce4bhmh2rcd13ifvqgmg","pricing_plan_id":"cebpf4jnsgd1na2vs0mg"},{"bike_id":"5d44eec5-0f76-4d9d-87c9-f425c19e364b","system_id":"levelo_inurba_marseille","lat":43.2508,"lon":5.39508,"is_reserved":false,"is_disabled":false,"rental_uris":{"android":"levelo://app?vid=5d44eec5-0f76-4d9d-87c9-f425c19e364b","ios":"levelo://app?vid=5d44eec5-0f76-4d9d-87c9-f425c19e364b"},"vehicle_type_id":"4","last_reported":1741676963,"current_range_meters":6000,"station_id":"ce4bhm12rcd13ifvqgkg","pricing_plan_id":"cebpf4jnsgd1na2vs0mg"},{"bike_id":"fd1594bc-0c09-4aea-ad02-5152153b6553","system_id":"levelo_inurba_marseille","lat":43.2665,"lon":5.40303,"is_reserved":false,"is_disabled":false,"rental_uris":{"android":"levelo://app?vid=fd1594bc-0c09-4aea-ad02-5152153b6553","ios":"levelo://app?vid=fd1594bc-0c09-4aea-ad02-5152153b6553"},"vehicle_type_id":"4","last_reported":1741676963,"current_range_meters":6000,"station_id":"","pricing_plan_id":"cebpf4jnsgd1na2vs0mg"},{"bike_id":"07c6ede6-7a6a-49d0-b394-2d3215b7dccb","system_id":"levelo_inurba_marseille","lat":43.30527,"lon":5.36728,"is_reserved":false,"is_disabled":false,"rental_uris":{"android":"levelo://app?vid=07c6ede6-7a6a-49d0-b394-2d3215b7dccb","ios":"levelo://app?vid=07c6ede6-7a6a-49d0-b394-2d3215b7dccb"},"vehicle_type_id":"4","last_reported":1741676963,"current_range_meters":6000,"station_id":"ce4bgrp2rcd13ifvqc9g","pricing_plan_id":"cebpf4jnsgd1na2vs0mg"},{"bike_id":"96933892-6a46-4281-880c-758d7231ef75","system_id":"levelo_inurba_marseille","lat":43.31072,"lon":5.38349,"is_reserved":false,"is_disabled":false,"rental_uris":{"android":"levelo://app?vid=96933892-6a46-4281-880c-758d7231ef75","ios":"levelo://app?vid=96933892-6a46-4281-880c-758d7231ef75"},"vehicle_type_id":"4","last_reported":1741676963,"current_range_meters":6400,"station_id":"ce4bgv92rcd13ifvqcr0","pricing_plan_id":"cebpf4jnsgd1na2vs0mg"},{"bike_id":"5a6a9c21-be82-4e71-bcb6-9a56057e241d","system_id":"levelo_inurba_marseille","lat":43.2835,"lon":5.3815,"is_reserved":false,"is_disabled":false,"rental_uris":{"android":"levelo://app?vid=5a6a9c21-be82-4e71-bcb6-9a56057e241d","ios":"levelo://app?vid=5a6a9c21-be82-4e71-bcb6-9a56057e241d"},"vehicle_type_id":"4","last_reported":1741676963,"current_range_meters":6400,"station_id":"ce4bh412rcd13ifvqdr0","pricing_plan_id":"cebpf4jnsgd1na2vs0mg"},{"bike_id":"ce4d618d-a090-462a-af94-5e66f4cc9c62","system_id":"levelo_inurba_marseille","lat":43.27475,"lon":5.42478,"is_reserved":false,"is_disabled":false,"rental_uris":{"android":"levelo://app?vid=ce4d618d-a090-462a-af94-5e66f4cc9c62","ios":"levelo://app?vid=ce4d618d-a090-462a-af94-5e66f4cc9c62"},"vehicle_type_id":"4","last_reported":1741676963,"current_range_meters":6400,"station_id":"ce4bhn92rcd13ifvqgrg","pricing_plan_id":"cebpf4jnsgd1na2vs0mg"},{"bike_id":"cf6f854f-8666-42b6-b2f1-f5725a5556f6","system_id":"levelo_inurba_marseille","lat":43.28284,"lon":5.37421,"is_reserved":false,"is_disabled":false,"rental_uris":{"android":"levelo://app?vid=cf6f854f-8666-42b6-b2f1-f5725a5556f6","ios":"levelo://app?vid=cf6f854f-8666-42b6-b2f1-f5725a5556f6"},"vehicle_type_id":"4","last_reported":1741676963,"current_range_meters":6400,"station_id":"ce4bha12rcd13ifvqef0","pricing_plan_id":"cebpf4jnsgd1na2vs0mg"},{"bike_id":"cff4445f-6b70-4c92-a3aa-728d1723639c","system_id":"levelo_inurba_marseille","lat":43.25077,"lon":5.39516,"is_reserved":false,"is_disabled":false,"rental_uris":{"android":"levelo://app?vid=cff4445f-6b70-4c92-a3aa-728d1723639c","ios":"levelo://app?vid=cff4445f-6b70-4c92-a3aa-728d1723639c"},"vehicle_type_id":"4","last_reported":1741676963,"current_range_meters":6800,"station_id":"ce4bhm12rcd13ifvqgkg","pricing_plan_id":"cebpf4jnsgd1na2vs0mg"},{"bike_id":"4fc82004-ba25-46e8-9d12-a8bf2240aace","system_id":"levelo_inurba_marseille","lat":43.23198,"lon":5.3996,"is_reserved":false,"is_disabled":false,"rental_uris":{"android":"levelo://app?vid=4fc82004-ba25-46e8-9d12-a8bf2240aace","ios":"levelo://app?vid=4fc82004-ba25-46e8-9d12-a8bf2240aace"},"vehicle_type_id":"4","last_reported":1741676963,"current_range_meters":6800,"station_id":"ce4bhn12rcd13ifvqgqg","pricing_plan_id":"cebpf4jnsgd1na2vs0mg"},{"bike_id":"e0eca3ff-51d9-4fc2-8c03-6d7f2a05e07a","system_id":"levelo_inurba_marseille","lat":43.30952,"lon":5.39039,"is_reserved":false,"is_disabled":false,"rental_uris":{"android":"levelo://app?vid=e0eca3ff-51d9-4fc2-8c03-6d7f2a05e07a","ios":"levelo://app?vid=e0eca3ff-51d9-4fc2-8c03-6d7f2a05e07a"},"vehicle_type_id":"4","last_reported":1741676963,"current_range_meters":6800,"station_id":"ce4bgup2rcd13ifvqco0","pricing_plan_id":"cebpf4jnsgd1na2vs0mg"},{"bike_id":"d99a6f6d-00d6-49e6-9b88-332367f3c40d","system_id":"levelo_inurba_marseille","lat":43.2839,"lon":5.37537,"is_reserved":false,"is_disabled":false,"rental_uris":{"android":"levelo://app?vid=d99a6f6d-00d6-49e6-9b88-332367f3c40d","ios":"levelo://app?vid=d99a6f6d-00d6-49e6-9b88-332367f3c40d"},"vehicle_type_id":"4","last_reported":1741676963,"current_range_meters":6800,"station_id":"ce4bh412rcd13ifvqds0","pricing_plan_id":"cebpf4jnsgd1na2vs0mg"},{"bike_id":"550f4f9f-afbd-4396-bec2-cdce79ad77cc","system_id":"levelo_inurba_marseille","lat":43.32484,"lon":5.36567,"is_reserved":false,"is_disabled":false,"rental_uris":{"android":"levelo://app?vid=550f4f9f-afbd-4396-bec2-cdce79ad77cc","ios":"levelo://app?vid=550f4f9f-afbd-4396-bec2-cdce79ad77cc"},"vehicle_type_id":"4","last_reported":1741676963,"current_range_meters":6800,"station_id":"ce4bhs12rcd13ifvqhvg","pricing_plan_id":"cebpf4jnsgd1na2vs0mg"},{"bike_id":"1907067d-5e3d-40ca-8a47-ba415b8b2a28","system_id":"levelo_inurba_marseille","lat":43.33607,"lon":5.409803,"is_reserved":false,"is_disabled":true,"rental_uris":{"android":"levelo://app?vid=1907067d-5e3d-40ca-8a47-ba415b8b2a28","ios":"levelo://app?vid=1907067d-5e3d-40ca-8a47-ba415b8b2a28"},"vehicle_type_id":"4","last_reported":1741676963,"current_range_meters":6800,"station_id":"ce4bhqh2rcd13ifvqhmg","pricing_plan_id":"cebpf4jnsgd1na2vs0mg"},{"bike_id":"e5cf046b-59d9-4bef-98b0-d71713cfc93e","system_id":"levelo_inurba_marseille","lat":43.32532,"lon":5.41436,"is_reserved":false,"is_disabled":false,"rental_uris":{"android":"levelo://app?vid=e5cf046b-59d9-4bef-98b0-d71713cfc93e","ios":"levelo://app?vid=e5cf046b-59d9-4bef-98b0-d71713cfc93e"},"vehicle_type_id":"4","last_reported":1741676963,"current_range_meters":6800,"station_id":"ce4bhq12rcd13ifvqhhg","pricing_plan_id":"cebpf4jnsgd1na2vs0mg"},{"bike_id":"565245af-1098-4207-83d1-fdf36ab786b5","system_id":"levelo_inurba_marseille","lat":43.280845,"lon":5.441783,"is_reserved":false,"is_disabled":true,"rental_uris":{"android":"levelo://app?vid=565245af-1098-4207-83d1-fdf36ab786b5","ios":"levelo://app?vid=565245af-1098-4207-83d1-fdf36ab786b5"},"vehicle_type_id":"4","last_reported":1741676963,"current_range_meters":6800,"station_id":"","pricing_plan_id":"cebpf4jnsgd1na2vs0mg"},{"bike_id":"1f72adc6-3d1a-4fad-a905-cb9dcd596e26","system_id":"levelo_inurba_marseille","lat":43.23853,"lon":5.43568,"is_reserved":false,"is_disabled":false,"rental_uris":{"android":"levelo://app?vid=1f72adc6-3d1a-4fad-a905-cb9dcd596e26","ios":"levelo://app?vid=1f72adc6-3d1a-4fad-a905-cb9dcd596e26"},"vehicle_type_id":"4","last_reported":1741676963,"current_range_meters":6800,"station_id":"","pricing_plan_id":"cebpf4jnsgd1na2vs0mg"},{"bike_id":"374a05b5-873d-469a-9458-78e84f097c92","system_id":"levelo_inurba_marseille","lat":43.291305,"lon":5.379344,"is_reserved":false,"is_disabled":false,"rental_uris":{"android":"levelo://app?vid=374a05b5-873d-469a-9458-78e84f097c92","ios":"levelo://app?vid=374a05b5-873d-469a-9458-78e84f097c92"},"vehicle_type_id":"4","last_reported":1741676963,"current_range_meters":6800,"station_id":"ce4bh412rcd13ifvqdr0","pricing_plan_id":"cebpf4jnsgd1na2vs0mg"},{"bike_id":"169b38ad-d958-40d3-89a3-ded19f11a319","system_id":"levelo_inurba_marseille","lat":43.3369,"lon":5.39244,"is_reserved":false,"is_disabled":false,"rental_uris":{"android":"levelo://app?vid=169b38ad-d958-40d3-89a3-ded19f11a319","ios":"levelo://app?vid=169b38ad-d958-40d3-89a3-ded19f11a319"},"vehicle_type_id":"4","last_reported":1741676963,"current_range_meters":7200,"station_id":"","pricing_plan_id":"cebpf4jnsgd1na2vs0mg"},{"bike_id":"554f9d1a-c986-4f48-8e17-e97c1989f9c4","system_id":"levelo_inurba_marseille","lat":43.32343,"lon":5.4063,"is_reserved":false,"is_disabled":false,"rental_uris":{"android":"levelo://app?vid=554f9d1a-c986-4f48-8e17-e97c1989f9c4","ios":"levelo://app?vid=554f9d1a-c986-4f48-8e17-e97c1989f9c4"},"vehicle_type_id":"4","last_reported":1741676963,"current_range_meters":7200,"station_id":"ce4bhq92rcd13ifvqhjg","pricing_plan_id":"cebpf4jnsgd1na2vs0mg"},{"bike_id":"1903ec43-b9f5-43f2-8e9d-88de6c1f7933","system_id":"levelo_inurba_marseille","lat":43.24181,"lon":5.39729,"is_reserved":false,"is_disabled":false,"rental_uris":{"android":"levelo://app?vid=1903ec43-b9f5-43f2-8e9d-88de6c1f7933","ios":"levelo://app?vid=1903ec43-b9f5-43f2-8e9d-88de6c1f7933"},"vehicle_type_id":"4","last_reported":1741676963,"current_range_meters":7200,"station_id":"ce4bhn12rcd13ifvqgpg","pricing_plan_id":"cebpf4jnsgd1na2vs0mg"},{"bike_id":"373a1af5-2b90-40ba-bdc3-b87140071d00","system_id":"levelo_inurba_marseille","lat":43.31188,"lon":5.40321,"is_reserved":false,"is_disabled":true,"rental_uris":{"android":"levelo://app?vid=373a1af5-2b90-40ba-bdc3-b87140071d00","ios":"levelo://app?vid=373a1af5-2b90-40ba-bdc3-b87140071d00"},"vehicle_type_id":"4","last_reported":1741676963,"current_range_meters":7200,"station_id":"","pricing_plan_id":"cebpf4jnsgd1na2vs0mg"},{"bike_id":"27ec60e3-b2e3-435c-ba4c-8372ab285bb1","system_id":"levelo_inurba_marseille","lat":43.28144,"lon":5.4266,"is_reserved":false,"is_disabled":false,"rental_uris":{"android":"levelo://app?vid=27ec60e3-b2e3-435c-ba4c-8372ab285bb1","ios":"levelo://app?vid=27ec60e3-b2e3-435c-ba4c-8372ab285bb1"},"vehicle_type_id":"4","last_reported":1741676963,"current_range_meters":7200,"station_id":"ce4bhnh2rcd13ifvqgug","pricing_plan_id":"cebpf4jnsgd1na2vs0mg"},{"bike_id":"e24ed85e-3539-42f2-9dbe-4ae80e70329d","system_id":"levelo_inurba_marseille","lat":43.3266,"lon":5.40991,"is_reserved":false,"is_disabled":false,"rental_uris":{"android":"levelo://app?vid=e24ed85e-3539-42f2-9dbe-4ae80e70329d","ios":"levelo://app?vid=e24ed85e-3539-42f2-9dbe-4ae80e70329d"},"vehicle_type_id":"4","last_reported":1741676963,"current_range_meters":7200,"station_id":"ce4bhpp2rcd13ifvqhgg","pricing_plan_id":"cebpf4jnsgd1na2vs0mg"},{"bike_id":"855c9330-8b67-4292-9c70-1914a9315508","system_id":"levelo_inurba_marseille","lat":43.27952,"lon":5.4105,"is_reserved":false,"is_disabled":false,"rental_uris":{"android":"levelo://app?vid=855c9330-8b67-4292-9c70-1914a9315508","ios":"levelo://app?vid=855c9330-8b67-4292-9c70-1914a9315508"},"vehicle_type_id":"4","last_reported":1741676963,"current_range_meters":7200,"station_id":"ce4bhnp2rcd13ifvqh0g","pricing_plan_id":"cebpf4jnsgd1na2vs0mg"},{"bike_id":"a37d42aa-085d-4a56-8e08-eaf93bfe5e2b","system_id":"levelo_inurba_marseille","lat":43.31181,"lon":5.38707,"is_reserved":false,"is_disabled":true,"rental_uris":{"android":"levelo://app?vid=a37d42aa-085d-4a56-8e08-eaf93bfe5e2b","ios":"levelo://app?vid=a37d42aa-085d-4a56-8e08-eaf93bfe5e2b"},"vehicle_type_id":"4","last_reported":1741676963,"current_range_meters":7200,"station_id":"ce4bgv12rcd13ifvqcp0","pricing_plan_id":"cebpf4jnsgd1na2vs0mg"},{"bike_id":"7a47f462-81e5-499d-a724-837e71bc6c7b","system_id":"levelo_inurba_marseille","lat":43.297021,"lon":5.377182,"is_reserved":false,"is_disabled":false,"rental_uris":{"android":"levelo://app?vid=7a47f462-81e5-499d-a724-837e71bc6c7b","ios":"levelo://app?vid=7a47f462-81e5-499d-a724-837e71bc6c7b"},"vehicle_type_id":"4","last_reported":1741676963,"current_range_meters":7200,"station_id":"ce4bgup2rcd13ifvqco0","pricing_plan_id":"cebpf4jnsgd1na2vs0mg"},{"bike_id":"6684d28d-54a5-4673-88c7-74c037544388","system_id":"levelo_inurba_marseille","lat":43.30534,"lon":5.36727,"is_reserved":false,"is_disabled":false,"rental_uris":{"android":"levelo://app?vid=6684d28d-54a5-4673-88c7-74c037544388","ios":"levelo://app?vid=6684d28d-54a5-4673-88c7-74c037544388"},"vehicle_type_id":"4","last_reported":1741676963,"current_range_meters":8000,"station_id":"ce4bgrp2rcd13ifvqc9g","pricing_plan_id":"cebpf4jnsgd1na2vs0mg"},{"bike_id":"9ad3941c-a1ac-4563-9a21-7dd980942c2e","system_id":"levelo_inurba_marseille","lat":43.26023,"lon":5.3755,"is_reserved":false,"is_disabled":true,"rental_uris":{"android":"levelo://app?vid=9ad3941c-a1ac-4563-9a21-7dd980942c2e","ios":"levelo://app?vid=9ad3941c-a1ac-4563-9a21-7dd980942c2e"},"vehicle_type_id":"4","last_reported":1741676963,"current_range_meters":8000,"station_id":"ce4bhgh2rcd13ifvqfa0","pricing_plan_id":"cebpf4jnsgd1na2vs0mg"},{"bike_id":"10a93a3f-eec1-4069-9dee-564bf5e0d5e9","system_id":"levelo_inurba_marseille","lat":43.27491,"lon":5.42473,"is_reserved":false,"is_disabled":false,"rental_uris":{"android":"levelo://app?vid=10a93a3f-eec1-4069-9dee-564bf5e0d5e9","ios":"levelo://app?vid=10a93a3f-eec1-4069-9dee-564bf5e0d5e9"},"vehicle_type_id":"4","last_reported":1741676963,"current_range_meters":8000,"station_id":"ce4bhn92rcd13ifvqgrg","pricing_plan_id":"cebpf4jnsgd1na2vs0mg"},{"bike_id":"b278b3c4-2ae6-420b-9912-84f117f261e6","system_id":"levelo_inurba_marseille","lat":43.28696,"lon":5.38645,"is_reserved":false,"is_disabled":false,"rental_uris":{"android":"levelo://app?vid=b278b3c4-2ae6-420b-9912-84f117f261e6","ios":"levelo://app?vid=b278b3c4-2ae6-420b-9912-84f117f261e6"},"vehicle_type_id":"4","last_reported":1741676963,"current_range_meters":8000,"station_id":"ce4bh492rcd13ifvqdug","pricing_plan_id":"cebpf4jnsgd1na2vs0mg"},{"bike_id":"f712fb15-3dfe-4943-a632-07f93a7cf607","system_id":"levelo_inurba_marseille","lat":43.29606,"lon":5.38108,"is_reserved":false,"is_disabled":false,"rental_uris":{"android":"levelo://app?vid=f712fb15-3dfe-4943-a632-07f93a7cf607","ios":"levelo://app?vid=f712fb15-3dfe-4943-a632-07f93a7cf607"},"vehicle_type_id":"4","last_reported":1741676963,"current_range_meters":8000,"station_id":"ce4bgl12rcd13ifvqbo0","pricing_plan_id":"cebpf4jnsgd1na2vs0mg"},{"bike_id":"d8a08524-68eb-4ea2-9817-725f7d1839a6","system_id":"levelo_inurba_marseille","lat":43.30411,"lon":5.40953,"is_reserved":false,"is_disabled":false,"rental_uris":{"android":"levelo://app?vid=d8a08524-68eb-4ea2-9817-725f7d1839a6","ios":"levelo://app?vid=d8a08524-68eb-4ea2-9817-725f7d1839a6"},"vehicle_type_id":"4","last_reported":1741676963,"current_range_meters":8000,"station_id":"","pricing_plan_id":"cebpf4jnsgd1na2vs0mg"},{"bike_id":"137de395-8bd8-45ae-8605-52b797a9718a","system_id":"levelo_inurba_marseille","lat":43.33728,"lon":5.391848,"is_reserved":false,"is_disabled":false,"rental_uris":{"android":"levelo://app?vid=137de395-8bd8-45ae-8605-52b797a9718a","ios":"levelo://app?vid=137de395-8bd8-45ae-8605-52b797a9718a"},"vehicle_type_id":"4","last_reported":1741676963,"current_range_meters":8400,"station_id":"ce4bhq12rcd13ifvqhhg","pricing_plan_id":"cebpf4jnsgd1na2vs0mg"},{"bike_id":"35c21be5-136d-4361-912d-4b83ae0c4701","system_id":"levelo_inurba_marseille","lat":43.3031,"lon":5.3688,"is_reserved":false,"is_disabled":false,"rental_uris":{"android":"levelo://app?vid=35c21be5-136d-4361-912d-4b83ae0c4701","ios":"levelo://app?vid=35c21be5-136d-4361-912d-4b83ae0c4701"},"vehicle_type_id":"4","last_reported":1741676963,"current_range_meters":8400,"station_id":"ce4bgqh2rcd13ifvqc5g","pricing_plan_id":"cebpf4jnsgd1na2vs0mg"},{"bike_id":"54afd193-ee95-4f5e-975a-c9018d9dcb98","system_id":"levelo_inurba_marseille","lat":43.32359,"lon":5.3677,"is_reserved":false,"is_disabled":false,"rental_uris":{"android":"levelo://app?vid=54afd193-ee95-4f5e-975a-c9018d9dcb98","ios":"levelo://app?vid=54afd193-ee95-4f5e-975a-c9018d9dcb98"},"vehicle_type_id":"4","last_reported":1741676963,"current_range_meters":8400,"station_id":"ce4bhsh2rcd13ifvqi2g","pricing_plan_id":"cebpf4jnsgd1na2vs0mg"},{"bike_id":"0e1deb58-e228-4300-a142-75e8c5999c7c","system_id":"levelo_inurba_marseille","lat":43.25818,"lon":5.3944,"is_reserved":false,"is_disabled":false,"rental_uris":{"android":"levelo://app?vid=0e1deb58-e228-4300-a142-75e8c5999c7c","ios":"levelo://app?vid=0e1deb58-e228-4300-a142-75e8c5999c7c"},"vehicle_type_id":"4","last_reported":1741676963,"current_range_meters":8000,"station_id":"ce4bhip2rcd13ifvqft0","pricing_plan_id":"cebpf4jnsgd1na2vs0mg"},{"bike_id":"ceb4234d-8544-4a1a-ba56-fe9dc61b42e3","system_id":"levelo_inurba_marseille","lat":43.28432,"lon":5.38461,"is_reserved":false,"is_disabled":false,"rental_uris":{"android":"levelo://app?vid=ceb4234d-8544-4a1a-ba56-fe9dc61b42e3","ios":"levelo://app?vid=ceb4234d-8544-4a1a-ba56-fe9dc61b42e3"},"vehicle_type_id":"4","last_reported":1741676963,"current_range_meters":8800,"station_id":"ce4bh512rcd13ifvqe3g","pricing_plan_id":"cebpf4jnsgd1na2vs0mg"},{"bike_id":"d2ac0aa6-492c-406a-8f30-81aab53fe76b","system_id":"levelo_inurba_marseille","lat":43.24182,"lon":5.39729,"is_reserved":false,"is_disabled":false,"rental_uris":{"android":"levelo://app?vid=d2ac0aa6-492c-406a-8f30-81aab53fe76b","ios":"levelo://app?vid=d2ac0aa6-492c-406a-8f30-81aab53fe76b"},"vehicle_type_id":"4","last_reported":1741676963,"current_range_meters":8800,"station_id":"ce4bhn12rcd13ifvqgpg","pricing_plan_id":"cebpf4jnsgd1na2vs0mg"},{"bike_id":"1e7796ce-bdc6-4cac-9cf7-413320c9b529","system_id":"levelo_inurba_marseille","lat":43.31335,"lon":5.3674,"is_reserved":false,"is_disabled":false,"rental_uris":{"android":"levelo://app?vid=1e7796ce-bdc6-4cac-9cf7-413320c9b529","ios":"levelo://app?vid=1e7796ce-bdc6-4cac-9cf7-413320c9b529"},"vehicle_type_id":"4","last_reported":1741676963,"current_range_meters":8800,"station_id":"","pricing_plan_id":"cebpf4jnsgd1na2vs0mg"},{"bike_id":"99cafb72-467e-4440-850a-6498b98751a8","system_id":"levelo_inurba_marseille","lat":43.303758,"lon":5.367829,"is_reserved":false,"is_disabled":false,"rental_uris":{"android":"levelo://app?vid=99cafb72-467e-4440-850a-6498b98751a8","ios":"levelo://app?vid=99cafb72-467e-4440-850a-6498b98751a8"},"vehicle_type_id":"4","last_reported":1741676963,"current_range_meters":8800,"station_id":"","pricing_plan_id":"cebpf4jnsgd1na2vs0mg"},{"bike_id":"e1498ebd-a42c-474f-8279-2c2e9cca71d4","system_id":"levelo_inurba_marseille","lat":43.288324,"lon":5.38229,"is_reserved":false,"is_disabled":false,"rental_uris":{"android":"levelo://app?vid=e1498ebd-a42c-474f-8279-2c2e9cca71d4","ios":"levelo://app?vid=e1498ebd-a42c-474f-8279-2c2e9cca71d4"},"vehicle_type_id":"4","last_reported":1741676963,"current_range_meters":8800,"station_id":"","pricing_plan_id":"cebpf4jnsgd1na2vs0mg"},{"bike_id":"0237689c-b5f5-4c16-a927-51dc56fce20a","system_id":"levelo_inurba_marseille","lat":43.31182,"lon":5.38711,"is_reserved":false,"is_disabled":false,"rental_uris":{"android":"levelo://app?vid=0237689c-b5f5-4c16-a927-51dc56fce20a","ios":"levelo://app?vid=0237689c-b5f5-4c16-a927-51dc56fce20a"},"vehicle_type_id":"4","last_reported":1741676963,"current_range_meters":8800,"station_id":"ce4bgv12rcd13ifvqcp0","pricing_plan_id":"cebpf4jnsgd1na2vs0mg"},{"bike_id":"33693a23-de93-4370-bba2-a86596247d48","system_id":"levelo_inurba_marseille","lat":43.25003,"lon":5.38925,"is_reserved":false,"is_disabled":false,"rental_uris":{"android":"levelo://app?vid=33693a23-de93-4370-bba2-a86596247d48","ios":"levelo://app?vid=33693a23-de93-4370-bba2-a86596247d48"},"vehicle_type_id":"4","last_reported":1741676963,"current_range_meters":8800,"station_id":"ce4bhgp2rcd13ifvqfd0","pricing_plan_id":"cebpf4jnsgd1na2vs0mg"},{"bike_id":"ad9885b8-46bd-41dc-b0e6-4f15bcb85518","system_id":"levelo_inurba_marseille","lat":43.310824,"lon":5.424336,"is_reserved":false,"is_disabled":false,"rental_uris":{"android":"levelo://app?vid=ad9885b8-46bd-41dc-b0e6-4f15bcb85518","ios":"levelo://app?vid=ad9885b8-46bd-41dc-b0e6-4f15bcb85518"},"vehicle_type_id":"4","last_reported":1741676963,"current_range_meters":8800,"station_id":"ce4bhp92rcd13ifvqhag","pricing_plan_id":"cebpf4jnsgd1na2vs0mg"},{"bike_id":"c62094b0-2a20-43cd-9e4f-8a087431e68a","system_id":"levelo_inurba_marseille","lat":43.29254,"lon":5.40148,"is_reserved":false,"is_disabled":true,"rental_uris":{"android":"levelo://app?vid=c62094b0-2a20-43cd-9e4f-8a087431e68a","ios":"levelo://app?vid=c62094b0-2a20-43cd-9e4f-8a087431e68a"},"vehicle_type_id":"4","last_reported":1741676963,"current_range_meters":8800,"station_id":"ce4bh312rcd13ifvqdk0","pricing_plan_id":"cebpf4jnsgd1na2vs0mg"},{"bike_id":"8b2aca38-0d0c-4a77-9561-6ffff6035a42","system_id":"levelo_inurba_marseille","lat":43.295239,"lon":5.390276,"is_reserved":false,"is_disabled":false,"rental_uris":{"android":"levelo://app?vid=8b2aca38-0d0c-4a77-9561-6ffff6035a42","ios":"levelo://app?vid=8b2aca38-0d0c-4a77-9561-6ffff6035a42"},"vehicle_type_id":"4","last_reported":1741676963,"current_range_meters":8800,"station_id":"ce4bh3p2rcd13ifvqdp0","pricing_plan_id":"cebpf4jnsgd1na2vs0mg"},{"bike_id":"4491a1e2-eb06-49d1-bf0c-ffab94d6b1ae","system_id":"levelo_inurba_marseille","lat":43.24122,"lon":5.39752,"is_reserved":false,"is_disabled":true,"rental_uris":{"android":"levelo://app?vid=4491a1e2-eb06-49d1-bf0c-ffab94d6b1ae","ios":"levelo://app?vid=4491a1e2-eb06-49d1-bf0c-ffab94d6b1ae"},"vehicle_type_id":"4","last_reported":1741676963,"current_range_meters":9200,"station_id":"","pricing_plan_id":"cebpf4jnsgd1na2vs0mg"},{"bike_id":"3ae2fc35-8837-4ede-9008-97a6ccab6580","system_id":"levelo_inurba_marseille","lat":43.29626,"lon":5.40597,"is_reserved":false,"is_disabled":false,"rental_uris":{"android":"levelo://app?vid=3ae2fc35-8837-4ede-9008-97a6ccab6580","ios":"levelo://app?vid=3ae2fc35-8837-4ede-9008-97a6ccab6580"},"vehicle_type_id":"4","last_reported":1741676963,"current_range_meters":8800,"station_id":"ce4bgt92rcd13ifvqcf0","pricing_plan_id":"cebpf4jnsgd1na2vs0mg"},{"bike_id":"9ec7e908-b0df-42ed-8d89-ffbf02b65291","system_id":"levelo_inurba_marseille","lat":43.23141,"lon":5.43708,"is_reserved":false,"is_disabled":false,"rental_uris":{"android":"levelo://app?vid=9ec7e908-b0df-42ed-8d89-ffbf02b65291","ios":"levelo://app?vid=9ec7e908-b0df-42ed-8d89-ffbf02b65291"},"vehicle_type_id":"4","last_reported":1741676963,"current_range_meters":9200,"station_id":"ce4bhmp2rcd13ifvqgog","pricing_plan_id":"cebpf4jnsgd1na2vs0mg"},{"bike_id":"8dc2c2dc-de0f-4fd2-b739-faf253fff5e5","system_id":"levelo_inurba_marseille","lat":43.2317,"lon":5.43742,"is_reserved":false,"is_disabled":false,"rental_uris":{"android":"levelo://app?vid=8dc2c2dc-de0f-4fd2-b739-faf253fff5e5","ios":"levelo://app?vid=8dc2c2dc-de0f-4fd2-b739-faf253fff5e5"},"vehicle_type_id":"4","last_reported":1741676963,"current_range_meters":9200,"station_id":"ce4bhmp2rcd13ifvqgog","pricing_plan_id":"cebpf4jnsgd1na2vs0mg"},{"bike_id":"787941c7-68e4-4a9e-b1f1-d3bf469258e1","system_id":"levelo_inurba_marseille","lat":43.24158,"lon":5.39712,"is_reserved":false,"is_disabled":false,"rental_uris":{"android":"levelo://app?vid=787941c7-68e4-4a9e-b1f1-d3bf469258e1","ios":"levelo://app?vid=787941c7-68e4-4a9e-b1f1-d3bf469258e1"},"vehicle_type_id":"4","last_reported":1741676963,"current_range_meters":9200,"station_id":"ce4bhn12rcd13ifvqgpg","pricing_plan_id":"cebpf4jnsgd1na2vs0mg"},{"bike_id":"7e384d90-9cdb-4adf-a875-0e3113bacef4","system_id":"levelo_inurba_marseille","lat":43.310723,"lon":5.371928,"is_reserved":false,"is_disabled":false,"rental_uris":{"android":"levelo://app?vid=7e384d90-9cdb-4adf-a875-0e3113bacef4","ios":"levelo://app?vid=7e384d90-9cdb-4adf-a875-0e3113bacef4"},"vehicle_type_id":"4","last_reported":1741676963,"current_range_meters":9200,"station_id":"","pricing_plan_id":"cebpf4jnsgd1na2vs0mg"},{"bike_id":"af6e81e9-b175-4fc6-baac-d5293e3edc7b","system_id":"levelo_inurba_marseille","lat":43.30467,"lon":5.3791,"is_reserved":false,"is_disabled":false,"rental_uris":{"android":"levelo://app?vid=af6e81e9-b175-4fc6-baac-d5293e3edc7b","ios":"levelo://app?vid=af6e81e9-b175-4fc6-baac-d5293e3edc7b"},"vehicle_type_id":"4","last_reported":1741676963,"current_range_meters":9200,"station_id":"ce4bgup2rcd13ifvqcn0","pricing_plan_id":"cebpf4jnsgd1na2vs0mg"},{"bike_id":"a823a252-79ed-4eab-8ed3-c099ec187b1d","system_id":"levelo_inurba_marseille","lat":43.27056,"lon":5.42287,"is_reserved":false,"is_disabled":false,"rental_uris":{"android":"levelo://app?vid=a823a252-79ed-4eab-8ed3-c099ec187b1d","ios":"levelo://app?vid=a823a252-79ed-4eab-8ed3-c099ec187b1d"},"vehicle_type_id":"4","last_reported":1741676963,"current_range_meters":9200,"station_id":"ce4bhk92rcd13ifvqgb0","pricing_plan_id":"cebpf4jnsgd1na2vs0mg"},{"bike_id":"c2848185-3b42-44f9-b163-5d9be4b7c26e","system_id":"levelo_inurba_marseille","lat":43.229324,"lon":5.353861,"is_reserved":false,"is_disabled":false,"rental_uris":{"android":"levelo://app?vid=c2848185-3b42-44f9-b163-5d9be4b7c26e","ios":"levelo://app?vid=c2848185-3b42-44f9-b163-5d9be4b7c26e"},"vehicle_type_id":"4","last_reported":1741676963,"current_range_meters":9200,"station_id":"cpo3532slgdg3j2ikp40","pricing_plan_id":"cebpf4jnsgd1na2vs0mg"},{"bike_id":"09bbb690-af86-458c-bbad-70d10e2033ee","system_id":"levelo_inurba_marseille","lat":43.23061,"lon":5.35524,"is_reserved":false,"is_disabled":false,"rental_uris":{"android":"levelo://app?vid=09bbb690-af86-458c-bbad-70d10e2033ee","ios":"levelo://app?vid=09bbb690-af86-458c-bbad-70d10e2033ee"},"vehicle_type_id":"4","last_reported":1741676963,"current_range_meters":9200,"station_id":"cpo3342slgdg3j2ifvpg","pricing_plan_id":"cebpf4jnsgd1na2vs0mg"},{"bike_id":"e6bfedde-b8d3-483f-9c12-e45beb87d7c9","system_id":"levelo_inurba_marseille","lat":43.23148,"lon":5.43738,"is_reserved":false,"is_disabled":false,"rental_uris":{"android":"levelo://app?vid=e6bfedde-b8d3-483f-9c12-e45beb87d7c9","ios":"levelo://app?vid=e6bfedde-b8d3-483f-9c12-e45beb87d7c9"},"vehicle_type_id":"4","last_reported":1741676963,"current_range_meters":9200,"station_id":"ce4bhmp2rcd13ifvqgog","pricing_plan_id":"cebpf4jnsgd1na2vs0mg"},{"bike_id":"51772d6c-c0b3-48d9-81cb-ae5466e6f822","system_id":"levelo_inurba_marseille","lat":43.231481,"lon":5.437263,"is_reserved":false,"is_disabled":false,"rental_uris":{"android":"levelo://app?vid=51772d6c-c0b3-48d9-81cb-ae5466e6f822","ios":"levelo://app?vid=51772d6c-c0b3-48d9-81cb-ae5466e6f822"},"vehicle_type_id":"4","last_reported":1741676963,"current_range_meters":9200,"station_id":"ce4bhmp2rcd13ifvqgog","pricing_plan_id":"cebpf4jnsgd1na2vs0mg"},{"bike_id":"acc1658b-7ea3-44a5-a65b-40f1faa0438d","system_id":"levelo_inurba_marseille","lat":43.325331,"lon":5.414483,"is_reserved":false,"is_disabled":false,"rental_uris":{"android":"levelo://app?vid=acc1658b-7ea3-44a5-a65b-40f1faa0438d","ios":"levelo://app?vid=acc1658b-7ea3-44a5-a65b-40f1faa0438d"},"vehicle_type_id":"4","last_reported":1741676963,"current_range_meters":9600,"station_id":"ce4bhq12rcd13ifvqhhg","pricing_plan_id":"cebpf4jnsgd1na2vs0mg"},{"bike_id":"a26045c1-1145-4eb4-a1da-7da4f3afe0e6","system_id":"levelo_inurba_marseille","lat":43.28425,"lon":5.35012,"is_reserved":false,"is_disabled":false,"rental_uris":{"android":"levelo://app?vid=a26045c1-1145-4eb4-a1da-7da4f3afe0e6","ios":"levelo://app?vid=a26045c1-1145-4eb4-a1da-7da4f3afe0e6"},"vehicle_type_id":"4","last_reported":1741676963,"current_range_meters":9600,"station_id":"ce4bhbh2rcd13ifvqepg","pricing_plan_id":"cebpf4jnsgd1na2vs0mg"},{"bike_id":"1920f354-c4b5-4d1a-bc6f-aba0c6cd151e","system_id":"levelo_inurba_marseille","lat":43.27812,"lon":5.40717,"is_reserved":false,"is_disabled":false,"rental_uris":{"android":"levelo://app?vid=1920f354-c4b5-4d1a-bc6f-aba0c6cd151e","ios":"levelo://app?vid=1920f354-c4b5-4d1a-bc6f-aba0c6cd151e"},"vehicle_type_id":"4","last_reported":1741676963,"current_range_meters":9600,"station_id":"ce4bhnh2rcd13ifvqgtg","pricing_plan_id":"cebpf4jnsgd1na2vs0mg"},{"bike_id":"27459785-4edf-4f27-b842-1984a62c6dde","system_id":"levelo_inurba_marseille","lat":43.25079,"lon":5.39519,"is_reserved":false,"is_disabled":false,"rental_uris":{"android":"levelo://app?vid=27459785-4edf-4f27-b842-1984a62c6dde","ios":"levelo://app?vid=27459785-4edf-4f27-b842-1984a62c6dde"},"vehicle_type_id":"4","last_reported":1741676963,"current_range_meters":9600,"station_id":"ce4bhm12rcd13ifvqgkg","pricing_plan_id":"cebpf4jnsgd1na2vs0mg"},{"bike_id":"80771939-f406-42f7-81c5-33180fd8a338","system_id":"levelo_inurba_marseille","lat":43.23197,"lon":5.35563,"is_reserved":false,"is_disabled":false,"rental_uris":{"android":"levelo://app?vid=80771939-f406-42f7-81c5-33180fd8a338","ios":"levelo://app?vid=80771939-f406-42f7-81c5-33180fd8a338"},"vehicle_type_id":"4","last_reported":1741676963,"current_range_meters":9600,"station_id":"ce4bhu92rcd13ifvqi70","pricing_plan_id":"cebpf4jnsgd1na2vs0mg"},{"bike_id":"5642e684-db30-44c5-8b62-bc684f0d10a2","system_id":"levelo_inurba_marseille","lat":43.27501,"lon":5.42463,"is_reserved":false,"is_disabled":false,"rental_uris":{"android":"levelo://app?vid=5642e684-db30-44c5-8b62-bc684f0d10a2","ios":"levelo://app?vid=5642e684-db30-44c5-8b62-bc684f0d10a2"},"vehicle_type_id":"4","last_reported":1741676963,"current_range_meters":9600,"station_id":"ce4bhn92rcd13ifvqgrg","pricing_plan_id":"cebpf4jnsgd1na2vs0mg"},{"bike_id":"565e4eee-4d80-4fb2-9b25-0a63f8185296","system_id":"levelo_inurba_marseille","lat":43.28125,"lon":5.42688,"is_reserved":false,"is_disabled":false,"rental_uris":{"android":"levelo://app?vid=565e4eee-4d80-4fb2-9b25-0a63f8185296","ios":"levelo://app?vid=565e4eee-4d80-4fb2-9b25-0a63f8185296"},"vehicle_type_id":"4","last_reported":1741676963,"current_range_meters":10000,"station_id":"ce4bhnh2rcd13ifvqgug","pricing_plan_id":"cebpf4jnsgd1na2vs0mg"},{"bike_id":"ea5488bd-3cdd-4d99-89a3-b1b7539a21c6","system_id":"levelo_inurba_marseille","lat":43.28933,"lon":5.3963,"is_reserved":false,"is_disabled":false,"rental_uris":{"android":"levelo://app?vid=ea5488bd-3cdd-4d99-89a3-b1b7539a21c6","ios":"levelo://app?vid=ea5488bd-3cdd-4d99-89a3-b1b7539a21c6"},"vehicle_type_id":"4","last_reported":1741676963,"current_range_meters":10000,"station_id":"ce4bh3h2rcd13ifvqdn0","pricing_plan_id":"cebpf4jnsgd1na2vs0mg"},{"bike_id":"b57f42b3-cf06-45a0-b0cd-bcd18ab1ec34","system_id":"levelo_inurba_marseille","lat":43.30458,"lon":5.37924,"is_reserved":false,"is_disabled":false,"rental_uris":{"android":"levelo://app?vid=b57f42b3-cf06-45a0-b0cd-bcd18ab1ec34","ios":"levelo://app?vid=b57f42b3-cf06-45a0-b0cd-bcd18ab1ec34"},"vehicle_type_id":"4","last_reported":1741676963,"current_range_meters":10000,"station_id":"ce4bgup2rcd13ifvqcn0","pricing_plan_id":"cebpf4jnsgd1na2vs0mg"},{"bike_id":"a6907114-91e5-4406-958d-4b895c3084d0","system_id":"levelo_inurba_marseille","lat":43.29901,"lon":5.43672,"is_reserved":false,"is_disabled":false,"rental_uris":{"android":"levelo://app?vid=a6907114-91e5-4406-958d-4b895c3084d0","ios":"levelo://app?vid=a6907114-91e5-4406-958d-4b895c3084d0"},"vehicle_type_id":"4","last_reported":1741676963,"current_range_meters":10000,"station_id":"ce4bhpp2rcd13ifvqhfg","pricing_plan_id":"cebpf4jnsgd1na2vs0mg"},{"bike_id":"9ec52ed9-9c0e-4e61-a378-5327e3711632","system_id":"levelo_inurba_marseille","lat":43.24732,"lon":5.4116,"is_reserved":false,"is_disabled":false,"rental_uris":{"android":"levelo://app?vid=9ec52ed9-9c0e-4e61-a378-5327e3711632","ios":"levelo://app?vid=9ec52ed9-9c0e-4e61-a378-5327e3711632"},"vehicle_type_id":"4","last_reported":1741676963,"current_range_meters":10000,"station_id":"","pricing_plan_id":"cebpf4jnsgd1na2vs0mg"},{"bike_id":"0755bdbc-0f44-48cb-b443-efca9fcfcc79","system_id":"levelo_inurba_marseille","lat":43.23155,"lon":5.43714,"is_reserved":false,"is_disabled":false,"rental_uris":{"android":"levelo://app?vid=0755bdbc-0f44-48cb-b443-efca9fcfcc79","ios":"levelo://app?vid=0755bdbc-0f44-48cb-b443-efca9fcfcc79"},"vehicle_type_id":"4","last_reported":1741676963,"current_range_meters":11600,"station_id":"ce4bhmp2rcd13ifvqgog","pricing_plan_id":"cebpf4jnsgd1na2vs0mg"},{"bike_id":"b0dddecf-9116-4a66-9983-62de09dcadf3","system_id":"levelo_inurba_marseille","lat":43.27823,"lon":5.42095,"is_reserved":false,"is_disabled":false,"rental_uris":{"android":"levelo://app?vid=b0dddecf-9116-4a66-9983-62de09dcadf3","ios":"levelo://app?vid=b0dddecf-9116-4a66-9983-62de09dcadf3"},"vehicle_type_id":"4","last_reported":1741676963,"current_range_meters":10800,"station_id":"","pricing_plan_id":"cebpf4jnsgd1na2vs0mg"},{"bike_id":"89059245-3b8b-486d-b024-20583b4ae4d8","system_id":"levelo_inurba_marseille","lat":43.303114,"lon":5.368971,"is_reserved":false,"is_disabled":false,"rental_uris":{"android":"levelo://app?vid=89059245-3b8b-486d-b024-20583b4ae4d8","ios":"levelo://app?vid=89059245-3b8b-486d-b024-20583b4ae4d8"},"vehicle_type_id":"4","last_reported":1741676963,"current_range_meters":10800,"station_id":"ce4bgqh2rcd13ifvqc5g","pricing_plan_id":"cebpf4jnsgd1na2vs0mg"},{"bike_id":"fdae8c57-1100-499f-a78a-815b16671136","system_id":"levelo_inurba_marseille","lat":43.24539,"lon":5.39549,"is_reserved":false,"is_disabled":false,"rental_uris":{"android":"levelo://app?vid=fdae8c57-1100-499f-a78a-815b16671136","ios":"levelo://app?vid=fdae8c57-1100-499f-a78a-815b16671136"},"vehicle_type_id":"4","last_reported":1741676963,"current_range_meters":10800,"station_id":"ce4bhlp2rcd13ifvqgjg","pricing_plan_id":"cebpf4jnsgd1na2vs0mg"},{"bike_id":"1a8f540a-c2f2-4927-9e50-4f3e3a3faa76","system_id":"levelo_inurba_marseille","lat":43.25109,"lon":5.40318,"is_reserved":false,"is_disabled":false,"rental_uris":{"android":"levelo://app?vid=1a8f540a-c2f2-4927-9e50-4f3e3a3faa76","ios":"levelo://app?vid=1a8f540a-c2f2-4927-9e50-4f3e3a3faa76"},"vehicle_type_id":"4","last_reported":1741676963,"current_range_meters":10800,"station_id":"ce4bhlh2rcd13ifvqgig","pricing_plan_id":"cebpf4jnsgd1na2vs0mg"},{"bike_id":"f8e0aebb-9570-4e43-9f51-19f51db951a0","system_id":"levelo_inurba_marseille","lat":43.26545,"lon":5.39056,"is_reserved":false,"is_disabled":true,"rental_uris":{"android":"levelo://app?vid=f8e0aebb-9570-4e43-9f51-19f51db951a0","ios":"levelo://app?vid=f8e0aebb-9570-4e43-9f51-19f51db951a0"},"vehicle_type_id":"4","last_reported":1741676963,"current_range_meters":10800,"station_id":"ce4bhe12rcd13ifvqf30","pricing_plan_id":"cebpf4jnsgd1na2vs0mg"},{"bike_id":"f640465e-8c9e-425a-8e36-08d8d5201bf6","system_id":"levelo_inurba_marseille","lat":43.231931,"lon":5.355526,"is_reserved":false,"is_disabled":false,"rental_uris":{"android":"levelo://app?vid=f640465e-8c9e-425a-8e36-08d8d5201bf6","ios":"levelo://app?vid=f640465e-8c9e-425a-8e36-08d8d5201bf6"},"vehicle_type_id":"4","last_reported":1741676963,"current_range_meters":10800,"station_id":"ce4bhu92rcd13ifvqi70","pricing_plan_id":"cebpf4jnsgd1na2vs0mg"},{"bike_id":"58d1b5b3-d322-4418-97d0-3066ec3d9afc","system_id":"levelo_inurba_marseille","lat":43.23195,"lon":5.35555,"is_reserved":false,"is_disabled":false,"rental_uris":{"android":"levelo://app?vid=58d1b5b3-d322-4418-97d0-3066ec3d9afc","ios":"levelo://app?vid=58d1b5b3-d322-4418-97d0-3066ec3d9afc"},"vehicle_type_id":"4","last_reported":1741676963,"current_range_meters":10800,"station_id":"ce4bhu92rcd13ifvqi70","pricing_plan_id":"cebpf4jnsgd1na2vs0mg"},{"bike_id":"b9680ac6-d12e-4a12-9dd8-1396db5e067b","system_id":"levelo_inurba_marseille","lat":43.23165,"lon":5.43689,"is_reserved":false,"is_disabled":false,"rental_uris":{"android":"levelo://app?vid=b9680ac6-d12e-4a12-9dd8-1396db5e067b","ios":"levelo://app?vid=b9680ac6-d12e-4a12-9dd8-1396db5e067b"},"vehicle_type_id":"4","last_reported":1741676963,"current_range_meters":11200,"station_id":"ce4bhmp2rcd13ifvqgog","pricing_plan_id":"cebpf4jnsgd1na2vs0mg"},{"bike_id":"6423918c-790a-4fd7-b29d-6d9df26db5f9","system_id":"levelo_inurba_marseille","lat":43.2943,"lon":5.40881,"is_reserved":false,"is_disabled":false,"rental_uris":{"android":"levelo://app?vid=6423918c-790a-4fd7-b29d-6d9df26db5f9","ios":"levelo://app?vid=6423918c-790a-4fd7-b29d-6d9df26db5f9"},"vehicle_type_id":"4","last_reported":1741676963,"current_range_meters":11200,"station_id":"","pricing_plan_id":"cebpf4jnsgd1na2vs0mg"},{"bike_id":"e25e14d6-c2b6-4196-9765-6f9e7377ab86","system_id":"levelo_inurba_marseille","lat":43.30357,"lon":5.41884,"is_reserved":false,"is_disabled":false,"rental_uris":{"android":"levelo://app?vid=e25e14d6-c2b6-4196-9765-6f9e7377ab86","ios":"levelo://app?vid=e25e14d6-c2b6-4196-9765-6f9e7377ab86"},"vehicle_type_id":"4","last_reported":1741676963,"current_range_meters":11200,"station_id":"ce4bhop2rcd13ifvqh7g","pricing_plan_id":"cebpf4jnsgd1na2vs0mg"},{"bike_id":"9e5e5c9b-2dc0-4727-b0db-055726a9a62c","system_id":"levelo_inurba_marseille","lat":43.284187,"lon":5.375182,"is_reserved":false,"is_disabled":false,"rental_uris":{"android":"levelo://app?vid=9e5e5c9b-2dc0-4727-b0db-055726a9a62c","ios":"levelo://app?vid=9e5e5c9b-2dc0-4727-b0db-055726a9a62c"},"vehicle_type_id":"4","last_reported":1741676963,"current_range_meters":11200,"station_id":"ce4bh412rcd13ifvqds0","pricing_plan_id":"cebpf4jnsgd1na2vs0mg"},{"bike_id":"98d8a154-c6b2-4d96-82cd-afc7786dc4e4","system_id":"levelo_inurba_marseille","lat":43.30806,"lon":5.43519,"is_reserved":false,"is_disabled":true,"rental_uris":{"android":"levelo://app?vid=98d8a154-c6b2-4d96-82cd-afc7786dc4e4","ios":"levelo://app?vid=98d8a154-c6b2-4d96-82cd-afc7786dc4e4"},"vehicle_type_id":"4","last_reported":1741676963,"current_range_meters":11200,"station_id":"ce4bhph2rcd13ifvqheg","pricing_plan_id":"cebpf4jnsgd1na2vs0mg"},{"bike_id":"02672eb4-7881-450b-8fc9-e2c5980815b8","system_id":"levelo_inurba_marseille","lat":43.24067,"lon":5.37775,"is_reserved":false,"is_disabled":false,"rental_uris":{"android":"levelo://app?vid=02672eb4-7881-450b-8fc9-e2c5980815b8","ios":"levelo://app?vid=02672eb4-7881-450b-8fc9-e2c5980815b8"},"vehicle_type_id":"4","last_reported":1741676963,"current_range_meters":11200,"station_id":"ce4bhnp2rcd13ifvqgvg","pricing_plan_id":"cebpf4jnsgd1na2vs0mg"},{"bike_id":"aaa6117f-695a-4870-93d8-ce1ed03dac44","system_id":"levelo_inurba_marseille","lat":43.30549,"lon":5.36539,"is_reserved":false,"is_disabled":true,"rental_uris":{"android":"levelo://app?vid=aaa6117f-695a-4870-93d8-ce1ed03dac44","ios":"levelo://app?vid=aaa6117f-695a-4870-93d8-ce1ed03dac44"},"vehicle_type_id":"4","last_reported":1741676963,"current_range_meters":11600,"station_id":"ce4bgs12rcd13ifvqcag","pricing_plan_id":"cebpf4jnsgd1na2vs0mg"},{"bike_id":"a3e991cd-2936-493d-9fcb-48f77e04aeb1","system_id":"levelo_inurba_marseille","lat":43.311615,"lon":5.387408,"is_reserved":false,"is_disabled":false,"rental_uris":{"android":"levelo://app?vid=a3e991cd-2936-493d-9fcb-48f77e04aeb1","ios":"levelo://app?vid=a3e991cd-2936-493d-9fcb-48f77e04aeb1"},"vehicle_type_id":"4","last_reported":1741676963,"current_range_meters":11600,"station_id":"ce4bgs12rcd13ifvqcag","pricing_plan_id":"cebpf4jnsgd1na2vs0mg"},{"bike_id":"714996a6-64f6-41af-a68f-e639f119975d","system_id":"levelo_inurba_marseille","lat":43.25085,"lon":5.39508,"is_reserved":false,"is_disabled":true,"rental_uris":{"android":"levelo://app?vid=714996a6-64f6-41af-a68f-e639f119975d","ios":"levelo://app?vid=714996a6-64f6-41af-a68f-e639f119975d"},"vehicle_type_id":"4","last_reported":1741676963,"current_range_meters":11600,"station_id":"ce4bhm12rcd13ifvqgkg","pricing_plan_id":"cebpf4jnsgd1na2vs0mg"},{"bike_id":"1ee9dbf5-b0e2-4af5-8fd1-f41f66f7bf91","system_id":"levelo_inurba_marseille","lat":43.30816,"lon":5.38148,"is_reserved":false,"is_disabled":false,"rental_uris":{"android":"levelo://app?vid=1ee9dbf5-b0e2-4af5-8fd1-f41f66f7bf91","ios":"levelo://app?vid=1ee9dbf5-b0e2-4af5-8fd1-f41f66f7bf91"},"vehicle_type_id":"4","last_reported":1741676963,"current_range_meters":11600,"station_id":"ce4bgt12rcd13ifvqce0","pricing_plan_id":"cebpf4jnsgd1na2vs0mg"},{"bike_id":"63efd6b9-d813-429c-b04f-99896658a589","system_id":"levelo_inurba_marseille","lat":43.27947,"lon":5.41044,"is_reserved":false,"is_disabled":false,"rental_uris":{"android":"levelo://app?vid=63efd6b9-d813-429c-b04f-99896658a589","ios":"levelo://app?vid=63efd6b9-d813-429c-b04f-99896658a589"},"vehicle_type_id":"4","last_reported":1741676963,"current_range_meters":12000,"station_id":"ce4bhnp2rcd13ifvqh0g","pricing_plan_id":"cebpf4jnsgd1na2vs0mg"},{"bike_id":"62ca53b8-1e4e-4910-a0a1-269f3f367cb3","system_id":"levelo_inurba_marseille","lat":43.27491,"lon":5.42452,"is_reserved":false,"is_disabled":false,"rental_uris":{"android":"levelo://app?vid=62ca53b8-1e4e-4910-a0a1-269f3f367cb3","ios":"levelo://app?vid=62ca53b8-1e4e-4910-a0a1-269f3f367cb3"},"vehicle_type_id":"4","last_reported":1741676963,"current_range_meters":12000,"station_id":"ce4bhn92rcd13ifvqgrg","pricing_plan_id":"cebpf4jnsgd1na2vs0mg"},{"bike_id":"25e3d1b9-451e-49bf-a160-305203be0a21","system_id":"levelo_inurba_marseille","lat":43.28159,"lon":5.42637,"is_reserved":false,"is_disabled":false,"rental_uris":{"android":"levelo://app?vid=25e3d1b9-451e-49bf-a160-305203be0a21","ios":"levelo://app?vid=25e3d1b9-451e-49bf-a160-305203be0a21"},"vehicle_type_id":"4","last_reported":1741676963,"current_range_meters":12000,"station_id":"ce4bhnh2rcd13ifvqgug","pricing_plan_id":"cebpf4jnsgd1na2vs0mg"},{"bike_id":"6bf2a12c-8e2e-4305-995a-5ba524d947aa","system_id":"levelo_inurba_marseille","lat":43.31693,"lon":5.40486,"is_reserved":false,"is_disabled":false,"rental_uris":{"android":"levelo://app?vid=6bf2a12c-8e2e-4305-995a-5ba524d947aa","ios":"levelo://app?vid=6bf2a12c-8e2e-4305-995a-5ba524d947aa"},"vehicle_type_id":"4","last_reported":1741676963,"current_range_meters":12000,"station_id":"ce4bh012rcd13ifvqd00","pricing_plan_id":"cebpf4jnsgd1na2vs0mg"},{"bike_id":"6247825b-5dfd-4737-b9f9-aa7055771cb8","system_id":"levelo_inurba_marseille","lat":43.28856,"lon":5.35847,"is_reserved":false,"is_disabled":false,"rental_uris":{"android":"levelo://app?vid=6247825b-5dfd-4737-b9f9-aa7055771cb8","ios":"levelo://app?vid=6247825b-5dfd-4737-b9f9-aa7055771cb8"},"vehicle_type_id":"4","last_reported":1741676963,"current_range_meters":12000,"station_id":"ce4bhb12rcd13ifvqem0","pricing_plan_id":"cebpf4jnsgd1na2vs0mg"},{"bike_id":"229d6555-c1cb-4114-b0d7-18be2fc2c415","system_id":"levelo_inurba_marseille","lat":43.28035,"lon":5.3694,"is_reserved":false,"is_disabled":false,"rental_uris":{"android":"levelo://app?vid=229d6555-c1cb-4114-b0d7-18be2fc2c415","ios":"levelo://app?vid=229d6555-c1cb-4114-b0d7-18be2fc2c415"},"vehicle_type_id":"4","last_reported":1741676963,"current_range_meters":12000,"station_id":"ce4bha12rcd13ifvqef0","pricing_plan_id":"cebpf4jnsgd1na2vs0mg"},{"bike_id":"6c84007a-3ce3-4c17-80eb-10442f8d6a75","system_id":"levelo_inurba_marseille","lat":43.30448,"lon":5.37906,"is_reserved":false,"is_disabled":false,"rental_uris":{"android":"levelo://app?vid=6c84007a-3ce3-4c17-80eb-10442f8d6a75","ios":"levelo://app?vid=6c84007a-3ce3-4c17-80eb-10442f8d6a75"},"vehicle_type_id":"4","last_reported":1741676963,"current_range_meters":12000,"station_id":"ce4bgup2rcd13ifvqcn0","pricing_plan_id":"cebpf4jnsgd1na2vs0mg"},{"bike_id":"8788ba1f-0302-4324-8ff2-c963e4002442","system_id":"levelo_inurba_marseille","lat":43.31049,"lon":5.38378,"is_reserved":false,"is_disabled":false,"rental_uris":{"android":"levelo://app?vid=8788ba1f-0302-4324-8ff2-c963e4002442","ios":"levelo://app?vid=8788ba1f-0302-4324-8ff2-c963e4002442"},"vehicle_type_id":"4","last_reported":1741676963,"current_range_meters":12400,"station_id":"ce4bgv92rcd13ifvqcr0","pricing_plan_id":"cebpf4jnsgd1na2vs0mg"},{"bike_id":"415e7a31-245d-4ead-9f33-dad092a04302","system_id":"levelo_inurba_marseille","lat":43.23064,"lon":5.35525,"is_reserved":false,"is_disabled":false,"rental_uris":{"android":"levelo://app?vid=415e7a31-245d-4ead-9f33-dad092a04302","ios":"levelo://app?vid=415e7a31-245d-4ead-9f33-dad092a04302"},"vehicle_type_id":"4","last_reported":1741676963,"current_range_meters":12400,"station_id":"cpo3342slgdg3j2ifvpg","pricing_plan_id":"cebpf4jnsgd1na2vs0mg"},{"bike_id":"8bf23d8f-6266-48b9-959c-b1f33cd75e0d","system_id":"levelo_inurba_marseille","lat":43.27304,"lon":5.39134,"is_reserved":false,"is_disabled":true,"rental_uris":{"android":"levelo://app?vid=8bf23d8f-6266-48b9-959c-b1f33cd75e0d","ios":"levelo://app?vid=8bf23d8f-6266-48b9-959c-b1f33cd75e0d"},"vehicle_type_id":"4","last_reported":1741676963,"current_range_meters":12400,"station_id":"ce4bhgp2rcd13ifvqfe0","pricing_plan_id":"cebpf4jnsgd1na2vs0mg"},{"bike_id":"cdd29a02-0905-4ed7-aa8a-6508ae564de9","system_id":"levelo_inurba_marseille","lat":43.27904,"lon":5.40607,"is_reserved":false,"is_disabled":false,"rental_uris":{"android":"levelo://app?vid=cdd29a02-0905-4ed7-aa8a-6508ae564de9","ios":"levelo://app?vid=cdd29a02-0905-4ed7-aa8a-6508ae564de9"},"vehicle_type_id":"4","last_reported":1741676963,"current_range_meters":12400,"station_id":"","pricing_plan_id":"cebpf4jnsgd1na2vs0mg"},{"bike_id":"11588c3a-9704-4d75-b9d6-ca8548713581","system_id":"levelo_inurba_marseille","lat":43.28486,"lon":5.3855,"is_reserved":false,"is_disabled":false,"rental_uris":{"android":"levelo://app?vid=11588c3a-9704-4d75-b9d6-ca8548713581","ios":"levelo://app?vid=11588c3a-9704-4d75-b9d6-ca8548713581"},"vehicle_type_id":"4","last_reported":1741676963,"current_range_meters":12400,"station_id":"ce4bh8p2rcd13ifvqeb0","pricing_plan_id":"cebpf4jnsgd1na2vs0mg"},{"bike_id":"c07b30f2-5274-4b4c-8d2b-9eb10ad8327f","system_id":"levelo_inurba_marseille","lat":43.30418,"lon":5.39746,"is_reserved":false,"is_disabled":false,"rental_uris":{"android":"levelo://app?vid=c07b30f2-5274-4b4c-8d2b-9eb10ad8327f","ios":"levelo://app?vid=c07b30f2-5274-4b4c-8d2b-9eb10ad8327f"},"vehicle_type_id":"4","last_reported":1741676963,"current_range_meters":12400,"station_id":"ce4bh092rcd13ifvqd20","pricing_plan_id":"cebpf4jnsgd1na2vs0mg"},{"bike_id":"41b066ce-3dd8-4a4d-ac3e-25d97d48d7f5","system_id":"levelo_inurba_marseille","lat":43.2894,"lon":5.39631,"is_reserved":false,"is_disabled":false,"rental_uris":{"android":"levelo://app?vid=41b066ce-3dd8-4a4d-ac3e-25d97d48d7f5","ios":"levelo://app?vid=41b066ce-3dd8-4a4d-ac3e-25d97d48d7f5"},"vehicle_type_id":"4","last_reported":1741676963,"current_range_meters":12400,"station_id":"ce4bh3h2rcd13ifvqdn0","pricing_plan_id":"cebpf4jnsgd1na2vs0mg"},{"bike_id":"3ef08012-3bdd-4f38-ae5a-f9e340dd8911","system_id":"levelo_inurba_marseille","lat":43.31344,"lon":5.3672,"is_reserved":false,"is_disabled":false,"rental_uris":{"android":"levelo://app?vid=3ef08012-3bdd-4f38-ae5a-f9e340dd8911","ios":"levelo://app?vid=3ef08012-3bdd-4f38-ae5a-f9e340dd8911"},"vehicle_type_id":"4","last_reported":1741676963,"current_range_meters":12400,"station_id":"ce4bgr92rcd13ifvqc6g","pricing_plan_id":"cebpf4jnsgd1na2vs0mg"},{"bike_id":"9acab34d-76c9-4fd5-bed6-0265a89df8bb","system_id":"levelo_inurba_marseille","lat":43.25714,"lon":5.41125,"is_reserved":false,"is_disabled":false,"rental_uris":{"android":"levelo://app?vid=9acab34d-76c9-4fd5-bed6-0265a89df8bb","ios":"levelo://app?vid=9acab34d-76c9-4fd5-bed6-0265a89df8bb"},"vehicle_type_id":"4","last_reported":1741676963,"current_range_meters":12400,"station_id":"ce4bhkp2rcd13ifvqgd0","pricing_plan_id":"cebpf4jnsgd1na2vs0mg"},{"bike_id":"ebdc0adc-86d4-4882-8983-2d6c86413625","system_id":"levelo_inurba_marseille","lat":43.23151,"lon":5.43714,"is_reserved":false,"is_disabled":false,"rental_uris":{"android":"levelo://app?vid=ebdc0adc-86d4-4882-8983-2d6c86413625","ios":"levelo://app?vid=ebdc0adc-86d4-4882-8983-2d6c86413625"},"vehicle_type_id":"4","last_reported":1741676963,"current_range_meters":12400,"station_id":"ce4bhmp2rcd13ifvqgog","pricing_plan_id":"cebpf4jnsgd1na2vs0mg"},{"bike_id":"02ccda15-ca98-4f66-a5ee-609c485d624e","system_id":"levelo_inurba_marseille","lat":43.239569,"lon":5.3663,"is_reserved":false,"is_disabled":false,"rental_uris":{"android":"levelo://app?vid=02ccda15-ca98-4f66-a5ee-609c485d624e","ios":"levelo://app?vid=02ccda15-ca98-4f66-a5ee-609c485d624e"},"vehicle_type_id":"4","last_reported":1741676963,"current_range_meters":12400,"station_id":"ce4bhi12rcd13ifvqfp0","pricing_plan_id":"cebpf4jnsgd1na2vs0mg"},{"bike_id":"33778263-ad23-487f-8908-8c442c18f32d","system_id":"levelo_inurba_marseille","lat":43.30149,"lon":5.38091,"is_reserved":false,"is_disabled":false,"rental_uris":{"android":"levelo://app?vid=33778263-ad23-487f-8908-8c442c18f32d","ios":"levelo://app?vid=33778263-ad23-487f-8908-8c442c18f32d"},"vehicle_type_id":"4","last_reported":1741676963,"current_range_meters":12400,"station_id":"ce4bgjp2rcd13ifvqbh0","pricing_plan_id":"cebpf4jnsgd1na2vs0mg"},{"bike_id":"d2fb46e0-e2b4-4c51-811d-22794158f078","system_id":"levelo_inurba_marseille","lat":43.298805,"lon":5.397378,"is_reserved":false,"is_disabled":true,"rental_uris":{"android":"levelo://app?vid=d2fb46e0-e2b4-4c51-811d-22794158f078","ios":"levelo://app?vid=d2fb46e0-e2b4-4c51-811d-22794158f078"},"vehicle_type_id":"4","last_reported":1741676963,"current_range_meters":12400,"station_id":"ce4bh0h2rcd13ifvqd50","pricing_plan_id":"cebpf4jnsgd1na2vs0mg"},{"bike_id":"53f3dfb0-70b7-4a9b-b2f0-9ae01febff63","system_id":"levelo_inurba_marseille","lat":43.30477,"lon":5.37908,"is_reserved":false,"is_disabled":false,"rental_uris":{"android":"levelo://app?vid=53f3dfb0-70b7-4a9b-b2f0-9ae01febff63","ios":"levelo://app?vid=53f3dfb0-70b7-4a9b-b2f0-9ae01febff63"},"vehicle_type_id":"4","last_reported":1741676963,"current_range_meters":12400,"station_id":"ce4bgup2rcd13ifvqcn0","pricing_plan_id":"cebpf4jnsgd1na2vs0mg"},{"bike_id":"3f770ed7-3a2a-4fe2-b532-92715fa53839","system_id":"levelo_inurba_marseille","lat":43.30128,"lon":5.38787,"is_reserved":false,"is_disabled":true,"rental_uris":{"android":"levelo://app?vid=3f770ed7-3a2a-4fe2-b532-92715fa53839","ios":"levelo://app?vid=3f770ed7-3a2a-4fe2-b532-92715fa53839"},"vehicle_type_id":"4","last_reported":1741676963,"current_range_meters":12800,"station_id":"ce4bghh2rcd13ifvqb60","pricing_plan_id":"cebpf4jnsgd1na2vs0mg"},{"bike_id":"1a26001d-d49a-47a3-a711-f7ff22c1c811","system_id":"levelo_inurba_marseille","lat":43.288803,"lon":5.371549,"is_reserved":false,"is_disabled":false,"rental_uris":{"android":"levelo://app?vid=1a26001d-d49a-47a3-a711-f7ff22c1c811","ios":"levelo://app?vid=1a26001d-d49a-47a3-a711-f7ff22c1c811"},"vehicle_type_id":"4","last_reported":1741676963,"current_range_meters":12800,"station_id":"","pricing_plan_id":"cebpf4jnsgd1na2vs0mg"},{"bike_id":"af87694c-5cd3-4c4b-9c0a-c78ab1830001","system_id":"levelo_inurba_marseille","lat":43.30461,"lon":5.37909,"is_reserved":false,"is_disabled":false,"rental_uris":{"android":"levelo://app?vid=af87694c-5cd3-4c4b-9c0a-c78ab1830001","ios":"levelo://app?vid=af87694c-5cd3-4c4b-9c0a-c78ab1830001"},"vehicle_type_id":"4","last_reported":1741676963,"current_range_meters":12800,"station_id":"ce4bgup2rcd13ifvqcn0","pricing_plan_id":"cebpf4jnsgd1na2vs0mg"},{"bike_id":"7d34c987-73ce-4ca4-a4f8-fc2f3288cfda","system_id":"levelo_inurba_marseille","lat":43.2419,"lon":5.39693,"is_reserved":false,"is_disabled":false,"rental_uris":{"android":"levelo://app?vid=7d34c987-73ce-4ca4-a4f8-fc2f3288cfda","ios":"levelo://app?vid=7d34c987-73ce-4ca4-a4f8-fc2f3288cfda"},"vehicle_type_id":"4","last_reported":1741676963,"current_range_meters":12800,"station_id":"ce4bhn12rcd13ifvqgpg","pricing_plan_id":"cebpf4jnsgd1na2vs0mg"},{"bike_id":"4b1d03db-c62d-49e0-9b97-bac33f87e1cf","system_id":"levelo_inurba_marseille","lat":43.24083,"lon":5.37751,"is_reserved":false,"is_disabled":false,"rental_uris":{"android":"levelo://app?vid=4b1d03db-c62d-49e0-9b97-bac33f87e1cf","ios":"levelo://app?vid=4b1d03db-c62d-49e0-9b97-bac33f87e1cf"},"vehicle_type_id":"4","last_reported":1741676963,"current_range_meters":12800,"station_id":"ce4bhnp2rcd13ifvqgvg","pricing_plan_id":"cebpf4jnsgd1na2vs0mg"},{"bike_id":"3e37f03c-e5a4-4e97-951f-7786bb1c3928","system_id":"levelo_inurba_marseille","lat":43.23151,"lon":5.43725,"is_reserved":false,"is_disabled":false,"rental_uris":{"android":"levelo://app?vid=3e37f03c-e5a4-4e97-951f-7786bb1c3928","ios":"levelo://app?vid=3e37f03c-e5a4-4e97-951f-7786bb1c3928"},"vehicle_type_id":"4","last_reported":1741676963,"current_range_meters":12800,"station_id":"ce4bhmp2rcd13ifvqgog","pricing_plan_id":"cebpf4jnsgd1na2vs0mg"},{"bike_id":"abac0995-78ae-4351-92bd-2175ff54a395","system_id":"levelo_inurba_marseille","lat":43.30338,"lon":5.3863,"is_reserved":false,"is_disabled":false,"rental_uris":{"android":"levelo://app?vid=abac0995-78ae-4351-92bd-2175ff54a395","ios":"levelo://app?vid=abac0995-78ae-4351-92bd-2175ff54a395"},"vehicle_type_id":"4","last_reported":1741676963,"current_range_meters":13600,"station_id":"ce4bghh2rcd13ifvqb60","pricing_plan_id":"cebpf4jnsgd1na2vs0mg"},{"bike_id":"ed425db7-e2cb-4a24-a111-f4ee59823d51","system_id":"levelo_inurba_marseille","lat":43.29788,"lon":5.38085,"is_reserved":false,"is_disabled":false,"rental_uris":{"android":"levelo://app?vid=ed425db7-e2cb-4a24-a111-f4ee59823d51","ios":"levelo://app?vid=ed425db7-e2cb-4a24-a111-f4ee59823d51"},"vehicle_type_id":"4","last_reported":1741676963,"current_range_meters":13600,"station_id":"ce4bgip2rcd13ifvqbb0","pricing_plan_id":"cebpf4jnsgd1na2vs0mg"},{"bike_id":"716492ae-81b6-4ed5-8177-f4759b370b67","system_id":"levelo_inurba_marseille","lat":43.281501,"lon":5.426369,"is_reserved":false,"is_disabled":false,"rental_uris":{"android":"levelo://app?vid=716492ae-81b6-4ed5-8177-f4759b370b67","ios":"levelo://app?vid=716492ae-81b6-4ed5-8177-f4759b370b67"},"vehicle_type_id":"4","last_reported":1741676963,"current_range_meters":13600,"station_id":"ce4bhnh2rcd13ifvqgug","pricing_plan_id":"cebpf4jnsgd1na2vs0mg"},{"bike_id":"adbda3f8-bf28-42b6-b199-11ee1a621649","system_id":"levelo_inurba_marseille","lat":43.33766,"lon":5.3743,"is_reserved":false,"is_disabled":false,"rental_uris":{"android":"levelo://app?vid=adbda3f8-bf28-42b6-b199-11ee1a621649","ios":"levelo://app?vid=adbda3f8-bf28-42b6-b199-11ee1a621649"},"vehicle_type_id":"4","last_reported":1741676963,"current_range_meters":13600,"station_id":"","pricing_plan_id":"cebpf4jnsgd1na2vs0mg"},{"bike_id":"6c98e30a-7f53-4dee-a8c1-23e556712983","system_id":"levelo_inurba_marseille","lat":43.29252,"lon":5.38451,"is_reserved":false,"is_disabled":false,"rental_uris":{"android":"levelo://app?vid=6c98e30a-7f53-4dee-a8c1-23e556712983","ios":"levelo://app?vid=6c98e30a-7f53-4dee-a8c1-23e556712983"},"vehicle_type_id":"4","last_reported":1741676963,"current_range_meters":14000,"station_id":"ce4bh692rcd13ifvqea0","pricing_plan_id":"cebpf4jnsgd1na2vs0mg"},{"bike_id":"6604eacf-9e01-4e30-985f-b72dc00dca82","system_id":"levelo_inurba_marseille","lat":43.29264,"lon":5.38441,"is_reserved":false,"is_disabled":false,"rental_uris":{"android":"levelo://app?vid=6604eacf-9e01-4e30-985f-b72dc00dca82","ios":"levelo://app?vid=6604eacf-9e01-4e30-985f-b72dc00dca82"},"vehicle_type_id":"4","last_reported":1741676963,"current_range_meters":14000,"station_id":"ce4bh692rcd13ifvqea0","pricing_plan_id":"cebpf4jnsgd1na2vs0mg"},{"bike_id":"7f58d9e5-acbe-40df-8048-40fec1830ecf","system_id":"levelo_inurba_marseille","lat":43.32461,"lon":5.36581,"is_reserved":false,"is_disabled":false,"rental_uris":{"android":"levelo://app?vid=7f58d9e5-acbe-40df-8048-40fec1830ecf","ios":"levelo://app?vid=7f58d9e5-acbe-40df-8048-40fec1830ecf"},"vehicle_type_id":"4","last_reported":1741676963,"current_range_meters":14000,"station_id":"ce4bhs12rcd13ifvqhvg","pricing_plan_id":"cebpf4jnsgd1na2vs0mg"},{"bike_id":"eae61ea7-d7a0-4e24-b5ac-1f5a2df4bfa7","system_id":"levelo_inurba_marseille","lat":43.2716,"lon":5.41016,"is_reserved":false,"is_disabled":false,"rental_uris":{"android":"levelo://app?vid=eae61ea7-d7a0-4e24-b5ac-1f5a2df4bfa7","ios":"levelo://app?vid=eae61ea7-d7a0-4e24-b5ac-1f5a2df4bfa7"},"vehicle_type_id":"4","last_reported":1741676963,"current_range_meters":14000,"station_id":"ce4bhl12rcd13ifvqgf0","pricing_plan_id":"cebpf4jnsgd1na2vs0mg"},{"bike_id":"602775d1-d9d5-416b-9611-899a0e39b82c","system_id":"levelo_inurba_marseille","lat":43.29101,"lon":5.38453,"is_reserved":false,"is_disabled":true,"rental_uris":{"android":"levelo://app?vid=602775d1-d9d5-416b-9611-899a0e39b82c","ios":"levelo://app?vid=602775d1-d9d5-416b-9611-899a0e39b82c"},"vehicle_type_id":"4","last_reported":1741676963,"current_range_meters":14000,"station_id":"","pricing_plan_id":"cebpf4jnsgd1na2vs0mg"},{"bike_id":"f3060ea6-eb28-4fc0-b4e4-8bce267842e0","system_id":"levelo_inurba_marseille","lat":43.2582,"lon":5.39444,"is_reserved":false,"is_disabled":false,"rental_uris":{"android":"levelo://app?vid=f3060ea6-eb28-4fc0-b4e4-8bce267842e0","ios":"levelo://app?vid=f3060ea6-eb28-4fc0-b4e4-8bce267842e0"},"vehicle_type_id":"4","last_reported":1741676963,"current_range_meters":14400,"station_id":"ce4bhip2rcd13ifvqft0","pricing_plan_id":"cebpf4jnsgd1na2vs0mg"},{"bike_id":"2cdec81d-2593-4153-a426-2f527f1b29e2","system_id":"levelo_inurba_marseille","lat":43.23595,"lon":5.391,"is_reserved":false,"is_disabled":false,"rental_uris":{"android":"levelo://app?vid=2cdec81d-2593-4153-a426-2f527f1b29e2","ios":"levelo://app?vid=2cdec81d-2593-4153-a426-2f527f1b29e2"},"vehicle_type_id":"4","last_reported":1741676963,"current_range_meters":14400,"station_id":"","pricing_plan_id":"cebpf4jnsgd1na2vs0mg"},{"bike_id":"f441e0b8-33e3-40d1-adc5-4042b9feaf41","system_id":"levelo_inurba_marseille","lat":43.29034,"lon":5.39968,"is_reserved":false,"is_disabled":false,"rental_uris":{"android":"levelo://app?vid=f441e0b8-33e3-40d1-adc5-4042b9feaf41","ios":"levelo://app?vid=f441e0b8-33e3-40d1-adc5-4042b9feaf41"},"vehicle_type_id":"4","last_reported":1741676963,"current_range_meters":14400,"station_id":"ce4bh392rcd13ifvqdm0","pricing_plan_id":"cebpf4jnsgd1na2vs0mg"},{"bike_id":"9e413a74-efa9-48f1-8c65-aec8b42e67e8","system_id":"levelo_inurba_marseille","lat":43.29224,"lon":5.36053,"is_reserved":false,"is_disabled":false,"rental_uris":{"android":"levelo://app?vid=9e413a74-efa9-48f1-8c65-aec8b42e67e8","ios":"levelo://app?vid=9e413a74-efa9-48f1-8c65-aec8b42e67e8"},"vehicle_type_id":"4","last_reported":1741676963,"current_range_meters":14400,"station_id":"ce4bhbh2rcd13ifvqeqg","pricing_plan_id":"cebpf4jnsgd1na2vs0mg"},{"bike_id":"9776d519-3376-4f51-aaa3-2da63911d7cc","system_id":"levelo_inurba_marseille","lat":43.25086,"lon":5.39512,"is_reserved":false,"is_disabled":false,"rental_uris":{"android":"levelo://app?vid=9776d519-3376-4f51-aaa3-2da63911d7cc","ios":"levelo://app?vid=9776d519-3376-4f51-aaa3-2da63911d7cc"},"vehicle_type_id":"4","last_reported":1741676963,"current_range_meters":14800,"station_id":"ce4bhm12rcd13ifvqgkg","pricing_plan_id":"cebpf4jnsgd1na2vs0mg"},{"bike_id":"2d93c67e-330c-4c7b-8517-c03567315b70","system_id":"levelo_inurba_marseille","lat":43.28149,"lon":5.42652,"is_reserved":false,"is_disabled":false,"rental_uris":{"android":"levelo://app?vid=2d93c67e-330c-4c7b-8517-c03567315b70","ios":"levelo://app?vid=2d93c67e-330c-4c7b-8517-c03567315b70"},"vehicle_type_id":"4","last_reported":1741676963,"current_range_meters":14800,"station_id":"ce4bhnh2rcd13ifvqgug","pricing_plan_id":"cebpf4jnsgd1na2vs0mg"},{"bike_id":"28dee74a-2db9-47f4-bb32-cd92a9519a0e","system_id":"levelo_inurba_marseille","lat":43.33779,"lon":5.37438,"is_reserved":false,"is_disabled":false,"rental_uris":{"android":"levelo://app?vid=28dee74a-2db9-47f4-bb32-cd92a9519a0e","ios":"levelo://app?vid=28dee74a-2db9-47f4-bb32-cd92a9519a0e"},"vehicle_type_id":"4","last_reported":1741676963,"current_range_meters":14800,"station_id":"","pricing_plan_id":"cebpf4jnsgd1na2vs0mg"},{"bike_id":"1379d2e7-c153-4a42-87f1-8ff30298dd76","system_id":"levelo_inurba_marseille","lat":43.275635,"lon":5.38417,"is_reserved":false,"is_disabled":true,"rental_uris":{"android":"levelo://app?vid=1379d2e7-c153-4a42-87f1-8ff30298dd76","ios":"levelo://app?vid=1379d2e7-c153-4a42-87f1-8ff30298dd76"},"vehicle_type_id":"4","last_reported":1741676963,"current_range_meters":14800,"station_id":"","pricing_plan_id":"cebpf4jnsgd1na2vs0mg"},{"bike_id":"85feaa69-281c-4532-9634-3954940480cf","system_id":"levelo_inurba_marseille","lat":43.26673,"lon":5.38297,"is_reserved":false,"is_disabled":true,"rental_uris":{"android":"levelo://app?vid=85feaa69-281c-4532-9634-3954940480cf","ios":"levelo://app?vid=85feaa69-281c-4532-9634-3954940480cf"},"vehicle_type_id":"4","last_reported":1741676963,"current_range_meters":14800,"station_id":"ce4bhg92rcd13ifvqf90","pricing_plan_id":"cebpf4jnsgd1na2vs0mg"},{"bike_id":"2986eb70-91a8-48d7-bf9f-67fdb369c622","system_id":"levelo_inurba_marseille","lat":43.23205,"lon":5.39948,"is_reserved":false,"is_disabled":false,"rental_uris":{"android":"levelo://app?vid=2986eb70-91a8-48d7-bf9f-67fdb369c622","ios":"levelo://app?vid=2986eb70-91a8-48d7-bf9f-67fdb369c622"},"vehicle_type_id":"4","last_reported":1741676963,"current_range_meters":14800,"station_id":"ce4bhn12rcd13ifvqgqg","pricing_plan_id":"cebpf4jnsgd1na2vs0mg"},{"bike_id":"ed01b326-5818-439b-84b5-b055955d488e","system_id":"levelo_inurba_marseille","lat":43.24069,"lon":5.37769,"is_reserved":false,"is_disabled":false,"rental_uris":{"android":"levelo://app?vid=ed01b326-5818-439b-84b5-b055955d488e","ios":"levelo://app?vid=ed01b326-5818-439b-84b5-b055955d488e"},"vehicle_type_id":"4","last_reported":1741676963,"current_range_meters":14800,"station_id":"ce4bhnp2rcd13ifvqgvg","pricing_plan_id":"cebpf4jnsgd1na2vs0mg"},{"bike_id":"d6f9a1d8-567c-4539-a764-63086c5d6c92","system_id":"levelo_inurba_marseille","lat":43.28346,"lon":5.3811,"is_reserved":false,"is_disabled":false,"rental_uris":{"android":"levelo://app?vid=d6f9a1d8-567c-4539-a764-63086c5d6c92","ios":"levelo://app?vid=d6f9a1d8-567c-4539-a764-63086c5d6c92"},"vehicle_type_id":"4","last_reported":1741676963,"current_range_meters":14800,"station_id":"ce4bh412rcd13ifvqdr0","pricing_plan_id":"cebpf4jnsgd1na2vs0mg"},{"bike_id":"21a98077-97a5-4182-b1fc-3570e927fac1","system_id":"levelo_inurba_marseille","lat":43.25825,"lon":5.39436,"is_reserved":false,"is_disabled":false,"rental_uris":{"android":"levelo://app?vid=21a98077-97a5-4182-b1fc-3570e927fac1","ios":"levelo://app?vid=21a98077-97a5-4182-b1fc-3570e927fac1"},"vehicle_type_id":"4","last_reported":1741676963,"current_range_meters":14800,"station_id":"","pricing_plan_id":"cebpf4jnsgd1na2vs0mg"},{"bike_id":"e9f0ddf6-c638-4a12-8ca0-d2f9784b891b","system_id":"levelo_inurba_marseille","lat":43.27806,"lon":5.40727,"is_reserved":false,"is_disabled":false,"rental_uris":{"android":"levelo://app?vid=e9f0ddf6-c638-4a12-8ca0-d2f9784b891b","ios":"levelo://app?vid=e9f0ddf6-c638-4a12-8ca0-d2f9784b891b"},"vehicle_type_id":"4","last_reported":1741676963,"current_range_meters":15200,"station_id":"ce4bhnh2rcd13ifvqgtg","pricing_plan_id":"cebpf4jnsgd1na2vs0mg"},{"bike_id":"531d79c6-b6bf-46c3-a8be-b136f11a667f","system_id":"levelo_inurba_marseille","lat":43.28421,"lon":5.37539,"is_reserved":false,"is_disabled":false,"rental_uris":{"android":"levelo://app?vid=531d79c6-b6bf-46c3-a8be-b136f11a667f","ios":"levelo://app?vid=531d79c6-b6bf-46c3-a8be-b136f11a667f"},"vehicle_type_id":"4","last_reported":1741676963,"current_range_meters":16000,"station_id":"ce4bh412rcd13ifvqds0","pricing_plan_id":"cebpf4jnsgd1na2vs0mg"},{"bike_id":"a5c23861-a5a1-42a3-8484-33b25c02b840","system_id":"levelo_inurba_marseille","lat":43.27199,"lon":5.40986,"is_reserved":false,"is_disabled":false,"rental_uris":{"android":"levelo://app?vid=a5c23861-a5a1-42a3-8484-33b25c02b840","ios":"levelo://app?vid=a5c23861-a5a1-42a3-8484-33b25c02b840"},"vehicle_type_id":"4","last_reported":1741676963,"current_range_meters":16000,"station_id":"ce4bhl12rcd13ifvqgf0","pricing_plan_id":"cebpf4jnsgd1na2vs0mg"},{"bike_id":"c1fdf776-5ff6-4f38-96ad-d3bee4a7cebb","system_id":"levelo_inurba_marseille","lat":43.23148,"lon":5.43714,"is_reserved":false,"is_disabled":false,"rental_uris":{"android":"levelo://app?vid=c1fdf776-5ff6-4f38-96ad-d3bee4a7cebb","ios":"levelo://app?vid=c1fdf776-5ff6-4f38-96ad-d3bee4a7cebb"},"vehicle_type_id":"4","last_reported":1741676963,"current_range_meters":16000,"station_id":"ce4bhmp2rcd13ifvqgog","pricing_plan_id":"cebpf4jnsgd1na2vs0mg"},{"bike_id":"b4a0f766-3481-4a2f-88ab-bf050ea28608","system_id":"levelo_inurba_marseille","lat":43.29153,"lon":5.37947,"is_reserved":false,"is_disabled":false,"rental_uris":{"android":"levelo://app?vid=b4a0f766-3481-4a2f-88ab-bf050ea28608","ios":"levelo://app?vid=b4a0f766-3481-4a2f-88ab-bf050ea28608"},"vehicle_type_id":"4","last_reported":1741676963,"current_range_meters":16000,"station_id":"ce4bhqp2rcd13ifvqhng","pricing_plan_id":"cebpf4jnsgd1na2vs0mg"},{"bike_id":"89796792-fe54-487e-bb10-7b317b67226c","system_id":"levelo_inurba_marseille","lat":43.31173,"lon":5.38711,"is_reserved":false,"is_disabled":false,"rental_uris":{"android":"levelo://app?vid=89796792-fe54-487e-bb10-7b317b67226c","ios":"levelo://app?vid=89796792-fe54-487e-bb10-7b317b67226c"},"vehicle_type_id":"4","last_reported":1741676963,"current_range_meters":16000,"station_id":"ce4bgv12rcd13ifvqcp0","pricing_plan_id":"cebpf4jnsgd1na2vs0mg"},{"bike_id":"90e4636f-5acf-4803-a3ed-f0ba6d29d559","system_id":"levelo_inurba_marseille","lat":43.30434,"lon":5.38896,"is_reserved":false,"is_disabled":true,"rental_uris":{"android":"levelo://app?vid=90e4636f-5acf-4803-a3ed-f0ba6d29d559","ios":"levelo://app?vid=90e4636f-5acf-4803-a3ed-f0ba6d29d559"},"vehicle_type_id":"4","last_reported":1741676963,"current_range_meters":16400,"station_id":"ce4bgk12rcd13ifvqbi0","pricing_plan_id":"cebpf4jnsgd1na2vs0mg"},{"bike_id":"17b872eb-086c-460e-bcad-782a4a781cf9","system_id":"levelo_inurba_marseille","lat":43.251693,"lon":5.425131,"is_reserved":false,"is_disabled":false,"rental_uris":{"android":"levelo://app?vid=17b872eb-086c-460e-bcad-782a4a781cf9","ios":"levelo://app?vid=17b872eb-086c-460e-bcad-782a4a781cf9"},"vehicle_type_id":"4","last_reported":1741676963,"current_range_meters":16400,"station_id":"","pricing_plan_id":"cebpf4jnsgd1na2vs0mg"},{"bike_id":"e23735d3-f17d-4415-b0db-476c79ec5d41","system_id":"levelo_inurba_marseille","lat":43.24077,"lon":5.37753,"is_reserved":false,"is_disabled":false,"rental_uris":{"android":"levelo://app?vid=e23735d3-f17d-4415-b0db-476c79ec5d41","ios":"levelo://app?vid=e23735d3-f17d-4415-b0db-476c79ec5d41"},"vehicle_type_id":"4","last_reported":1741676963,"current_range_meters":16400,"station_id":"ce4bhnp2rcd13ifvqgvg","pricing_plan_id":"cebpf4jnsgd1na2vs0mg"},{"bike_id":"39bfa976-a08a-4688-9c25-ca3d4d813829","system_id":"levelo_inurba_marseille","lat":43.30464,"lon":5.3791,"is_reserved":false,"is_disabled":false,"rental_uris":{"android":"levelo://app?vid=39bfa976-a08a-4688-9c25-ca3d4d813829","ios":"levelo://app?vid=39bfa976-a08a-4688-9c25-ca3d4d813829"},"vehicle_type_id":"4","last_reported":1741676963,"current_range_meters":16400,"station_id":"ce4bgup2rcd13ifvqcn0","pricing_plan_id":"cebpf4jnsgd1na2vs0mg"},{"bike_id":"652c282d-7522-46a8-b99a-0b970b5cdd3a","system_id":"levelo_inurba_marseille","lat":43.295747,"lon":5.399598,"is_reserved":false,"is_disabled":true,"rental_uris":{"android":"levelo://app?vid=652c282d-7522-46a8-b99a-0b970b5cdd3a","ios":"levelo://app?vid=652c282d-7522-46a8-b99a-0b970b5cdd3a"},"vehicle_type_id":"4","last_reported":1741676963,"current_range_meters":16400,"station_id":"ce4bh312rcd13ifvqdj0","pricing_plan_id":"cebpf4jnsgd1na2vs0mg"},{"bike_id":"e1c24ecc-16e5-4f40-9152-bdcfc7906118","system_id":"levelo_inurba_marseille","lat":43.27997,"lon":5.40012,"is_reserved":false,"is_disabled":false,"rental_uris":{"android":"levelo://app?vid=e1c24ecc-16e5-4f40-9152-bdcfc7906118","ios":"levelo://app?vid=e1c24ecc-16e5-4f40-9152-bdcfc7906118"},"vehicle_type_id":"4","last_reported":1741676963,"current_range_meters":16400,"station_id":"ce4bho92rcd13ifvqh4g","pricing_plan_id":"cebpf4jnsgd1na2vs0mg"},{"bike_id":"1dc66af4-c5f0-4474-a911-cb34ac96ad0d","system_id":"levelo_inurba_marseille","lat":43.2315,"lon":5.43724,"is_reserved":false,"is_disabled":false,"rental_uris":{"android":"levelo://app?vid=1dc66af4-c5f0-4474-a911-cb34ac96ad0d","ios":"levelo://app?vid=1dc66af4-c5f0-4474-a911-cb34ac96ad0d"},"vehicle_type_id":"4","last_reported":1741676963,"current_range_meters":16400,"station_id":"ce4bhmp2rcd13ifvqgog","pricing_plan_id":"cebpf4jnsgd1na2vs0mg"},{"bike_id":"f0b5f6b7-161e-4c72-8f30-8d8e8d5c374f","system_id":"levelo_inurba_marseille","lat":43.24584,"lon":5.4048,"is_reserved":false,"is_disabled":false,"rental_uris":{"android":"levelo://app?vid=f0b5f6b7-161e-4c72-8f30-8d8e8d5c374f","ios":"levelo://app?vid=f0b5f6b7-161e-4c72-8f30-8d8e8d5c374f"},"vehicle_type_id":"4","last_reported":1741676963,"current_range_meters":16400,"station_id":"","pricing_plan_id":"cebpf4jnsgd1na2vs0mg"},{"bike_id":"f68a370e-d38e-446f-aabb-5cc25a54324d","system_id":"levelo_inurba_marseille","lat":43.30152,"lon":5.38087,"is_reserved":false,"is_disabled":false,"rental_uris":{"android":"levelo://app?vid=f68a370e-d38e-446f-aabb-5cc25a54324d","ios":"levelo://app?vid=f68a370e-d38e-446f-aabb-5cc25a54324d"},"vehicle_type_id":"4","last_reported":1741676963,"current_range_meters":16400,"station_id":"ce4bgjp2rcd13ifvqbh0","pricing_plan_id":"cebpf4jnsgd1na2vs0mg"},{"bike_id":"70f66af9-0aa6-4db1-9431-c8e34190b648","system_id":"levelo_inurba_marseille","lat":43.27045,"lon":5.40314,"is_reserved":false,"is_disabled":false,"rental_uris":{"android":"levelo://app?vid=70f66af9-0aa6-4db1-9431-c8e34190b648","ios":"levelo://app?vid=70f66af9-0aa6-4db1-9431-c8e34190b648"},"vehicle_type_id":"4","last_reported":1741676963,"current_range_meters":16400,"station_id":"ce4bhk92rcd13ifvqgc0","pricing_plan_id":"cebpf4jnsgd1na2vs0mg"},{"bike_id":"f829a819-671e-4b71-9c22-56c5f8047725","system_id":"levelo_inurba_marseille","lat":43.32356,"lon":5.36782,"is_reserved":false,"is_disabled":false,"rental_uris":{"android":"levelo://app?vid=f829a819-671e-4b71-9c22-56c5f8047725","ios":"levelo://app?vid=f829a819-671e-4b71-9c22-56c5f8047725"},"vehicle_type_id":"4","last_reported":1741676963,"current_range_meters":16400,"station_id":"ce4bhsh2rcd13ifvqi2g","pricing_plan_id":"cebpf4jnsgd1na2vs0mg"},{"bike_id":"0e0b9e80-3172-459b-ab59-4016008cad5a","system_id":"levelo_inurba_marseille","lat":43.2737,"lon":5.36264,"is_reserved":false,"is_disabled":false,"rental_uris":{"android":"levelo://app?vid=0e0b9e80-3172-459b-ab59-4016008cad5a","ios":"levelo://app?vid=0e0b9e80-3172-459b-ab59-4016008cad5a"},"vehicle_type_id":"4","last_reported":1741676963,"current_range_meters":16400,"station_id":"ce4bhbh2rcd13ifvqeo0","pricing_plan_id":"cebpf4jnsgd1na2vs0mg"},{"bike_id":"28ddcdf4-024a-4f42-80ff-fb3bac3f5f61","system_id":"levelo_inurba_marseille","lat":43.24166,"lon":5.36396,"is_reserved":false,"is_disabled":false,"rental_uris":{"android":"levelo://app?vid=28ddcdf4-024a-4f42-80ff-fb3bac3f5f61","ios":"levelo://app?vid=28ddcdf4-024a-4f42-80ff-fb3bac3f5f61"},"vehicle_type_id":"4","last_reported":1741676963,"current_range_meters":16800,"station_id":"cpo36qri1sfpv3e86is0","pricing_plan_id":"cebpf4jnsgd1na2vs0mg"},{"bike_id":"0c65e6ca-7494-49e4-9cfc-2bac04035b1d","system_id":"levelo_inurba_marseille","lat":43.28662,"lon":5.40107,"is_reserved":false,"is_disabled":true,"rental_uris":{"android":"levelo://app?vid=0c65e6ca-7494-49e4-9cfc-2bac04035b1d","ios":"levelo://app?vid=0c65e6ca-7494-49e4-9cfc-2bac04035b1d"},"vehicle_type_id":"4","last_reported":1741676963,"current_range_meters":16800,"station_id":"ce4bho92rcd13ifvqh3g","pricing_plan_id":"cebpf4jnsgd1na2vs0mg"},{"bike_id":"e246a648-b32b-470c-8c3a-0e61d94ed94c","system_id":"levelo_inurba_marseille","lat":43.288548,"lon":5.393326,"is_reserved":false,"is_disabled":true,"rental_uris":{"android":"levelo://app?vid=e246a648-b32b-470c-8c3a-0e61d94ed94c","ios":"levelo://app?vid=e246a648-b32b-470c-8c3a-0e61d94ed94c"},"vehicle_type_id":"4","last_reported":1741676963,"current_range_meters":16800,"station_id":"ce4bh2p2rcd13ifvqdi0","pricing_plan_id":"cebpf4jnsgd1na2vs0mg"},{"bike_id":"98abb632-e704-4d76-b282-59be888ae42b","system_id":"levelo_inurba_marseille","lat":43.241799,"lon":5.397261,"is_reserved":false,"is_disabled":false,"rental_uris":{"android":"levelo://app?vid=98abb632-e704-4d76-b282-59be888ae42b","ios":"levelo://app?vid=98abb632-e704-4d76-b282-59be888ae42b"},"vehicle_type_id":"4","last_reported":1741676963,"current_range_meters":16800,"station_id":"ce4bhn12rcd13ifvqgpg","pricing_plan_id":"cebpf4jnsgd1na2vs0mg"},{"bike_id":"be04fb7b-49e7-491b-ab49-5893cbae4799","system_id":"levelo_inurba_marseille","lat":43.25005,"lon":5.3892,"is_reserved":false,"is_disabled":false,"rental_uris":{"android":"levelo://app?vid=be04fb7b-49e7-491b-ab49-5893cbae4799","ios":"levelo://app?vid=be04fb7b-49e7-491b-ab49-5893cbae4799"},"vehicle_type_id":"4","last_reported":1741676963,"current_range_meters":16800,"station_id":"ce4bhgp2rcd13ifvqfd0","pricing_plan_id":"cebpf4jnsgd1na2vs0mg"},{"bike_id":"803ea8dd-d180-4e7f-8cac-6164ca1b88ff","system_id":"levelo_inurba_marseille","lat":43.27818,"lon":5.40723,"is_reserved":false,"is_disabled":false,"rental_uris":{"android":"levelo://app?vid=803ea8dd-d180-4e7f-8cac-6164ca1b88ff","ios":"levelo://app?vid=803ea8dd-d180-4e7f-8cac-6164ca1b88ff"},"vehicle_type_id":"4","last_reported":1741676963,"current_range_meters":16800,"station_id":"ce4bhnh2rcd13ifvqgtg","pricing_plan_id":"cebpf4jnsgd1na2vs0mg"},{"bike_id":"03fcef79-f017-4d15-a10d-891c5cd96db2","system_id":"levelo_inurba_marseille","lat":43.23068,"lon":5.35496,"is_reserved":false,"is_disabled":false,"rental_uris":{"android":"levelo://app?vid=03fcef79-f017-4d15-a10d-891c5cd96db2","ios":"levelo://app?vid=03fcef79-f017-4d15-a10d-891c5cd96db2"},"vehicle_type_id":"4","last_reported":1741676963,"current_range_meters":16800,"station_id":"cpo3342slgdg3j2ifvpg","pricing_plan_id":"cebpf4jnsgd1na2vs0mg"},{"bike_id":"dada0d93-e7d2-4472-aed6-06773643788c","system_id":"levelo_inurba_marseille","lat":43.29573,"lon":5.37528,"is_reserved":false,"is_disabled":false,"rental_uris":{"android":"levelo://app?vid=dada0d93-e7d2-4472-aed6-06773643788c","ios":"levelo://app?vid=dada0d93-e7d2-4472-aed6-06773643788c"},"vehicle_type_id":"4","last_reported":1741676963,"current_range_meters":16800,"station_id":"ce4bgh92rcd13ifvqb50","pricing_plan_id":"cebpf4jnsgd1na2vs0mg"},{"bike_id":"d8f8b9d4-699d-4feb-9a45-c202cb90c6f0","system_id":"levelo_inurba_marseille","lat":43.25077,"lon":5.39525,"is_reserved":false,"is_disabled":false,"rental_uris":{"android":"levelo://app?vid=d8f8b9d4-699d-4feb-9a45-c202cb90c6f0","ios":"levelo://app?vid=d8f8b9d4-699d-4feb-9a45-c202cb90c6f0"},"vehicle_type_id":"4","last_reported":1741676963,"current_range_meters":16800,"station_id":"ce4bhm12rcd13ifvqgkg","pricing_plan_id":"cebpf4jnsgd1na2vs0mg"},{"bike_id":"0119f7e3-e216-4823-b50c-0cec44ef744b","system_id":"levelo_inurba_marseille","lat":43.27511,"lon":5.42435,"is_reserved":false,"is_disabled":false,"rental_uris":{"android":"levelo://app?vid=0119f7e3-e216-4823-b50c-0cec44ef744b","ios":"levelo://app?vid=0119f7e3-e216-4823-b50c-0cec44ef744b"},"vehicle_type_id":"4","last_reported":1741676963,"current_range_meters":17200,"station_id":"ce4bhn92rcd13ifvqgrg","pricing_plan_id":"cebpf4jnsgd1na2vs0mg"},{"bike_id":"bb6388ec-21b2-40d4-86e4-837e36c85c50","system_id":"levelo_inurba_marseille","lat":43.241739,"lon":5.363979,"is_reserved":false,"is_disabled":false,"rental_uris":{"android":"levelo://app?vid=bb6388ec-21b2-40d4-86e4-837e36c85c50","ios":"levelo://app?vid=bb6388ec-21b2-40d4-86e4-837e36c85c50"},"vehicle_type_id":"4","last_reported":1741676963,"current_range_meters":17200,"station_id":"cpo36qri1sfpv3e86is0","pricing_plan_id":"cebpf4jnsgd1na2vs0mg"},{"bike_id":"8c5c8503-3f64-4c77-8ed6-a85d8dded185","system_id":"levelo_inurba_marseille","lat":43.279478,"lon":5.410305,"is_reserved":false,"is_disabled":false,"rental_uris":{"android":"levelo://app?vid=8c5c8503-3f64-4c77-8ed6-a85d8dded185","ios":"levelo://app?vid=8c5c8503-3f64-4c77-8ed6-a85d8dded185"},"vehicle_type_id":"4","last_reported":1741676963,"current_range_meters":17200,"station_id":"ce4bhnp2rcd13ifvqh0g","pricing_plan_id":"cebpf4jnsgd1na2vs0mg"},{"bike_id":"a7b6ac05-6af3-44a0-8d14-80658f4a55b8","system_id":"levelo_inurba_marseille","lat":43.27078,"lon":5.40249,"is_reserved":false,"is_disabled":false,"rental_uris":{"android":"levelo://app?vid=a7b6ac05-6af3-44a0-8d14-80658f4a55b8","ios":"levelo://app?vid=a7b6ac05-6af3-44a0-8d14-80658f4a55b8"},"vehicle_type_id":"4","last_reported":1741676963,"current_range_meters":17200,"station_id":"ce4bhk92rcd13ifvqgc0","pricing_plan_id":"cebpf4jnsgd1na2vs0mg"},{"bike_id":"bd8ce376-9bc0-445b-83f2-a4740e925a83","system_id":"levelo_inurba_marseille","lat":43.30436,"lon":5.38895,"is_reserved":false,"is_disabled":false,"rental_uris":{"android":"levelo://app?vid=bd8ce376-9bc0-445b-83f2-a4740e925a83","ios":"levelo://app?vid=bd8ce376-9bc0-445b-83f2-a4740e925a83"},"vehicle_type_id":"4","last_reported":1741676963,"current_range_meters":17200,"station_id":"ce4bgk12rcd13ifvqbi0","pricing_plan_id":"cebpf4jnsgd1na2vs0mg"},{"bike_id":"8fb6fa60-9f0c-48af-bd20-4c1d9e66c77b","system_id":"levelo_inurba_marseille","lat":43.23202,"lon":5.39966,"is_reserved":false,"is_disabled":false,"rental_uris":{"android":"levelo://app?vid=8fb6fa60-9f0c-48af-bd20-4c1d9e66c77b","ios":"levelo://app?vid=8fb6fa60-9f0c-48af-bd20-4c1d9e66c77b"},"vehicle_type_id":"4","last_reported":1741676963,"current_range_meters":17200,"station_id":"ce4bhn12rcd13ifvqgqg","pricing_plan_id":"cebpf4jnsgd1na2vs0mg"},{"bike_id":"a5040460-fbfb-459a-bc30-24b055b01e76","system_id":"levelo_inurba_marseille","lat":43.2904,"lon":5.3996,"is_reserved":false,"is_disabled":false,"rental_uris":{"android":"levelo://app?vid=a5040460-fbfb-459a-bc30-24b055b01e76","ios":"levelo://app?vid=a5040460-fbfb-459a-bc30-24b055b01e76"},"vehicle_type_id":"4","last_reported":1741676963,"current_range_meters":17200,"station_id":"ce4bh392rcd13ifvqdm0","pricing_plan_id":"cebpf4jnsgd1na2vs0mg"},{"bike_id":"0a995a9a-6122-4f4b-b298-a8b06cbca7e2","system_id":"levelo_inurba_marseille","lat":43.25009,"lon":5.38919,"is_reserved":false,"is_disabled":false,"rental_uris":{"android":"levelo://app?vid=0a995a9a-6122-4f4b-b298-a8b06cbca7e2","ios":"levelo://app?vid=0a995a9a-6122-4f4b-b298-a8b06cbca7e2"},"vehicle_type_id":"4","last_reported":1741676963,"current_range_meters":17600,"station_id":"ce4bhgp2rcd13ifvqfd0","pricing_plan_id":"cebpf4jnsgd1na2vs0mg"},{"bike_id":"4f23cdcb-4a0c-482b-92b2-ae01477750dd","system_id":"levelo_inurba_marseille","lat":43.29644,"lon":5.375671,"is_reserved":false,"is_disabled":false,"rental_uris":{"android":"levelo://app?vid=4f23cdcb-4a0c-482b-92b2-ae01477750dd","ios":"levelo://app?vid=4f23cdcb-4a0c-482b-92b2-ae01477750dd"},"vehicle_type_id":"4","last_reported":1741676963,"current_range_meters":17600,"station_id":"","pricing_plan_id":"cebpf4jnsgd1na2vs0mg"},{"bike_id":"60852cb6-98c7-4055-852d-02943a66ad9a","system_id":"levelo_inurba_marseille","lat":43.25862,"lon":5.3991,"is_reserved":false,"is_disabled":false,"rental_uris":{"android":"levelo://app?vid=60852cb6-98c7-4055-852d-02943a66ad9a","ios":"levelo://app?vid=60852cb6-98c7-4055-852d-02943a66ad9a"},"vehicle_type_id":"4","last_reported":1741676963,"current_range_meters":17600,"station_id":"ce4bhl92rcd13ifvqghg","pricing_plan_id":"cebpf4jnsgd1na2vs0mg"},{"bike_id":"97a476ec-ebb2-47e9-9d47-3f7832a2c8e6","system_id":"levelo_inurba_marseille","lat":43.29836,"lon":5.36274,"is_reserved":false,"is_disabled":false,"rental_uris":{"android":"levelo://app?vid=97a476ec-ebb2-47e9-9d47-3f7832a2c8e6","ios":"levelo://app?vid=97a476ec-ebb2-47e9-9d47-3f7832a2c8e6"},"vehicle_type_id":"4","last_reported":1741676963,"current_range_meters":17600,"station_id":"ce4bgpp2rcd13ifvqc3g","pricing_plan_id":"cebpf4jnsgd1na2vs0mg"},{"bike_id":"3a60cfb3-93b1-4822-9a55-4b1a2da36578","system_id":"levelo_inurba_marseille","lat":43.279404,"lon":5.405089,"is_reserved":false,"is_disabled":false,"rental_uris":{"android":"levelo://app?vid=3a60cfb3-93b1-4822-9a55-4b1a2da36578","ios":"levelo://app?vid=3a60cfb3-93b1-4822-9a55-4b1a2da36578"},"vehicle_type_id":"4","last_reported":1741676963,"current_range_meters":17600,"station_id":"","pricing_plan_id":"cebpf4jnsgd1na2vs0mg"},{"bike_id":"2e17f9b9-a1bb-4d5c-865d-32cf753f1e5f","system_id":"levelo_inurba_marseille","lat":43.27493,"lon":5.42453,"is_reserved":false,"is_disabled":false,"rental_uris":{"android":"levelo://app?vid=2e17f9b9-a1bb-4d5c-865d-32cf753f1e5f","ios":"levelo://app?vid=2e17f9b9-a1bb-4d5c-865d-32cf753f1e5f"},"vehicle_type_id":"4","last_reported":1741676963,"current_range_meters":17600,"station_id":"ce4bhn92rcd13ifvqgrg","pricing_plan_id":"cebpf4jnsgd1na2vs0mg"},{"bike_id":"a03cef35-3e74-401d-87a6-600f8007d038","system_id":"levelo_inurba_marseille","lat":43.31085,"lon":5.38335,"is_reserved":false,"is_disabled":false,"rental_uris":{"android":"levelo://app?vid=a03cef35-3e74-401d-87a6-600f8007d038","ios":"levelo://app?vid=a03cef35-3e74-401d-87a6-600f8007d038"},"vehicle_type_id":"4","last_reported":1741676963,"current_range_meters":17600,"station_id":"ce4bgv92rcd13ifvqcr0","pricing_plan_id":"cebpf4jnsgd1na2vs0mg"},{"bike_id":"6dbc9b4a-c5a1-4dbf-a00f-5bb7462d2694","system_id":"levelo_inurba_marseille","lat":43.28112,"lon":5.39859,"is_reserved":false,"is_disabled":false,"rental_uris":{"android":"levelo://app?vid=6dbc9b4a-c5a1-4dbf-a00f-5bb7462d2694","ios":"levelo://app?vid=6dbc9b4a-c5a1-4dbf-a00f-5bb7462d2694"},"vehicle_type_id":"4","last_reported":1741676963,"current_range_meters":17600,"station_id":"","pricing_plan_id":"cebpf4jnsgd1na2vs0mg"},{"bike_id":"23ad98ab-6b27-4edb-b022-29dcaf90649b","system_id":"levelo_inurba_marseille","lat":43.28161,"lon":5.42652,"is_reserved":false,"is_disabled":false,"rental_uris":{"android":"levelo://app?vid=23ad98ab-6b27-4edb-b022-29dcaf90649b","ios":"levelo://app?vid=23ad98ab-6b27-4edb-b022-29dcaf90649b"},"vehicle_type_id":"4","last_reported":1741676963,"current_range_meters":17600,"station_id":"ce4bhnh2rcd13ifvqgug","pricing_plan_id":"cebpf4jnsgd1na2vs0mg"},{"bike_id":"77134958-302f-4eec-b60e-b1676f52da01","system_id":"levelo_inurba_marseille","lat":43.26215,"lon":5.40471,"is_reserved":false,"is_disabled":false,"rental_uris":{"android":"levelo://app?vid=77134958-302f-4eec-b60e-b1676f52da01","ios":"levelo://app?vid=77134958-302f-4eec-b60e-b1676f52da01"},"vehicle_type_id":"4","last_reported":1741676963,"current_range_meters":17600,"station_id":"ce4bhmh2rcd13ifvqgmg","pricing_plan_id":"cebpf4jnsgd1na2vs0mg"},{"bike_id":"a4ce6389-69c8-41eb-a2cb-27e113df5153","system_id":"levelo_inurba_marseille","lat":43.28615,"lon":5.35108,"is_reserved":false,"is_disabled":false,"rental_uris":{"android":"levelo://app?vid=a4ce6389-69c8-41eb-a2cb-27e113df5153","ios":"levelo://app?vid=a4ce6389-69c8-41eb-a2cb-27e113df5153"},"vehicle_type_id":"4","last_reported":1741676963,"current_range_meters":18000,"station_id":"ce4bhch2rcd13ifvqeug","pricing_plan_id":"cebpf4jnsgd1na2vs0mg"},{"bike_id":"51d0f616-3354-4255-b43f-e5ed5dcf0ff0","system_id":"levelo_inurba_marseille","lat":43.28857,"lon":5.39304,"is_reserved":false,"is_disabled":false,"rental_uris":{"android":"levelo://app?vid=51d0f616-3354-4255-b43f-e5ed5dcf0ff0","ios":"levelo://app?vid=51d0f616-3354-4255-b43f-e5ed5dcf0ff0"},"vehicle_type_id":"4","last_reported":1741676963,"current_range_meters":18000,"station_id":"ce4bh2p2rcd13ifvqdi0","pricing_plan_id":"cebpf4jnsgd1na2vs0mg"},{"bike_id":"0373d851-0e68-4e12-aa72-9c00b653dcb5","system_id":"levelo_inurba_marseille","lat":43.314304,"lon":5.376344,"is_reserved":false,"is_disabled":false,"rental_uris":{"android":"levelo://app?vid=0373d851-0e68-4e12-aa72-9c00b653dcb5","ios":"levelo://app?vid=0373d851-0e68-4e12-aa72-9c00b653dcb5"},"vehicle_type_id":"4","last_reported":1741676963,"current_range_meters":18000,"station_id":"","pricing_plan_id":"cebpf4jnsgd1na2vs0mg"},{"bike_id":"1391a228-411e-4b1c-8b83-267b96cc887b","system_id":"levelo_inurba_marseille","lat":43.25582,"lon":5.38226,"is_reserved":false,"is_disabled":false,"rental_uris":{"android":"levelo://app?vid=1391a228-411e-4b1c-8b83-267b96cc887b","ios":"levelo://app?vid=1391a228-411e-4b1c-8b83-267b96cc887b"},"vehicle_type_id":"4","last_reported":1741676963,"current_range_meters":18000,"station_id":"ce4bhih2rcd13ifvqfs0","pricing_plan_id":"cebpf4jnsgd1na2vs0mg"},{"bike_id":"93723630-bea1-4ccd-83cd-8763caaa8bc7","system_id":"levelo_inurba_marseille","lat":43.30526,"lon":5.3652,"is_reserved":false,"is_disabled":true,"rental_uris":{"android":"levelo://app?vid=93723630-bea1-4ccd-83cd-8763caaa8bc7","ios":"levelo://app?vid=93723630-bea1-4ccd-83cd-8763caaa8bc7"},"vehicle_type_id":"4","last_reported":1741676963,"current_range_meters":18000,"station_id":"","pricing_plan_id":"cebpf4jnsgd1na2vs0mg"},{"bike_id":"70bb4f82-b890-4c22-8ef4-494ede50b8cc","system_id":"levelo_inurba_marseille","lat":43.287,"lon":5.38634,"is_reserved":false,"is_disabled":true,"rental_uris":{"android":"levelo://app?vid=70bb4f82-b890-4c22-8ef4-494ede50b8cc","ios":"levelo://app?vid=70bb4f82-b890-4c22-8ef4-494ede50b8cc"},"vehicle_type_id":"4","last_reported":1741676963,"current_range_meters":18800,"station_id":"","pricing_plan_id":"cebpf4jnsgd1na2vs0mg"},{"bike_id":"b29ed5e6-e57d-48ee-be1e-830833478897","system_id":"levelo_inurba_marseille","lat":43.31684,"lon":5.40476,"is_reserved":false,"is_disabled":false,"rental_uris":{"android":"levelo://app?vid=b29ed5e6-e57d-48ee-be1e-830833478897","ios":"levelo://app?vid=b29ed5e6-e57d-48ee-be1e-830833478897"},"vehicle_type_id":"4","last_reported":1741676963,"current_range_meters":18800,"station_id":"ce4bh012rcd13ifvqd00","pricing_plan_id":"cebpf4jnsgd1na2vs0mg"},{"bike_id":"be3cc53d-4cb7-41bc-979f-669a683a9c30","system_id":"levelo_inurba_marseille","lat":43.26953,"lon":5.38642,"is_reserved":false,"is_disabled":false,"rental_uris":{"android":"levelo://app?vid=be3cc53d-4cb7-41bc-979f-669a683a9c30","ios":"levelo://app?vid=be3cc53d-4cb7-41bc-979f-669a683a9c30"},"vehicle_type_id":"4","last_reported":1741676963,"current_range_meters":18800,"station_id":"ce4bhh92rcd13ifvqfh0","pricing_plan_id":"cebpf4jnsgd1na2vs0mg"},