{"last_updated":1703794019,"ttl":30,"version":"2.2","data":{"bikes":[{"bike_id":"aea4164c-520d-470d-9f70-abd5c66e1c7c","system_id":"levelo_inurba_marseille","lat":43.308895,"lon":5.37174,"is_reserved":false,"is_disabled":false,"rental_uris":{"android":"levelo://app?vid=aea4164c-520d-470d-9f70-abd5c66e1c7c","ios":"levelo://app?vid=aea4164c-520d-470d-9f70-abd5c66e1c7c"},"vehicle_type_id":"4","last_reported":1703794019,"current_range_meters":7200,"station_id":"ce4bguh2rcd13ifvqckg","pricing_plan_id":"free"},{"bike_id":"0501c5b4-cd76-48a6-90ee-ca6a51833e68","system_id":"levelo_inurba_marseille","lat":43.306796,"lon":5.365971,"is_reserved":false,"is_disabled":false,"rental_uris":{"android":"levelo://app?vid=0501c5b4-cd76-48a6-90ee-ca6a51833e68","ios":"levelo://app?vid=0501c5b4-cd76-48a6-90ee-ca6a51833e68"},"vehicle_type_id":"4","last_reported":1703794019,"current_range_meters":10000,"station_id":"","pricing_plan_id":"free"},{"bike_id":"e53a9163-4e5b-47fe-9556-01a0a159d6b4","system_id":"levelo_inurba_marseille","lat":43.318964,"lon":5.36877,"is_reserved":false,"is_disabled":false,"rental_uris":{"android":"levelo://app?vid=e53a9163-4e5b-47fe-9556-01a0a159d6b4","ios":"levelo://app?vid=e53a9163-4e5b-47fe-9556-01a0a159d6b4"},"vehicle_type_id":"4","last_reported":1703794019,"current_range_meters":3200,"station_id":"","pricing_plan_id":"free"},{"bike_id":"a5aac7fd-33ca-46a3-98d8-21e6de83a247","system_id":"levelo_inurba_marseille","lat":43.318188,"lon":5.372945,"is_reserved":false,"is_disabled":false,"rental_uris":{"android":"levelo://app?vid=a5aac7fd-33ca-46a3-98d8-21e6de83a247","ios":"levelo://app?vid=a5aac7fd-33ca-46a3-98d8-21e6de83a247"},"vehicle_type_id":"4","last_reported":1703794019,"current_range_meters":24800,"station_id":"","pricing_plan_id":"free"},{"bike_id":"b8e98482-441d-4535-9eaf-8391ca3c84ae","system_id":"levelo_inurba_marseille","lat":43.305714,"lon":5.365633,"is_reserved":false,"is_disabled":false,"rental_uris":{"android":"levelo://app?vid=b8e98482-441d-4535-9eaf-8391ca3c84ae","ios":"levelo://app?vid=b8e98482-441d-4535-9eaf-8391ca3c84ae"},"vehicle_type_id":"4","last_reported":1703794019,"current_range_meters":7600,"station_id":"ce4bgs12rcd13ifvqcag","pricing_plan_id":"free"},{"bike_id":"7ca44e8b-3151-4357-a0f5-ea9e01da9d64","system_id":"levelo_inurba_marseille","lat":43.305368,"lon":5.367343,"is_reserved":false,"is_disabled":false,"rental_uris":{"android":"levelo://app?vid=7ca44e8b-3151-4357-a0f5-ea9e01da9d64","ios":"levelo://app?vid=7ca44e8b-3151-4357-a0f5-ea9e01da9d64"},"vehicle_type_id":"4","last_reported":1703794019,"current_range_meters":20400,"station_id":"ce4bgrp2rcd13ifvqc9g","pricing_plan_id":"free"},{"bike_id":"2bf1159c-4b34-4bc3-a8b5-156be571c011","system_id":"levelo_inurba_marseille","lat":43.30723,"lon":5.37401,"is_reserved":false,"is_disabled":false,"rental_uris":{"android":"levelo://app?vid=2bf1159c-4b34-4bc3-a8b5-156be571c011","ios":"levelo://app?vid=2bf1159c-4b34-4bc3-a8b5-156be571c011"},"vehicle_type_id":"4","last_reported":1703794019,"current_range_meters":30000,"station_id":"","pricing_plan_id":"free"},{"bike_id":"ecd62458-edc0-46db-b168-d4ef148cdd6e","system_id":"levelo_inurba_marseille","lat":43.306038,"lon":5.372342,"is_reserved":false,"is_disabled":false,"rental_uris":{"android":"levelo://app?vid=ecd62458-edc0-46db-b168-d4ef148cdd6e","ios":"levelo://app?vid=ecd62458-edc0-46db-b168-d4ef148cdd6e"},"vehicle_type_id":"4","last_reported":1703794019,"current_range_meters":26400,"station_id":"","pricing_plan_id":"free"},{"bike_id":"d8045480-dd9f-4480-bc08-9ec37d96f54f","system_id":"levelo_inurba_marseille","lat":43.311131,"lon":5.377651,"is_reserved":false,"is_disabled":false,"rental_uris":{"android":"levelo://app?vid=d8045480-dd9f-4480-bc08-9ec37d96f54f","ios":"levelo://app?vid=d8045480-dd9f-4480-bc08-9ec37d96f54f"},"vehicle_type_id":"4","last_reported":1703794019,"current_range_meters":15600,"station_id":"ce4bgt92rcd13ifvqcg0","pricing_plan_id":"free"},{"bike_id":"f14cc80f-937e-4452-8f45-ded06168280d","system_id":"levelo_inurba_marseille","lat":43.311131,"lon":5.377651,"is_reserved":false,"is_disabled":false,"rental_uris":{"android":"levelo://app?vid=f14cc80f-937e-4452-8f45-ded06168280d","ios":"levelo://app?vid=f14cc80f-937e-4452-8f45-ded06168280d"},"vehicle_type_id":"4","last_reported":1703794019,"current_range_meters":15600,"station_id":"ce4bgt92rcd13ifvqcg0","pricing_plan_id":"free"},{"bike_id":"82ab894a-f989-4025-823b-944f3324deb6","system_id":"levelo_inurba_marseille","lat":43.311125,"lon":5.377624,"is_reserved":false,"is_disabled":false,"rental_uris":{"android":"levelo://app?vid=82ab894a-f989-4025-823b-944f3324deb6","ios":"levelo://app?vid=82ab894a-f989-4025-823b-944f3324deb6"},"vehicle_type_id":"4","last_reported":1703794019,"current_range_meters":8800,"station_id":"ce4bgt92rcd13ifvqcg0","pricing_plan_id":"free"},{"bike_id":"d87a77d3-3776-44ce-a97d-8006c0a7b844","system_id":"levelo_inurba_marseille","lat":43.307945,"lon":5.376487,"is_reserved":false,"is_disabled":false,"rental_uris":{"android":"levelo://app?vid=d87a77d3-3776-44ce-a97d-8006c0a7b844","ios":"levelo://app?vid=d87a77d3-3776-44ce-a97d-8006c0a7b844"},"vehicle_type_id":"4","last_reported":1703794019,"current_range_meters":4400,"station_id":"ce4bgv92rcd13ifvqcq0","pricing_plan_id":"free"},{"bike_id":"1015fe48-8c35-4dd8-84b9-2c070e32ca24","system_id":"levelo_inurba_marseille","lat":43.317075,"lon":5.377367,"is_reserved":false,"is_disabled":false,"rental_uris":{"android":"levelo://app?vid=1015fe48-8c35-4dd8-84b9-2c070e32ca24","ios":"levelo://app?vid=1015fe48-8c35-4dd8-84b9-2c070e32ca24"},"vehicle_type_id":"4","last_reported":1703794019,"current_range_meters":27600,"station_id":"ce4bgth2rcd13ifvqch0","pricing_plan_id":"free"},{"bike_id":"f6f69221-8c25-45ba-9873-7ecc6ac3f019","system_id":"levelo_inurba_marseille","lat":43.308012,"lon":5.381511,"is_reserved":false,"is_disabled":false,"rental_uris":{"android":"levelo://app?vid=f6f69221-8c25-45ba-9873-7ecc6ac3f019","ios":"levelo://app?vid=f6f69221-8c25-45ba-9873-7ecc6ac3f019"},"vehicle_type_id":"4","last_reported":1703794019,"current_range_meters":400,"station_id":"ce4bgt12rcd13ifvqce0","pricing_plan_id":"free"},{"bike_id":"aac635da-89b6-4819-96dc-41607fa2b9fc","system_id":"levelo_inurba_marseille","lat":43.308012,"lon":5.381511,"is_reserved":false,"is_disabled":false,"rental_uris":{"android":"levelo://app?vid=aac635da-89b6-4819-96dc-41607fa2b9fc","ios":"levelo://app?vid=aac635da-89b6-4819-96dc-41607fa2b9fc"},"vehicle_type_id":"4","last_reported":1703794019,"current_range_meters":5200,"station_id":"ce4bgt12rcd13ifvqce0","pricing_plan_id":"free"},{"bike_id":"8b06075d-a2ee-4fc0-8aef-1b7b1fad0c67","system_id":"levelo_inurba_marseille","lat":43.308012,"lon":5.381511,"is_reserved":false,"is_disabled":false,"rental_uris":{"android":"levelo://app?vid=8b06075d-a2ee-4fc0-8aef-1b7b1fad0c67","ios":"levelo://app?vid=8b06075d-a2ee-4fc0-8aef-1b7b1fad0c67"},"vehicle_type_id":"4","last_reported":1703794019,"current_range_meters":22800,"station_id":"ce4bgt12rcd13ifvqce0","pricing_plan_id":"free"},{"bike_id":"26626341-e619-446c-86f0-93aeaf4dfbf4","system_id":"levelo_inurba_marseille","lat":43.304606,"lon":5.379026,"is_reserved":false,"is_disabled":false,"rental_uris":{"android":"levelo://app?vid=26626341-e619-446c-86f0-93aeaf4dfbf4","ios":"levelo://app?vid=26626341-e619-446c-86f0-93aeaf4dfbf4"},"vehicle_type_id":"4","last_reported":1703794019,"current_range_meters":31200,"station_id":"ce4bgup2rcd13ifvqcn0","pricing_plan_id":"free"},{"bike_id":"5810a51d-900e-4f21-b011-504985336ccb","system_id":"levelo_inurba_marseille","lat":43.324771,"lon":5.36557,"is_reserved":false,"is_disabled":false,"rental_uris":{"android":"levelo://app?vid=5810a51d-900e-4f21-b011-504985336ccb","ios":"levelo://app?vid=5810a51d-900e-4f21-b011-504985336ccb"},"vehicle_type_id":"4","last_reported":1703794019,"current_range_meters":13200,"station_id":"ce4bhs12rcd13ifvqhvg","pricing_plan_id":"free"},{"bike_id":"70abfa59-da22-4db4-b461-f3fbf3adbd95","system_id":"levelo_inurba_marseille","lat":43.324771,"lon":5.36557,"is_reserved":false,"is_disabled":false,"rental_uris":{"android":"levelo://app?vid=70abfa59-da22-4db4-b461-f3fbf3adbd95","ios":"levelo://app?vid=70abfa59-da22-4db4-b461-f3fbf3adbd95"},"vehicle_type_id":"4","last_reported":1703794019,"current_range_meters":18800,"station_id":"ce4bhs12rcd13ifvqhvg","pricing_plan_id":"free"},{"bike_id":"65a5bc48-fdb7-4909-98ac-a83f0d971e40","system_id":"levelo_inurba_marseille","lat":43.324771,"lon":5.36557,"is_reserved":false,"is_disabled":false,"rental_uris":{"android":"levelo://app?vid=65a5bc48-fdb7-4909-98ac-a83f0d971e40","ios":"levelo://app?vid=65a5bc48-fdb7-4909-98ac-a83f0d971e40"},"vehicle_type_id":"4","last_reported":1703794019,"current_range_meters":14000,"station_id":"ce4bhs12rcd13ifvqhvg","pricing_plan_id":"free"},{"bike_id":"03165ce8-8269-4e58-8e8c-5b38922fbfec","system_id":"levelo_inurba_marseille","lat":43.324771,"lon":5.36557,"is_reserved":false,"is_disabled":false,"rental_uris":{"android":"levelo://app?vid=03165ce8-8269-4e58-8e8c-5b38922fbfec","ios":"levelo://app?vid=03165ce8-8269-4e58-8e8c-5b38922fbfec"},"vehicle_type_id":"4","last_reported":1703794019,"current_range_meters":800,"station_id":"ce4bhs12rcd13ifvqhvg","pricing_plan_id":"free"},{"bike_id":"65a7d136-99e5-4eda-8dd9-8c128dc8f4fe","system_id":"levelo_inurba_marseille","lat":43.324771,"lon":5.36557,"is_reserved":false,"is_disabled":false,"rental_uris":{"android":"levelo://app?vid=65a7d136-99e5-4eda-8dd9-8c128dc8f4fe","ios":"levelo://app?vid=65a7d136-99e5-4eda-8dd9-8c128dc8f4fe"},"vehicle_type_id":"4","last_reported":1703794019,"current_range_meters":21600,"station_id":"ce4bhs12rcd13ifvqhvg","pricing_plan_id":"free"},{"bike_id":"44f5aa6f-153b-4bf7-a108-6634d1fab963","system_id":"levelo_inurba_marseille","lat":43.302784,"lon":5.377158,"is_reserved":false,"is_disabled":false,"rental_uris":{"android":"levelo://app?vid=44f5aa6f-153b-4bf7-a108-6634d1fab963","ios":"levelo://app?vid=44f5aa6f-153b-4bf7-a108-6634d1fab963"},"vehicle_type_id":"4","last_reported":1703794019,"current_range_meters":10800,"station_id":"ce4bguh2rcd13ifvqcj0","pricing_plan_id":"free"},{"bike_id":"eb75f652-373e-4726-9e33-c05a085e4a2d","system_id":"levelo_inurba_marseille","lat":43.301453,"lon":5.37416,"is_reserved":false,"is_disabled":false,"rental_uris":{"android":"levelo://app?vid=eb75f652-373e-4726-9e33-c05a085e4a2d","ios":"levelo://app?vid=eb75f652-373e-4726-9e33-c05a085e4a2d"},"vehicle_type_id":"4","last_reported":1703794019,"current_range_meters":4800,"station_id":"","pricing_plan_id":"free"},{"bike_id":"9f56e768-708e-4f3b-9665-77b378da46d8","system_id":"levelo_inurba_marseille","lat":43.319935,"lon":5.381699,"is_reserved":false,"is_disabled":false,"rental_uris":{"android":"levelo://app?vid=9f56e768-708e-4f3b-9665-77b378da46d8","ios":"levelo://app?vid=9f56e768-708e-4f3b-9665-77b378da46d8"},"vehicle_type_id":"4","last_reported":1703794019,"current_range_meters":16400,"station_id":"ce4bhr12rcd13ifvqhpg","pricing_plan_id":"free"},{"bike_id":"5e56827d-c152-4ecd-a38a-84eba3dbf8c2","system_id":"levelo_inurba_marseille","lat":43.319935,"lon":5.381699,"is_reserved":false,"is_disabled":false,"rental_uris":{"android":"levelo://app?vid=5e56827d-c152-4ecd-a38a-84eba3dbf8c2","ios":"levelo://app?vid=5e56827d-c152-4ecd-a38a-84eba3dbf8c2"},"vehicle_type_id":"4","last_reported":1703794019,"current_range_meters":24800,"station_id":"ce4bhr12rcd13ifvqhpg","pricing_plan_id":"free"},{"bike_id":"990a5cce-64ae-4b14-b861-dfa123114d7c","system_id":"levelo_inurba_marseille","lat":43.319935,"lon":5.381699,"is_reserved":false,"is_disabled":false,"rental_uris":{"android":"levelo://app?vid=990a5cce-64ae-4b14-b861-dfa123114d7c","ios":"levelo://app?vid=990a5cce-64ae-4b14-b861-dfa123114d7c"},"vehicle_type_id":"4","last_reported":1703794019,"current_range_meters":0,"station_id":"ce4bhr12rcd13ifvqhpg","pricing_plan_id":"free"},{"bike_id":"489efb97-6469-4c5c-b718-7660c1202bfd","system_id":"levelo_inurba_marseille","lat":43.319935,"lon":5.381699,"is_reserved":false,"is_disabled":false,"rental_uris":{"android":"levelo://app?vid=489efb97-6469-4c5c-b718-7660c1202bfd","ios":"levelo://app?vid=489efb97-6469-4c5c-b718-7660c1202bfd"},"vehicle_type_id":"4","last_reported":1703794019,"current_range_meters":11200,"station_id":"ce4bhr12rcd13ifvqhpg","pricing_plan_id":"free"},{"bike_id":"d798eee3-c9cd-4e09-a137-162e27e1625e","system_id":"levelo_inurba_marseille","lat":43.319935,"lon":5.381699,"is_reserved":false,"is_disabled":false,"rental_uris":{"android":"levelo://app?vid=d798eee3-c9cd-4e09-a137-162e27e1625e","ios":"levelo://app?vid=d798eee3-c9cd-4e09-a137-162e27e1625e"},"vehicle_type_id":"4","last_reported":1703794019,"current_range_meters":24800,"station_id":"ce4bhr12rcd13ifvqhpg","pricing_plan_id":"free"},{"bike_id":"888a4ad6-7e75-40f0-add7-09f38a533c02","system_id":"levelo_inurba_marseille","lat":43.319935,"lon":5.381699,"is_reserved":false,"is_disabled":false,"rental_uris":{"android":"levelo://app?vid=888a4ad6-7e75-40f0-add7-09f38a533c02","ios":"levelo://app?vid=888a4ad6-7e75-40f0-add7-09f38a533c02"},"vehicle_type_id":"4","last_reported":1703794019,"current_range_meters":24800,"station_id":"ce4bhr12rcd13ifvqhpg","pricing_plan_id":"free"},{"bike_id":"51ea5272-c5f1-4be1-a15c-df7b03fa2561","system_id":"levelo_inurba_marseille","lat":43.313571,"lon":5.384829,"is_reserved":false,"is_disabled":false,"rental_uris":{"android":"levelo://app?vid=51ea5272-c5f1-4be1-a15c-df7b03fa2561","ios":"levelo://app?vid=51ea5272-c5f1-4be1-a15c-df7b03fa2561"},"vehicle_type_id":"4","last_reported":1703794019,"current_range_meters":31200,"station_id":"ce4bgt92rcd13ifvqcf0","pricing_plan_id":"free"},{"bike_id":"2bafabbe-ecb7-41e3-853f-f9a51c683dd3","system_id":"levelo_inurba_marseille","lat":43.326125,"lon":5.36117,"is_reserved":false,"is_disabled":false,"rental_uris":{"android":"levelo://app?vid=2bafabbe-ecb7-41e3-853f-f9a51c683dd3","ios":"levelo://app?vid=2bafabbe-ecb7-41e3-853f-f9a51c683dd3"},"vehicle_type_id":"4","last_reported":1703794019,"current_range_meters":17600,"station_id":"","pricing_plan_id":"free"},{"bike_id":"19e69513-1cd3-4459-9c78-4abfc2ac14f8","system_id":"levelo_inurba_marseille","lat":43.311722,"lon":5.387247,"is_reserved":false,"is_disabled":false,"rental_uris":{"android":"levelo://app?vid=19e69513-1cd3-4459-9c78-4abfc2ac14f8","ios":"levelo://app?vid=19e69513-1cd3-4459-9c78-4abfc2ac14f8"},"vehicle_type_id":"4","last_reported":1703794019,"current_range_meters":14800,"station_id":"ce4bgv12rcd13ifvqcp0","pricing_plan_id":"free"},{"bike_id":"3270f28d-7b09-46cb-ba43-f40752fc3385","system_id":"levelo_inurba_marseille","lat":43.322872,"lon":5.382756,"is_reserved":false,"is_disabled":false,"rental_uris":{"android":"levelo://app?vid=3270f28d-7b09-46cb-ba43-f40752fc3385","ios":"levelo://app?vid=3270f28d-7b09-46cb-ba43-f40752fc3385"},"vehicle_type_id":"4","last_reported":1703794019,"current_range_meters":31200,"station_id":"ce4bhr12rcd13ifvqhqg","pricing_plan_id":"free"},{"bike_id":"accbbe6d-f8a2-4d0d-badc-393301aad27d","system_id":"levelo_inurba_marseille","lat":43.322872,"lon":5.382756,"is_reserved":false,"is_disabled":false,"rental_uris":{"android":"levelo://app?vid=accbbe6d-f8a2-4d0d-badc-393301aad27d","ios":"levelo://app?vid=accbbe6d-f8a2-4d0d-badc-393301aad27d"},"vehicle_type_id":"4","last_reported":1703794019,"current_range_meters":26400,"station_id":"ce4bhr12rcd13ifvqhqg","pricing_plan_id":"free"},{"bike_id":"09672a17-1e5f-44c1-8769-6ce930bc0ca3","system_id":"levelo_inurba_marseille","lat":43.322872,"lon":5.382756,"is_reserved":false,"is_disabled":false,"rental_uris":{"android":"levelo://app?vid=09672a17-1e5f-44c1-8769-6ce930bc0ca3","ios":"levelo://app?vid=09672a17-1e5f-44c1-8769-6ce930bc0ca3"},"vehicle_type_id":"4","last_reported":1703794019,"current_range_meters":27600,"station_id":"ce4bhr12rcd13ifvqhqg","pricing_plan_id":"free"},{"bike_id":"a677cd10-a09b-4b2e-bffd-45b05d2c9229","system_id":"levelo_inurba_marseille","lat":43.328222,"lon":5.366805,"is_reserved":false,"is_disabled":false,"rental_uris":{"android":"levelo://app?vid=a677cd10-a09b-4b2e-bffd-45b05d2c9229","ios":"levelo://app?vid=a677cd10-a09b-4b2e-bffd-45b05d2c9229"},"vehicle_type_id":"4","last_reported":1703794019,"current_range_meters":24400,"station_id":"ce4bhs92rcd13ifvqi0g","pricing_plan_id":"free"},{"bike_id":"639980c6-9f73-401a-b944-961e7482aee9","system_id":"levelo_inurba_marseille","lat":43.328237,"lon":5.366789,"is_reserved":false,"is_disabled":false,"rental_uris":{"android":"levelo://app?vid=639980c6-9f73-401a-b944-961e7482aee9","ios":"levelo://app?vid=639980c6-9f73-401a-b944-961e7482aee9"},"vehicle_type_id":"4","last_reported":1703794019,"current_range_meters":5600,"station_id":"ce4bhs92rcd13ifvqi0g","pricing_plan_id":"free"},{"bike_id":"7ea8bc73-fd78-4092-b401-fe58e9c98c2a","system_id":"levelo_inurba_marseille","lat":43.32824,"lon":5.366784,"is_reserved":false,"is_disabled":false,"rental_uris":{"android":"levelo://app?vid=7ea8bc73-fd78-4092-b401-fe58e9c98c2a","ios":"levelo://app?vid=7ea8bc73-fd78-4092-b401-fe58e9c98c2a"},"vehicle_type_id":"4","last_reported":1703794019,"current_range_meters":8400,"station_id":"ce4bhs92rcd13ifvqi0g","pricing_plan_id":"free"},{"bike_id":"51714c4a-3132-4951-88ec-80e85fa125e8","system_id":"levelo_inurba_marseille","lat":43.328242,"lon":5.36677,"is_reserved":false,"is_disabled":false,"rental_uris":{"android":"levelo://app?vid=51714c4a-3132-4951-88ec-80e85fa125e8","ios":"levelo://app?vid=51714c4a-3132-4951-88ec-80e85fa125e8"},"vehicle_type_id":"4","last_reported":1703794019,"current_range_meters":18000,"station_id":"ce4bhs92rcd13ifvqi0g","pricing_plan_id":"free"},{"bike_id":"ddee1e46-a8ad-4997-9dc5-136753741280","system_id":"levelo_inurba_marseille","lat":43.328244,"lon":5.366771,"is_reserved":false,"is_disabled":false,"rental_uris":{"android":"levelo://app?vid=ddee1e46-a8ad-4997-9dc5-136753741280","ios":"levelo://app?vid=ddee1e46-a8ad-4997-9dc5-136753741280"},"vehicle_type_id":"4","last_reported":1703794019,"current_range_meters":24800,"station_id":"ce4bhs92rcd13ifvqi0g","pricing_plan_id":"free"},{"bike_id":"1ea82e61-37ea-4b15-a6ef-01d29683b9fd","system_id":"levelo_inurba_marseille","lat":43.328244,"lon":5.366817,"is_reserved":false,"is_disabled":false,"rental_uris":{"android":"levelo://app?vid=1ea82e61-37ea-4b15-a6ef-01d29683b9fd","ios":"levelo://app?vid=1ea82e61-37ea-4b15-a6ef-01d29683b9fd"},"vehicle_type_id":"4","last_reported":1703794019,"current_range_meters":19600,"station_id":"ce4bhs92rcd13ifvqi0g","pricing_plan_id":"free"},{"bike_id":"9af4dca3-d129-4c6f-a8f1-0b83c93205fa","system_id":"levelo_inurba_marseille","lat":43.328248,"lon":5.366762,"is_reserved":false,"is_disabled":false,"rental_uris":{"android":"levelo://app?vid=9af4dca3-d129-4c6f-a8f1-0b83c93205fa","ios":"levelo://app?vid=9af4dca3-d129-4c6f-a8f1-0b83c93205fa"},"vehicle_type_id":"4","last_reported":1703794019,"current_range_meters":14800,"station_id":"ce4bhs92rcd13ifvqi0g","pricing_plan_id":"free"},{"bike_id":"5c89eee7-6e83-42b4-bd81-efdcf68f6666","system_id":"levelo_inurba_marseille","lat":43.328249,"lon":5.366807,"is_reserved":false,"is_disabled":false,"rental_uris":{"android":"levelo://app?vid=5c89eee7-6e83-42b4-bd81-efdcf68f6666","ios":"levelo://app?vid=5c89eee7-6e83-42b4-bd81-efdcf68f6666"},"vehicle_type_id":"4","last_reported":1703794019,"current_range_meters":26800,"station_id":"ce4bhs92rcd13ifvqi0g","pricing_plan_id":"free"},{"bike_id":"b30b3d1b-ef61-4776-bd7b-61c34fd8cc81","system_id":"levelo_inurba_marseille","lat":43.328251,"lon":5.366734,"is_reserved":false,"is_disabled":false,"rental_uris":{"android":"levelo://app?vid=b30b3d1b-ef61-4776-bd7b-61c34fd8cc81","ios":"levelo://app?vid=b30b3d1b-ef61-4776-bd7b-61c34fd8cc81"},"vehicle_type_id":"4","last_reported":1703794019,"current_range_meters":17600,"station_id":"ce4bhs92rcd13ifvqi0g","pricing_plan_id":"free"},{"bike_id":"a448ca86-2b35-41e1-89c4-32a99bab0563","system_id":"levelo_inurba_marseille","lat":43.328371,"lon":5.366912,"is_reserved":false,"is_disabled":false,"rental_uris":{"android":"levelo://app?vid=a448ca86-2b35-41e1-89c4-32a99bab0563","ios":"levelo://app?vid=a448ca86-2b35-41e1-89c4-32a99bab0563"},"vehicle_type_id":"4","last_reported":1703794019,"current_range_meters":22800,"station_id":"ce4bhs92rcd13ifvqi0g","pricing_plan_id":"free"},{"bike_id":"6eb75a18-acfd-4ffa-bf23-27c5e63a3c58","system_id":"levelo_inurba_marseille","lat":43.328269,"lon":5.366721,"is_reserved":false,"is_disabled":false,"rental_uris":{"android":"levelo://app?vid=6eb75a18-acfd-4ffa-bf23-27c5e63a3c58","ios":"levelo://app?vid=6eb75a18-acfd-4ffa-bf23-27c5e63a3c58"},"vehicle_type_id":"4","last_reported":1703794019,"current_range_meters":22000,"station_id":"ce4bhs92rcd13ifvqi0g","pricing_plan_id":"free"},{"bike_id":"6f67326a-1664-406f-9978-902e013e2357","system_id":"levelo_inurba_marseille","lat":43.328269,"lon":5.366772,"is_reserved":false,"is_disabled":false,"rental_uris":{"android":"levelo://app?vid=6f67326a-1664-406f-9978-902e013e2357","ios":"levelo://app?vid=6f67326a-1664-406f-9978-902e013e2357"},"vehicle_type_id":"4","last_reported":1703794019,"current_range_meters":22400,"station_id":"ce4bhs92rcd13ifvqi0g","pricing_plan_id":"free"},{"bike_id":"de708f00-7118-4d7c-9021-d7dcbd798473","system_id":"levelo_inurba_marseille","lat":43.328371,"lon":5.366909,"is_reserved":false,"is_disabled":false,"rental_uris":{"android":"levelo://app?vid=de708f00-7118-4d7c-9021-d7dcbd798473","ios":"levelo://app?vid=de708f00-7118-4d7c-9021-d7dcbd798473"},"vehicle_type_id":"4","last_reported":1703794019,"current_range_meters":14000,"station_id":"ce4bhs92rcd13ifvqi0g","pricing_plan_id":"free"},{"bike_id":"520290bd-48a0-4016-9c3c-b95db8586e08","system_id":"levelo_inurba_marseille","lat":43.328284,"lon":5.36682,"is_reserved":false,"is_disabled":false,"rental_uris":{"android":"levelo://app?vid=520290bd-48a0-4016-9c3c-b95db8586e08","ios":"levelo://app?vid=520290bd-48a0-4016-9c3c-b95db8586e08"},"vehicle_type_id":"4","last_reported":1703794019,"current_range_meters":22400,"station_id":"ce4bhs92rcd13ifvqi0g","pricing_plan_id":"free"},{"bike_id":"ea7074d7-b7c9-4941-82c2-dff391bae9cb","system_id":"levelo_inurba_marseille","lat":43.328288,"lon":5.366775,"is_reserved":false,"is_disabled":false,"rental_uris":{"android":"levelo://app?vid=ea7074d7-b7c9-4941-82c2-dff391bae9cb","ios":"levelo://app?vid=ea7074d7-b7c9-4941-82c2-dff391bae9cb"},"vehicle_type_id":"4","last_reported":1703794019,"current_range_meters":14000,"station_id":"ce4bhs92rcd13ifvqi0g","pricing_plan_id":"free"},{"bike_id":"904f83aa-e9ab-401d-84c1-9edfed82b884","system_id":"levelo_inurba_marseille","lat":43.328371,"lon":5.366912,"is_reserved":false,"is_disabled":false,"rental_uris":{"android":"levelo://app?vid=904f83aa-e9ab-401d-84c1-9edfed82b884","ios":"levelo://app?vid=904f83aa-e9ab-401d-84c1-9edfed82b884"},"vehicle_type_id":"4","last_reported":1703794019,"current_range_meters":8800,"station_id":"ce4bhs92rcd13ifvqi0g","pricing_plan_id":"free"},{"bike_id":"ea3683d0-8e11-4665-853d-842915a313b0","system_id":"levelo_inurba_marseille","lat":43.297163,"lon":5.365866,"is_reserved":false,"is_disabled":false,"rental_uris":{"android":"levelo://app?vid=ea3683d0-8e11-4665-853d-842915a313b0","ios":"levelo://app?vid=ea3683d0-8e11-4665-853d-842915a313b0"},"vehicle_type_id":"4","last_reported":1703794019,"current_range_meters":20400,"station_id":"ce4bgn12rcd13ifvqbt0","pricing_plan_id":"free"},{"bike_id":"370cccf7-c9ba-46c2-819b-c8e8cacc4c21","system_id":"levelo_inurba_marseille","lat":43.3277,"lon":5.37458,"is_reserved":false,"is_disabled":false,"rental_uris":{"android":"levelo://app?vid=370cccf7-c9ba-46c2-819b-c8e8cacc4c21","ios":"levelo://app?vid=370cccf7-c9ba-46c2-819b-c8e8cacc4c21"},"vehicle_type_id":"4","last_reported":1703794019,"current_range_meters":17200,"station_id":"","pricing_plan_id":"free"},{"bike_id":"921b424d-ad0d-4c7a-9d74-66e3a49bfa19","system_id":"levelo_inurba_marseille","lat":43.32934,"lon":5.36612,"is_reserved":false,"is_disabled":false,"rental_uris":{"android":"levelo://app?vid=921b424d-ad0d-4c7a-9d74-66e3a49bfa19","ios":"levelo://app?vid=921b424d-ad0d-4c7a-9d74-66e3a49bfa19"},"vehicle_type_id":"4","last_reported":1703794019,"current_range_meters":12400,"station_id":"","pricing_plan_id":"free"},{"bike_id":"4beb78ff-9e44-4957-86a6-5a189a9198be","system_id":"levelo_inurba_marseille","lat":43.29573,"lon":5.367355,"is_reserved":false,"is_disabled":false,"rental_uris":{"android":"levelo://app?vid=4beb78ff-9e44-4957-86a6-5a189a9198be","ios":"levelo://app?vid=4beb78ff-9e44-4957-86a6-5a189a9198be"},"vehicle_type_id":"4","last_reported":1703794019,"current_range_meters":3600,"station_id":"ce4bgph2rcd13ifvqc2g","pricing_plan_id":"free"},{"bike_id":"4fa3f89c-b348-4c2d-8644-f756ca288992","system_id":"levelo_inurba_marseille","lat":43.29573,"lon":5.367355,"is_reserved":false,"is_disabled":false,"rental_uris":{"android":"levelo://app?vid=4fa3f89c-b348-4c2d-8644-f756ca288992","ios":"levelo://app?vid=4fa3f89c-b348-4c2d-8644-f756ca288992"},"vehicle_type_id":"4","last_reported":1703794019,"current_range_meters":28000,"station_id":"ce4bgph2rcd13ifvqc2g","pricing_plan_id":"free"},{"bike_id":"24dfe806-81ce-4c38-baa1-f6f4334d5519","system_id":"levelo_inurba_marseille","lat":43.299028,"lon":5.381509,"is_reserved":false,"is_disabled":false,"rental_uris":{"android":"levelo://app?vid=24dfe806-81ce-4c38-baa1-f6f4334d5519","ios":"levelo://app?vid=24dfe806-81ce-4c38-baa1-f6f4334d5519"},"vehicle_type_id":"4","last_reported":1703794019,"current_range_meters":16000,"station_id":"ce4bgj12rcd13ifvqbc0","pricing_plan_id":"free"},{"bike_id":"b55488ea-4ac9-4f8f-a456-d98549294fd8","system_id":"levelo_inurba_marseille","lat":43.309589,"lon":5.390258,"is_reserved":false,"is_disabled":false,"rental_uris":{"android":"levelo://app?vid=b55488ea-4ac9-4f8f-a456-d98549294fd8","ios":"levelo://app?vid=b55488ea-4ac9-4f8f-a456-d98549294fd8"},"vehicle_type_id":"4","last_reported":1703794019,"current_range_meters":24400,"station_id":"ce4bgup2rcd13ifvqco0","pricing_plan_id":"free"},{"bike_id":"30703f49-e367-47bc-98eb-9c5c263bf3ed","system_id":"levelo_inurba_marseille","lat":43.309589,"lon":5.390258,"is_reserved":false,"is_disabled":false,"rental_uris":{"android":"levelo://app?vid=30703f49-e367-47bc-98eb-9c5c263bf3ed","ios":"levelo://app?vid=30703f49-e367-47bc-98eb-9c5c263bf3ed"},"vehicle_type_id":"4","last_reported":1703794019,"current_range_meters":15200,"station_id":"ce4bgup2rcd13ifvqco0","pricing_plan_id":"free"},{"bike_id":"343086f3-1a3c-40f3-9181-b956ab2dc60a","system_id":"levelo_inurba_marseille","lat":43.309589,"lon":5.390258,"is_reserved":false,"is_disabled":false,"rental_uris":{"android":"levelo://app?vid=343086f3-1a3c-40f3-9181-b956ab2dc60a","ios":"levelo://app?vid=343086f3-1a3c-40f3-9181-b956ab2dc60a"},"vehicle_type_id":"4","last_reported":1703794019,"current_range_meters":27200,"station_id":"ce4bgup2rcd13ifvqco0","pricing_plan_id":"free"},{"bike_id":"8d8148ed-5428-47cc-b7de-9d4193bdb3de","system_id":"levelo_inurba_marseille","lat":43.309589,"lon":5.390258,"is_reserved":false,"is_disabled":false,"rental_uris":{"android":"levelo://app?vid=8d8148ed-5428-47cc-b7de-9d4193bdb3de","ios":"levelo://app?vid=8d8148ed-5428-47cc-b7de-9d4193bdb3de"},"vehicle_type_id":"4","last_reported":1703794019,"current_range_meters":8000,"station_id":"ce4bgup2rcd13ifvqco0","pricing_plan_id":"free"},{"bike_id":"1d26c958-7a6c-41ab-98a3-9927e1591f6a","system_id":"levelo_inurba_marseille","lat":43.309589,"lon":5.390258,"is_reserved":false,"is_disabled":false,"rental_uris":{"android":"levelo://app?vid=1d26c958-7a6c-41ab-98a3-9927e1591f6a","ios":"levelo://app?vid=1d26c958-7a6c-41ab-98a3-9927e1591f6a"},"vehicle_type_id":"4","last_reported":1703794019,"current_range_meters":28800,"station_id":"ce4bgup2rcd13ifvqco0","pricing_plan_id":"free"},{"bike_id":"48ebe52a-8a2f-4769-932e-dddc51aea7f6","system_id":"levelo_inurba_marseille","lat":43.317557,"lon":5.390173,"is_reserved":false,"is_disabled":false,"rental_uris":{"android":"levelo://app?vid=48ebe52a-8a2f-4769-932e-dddc51aea7f6","ios":"levelo://app?vid=48ebe52a-8a2f-4769-932e-dddc51aea7f6"},"vehicle_type_id":"4","last_reported":1703794019,"current_range_meters":1600,"station_id":"ce4bhqp2rcd13ifvqhng","pricing_plan_id":"free"},{"bike_id":"e6270e07-7d38-4634-9103-543b64b9f946","system_id":"levelo_inurba_marseille","lat":43.317557,"lon":5.390173,"is_reserved":false,"is_disabled":false,"rental_uris":{"android":"levelo://app?vid=e6270e07-7d38-4634-9103-543b64b9f946","ios":"levelo://app?vid=e6270e07-7d38-4634-9103-543b64b9f946"},"vehicle_type_id":"4","last_reported":1703794019,"current_range_meters":16000,"station_id":"ce4bhqp2rcd13ifvqhng","pricing_plan_id":"free"},{"bike_id":"798607c8-df88-450a-84e4-bdced3b318c1","system_id":"levelo_inurba_marseille","lat":43.295748,"lon":5.37522,"is_reserved":false,"is_disabled":false,"rental_uris":{"android":"levelo://app?vid=798607c8-df88-450a-84e4-bdced3b318c1","ios":"levelo://app?vid=798607c8-df88-450a-84e4-bdced3b318c1"},"vehicle_type_id":"4","last_reported":1703794019,"current_range_meters":28800,"station_id":"ce4bgh92rcd13ifvqb50","pricing_plan_id":"free"},{"bike_id":"e5fceaa9-76bd-46ad-9eb3-18db2350f595","system_id":"levelo_inurba_marseille","lat":43.304274,"lon":5.388873,"is_reserved":false,"is_disabled":false,"rental_uris":{"android":"levelo://app?vid=e5fceaa9-76bd-46ad-9eb3-18db2350f595","ios":"levelo://app?vid=e5fceaa9-76bd-46ad-9eb3-18db2350f595"},"vehicle_type_id":"4","last_reported":1703794019,"current_range_meters":4400,"station_id":"ce4bgk12rcd13ifvqbi0","pricing_plan_id":"free"},{"bike_id":"3c4d8863-27f3-4d78-b7f5-3c2f01cff309","system_id":"levelo_inurba_marseille","lat":43.304274,"lon":5.388873,"is_reserved":false,"is_disabled":false,"rental_uris":{"android":"levelo://app?vid=3c4d8863-27f3-4d78-b7f5-3c2f01cff309","ios":"levelo://app?vid=3c4d8863-27f3-4d78-b7f5-3c2f01cff309"},"vehicle_type_id":"4","last_reported":1703794019,"current_range_meters":6000,"station_id":"ce4bgk12rcd13ifvqbi0","pricing_plan_id":"free"},{"bike_id":"6564547e-6f7d-4154-814b-20670cdaba9e","system_id":"levelo_inurba_marseille","lat":43.304274,"lon":5.388873,"is_reserved":false,"is_disabled":false,"rental_uris":{"android":"levelo://app?vid=6564547e-6f7d-4154-814b-20670cdaba9e","ios":"levelo://app?vid=6564547e-6f7d-4154-814b-20670cdaba9e"},"vehicle_type_id":"4","last_reported":1703794019,"current_range_meters":8800,"station_id":"ce4bgk12rcd13ifvqbi0","pricing_plan_id":"free"},{"bike_id":"d60802d6-4f47-444a-b234-883690eec05b","system_id":"levelo_inurba_marseille","lat":43.33067,"lon":5.36295,"is_reserved":false,"is_disabled":false,"rental_uris":{"android":"levelo://app?vid=d60802d6-4f47-444a-b234-883690eec05b","ios":"levelo://app?vid=d60802d6-4f47-444a-b234-883690eec05b"},"vehicle_type_id":"4","last_reported":1703794019,"current_range_meters":31200,"station_id":"","pricing_plan_id":"free"},{"bike_id":"7119845d-00aa-4d9f-be8c-fc97d41f1380","system_id":"levelo_inurba_marseille","lat":43.297594,"lon":5.381134,"is_reserved":false,"is_disabled":false,"rental_uris":{"android":"levelo://app?vid=7119845d-00aa-4d9f-be8c-fc97d41f1380","ios":"levelo://app?vid=7119845d-00aa-4d9f-be8c-fc97d41f1380"},"vehicle_type_id":"4","last_reported":1703794019,"current_range_meters":22400,"station_id":"ce4bgip2rcd13ifvqbb0","pricing_plan_id":"free"},{"bike_id":"64e08778-3e7b-4c08-aaa7-765ecbf426e5","system_id":"levelo_inurba_marseille","lat":43.32367,"lon":5.388836,"is_reserved":false,"is_disabled":false,"rental_uris":{"android":"levelo://app?vid=64e08778-3e7b-4c08-aaa7-765ecbf426e5","ios":"levelo://app?vid=64e08778-3e7b-4c08-aaa7-765ecbf426e5"},"vehicle_type_id":"4","last_reported":1703794019,"current_range_meters":9600,"station_id":"ce4bhqp2rcd13ifvqhog","pricing_plan_id":"free"},{"bike_id":"1806aa5b-d35b-47fd-a49d-778b55269f70","system_id":"levelo_inurba_marseille","lat":43.32367,"lon":5.388836,"is_reserved":false,"is_disabled":false,"rental_uris":{"android":"levelo://app?vid=1806aa5b-d35b-47fd-a49d-778b55269f70","ios":"levelo://app?vid=1806aa5b-d35b-47fd-a49d-778b55269f70"},"vehicle_type_id":"4","last_reported":1703794019,"current_range_meters":3200,"station_id":"ce4bhqp2rcd13ifvqhog","pricing_plan_id":"free"},{"bike_id":"412b0300-bca9-407f-8529-62d2e7880d74","system_id":"levelo_inurba_marseille","lat":43.32367,"lon":5.388836,"is_reserved":false,"is_disabled":false,"rental_uris":{"android":"levelo://app?vid=412b0300-bca9-407f-8529-62d2e7880d74","ios":"levelo://app?vid=412b0300-bca9-407f-8529-62d2e7880d74"},"vehicle_type_id":"4","last_reported":1703794019,"current_range_meters":3200,"station_id":"ce4bhqp2rcd13ifvqhog","pricing_plan_id":"free"},{"bike_id":"3ac6f280-a2dd-44dd-b1a0-a778a2499c01","system_id":"levelo_inurba_marseille","lat":43.305994,"lon":5.393687,"is_reserved":false,"is_disabled":false,"rental_uris":{"android":"levelo://app?vid=3ac6f280-a2dd-44dd-b1a0-a778a2499c01","ios":"levelo://app?vid=3ac6f280-a2dd-44dd-b1a0-a778a2499c01"},"vehicle_type_id":"4","last_reported":1703794019,"current_range_meters":21600,"station_id":"ce4bh0p2rcd13ifvqd80","pricing_plan_id":"free"},{"bike_id":"62b54142-3983-4b50-aac5-0d1c3f774bd4","system_id":"levelo_inurba_marseille","lat":43.305994,"lon":5.393687,"is_reserved":false,"is_disabled":false,"rental_uris":{"android":"levelo://app?vid=62b54142-3983-4b50-aac5-0d1c3f774bd4","ios":"levelo://app?vid=62b54142-3983-4b50-aac5-0d1c3f774bd4"},"vehicle_type_id":"4","last_reported":1703794019,"current_range_meters":23200,"station_id":"ce4bh0p2rcd13ifvqd80","pricing_plan_id":"free"},{"bike_id":"7bdbae13-3e27-479a-8e73-76a33db860fd","system_id":"levelo_inurba_marseille","lat":43.3059,"lon":5.39365,"is_reserved":false,"is_disabled":false,"rental_uris":{"android":"levelo://app?vid=7bdbae13-3e27-479a-8e73-76a33db860fd","ios":"levelo://app?vid=7bdbae13-3e27-479a-8e73-76a33db860fd"},"vehicle_type_id":"4","last_reported":1703794019,"current_range_meters":0,"station_id":"ce4bh0p2rcd13ifvqd80","pricing_plan_id":"free"},{"bike_id":"87210ac9-e56e-4dc6-b2c4-1bcc136469d6","system_id":"levelo_inurba_marseille","lat":43.29364,"lon":5.37869,"is_reserved":false,"is_disabled":false,"rental_uris":{"android":"levelo://app?vid=87210ac9-e56e-4dc6-b2c4-1bcc136469d6","ios":"levelo://app?vid=87210ac9-e56e-4dc6-b2c4-1bcc136469d6"},"vehicle_type_id":"4","last_reported":1703794019,"current_range_meters":24800,"station_id":"ce4bgjh2rcd13ifvqbf0","pricing_plan_id":"free"},{"bike_id":"61ae9a37-eac4-4983-8f9f-420cb9d136f9","system_id":"levelo_inurba_marseille","lat":43.2927,"lon":5.3762,"is_reserved":false,"is_disabled":false,"rental_uris":{"android":"levelo://app?vid=61ae9a37-eac4-4983-8f9f-420cb9d136f9","ios":"levelo://app?vid=61ae9a37-eac4-4983-8f9f-420cb9d136f9"},"vehicle_type_id":"4","last_reported":1703794019,"current_range_meters":24400,"station_id":"","pricing_plan_id":"free"},{"bike_id":"b00f6de9-fdda-445c-aea9-11cfae83e017","system_id":"levelo_inurba_marseille","lat":43.291675,"lon":5.371583,"is_reserved":false,"is_disabled":false,"rental_uris":{"android":"levelo://app?vid=b00f6de9-fdda-445c-aea9-11cfae83e017","ios":"levelo://app?vid=b00f6de9-fdda-445c-aea9-11cfae83e017"},"vehicle_type_id":"4","last_reported":1703794019,"current_range_meters":14800,"station_id":"ce4bha92rcd13ifvqeh0","pricing_plan_id":"free"},{"bike_id":"b5ab4d8f-4be5-49ad-9660-7666de367904","system_id":"levelo_inurba_marseille","lat":43.313291,"lon":5.396838,"is_reserved":false,"is_disabled":false,"rental_uris":{"android":"levelo://app?vid=b5ab4d8f-4be5-49ad-9660-7666de367904","ios":"levelo://app?vid=b5ab4d8f-4be5-49ad-9660-7666de367904"},"vehicle_type_id":"4","last_reported":1703794019,"current_range_meters":20400,"station_id":"ce4bgvp2rcd13ifvqcu0","pricing_plan_id":"free"},{"bike_id":"63dc56c1-e580-4d07-870a-c629bf52dd02","system_id":"levelo_inurba_marseille","lat":43.313291,"lon":5.396838,"is_reserved":false,"is_disabled":false,"rental_uris":{"android":"levelo://app?vid=63dc56c1-e580-4d07-870a-c629bf52dd02","ios":"levelo://app?vid=63dc56c1-e580-4d07-870a-c629bf52dd02"},"vehicle_type_id":"4","last_reported":1703794019,"current_range_meters":800,"station_id":"ce4bgvp2rcd13ifvqcu0","pricing_plan_id":"free"},{"bike_id":"3a505556-f905-4e45-85b4-070f222d6e01","system_id":"levelo_inurba_marseille","lat":43.291994,"lon":5.357886,"is_reserved":false,"is_disabled":false,"rental_uris":{"android":"levelo://app?vid=3a505556-f905-4e45-85b4-070f222d6e01","ios":"levelo://app?vid=3a505556-f905-4e45-85b4-070f222d6e01"},"vehicle_type_id":"4","last_reported":1703794019,"current_range_meters":20400,"station_id":"ce4bhb12rcd13ifvqel0","pricing_plan_id":"free"},{"bike_id":"60762be1-8b8b-45a4-992d-8ec8f25aa85d","system_id":"levelo_inurba_marseille","lat":43.313291,"lon":5.396838,"is_reserved":false,"is_disabled":false,"rental_uris":{"android":"levelo://app?vid=60762be1-8b8b-45a4-992d-8ec8f25aa85d","ios":"levelo://app?vid=60762be1-8b8b-45a4-992d-8ec8f25aa85d"},"vehicle_type_id":"4","last_reported":1703794019,"current_range_meters":15200,"station_id":"ce4bgvp2rcd13ifvqcu0","pricing_plan_id":"free"},{"bike_id":"c2d90467-400b-4fd2-90f7-48f4c5da748e","system_id":"levelo_inurba_marseille","lat":43.31325,"lon":5.39696,"is_reserved":false,"is_disabled":false,"rental_uris":{"android":"levelo://app?vid=c2d90467-400b-4fd2-90f7-48f4c5da748e","ios":"levelo://app?vid=c2d90467-400b-4fd2-90f7-48f4c5da748e"},"vehicle_type_id":"4","last_reported":1703794019,"current_range_meters":21200,"station_id":"","pricing_plan_id":"free"},{"bike_id":"dbe2df8b-7a06-49c5-94a8-8ade74a4bf67","system_id":"levelo_inurba_marseille","lat":43.309038,"lon":5.396546,"is_reserved":false,"is_disabled":false,"rental_uris":{"android":"levelo://app?vid=dbe2df8b-7a06-49c5-94a8-8ade74a4bf67","ios":"levelo://app?vid=dbe2df8b-7a06-49c5-94a8-8ade74a4bf67"},"vehicle_type_id":"4","last_reported":1703794019,"current_range_meters":15200,"station_id":"ce4bh012rcd13ifvqcv0","pricing_plan_id":"free"},{"bike_id":"6779d787-f9d2-4516-95b4-a3cbd4ce9f8e","system_id":"levelo_inurba_marseille","lat":43.309038,"lon":5.396546,"is_reserved":false,"is_disabled":false,"rental_uris":{"android":"levelo://app?vid=6779d787-f9d2-4516-95b4-a3cbd4ce9f8e","ios":"levelo://app?vid=6779d787-f9d2-4516-95b4-a3cbd4ce9f8e"},"vehicle_type_id":"4","last_reported":1703794019,"current_range_meters":2400,"station_id":"ce4bh012rcd13ifvqcv0","pricing_plan_id":"free"},{"bike_id":"782cec3a-e589-4831-9b2d-afea3be853c8","system_id":"levelo_inurba_marseille","lat":43.309047,"lon":5.396551,"is_reserved":false,"is_disabled":false,"rental_uris":{"android":"levelo://app?vid=782cec3a-e589-4831-9b2d-afea3be853c8","ios":"levelo://app?vid=782cec3a-e589-4831-9b2d-afea3be853c8"},"vehicle_type_id":"4","last_reported":1703794019,"current_range_meters":18000,"station_id":"ce4bh012rcd13ifvqcv0","pricing_plan_id":"free"},{"bike_id":"72ff7c9c-de38-4234-92a5-e9bb4b49e1fd","system_id":"levelo_inurba_marseille","lat":43.309038,"lon":5.396546,"is_reserved":false,"is_disabled":false,"rental_uris":{"android":"levelo://app?vid=72ff7c9c-de38-4234-92a5-e9bb4b49e1fd","ios":"levelo://app?vid=72ff7c9c-de38-4234-92a5-e9bb4b49e1fd"},"vehicle_type_id":"4","last_reported":1703794019,"current_range_meters":13600,"station_id":"ce4bh012rcd13ifvqcv0","pricing_plan_id":"free"},{"bike_id":"b84f1156-262d-49a8-b611-7d885ac03bb2","system_id":"levelo_inurba_marseille","lat":43.313291,"lon":5.396838,"is_reserved":false,"is_disabled":false,"rental_uris":{"android":"levelo://app?vid=b84f1156-262d-49a8-b611-7d885ac03bb2","ios":"levelo://app?vid=b84f1156-262d-49a8-b611-7d885ac03bb2"},"vehicle_type_id":"4","last_reported":1703794019,"current_range_meters":5600,"station_id":"ce4bgvp2rcd13ifvqcu0","pricing_plan_id":"free"},{"bike_id":"75a011d8-a89c-43ef-838a-370727217f8b","system_id":"levelo_inurba_marseille","lat":43.29533,"lon":5.38544,"is_reserved":false,"is_disabled":false,"rental_uris":{"android":"levelo://app?vid=75a011d8-a89c-43ef-838a-370727217f8b","ios":"levelo://app?vid=75a011d8-a89c-43ef-838a-370727217f8b"},"vehicle_type_id":"4","last_reported":1703794019,"current_range_meters":27600,"station_id":"ce4bgih2rcd13ifvqba0","pricing_plan_id":"free"},{"bike_id":"4ce9c4c6-d654-4743-a587-d0d04d0b4c46","system_id":"levelo_inurba_marseille","lat":43.290779,"lon":5.371482,"is_reserved":false,"is_disabled":false,"rental_uris":{"android":"levelo://app?vid=4ce9c4c6-d654-4743-a587-d0d04d0b4c46","ios":"levelo://app?vid=4ce9c4c6-d654-4743-a587-d0d04d0b4c46"},"vehicle_type_id":"4","last_reported":1703794019,"current_range_meters":15200,"station_id":"ce4bh5p2rcd13ifvqe4g","pricing_plan_id":"free"},{"bike_id":"0d5bc31d-2672-42dd-ad83-08bd2473a150","system_id":"levelo_inurba_marseille","lat":43.311535,"lon":5.398065,"is_reserved":false,"is_disabled":false,"rental_uris":{"android":"levelo://app?vid=0d5bc31d-2672-42dd-ad83-08bd2473a150","ios":"levelo://app?vid=0d5bc31d-2672-42dd-ad83-08bd2473a150"},"vehicle_type_id":"4","last_reported":1703794019,"current_range_meters":6800,"station_id":"","pricing_plan_id":"free"},{"bike_id":"be65583f-1f49-45ae-aa68-53b4a3ae097e","system_id":"levelo_inurba_marseille","lat":43.290624,"lon":5.359245,"is_reserved":false,"is_disabled":false,"rental_uris":{"android":"levelo://app?vid=be65583f-1f49-45ae-aa68-53b4a3ae097e","ios":"levelo://app?vid=be65583f-1f49-45ae-aa68-53b4a3ae097e"},"vehicle_type_id":"4","last_reported":1703794019,"current_range_meters":23200,"station_id":"ce4bha92rcd13ifvqeg0","pricing_plan_id":"free"},{"bike_id":"c4944a7b-fe8f-440d-bebb-7e030571bbcf","system_id":"levelo_inurba_marseille","lat":43.294162,"lon":5.386292,"is_reserved":false,"is_disabled":false,"rental_uris":{"android":"levelo://app?vid=c4944a7b-fe8f-440d-bebb-7e030571bbcf","ios":"levelo://app?vid=c4944a7b-fe8f-440d-bebb-7e030571bbcf"},"vehicle_type_id":"4","last_reported":1703794019,"current_range_meters":6000,"station_id":"ce4bh2h2rcd13ifvqdh0","pricing_plan_id":"free"},{"bike_id":"91fc6245-7047-424e-9fda-84be33bcd3fa","system_id":"levelo_inurba_marseille","lat":43.294162,"lon":5.386292,"is_reserved":false,"is_disabled":false,"rental_uris":{"android":"levelo://app?vid=91fc6245-7047-424e-9fda-84be33bcd3fa","ios":"levelo://app?vid=91fc6245-7047-424e-9fda-84be33bcd3fa"},"vehicle_type_id":"4","last_reported":1703794019,"current_range_meters":24000,"station_id":"ce4bh2h2rcd13ifvqdh0","pricing_plan_id":"free"},{"bike_id":"2fc1a354-7bce-4459-8ccd-6e38af5130cb","system_id":"levelo_inurba_marseille","lat":43.292642,"lon":5.384254,"is_reserved":false,"is_disabled":false,"rental_uris":{"android":"levelo://app?vid=2fc1a354-7bce-4459-8ccd-6e38af5130cb","ios":"levelo://app?vid=2fc1a354-7bce-4459-8ccd-6e38af5130cb"},"vehicle_type_id":"4","last_reported":1703794019,"current_range_meters":12800,"station_id":"ce4bh692rcd13ifvqea0","pricing_plan_id":"free"},{"bike_id":"48db66b5-db00-4602-8ccb-240172adf98b","system_id":"levelo_inurba_marseille","lat":43.304274,"lon":5.397513,"is_reserved":false,"is_disabled":false,"rental_uris":{"android":"levelo://app?vid=48db66b5-db00-4602-8ccb-240172adf98b","ios":"levelo://app?vid=48db66b5-db00-4602-8ccb-240172adf98b"},"vehicle_type_id":"4","last_reported":1703794019,"current_range_meters":15600,"station_id":"ce4bh092rcd13ifvqd20","pricing_plan_id":"free"},{"bike_id":"f78fd0f7-b476-462d-9730-76b8892921c8","system_id":"levelo_inurba_marseille","lat":43.292642,"lon":5.384254,"is_reserved":false,"is_disabled":false,"rental_uris":{"android":"levelo://app?vid=f78fd0f7-b476-462d-9730-76b8892921c8","ios":"levelo://app?vid=f78fd0f7-b476-462d-9730-76b8892921c8"},"vehicle_type_id":"4","last_reported":1703794019,"current_range_meters":24800,"station_id":"ce4bh692rcd13ifvqea0","pricing_plan_id":"free"},{"bike_id":"ebfa4934-21ec-4fae-b71c-ab8bdc5f7d7b","system_id":"levelo_inurba_marseille","lat":43.292644,"lon":5.384257,"is_reserved":false,"is_disabled":false,"rental_uris":{"android":"levelo://app?vid=ebfa4934-21ec-4fae-b71c-ab8bdc5f7d7b","ios":"levelo://app?vid=ebfa4934-21ec-4fae-b71c-ab8bdc5f7d7b"},"vehicle_type_id":"4","last_reported":1703794019,"current_range_meters":4400,"station_id":"ce4bh692rcd13ifvqea0","pricing_plan_id":"free"},{"bike_id":"6ca6dfb3-4bbc-485b-83f4-2aac6031ad48","system_id":"levelo_inurba_marseille","lat":43.292644,"lon":5.384257,"is_reserved":false,"is_disabled":false,"rental_uris":{"android":"levelo://app?vid=6ca6dfb3-4bbc-485b-83f4-2aac6031ad48","ios":"levelo://app?vid=6ca6dfb3-4bbc-485b-83f4-2aac6031ad48"},"vehicle_type_id":"4","last_reported":1703794019,"current_range_meters":9200,"station_id":"ce4bh692rcd13ifvqea0","pricing_plan_id":"free"},{"bike_id":"80b4cbbe-d028-4b08-b18e-eb3ae05adf46","system_id":"levelo_inurba_marseille","lat":43.290104,"lon":5.356111,"is_reserved":false,"is_disabled":false,"rental_uris":{"android":"levelo://app?vid=80b4cbbe-d028-4b08-b18e-eb3ae05adf46","ios":"levelo://app?vid=80b4cbbe-d028-4b08-b18e-eb3ae05adf46"},"vehicle_type_id":"4","last_reported":1703794019,"current_range_meters":24000,"station_id":"ce4bhb92rcd13ifvqen0","pricing_plan_id":"free"},{"bike_id":"35e640f8-db6c-4d40-a965-25ce848b5d31","system_id":"levelo_inurba_marseille","lat":43.28988,"lon":5.37818,"is_reserved":false,"is_disabled":false,"rental_uris":{"android":"levelo://app?vid=35e640f8-db6c-4d40-a965-25ce848b5d31","ios":"levelo://app?vid=35e640f8-db6c-4d40-a965-25ce848b5d31"},"vehicle_type_id":"4","last_reported":1703794019,"current_range_meters":30400,"station_id":"ce4bh9p2rcd13ifvqed0","pricing_plan_id":"free"},{"bike_id":"60611e2a-a4e7-4b20-a352-4bf6e52b281f","system_id":"levelo_inurba_marseille","lat":43.29786,"lon":5.39345,"is_reserved":false,"is_disabled":false,"rental_uris":{"android":"levelo://app?vid=60611e2a-a4e7-4b20-a352-4bf6e52b281f","ios":"levelo://app?vid=60611e2a-a4e7-4b20-a352-4bf6e52b281f"},"vehicle_type_id":"4","last_reported":1703794019,"current_range_meters":12400,"station_id":"chh1huq6cuj3fo74tm60","pricing_plan_id":"free"},{"bike_id":"495faf64-a935-4c6e-b77f-2b296d14493a","system_id":"levelo_inurba_marseille","lat":43.331017,"lon":5.389194,"is_reserved":false,"is_disabled":false,"rental_uris":{"android":"levelo://app?vid=495faf64-a935-4c6e-b77f-2b296d14493a","ios":"levelo://app?vid=495faf64-a935-4c6e-b77f-2b296d14493a"},"vehicle_type_id":"4","last_reported":1703794019,"current_range_meters":10800,"station_id":"","pricing_plan_id":"free"},{"bike_id":"d385c8ca-7ce8-468e-845f-11bbcfe5d48d","system_id":"levelo_inurba_marseille","lat":43.289741,"lon":5.378306,"is_reserved":false,"is_disabled":false,"rental_uris":{"android":"levelo://app?vid=d385c8ca-7ce8-468e-845f-11bbcfe5d48d","ios":"levelo://app?vid=d385c8ca-7ce8-468e-845f-11bbcfe5d48d"},"vehicle_type_id":"4","last_reported":1703794019,"current_range_meters":0,"station_id":"ce4bh9p2rcd13ifvqed0","pricing_plan_id":"free"},{"bike_id":"e7e5b367-b928-4b3e-b05f-87b6b3716e8c","system_id":"levelo_inurba_marseille","lat":43.330613,"lon":5.390272,"is_reserved":false,"is_disabled":false,"rental_uris":{"android":"levelo://app?vid=e7e5b367-b928-4b3e-b05f-87b6b3716e8c","ios":"levelo://app?vid=e7e5b367-b928-4b3e-b05f-87b6b3716e8c"},"vehicle_type_id":"4","last_reported":1703794019,"current_range_meters":27200,"station_id":"","pricing_plan_id":"free"},{"bike_id":"3714f51a-efb2-4988-a9b9-167c8d23b4d6","system_id":"levelo_inurba_marseille","lat":43.337444,"lon":5.374475,"is_reserved":false,"is_disabled":false,"rental_uris":{"android":"levelo://app?vid=3714f51a-efb2-4988-a9b9-167c8d23b4d6","ios":"levelo://app?vid=3714f51a-efb2-4988-a9b9-167c8d23b4d6"},"vehicle_type_id":"4","last_reported":1703794019,"current_range_meters":27600,"station_id":"","pricing_plan_id":"free"},{"bike_id":"7abcbf24-3a33-42f7-83ff-33b36936a38c","system_id":"levelo_inurba_marseille","lat":43.312743,"lon":5.401733,"is_reserved":false,"is_disabled":false,"rental_uris":{"android":"levelo://app?vid=7abcbf24-3a33-42f7-83ff-33b36936a38c","ios":"levelo://app?vid=7abcbf24-3a33-42f7-83ff-33b36936a38c"},"vehicle_type_id":"4","last_reported":1703794019,"current_range_meters":0,"station_id":"ce4bh092rcd13ifvqd30","pricing_plan_id":"free"},{"bike_id":"6eb442ad-0b63-4ae4-9d63-3882104d3e25","system_id":"levelo_inurba_marseille","lat":43.337433,"lon":5.374713,"is_reserved":false,"is_disabled":false,"rental_uris":{"android":"levelo://app?vid=6eb442ad-0b63-4ae4-9d63-3882104d3e25","ios":"levelo://app?vid=6eb442ad-0b63-4ae4-9d63-3882104d3e25"},"vehicle_type_id":"4","last_reported":1703794019,"current_range_meters":20800,"station_id":"","pricing_plan_id":"free"},{"bike_id":"433a4871-0435-434a-ba1f-f1586384ef40","system_id":"levelo_inurba_marseille","lat":43.312609,"lon":5.401662,"is_reserved":false,"is_disabled":false,"rental_uris":{"android":"levelo://app?vid=433a4871-0435-434a-ba1f-f1586384ef40","ios":"levelo://app?vid=433a4871-0435-434a-ba1f-f1586384ef40"},"vehicle_type_id":"4","last_reported":1703794019,"current_range_meters":6400,"station_id":"ce4bh092rcd13ifvqd30","pricing_plan_id":"free"},{"bike_id":"cb803d55-fd59-4112-980c-7de3106af9da","system_id":"levelo_inurba_marseille","lat":43.33752,"lon":5.37452,"is_reserved":false,"is_disabled":false,"rental_uris":{"android":"levelo://app?vid=cb803d55-fd59-4112-980c-7de3106af9da","ios":"levelo://app?vid=cb803d55-fd59-4112-980c-7de3106af9da"},"vehicle_type_id":"4","last_reported":1703794019,"current_range_meters":30000,"station_id":"","pricing_plan_id":"free"},{"bike_id":"b24be523-a705-423c-a945-506ca67aa811","system_id":"levelo_inurba_marseille","lat":43.337538,"lon":5.374627,"is_reserved":false,"is_disabled":false,"rental_uris":{"android":"levelo://app?vid=b24be523-a705-423c-a945-506ca67aa811","ios":"levelo://app?vid=b24be523-a705-423c-a945-506ca67aa811"},"vehicle_type_id":"4","last_reported":1703794019,"current_range_meters":24000,"station_id":"","pricing_plan_id":"free"},{"bike_id":"891f8834-fc28-462f-a409-5cb3a000f4e9","system_id":"levelo_inurba_marseille","lat":43.309371,"lon":5.401449,"is_reserved":false,"is_disabled":false,"rental_uris":{"android":"levelo://app?vid=891f8834-fc28-462f-a409-5cb3a000f4e9","ios":"levelo://app?vid=891f8834-fc28-462f-a409-5cb3a000f4e9"},"vehicle_type_id":"4","last_reported":1703794019,"current_range_meters":10400,"station_id":"ce4bgvp2rcd13ifvqct0","pricing_plan_id":"free"},{"bike_id":"38a8720a-3482-45e9-8b05-47a0bef75ca6","system_id":"levelo_inurba_marseille","lat":43.33757,"lon":5.37476,"is_reserved":false,"is_disabled":false,"rental_uris":{"android":"levelo://app?vid=38a8720a-3482-45e9-8b05-47a0bef75ca6","ios":"levelo://app?vid=38a8720a-3482-45e9-8b05-47a0bef75ca6"},"vehicle_type_id":"4","last_reported":1703794019,"current_range_meters":14000,"station_id":"","pricing_plan_id":"free"},{"bike_id":"45d993be-13eb-4046-a304-c48af92c99bc","system_id":"levelo_inurba_marseille","lat":43.309371,"lon":5.401449,"is_reserved":false,"is_disabled":false,"rental_uris":{"android":"levelo://app?vid=45d993be-13eb-4046-a304-c48af92c99bc","ios":"levelo://app?vid=45d993be-13eb-4046-a304-c48af92c99bc"},"vehicle_type_id":"4","last_reported":1703794019,"current_range_meters":20000,"station_id":"ce4bgvp2rcd13ifvqct0","pricing_plan_id":"free"},{"bike_id":"a716310b-4faf-4c4c-934a-c2ce5ffcad6d","system_id":"levelo_inurba_marseille","lat":43.306441,"lon":5.400921,"is_reserved":false,"is_disabled":false,"rental_uris":{"android":"levelo://app?vid=a716310b-4faf-4c4c-934a-c2ce5ffcad6d","ios":"levelo://app?vid=a716310b-4faf-4c4c-934a-c2ce5ffcad6d"},"vehicle_type_id":"4","last_reported":1703794019,"current_range_meters":19200,"station_id":"","pricing_plan_id":"free"},{"bike_id":"981f9dbf-5820-453e-beb6-8bbddd90c1d2","system_id":"levelo_inurba_marseille","lat":43.337715,"lon":5.374464,"is_reserved":false,"is_disabled":false,"rental_uris":{"android":"levelo://app?vid=981f9dbf-5820-453e-beb6-8bbddd90c1d2","ios":"levelo://app?vid=981f9dbf-5820-453e-beb6-8bbddd90c1d2"},"vehicle_type_id":"4","last_reported":1703794019,"current_range_meters":24000,"station_id":"","pricing_plan_id":"free"},{"bike_id":"94414895-bfcc-4112-a2ae-3b6a645db751","system_id":"levelo_inurba_marseille","lat":43.306412,"lon":5.401035,"is_reserved":false,"is_disabled":false,"rental_uris":{"android":"levelo://app?vid=94414895-bfcc-4112-a2ae-3b6a645db751","ios":"levelo://app?vid=94414895-bfcc-4112-a2ae-3b6a645db751"},"vehicle_type_id":"4","last_reported":1703794019,"current_range_meters":24800,"station_id":"ce4bh112rcd13ifvqda0","pricing_plan_id":"free"},{"bike_id":"da2b8792-e30f-4afd-b1ec-a73315b52519","system_id":"levelo_inurba_marseille","lat":43.306412,"lon":5.401035,"is_reserved":false,"is_disabled":false,"rental_uris":{"android":"levelo://app?vid=da2b8792-e30f-4afd-b1ec-a73315b52519","ios":"levelo://app?vid=da2b8792-e30f-4afd-b1ec-a73315b52519"},"vehicle_type_id":"4","last_reported":1703794019,"current_range_meters":26000,"station_id":"ce4bh112rcd13ifvqda0","pricing_plan_id":"free"},{"bike_id":"5bf4ef9a-72b1-47cf-aec6-0d4b68511866","system_id":"levelo_inurba_marseille","lat":43.301117,"lon":5.398795,"is_reserved":false,"is_disabled":false,"rental_uris":{"android":"levelo://app?vid=5bf4ef9a-72b1-47cf-aec6-0d4b68511866","ios":"levelo://app?vid=5bf4ef9a-72b1-47cf-aec6-0d4b68511866"},"vehicle_type_id":"4","last_reported":1703794019,"current_range_meters":24800,"station_id":"ce4bh0h2rcd13ifvqd40","pricing_plan_id":"free"},{"bike_id":"bb315701-5ddd-47af-a0e8-8e234552c90a","system_id":"levelo_inurba_marseille","lat":43.28727,"lon":5.36078,"is_reserved":false,"is_disabled":false,"rental_uris":{"android":"levelo://app?vid=bb315701-5ddd-47af-a0e8-8e234552c90a","ios":"levelo://app?vid=bb315701-5ddd-47af-a0e8-8e234552c90a"},"vehicle_type_id":"4","last_reported":1703794019,"current_range_meters":30000,"station_id":"cki0cbj6b192h4jlfktg","pricing_plan_id":"free"},{"bike_id":"4c361cf1-5493-4439-bb21-4a1e515be382","system_id":"levelo_inurba_marseille","lat":43.286961,"lon":5.373785,"is_reserved":false,"is_disabled":false,"rental_uris":{"android":"levelo://app?vid=4c361cf1-5493-4439-bb21-4a1e515be382","ios":"levelo://app?vid=4c361cf1-5493-4439-bb21-4a1e515be382"},"vehicle_type_id":"4","last_reported":1703794019,"current_range_meters":13600,"station_id":"ce4bh3p2rcd13ifvqdq0","pricing_plan_id":"free"},{"bike_id":"7d223116-9c95-4a94-ab53-33045858a867","system_id":"levelo_inurba_marseille","lat":43.286961,"lon":5.373785,"is_reserved":false,"is_disabled":false,"rental_uris":{"android":"levelo://app?vid=7d223116-9c95-4a94-ab53-33045858a867","ios":"levelo://app?vid=7d223116-9c95-4a94-ab53-33045858a867"},"vehicle_type_id":"4","last_reported":1703794019,"current_range_meters":16000,"station_id":"ce4bh3p2rcd13ifvqdq0","pricing_plan_id":"free"},{"bike_id":"d3bfb79c-dd01-4ec1-96bb-18b3ff54f1b9","system_id":"levelo_inurba_marseille","lat":43.286591,"lon":5.363346,"is_reserved":false,"is_disabled":false,"rental_uris":{"android":"levelo://app?vid=d3bfb79c-dd01-4ec1-96bb-18b3ff54f1b9","ios":"levelo://app?vid=d3bfb79c-dd01-4ec1-96bb-18b3ff54f1b9"},"vehicle_type_id":"4","last_reported":1703794019,"current_range_meters":29600,"station_id":"ce4bhah2rcd13ifvqej0","pricing_plan_id":"free"},{"bike_id":"de5c64ae-249a-4677-872b-62e78c5c3d59","system_id":"levelo_inurba_marseille","lat":43.286961,"lon":5.373785,"is_reserved":false,"is_disabled":false,"rental_uris":{"android":"levelo://app?vid=de5c64ae-249a-4677-872b-62e78c5c3d59","ios":"levelo://app?vid=de5c64ae-249a-4677-872b-62e78c5c3d59"},"vehicle_type_id":"4","last_reported":1703794019,"current_range_meters":16400,"station_id":"ce4bh3p2rcd13ifvqdq0","pricing_plan_id":"free"},{"bike_id":"eee9e16b-f303-4c97-9151-b727e48e0649","system_id":"levelo_inurba_marseille","lat":43.286961,"lon":5.373785,"is_reserved":false,"is_disabled":false,"rental_uris":{"android":"levelo://app?vid=eee9e16b-f303-4c97-9151-b727e48e0649","ios":"levelo://app?vid=eee9e16b-f303-4c97-9151-b727e48e0649"},"vehicle_type_id":"4","last_reported":1703794019,"current_range_meters":20000,"station_id":"ce4bh3p2rcd13ifvqdq0","pricing_plan_id":"free"},{"bike_id":"fa015bdb-cc2b-4102-bca9-40e0d7c87aeb","system_id":"levelo_inurba_marseille","lat":43.289307,"lon":5.38406,"is_reserved":false,"is_disabled":false,"rental_uris":{"android":"levelo://app?vid=fa015bdb-cc2b-4102-bca9-40e0d7c87aeb","ios":"levelo://app?vid=fa015bdb-cc2b-4102-bca9-40e0d7c87aeb"},"vehicle_type_id":"4","last_reported":1703794019,"current_range_meters":6800,"station_id":"ce4bh612rcd13ifvqe6g","pricing_plan_id":"free"},{"bike_id":"f6e09705-0bf0-4207-bc39-007ebfcacba6","system_id":"levelo_inurba_marseille","lat":43.29037,"lon":5.38652,"is_reserved":false,"is_disabled":false,"rental_uris":{"android":"levelo://app?vid=f6e09705-0bf0-4207-bc39-007ebfcacba6","ios":"levelo://app?vid=f6e09705-0bf0-4207-bc39-007ebfcacba6"},"vehicle_type_id":"4","last_reported":1703794019,"current_range_meters":800,"station_id":"ce4bh4p2rcd13ifvqe0g","pricing_plan_id":"free"},{"bike_id":"f37fc889-53f1-4075-b9d2-e05816896727","system_id":"levelo_inurba_marseille","lat":43.289307,"lon":5.38406,"is_reserved":false,"is_disabled":false,"rental_uris":{"android":"levelo://app?vid=f37fc889-53f1-4075-b9d2-e05816896727","ios":"levelo://app?vid=f37fc889-53f1-4075-b9d2-e05816896727"},"vehicle_type_id":"4","last_reported":1703794019,"current_range_meters":24000,"station_id":"ce4bh612rcd13ifvqe6g","pricing_plan_id":"free"},{"bike_id":"bb21deba-1a54-4079-aaa2-f3d56c17f811","system_id":"levelo_inurba_marseille","lat":43.290336,"lon":5.386425,"is_reserved":false,"is_disabled":false,"rental_uris":{"android":"levelo://app?vid=bb21deba-1a54-4079-aaa2-f3d56c17f811","ios":"levelo://app?vid=bb21deba-1a54-4079-aaa2-f3d56c17f811"},"vehicle_type_id":"4","last_reported":1703794019,"current_range_meters":22400,"station_id":"ce4bh4p2rcd13ifvqe0g","pricing_plan_id":"free"},{"bike_id":"3495bc62-e87c-40b5-be35-8a4633f47136","system_id":"levelo_inurba_marseille","lat":43.290336,"lon":5.386425,"is_reserved":false,"is_disabled":false,"rental_uris":{"android":"levelo://app?vid=3495bc62-e87c-40b5-be35-8a4633f47136","ios":"levelo://app?vid=3495bc62-e87c-40b5-be35-8a4633f47136"},"vehicle_type_id":"4","last_reported":1703794019,"current_range_meters":14000,"station_id":"ce4bh4p2rcd13ifvqe0g","pricing_plan_id":"free"},{"bike_id":"8e9416aa-96d0-4572-a0f3-6926a6794e39","system_id":"levelo_inurba_marseille","lat":43.302759,"lon":5.400793,"is_reserved":false,"is_disabled":false,"rental_uris":{"android":"levelo://app?vid=8e9416aa-96d0-4572-a0f3-6926a6794e39","ios":"levelo://app?vid=8e9416aa-96d0-4572-a0f3-6926a6794e39"},"vehicle_type_id":"4","last_reported":1703794019,"current_range_meters":28000,"station_id":"ce4bgvh2rcd13ifvqcs0","pricing_plan_id":"free"},{"bike_id":"ad134135-7288-46f4-b1c7-8ec6556f5193","system_id":"levelo_inurba_marseille","lat":43.30186,"lon":5.40058,"is_reserved":false,"is_disabled":false,"rental_uris":{"android":"levelo://app?vid=ad134135-7288-46f4-b1c7-8ec6556f5193","ios":"levelo://app?vid=ad134135-7288-46f4-b1c7-8ec6556f5193"},"vehicle_type_id":"4","last_reported":1703794019,"current_range_meters":0,"station_id":"","pricing_plan_id":"free"},{"bike_id":"badc9108-0d08-4b4a-8494-611d640d6c59","system_id":"levelo_inurba_marseille","lat":43.287184,"lon":5.37937,"is_reserved":false,"is_disabled":false,"rental_uris":{"android":"levelo://app?vid=badc9108-0d08-4b4a-8494-611d640d6c59","ios":"levelo://app?vid=badc9108-0d08-4b4a-8494-611d640d6c59"},"vehicle_type_id":"4","last_reported":1703794019,"current_range_meters":25200,"station_id":"ce4bh9p2rcd13ifvqec0","pricing_plan_id":"free"},{"bike_id":"c833e115-128c-4976-abc5-bafa8538e21d","system_id":"levelo_inurba_marseille","lat":43.287185,"lon":5.379373,"is_reserved":false,"is_disabled":false,"rental_uris":{"android":"levelo://app?vid=c833e115-128c-4976-abc5-bafa8538e21d","ios":"levelo://app?vid=c833e115-128c-4976-abc5-bafa8538e21d"},"vehicle_type_id":"4","last_reported":1703794019,"current_range_meters":28400,"station_id":"ce4bh9p2rcd13ifvqec0","pricing_plan_id":"free"},{"bike_id":"aac00441-5e5c-4474-92e6-e699a3867bae","system_id":"levelo_inurba_marseille","lat":43.285786,"lon":5.360223,"is_reserved":false,"is_disabled":false,"rental_uris":{"android":"levelo://app?vid=aac00441-5e5c-4474-92e6-e699a3867bae","ios":"levelo://app?vid=aac00441-5e5c-4474-92e6-e699a3867bae"},"vehicle_type_id":"4","last_reported":1703794019,"current_range_meters":29600,"station_id":"","pricing_plan_id":"free"},{"bike_id":"4f392da8-5300-44ea-9d99-638194294d03","system_id":"levelo_inurba_marseille","lat":43.284534,"lon":5.358662,"is_reserved":false,"is_disabled":false,"rental_uris":{"android":"levelo://app?vid=4f392da8-5300-44ea-9d99-638194294d03","ios":"levelo://app?vid=4f392da8-5300-44ea-9d99-638194294d03"},"vehicle_type_id":"4","last_reported":1703794019,"current_range_meters":31200,"station_id":"ce4bhah2rcd13ifvqei0","pricing_plan_id":"free"},{"bike_id":"1b93242b-2571-4275-b60f-ea7dfda86d95","system_id":"levelo_inurba_marseille","lat":43.294314,"lon":5.397498,"is_reserved":false,"is_disabled":false,"rental_uris":{"android":"levelo://app?vid=1b93242b-2571-4275-b60f-ea7dfda86d95","ios":"levelo://app?vid=1b93242b-2571-4275-b60f-ea7dfda86d95"},"vehicle_type_id":"4","last_reported":1703794019,"current_range_meters":12400,"station_id":"ce4bh3h2rcd13ifvqdo0","pricing_plan_id":"free"},{"bike_id":"d11c9166-0499-49b4-b475-e996778cc806","system_id":"levelo_inurba_marseille","lat":43.284538,"lon":5.358657,"is_reserved":false,"is_disabled":false,"rental_uris":{"android":"levelo://app?vid=d11c9166-0499-49b4-b475-e996778cc806","ios":"levelo://app?vid=d11c9166-0499-49b4-b475-e996778cc806"},"vehicle_type_id":"4","last_reported":1703794019,"current_range_meters":29600,"station_id":"ce4bhah2rcd13ifvqei0","pricing_plan_id":"free"},{"bike_id":"29031a5a-e3b5-4b81-a277-aa8bf6da3cf5","system_id":"levelo_inurba_marseille","lat":43.285848,"lon":5.350787,"is_reserved":false,"is_disabled":false,"rental_uris":{"android":"levelo://app?vid=29031a5a-e3b5-4b81-a277-aa8bf6da3cf5","ios":"levelo://app?vid=29031a5a-e3b5-4b81-a277-aa8bf6da3cf5"},"vehicle_type_id":"4","last_reported":1703794019,"current_range_meters":12800,"station_id":"ce4bhch2rcd13ifvqeug","pricing_plan_id":"free"},{"bike_id":"1d5b48ba-15e9-4368-987a-30b536df8954","system_id":"levelo_inurba_marseille","lat":43.285856,"lon":5.350771,"is_reserved":false,"is_disabled":false,"rental_uris":{"android":"levelo://app?vid=1d5b48ba-15e9-4368-987a-30b536df8954","ios":"levelo://app?vid=1d5b48ba-15e9-4368-987a-30b536df8954"},"vehicle_type_id":"4","last_reported":1703794019,"current_range_meters":0,"station_id":"ce4bhch2rcd13ifvqeug","pricing_plan_id":"free"},{"bike_id":"c7fa6e4d-6b74-4129-b76b-3f764661e224","system_id":"levelo_inurba_marseille","lat":43.283998,"lon":5.375062,"is_reserved":false,"is_disabled":false,"rental_uris":{"android":"levelo://app?vid=c7fa6e4d-6b74-4129-b76b-3f764661e224","ios":"levelo://app?vid=c7fa6e4d-6b74-4129-b76b-3f764661e224"},"vehicle_type_id":"4","last_reported":1703794019,"current_range_meters":18400,"station_id":"ce4bh412rcd13ifvqds0","pricing_plan_id":"free"},{"bike_id":"09302334-17a9-4430-a862-b865c0725339","system_id":"levelo_inurba_marseille","lat":43.283998,"lon":5.375062,"is_reserved":false,"is_disabled":false,"rental_uris":{"android":"levelo://app?vid=09302334-17a9-4430-a862-b865c0725339","ios":"levelo://app?vid=09302334-17a9-4430-a862-b865c0725339"},"vehicle_type_id":"4","last_reported":1703794019,"current_range_meters":19600,"station_id":"ce4bh412rcd13ifvqds0","pricing_plan_id":"free"},{"bike_id":"603553e0-e46e-4ae5-80f2-c3933ed6e3cc","system_id":"levelo_inurba_marseille","lat":43.283998,"lon":5.375062,"is_reserved":false,"is_disabled":false,"rental_uris":{"android":"levelo://app?vid=603553e0-e46e-4ae5-80f2-c3933ed6e3cc","ios":"levelo://app?vid=603553e0-e46e-4ae5-80f2-c3933ed6e3cc"},"vehicle_type_id":"4","last_reported":1703794019,"current_range_meters":15200,"station_id":"ce4bh412rcd13ifvqds0","pricing_plan_id":"free"},{"bike_id":"0d2589bf-63d8-48aa-8710-e625634e5f43","system_id":"levelo_inurba_marseille","lat":43.295713,"lon":5.399639,"is_reserved":false,"is_disabled":false,"rental_uris":{"android":"levelo://app?vid=0d2589bf-63d8-48aa-8710-e625634e5f43","ios":"levelo://app?vid=0d2589bf-63d8-48aa-8710-e625634e5f43"},"vehicle_type_id":"4","last_reported":1703794019,"current_range_meters":29600,"station_id":"ce4bh312rcd13ifvqdj0","pricing_plan_id":"free"},{"bike_id":"494cd479-7898-4e60-9274-ca55d1613335","system_id":"levelo_inurba_marseille","lat":43.286595,"lon":5.386795,"is_reserved":false,"is_disabled":false,"rental_uris":{"android":"levelo://app?vid=494cd479-7898-4e60-9274-ca55d1613335","ios":"levelo://app?vid=494cd479-7898-4e60-9274-ca55d1613335"},"vehicle_type_id":"4","last_reported":1703794019,"current_range_meters":13600,"station_id":"ce4bh492rcd13ifvqdug","pricing_plan_id":"free"},{"bike_id":"4d2b9438-205e-41b6-8402-ae003cd6baa4","system_id":"levelo_inurba_marseille","lat":43.28679,"lon":5.38674,"is_reserved":false,"is_disabled":false,"rental_uris":{"android":"levelo://app?vid=4d2b9438-205e-41b6-8402-ae003cd6baa4","ios":"levelo://app?vid=4d2b9438-205e-41b6-8402-ae003cd6baa4"},"vehicle_type_id":"4","last_reported":1703794019,"current_range_meters":26000,"station_id":"ce4bh492rcd13ifvqdug","pricing_plan_id":"free"},{"bike_id":"8d9281c7-eb3a-4e58-a9c0-b6bbc76aae82","system_id":"levelo_inurba_marseille","lat":43.28674,"lon":5.38668,"is_reserved":false,"is_disabled":false,"rental_uris":{"android":"levelo://app?vid=8d9281c7-eb3a-4e58-a9c0-b6bbc76aae82","ios":"levelo://app?vid=8d9281c7-eb3a-4e58-a9c0-b6bbc76aae82"},"vehicle_type_id":"4","last_reported":1703794019,"current_range_meters":11200,"station_id":"ce4bh492rcd13ifvqdug","pricing_plan_id":"free"},{"bike_id":"91379f9b-6215-4d42-9d0d-4a5df4280ace","system_id":"levelo_inurba_marseille","lat":43.286595,"lon":5.386795,"is_reserved":false,"is_disabled":false,"rental_uris":{"android":"levelo://app?vid=91379f9b-6215-4d42-9d0d-4a5df4280ace","ios":"levelo://app?vid=91379f9b-6215-4d42-9d0d-4a5df4280ace"},"vehicle_type_id":"4","last_reported":1703794019,"current_range_meters":2400,"station_id":"ce4bh492rcd13ifvqdug","pricing_plan_id":"free"},{"bike_id":"eb0839c4-3270-42e2-bfb8-e0514473fdff","system_id":"levelo_inurba_marseille","lat":43.293453,"lon":5.39856,"is_reserved":false,"is_disabled":false,"rental_uris":{"android":"levelo://app?vid=eb0839c4-3270-42e2-bfb8-e0514473fdff","ios":"levelo://app?vid=eb0839c4-3270-42e2-bfb8-e0514473fdff"},"vehicle_type_id":"4","last_reported":1703794019,"current_range_meters":22400,"station_id":"","pricing_plan_id":"free"},{"bike_id":"df424bcd-5c56-40dc-be97-c56f46ce910d","system_id":"levelo_inurba_marseille","lat":43.337168,"lon":5.391825,"is_reserved":false,"is_disabled":false,"rental_uris":{"android":"levelo://app?vid=df424bcd-5c56-40dc-be97-c56f46ce910d","ios":"levelo://app?vid=df424bcd-5c56-40dc-be97-c56f46ce910d"},"vehicle_type_id":"4","last_reported":1703794019,"current_range_meters":26400,"station_id":"ce4bhr92rcd13ifvqhsg","pricing_plan_id":"free"},{"bike_id":"88a90eb6-df1d-4c20-8e42-f03f5a6f3a0d","system_id":"levelo_inurba_marseille","lat":43.337262,"lon":5.391808,"is_reserved":false,"is_disabled":false,"rental_uris":{"android":"levelo://app?vid=88a90eb6-df1d-4c20-8e42-f03f5a6f3a0d","ios":"levelo://app?vid=88a90eb6-df1d-4c20-8e42-f03f5a6f3a0d"},"vehicle_type_id":"4","last_reported":1703794019,"current_range_meters":10400,"station_id":"ce4bhr92rcd13ifvqhsg","pricing_plan_id":"free"},{"bike_id":"5eb250fa-6406-4beb-8726-552898deb108","system_id":"levelo_inurba_marseille","lat":43.337168,"lon":5.391825,"is_reserved":false,"is_disabled":false,"rental_uris":{"android":"levelo://app?vid=5eb250fa-6406-4beb-8726-552898deb108","ios":"levelo://app?vid=5eb250fa-6406-4beb-8726-552898deb108"},"vehicle_type_id":"4","last_reported":1703794019,"current_range_meters":26800,"station_id":"ce4bhr92rcd13ifvqhsg","pricing_plan_id":"free"},{"bike_id":"96a700d0-e0a1-4ba7-846a-af3c66a4549d","system_id":"levelo_inurba_marseille","lat":43.297946,"lon":5.404063,"is_reserved":false,"is_disabled":false,"rental_uris":{"android":"levelo://app?vid=96a700d0-e0a1-4ba7-846a-af3c66a4549d","ios":"levelo://app?vid=96a700d0-e0a1-4ba7-846a-af3c66a4549d"},"vehicle_type_id":"4","last_reported":1703794019,"current_range_meters":27600,"station_id":"ce4bh112rcd13ifvqd90","pricing_plan_id":"free"},{"bike_id":"cc87e25a-d42e-4c97-b492-e78e1ab96896","system_id":"levelo_inurba_marseille","lat":43.288501,"lon":5.393087,"is_reserved":false,"is_disabled":false,"rental_uris":{"android":"levelo://app?vid=cc87e25a-d42e-4c97-b492-e78e1ab96896","ios":"levelo://app?vid=cc87e25a-d42e-4c97-b492-e78e1ab96896"},"vehicle_type_id":"4","last_reported":1703794019,"current_range_meters":2000,"station_id":"ce4bh2p2rcd13ifvqdi0","pricing_plan_id":"free"},{"bike_id":"65965317-fb90-4b70-9e4d-082a0d62b78b","system_id":"levelo_inurba_marseille","lat":43.288501,"lon":5.393087,"is_reserved":false,"is_disabled":false,"rental_uris":{"android":"levelo://app?vid=65965317-fb90-4b70-9e4d-082a0d62b78b","ios":"levelo://app?vid=65965317-fb90-4b70-9e4d-082a0d62b78b"},"vehicle_type_id":"4","last_reported":1703794019,"current_range_meters":12400,"station_id":"ce4bh2p2rcd13ifvqdi0","pricing_plan_id":"free"},{"bike_id":"db43d13c-fe4f-44db-92e6-50cceacee31a","system_id":"levelo_inurba_marseille","lat":43.288501,"lon":5.393087,"is_reserved":false,"is_disabled":false,"rental_uris":{"android":"levelo://app?vid=db43d13c-fe4f-44db-92e6-50cceacee31a","ios":"levelo://app?vid=db43d13c-fe4f-44db-92e6-50cceacee31a"},"vehicle_type_id":"4","last_reported":1703794019,"current_range_meters":18000,"station_id":"ce4bh2p2rcd13ifvqdi0","pricing_plan_id":"free"},{"bike_id":"3d347e56-28ab-4a0e-83e8-20e14ad98f64","system_id":"levelo_inurba_marseille","lat":43.284217,"lon":5.349697,"is_reserved":false,"is_disabled":false,"rental_uris":{"android":"levelo://app?vid=3d347e56-28ab-4a0e-83e8-20e14ad98f64","ios":"levelo://app?vid=3d347e56-28ab-4a0e-83e8-20e14ad98f64"},"vehicle_type_id":"4","last_reported":1703794019,"current_range_meters":20400,"station_id":"ce4bhbh2rcd13ifvqepg","pricing_plan_id":"free"},{"bike_id":"e485450b-2736-4f4c-b94b-0da5a69b88aa","system_id":"levelo_inurba_marseille","lat":43.33385,"lon":5.39822,"is_reserved":false,"is_disabled":false,"rental_uris":{"android":"levelo://app?vid=e485450b-2736-4f4c-b94b-0da5a69b88aa","ios":"levelo://app?vid=e485450b-2736-4f4c-b94b-0da5a69b88aa"},"vehicle_type_id":"4","last_reported":1703794019,"current_range_meters":13600,"station_id":"","pricing_plan_id":"free"},{"bike_id":"01e066f6-fbb3-4971-83c4-f173b94b0e93","system_id":"levelo_inurba_marseille","lat":43.283498,"lon":5.380948,"is_reserved":false,"is_disabled":false,"rental_uris":{"android":"levelo://app?vid=01e066f6-fbb3-4971-83c4-f173b94b0e93","ios":"levelo://app?vid=01e066f6-fbb3-4971-83c4-f173b94b0e93"},"vehicle_type_id":"4","last_reported":1703794019,"current_range_meters":1200,"station_id":"ce4bh412rcd13ifvqdr0","pricing_plan_id":"free"},{"bike_id":"3ee00bbe-2747-4705-8261-2887f608ecff","system_id":"levelo_inurba_marseille","lat":43.2842,"lon":5.35007,"is_reserved":false,"is_disabled":false,"rental_uris":{"android":"levelo://app?vid=3ee00bbe-2747-4705-8261-2887f608ecff","ios":"levelo://app?vid=3ee00bbe-2747-4705-8261-2887f608ecff"},"vehicle_type_id":"4","last_reported":1703794019,"current_range_meters":22000,"station_id":"ce4bhbh2rcd13ifvqepg","pricing_plan_id":"free"},{"bike_id":"a41a460f-1b38-4a80-acef-8a5f3851d3b2","system_id":"levelo_inurba_marseille","lat":43.284217,"lon":5.349697,"is_reserved":false,"is_disabled":false,"rental_uris":{"android":"levelo://app?vid=a41a460f-1b38-4a80-acef-8a5f3851d3b2","ios":"levelo://app?vid=a41a460f-1b38-4a80-acef-8a5f3851d3b2"},"vehicle_type_id":"4","last_reported":1703794019,"current_range_meters":28000,"station_id":"ce4bhbh2rcd13ifvqepg","pricing_plan_id":"free"},{"bike_id":"bde0baac-1637-406f-96ab-2b93966b7071","system_id":"levelo_inurba_marseille","lat":43.288501,"lon":5.393087,"is_reserved":false,"is_disabled":false,"rental_uris":{"android":"levelo://app?vid=bde0baac-1637-406f-96ab-2b93966b7071","ios":"levelo://app?vid=bde0baac-1637-406f-96ab-2b93966b7071"},"vehicle_type_id":"4","last_reported":1703794019,"current_range_meters":7200,"station_id":"ce4bh2p2rcd13ifvqdi0","pricing_plan_id":"free"},{"bike_id":"fd806734-020d-49ee-bc45-e6b7119917ff","system_id":"levelo_inurba_marseille","lat":43.28425,"lon":5.349825,"is_reserved":false,"is_disabled":false,"rental_uris":{"android":"levelo://app?vid=fd806734-020d-49ee-bc45-e6b7119917ff","ios":"levelo://app?vid=fd806734-020d-49ee-bc45-e6b7119917ff"},"vehicle_type_id":"4","last_reported":1703794019,"current_range_meters":27600,"station_id":"ce4bhbh2rcd13ifvqepg","pricing_plan_id":"free"},{"bike_id":"dca0fa18-7996-474e-bb6b-4a1cc91c2b11","system_id":"levelo_inurba_marseille","lat":43.284214,"lon":5.349706,"is_reserved":false,"is_disabled":false,"rental_uris":{"android":"levelo://app?vid=dca0fa18-7996-474e-bb6b-4a1cc91c2b11","ios":"levelo://app?vid=dca0fa18-7996-474e-bb6b-4a1cc91c2b11"},"vehicle_type_id":"4","last_reported":1703794019,"current_range_meters":29600,"station_id":"ce4bhbh2rcd13ifvqepg","pricing_plan_id":"free"},{"bike_id":"080a209c-9da8-43e5-92e5-c842fe99df5b","system_id":"levelo_inurba_marseille","lat":43.284217,"lon":5.349697,"is_reserved":false,"is_disabled":false,"rental_uris":{"android":"levelo://app?vid=080a209c-9da8-43e5-92e5-c842fe99df5b","ios":"levelo://app?vid=080a209c-9da8-43e5-92e5-c842fe99df5b"},"vehicle_type_id":"4","last_reported":1703794019,"current_range_meters":27600,"station_id":"ce4bhbh2rcd13ifvqepg","pricing_plan_id":"free"},{"bike_id":"1abe1bbe-7917-44dc-9da8-0af7a77c71b5","system_id":"levelo_inurba_marseille","lat":43.284036,"lon":5.349807,"is_reserved":false,"is_disabled":false,"rental_uris":{"android":"levelo://app?vid=1abe1bbe-7917-44dc-9da8-0af7a77c71b5","ios":"levelo://app?vid=1abe1bbe-7917-44dc-9da8-0af7a77c71b5"},"vehicle_type_id":"4","last_reported":1703794019,"current_range_meters":10800,"station_id":"ce4bhbh2rcd13ifvqepg","pricing_plan_id":"free"},{"bike_id":"4bf7c9d2-4708-4672-a698-d10585f8a6a7","system_id":"levelo_inurba_marseille","lat":43.289363,"lon":5.396322,"is_reserved":false,"is_disabled":false,"rental_uris":{"android":"levelo://app?vid=4bf7c9d2-4708-4672-a698-d10585f8a6a7","ios":"levelo://app?vid=4bf7c9d2-4708-4672-a698-d10585f8a6a7"},"vehicle_type_id":"4","last_reported":1703794019,"current_range_meters":24000,"station_id":"ce4bh3h2rcd13ifvqdn0","pricing_plan_id":"free"},{"bike_id":"37048699-fa19-44dd-a58b-b63fa301cf53","system_id":"levelo_inurba_marseille","lat":43.289363,"lon":5.396322,"is_reserved":false,"is_disabled":false,"rental_uris":{"android":"levelo://app?vid=37048699-fa19-44dd-a58b-b63fa301cf53","ios":"levelo://app?vid=37048699-fa19-44dd-a58b-b63fa301cf53"},"vehicle_type_id":"4","last_reported":1703794019,"current_range_meters":22000,"station_id":"ce4bh3h2rcd13ifvqdn0","pricing_plan_id":"free"},{"bike_id":"fea7c1c5-0e4e-431e-b7c3-2b72a54164fa","system_id":"levelo_inurba_marseille","lat":43.292724,"lon":5.401131,"is_reserved":false,"is_disabled":false,"rental_uris":{"android":"levelo://app?vid=fea7c1c5-0e4e-431e-b7c3-2b72a54164fa","ios":"levelo://app?vid=fea7c1c5-0e4e-431e-b7c3-2b72a54164fa"},"vehicle_type_id":"4","last_reported":1703794019,"current_range_meters":4400,"station_id":"ce4bh312rcd13ifvqdk0","pricing_plan_id":"free"},{"bike_id":"4213e31e-fa18-4526-ae1b-5c6d46cb646d","system_id":"levelo_inurba_marseille","lat":43.293385,"lon":5.401978,"is_reserved":false,"is_disabled":false,"rental_uris":{"android":"levelo://app?vid=4213e31e-fa18-4526-ae1b-5c6d46cb646d","ios":"levelo://app?vid=4213e31e-fa18-4526-ae1b-5c6d46cb646d"},"vehicle_type_id":"4","last_reported":1703794019,"current_range_meters":15600,"station_id":"","pricing_plan_id":"free"},{"bike_id":"7da277c9-6e33-4f64-ab45-8f334901ba9e","system_id":"levelo_inurba_marseille","lat":43.282744,"lon":5.350533,"is_reserved":false,"is_disabled":false,"rental_uris":{"android":"levelo://app?vid=7da277c9-6e33-4f64-ab45-8f334901ba9e","ios":"levelo://app?vid=7da277c9-6e33-4f64-ab45-8f334901ba9e"},"vehicle_type_id":"4","last_reported":1703794019,"current_range_meters":32000,"station_id":"ce4bhbp2rcd13ifvqerg","pricing_plan_id":"free"},{"bike_id":"d99f1105-4f88-4642-93fb-26a021d110ac","system_id":"levelo_inurba_marseille","lat":43.283502,"lon":5.386471,"is_reserved":false,"is_disabled":false,"rental_uris":{"android":"levelo://app?vid=d99f1105-4f88-4642-93fb-26a021d110ac","ios":"levelo://app?vid=d99f1105-4f88-4642-93fb-26a021d110ac"},"vehicle_type_id":"4","last_reported":1703794019,"current_range_meters":22800,"station_id":"ce4bh492rcd13ifvqdvg","pricing_plan_id":"free"},{"bike_id":"83d1aa8a-b72f-4d0d-a8f2-e6a3b9308d4e","system_id":"levelo_inurba_marseille","lat":43.282744,"lon":5.350533,"is_reserved":false,"is_disabled":false,"rental_uris":{"android":"levelo://app?vid=83d1aa8a-b72f-4d0d-a8f2-e6a3b9308d4e","ios":"levelo://app?vid=83d1aa8a-b72f-4d0d-a8f2-e6a3b9308d4e"},"vehicle_type_id":"4","last_reported":1703794019,"current_range_meters":23200,"station_id":"ce4bhbp2rcd13ifvqerg","pricing_plan_id":"free"},{"bike_id":"03fed241-1d00-41eb-9fd0-d1c52fbbb893","system_id":"levelo_inurba_marseille","lat":43.283502,"lon":5.386471,"is_reserved":false,"is_disabled":false,"rental_uris":{"android":"levelo://app?vid=03fed241-1d00-41eb-9fd0-d1c52fbbb893","ios":"levelo://app?vid=03fed241-1d00-41eb-9fd0-d1c52fbbb893"},"vehicle_type_id":"4","last_reported":1703794019,"current_range_meters":30400,"station_id":"ce4bh492rcd13ifvqdvg","pricing_plan_id":"free"},{"bike_id":"1643055d-8b72-46b0-a5ef-9b1be18418c3","system_id":"levelo_inurba_marseille","lat":43.28039,"lon":5.369297,"is_reserved":false,"is_disabled":false,"rental_uris":{"android":"levelo://app?vid=1643055d-8b72-46b0-a5ef-9b1be18418c3","ios":"levelo://app?vid=1643055d-8b72-46b0-a5ef-9b1be18418c3"},"vehicle_type_id":"4","last_reported":1703794019,"current_range_meters":3600,"station_id":"ce4bha12rcd13ifvqef0","pricing_plan_id":"free"},{"bike_id":"67051d57-9e3f-4564-b7fc-ddedb7cea4f8","system_id":"levelo_inurba_marseille","lat":43.28039,"lon":5.369297,"is_reserved":false,"is_disabled":false,"rental_uris":{"android":"levelo://app?vid=67051d57-9e3f-4564-b7fc-ddedb7cea4f8","ios":"levelo://app?vid=67051d57-9e3f-4564-b7fc-ddedb7cea4f8"},"vehicle_type_id":"4","last_reported":1703794019,"current_range_meters":19200,"station_id":"ce4bha12rcd13ifvqef0","pricing_plan_id":"free"},{"bike_id":"e09a479e-edcf-467a-8360-4151ca295bc8","system_id":"levelo_inurba_marseille","lat":43.28039,"lon":5.369297,"is_reserved":false,"is_disabled":false,"rental_uris":{"android":"levelo://app?vid=e09a479e-edcf-467a-8360-4151ca295bc8","ios":"levelo://app?vid=e09a479e-edcf-467a-8360-4151ca295bc8"},"vehicle_type_id":"4","last_reported":1703794019,"current_range_meters":16000,"station_id":"ce4bha12rcd13ifvqef0","pricing_plan_id":"free"},{"bike_id":"668df2cd-cd30-47ba-af77-84c9b6b7d26e","system_id":"levelo_inurba_marseille","lat":43.28039,"lon":5.369297,"is_reserved":false,"is_disabled":false,"rental_uris":{"android":"levelo://app?vid=668df2cd-cd30-47ba-af77-84c9b6b7d26e","ios":"levelo://app?vid=668df2cd-cd30-47ba-af77-84c9b6b7d26e"},"vehicle_type_id":"4","last_reported":1703794019,"current_range_meters":20000,"station_id":"ce4bha12rcd13ifvqef0","pricing_plan_id":"free"},{"bike_id":"47a51011-9d01-430c-b707-f7db9078477b","system_id":"levelo_inurba_marseille","lat":43.281044,"lon":5.378308,"is_reserved":false,"is_disabled":false,"rental_uris":{"android":"levelo://app?vid=47a51011-9d01-430c-b707-f7db9078477b","ios":"levelo://app?vid=47a51011-9d01-430c-b707-f7db9078477b"},"vehicle_type_id":"4","last_reported":1703794019,"current_range_meters":31200,"station_id":"ce4bha12rcd13ifvqee0","pricing_plan_id":"free"},{"bike_id":"49252a08-bf49-4eff-8b2f-beef987f9da1","system_id":"levelo_inurba_marseille","lat":43.296263,"lon":5.40601,"is_reserved":false,"is_disabled":false,"rental_uris":{"android":"levelo://app?vid=49252a08-bf49-4eff-8b2f-beef987f9da1","ios":"levelo://app?vid=49252a08-bf49-4eff-8b2f-beef987f9da1"},"vehicle_type_id":"4","last_reported":1703794019,"current_range_meters":27200,"station_id":"ce4bh0h2rcd13ifvqd60","pricing_plan_id":"free"},{"bike_id":"1b6f1fc2-660c-4a87-914b-bd736196ceae","system_id":"levelo_inurba_marseille","lat":43.281044,"lon":5.378308,"is_reserved":false,"is_disabled":false,"rental_uris":{"android":"levelo://app?vid=1b6f1fc2-660c-4a87-914b-bd736196ceae","ios":"levelo://app?vid=1b6f1fc2-660c-4a87-914b-bd736196ceae"},"vehicle_type_id":"4","last_reported":1703794019,"current_range_meters":7600,"station_id":"ce4bha12rcd13ifvqee0","pricing_plan_id":"free"},{"bike_id":"777836ce-9a56-4dd7-a8c1-66514411e254","system_id":"levelo_inurba_marseille","lat":43.285742,"lon":5.395004,"is_reserved":false,"is_disabled":false,"rental_uris":{"android":"levelo://app?vid=777836ce-9a56-4dd7-a8c1-66514411e254","ios":"levelo://app?vid=777836ce-9a56-4dd7-a8c1-66514411e254"},"vehicle_type_id":"4","last_reported":1703794019,"current_range_meters":23600,"station_id":"ce4bh292rcd13ifvqdg0","pricing_plan_id":"free"},{"bike_id":"78b94c4e-d288-4098-8251-ef42bf4518b3","system_id":"levelo_inurba_marseille","lat":43.326605,"lon":5.409903,"is_reserved":false,"is_disabled":false,"rental_uris":{"android":"levelo://app?vid=78b94c4e-d288-4098-8251-ef42bf4518b3","ios":"levelo://app?vid=78b94c4e-d288-4098-8251-ef42bf4518b3"},"vehicle_type_id":"4","last_reported":1703794019,"current_range_meters":26000,"station_id":"ce4bhpp2rcd13ifvqhgg","pricing_plan_id":"free"},{"bike_id":"10ea83c9-03ed-46c6-846c-cacdc6b5941c","system_id":"levelo_inurba_marseille","lat":43.326605,"lon":5.409903,"is_reserved":false,"is_disabled":false,"rental_uris":{"android":"levelo://app?vid=10ea83c9-03ed-46c6-846c-cacdc6b5941c","ios":"levelo://app?vid=10ea83c9-03ed-46c6-846c-cacdc6b5941c"},"vehicle_type_id":"4","last_reported":1703794019,"current_range_meters":29600,"station_id":"ce4bhpp2rcd13ifvqhgg","pricing_plan_id":"free"},{"bike_id":"47fe7eae-dacc-4f7d-b119-c8771643dffd","system_id":"levelo_inurba_marseille","lat":43.30419,"lon":5.41279,"is_reserved":false,"is_disabled":false,"rental_uris":{"android":"levelo://app?vid=47fe7eae-dacc-4f7d-b119-c8771643dffd","ios":"levelo://app?vid=47fe7eae-dacc-4f7d-b119-c8771643dffd"},"vehicle_type_id":"4","last_reported":1703794019,"current_range_meters":24000,"station_id":"ce4bhop2rcd13ifvqh8g","pricing_plan_id":"free"},{"bike_id":"81808767-391c-49dc-bcac-d57d5272834b","system_id":"levelo_inurba_marseille","lat":43.30413,"lon":5.41283,"is_reserved":false,"is_disabled":false,"rental_uris":{"android":"levelo://app?vid=81808767-391c-49dc-bcac-d57d5272834b","ios":"levelo://app?vid=81808767-391c-49dc-bcac-d57d5272834b"},"vehicle_type_id":"4","last_reported":1703794019,"current_range_meters":12800,"station_id":"ce4bhop2rcd13ifvqh8g","pricing_plan_id":"free"},{"bike_id":"79eb3384-14fe-4f74-96e7-ecd96d83c260","system_id":"levelo_inurba_marseille","lat":43.287154,"lon":5.399979,"is_reserved":false,"is_disabled":false,"rental_uris":{"android":"levelo://app?vid=79eb3384-14fe-4f74-96e7-ecd96d83c260","ios":"levelo://app?vid=79eb3384-14fe-4f74-96e7-ecd96d83c260"},"vehicle_type_id":"4","last_reported":1703794019,"current_range_meters":12400,"station_id":"ce4bho92rcd13ifvqh3g","pricing_plan_id":"free"},{"bike_id":"9df8bd2b-15b3-4221-899a-e948f01c1737","system_id":"levelo_inurba_marseille","lat":43.299579,"lon":5.413255,"is_reserved":false,"is_disabled":false,"rental_uris":{"android":"levelo://app?vid=9df8bd2b-15b3-4221-899a-e948f01c1737","ios":"levelo://app?vid=9df8bd2b-15b3-4221-899a-e948f01c1737"},"vehicle_type_id":"4","last_reported":1703794019,"current_range_meters":30800,"station_id":"ce4bhp12rcd13ifvqh9g","pricing_plan_id":"free"},{"bike_id":"51ce9072-2668-464d-ab45-8dcdad07919b","system_id":"levelo_inurba_marseille","lat":43.279742,"lon":5.38744,"is_reserved":false,"is_disabled":false,"rental_uris":{"android":"levelo://app?vid=51ce9072-2668-464d-ab45-8dcdad07919b","ios":"levelo://app?vid=51ce9072-2668-464d-ab45-8dcdad07919b"},"vehicle_type_id":"4","last_reported":1703794019,"current_range_meters":11600,"station_id":"ce4bhg12rcd13ifvqf80","pricing_plan_id":"free"},{"bike_id":"25a55759-b54e-4478-801c-60ff4e951b0e","system_id":"levelo_inurba_marseille","lat":43.279742,"lon":5.38744,"is_reserved":false,"is_disabled":false,"rental_uris":{"android":"levelo://app?vid=25a55759-b54e-4478-801c-60ff4e951b0e","ios":"levelo://app?vid=25a55759-b54e-4478-801c-60ff4e951b0e"},"vehicle_type_id":"4","last_reported":1703794019,"current_range_meters":23600,"station_id":"ce4bhg12rcd13ifvqf80","pricing_plan_id":"free"},{"bike_id":"1bc23da1-87c2-40f7-93c3-fcac5f32d633","system_id":"levelo_inurba_marseille","lat":43.29249,"lon":5.40908,"is_reserved":false,"is_disabled":false,"rental_uris":{"android":"levelo://app?vid=1bc23da1-87c2-40f7-93c3-fcac5f32d633","ios":"levelo://app?vid=1bc23da1-87c2-40f7-93c3-fcac5f32d633"},"vehicle_type_id":"4","last_reported":1703794019,"current_range_meters":22400,"station_id":"ce4bh192rcd13ifvqdc0","pricing_plan_id":"free"},{"bike_id":"1a7e565d-ff74-4306-ab0e-f244cbbe357c","system_id":"levelo_inurba_marseille","lat":43.27618,"lon":5.361009,"is_reserved":false,"is_disabled":false,"rental_uris":{"android":"levelo://app?vid=1a7e565d-ff74-4306-ab0e-f244cbbe357c","ios":"levelo://app?vid=1a7e565d-ff74-4306-ab0e-f244cbbe357c"},"vehicle_type_id":"4","last_reported":1703794019,"current_range_meters":11200,"station_id":"ce4bgj92rcd13ifvqbe0","pricing_plan_id":"free"},{"bike_id":"1cfa2c67-3cf0-434b-b356-1136962b5a22","system_id":"levelo_inurba_marseille","lat":43.280784,"lon":5.396622,"is_reserved":false,"is_disabled":false,"rental_uris":{"android":"levelo://app?vid=1cfa2c67-3cf0-434b-b356-1136962b5a22","ios":"levelo://app?vid=1cfa2c67-3cf0-434b-b356-1136962b5a22"},"vehicle_type_id":"4","last_reported":1703794019,"current_range_meters":31200,"station_id":"ce4bho12rcd13ifvqh2g","pricing_plan_id":"free"},{"bike_id":"2813dfea-f2c4-4f3a-936f-2ea55c78bfcc","system_id":"levelo_inurba_marseille","lat":43.280784,"lon":5.396622,"is_reserved":false,"is_disabled":false,"rental_uris":{"android":"levelo://app?vid=2813dfea-f2c4-4f3a-936f-2ea55c78bfcc","ios":"levelo://app?vid=2813dfea-f2c4-4f3a-936f-2ea55c78bfcc"},"vehicle_type_id":"4","last_reported":1703794019,"current_range_meters":18800,"station_id":"ce4bho12rcd13ifvqh2g","pricing_plan_id":"free"},{"bike_id":"e0db9863-9a81-468a-886f-7dbf00b38255","system_id":"levelo_inurba_marseille","lat":43.280784,"lon":5.396622,"is_reserved":false,"is_disabled":false,"rental_uris":{"android":"levelo://app?vid=e0db9863-9a81-468a-886f-7dbf00b38255","ios":"levelo://app?vid=e0db9863-9a81-468a-886f-7dbf00b38255"},"vehicle_type_id":"4","last_reported":1703794019,"current_range_meters":16000,"station_id":"ce4bho12rcd13ifvqh2g","pricing_plan_id":"free"},{"bike_id":"f877b7f9-dc20-4acb-ab4b-c31fc0a67220","system_id":"levelo_inurba_marseille","lat":43.280784,"lon":5.396622,"is_reserved":false,"is_disabled":false,"rental_uris":{"android":"levelo://app?vid=f877b7f9-dc20-4acb-ab4b-c31fc0a67220","ios":"levelo://app?vid=f877b7f9-dc20-4acb-ab4b-c31fc0a67220"},"vehicle_type_id":"4","last_reported":1703794019,"current_range_meters":15600,"station_id":"ce4bho12rcd13ifvqh2g","pricing_plan_id":"free"},{"bike_id":"aabc7ec7-d5a2-4317-928e-d9a2ba856a12","system_id":"levelo_inurba_marseille","lat":43.280784,"lon":5.396622,"is_reserved":false,"is_disabled":false,"rental_uris":{"android":"levelo://app?vid=aabc7ec7-d5a2-4317-928e-d9a2ba856a12","ios":"levelo://app?vid=aabc7ec7-d5a2-4317-928e-d9a2ba856a12"},"vehicle_type_id":"4","last_reported":1703794019,"current_range_meters":21600,"station_id":"ce4bho12rcd13ifvqh2g","pricing_plan_id":"free"},{"bike_id":"0105f4ea-e001-4ff1-928c-c86b060dd9d3","system_id":"levelo_inurba_marseille","lat":43.303837,"lon":5.418724,"is_reserved":false,"is_disabled":false,"rental_uris":{"android":"levelo://app?vid=0105f4ea-e001-4ff1-928c-c86b060dd9d3","ios":"levelo://app?vid=0105f4ea-e001-4ff1-928c-c86b060dd9d3"},"vehicle_type_id":"4","last_reported":1703794019,"current_range_meters":26000,"station_id":"ce4bhop2rcd13ifvqh7g","pricing_plan_id":"free"},{"bike_id":"91729a13-adb0-4e97-8482-ab5f17e53f57","system_id":"levelo_inurba_marseille","lat":43.273613,"lon":5.362705,"is_reserved":false,"is_disabled":false,"rental_uris":{"android":"levelo://app?vid=91729a13-adb0-4e97-8482-ab5f17e53f57","ios":"levelo://app?vid=91729a13-adb0-4e97-8482-ab5f17e53f57"},"vehicle_type_id":"4","last_reported":1703794019,"current_range_meters":30400,"station_id":"ce4bhbh2rcd13ifvqeo0","pricing_plan_id":"free"},{"bike_id":"04300444-485b-4fd6-a9a7-2810251b74ae","system_id":"levelo_inurba_marseille","lat":43.273609,"lon":5.362708,"is_reserved":false,"is_disabled":false,"rental_uris":{"android":"levelo://app?vid=04300444-485b-4fd6-a9a7-2810251b74ae","ios":"levelo://app?vid=04300444-485b-4fd6-a9a7-2810251b74ae"},"vehicle_type_id":"4","last_reported":1703794019,"current_range_meters":18800,"station_id":"ce4bhbh2rcd13ifvqeo0","pricing_plan_id":"free"},{"bike_id":"385f6825-847e-4940-b675-3f52ce050c6f","system_id":"levelo_inurba_marseille","lat":43.273613,"lon":5.362705,"is_reserved":false,"is_disabled":false,"rental_uris":{"android":"levelo://app?vid=385f6825-847e-4940-b675-3f52ce050c6f","ios":"levelo://app?vid=385f6825-847e-4940-b675-3f52ce050c6f"},"vehicle_type_id":"4","last_reported":1703794019,"current_range_meters":27200,"station_id":"ce4bhbh2rcd13ifvqeo0","pricing_plan_id":"free"},{"bike_id":"a979dea3-e445-4407-a6b4-8d0af5098c2a","system_id":"levelo_inurba_marseille","lat":43.275625,"lon":5.384392,"is_reserved":false,"is_disabled":false,"rental_uris":{"android":"levelo://app?vid=a979dea3-e445-4407-a6b4-8d0af5098c2a","ios":"levelo://app?vid=a979dea3-e445-4407-a6b4-8d0af5098c2a"},"vehicle_type_id":"4","last_reported":1703794019,"current_range_meters":14800,"station_id":"ce4bhh92rcd13ifvqfi0","pricing_plan_id":"free"},{"bike_id":"c5097c6d-28e9-4b1f-a0ba-02096980ff87","system_id":"levelo_inurba_marseille","lat":43.275625,"lon":5.384392,"is_reserved":false,"is_disabled":false,"rental_uris":{"android":"levelo://app?vid=c5097c6d-28e9-4b1f-a0ba-02096980ff87","ios":"levelo://app?vid=c5097c6d-28e9-4b1f-a0ba-02096980ff87"},"vehicle_type_id":"4","last_reported":1703794019,"current_range_meters":28800,"station_id":"ce4bhh92rcd13ifvqfi0","pricing_plan_id":"free"},{"bike_id":"7c905b24-8df9-4fc0-ae8b-76c89f50fa23","system_id":"levelo_inurba_marseille","lat":43.279975,"lon":5.40009,"is_reserved":false,"is_disabled":false,"rental_uris":{"android":"levelo://app?vid=7c905b24-8df9-4fc0-ae8b-76c89f50fa23","ios":"levelo://app?vid=7c905b24-8df9-4fc0-ae8b-76c89f50fa23"},"vehicle_type_id":"4","last_reported":1703794019,"current_range_meters":2800,"station_id":"ce4bho92rcd13ifvqh4g","pricing_plan_id":"free"},{"bike_id":"98e75801-6872-4cca-809c-552e18c99a3c","system_id":"levelo_inurba_marseille","lat":43.317121,"lon":5.423936,"is_reserved":false,"is_disabled":false,"rental_uris":{"android":"levelo://app?vid=98e75801-6872-4cca-809c-552e18c99a3c","ios":"levelo://app?vid=98e75801-6872-4cca-809c-552e18c99a3c"},"vehicle_type_id":"4","last_reported":1703794019,"current_range_meters":26800,"station_id":"ce4bhp92rcd13ifvqhbg","pricing_plan_id":"free"},{"bike_id":"41908f97-b8b7-456c-b090-98c8215fb50a","system_id":"levelo_inurba_marseille","lat":43.310785,"lon":5.424305,"is_reserved":false,"is_disabled":false,"rental_uris":{"android":"levelo://app?vid=41908f97-b8b7-456c-b090-98c8215fb50a","ios":"levelo://app?vid=41908f97-b8b7-456c-b090-98c8215fb50a"},"vehicle_type_id":"4","last_reported":1703794019,"current_range_meters":28000,"station_id":"ce4bhp92rcd13ifvqhag","pricing_plan_id":"free"},{"bike_id":"f38fc54d-72f8-4c09-9a80-84da58690710","system_id":"levelo_inurba_marseille","lat":43.310785,"lon":5.424305,"is_reserved":false,"is_disabled":false,"rental_uris":{"android":"levelo://app?vid=f38fc54d-72f8-4c09-9a80-84da58690710","ios":"levelo://app?vid=f38fc54d-72f8-4c09-9a80-84da58690710"},"vehicle_type_id":"4","last_reported":1703794019,"current_range_meters":15600,"station_id":"ce4bhp92rcd13ifvqhag","pricing_plan_id":"free"},{"bike_id":"73e9490c-78b3-4eab-afcd-25587fc1ed71","system_id":"levelo_inurba_marseille","lat":43.340804,"lon":5.410219,"is_reserved":false,"is_disabled":false,"rental_uris":{"android":"levelo://app?vid=73e9490c-78b3-4eab-afcd-25587fc1ed71","ios":"levelo://app?vid=73e9490c-78b3-4eab-afcd-25587fc1ed71"},"vehicle_type_id":"4","last_reported":1703794019,"current_range_meters":27200,"station_id":"ce4bhqh2rcd13ifvqhlg","pricing_plan_id":"free"},{"bike_id":"1a16c248-260d-4c68-b0d5-f07822219418","system_id":"levelo_inurba_marseille","lat":43.340804,"lon":5.410219,"is_reserved":false,"is_disabled":false,"rental_uris":{"android":"levelo://app?vid=1a16c248-260d-4c68-b0d5-f07822219418","ios":"levelo://app?vid=1a16c248-260d-4c68-b0d5-f07822219418"},"vehicle_type_id":"4","last_reported":1703794019,"current_range_meters":12800,"station_id":"ce4bhqh2rcd13ifvqhlg","pricing_plan_id":"free"},{"bike_id":"e2fd0ea3-8e75-46ed-91dd-141950cbbf81","system_id":"levelo_inurba_marseille","lat":43.340804,"lon":5.410219,"is_reserved":false,"is_disabled":false,"rental_uris":{"android":"levelo://app?vid=e2fd0ea3-8e75-46ed-91dd-141950cbbf81","ios":"levelo://app?vid=e2fd0ea3-8e75-46ed-91dd-141950cbbf81"},"vehicle_type_id":"4","last_reported":1703794019,"current_range_meters":8000,"station_id":"ce4bhqh2rcd13ifvqhlg","pricing_plan_id":"free"},{"bike_id":"39f4a0f0-bcf6-4bc5-a028-aa2848b7f12f","system_id":"levelo_inurba_marseille","lat":43.274103,"lon":5.394016,"is_reserved":false,"is_disabled":false,"rental_uris":{"android":"levelo://app?vid=39f4a0f0-bcf6-4bc5-a028-aa2848b7f12f","ios":"levelo://app?vid=39f4a0f0-bcf6-4bc5-a028-aa2848b7f12f"},"vehicle_type_id":"4","last_reported":1703794019,"current_range_meters":22800,"station_id":"ce4bhdp2rcd13ifvqf20","pricing_plan_id":"free"},{"bike_id":"6a48db3f-9fc3-4404-b973-f4cc675c01c7","system_id":"levelo_inurba_marseille","lat":43.295523,"lon":5.422926,"is_reserved":false,"is_disabled":false,"rental_uris":{"android":"levelo://app?vid=6a48db3f-9fc3-4404-b973-f4cc675c01c7","ios":"levelo://app?vid=6a48db3f-9fc3-4404-b973-f4cc675c01c7"},"vehicle_type_id":"4","last_reported":1703794019,"current_range_meters":28000,"station_id":"ce4bhph2rcd13ifvqhdg","pricing_plan_id":"free"},{"bike_id":"6d735bdc-6834-49ef-ad58-2a1b73a15a49","system_id":"levelo_inurba_marseille","lat":43.295523,"lon":5.422926,"is_reserved":false,"is_disabled":false,"rental_uris":{"android":"levelo://app?vid=6d735bdc-6834-49ef-ad58-2a1b73a15a49","ios":"levelo://app?vid=6d735bdc-6834-49ef-ad58-2a1b73a15a49"},"vehicle_type_id":"4","last_reported":1703794019,"current_range_meters":31200,"station_id":"ce4bhph2rcd13ifvqhdg","pricing_plan_id":"free"},{"bike_id":"acec87c8-498e-46a9-a572-8de891a24d3a","system_id":"levelo_inurba_marseille","lat":43.295523,"lon":5.422926,"is_reserved":false,"is_disabled":false,"rental_uris":{"android":"levelo://app?vid=acec87c8-498e-46a9-a572-8de891a24d3a","ios":"levelo://app?vid=acec87c8-498e-46a9-a572-8de891a24d3a"},"vehicle_type_id":"4","last_reported":1703794019,"current_range_meters":23600,"station_id":"ce4bhph2rcd13ifvqhdg","pricing_plan_id":"free"},{"bike_id":"623e5527-a121-4ec1-8cc0-17b5fddea11b","system_id":"levelo_inurba_marseille","lat":43.295523,"lon":5.422926,"is_reserved":false,"is_disabled":false,"rental_uris":{"android":"levelo://app?vid=623e5527-a121-4ec1-8cc0-17b5fddea11b","ios":"levelo://app?vid=623e5527-a121-4ec1-8cc0-17b5fddea11b"},"vehicle_type_id":"4","last_reported":1703794019,"current_range_meters":25600,"station_id":"ce4bhph2rcd13ifvqhdg","pricing_plan_id":"free"},{"bike_id":"bc660e5c-f7cd-4460-935e-226ad1eba4eb","system_id":"levelo_inurba_marseille","lat":43.295523,"lon":5.422926,"is_reserved":false,"is_disabled":false,"rental_uris":{"android":"levelo://app?vid=bc660e5c-f7cd-4460-935e-226ad1eba4eb","ios":"levelo://app?vid=bc660e5c-f7cd-4460-935e-226ad1eba4eb"},"vehicle_type_id":"4","last_reported":1703794019,"current_range_meters":29600,"station_id":"ce4bhph2rcd13ifvqhdg","pricing_plan_id":"free"},{"bike_id":"e192df68-2c2b-482d-b6fd-3b8920434290","system_id":"levelo_inurba_marseille","lat":43.29547,"lon":5.42285,"is_reserved":false,"is_disabled":false,"rental_uris":{"android":"levelo://app?vid=e192df68-2c2b-482d-b6fd-3b8920434290","ios":"levelo://app?vid=e192df68-2c2b-482d-b6fd-3b8920434290"},"vehicle_type_id":"4","last_reported":1703794019,"current_range_meters":21600,"station_id":"ce4bhph2rcd13ifvqhdg","pricing_plan_id":"free"},{"bike_id":"4196ca77-dfcf-475c-86ae-93bb6437a803","system_id":"levelo_inurba_marseille","lat":43.295511,"lon":5.422926,"is_reserved":false,"is_disabled":false,"rental_uris":{"android":"levelo://app?vid=4196ca77-dfcf-475c-86ae-93bb6437a803","ios":"levelo://app?vid=4196ca77-dfcf-475c-86ae-93bb6437a803"},"vehicle_type_id":"4","last_reported":1703794019,"current_range_meters":21200,"station_id":"ce4bhph2rcd13ifvqhdg","pricing_plan_id":"free"},{"bike_id":"bbe65ccc-9070-4f80-8bcb-aa504225d9b2","system_id":"levelo_inurba_marseille","lat":43.295511,"lon":5.422926,"is_reserved":false,"is_disabled":false,"rental_uris":{"android":"levelo://app?vid=bbe65ccc-9070-4f80-8bcb-aa504225d9b2","ios":"levelo://app?vid=bbe65ccc-9070-4f80-8bcb-aa504225d9b2"},"vehicle_type_id":"4","last_reported":1703794019,"current_range_meters":4400,"station_id":"ce4bhph2rcd13ifvqhdg","pricing_plan_id":"free"},{"bike_id":"67e92cfb-1f65-41f3-9893-dd7b8889b8f0","system_id":"levelo_inurba_marseille","lat":43.295511,"lon":5.422926,"is_reserved":false,"is_disabled":false,"rental_uris":{"android":"levelo://app?vid=67e92cfb-1f65-41f3-9893-dd7b8889b8f0","ios":"levelo://app?vid=67e92cfb-1f65-41f3-9893-dd7b8889b8f0"},"vehicle_type_id":"4","last_reported":1703794019,"current_range_meters":30400,"station_id":"ce4bhph2rcd13ifvqhdg","pricing_plan_id":"free"},{"bike_id":"dcb34f7e-4bb0-4f50-a0bd-5ae8e961c5f1","system_id":"levelo_inurba_marseille","lat":43.27212,"lon":5.3925,"is_reserved":false,"is_disabled":false,"rental_uris":{"android":"levelo://app?vid=dcb34f7e-4bb0-4f50-a0bd-5ae8e961c5f1","ios":"levelo://app?vid=dcb34f7e-4bb0-4f50-a0bd-5ae8e961c5f1"},"vehicle_type_id":"4","last_reported":1703794019,"current_range_meters":400,"station_id":"","pricing_plan_id":"free"},{"bike_id":"b7d6b47d-877c-4006-a7c4-e83318f8befb","system_id":"levelo_inurba_marseille","lat":43.278128,"lon":5.407195,"is_reserved":false,"is_disabled":false,"rental_uris":{"android":"levelo://app?vid=b7d6b47d-877c-4006-a7c4-e83318f8befb","ios":"levelo://app?vid=b7d6b47d-877c-4006-a7c4-e83318f8befb"},"vehicle_type_id":"4","last_reported":1703794019,"current_range_meters":8000,"station_id":"ce4bhnh2rcd13ifvqgtg","pricing_plan_id":"free"},{"bike_id":"249fde99-2b1f-462d-a8e1-2be8cd193ab1","system_id":"levelo_inurba_marseille","lat":43.278128,"lon":5.407195,"is_reserved":false,"is_disabled":false,"rental_uris":{"android":"levelo://app?vid=249fde99-2b1f-462d-a8e1-2be8cd193ab1","ios":"levelo://app?vid=249fde99-2b1f-462d-a8e1-2be8cd193ab1"},"vehicle_type_id":"4","last_reported":1703794019,"current_range_meters":24400,"station_id":"ce4bhnh2rcd13ifvqgtg","pricing_plan_id":"free"},{"bike_id":"2c98ee74-4814-409c-a14a-0fd61876271a","system_id":"levelo_inurba_marseille","lat":43.278128,"lon":5.407195,"is_reserved":false,"is_disabled":false,"rental_uris":{"android":"levelo://app?vid=2c98ee74-4814-409c-a14a-0fd61876271a","ios":"levelo://app?vid=2c98ee74-4814-409c-a14a-0fd61876271a"},"vehicle_type_id":"4","last_reported":1703794019,"current_range_meters":25200,"station_id":"ce4bhnh2rcd13ifvqgtg","pricing_plan_id":"free"},{"bike_id":"53c5d7d1-4169-4079-bcf9-2053449b6441","system_id":"levelo_inurba_marseille","lat":43.279465,"lon":5.410561,"is_reserved":false,"is_disabled":false,"rental_uris":{"android":"levelo://app?vid=53c5d7d1-4169-4079-bcf9-2053449b6441","ios":"levelo://app?vid=53c5d7d1-4169-4079-bcf9-2053449b6441"},"vehicle_type_id":"4","last_reported":1703794019,"current_range_meters":25600,"station_id":"ce4bhnp2rcd13ifvqh0g","pricing_plan_id":"free"},