{"last_updated":1701245421,"ttl":30,"version":"2.2","data":{"bikes":[{"bike_id":"c84e225e-ba46-423e-a785-1fd471cdfffa","system_id":"levelo_inurba_marseille","lat":43.313391,"lon":5.36706,"is_reserved":false,"is_disabled":false,"rental_uris":{"android":"levelo://app?vid=c84e225e-ba46-423e-a785-1fd471cdfffa","ios":"levelo://app?vid=c84e225e-ba46-423e-a785-1fd471cdfffa"},"vehicle_type_id":"4","last_reported":1701245421,"current_range_meters":16800,"station_id":"ce4bgr92rcd13ifvqc6g","pricing_plan_id":"free"},{"bike_id":"841a6cf9-e53c-423a-a7da-c28c4a7550b5","system_id":"levelo_inurba_marseille","lat":43.313391,"lon":5.36706,"is_reserved":false,"is_disabled":false,"rental_uris":{"android":"levelo://app?vid=841a6cf9-e53c-423a-a7da-c28c4a7550b5","ios":"levelo://app?vid=841a6cf9-e53c-423a-a7da-c28c4a7550b5"},"vehicle_type_id":"4","last_reported":1701245421,"current_range_meters":26000,"station_id":"ce4bgr92rcd13ifvqc6g","pricing_plan_id":"free"},{"bike_id":"4ede3be8-ffbb-4fa7-8749-53300a12d77f","system_id":"levelo_inurba_marseille","lat":43.31341,"lon":5.367098,"is_reserved":false,"is_disabled":false,"rental_uris":{"android":"levelo://app?vid=4ede3be8-ffbb-4fa7-8749-53300a12d77f","ios":"levelo://app?vid=4ede3be8-ffbb-4fa7-8749-53300a12d77f"},"vehicle_type_id":"4","last_reported":1701245421,"current_range_meters":20000,"station_id":"ce4bgr92rcd13ifvqc6g","pricing_plan_id":"free"},{"bike_id":"31735fbd-b397-4bf4-af80-08f4cfe490fb","system_id":"levelo_inurba_marseille","lat":43.313391,"lon":5.36706,"is_reserved":false,"is_disabled":false,"rental_uris":{"android":"levelo://app?vid=31735fbd-b397-4bf4-af80-08f4cfe490fb","ios":"levelo://app?vid=31735fbd-b397-4bf4-af80-08f4cfe490fb"},"vehicle_type_id":"4","last_reported":1701245421,"current_range_meters":14000,"station_id":"ce4bgr92rcd13ifvqc6g","pricing_plan_id":"free"},{"bike_id":"d0447107-e328-4a68-805d-ab0f61f15016","system_id":"levelo_inurba_marseille","lat":43.313391,"lon":5.36706,"is_reserved":false,"is_disabled":false,"rental_uris":{"android":"levelo://app?vid=d0447107-e328-4a68-805d-ab0f61f15016","ios":"levelo://app?vid=d0447107-e328-4a68-805d-ab0f61f15016"},"vehicle_type_id":"4","last_reported":1701245421,"current_range_meters":28400,"station_id":"ce4bgr92rcd13ifvqc6g","pricing_plan_id":"free"},{"bike_id":"dc780252-aba2-4b44-a6ef-47e31b08c67a","system_id":"levelo_inurba_marseille","lat":43.312239,"lon":5.368562,"is_reserved":false,"is_disabled":false,"rental_uris":{"android":"levelo://app?vid=dc780252-aba2-4b44-a6ef-47e31b08c67a","ios":"levelo://app?vid=dc780252-aba2-4b44-a6ef-47e31b08c67a"},"vehicle_type_id":"4","last_reported":1701245421,"current_range_meters":11200,"station_id":"ce4bgl92rcd13ifvqbq0","pricing_plan_id":"free"},{"bike_id":"b8696795-b855-402a-8398-dba2be7bc5ba","system_id":"levelo_inurba_marseille","lat":43.312239,"lon":5.368562,"is_reserved":false,"is_disabled":false,"rental_uris":{"android":"levelo://app?vid=b8696795-b855-402a-8398-dba2be7bc5ba","ios":"levelo://app?vid=b8696795-b855-402a-8398-dba2be7bc5ba"},"vehicle_type_id":"4","last_reported":1701245421,"current_range_meters":22800,"station_id":"ce4bgl92rcd13ifvqbq0","pricing_plan_id":"free"},{"bike_id":"eae667f9-30f1-479b-957a-4aec64b0496a","system_id":"levelo_inurba_marseille","lat":43.312239,"lon":5.368562,"is_reserved":false,"is_disabled":false,"rental_uris":{"android":"levelo://app?vid=eae667f9-30f1-479b-957a-4aec64b0496a","ios":"levelo://app?vid=eae667f9-30f1-479b-957a-4aec64b0496a"},"vehicle_type_id":"4","last_reported":1701245421,"current_range_meters":0,"station_id":"ce4bgl92rcd13ifvqbq0","pricing_plan_id":"free"},{"bike_id":"fb207d52-c875-4189-9e26-c4e2194c351c","system_id":"levelo_inurba_marseille","lat":43.309076,"lon":5.368465,"is_reserved":false,"is_disabled":false,"rental_uris":{"android":"levelo://app?vid=fb207d52-c875-4189-9e26-c4e2194c351c","ios":"levelo://app?vid=fb207d52-c875-4189-9e26-c4e2194c351c"},"vehicle_type_id":"4","last_reported":1701245421,"current_range_meters":24000,"station_id":"ce4bgn92rcd13ifvqbvg","pricing_plan_id":"free"},{"bike_id":"da5621ab-f703-41b3-93bb-84440b32e0a6","system_id":"levelo_inurba_marseille","lat":43.309076,"lon":5.368465,"is_reserved":false,"is_disabled":false,"rental_uris":{"android":"levelo://app?vid=da5621ab-f703-41b3-93bb-84440b32e0a6","ios":"levelo://app?vid=da5621ab-f703-41b3-93bb-84440b32e0a6"},"vehicle_type_id":"4","last_reported":1701245421,"current_range_meters":20400,"station_id":"ce4bgn92rcd13ifvqbvg","pricing_plan_id":"free"},{"bike_id":"45a958fb-fafe-4e1b-8131-d99af8f04e50","system_id":"levelo_inurba_marseille","lat":43.309076,"lon":5.368465,"is_reserved":false,"is_disabled":false,"rental_uris":{"android":"levelo://app?vid=45a958fb-fafe-4e1b-8131-d99af8f04e50","ios":"levelo://app?vid=45a958fb-fafe-4e1b-8131-d99af8f04e50"},"vehicle_type_id":"4","last_reported":1701245421,"current_range_meters":8400,"station_id":"ce4bgn92rcd13ifvqbvg","pricing_plan_id":"free"},{"bike_id":"6a6da48e-f403-4026-8fa8-719991b5bef7","system_id":"levelo_inurba_marseille","lat":43.309076,"lon":5.368465,"is_reserved":false,"is_disabled":false,"rental_uris":{"android":"levelo://app?vid=6a6da48e-f403-4026-8fa8-719991b5bef7","ios":"levelo://app?vid=6a6da48e-f403-4026-8fa8-719991b5bef7"},"vehicle_type_id":"4","last_reported":1701245421,"current_range_meters":21600,"station_id":"ce4bgn92rcd13ifvqbvg","pricing_plan_id":"free"},{"bike_id":"a3bec47d-7e44-491c-998b-f437bd7f30f4","system_id":"levelo_inurba_marseille","lat":43.309076,"lon":5.368465,"is_reserved":false,"is_disabled":false,"rental_uris":{"android":"levelo://app?vid=a3bec47d-7e44-491c-998b-f437bd7f30f4","ios":"levelo://app?vid=a3bec47d-7e44-491c-998b-f437bd7f30f4"},"vehicle_type_id":"4","last_reported":1701245421,"current_range_meters":24000,"station_id":"ce4bgn92rcd13ifvqbvg","pricing_plan_id":"free"},{"bike_id":"d0eb2ffa-399f-4df6-91c2-8dcd4fdc3e74","system_id":"levelo_inurba_marseille","lat":43.309076,"lon":5.368465,"is_reserved":false,"is_disabled":false,"rental_uris":{"android":"levelo://app?vid=d0eb2ffa-399f-4df6-91c2-8dcd4fdc3e74","ios":"levelo://app?vid=d0eb2ffa-399f-4df6-91c2-8dcd4fdc3e74"},"vehicle_type_id":"4","last_reported":1701245421,"current_range_meters":5200,"station_id":"ce4bgn92rcd13ifvqbvg","pricing_plan_id":"free"},{"bike_id":"3707f51c-aad1-49fa-befc-57a133c32fae","system_id":"levelo_inurba_marseille","lat":43.309076,"lon":5.368465,"is_reserved":false,"is_disabled":false,"rental_uris":{"android":"levelo://app?vid=3707f51c-aad1-49fa-befc-57a133c32fae","ios":"levelo://app?vid=3707f51c-aad1-49fa-befc-57a133c32fae"},"vehicle_type_id":"4","last_reported":1701245421,"current_range_meters":28400,"station_id":"ce4bgn92rcd13ifvqbvg","pricing_plan_id":"free"},{"bike_id":"7f39fc5b-f311-434e-922e-b835a7a79fa8","system_id":"levelo_inurba_marseille","lat":43.309076,"lon":5.368465,"is_reserved":false,"is_disabled":false,"rental_uris":{"android":"levelo://app?vid=7f39fc5b-f311-434e-922e-b835a7a79fa8","ios":"levelo://app?vid=7f39fc5b-f311-434e-922e-b835a7a79fa8"},"vehicle_type_id":"4","last_reported":1701245421,"current_range_meters":24400,"station_id":"ce4bgn92rcd13ifvqbvg","pricing_plan_id":"free"},{"bike_id":"5c14e588-06cc-45fe-98b2-16ae99f774de","system_id":"levelo_inurba_marseille","lat":43.309076,"lon":5.368465,"is_reserved":false,"is_disabled":false,"rental_uris":{"android":"levelo://app?vid=5c14e588-06cc-45fe-98b2-16ae99f774de","ios":"levelo://app?vid=5c14e588-06cc-45fe-98b2-16ae99f774de"},"vehicle_type_id":"4","last_reported":1701245421,"current_range_meters":20800,"station_id":"ce4bgn92rcd13ifvqbvg","pricing_plan_id":"free"},{"bike_id":"a0ac4759-fb7e-4e79-a31a-04a71ff48b7a","system_id":"levelo_inurba_marseille","lat":43.309039,"lon":5.371797,"is_reserved":false,"is_disabled":false,"rental_uris":{"android":"levelo://app?vid=a0ac4759-fb7e-4e79-a31a-04a71ff48b7a","ios":"levelo://app?vid=a0ac4759-fb7e-4e79-a31a-04a71ff48b7a"},"vehicle_type_id":"4","last_reported":1701245421,"current_range_meters":8800,"station_id":"ce4bguh2rcd13ifvqckg","pricing_plan_id":"free"},{"bike_id":"878504fe-d5a2-4bb7-9b4c-3d221495a0ff","system_id":"levelo_inurba_marseille","lat":43.305712,"lon":5.365641,"is_reserved":false,"is_disabled":false,"rental_uris":{"android":"levelo://app?vid=878504fe-d5a2-4bb7-9b4c-3d221495a0ff","ios":"levelo://app?vid=878504fe-d5a2-4bb7-9b4c-3d221495a0ff"},"vehicle_type_id":"4","last_reported":1701245421,"current_range_meters":28400,"station_id":"ce4bgs12rcd13ifvqcag","pricing_plan_id":"free"},{"bike_id":"e6cb03c2-5f9e-4178-8416-6f41ed632ae8","system_id":"levelo_inurba_marseille","lat":43.305434,"lon":5.367041,"is_reserved":false,"is_disabled":false,"rental_uris":{"android":"levelo://app?vid=e6cb03c2-5f9e-4178-8416-6f41ed632ae8","ios":"levelo://app?vid=e6cb03c2-5f9e-4178-8416-6f41ed632ae8"},"vehicle_type_id":"4","last_reported":1701245421,"current_range_meters":0,"station_id":"ce4bgrp2rcd13ifvqc9g","pricing_plan_id":"free"},{"bike_id":"6c822ccb-44bd-4095-b4ae-2f99b32f29ee","system_id":"levelo_inurba_marseille","lat":43.30539,"lon":5.367002,"is_reserved":false,"is_disabled":false,"rental_uris":{"android":"levelo://app?vid=6c822ccb-44bd-4095-b4ae-2f99b32f29ee","ios":"levelo://app?vid=6c822ccb-44bd-4095-b4ae-2f99b32f29ee"},"vehicle_type_id":"4","last_reported":1701245421,"current_range_meters":21600,"station_id":"ce4bgrp2rcd13ifvqc9g","pricing_plan_id":"free"},{"bike_id":"cf39718d-4919-41f1-b1bd-f9dbbe71e053","system_id":"levelo_inurba_marseille","lat":43.305714,"lon":5.365633,"is_reserved":false,"is_disabled":false,"rental_uris":{"android":"levelo://app?vid=cf39718d-4919-41f1-b1bd-f9dbbe71e053","ios":"levelo://app?vid=cf39718d-4919-41f1-b1bd-f9dbbe71e053"},"vehicle_type_id":"4","last_reported":1701245421,"current_range_meters":22000,"station_id":"ce4bgs12rcd13ifvqcag","pricing_plan_id":"free"},{"bike_id":"bcf4acf1-8429-4bf0-811c-891752cccdd1","system_id":"levelo_inurba_marseille","lat":43.305368,"lon":5.367343,"is_reserved":false,"is_disabled":false,"rental_uris":{"android":"levelo://app?vid=bcf4acf1-8429-4bf0-811c-891752cccdd1","ios":"levelo://app?vid=bcf4acf1-8429-4bf0-811c-891752cccdd1"},"vehicle_type_id":"4","last_reported":1701245421,"current_range_meters":16400,"station_id":"ce4bgrp2rcd13ifvqc9g","pricing_plan_id":"free"},{"bike_id":"e4a5dd99-c04e-4a50-bd4b-dd6d9964171a","system_id":"levelo_inurba_marseille","lat":43.305706,"lon":5.365654,"is_reserved":false,"is_disabled":false,"rental_uris":{"android":"levelo://app?vid=e4a5dd99-c04e-4a50-bd4b-dd6d9964171a","ios":"levelo://app?vid=e4a5dd99-c04e-4a50-bd4b-dd6d9964171a"},"vehicle_type_id":"4","last_reported":1701245421,"current_range_meters":30400,"station_id":"ce4bgs12rcd13ifvqcag","pricing_plan_id":"free"},{"bike_id":"1b7ead25-e91f-44ba-82bb-19125c66c2d9","system_id":"levelo_inurba_marseille","lat":43.305714,"lon":5.365633,"is_reserved":false,"is_disabled":false,"rental_uris":{"android":"levelo://app?vid=1b7ead25-e91f-44ba-82bb-19125c66c2d9","ios":"levelo://app?vid=1b7ead25-e91f-44ba-82bb-19125c66c2d9"},"vehicle_type_id":"4","last_reported":1701245421,"current_range_meters":31200,"station_id":"ce4bgs12rcd13ifvqcag","pricing_plan_id":"free"},{"bike_id":"95f3227a-8687-4dc5-90ae-b45473220eeb","system_id":"levelo_inurba_marseille","lat":43.305368,"lon":5.367343,"is_reserved":false,"is_disabled":false,"rental_uris":{"android":"levelo://app?vid=95f3227a-8687-4dc5-90ae-b45473220eeb","ios":"levelo://app?vid=95f3227a-8687-4dc5-90ae-b45473220eeb"},"vehicle_type_id":"4","last_reported":1701245421,"current_range_meters":25200,"station_id":"ce4bgrp2rcd13ifvqc9g","pricing_plan_id":"free"},{"bike_id":"e6e0bb1f-9e0e-4926-9832-bfcce6f07fc3","system_id":"levelo_inurba_marseille","lat":43.305706,"lon":5.365654,"is_reserved":false,"is_disabled":false,"rental_uris":{"android":"levelo://app?vid=e6e0bb1f-9e0e-4926-9832-bfcce6f07fc3","ios":"levelo://app?vid=e6e0bb1f-9e0e-4926-9832-bfcce6f07fc3"},"vehicle_type_id":"4","last_reported":1701245421,"current_range_meters":26800,"station_id":"ce4bgs12rcd13ifvqcag","pricing_plan_id":"free"},{"bike_id":"42ff4fd1-2814-44b7-a25b-63e4e1668686","system_id":"levelo_inurba_marseille","lat":43.30531,"lon":5.36722,"is_reserved":false,"is_disabled":false,"rental_uris":{"android":"levelo://app?vid=42ff4fd1-2814-44b7-a25b-63e4e1668686","ios":"levelo://app?vid=42ff4fd1-2814-44b7-a25b-63e4e1668686"},"vehicle_type_id":"4","last_reported":1701245421,"current_range_meters":26000,"station_id":"ce4bgrp2rcd13ifvqc9g","pricing_plan_id":"free"},{"bike_id":"d7358ff6-3f82-4bd6-96a3-f1d7c8bf5e0e","system_id":"levelo_inurba_marseille","lat":43.305706,"lon":5.365654,"is_reserved":false,"is_disabled":false,"rental_uris":{"android":"levelo://app?vid=d7358ff6-3f82-4bd6-96a3-f1d7c8bf5e0e","ios":"levelo://app?vid=d7358ff6-3f82-4bd6-96a3-f1d7c8bf5e0e"},"vehicle_type_id":"4","last_reported":1701245421,"current_range_meters":20400,"station_id":"ce4bgs12rcd13ifvqcag","pricing_plan_id":"free"},{"bike_id":"0802c634-9816-42ea-997e-1d26acf02a2e","system_id":"levelo_inurba_marseille","lat":43.305368,"lon":5.367343,"is_reserved":false,"is_disabled":false,"rental_uris":{"android":"levelo://app?vid=0802c634-9816-42ea-997e-1d26acf02a2e","ios":"levelo://app?vid=0802c634-9816-42ea-997e-1d26acf02a2e"},"vehicle_type_id":"4","last_reported":1701245421,"current_range_meters":18000,"station_id":"ce4bgrp2rcd13ifvqc9g","pricing_plan_id":"free"},{"bike_id":"ff78abee-a4c7-42a6-bed7-f117d3fb7cde","system_id":"levelo_inurba_marseille","lat":43.305706,"lon":5.365654,"is_reserved":false,"is_disabled":false,"rental_uris":{"android":"levelo://app?vid=ff78abee-a4c7-42a6-bed7-f117d3fb7cde","ios":"levelo://app?vid=ff78abee-a4c7-42a6-bed7-f117d3fb7cde"},"vehicle_type_id":"4","last_reported":1701245421,"current_range_meters":31600,"station_id":"ce4bgs12rcd13ifvqcag","pricing_plan_id":"free"},{"bike_id":"2b37ed01-e2b3-49d1-923f-f4169d14c64a","system_id":"levelo_inurba_marseille","lat":43.305706,"lon":5.365654,"is_reserved":false,"is_disabled":false,"rental_uris":{"android":"levelo://app?vid=2b37ed01-e2b3-49d1-923f-f4169d14c64a","ios":"levelo://app?vid=2b37ed01-e2b3-49d1-923f-f4169d14c64a"},"vehicle_type_id":"4","last_reported":1701245421,"current_range_meters":24800,"station_id":"ce4bgs12rcd13ifvqcag","pricing_plan_id":"free"},{"bike_id":"37a70064-fbde-46ff-bcf0-3847a3075d67","system_id":"levelo_inurba_marseille","lat":43.305368,"lon":5.367343,"is_reserved":false,"is_disabled":false,"rental_uris":{"android":"levelo://app?vid=37a70064-fbde-46ff-bcf0-3847a3075d67","ios":"levelo://app?vid=37a70064-fbde-46ff-bcf0-3847a3075d67"},"vehicle_type_id":"4","last_reported":1701245421,"current_range_meters":0,"station_id":"ce4bgrp2rcd13ifvqc9g","pricing_plan_id":"free"},{"bike_id":"b41f2565-88cc-4fc1-9fde-584a3f1affe1","system_id":"levelo_inurba_marseille","lat":43.30523,"lon":5.36704,"is_reserved":false,"is_disabled":false,"rental_uris":{"android":"levelo://app?vid=b41f2565-88cc-4fc1-9fde-584a3f1affe1","ios":"levelo://app?vid=b41f2565-88cc-4fc1-9fde-584a3f1affe1"},"vehicle_type_id":"4","last_reported":1701245421,"current_range_meters":22000,"station_id":"ce4bgrp2rcd13ifvqc9g","pricing_plan_id":"free"},{"bike_id":"d5eac96b-c180-4b2b-9014-b683ee8687b9","system_id":"levelo_inurba_marseille","lat":43.307945,"lon":5.376487,"is_reserved":false,"is_disabled":false,"rental_uris":{"android":"levelo://app?vid=d5eac96b-c180-4b2b-9014-b683ee8687b9","ios":"levelo://app?vid=d5eac96b-c180-4b2b-9014-b683ee8687b9"},"vehicle_type_id":"4","last_reported":1701245421,"current_range_meters":24800,"station_id":"ce4bgv92rcd13ifvqcq0","pricing_plan_id":"free"},{"bike_id":"f427a2c3-6e4a-446b-ae2f-9be8aa7f4122","system_id":"levelo_inurba_marseille","lat":43.31719,"lon":5.376813,"is_reserved":false,"is_disabled":false,"rental_uris":{"android":"levelo://app?vid=f427a2c3-6e4a-446b-ae2f-9be8aa7f4122","ios":"levelo://app?vid=f427a2c3-6e4a-446b-ae2f-9be8aa7f4122"},"vehicle_type_id":"4","last_reported":1701245421,"current_range_meters":10400,"station_id":"ce4bgth2rcd13ifvqch0","pricing_plan_id":"free"},{"bike_id":"e913f328-1e31-4c22-bd87-f809ea246de4","system_id":"levelo_inurba_marseille","lat":43.317168,"lon":5.376883,"is_reserved":false,"is_disabled":false,"rental_uris":{"android":"levelo://app?vid=e913f328-1e31-4c22-bd87-f809ea246de4","ios":"levelo://app?vid=e913f328-1e31-4c22-bd87-f809ea246de4"},"vehicle_type_id":"4","last_reported":1701245421,"current_range_meters":12800,"station_id":"ce4bgth2rcd13ifvqch0","pricing_plan_id":"free"},{"bike_id":"a6d57f4c-8321-4558-ac70-00798b961446","system_id":"levelo_inurba_marseille","lat":43.303046,"lon":5.368981,"is_reserved":false,"is_disabled":false,"rental_uris":{"android":"levelo://app?vid=a6d57f4c-8321-4558-ac70-00798b961446","ios":"levelo://app?vid=a6d57f4c-8321-4558-ac70-00798b961446"},"vehicle_type_id":"4","last_reported":1701245421,"current_range_meters":24800,"station_id":"ce4bgqh2rcd13ifvqc5g","pricing_plan_id":"free"},{"bike_id":"3e09080e-9db5-4c48-951f-c5f672a60264","system_id":"levelo_inurba_marseille","lat":43.32153,"lon":5.37472,"is_reserved":false,"is_disabled":false,"rental_uris":{"android":"levelo://app?vid=3e09080e-9db5-4c48-951f-c5f672a60264","ios":"levelo://app?vid=3e09080e-9db5-4c48-951f-c5f672a60264"},"vehicle_type_id":"4","last_reported":1701245421,"current_range_meters":9200,"station_id":"","pricing_plan_id":"free"},{"bike_id":"c227749f-b9bb-45d6-931d-8030d1da1907","system_id":"levelo_inurba_marseille","lat":43.301939,"lon":5.366286,"is_reserved":false,"is_disabled":false,"rental_uris":{"android":"levelo://app?vid=c227749f-b9bb-45d6-931d-8030d1da1907","ios":"levelo://app?vid=c227749f-b9bb-45d6-931d-8030d1da1907"},"vehicle_type_id":"4","last_reported":1701245421,"current_range_meters":21600,"station_id":"ce4bgrh2rcd13ifvqc8g","pricing_plan_id":"free"},{"bike_id":"0751ba80-d7db-4135-869d-ff42b38b27c1","system_id":"levelo_inurba_marseille","lat":43.301939,"lon":5.366286,"is_reserved":false,"is_disabled":false,"rental_uris":{"android":"levelo://app?vid=0751ba80-d7db-4135-869d-ff42b38b27c1","ios":"levelo://app?vid=0751ba80-d7db-4135-869d-ff42b38b27c1"},"vehicle_type_id":"4","last_reported":1701245421,"current_range_meters":5200,"station_id":"ce4bgrh2rcd13ifvqc8g","pricing_plan_id":"free"},{"bike_id":"3f706e49-69d6-44ab-9d8f-ab8108ec2239","system_id":"levelo_inurba_marseille","lat":43.304606,"lon":5.379026,"is_reserved":false,"is_disabled":false,"rental_uris":{"android":"levelo://app?vid=3f706e49-69d6-44ab-9d8f-ab8108ec2239","ios":"levelo://app?vid=3f706e49-69d6-44ab-9d8f-ab8108ec2239"},"vehicle_type_id":"4","last_reported":1701245421,"current_range_meters":31600,"station_id":"ce4bgup2rcd13ifvqcn0","pricing_plan_id":"free"},{"bike_id":"6ed5db8e-7816-4dc7-8b62-f4d36185ed4c","system_id":"levelo_inurba_marseille","lat":43.30468,"lon":5.37899,"is_reserved":false,"is_disabled":false,"rental_uris":{"android":"levelo://app?vid=6ed5db8e-7816-4dc7-8b62-f4d36185ed4c","ios":"levelo://app?vid=6ed5db8e-7816-4dc7-8b62-f4d36185ed4c"},"vehicle_type_id":"4","last_reported":1701245421,"current_range_meters":3600,"station_id":"ce4bgup2rcd13ifvqcn0","pricing_plan_id":"free"},{"bike_id":"c07b4b1e-b6fe-4750-ad3a-ae1afba0c32b","system_id":"levelo_inurba_marseille","lat":43.30478,"lon":5.37912,"is_reserved":false,"is_disabled":false,"rental_uris":{"android":"levelo://app?vid=c07b4b1e-b6fe-4750-ad3a-ae1afba0c32b","ios":"levelo://app?vid=c07b4b1e-b6fe-4750-ad3a-ae1afba0c32b"},"vehicle_type_id":"4","last_reported":1701245421,"current_range_meters":30800,"station_id":"ce4bgup2rcd13ifvqcn0","pricing_plan_id":"free"},{"bike_id":"26ac818e-a747-4f49-8e05-3985a37c7854","system_id":"levelo_inurba_marseille","lat":43.304658,"lon":5.378985,"is_reserved":false,"is_disabled":false,"rental_uris":{"android":"levelo://app?vid=26ac818e-a747-4f49-8e05-3985a37c7854","ios":"levelo://app?vid=26ac818e-a747-4f49-8e05-3985a37c7854"},"vehicle_type_id":"4","last_reported":1701245421,"current_range_meters":12400,"station_id":"ce4bgup2rcd13ifvqcn0","pricing_plan_id":"free"},{"bike_id":"b7567862-d038-44cc-9371-eb650482a2d6","system_id":"levelo_inurba_marseille","lat":43.304619,"lon":5.378948,"is_reserved":false,"is_disabled":false,"rental_uris":{"android":"levelo://app?vid=b7567862-d038-44cc-9371-eb650482a2d6","ios":"levelo://app?vid=b7567862-d038-44cc-9371-eb650482a2d6"},"vehicle_type_id":"4","last_reported":1701245421,"current_range_meters":22000,"station_id":"ce4bgup2rcd13ifvqcn0","pricing_plan_id":"free"},{"bike_id":"d8cefe2c-f886-4ec7-9b59-574e1dc5a91d","system_id":"levelo_inurba_marseille","lat":43.3047,"lon":5.37907,"is_reserved":false,"is_disabled":false,"rental_uris":{"android":"levelo://app?vid=d8cefe2c-f886-4ec7-9b59-574e1dc5a91d","ios":"levelo://app?vid=d8cefe2c-f886-4ec7-9b59-574e1dc5a91d"},"vehicle_type_id":"4","last_reported":1701245421,"current_range_meters":31200,"station_id":"ce4bgup2rcd13ifvqcn0","pricing_plan_id":"free"},{"bike_id":"d1236fe9-198f-41e2-95b5-96daaa6ea495","system_id":"levelo_inurba_marseille","lat":43.304606,"lon":5.379026,"is_reserved":false,"is_disabled":false,"rental_uris":{"android":"levelo://app?vid=d1236fe9-198f-41e2-95b5-96daaa6ea495","ios":"levelo://app?vid=d1236fe9-198f-41e2-95b5-96daaa6ea495"},"vehicle_type_id":"4","last_reported":1701245421,"current_range_meters":20400,"station_id":"ce4bgup2rcd13ifvqcn0","pricing_plan_id":"free"},{"bike_id":"ff2d198b-0f42-4307-ace7-48393b7fe298","system_id":"levelo_inurba_marseille","lat":43.304606,"lon":5.379026,"is_reserved":false,"is_disabled":false,"rental_uris":{"android":"levelo://app?vid=ff2d198b-0f42-4307-ace7-48393b7fe298","ios":"levelo://app?vid=ff2d198b-0f42-4307-ace7-48393b7fe298"},"vehicle_type_id":"4","last_reported":1701245421,"current_range_meters":26000,"station_id":"ce4bgup2rcd13ifvqcn0","pricing_plan_id":"free"},{"bike_id":"45169c77-0980-40ca-8cee-d4ed64fc752c","system_id":"levelo_inurba_marseille","lat":43.304606,"lon":5.379026,"is_reserved":false,"is_disabled":false,"rental_uris":{"android":"levelo://app?vid=45169c77-0980-40ca-8cee-d4ed64fc752c","ios":"levelo://app?vid=45169c77-0980-40ca-8cee-d4ed64fc752c"},"vehicle_type_id":"4","last_reported":1701245421,"current_range_meters":31600,"station_id":"ce4bgup2rcd13ifvqcn0","pricing_plan_id":"free"},{"bike_id":"b904cce6-775e-4a06-a58f-3194dd7e18cf","system_id":"levelo_inurba_marseille","lat":43.304606,"lon":5.379026,"is_reserved":false,"is_disabled":false,"rental_uris":{"android":"levelo://app?vid=b904cce6-775e-4a06-a58f-3194dd7e18cf","ios":"levelo://app?vid=b904cce6-775e-4a06-a58f-3194dd7e18cf"},"vehicle_type_id":"4","last_reported":1701245421,"current_range_meters":21600,"station_id":"ce4bgup2rcd13ifvqcn0","pricing_plan_id":"free"},{"bike_id":"da5840a3-e67a-454b-a449-3fcdfe780ae3","system_id":"levelo_inurba_marseille","lat":43.30454,"lon":5.37907,"is_reserved":false,"is_disabled":false,"rental_uris":{"android":"levelo://app?vid=da5840a3-e67a-454b-a449-3fcdfe780ae3","ios":"levelo://app?vid=da5840a3-e67a-454b-a449-3fcdfe780ae3"},"vehicle_type_id":"4","last_reported":1701245421,"current_range_meters":15600,"station_id":"ce4bgup2rcd13ifvqcn0","pricing_plan_id":"free"},{"bike_id":"f89ea172-ffc6-4428-ab95-3f52dce97dbc","system_id":"levelo_inurba_marseille","lat":43.31341,"lon":5.367098,"is_reserved":false,"is_disabled":false,"rental_uris":{"android":"levelo://app?vid=f89ea172-ffc6-4428-ab95-3f52dce97dbc","ios":"levelo://app?vid=f89ea172-ffc6-4428-ab95-3f52dce97dbc"},"vehicle_type_id":"4","last_reported":1701245421,"current_range_meters":20400,"station_id":"ce4bgr92rcd13ifvqc6g","pricing_plan_id":"free"},{"bike_id":"9c8bb7e6-472f-4299-9059-cc0785b9f460","system_id":"levelo_inurba_marseille","lat":43.302784,"lon":5.377158,"is_reserved":false,"is_disabled":false,"rental_uris":{"android":"levelo://app?vid=9c8bb7e6-472f-4299-9059-cc0785b9f460","ios":"levelo://app?vid=9c8bb7e6-472f-4299-9059-cc0785b9f460"},"vehicle_type_id":"4","last_reported":1701245421,"current_range_meters":16000,"station_id":"ce4bguh2rcd13ifvqcj0","pricing_plan_id":"free"},{"bike_id":"2b2863d0-ac19-46cf-8ec8-acd5644cfb7f","system_id":"levelo_inurba_marseille","lat":43.30147,"lon":5.37415,"is_reserved":false,"is_disabled":false,"rental_uris":{"android":"levelo://app?vid=2b2863d0-ac19-46cf-8ec8-acd5644cfb7f","ios":"levelo://app?vid=2b2863d0-ac19-46cf-8ec8-acd5644cfb7f"},"vehicle_type_id":"4","last_reported":1701245421,"current_range_meters":21600,"station_id":"ce4bgs92rcd13ifvqcc0","pricing_plan_id":"free"},{"bike_id":"d5b10716-51ac-40ab-b889-120260bb271d","system_id":"levelo_inurba_marseille","lat":43.30143,"lon":5.37413,"is_reserved":false,"is_disabled":false,"rental_uris":{"android":"levelo://app?vid=d5b10716-51ac-40ab-b889-120260bb271d","ios":"levelo://app?vid=d5b10716-51ac-40ab-b889-120260bb271d"},"vehicle_type_id":"4","last_reported":1701245421,"current_range_meters":24000,"station_id":"ce4bgs92rcd13ifvqcc0","pricing_plan_id":"free"},{"bike_id":"3832489b-4c10-47a5-ad8b-b41b41728039","system_id":"levelo_inurba_marseille","lat":43.30143,"lon":5.37413,"is_reserved":false,"is_disabled":false,"rental_uris":{"android":"levelo://app?vid=3832489b-4c10-47a5-ad8b-b41b41728039","ios":"levelo://app?vid=3832489b-4c10-47a5-ad8b-b41b41728039"},"vehicle_type_id":"4","last_reported":1701245421,"current_range_meters":22800,"station_id":"ce4bgs92rcd13ifvqcc0","pricing_plan_id":"free"},{"bike_id":"2592df46-6d52-4040-b44a-872969926906","system_id":"levelo_inurba_marseille","lat":43.301429,"lon":5.37413,"is_reserved":false,"is_disabled":false,"rental_uris":{"android":"levelo://app?vid=2592df46-6d52-4040-b44a-872969926906","ios":"levelo://app?vid=2592df46-6d52-4040-b44a-872969926906"},"vehicle_type_id":"4","last_reported":1701245421,"current_range_meters":31200,"station_id":"ce4bgs92rcd13ifvqcc0","pricing_plan_id":"free"},{"bike_id":"58ef4840-4c01-46ca-8eb6-f66e5e42ca45","system_id":"levelo_inurba_marseille","lat":43.30143,"lon":5.37429,"is_reserved":false,"is_disabled":false,"rental_uris":{"android":"levelo://app?vid=58ef4840-4c01-46ca-8eb6-f66e5e42ca45","ios":"levelo://app?vid=58ef4840-4c01-46ca-8eb6-f66e5e42ca45"},"vehicle_type_id":"4","last_reported":1701245421,"current_range_meters":18000,"station_id":"ce4bgs92rcd13ifvqcc0","pricing_plan_id":"free"},{"bike_id":"cdc4031f-941d-423c-9ca4-458cefc00d80","system_id":"levelo_inurba_marseille","lat":43.302784,"lon":5.377158,"is_reserved":false,"is_disabled":false,"rental_uris":{"android":"levelo://app?vid=cdc4031f-941d-423c-9ca4-458cefc00d80","ios":"levelo://app?vid=cdc4031f-941d-423c-9ca4-458cefc00d80"},"vehicle_type_id":"4","last_reported":1701245421,"current_range_meters":16800,"station_id":"ce4bguh2rcd13ifvqcj0","pricing_plan_id":"free"},{"bike_id":"6b999687-2f4c-40e3-8735-3ac8e7454faa","system_id":"levelo_inurba_marseille","lat":43.304606,"lon":5.379026,"is_reserved":false,"is_disabled":false,"rental_uris":{"android":"levelo://app?vid=6b999687-2f4c-40e3-8735-3ac8e7454faa","ios":"levelo://app?vid=6b999687-2f4c-40e3-8735-3ac8e7454faa"},"vehicle_type_id":"4","last_reported":1701245421,"current_range_meters":12000,"station_id":"ce4bgup2rcd13ifvqcn0","pricing_plan_id":"free"},{"bike_id":"d0666632-64c7-4de5-a32c-36f616fc92bb","system_id":"levelo_inurba_marseille","lat":43.302784,"lon":5.377158,"is_reserved":false,"is_disabled":false,"rental_uris":{"android":"levelo://app?vid=d0666632-64c7-4de5-a32c-36f616fc92bb","ios":"levelo://app?vid=d0666632-64c7-4de5-a32c-36f616fc92bb"},"vehicle_type_id":"4","last_reported":1701245421,"current_range_meters":26400,"station_id":"ce4bguh2rcd13ifvqcj0","pricing_plan_id":"free"},{"bike_id":"68e78465-6fcc-4838-a3be-5bd8816759e8","system_id":"levelo_inurba_marseille","lat":43.313571,"lon":5.384829,"is_reserved":false,"is_disabled":false,"rental_uris":{"android":"levelo://app?vid=68e78465-6fcc-4838-a3be-5bd8816759e8","ios":"levelo://app?vid=68e78465-6fcc-4838-a3be-5bd8816759e8"},"vehicle_type_id":"4","last_reported":1701245421,"current_range_meters":23200,"station_id":"ce4bgt92rcd13ifvqcf0","pricing_plan_id":"free"},{"bike_id":"9cc6e380-8f89-4ee9-b9c0-6944e7991888","system_id":"levelo_inurba_marseille","lat":43.29936,"lon":5.36551,"is_reserved":false,"is_disabled":false,"rental_uris":{"android":"levelo://app?vid=9cc6e380-8f89-4ee9-b9c0-6944e7991888","ios":"levelo://app?vid=9cc6e380-8f89-4ee9-b9c0-6944e7991888"},"vehicle_type_id":"4","last_reported":1701245421,"current_range_meters":22400,"station_id":"ce4bgm92rcd13ifvqbr0","pricing_plan_id":"free"},{"bike_id":"261f5cab-340d-42b6-96fb-38b883086dff","system_id":"levelo_inurba_marseille","lat":43.298433,"lon":5.362774,"is_reserved":false,"is_disabled":false,"rental_uris":{"android":"levelo://app?vid=261f5cab-340d-42b6-96fb-38b883086dff","ios":"levelo://app?vid=261f5cab-340d-42b6-96fb-38b883086dff"},"vehicle_type_id":"4","last_reported":1701245421,"current_range_meters":18000,"station_id":"ce4bgpp2rcd13ifvqc3g","pricing_plan_id":"free"},{"bike_id":"aebb5f1f-3a1e-4323-a4f0-ae83e0b78d14","system_id":"levelo_inurba_marseille","lat":43.298433,"lon":5.362774,"is_reserved":false,"is_disabled":false,"rental_uris":{"android":"levelo://app?vid=aebb5f1f-3a1e-4323-a4f0-ae83e0b78d14","ios":"levelo://app?vid=aebb5f1f-3a1e-4323-a4f0-ae83e0b78d14"},"vehicle_type_id":"4","last_reported":1701245421,"current_range_meters":29200,"station_id":"ce4bgpp2rcd13ifvqc3g","pricing_plan_id":"free"},{"bike_id":"d9cded1a-0de5-4f85-ae4e-dafeb2302e3c","system_id":"levelo_inurba_marseille","lat":43.299243,"lon":5.37481,"is_reserved":false,"is_disabled":false,"rental_uris":{"android":"levelo://app?vid=d9cded1a-0de5-4f85-ae4e-dafeb2302e3c","ios":"levelo://app?vid=d9cded1a-0de5-4f85-ae4e-dafeb2302e3c"},"vehicle_type_id":"4","last_reported":1701245421,"current_range_meters":19200,"station_id":"ce4bgjh2rcd13ifvqbg0","pricing_plan_id":"free"},{"bike_id":"f8ffbfd2-ce8e-491b-a1a8-b9c4bee3ee13","system_id":"levelo_inurba_marseille","lat":43.299243,"lon":5.374807,"is_reserved":false,"is_disabled":false,"rental_uris":{"android":"levelo://app?vid=f8ffbfd2-ce8e-491b-a1a8-b9c4bee3ee13","ios":"levelo://app?vid=f8ffbfd2-ce8e-491b-a1a8-b9c4bee3ee13"},"vehicle_type_id":"4","last_reported":1701245421,"current_range_meters":16800,"station_id":"ce4bgjh2rcd13ifvqbg0","pricing_plan_id":"free"},{"bike_id":"11a3c1d2-7c03-4135-98d1-6cde426adf05","system_id":"levelo_inurba_marseille","lat":43.299243,"lon":5.37481,"is_reserved":false,"is_disabled":false,"rental_uris":{"android":"levelo://app?vid=11a3c1d2-7c03-4135-98d1-6cde426adf05","ios":"levelo://app?vid=11a3c1d2-7c03-4135-98d1-6cde426adf05"},"vehicle_type_id":"4","last_reported":1701245421,"current_range_meters":20800,"station_id":"ce4bgjh2rcd13ifvqbg0","pricing_plan_id":"free"},{"bike_id":"2677b2de-f0ad-41a6-a071-95c56ded8b09","system_id":"levelo_inurba_marseille","lat":43.299243,"lon":5.37481,"is_reserved":false,"is_disabled":false,"rental_uris":{"android":"levelo://app?vid=2677b2de-f0ad-41a6-a071-95c56ded8b09","ios":"levelo://app?vid=2677b2de-f0ad-41a6-a071-95c56ded8b09"},"vehicle_type_id":"4","last_reported":1701245421,"current_range_meters":31200,"station_id":"ce4bgjh2rcd13ifvqbg0","pricing_plan_id":"free"},{"bike_id":"684252d2-292e-4a71-aa55-f69c27e807dd","system_id":"levelo_inurba_marseille","lat":43.297794,"lon":5.370888,"is_reserved":false,"is_disabled":false,"rental_uris":{"android":"levelo://app?vid=684252d2-292e-4a71-aa55-f69c27e807dd","ios":"levelo://app?vid=684252d2-292e-4a71-aa55-f69c27e807dd"},"vehicle_type_id":"4","last_reported":1701245421,"current_range_meters":21600,"station_id":"ce4bgop2rcd13ifvqc1g","pricing_plan_id":"free"},{"bike_id":"77621d6b-8990-4544-be4b-ead551752d29","system_id":"levelo_inurba_marseille","lat":43.315161,"lon":5.389449,"is_reserved":false,"is_disabled":false,"rental_uris":{"android":"levelo://app?vid=77621d6b-8990-4544-be4b-ead551752d29","ios":"levelo://app?vid=77621d6b-8990-4544-be4b-ead551752d29"},"vehicle_type_id":"4","last_reported":1701245421,"current_range_meters":23200,"station_id":"","pricing_plan_id":"free"},{"bike_id":"961ed449-fb6b-483b-9b8b-1f2b9e7648a1","system_id":"levelo_inurba_marseille","lat":43.2968,"lon":5.37291,"is_reserved":false,"is_disabled":false,"rental_uris":{"android":"levelo://app?vid=961ed449-fb6b-483b-9b8b-1f2b9e7648a1","ios":"levelo://app?vid=961ed449-fb6b-483b-9b8b-1f2b9e7648a1"},"vehicle_type_id":"4","last_reported":1701245421,"current_range_meters":30800,"station_id":"ce4bgk12rcd13ifvqbj0","pricing_plan_id":"free"},{"bike_id":"cb771502-6dfe-4bef-b7fc-24e5d12ccb24","system_id":"levelo_inurba_marseille","lat":43.296129,"lon":5.370777,"is_reserved":false,"is_disabled":false,"rental_uris":{"android":"levelo://app?vid=cb771502-6dfe-4bef-b7fc-24e5d12ccb24","ios":"levelo://app?vid=cb771502-6dfe-4bef-b7fc-24e5d12ccb24"},"vehicle_type_id":"4","last_reported":1701245421,"current_range_meters":23200,"station_id":"ce4bgnh2rcd13ifvqc0g","pricing_plan_id":"free"},{"bike_id":"96652918-e737-4611-b909-8657f810c3a3","system_id":"levelo_inurba_marseille","lat":43.296129,"lon":5.370777,"is_reserved":false,"is_disabled":false,"rental_uris":{"android":"levelo://app?vid=96652918-e737-4611-b909-8657f810c3a3","ios":"levelo://app?vid=96652918-e737-4611-b909-8657f810c3a3"},"vehicle_type_id":"4","last_reported":1701245421,"current_range_meters":30400,"station_id":"ce4bgnh2rcd13ifvqc0g","pricing_plan_id":"free"},{"bike_id":"4145e314-9f8d-43f4-a5ca-8e74edef59a6","system_id":"levelo_inurba_marseille","lat":43.296129,"lon":5.370777,"is_reserved":false,"is_disabled":false,"rental_uris":{"android":"levelo://app?vid=4145e314-9f8d-43f4-a5ca-8e74edef59a6","ios":"levelo://app?vid=4145e314-9f8d-43f4-a5ca-8e74edef59a6"},"vehicle_type_id":"4","last_reported":1701245421,"current_range_meters":26400,"station_id":"ce4bgnh2rcd13ifvqc0g","pricing_plan_id":"free"},{"bike_id":"68829526-0bba-40d5-91ca-1e74586ff7f5","system_id":"levelo_inurba_marseille","lat":43.296131,"lon":5.370791,"is_reserved":false,"is_disabled":false,"rental_uris":{"android":"levelo://app?vid=68829526-0bba-40d5-91ca-1e74586ff7f5","ios":"levelo://app?vid=68829526-0bba-40d5-91ca-1e74586ff7f5"},"vehicle_type_id":"4","last_reported":1701245421,"current_range_meters":29200,"station_id":"ce4bgnh2rcd13ifvqc0g","pricing_plan_id":"free"},{"bike_id":"c92e9a64-bca0-4b5b-adf5-951b05fe02d1","system_id":"levelo_inurba_marseille","lat":43.29573,"lon":5.367355,"is_reserved":false,"is_disabled":false,"rental_uris":{"android":"levelo://app?vid=c92e9a64-bca0-4b5b-adf5-951b05fe02d1","ios":"levelo://app?vid=c92e9a64-bca0-4b5b-adf5-951b05fe02d1"},"vehicle_type_id":"4","last_reported":1701245421,"current_range_meters":20000,"station_id":"ce4bgph2rcd13ifvqc2g","pricing_plan_id":"free"},{"bike_id":"de02ba53-b4d0-420a-8b10-671b91c642d5","system_id":"levelo_inurba_marseille","lat":43.29573,"lon":5.367355,"is_reserved":false,"is_disabled":false,"rental_uris":{"android":"levelo://app?vid=de02ba53-b4d0-420a-8b10-671b91c642d5","ios":"levelo://app?vid=de02ba53-b4d0-420a-8b10-671b91c642d5"},"vehicle_type_id":"4","last_reported":1701245421,"current_range_meters":25600,"station_id":"ce4bgph2rcd13ifvqc2g","pricing_plan_id":"free"},{"bike_id":"65639595-c1fb-4581-b7f6-782efff632eb","system_id":"levelo_inurba_marseille","lat":43.29573,"lon":5.367355,"is_reserved":false,"is_disabled":false,"rental_uris":{"android":"levelo://app?vid=65639595-c1fb-4581-b7f6-782efff632eb","ios":"levelo://app?vid=65639595-c1fb-4581-b7f6-782efff632eb"},"vehicle_type_id":"4","last_reported":1701245421,"current_range_meters":22800,"station_id":"ce4bgph2rcd13ifvqc2g","pricing_plan_id":"free"},{"bike_id":"382d7f55-31fd-4ca8-964f-cd1eda9b78b8","system_id":"levelo_inurba_marseille","lat":43.309589,"lon":5.390258,"is_reserved":false,"is_disabled":false,"rental_uris":{"android":"levelo://app?vid=382d7f55-31fd-4ca8-964f-cd1eda9b78b8","ios":"levelo://app?vid=382d7f55-31fd-4ca8-964f-cd1eda9b78b8"},"vehicle_type_id":"4","last_reported":1701245421,"current_range_meters":0,"station_id":"ce4bgup2rcd13ifvqco0","pricing_plan_id":"free"},{"bike_id":"5d625607-51e7-49da-889b-714e5d69843a","system_id":"levelo_inurba_marseille","lat":43.29789,"lon":5.381,"is_reserved":false,"is_disabled":false,"rental_uris":{"android":"levelo://app?vid=5d625607-51e7-49da-889b-714e5d69843a","ios":"levelo://app?vid=5d625607-51e7-49da-889b-714e5d69843a"},"vehicle_type_id":"4","last_reported":1701245421,"current_range_meters":17600,"station_id":"ce4bgip2rcd13ifvqbb0","pricing_plan_id":"free"},{"bike_id":"7492130b-447a-4845-9425-3c67211a852d","system_id":"levelo_inurba_marseille","lat":43.296263,"lon":5.377094,"is_reserved":false,"is_disabled":false,"rental_uris":{"android":"levelo://app?vid=7492130b-447a-4845-9425-3c67211a852d","ios":"levelo://app?vid=7492130b-447a-4845-9425-3c67211a852d"},"vehicle_type_id":"4","last_reported":1701245421,"current_range_meters":31200,"station_id":"ce4bgi92rcd13ifvqb90","pricing_plan_id":"free"},{"bike_id":"8c4b2c6c-8c2d-4d65-9297-365ca8a1d1d1","system_id":"levelo_inurba_marseille","lat":43.296263,"lon":5.377094,"is_reserved":false,"is_disabled":false,"rental_uris":{"android":"levelo://app?vid=8c4b2c6c-8c2d-4d65-9297-365ca8a1d1d1","ios":"levelo://app?vid=8c4b2c6c-8c2d-4d65-9297-365ca8a1d1d1"},"vehicle_type_id":"4","last_reported":1701245421,"current_range_meters":12800,"station_id":"ce4bgi92rcd13ifvqb90","pricing_plan_id":"free"},{"bike_id":"1f215f9c-2e41-4661-bca1-80f4d871f1ef","system_id":"levelo_inurba_marseille","lat":43.29611,"lon":5.37729,"is_reserved":false,"is_disabled":false,"rental_uris":{"android":"levelo://app?vid=1f215f9c-2e41-4661-bca1-80f4d871f1ef","ios":"levelo://app?vid=1f215f9c-2e41-4661-bca1-80f4d871f1ef"},"vehicle_type_id":"4","last_reported":1701245421,"current_range_meters":1600,"station_id":"ce4bgi92rcd13ifvqb90","pricing_plan_id":"free"},{"bike_id":"6bb363d5-f4b9-4ba6-b394-a19d44a33744","system_id":"levelo_inurba_marseille","lat":43.296263,"lon":5.377094,"is_reserved":false,"is_disabled":false,"rental_uris":{"android":"levelo://app?vid=6bb363d5-f4b9-4ba6-b394-a19d44a33744","ios":"levelo://app?vid=6bb363d5-f4b9-4ba6-b394-a19d44a33744"},"vehicle_type_id":"4","last_reported":1701245421,"current_range_meters":30000,"station_id":"ce4bgi92rcd13ifvqb90","pricing_plan_id":"free"},{"bike_id":"49692967-605d-464a-bce0-1e230c21e81a","system_id":"levelo_inurba_marseille","lat":43.303002,"lon":5.392142,"is_reserved":false,"is_disabled":false,"rental_uris":{"android":"levelo://app?vid=49692967-605d-464a-bce0-1e230c21e81a","ios":"levelo://app?vid=49692967-605d-464a-bce0-1e230c21e81a"},"vehicle_type_id":"4","last_reported":1701245421,"current_range_meters":27600,"station_id":"ce4bgkh2rcd13ifvqbk0","pricing_plan_id":"free"},{"bike_id":"b38de6b2-63cc-484c-885d-2b8e791fca30","system_id":"levelo_inurba_marseille","lat":43.302992,"lon":5.392136,"is_reserved":false,"is_disabled":false,"rental_uris":{"android":"levelo://app?vid=b38de6b2-63cc-484c-885d-2b8e791fca30","ios":"levelo://app?vid=b38de6b2-63cc-484c-885d-2b8e791fca30"},"vehicle_type_id":"4","last_reported":1701245421,"current_range_meters":15600,"station_id":"ce4bgkh2rcd13ifvqbk0","pricing_plan_id":"free"},{"bike_id":"8ff914c3-c0bf-43f5-8a61-ab0a8dcefd98","system_id":"levelo_inurba_marseille","lat":43.300852,"lon":5.390859,"is_reserved":false,"is_disabled":false,"rental_uris":{"android":"levelo://app?vid=8ff914c3-c0bf-43f5-8a61-ab0a8dcefd98","ios":"levelo://app?vid=8ff914c3-c0bf-43f5-8a61-ab0a8dcefd98"},"vehicle_type_id":"4","last_reported":1701245421,"current_range_meters":7200,"station_id":"ce4bh192rcd13ifvqdb0","pricing_plan_id":"free"},{"bike_id":"a6937da1-fec0-4073-909e-6dde8af68d79","system_id":"levelo_inurba_marseille","lat":43.298764,"lon":5.388973,"is_reserved":false,"is_disabled":false,"rental_uris":{"android":"levelo://app?vid=a6937da1-fec0-4073-909e-6dde8af68d79","ios":"levelo://app?vid=a6937da1-fec0-4073-909e-6dde8af68d79"},"vehicle_type_id":"4","last_reported":1701245421,"current_range_meters":25200,"station_id":"ce4bh392rcd13ifvqdl0","pricing_plan_id":"free"},{"bike_id":"65aaa77f-79b5-40d6-9166-575750e077d8","system_id":"levelo_inurba_marseille","lat":43.290779,"lon":5.371482,"is_reserved":false,"is_disabled":false,"rental_uris":{"android":"levelo://app?vid=65aaa77f-79b5-40d6-9166-575750e077d8","ios":"levelo://app?vid=65aaa77f-79b5-40d6-9166-575750e077d8"},"vehicle_type_id":"4","last_reported":1701245421,"current_range_meters":28000,"station_id":"ce4bh5p2rcd13ifvqe4g","pricing_plan_id":"free"},{"bike_id":"c7bbc648-5ab0-44cb-a5db-76bcf80dfb67","system_id":"levelo_inurba_marseille","lat":43.290624,"lon":5.359245,"is_reserved":false,"is_disabled":false,"rental_uris":{"android":"levelo://app?vid=c7bbc648-5ab0-44cb-a5db-76bcf80dfb67","ios":"levelo://app?vid=c7bbc648-5ab0-44cb-a5db-76bcf80dfb67"},"vehicle_type_id":"4","last_reported":1701245421,"current_range_meters":400,"station_id":"ce4bha92rcd13ifvqeg0","pricing_plan_id":"free"},{"bike_id":"a196c289-e491-436c-97e6-2def6d0740c1","system_id":"levelo_inurba_marseille","lat":43.290327,"lon":5.375711,"is_reserved":false,"is_disabled":false,"rental_uris":{"android":"levelo://app?vid=a196c289-e491-436c-97e6-2def6d0740c1","ios":"levelo://app?vid=a196c289-e491-436c-97e6-2def6d0740c1"},"vehicle_type_id":"4","last_reported":1701245421,"current_range_meters":26800,"station_id":"ce4bh692rcd13ifvqe90","pricing_plan_id":"free"},{"bike_id":"1721b701-8ee2-48c4-87de-99256cc7602b","system_id":"levelo_inurba_marseille","lat":43.28936,"lon":5.36391,"is_reserved":false,"is_disabled":false,"rental_uris":{"android":"levelo://app?vid=1721b701-8ee2-48c4-87de-99256cc7602b","ios":"levelo://app?vid=1721b701-8ee2-48c4-87de-99256cc7602b"},"vehicle_type_id":"4","last_reported":1701245421,"current_range_meters":20400,"station_id":"ce4bhc92rcd13ifvqetg","pricing_plan_id":"free"},{"bike_id":"4be39c13-3410-4d57-81ab-1cc56e2ac40d","system_id":"levelo_inurba_marseille","lat":43.269467,"lon":5.386439,"is_reserved":false,"is_disabled":false,"rental_uris":{"android":"levelo://app?vid=4be39c13-3410-4d57-81ab-1cc56e2ac40d","ios":"levelo://app?vid=4be39c13-3410-4d57-81ab-1cc56e2ac40d"},"vehicle_type_id":"4","last_reported":1701245421,"current_range_meters":25200,"station_id":"ce4bhh92rcd13ifvqfh0","pricing_plan_id":"free"},{"bike_id":"e7104524-5136-42dd-8a11-21d9ad947c92","system_id":"levelo_inurba_marseille","lat":43.290995,"lon":5.381361,"is_reserved":false,"is_disabled":false,"rental_uris":{"android":"levelo://app?vid=e7104524-5136-42dd-8a11-21d9ad947c92","ios":"levelo://app?vid=e7104524-5136-42dd-8a11-21d9ad947c92"},"vehicle_type_id":"4","last_reported":1701245421,"current_range_meters":24800,"station_id":"ce4bh512rcd13ifvqe2g","pricing_plan_id":"free"},{"bike_id":"f5286835-6361-40e3-8766-f76894c95756","system_id":"levelo_inurba_marseille","lat":43.289743,"lon":5.378304,"is_reserved":false,"is_disabled":false,"rental_uris":{"android":"levelo://app?vid=f5286835-6361-40e3-8766-f76894c95756","ios":"levelo://app?vid=f5286835-6361-40e3-8766-f76894c95756"},"vehicle_type_id":"4","last_reported":1701245421,"current_range_meters":0,"station_id":"ce4bh9p2rcd13ifvqed0","pricing_plan_id":"free"},{"bike_id":"76eacad8-7a5d-45f7-9eb7-8829c39c72d8","system_id":"levelo_inurba_marseille","lat":43.2901,"lon":5.381269,"is_reserved":false,"is_disabled":false,"rental_uris":{"android":"levelo://app?vid=76eacad8-7a5d-45f7-9eb7-8829c39c72d8","ios":"levelo://app?vid=76eacad8-7a5d-45f7-9eb7-8829c39c72d8"},"vehicle_type_id":"4","last_reported":1701245421,"current_range_meters":18400,"station_id":"ce4bh4p2rcd13ifvqe1g","pricing_plan_id":"free"},{"bike_id":"be10e017-381d-462e-b9a7-04f890d841ee","system_id":"levelo_inurba_marseille","lat":43.2901,"lon":5.381269,"is_reserved":false,"is_disabled":false,"rental_uris":{"android":"levelo://app?vid=be10e017-381d-462e-b9a7-04f890d841ee","ios":"levelo://app?vid=be10e017-381d-462e-b9a7-04f890d841ee"},"vehicle_type_id":"4","last_reported":1701245421,"current_range_meters":1600,"station_id":"ce4bh4p2rcd13ifvqe1g","pricing_plan_id":"free"},{"bike_id":"9c170648-b835-4ed8-b22f-974e731efb3e","system_id":"levelo_inurba_marseille","lat":43.286039,"lon":5.370681,"is_reserved":false,"is_disabled":false,"rental_uris":{"android":"levelo://app?vid=9c170648-b835-4ed8-b22f-974e731efb3e","ios":"levelo://app?vid=9c170648-b835-4ed8-b22f-974e731efb3e"},"vehicle_type_id":"4","last_reported":1701245421,"current_range_meters":4000,"station_id":"ce4bht12rcd13ifvqi60","pricing_plan_id":"free"},{"bike_id":"aa249661-8a7a-4d56-8990-358cba43936d","system_id":"levelo_inurba_marseille","lat":43.316438,"lon":5.404351,"is_reserved":false,"is_disabled":false,"rental_uris":{"android":"levelo://app?vid=aa249661-8a7a-4d56-8990-358cba43936d","ios":"levelo://app?vid=aa249661-8a7a-4d56-8990-358cba43936d"},"vehicle_type_id":"4","last_reported":1701245421,"current_range_meters":16800,"station_id":"ce4bh012rcd13ifvqd00","pricing_plan_id":"free"},{"bike_id":"accef9bf-670d-4c48-a7b0-9f7a2d2afbb9","system_id":"levelo_inurba_marseille","lat":43.283998,"lon":5.375062,"is_reserved":false,"is_disabled":false,"rental_uris":{"android":"levelo://app?vid=accef9bf-670d-4c48-a7b0-9f7a2d2afbb9","ios":"levelo://app?vid=accef9bf-670d-4c48-a7b0-9f7a2d2afbb9"},"vehicle_type_id":"4","last_reported":1701245421,"current_range_meters":23600,"station_id":"ce4bh412rcd13ifvqds0","pricing_plan_id":"free"},{"bike_id":"a2c3fc78-ac08-46e8-a5f5-fdfa22b3795f","system_id":"levelo_inurba_marseille","lat":43.295713,"lon":5.399639,"is_reserved":false,"is_disabled":false,"rental_uris":{"android":"levelo://app?vid=a2c3fc78-ac08-46e8-a5f5-fdfa22b3795f","ios":"levelo://app?vid=a2c3fc78-ac08-46e8-a5f5-fdfa22b3795f"},"vehicle_type_id":"4","last_reported":1701245421,"current_range_meters":4000,"station_id":"ce4bh312rcd13ifvqdj0","pricing_plan_id":"free"},{"bike_id":"7231e243-188a-453f-a581-2d43a31d2d1e","system_id":"levelo_inurba_marseille","lat":43.28397,"lon":5.37517,"is_reserved":false,"is_disabled":false,"rental_uris":{"android":"levelo://app?vid=7231e243-188a-453f-a581-2d43a31d2d1e","ios":"levelo://app?vid=7231e243-188a-453f-a581-2d43a31d2d1e"},"vehicle_type_id":"4","last_reported":1701245421,"current_range_meters":8000,"station_id":"ce4bh412rcd13ifvqds0","pricing_plan_id":"free"},{"bike_id":"9eec91dc-7c34-4129-93a6-308e7f493817","system_id":"levelo_inurba_marseille","lat":43.319179,"lon":5.407725,"is_reserved":false,"is_disabled":false,"rental_uris":{"android":"levelo://app?vid=9eec91dc-7c34-4129-93a6-308e7f493817","ios":"levelo://app?vid=9eec91dc-7c34-4129-93a6-308e7f493817"},"vehicle_type_id":"4","last_reported":1701245421,"current_range_meters":11200,"station_id":"ce4bhq12rcd13ifvqhig","pricing_plan_id":"free"},{"bike_id":"b73a5d4a-caea-4a9c-a743-0b67b41958ee","system_id":"levelo_inurba_marseille","lat":43.337168,"lon":5.391825,"is_reserved":false,"is_disabled":false,"rental_uris":{"android":"levelo://app?vid=b73a5d4a-caea-4a9c-a743-0b67b41958ee","ios":"levelo://app?vid=b73a5d4a-caea-4a9c-a743-0b67b41958ee"},"vehicle_type_id":"4","last_reported":1701245421,"current_range_meters":15600,"station_id":"ce4bhr92rcd13ifvqhsg","pricing_plan_id":"free"},{"bike_id":"41298bc5-daf3-4839-af8d-fa97316b1222","system_id":"levelo_inurba_marseille","lat":43.284787,"lon":5.384116,"is_reserved":false,"is_disabled":false,"rental_uris":{"android":"levelo://app?vid=41298bc5-daf3-4839-af8d-fa97316b1222","ios":"levelo://app?vid=41298bc5-daf3-4839-af8d-fa97316b1222"},"vehicle_type_id":"4","last_reported":1701245421,"current_range_meters":6800,"station_id":"ce4bh512rcd13ifvqe3g","pricing_plan_id":"free"},{"bike_id":"08f18a58-04e6-4cf4-aca5-b83202313fc9","system_id":"levelo_inurba_marseille","lat":43.288495,"lon":5.393043,"is_reserved":false,"is_disabled":false,"rental_uris":{"android":"levelo://app?vid=08f18a58-04e6-4cf4-aca5-b83202313fc9","ios":"levelo://app?vid=08f18a58-04e6-4cf4-aca5-b83202313fc9"},"vehicle_type_id":"4","last_reported":1701245421,"current_range_meters":0,"station_id":"ce4bh2p2rcd13ifvqdi0","pricing_plan_id":"free"},{"bike_id":"47427138-9e20-4f21-8f7f-b3b0f734f56c","system_id":"levelo_inurba_marseille","lat":43.284219,"lon":5.3497,"is_reserved":false,"is_disabled":false,"rental_uris":{"android":"levelo://app?vid=47427138-9e20-4f21-8f7f-b3b0f734f56c","ios":"levelo://app?vid=47427138-9e20-4f21-8f7f-b3b0f734f56c"},"vehicle_type_id":"4","last_reported":1701245421,"current_range_meters":16800,"station_id":"ce4bhbh2rcd13ifvqepg","pricing_plan_id":"free"},{"bike_id":"3a9d94cf-d9ff-40c9-9943-4d8b3ad0e994","system_id":"levelo_inurba_marseille","lat":43.289363,"lon":5.396322,"is_reserved":false,"is_disabled":false,"rental_uris":{"android":"levelo://app?vid=3a9d94cf-d9ff-40c9-9943-4d8b3ad0e994","ios":"levelo://app?vid=3a9d94cf-d9ff-40c9-9943-4d8b3ad0e994"},"vehicle_type_id":"4","last_reported":1701245421,"current_range_meters":30400,"station_id":"ce4bh3h2rcd13ifvqdn0","pricing_plan_id":"free"},{"bike_id":"bb5c0579-4df3-4614-ba9e-abf9d0f2eec0","system_id":"levelo_inurba_marseille","lat":43.28366,"lon":5.38626,"is_reserved":false,"is_disabled":false,"rental_uris":{"android":"levelo://app?vid=bb5c0579-4df3-4614-ba9e-abf9d0f2eec0","ios":"levelo://app?vid=bb5c0579-4df3-4614-ba9e-abf9d0f2eec0"},"vehicle_type_id":"4","last_reported":1701245421,"current_range_meters":26400,"station_id":"ce4bh492rcd13ifvqdvg","pricing_plan_id":"free"},{"bike_id":"8857ef24-3675-4661-8494-b81b4cd60bc4","system_id":"levelo_inurba_marseille","lat":43.281044,"lon":5.378308,"is_reserved":false,"is_disabled":false,"rental_uris":{"android":"levelo://app?vid=8857ef24-3675-4661-8494-b81b4cd60bc4","ios":"levelo://app?vid=8857ef24-3675-4661-8494-b81b4cd60bc4"},"vehicle_type_id":"4","last_reported":1701245421,"current_range_meters":23600,"station_id":"ce4bha12rcd13ifvqee0","pricing_plan_id":"free"},{"bike_id":"9b488ac3-ef99-4601-b01c-81499f798224","system_id":"levelo_inurba_marseille","lat":43.284456,"lon":5.391817,"is_reserved":false,"is_disabled":false,"rental_uris":{"android":"levelo://app?vid=9b488ac3-ef99-4601-b01c-81499f798224","ios":"levelo://app?vid=9b488ac3-ef99-4601-b01c-81499f798224"},"vehicle_type_id":"4","last_reported":1701245421,"current_range_meters":3600,"station_id":"ce4bhoh2rcd13ifvqh5g","pricing_plan_id":"free"},{"bike_id":"28f89d44-a77b-4126-95fb-99ab1e395864","system_id":"levelo_inurba_marseille","lat":43.28573,"lon":5.394992,"is_reserved":false,"is_disabled":false,"rental_uris":{"android":"levelo://app?vid=28f89d44-a77b-4126-95fb-99ab1e395864","ios":"levelo://app?vid=28f89d44-a77b-4126-95fb-99ab1e395864"},"vehicle_type_id":"4","last_reported":1701245421,"current_range_meters":30400,"station_id":"ce4bh292rcd13ifvqdg0","pricing_plan_id":"free"},{"bike_id":"f5086b20-06f5-4af0-80d5-a3134ee8059f","system_id":"levelo_inurba_marseille","lat":43.28573,"lon":5.394992,"is_reserved":false,"is_disabled":false,"rental_uris":{"android":"levelo://app?vid=f5086b20-06f5-4af0-80d5-a3134ee8059f","ios":"levelo://app?vid=f5086b20-06f5-4af0-80d5-a3134ee8059f"},"vehicle_type_id":"4","last_reported":1701245421,"current_range_meters":0,"station_id":"ce4bh292rcd13ifvqdg0","pricing_plan_id":"free"},{"bike_id":"87edfb10-1068-4221-ba1d-8b3c53ff704f","system_id":"levelo_inurba_marseille","lat":43.304188,"lon":5.412904,"is_reserved":false,"is_disabled":false,"rental_uris":{"android":"levelo://app?vid=87edfb10-1068-4221-ba1d-8b3c53ff704f","ios":"levelo://app?vid=87edfb10-1068-4221-ba1d-8b3c53ff704f"},"vehicle_type_id":"4","last_reported":1701245421,"current_range_meters":26800,"station_id":"ce4bhop2rcd13ifvqh8g","pricing_plan_id":"free"},{"bike_id":"3f9d9ccb-8160-473e-a3b6-14bd98b28f2f","system_id":"levelo_inurba_marseille","lat":43.304188,"lon":5.412904,"is_reserved":false,"is_disabled":false,"rental_uris":{"android":"levelo://app?vid=3f9d9ccb-8160-473e-a3b6-14bd98b28f2f","ios":"levelo://app?vid=3f9d9ccb-8160-473e-a3b6-14bd98b28f2f"},"vehicle_type_id":"4","last_reported":1701245421,"current_range_meters":23600,"station_id":"ce4bhop2rcd13ifvqh8g","pricing_plan_id":"free"},{"bike_id":"553703cc-a198-4b7c-b4f7-88e7d2d9a97c","system_id":"levelo_inurba_marseille","lat":43.299579,"lon":5.413255,"is_reserved":false,"is_disabled":false,"rental_uris":{"android":"levelo://app?vid=553703cc-a198-4b7c-b4f7-88e7d2d9a97c","ios":"levelo://app?vid=553703cc-a198-4b7c-b4f7-88e7d2d9a97c"},"vehicle_type_id":"4","last_reported":1701245421,"current_range_meters":23600,"station_id":"ce4bhp12rcd13ifvqh9g","pricing_plan_id":"free"},{"bike_id":"21bb8d10-bd0f-46d8-8275-5be378292293","system_id":"levelo_inurba_marseille","lat":43.279742,"lon":5.38744,"is_reserved":false,"is_disabled":false,"rental_uris":{"android":"levelo://app?vid=21bb8d10-bd0f-46d8-8275-5be378292293","ios":"levelo://app?vid=21bb8d10-bd0f-46d8-8275-5be378292293"},"vehicle_type_id":"4","last_reported":1701245421,"current_range_meters":25200,"station_id":"ce4bhg12rcd13ifvqf80","pricing_plan_id":"free"},{"bike_id":"ac52b2a1-95b4-422a-b99b-bf35c8829183","system_id":"levelo_inurba_marseille","lat":43.279742,"lon":5.38744,"is_reserved":false,"is_disabled":false,"rental_uris":{"android":"levelo://app?vid=ac52b2a1-95b4-422a-b99b-bf35c8829183","ios":"levelo://app?vid=ac52b2a1-95b4-422a-b99b-bf35c8829183"},"vehicle_type_id":"4","last_reported":1701245421,"current_range_meters":26000,"station_id":"ce4bhg12rcd13ifvqf80","pricing_plan_id":"free"},{"bike_id":"757edefd-219c-4b3f-af4d-b95d822b7e97","system_id":"levelo_inurba_marseille","lat":43.29258,"lon":5.40903,"is_reserved":false,"is_disabled":false,"rental_uris":{"android":"levelo://app?vid=757edefd-219c-4b3f-af4d-b95d822b7e97","ios":"levelo://app?vid=757edefd-219c-4b3f-af4d-b95d822b7e97"},"vehicle_type_id":"4","last_reported":1701245421,"current_range_meters":22800,"station_id":"ce4bh192rcd13ifvqdc0","pricing_plan_id":"free"},{"bike_id":"8c5df88e-92f9-4815-a912-d8f2169d7079","system_id":"levelo_inurba_marseille","lat":43.29251,"lon":5.40916,"is_reserved":false,"is_disabled":false,"rental_uris":{"android":"levelo://app?vid=8c5df88e-92f9-4815-a912-d8f2169d7079","ios":"levelo://app?vid=8c5df88e-92f9-4815-a912-d8f2169d7079"},"vehicle_type_id":"4","last_reported":1701245421,"current_range_meters":3600,"station_id":"ce4bh192rcd13ifvqdc0","pricing_plan_id":"free"},{"bike_id":"bdb58b7e-e568-4733-98d3-6770ea7b8c50","system_id":"levelo_inurba_marseille","lat":43.275625,"lon":5.384392,"is_reserved":false,"is_disabled":false,"rental_uris":{"android":"levelo://app?vid=bdb58b7e-e568-4733-98d3-6770ea7b8c50","ios":"levelo://app?vid=bdb58b7e-e568-4733-98d3-6770ea7b8c50"},"vehicle_type_id":"4","last_reported":1701245421,"current_range_meters":25200,"station_id":"ce4bhh92rcd13ifvqfi0","pricing_plan_id":"free"},{"bike_id":"42cbd211-cbcb-479e-a7b9-21d55a10e5cb","system_id":"levelo_inurba_marseille","lat":43.317121,"lon":5.423936,"is_reserved":false,"is_disabled":false,"rental_uris":{"android":"levelo://app?vid=42cbd211-cbcb-479e-a7b9-21d55a10e5cb","ios":"levelo://app?vid=42cbd211-cbcb-479e-a7b9-21d55a10e5cb"},"vehicle_type_id":"4","last_reported":1701245421,"current_range_meters":30000,"station_id":"ce4bhp92rcd13ifvqhbg","pricing_plan_id":"free"},{"bike_id":"cc229529-b63f-4dda-be22-3ca147de7125","system_id":"levelo_inurba_marseille","lat":43.310785,"lon":5.424305,"is_reserved":false,"is_disabled":false,"rental_uris":{"android":"levelo://app?vid=cc229529-b63f-4dda-be22-3ca147de7125","ios":"levelo://app?vid=cc229529-b63f-4dda-be22-3ca147de7125"},"vehicle_type_id":"4","last_reported":1701245421,"current_range_meters":8400,"station_id":"ce4bhp92rcd13ifvqhag","pricing_plan_id":"free"},{"bike_id":"51f8e526-ce47-4cb8-8945-30e418a5691a","system_id":"levelo_inurba_marseille","lat":43.340804,"lon":5.410219,"is_reserved":false,"is_disabled":false,"rental_uris":{"android":"levelo://app?vid=51f8e526-ce47-4cb8-8945-30e418a5691a","ios":"levelo://app?vid=51f8e526-ce47-4cb8-8945-30e418a5691a"},"vehicle_type_id":"4","last_reported":1701245421,"current_range_meters":21600,"station_id":"ce4bhqh2rcd13ifvqhlg","pricing_plan_id":"free"},{"bike_id":"6078e294-1184-419b-a730-56d9d1d1077c","system_id":"levelo_inurba_marseille","lat":43.273125,"lon":5.390731,"is_reserved":false,"is_disabled":false,"rental_uris":{"android":"levelo://app?vid=6078e294-1184-419b-a730-56d9d1d1077c","ios":"levelo://app?vid=6078e294-1184-419b-a730-56d9d1d1077c"},"vehicle_type_id":"4","last_reported":1701245421,"current_range_meters":2400,"station_id":"ce4bhgp2rcd13ifvqfe0","pricing_plan_id":"free"},{"bike_id":"b5e52cc6-6aea-47d4-94c2-f7602d24b900","system_id":"levelo_inurba_marseille","lat":43.274099,"lon":5.394019,"is_reserved":false,"is_disabled":false,"rental_uris":{"android":"levelo://app?vid=b5e52cc6-6aea-47d4-94c2-f7602d24b900","ios":"levelo://app?vid=b5e52cc6-6aea-47d4-94c2-f7602d24b900"},"vehicle_type_id":"4","last_reported":1701245421,"current_range_meters":6000,"station_id":"ce4bhdp2rcd13ifvqf20","pricing_plan_id":"free"},{"bike_id":"bbbc8bab-d5e8-4f0e-9f1f-91f8f3ed99d9","system_id":"levelo_inurba_marseille","lat":43.304096,"lon":5.425385,"is_reserved":false,"is_disabled":false,"rental_uris":{"android":"levelo://app?vid=bbbc8bab-d5e8-4f0e-9f1f-91f8f3ed99d9","ios":"levelo://app?vid=bbbc8bab-d5e8-4f0e-9f1f-91f8f3ed99d9"},"vehicle_type_id":"4","last_reported":1701245421,"current_range_meters":29200,"station_id":"ce4bhoh2rcd13ifvqh6g","pricing_plan_id":"free"},{"bike_id":"b24c357a-c144-4986-a541-b3677ddfbeba","system_id":"levelo_inurba_marseille","lat":43.295523,"lon":5.422926,"is_reserved":false,"is_disabled":false,"rental_uris":{"android":"levelo://app?vid=b24c357a-c144-4986-a541-b3677ddfbeba","ios":"levelo://app?vid=b24c357a-c144-4986-a541-b3677ddfbeba"},"vehicle_type_id":"4","last_reported":1701245421,"current_range_meters":26000,"station_id":"ce4bhph2rcd13ifvqhdg","pricing_plan_id":"free"},{"bike_id":"3225fb83-0680-4e47-b873-e4f092068a31","system_id":"levelo_inurba_marseille","lat":43.27812,"lon":5.40704,"is_reserved":false,"is_disabled":false,"rental_uris":{"android":"levelo://app?vid=3225fb83-0680-4e47-b873-e4f092068a31","ios":"levelo://app?vid=3225fb83-0680-4e47-b873-e4f092068a31"},"vehicle_type_id":"4","last_reported":1701245421,"current_range_meters":30000,"station_id":"ce4bhnh2rcd13ifvqgtg","pricing_plan_id":"free"},{"bike_id":"39347131-f3f0-4227-aa2a-a16ec48c45a8","system_id":"levelo_inurba_marseille","lat":43.27812,"lon":5.40716,"is_reserved":false,"is_disabled":false,"rental_uris":{"android":"levelo://app?vid=39347131-f3f0-4227-aa2a-a16ec48c45a8","ios":"levelo://app?vid=39347131-f3f0-4227-aa2a-a16ec48c45a8"},"vehicle_type_id":"4","last_reported":1701245421,"current_range_meters":21200,"station_id":"ce4bhnh2rcd13ifvqgtg","pricing_plan_id":"free"},{"bike_id":"05c82d97-d5ca-45d0-818d-1508e3f72c96","system_id":"levelo_inurba_marseille","lat":43.269467,"lon":5.386439,"is_reserved":false,"is_disabled":false,"rental_uris":{"android":"levelo://app?vid=05c82d97-d5ca-45d0-818d-1508e3f72c96","ios":"levelo://app?vid=05c82d97-d5ca-45d0-818d-1508e3f72c96"},"vehicle_type_id":"4","last_reported":1701245421,"current_range_meters":12000,"station_id":"ce4bhh92rcd13ifvqfh0","pricing_plan_id":"free"},{"bike_id":"00a56b65-57d6-4156-a608-1dcadb845c8c","system_id":"levelo_inurba_marseille","lat":43.269467,"lon":5.386439,"is_reserved":false,"is_disabled":false,"rental_uris":{"android":"levelo://app?vid=00a56b65-57d6-4156-a608-1dcadb845c8c","ios":"levelo://app?vid=00a56b65-57d6-4156-a608-1dcadb845c8c"},"vehicle_type_id":"4","last_reported":1701245421,"current_range_meters":23600,"station_id":"ce4bhh92rcd13ifvqfh0","pricing_plan_id":"free"},{"bike_id":"22b2890e-a5b7-41f0-8010-abdb6c387d08","system_id":"levelo_inurba_marseille","lat":43.269467,"lon":5.386439,"is_reserved":false,"is_disabled":false,"rental_uris":{"android":"levelo://app?vid=22b2890e-a5b7-41f0-8010-abdb6c387d08","ios":"levelo://app?vid=22b2890e-a5b7-41f0-8010-abdb6c387d08"},"vehicle_type_id":"4","last_reported":1701245421,"current_range_meters":800,"station_id":"ce4bhh92rcd13ifvqfh0","pricing_plan_id":"free"},{"bike_id":"a6d979c2-7683-462a-ab28-40b5a08fd0b4","system_id":"levelo_inurba_marseille","lat":43.269467,"lon":5.386439,"is_reserved":false,"is_disabled":false,"rental_uris":{"android":"levelo://app?vid=a6d979c2-7683-462a-ab28-40b5a08fd0b4","ios":"levelo://app?vid=a6d979c2-7683-462a-ab28-40b5a08fd0b4"},"vehicle_type_id":"4","last_reported":1701245421,"current_range_meters":24800,"station_id":"ce4bhh92rcd13ifvqfh0","pricing_plan_id":"free"},{"bike_id":"e1c3aff4-7331-48f4-b049-5a8a3d74dfa7","system_id":"levelo_inurba_marseille","lat":43.269467,"lon":5.386439,"is_reserved":false,"is_disabled":false,"rental_uris":{"android":"levelo://app?vid=e1c3aff4-7331-48f4-b049-5a8a3d74dfa7","ios":"levelo://app?vid=e1c3aff4-7331-48f4-b049-5a8a3d74dfa7"},"vehicle_type_id":"4","last_reported":1701245421,"current_range_meters":5600,"station_id":"ce4bhh92rcd13ifvqfh0","pricing_plan_id":"free"},{"bike_id":"1cdfbfad-bc30-4e7c-849f-f6c6e5d44281","system_id":"levelo_inurba_marseille","lat":43.269467,"lon":5.386439,"is_reserved":false,"is_disabled":false,"rental_uris":{"android":"levelo://app?vid=1cdfbfad-bc30-4e7c-849f-f6c6e5d44281","ios":"levelo://app?vid=1cdfbfad-bc30-4e7c-849f-f6c6e5d44281"},"vehicle_type_id":"4","last_reported":1701245421,"current_range_meters":24400,"station_id":"ce4bhh92rcd13ifvqfh0","pricing_plan_id":"free"},{"bike_id":"6685e2dc-c292-4610-9ad1-0bde3daa5ff6","system_id":"levelo_inurba_marseille","lat":43.269467,"lon":5.386439,"is_reserved":false,"is_disabled":false,"rental_uris":{"android":"levelo://app?vid=6685e2dc-c292-4610-9ad1-0bde3daa5ff6","ios":"levelo://app?vid=6685e2dc-c292-4610-9ad1-0bde3daa5ff6"},"vehicle_type_id":"4","last_reported":1701245421,"current_range_meters":26400,"station_id":"ce4bhh92rcd13ifvqfh0","pricing_plan_id":"free"},{"bike_id":"240f349e-a001-4d69-8c95-2efe70eb8564","system_id":"levelo_inurba_marseille","lat":43.26947,"lon":5.38628,"is_reserved":false,"is_disabled":false,"rental_uris":{"android":"levelo://app?vid=240f349e-a001-4d69-8c95-2efe70eb8564","ios":"levelo://app?vid=240f349e-a001-4d69-8c95-2efe70eb8564"},"vehicle_type_id":"4","last_reported":1701245421,"current_range_meters":23600,"station_id":"ce4bhh92rcd13ifvqfh0","pricing_plan_id":"free"},{"bike_id":"47ba39c9-2758-4e63-ae33-352884d32639","system_id":"levelo_inurba_marseille","lat":43.269467,"lon":5.386439,"is_reserved":false,"is_disabled":false,"rental_uris":{"android":"levelo://app?vid=47ba39c9-2758-4e63-ae33-352884d32639","ios":"levelo://app?vid=47ba39c9-2758-4e63-ae33-352884d32639"},"vehicle_type_id":"4","last_reported":1701245421,"current_range_meters":27200,"station_id":"ce4bhh92rcd13ifvqfh0","pricing_plan_id":"free"},{"bike_id":"b0996eb7-dd0c-4669-939a-11308d5c0fc7","system_id":"levelo_inurba_marseille","lat":43.269467,"lon":5.386439,"is_reserved":false,"is_disabled":false,"rental_uris":{"android":"levelo://app?vid=b0996eb7-dd0c-4669-939a-11308d5c0fc7","ios":"levelo://app?vid=b0996eb7-dd0c-4669-939a-11308d5c0fc7"},"vehicle_type_id":"4","last_reported":1701245421,"current_range_meters":24400,"station_id":"ce4bhh92rcd13ifvqfh0","pricing_plan_id":"free"},{"bike_id":"d2d66721-bac6-4bee-bd34-be2f37c2c622","system_id":"levelo_inurba_marseille","lat":43.269467,"lon":5.386439,"is_reserved":false,"is_disabled":false,"rental_uris":{"android":"levelo://app?vid=d2d66721-bac6-4bee-bd34-be2f37c2c622","ios":"levelo://app?vid=d2d66721-bac6-4bee-bd34-be2f37c2c622"},"vehicle_type_id":"4","last_reported":1701245421,"current_range_meters":28800,"station_id":"ce4bhh92rcd13ifvqfh0","pricing_plan_id":"free"},{"bike_id":"e76073a7-9f92-4a0e-80b1-abf6a7b87121","system_id":"levelo_inurba_marseille","lat":43.279463,"lon":5.410463,"is_reserved":false,"is_disabled":false,"rental_uris":{"android":"levelo://app?vid=e76073a7-9f92-4a0e-80b1-abf6a7b87121","ios":"levelo://app?vid=e76073a7-9f92-4a0e-80b1-abf6a7b87121"},"vehicle_type_id":"4","last_reported":1701245421,"current_range_meters":20800,"station_id":"ce4bhnp2rcd13ifvqh0g","pricing_plan_id":"free"},{"bike_id":"fd6076a2-900b-45c7-a82d-f0f0875b7fad","system_id":"levelo_inurba_marseille","lat":43.279465,"lon":5.410561,"is_reserved":false,"is_disabled":false,"rental_uris":{"android":"levelo://app?vid=fd6076a2-900b-45c7-a82d-f0f0875b7fad","ios":"levelo://app?vid=fd6076a2-900b-45c7-a82d-f0f0875b7fad"},"vehicle_type_id":"4","last_reported":1701245421,"current_range_meters":21600,"station_id":"ce4bhnp2rcd13ifvqh0g","pricing_plan_id":"free"},{"bike_id":"7d7163fd-c1af-4a61-bc26-206688efb677","system_id":"levelo_inurba_marseille","lat":43.26681,"lon":5.382694,"is_reserved":false,"is_disabled":false,"rental_uris":{"android":"levelo://app?vid=7d7163fd-c1af-4a61-bc26-206688efb677","ios":"levelo://app?vid=7d7163fd-c1af-4a61-bc26-206688efb677"},"vehicle_type_id":"4","last_reported":1701245421,"current_range_meters":20400,"station_id":"ce4bhg92rcd13ifvqf90","pricing_plan_id":"free"},{"bike_id":"df4b4fcb-eab3-4e86-8058-c29b6de65df2","system_id":"levelo_inurba_marseille","lat":43.26681,"lon":5.382694,"is_reserved":false,"is_disabled":false,"rental_uris":{"android":"levelo://app?vid=df4b4fcb-eab3-4e86-8058-c29b6de65df2","ios":"levelo://app?vid=df4b4fcb-eab3-4e86-8058-c29b6de65df2"},"vehicle_type_id":"4","last_reported":1701245421,"current_range_meters":17200,"station_id":"ce4bhg92rcd13ifvqf90","pricing_plan_id":"free"},{"bike_id":"fc8abb6d-e50e-4c12-aca4-c5d73d10384a","system_id":"levelo_inurba_marseille","lat":43.26681,"lon":5.382694,"is_reserved":false,"is_disabled":false,"rental_uris":{"android":"levelo://app?vid=fc8abb6d-e50e-4c12-aca4-c5d73d10384a","ios":"levelo://app?vid=fc8abb6d-e50e-4c12-aca4-c5d73d10384a"},"vehicle_type_id":"4","last_reported":1701245421,"current_range_meters":27600,"station_id":"ce4bhg92rcd13ifvqf90","pricing_plan_id":"free"},{"bike_id":"479a1170-4a77-441e-8de1-d86666ee0418","system_id":"levelo_inurba_marseille","lat":43.26681,"lon":5.382694,"is_reserved":false,"is_disabled":false,"rental_uris":{"android":"levelo://app?vid=479a1170-4a77-441e-8de1-d86666ee0418","ios":"levelo://app?vid=479a1170-4a77-441e-8de1-d86666ee0418"},"vehicle_type_id":"4","last_reported":1701245421,"current_range_meters":27200,"station_id":"ce4bhg92rcd13ifvqf90","pricing_plan_id":"free"},{"bike_id":"d342d8af-189b-4c4a-a3df-20b257c41e29","system_id":"levelo_inurba_marseille","lat":43.26681,"lon":5.382694,"is_reserved":false,"is_disabled":false,"rental_uris":{"android":"levelo://app?vid=d342d8af-189b-4c4a-a3df-20b257c41e29","ios":"levelo://app?vid=d342d8af-189b-4c4a-a3df-20b257c41e29"},"vehicle_type_id":"4","last_reported":1701245421,"current_range_meters":31200,"station_id":"ce4bhg92rcd13ifvqf90","pricing_plan_id":"free"},{"bike_id":"8bb35a9f-8540-41b8-881a-6be9f0ac6699","system_id":"levelo_inurba_marseille","lat":43.26556,"lon":5.372846,"is_reserved":false,"is_disabled":false,"rental_uris":{"android":"levelo://app?vid=8bb35a9f-8540-41b8-881a-6be9f0ac6699","ios":"levelo://app?vid=8bb35a9f-8540-41b8-881a-6be9f0ac6699"},"vehicle_type_id":"4","last_reported":1701245421,"current_range_meters":29200,"station_id":"ce4bhg12rcd13ifvqf70","pricing_plan_id":"free"},{"bike_id":"ede28b7a-e490-4209-81d5-947def0778e8","system_id":"levelo_inurba_marseille","lat":43.265714,"lon":5.372891,"is_reserved":false,"is_disabled":false,"rental_uris":{"android":"levelo://app?vid=ede28b7a-e490-4209-81d5-947def0778e8","ios":"levelo://app?vid=ede28b7a-e490-4209-81d5-947def0778e8"},"vehicle_type_id":"4","last_reported":1701245421,"current_range_meters":29600,"station_id":"ce4bhg12rcd13ifvqf70","pricing_plan_id":"free"},{"bike_id":"65a3e77d-847c-4cbc-abdf-f90bdec418f2","system_id":"levelo_inurba_marseille","lat":43.27996,"lon":5.416624,"is_reserved":false,"is_disabled":false,"rental_uris":{"android":"levelo://app?vid=65a3e77d-847c-4cbc-abdf-f90bdec418f2","ios":"levelo://app?vid=65a3e77d-847c-4cbc-abdf-f90bdec418f2"},"vehicle_type_id":"4","last_reported":1701245421,"current_range_meters":27600,"station_id":"ce4bho12rcd13ifvqh1g","pricing_plan_id":"free"},{"bike_id":"c7378408-f795-4005-a046-54990249f94d","system_id":"levelo_inurba_marseille","lat":43.27996,"lon":5.416624,"is_reserved":false,"is_disabled":false,"rental_uris":{"android":"levelo://app?vid=c7378408-f795-4005-a046-54990249f94d","ios":"levelo://app?vid=c7378408-f795-4005-a046-54990249f94d"},"vehicle_type_id":"4","last_reported":1701245421,"current_range_meters":25200,"station_id":"ce4bho12rcd13ifvqh1g","pricing_plan_id":"free"},{"bike_id":"9d2b4cad-da2b-4cab-80bc-605a07d699d0","system_id":"levelo_inurba_marseille","lat":43.27996,"lon":5.416624,"is_reserved":false,"is_disabled":false,"rental_uris":{"android":"levelo://app?vid=9d2b4cad-da2b-4cab-80bc-605a07d699d0","ios":"levelo://app?vid=9d2b4cad-da2b-4cab-80bc-605a07d699d0"},"vehicle_type_id":"4","last_reported":1701245421,"current_range_meters":5200,"station_id":"ce4bho12rcd13ifvqh1g","pricing_plan_id":"free"},{"bike_id":"9c60bcb7-c299-4da8-9c53-232e85632574","system_id":"levelo_inurba_marseille","lat":43.27987,"lon":5.41666,"is_reserved":false,"is_disabled":false,"rental_uris":{"android":"levelo://app?vid=9c60bcb7-c299-4da8-9c53-232e85632574","ios":"levelo://app?vid=9c60bcb7-c299-4da8-9c53-232e85632574"},"vehicle_type_id":"4","last_reported":1701245421,"current_range_meters":21600,"station_id":"ce4bho12rcd13ifvqh1g","pricing_plan_id":"free"},{"bike_id":"3002e313-ad57-43bc-8b95-6182aeddad1f","system_id":"levelo_inurba_marseille","lat":43.265714,"lon":5.372891,"is_reserved":false,"is_disabled":false,"rental_uris":{"android":"levelo://app?vid=3002e313-ad57-43bc-8b95-6182aeddad1f","ios":"levelo://app?vid=3002e313-ad57-43bc-8b95-6182aeddad1f"},"vehicle_type_id":"4","last_reported":1701245421,"current_range_meters":27600,"station_id":"ce4bhg12rcd13ifvqf70","pricing_plan_id":"free"},{"bike_id":"8934b32b-8506-4de6-902c-69ebc3e3fcfe","system_id":"levelo_inurba_marseille","lat":43.267966,"lon":5.393976,"is_reserved":false,"is_disabled":false,"rental_uris":{"android":"levelo://app?vid=8934b32b-8506-4de6-902c-69ebc3e3fcfe","ios":"levelo://app?vid=8934b32b-8506-4de6-902c-69ebc3e3fcfe"},"vehicle_type_id":"4","last_reported":1701245421,"current_range_meters":23600,"station_id":"ce4bhh12rcd13ifvqfg0","pricing_plan_id":"free"},{"bike_id":"f278b468-b4b0-4843-b4f2-1c188a4fba29","system_id":"levelo_inurba_marseille","lat":43.26942,"lon":5.40257,"is_reserved":false,"is_disabled":false,"rental_uris":{"android":"levelo://app?vid=f278b468-b4b0-4843-b4f2-1c188a4fba29","ios":"levelo://app?vid=f278b468-b4b0-4843-b4f2-1c188a4fba29"},"vehicle_type_id":"4","last_reported":1701245421,"current_range_meters":19200,"station_id":"cjm6bp8fraef2m0cb0m0","pricing_plan_id":"free"},{"bike_id":"c4281e59-e41b-41c4-9e2c-283e081f48de","system_id":"levelo_inurba_marseille","lat":43.261782,"lon":5.374515,"is_reserved":false,"is_disabled":false,"rental_uris":{"android":"levelo://app?vid=c4281e59-e41b-41c4-9e2c-283e081f48de","ios":"levelo://app?vid=c4281e59-e41b-41c4-9e2c-283e081f48de"},"vehicle_type_id":"4","last_reported":1701245421,"current_range_meters":8400,"station_id":"ce4bhgp2rcd13ifvqfc0","pricing_plan_id":"free"},{"bike_id":"429e8c0b-93de-492c-8d9e-0b10df96296e","system_id":"levelo_inurba_marseille","lat":43.271388,"lon":5.409269,"is_reserved":false,"is_disabled":false,"rental_uris":{"android":"levelo://app?vid=429e8c0b-93de-492c-8d9e-0b10df96296e","ios":"levelo://app?vid=429e8c0b-93de-492c-8d9e-0b10df96296e"},"vehicle_type_id":"4","last_reported":1701245421,"current_range_meters":30000,"station_id":"ce4bhl12rcd13ifvqgf0","pricing_plan_id":"free"},{"bike_id":"5edf4ffd-945c-46ca-853f-f4dc48bf88b7","system_id":"levelo_inurba_marseille","lat":43.26202,"lon":5.379299,"is_reserved":false,"is_disabled":false,"rental_uris":{"android":"levelo://app?vid=5edf4ffd-945c-46ca-853f-f4dc48bf88b7","ios":"levelo://app?vid=5edf4ffd-945c-46ca-853f-f4dc48bf88b7"},"vehicle_type_id":"4","last_reported":1701245421,"current_range_meters":31200,"station_id":"ce4bhjp2rcd13ifvqg90","pricing_plan_id":"free"},{"bike_id":"4a648424-f6f6-4545-9b7b-3c749cf27410","system_id":"levelo_inurba_marseille","lat":43.267959,"lon":5.402685,"is_reserved":false,"is_disabled":false,"rental_uris":{"android":"levelo://app?vid=4a648424-f6f6-4545-9b7b-3c749cf27410","ios":"levelo://app?vid=4a648424-f6f6-4545-9b7b-3c749cf27410"},"vehicle_type_id":"4","last_reported":1701245421,"current_range_meters":12800,"station_id":"ce501612rcd8frsf0b60","pricing_plan_id":"free"},{"bike_id":"baa110bc-e6be-491b-9db8-5e934046b735","system_id":"levelo_inurba_marseille","lat":43.260225,"lon":5.375501,"is_reserved":false,"is_disabled":false,"rental_uris":{"android":"levelo://app?vid=baa110bc-e6be-491b-9db8-5e934046b735","ios":"levelo://app?vid=baa110bc-e6be-491b-9db8-5e934046b735"},"vehicle_type_id":"4","last_reported":1701245421,"current_range_meters":13200,"station_id":"ce4bhgh2rcd13ifvqfa0","pricing_plan_id":"free"},{"bike_id":"eea25ac0-73c4-4bfc-8f3a-1451025761d0","system_id":"levelo_inurba_marseille","lat":43.27498,"lon":5.42446,"is_reserved":false,"is_disabled":false,"rental_uris":{"android":"levelo://app?vid=eea25ac0-73c4-4bfc-8f3a-1451025761d0","ios":"levelo://app?vid=eea25ac0-73c4-4bfc-8f3a-1451025761d0"},"vehicle_type_id":"4","last_reported":1701245421,"current_range_meters":23200,"station_id":"ce4bhn92rcd13ifvqgrg","pricing_plan_id":"free"},{"bike_id":"8195c227-7fb3-4210-931b-7c028b4e4d97","system_id":"levelo_inurba_marseille","lat":43.26095,"lon":5.39761,"is_reserved":false,"is_disabled":false,"rental_uris":{"android":"levelo://app?vid=8195c227-7fb3-4210-931b-7c028b4e4d97","ios":"levelo://app?vid=8195c227-7fb3-4210-931b-7c028b4e4d97"},"vehicle_type_id":"4","last_reported":1701245421,"current_range_meters":24800,"station_id":"ce4bhi12rcd13ifvqfq0","pricing_plan_id":"free"},{"bike_id":"4f80ea18-fe34-4b4e-a60e-df37e28e9347","system_id":"levelo_inurba_marseille","lat":43.27496,"lon":5.4245,"is_reserved":false,"is_disabled":false,"rental_uris":{"android":"levelo://app?vid=4f80ea18-fe34-4b4e-a60e-df37e28e9347","ios":"levelo://app?vid=4f80ea18-fe34-4b4e-a60e-df37e28e9347"},"vehicle_type_id":"4","last_reported":1701245421,"current_range_meters":22800,"station_id":"ce4bhn92rcd13ifvqgrg","pricing_plan_id":"free"},{"bike_id":"893c032a-bd7b-485c-8226-9282ad559886","system_id":"levelo_inurba_marseille","lat":43.27495,"lon":5.4245,"is_reserved":false,"is_disabled":false,"rental_uris":{"android":"levelo://app?vid=893c032a-bd7b-485c-8226-9282ad559886","ios":"levelo://app?vid=893c032a-bd7b-485c-8226-9282ad559886"},"vehicle_type_id":"4","last_reported":1701245421,"current_range_meters":23600,"station_id":"ce4bhn92rcd13ifvqgrg","pricing_plan_id":"free"},{"bike_id":"6639dad4-2245-4129-9e6e-f95bf1a9819c","system_id":"levelo_inurba_marseille","lat":43.27495,"lon":5.4245,"is_reserved":false,"is_disabled":false,"rental_uris":{"android":"levelo://app?vid=6639dad4-2245-4129-9e6e-f95bf1a9819c","ios":"levelo://app?vid=6639dad4-2245-4129-9e6e-f95bf1a9819c"},"vehicle_type_id":"4","last_reported":1701245421,"current_range_meters":23600,"station_id":"ce4bhn92rcd13ifvqgrg","pricing_plan_id":"free"},{"bike_id":"11d5f7b0-0c0e-40a3-a117-c60399f24daf","system_id":"levelo_inurba_marseille","lat":43.260909,"lon":5.397591,"is_reserved":false,"is_disabled":false,"rental_uris":{"android":"levelo://app?vid=11d5f7b0-0c0e-40a3-a117-c60399f24daf","ios":"levelo://app?vid=11d5f7b0-0c0e-40a3-a117-c60399f24daf"},"vehicle_type_id":"4","last_reported":1701245421,"current_range_meters":4000,"station_id":"ce4bhi12rcd13ifvqfq0","pricing_plan_id":"free"},{"bike_id":"b6a281eb-39d9-4f38-b407-b8e01e2ea1f3","system_id":"levelo_inurba_marseille","lat":43.27495,"lon":5.42451,"is_reserved":false,"is_disabled":false,"rental_uris":{"android":"levelo://app?vid=b6a281eb-39d9-4f38-b407-b8e01e2ea1f3","ios":"levelo://app?vid=b6a281eb-39d9-4f38-b407-b8e01e2ea1f3"},"vehicle_type_id":"4","last_reported":1701245421,"current_range_meters":28400,"station_id":"ce4bhn92rcd13ifvqgrg","pricing_plan_id":"free"},{"bike_id":"932e7ed0-cd1b-453c-9a18-aeb0fe26478a","system_id":"levelo_inurba_marseille","lat":43.274933,"lon":5.424498,"is_reserved":false,"is_disabled":false,"rental_uris":{"android":"levelo://app?vid=932e7ed0-cd1b-453c-9a18-aeb0fe26478a","ios":"levelo://app?vid=932e7ed0-cd1b-453c-9a18-aeb0fe26478a"},"vehicle_type_id":"4","last_reported":1701245421,"current_range_meters":30000,"station_id":"ce4bhn92rcd13ifvqgrg","pricing_plan_id":"free"},{"bike_id":"ac037a87-a88c-4413-9160-3b9732aacca4","system_id":"levelo_inurba_marseille","lat":43.27495,"lon":5.42452,"is_reserved":false,"is_disabled":false,"rental_uris":{"android":"levelo://app?vid=ac037a87-a88c-4413-9160-3b9732aacca4","ios":"levelo://app?vid=ac037a87-a88c-4413-9160-3b9732aacca4"},"vehicle_type_id":"4","last_reported":1701245421,"current_range_meters":3600,"station_id":"ce4bhn92rcd13ifvqgrg","pricing_plan_id":"free"},{"bike_id":"52eeb36a-d2ef-44de-9d29-bbe58daa0133","system_id":"levelo_inurba_marseille","lat":43.27491,"lon":5.42452,"is_reserved":false,"is_disabled":false,"rental_uris":{"android":"levelo://app?vid=52eeb36a-d2ef-44de-9d29-bbe58daa0133","ios":"levelo://app?vid=52eeb36a-d2ef-44de-9d29-bbe58daa0133"},"vehicle_type_id":"4","last_reported":1701245421,"current_range_meters":24000,"station_id":"ce4bhn92rcd13ifvqgrg","pricing_plan_id":"free"},{"bike_id":"038db662-500d-451a-92f9-65475d0e9377","system_id":"levelo_inurba_marseille","lat":43.27491,"lon":5.42456,"is_reserved":false,"is_disabled":false,"rental_uris":{"android":"levelo://app?vid=038db662-500d-451a-92f9-65475d0e9377","ios":"levelo://app?vid=038db662-500d-451a-92f9-65475d0e9377"},"vehicle_type_id":"4","last_reported":1701245421,"current_range_meters":22800,"station_id":"ce4bhn92rcd13ifvqgrg","pricing_plan_id":"free"},{"bike_id":"b9a27a89-5024-4e3f-a244-1362e43e0aa3","system_id":"levelo_inurba_marseille","lat":43.27492,"lon":5.42458,"is_reserved":false,"is_disabled":false,"rental_uris":{"android":"levelo://app?vid=b9a27a89-5024-4e3f-a244-1362e43e0aa3","ios":"levelo://app?vid=b9a27a89-5024-4e3f-a244-1362e43e0aa3"},"vehicle_type_id":"4","last_reported":1701245421,"current_range_meters":24400,"station_id":"ce4bhn92rcd13ifvqgrg","pricing_plan_id":"free"},{"bike_id":"03158746-6a36-467c-85f4-0d9a5c9de7bb","system_id":"levelo_inurba_marseille","lat":43.26082,"lon":5.397695,"is_reserved":false,"is_disabled":false,"rental_uris":{"android":"levelo://app?vid=03158746-6a36-467c-85f4-0d9a5c9de7bb","ios":"levelo://app?vid=03158746-6a36-467c-85f4-0d9a5c9de7bb"},"vehicle_type_id":"4","last_reported":1701245421,"current_range_meters":0,"station_id":"ce4bhi12rcd13ifvqfq0","pricing_plan_id":"free"},{"bike_id":"a1bbcbd1-ae6d-4376-9465-a30f2efb7fe9","system_id":"levelo_inurba_marseille","lat":43.258205,"lon":5.394369,"is_reserved":false,"is_disabled":false,"rental_uris":{"android":"levelo://app?vid=a1bbcbd1-ae6d-4376-9465-a30f2efb7fe9","ios":"levelo://app?vid=a1bbcbd1-ae6d-4376-9465-a30f2efb7fe9"},"vehicle_type_id":"4","last_reported":1701245421,"current_range_meters":2400,"station_id":"ce4bhip2rcd13ifvqft0","pricing_plan_id":"free"},{"bike_id":"a17c8f48-695a-4b58-80db-537fa3781324","system_id":"levelo_inurba_marseille","lat":43.25581,"lon":5.38233,"is_reserved":false,"is_disabled":false,"rental_uris":{"android":"levelo://app?vid=a17c8f48-695a-4b58-80db-537fa3781324","ios":"levelo://app?vid=a17c8f48-695a-4b58-80db-537fa3781324"},"vehicle_type_id":"4","last_reported":1701245421,"current_range_meters":21200,"station_id":"ce4bhih2rcd13ifvqfs0","pricing_plan_id":"free"},{"bike_id":"b09cf6fe-9609-4834-a4fb-3cf72efe3863","system_id":"levelo_inurba_marseille","lat":43.255783,"lon":5.382405,"is_reserved":false,"is_disabled":false,"rental_uris":{"android":"levelo://app?vid=b09cf6fe-9609-4834-a4fb-3cf72efe3863","ios":"levelo://app?vid=b09cf6fe-9609-4834-a4fb-3cf72efe3863"},"vehicle_type_id":"4","last_reported":1701245421,"current_range_meters":8000,"station_id":"ce4bhih2rcd13ifvqfs0","pricing_plan_id":"free"},{"bike_id":"2a359975-e46f-4b44-a624-025c90902ae7","system_id":"levelo_inurba_marseille","lat":43.25577,"lon":5.38237,"is_reserved":false,"is_disabled":false,"rental_uris":{"android":"levelo://app?vid=2a359975-e46f-4b44-a624-025c90902ae7","ios":"levelo://app?vid=2a359975-e46f-4b44-a624-025c90902ae7"},"vehicle_type_id":"4","last_reported":1701245421,"current_range_meters":30400,"station_id":"ce4bhih2rcd13ifvqfs0","pricing_plan_id":"free"},{"bike_id":"bfa25d2a-77c8-4623-bba5-958914db68a8","system_id":"levelo_inurba_marseille","lat":43.270721,"lon":5.422764,"is_reserved":false,"is_disabled":false,"rental_uris":{"android":"levelo://app?vid=bfa25d2a-77c8-4623-bba5-958914db68a8","ios":"levelo://app?vid=bfa25d2a-77c8-4623-bba5-958914db68a8"},"vehicle_type_id":"4","last_reported":1701245421,"current_range_meters":24800,"station_id":"ce4bhk92rcd13ifvqgb0","pricing_plan_id":"free"},{"bike_id":"07eb479c-80d6-4dd7-ab2c-614f2b8536bd","system_id":"levelo_inurba_marseille","lat":43.258658,"lon":5.398935,"is_reserved":false,"is_disabled":false,"rental_uris":{"android":"levelo://app?vid=07eb479c-80d6-4dd7-ab2c-614f2b8536bd","ios":"levelo://app?vid=07eb479c-80d6-4dd7-ab2c-614f2b8536bd"},"vehicle_type_id":"4","last_reported":1701245421,"current_range_meters":0,"station_id":"ce4bhl92rcd13ifvqghg","pricing_plan_id":"free"},{"bike_id":"db33ee16-7faf-421f-b813-69a231447c5e","system_id":"levelo_inurba_marseille","lat":43.259013,"lon":5.409301,"is_reserved":false,"is_disabled":false,"rental_uris":{"android":"levelo://app?vid=db33ee16-7faf-421f-b813-69a231447c5e","ios":"levelo://app?vid=db33ee16-7faf-421f-b813-69a231447c5e"},"vehicle_type_id":"4","last_reported":1701245421,"current_range_meters":25600,"station_id":"ce4bhm92rcd13ifvqglg","pricing_plan_id":"free"},{"bike_id":"ec023630-5081-4564-a9e1-0713648c01c7","system_id":"levelo_inurba_marseille","lat":43.25938,"lon":5.40914,"is_reserved":false,"is_disabled":false,"rental_uris":{"android":"levelo://app?vid=ec023630-5081-4564-a9e1-0713648c01c7","ios":"levelo://app?vid=ec023630-5081-4564-a9e1-0713648c01c7"},"vehicle_type_id":"4","last_reported":1701245421,"current_range_meters":800,"station_id":"ce4bhm92rcd13ifvqglg","pricing_plan_id":"free"},{"bike_id":"52d9dffa-ef5e-4061-a968-c3513bee93a7","system_id":"levelo_inurba_marseille","lat":43.25935,"lon":5.40908,"is_reserved":false,"is_disabled":false,"rental_uris":{"android":"levelo://app?vid=52d9dffa-ef5e-4061-a968-c3513bee93a7","ios":"levelo://app?vid=52d9dffa-ef5e-4061-a968-c3513bee93a7"},"vehicle_type_id":"4","last_reported":1701245421,"current_range_meters":16400,"station_id":"ce4bhm92rcd13ifvqglg","pricing_plan_id":"free"},{"bike_id":"c87b592c-b6dd-4637-8751-e536968ae12e","system_id":"levelo_inurba_marseille","lat":43.259013,"lon":5.409301,"is_reserved":false,"is_disabled":false,"rental_uris":{"android":"levelo://app?vid=c87b592c-b6dd-4637-8751-e536968ae12e","ios":"levelo://app?vid=c87b592c-b6dd-4637-8751-e536968ae12e"},"vehicle_type_id":"4","last_reported":1701245421,"current_range_meters":22800,"station_id":"ce4bhm92rcd13ifvqglg","pricing_plan_id":"free"},{"bike_id":"fa1d1983-f2d4-4c7c-b732-b31330c289d7","system_id":"levelo_inurba_marseille","lat":43.25935,"lon":5.40913,"is_reserved":false,"is_disabled":false,"rental_uris":{"android":"levelo://app?vid=fa1d1983-f2d4-4c7c-b732-b31330c289d7","ios":"levelo://app?vid=fa1d1983-f2d4-4c7c-b732-b31330c289d7"},"vehicle_type_id":"4","last_reported":1701245421,"current_range_meters":24000,"station_id":"ce4bhm92rcd13ifvqglg","pricing_plan_id":"free"},{"bike_id":"6a9b0a50-e95d-44b1-9165-f726a2a5c128","system_id":"levelo_inurba_marseille","lat":43.25935,"lon":5.40913,"is_reserved":false,"is_disabled":false,"rental_uris":{"android":"levelo://app?vid=6a9b0a50-e95d-44b1-9165-f726a2a5c128","ios":"levelo://app?vid=6a9b0a50-e95d-44b1-9165-f726a2a5c128"},"vehicle_type_id":"4","last_reported":1701245421,"current_range_meters":10000,"station_id":"ce4bhm92rcd13ifvqglg","pricing_plan_id":"free"},{"bike_id":"5a80b217-e311-469a-8e20-7dee4260bc4b","system_id":"levelo_inurba_marseille","lat":43.25933,"lon":5.40914,"is_reserved":false,"is_disabled":false,"rental_uris":{"android":"levelo://app?vid=5a80b217-e311-469a-8e20-7dee4260bc4b","ios":"levelo://app?vid=5a80b217-e311-469a-8e20-7dee4260bc4b"},"vehicle_type_id":"4","last_reported":1701245421,"current_range_meters":19600,"station_id":"ce4bhm92rcd13ifvqglg","pricing_plan_id":"free"},{"bike_id":"701dfc6c-2f0b-43a3-88d0-350b92ece9cc","system_id":"levelo_inurba_marseille","lat":43.259013,"lon":5.409301,"is_reserved":false,"is_disabled":false,"rental_uris":{"android":"levelo://app?vid=701dfc6c-2f0b-43a3-88d0-350b92ece9cc","ios":"levelo://app?vid=701dfc6c-2f0b-43a3-88d0-350b92ece9cc"},"vehicle_type_id":"4","last_reported":1701245421,"current_range_meters":25200,"station_id":"ce4bhm92rcd13ifvqglg","pricing_plan_id":"free"},{"bike_id":"859c3c77-1851-4e3a-9dec-42cb3bd89784","system_id":"levelo_inurba_marseille","lat":43.259013,"lon":5.409301,"is_reserved":false,"is_disabled":false,"rental_uris":{"android":"levelo://app?vid=859c3c77-1851-4e3a-9dec-42cb3bd89784","ios":"levelo://app?vid=859c3c77-1851-4e3a-9dec-42cb3bd89784"},"vehicle_type_id":"4","last_reported":1701245421,"current_range_meters":27200,"station_id":"ce4bhm92rcd13ifvqglg","pricing_plan_id":"free"},{"bike_id":"b6178cea-d8fd-48c3-8f6d-e35fe37eef36","system_id":"levelo_inurba_marseille","lat":43.25932,"lon":5.40913,"is_reserved":false,"is_disabled":false,"rental_uris":{"android":"levelo://app?vid=b6178cea-d8fd-48c3-8f6d-e35fe37eef36","ios":"levelo://app?vid=b6178cea-d8fd-48c3-8f6d-e35fe37eef36"},"vehicle_type_id":"4","last_reported":1701245421,"current_range_meters":22800,"station_id":"ce4bhm92rcd13ifvqglg","pricing_plan_id":"free"},{"bike_id":"bde9dcec-8cf6-4278-863f-0c39d9e5c66f","system_id":"levelo_inurba_marseille","lat":43.25931,"lon":5.40916,"is_reserved":false,"is_disabled":false,"rental_uris":{"android":"levelo://app?vid=bde9dcec-8cf6-4278-863f-0c39d9e5c66f","ios":"levelo://app?vid=bde9dcec-8cf6-4278-863f-0c39d9e5c66f"},"vehicle_type_id":"4","last_reported":1701245421,"current_range_meters":20400,"station_id":"ce4bhm92rcd13ifvqglg","pricing_plan_id":"free"},{"bike_id":"754819f0-0e97-4895-9832-44dc72bf7279","system_id":"levelo_inurba_marseille","lat":43.259026,"lon":5.409419,"is_reserved":false,"is_disabled":false,"rental_uris":{"android":"levelo://app?vid=754819f0-0e97-4895-9832-44dc72bf7279","ios":"levelo://app?vid=754819f0-0e97-4895-9832-44dc72bf7279"},"vehicle_type_id":"4","last_reported":1701245421,"current_range_meters":20400,"station_id":"ce4bhm92rcd13ifvqglg","pricing_plan_id":"free"},{"bike_id":"f3ce6f9b-3302-430d-b90c-d5ca8fa56d2d","system_id":"levelo_inurba_marseille","lat":43.25997,"lon":5.41511,"is_reserved":false,"is_disabled":false,"rental_uris":{"android":"levelo://app?vid=f3ce6f9b-3302-430d-b90c-d5ca8fa56d2d","ios":"levelo://app?vid=f3ce6f9b-3302-430d-b90c-d5ca8fa56d2d"},"vehicle_type_id":"4","last_reported":1701245421,"current_range_meters":24800,"station_id":"ce4bhn92rcd13ifvqgrg","pricing_plan_id":"free"},{"bike_id":"ec3ae71a-7855-4733-9a16-722c539f39c2","system_id":"levelo_inurba_marseille","lat":43.257079,"lon":5.411051,"is_reserved":false,"is_disabled":false,"rental_uris":{"android":"levelo://app?vid=ec3ae71a-7855-4733-9a16-722c539f39c2","ios":"levelo://app?vid=ec3ae71a-7855-4733-9a16-722c539f39c2"},"vehicle_type_id":"4","last_reported":1701245421,"current_range_meters":30000,"station_id":"ce4bhkp2rcd13ifvqgd0","pricing_plan_id":"free"},{"bike_id":"ffe2b43f-d3e3-4d30-9f4d-271bd35393f4","system_id":"levelo_inurba_marseille","lat":43.250009,"lon":5.389195,"is_reserved":false,"is_disabled":false,"rental_uris":{"android":"levelo://app?vid=ffe2b43f-d3e3-4d30-9f4d-271bd35393f4","ios":"levelo://app?vid=ffe2b43f-d3e3-4d30-9f4d-271bd35393f4"},"vehicle_type_id":"4","last_reported":1701245421,"current_range_meters":25600,"station_id":"ce4bhgp2rcd13ifvqfd0","pricing_plan_id":"free"},{"bike_id":"f1cd03a0-5917-4132-9e63-4eddbb0bba33","system_id":"levelo_inurba_marseille","lat":43.250009,"lon":5.389195,"is_reserved":false,"is_disabled":false,"rental_uris":{"android":"levelo://app?vid=f1cd03a0-5917-4132-9e63-4eddbb0bba33","ios":"levelo://app?vid=f1cd03a0-5917-4132-9e63-4eddbb0bba33"},"vehicle_type_id":"4","last_reported":1701245421,"current_range_meters":14800,"station_id":"ce4bhgp2rcd13ifvqfd0","pricing_plan_id":"free"},{"bike_id":"a0b5180a-84ad-479b-882a-b5067683b043","system_id":"levelo_inurba_marseille","lat":43.250009,"lon":5.389195,"is_reserved":false,"is_disabled":false,"rental_uris":{"android":"levelo://app?vid=a0b5180a-84ad-479b-882a-b5067683b043","ios":"levelo://app?vid=a0b5180a-84ad-479b-882a-b5067683b043"},"vehicle_type_id":"4","last_reported":1701245421,"current_range_meters":27200,"station_id":"ce4bhgp2rcd13ifvqfd0","pricing_plan_id":"free"},{"bike_id":"decc7d71-9d7b-4c28-80d4-c81951174d5a","system_id":"levelo_inurba_marseille","lat":43.250023,"lon":5.38919,"is_reserved":false,"is_disabled":false,"rental_uris":{"android":"levelo://app?vid=decc7d71-9d7b-4c28-80d4-c81951174d5a","ios":"levelo://app?vid=decc7d71-9d7b-4c28-80d4-c81951174d5a"},"vehicle_type_id":"4","last_reported":1701245421,"current_range_meters":27600,"station_id":"ce4bhgp2rcd13ifvqfd0","pricing_plan_id":"free"},{"bike_id":"e0dd6fb1-ec2e-4820-8644-d6d9a373cef1","system_id":"levelo_inurba_marseille","lat":43.250023,"lon":5.38919,"is_reserved":false,"is_disabled":false,"rental_uris":{"android":"levelo://app?vid=e0dd6fb1-ec2e-4820-8644-d6d9a373cef1","ios":"levelo://app?vid=e0dd6fb1-ec2e-4820-8644-d6d9a373cef1"},"vehicle_type_id":"4","last_reported":1701245421,"current_range_meters":30400,"station_id":"ce4bhgp2rcd13ifvqfd0","pricing_plan_id":"free"},{"bike_id":"4c0c3118-7eaa-4ebd-8d87-d449bea3e021","system_id":"levelo_inurba_marseille","lat":43.250897,"lon":5.395161,"is_reserved":false,"is_disabled":false,"rental_uris":{"android":"levelo://app?vid=4c0c3118-7eaa-4ebd-8d87-d449bea3e021","ios":"levelo://app?vid=4c0c3118-7eaa-4ebd-8d87-d449bea3e021"},"vehicle_type_id":"4","last_reported":1701245421,"current_range_meters":13600,"station_id":"ce4bhm12rcd13ifvqgkg","pricing_plan_id":"free"},{"bike_id":"f5a3e667-af9b-42c6-88ad-e60a6c36ba0a","system_id":"levelo_inurba_marseille","lat":43.24693,"lon":5.382096,"is_reserved":false,"is_disabled":false,"rental_uris":{"android":"levelo://app?vid=f5a3e667-af9b-42c6-88ad-e60a6c36ba0a","ios":"levelo://app?vid=f5a3e667-af9b-42c6-88ad-e60a6c36ba0a"},"vehicle_type_id":"4","last_reported":1701245421,"current_range_meters":28400,"station_id":"ce4bhih2rcd13ifvqfr0","pricing_plan_id":"free"},{"bike_id":"10049852-b219-4fc1-a65e-02a4e61045a4","system_id":"levelo_inurba_marseille","lat":43.25102,"lon":5.403214,"is_reserved":false,"is_disabled":false,"rental_uris":{"android":"levelo://app?vid=10049852-b219-4fc1-a65e-02a4e61045a4","ios":"levelo://app?vid=10049852-b219-4fc1-a65e-02a4e61045a4"},"vehicle_type_id":"4","last_reported":1701245421,"current_range_meters":21200,"station_id":"ce4bhlh2rcd13ifvqgig","pricing_plan_id":"free"},{"bike_id":"256f1205-9a4e-4742-862d-ef72484a253f","system_id":"levelo_inurba_marseille","lat":43.240785,"lon":5.377478,"is_reserved":false,"is_disabled":false,"rental_uris":{"android":"levelo://app?vid=256f1205-9a4e-4742-862d-ef72484a253f","ios":"levelo://app?vid=256f1205-9a4e-4742-862d-ef72484a253f"},"vehicle_type_id":"4","last_reported":1701245421,"current_range_meters":21600,"station_id":"","pricing_plan_id":"free"},{"bike_id":"02c9a029-aeda-41c5-8856-68c55b3a7116","system_id":"levelo_inurba_marseille","lat":43.24077,"lon":5.37756,"is_reserved":false,"is_disabled":false,"rental_uris":{"android":"levelo://app?vid=02c9a029-aeda-41c5-8856-68c55b3a7116","ios":"levelo://app?vid=02c9a029-aeda-41c5-8856-68c55b3a7116"},"vehicle_type_id":"4","last_reported":1701245421,"current_range_meters":23600,"station_id":"ce4bhnp2rcd13ifvqgvg","pricing_plan_id":"free"},{"bike_id":"3cacc188-336e-4025-b8b3-98f6aea3b56d","system_id":"levelo_inurba_marseille","lat":43.24077,"lon":5.37758,"is_reserved":false,"is_disabled":false,"rental_uris":{"android":"levelo://app?vid=3cacc188-336e-4025-b8b3-98f6aea3b56d","ios":"levelo://app?vid=3cacc188-336e-4025-b8b3-98f6aea3b56d"},"vehicle_type_id":"4","last_reported":1701245421,"current_range_meters":12800,"station_id":"ce4bhnp2rcd13ifvqgvg","pricing_plan_id":"free"},{"bike_id":"7084fda3-24a7-4789-b548-93a4caf86408","system_id":"levelo_inurba_marseille","lat":43.24076,"lon":5.37762,"is_reserved":false,"is_disabled":false,"rental_uris":{"android":"levelo://app?vid=7084fda3-24a7-4789-b548-93a4caf86408","ios":"levelo://app?vid=7084fda3-24a7-4789-b548-93a4caf86408"},"vehicle_type_id":"4","last_reported":1701245421,"current_range_meters":12800,"station_id":"ce4bhnp2rcd13ifvqgvg","pricing_plan_id":"free"},{"bike_id":"3ef713bf-35ef-44b9-9242-2cfecde6bad5","system_id":"levelo_inurba_marseille","lat":43.24075,"lon":5.37762,"is_reserved":false,"is_disabled":false,"rental_uris":{"android":"levelo://app?vid=3ef713bf-35ef-44b9-9242-2cfecde6bad5","ios":"levelo://app?vid=3ef713bf-35ef-44b9-9242-2cfecde6bad5"},"vehicle_type_id":"4","last_reported":1701245421,"current_range_meters":28800,"station_id":"ce4bhnp2rcd13ifvqgvg","pricing_plan_id":"free"},{"bike_id":"baf34f4f-ecb6-4d54-ae12-4da52c44c015","system_id":"levelo_inurba_marseille","lat":43.240623,"lon":5.377642,"is_reserved":false,"is_disabled":false,"rental_uris":{"android":"levelo://app?vid=baf34f4f-ecb6-4d54-ae12-4da52c44c015","ios":"levelo://app?vid=baf34f4f-ecb6-4d54-ae12-4da52c44c015"},"vehicle_type_id":"4","last_reported":1701245421,"current_range_meters":27600,"station_id":"ce4bhnp2rcd13ifvqgvg","pricing_plan_id":"free"},{"bike_id":"43185f29-7bbd-4d9b-9bda-f88ae75de8ab","system_id":"levelo_inurba_marseille","lat":43.240623,"lon":5.377642,"is_reserved":false,"is_disabled":false,"rental_uris":{"android":"levelo://app?vid=43185f29-7bbd-4d9b-9bda-f88ae75de8ab","ios":"levelo://app?vid=43185f29-7bbd-4d9b-9bda-f88ae75de8ab"},"vehicle_type_id":"4","last_reported":1701245421,"current_range_meters":30000,"station_id":"ce4bhnp2rcd13ifvqgvg","pricing_plan_id":"free"},{"bike_id":"8b11eb2f-c2f4-4747-8682-fa14bff85247","system_id":"levelo_inurba_marseille","lat":43.240623,"lon":5.377642,"is_reserved":false,"is_disabled":false,"rental_uris":{"android":"levelo://app?vid=8b11eb2f-c2f4-4747-8682-fa14bff85247","ios":"levelo://app?vid=8b11eb2f-c2f4-4747-8682-fa14bff85247"},"vehicle_type_id":"4","last_reported":1701245421,"current_range_meters":18000,"station_id":"ce4bhnp2rcd13ifvqgvg","pricing_plan_id":"free"},{"bike_id":"cc8b0f9b-47ca-4929-adf4-72f0911e4326","system_id":"levelo_inurba_marseille","lat":43.240623,"lon":5.377642,"is_reserved":false,"is_disabled":false,"rental_uris":{"android":"levelo://app?vid=cc8b0f9b-47ca-4929-adf4-72f0911e4326","ios":"levelo://app?vid=cc8b0f9b-47ca-4929-adf4-72f0911e4326"},"vehicle_type_id":"4","last_reported":1701245421,"current_range_meters":24800,"station_id":"ce4bhnp2rcd13ifvqgvg","pricing_plan_id":"free"},{"bike_id":"b0c48c06-dcce-448a-adf8-2b791e3c9e90","system_id":"levelo_inurba_marseille","lat":43.24073,"lon":5.37761,"is_reserved":false,"is_disabled":false,"rental_uris":{"android":"levelo://app?vid=b0c48c06-dcce-448a-adf8-2b791e3c9e90","ios":"levelo://app?vid=b0c48c06-dcce-448a-adf8-2b791e3c9e90"},"vehicle_type_id":"4","last_reported":1701245421,"current_range_meters":28800,"station_id":"ce4bhnp2rcd13ifvqgvg","pricing_plan_id":"free"},{"bike_id":"4ac27634-3ae2-45f3-8a8c-4d4e57a4ae34","system_id":"levelo_inurba_marseille","lat":43.240623,"lon":5.377642,"is_reserved":false,"is_disabled":false,"rental_uris":{"android":"levelo://app?vid=4ac27634-3ae2-45f3-8a8c-4d4e57a4ae34","ios":"levelo://app?vid=4ac27634-3ae2-45f3-8a8c-4d4e57a4ae34"},"vehicle_type_id":"4","last_reported":1701245421,"current_range_meters":17600,"station_id":"ce4bhnp2rcd13ifvqgvg","pricing_plan_id":"free"},{"bike_id":"215e24dd-bb74-43bd-b88b-b6c06667f1e7","system_id":"levelo_inurba_marseille","lat":43.24072,"lon":5.37761,"is_reserved":false,"is_disabled":false,"rental_uris":{"android":"levelo://app?vid=215e24dd-bb74-43bd-b88b-b6c06667f1e7","ios":"levelo://app?vid=215e24dd-bb74-43bd-b88b-b6c06667f1e7"},"vehicle_type_id":"4","last_reported":1701245421,"current_range_meters":2800,"station_id":"ce4bhnp2rcd13ifvqgvg","pricing_plan_id":"free"},{"bike_id":"a4deb05d-ca92-43f2-8c77-7d4d517c5ee5","system_id":"levelo_inurba_marseille","lat":43.24072,"lon":5.37762,"is_reserved":false,"is_disabled":false,"rental_uris":{"android":"levelo://app?vid=a4deb05d-ca92-43f2-8c77-7d4d517c5ee5","ios":"levelo://app?vid=a4deb05d-ca92-43f2-8c77-7d4d517c5ee5"},"vehicle_type_id":"4","last_reported":1701245421,"current_range_meters":29600,"station_id":"ce4bhnp2rcd13ifvqgvg","pricing_plan_id":"free"},{"bike_id":"60440bab-3176-4cfa-a45b-3b54b1d480ad","system_id":"levelo_inurba_marseille","lat":43.240623,"lon":5.377642,"is_reserved":false,"is_disabled":false,"rental_uris":{"android":"levelo://app?vid=60440bab-3176-4cfa-a45b-3b54b1d480ad","ios":"levelo://app?vid=60440bab-3176-4cfa-a45b-3b54b1d480ad"},"vehicle_type_id":"4","last_reported":1701245421,"current_range_meters":30000,"station_id":"ce4bhnp2rcd13ifvqgvg","pricing_plan_id":"free"},{"bike_id":"7bf0ca16-7529-47ea-a668-4ee5d0393a5e","system_id":"levelo_inurba_marseille","lat":43.240623,"lon":5.377642,"is_reserved":false,"is_disabled":false,"rental_uris":{"android":"levelo://app?vid=7bf0ca16-7529-47ea-a668-4ee5d0393a5e","ios":"levelo://app?vid=7bf0ca16-7529-47ea-a668-4ee5d0393a5e"},"vehicle_type_id":"4","last_reported":1701245421,"current_range_meters":25600,"station_id":"ce4bhnp2rcd13ifvqgvg","pricing_plan_id":"free"},{"bike_id":"9354a28e-1390-47ce-b499-4ae6a9619ace","system_id":"levelo_inurba_marseille","lat":43.240623,"lon":5.377642,"is_reserved":false,"is_disabled":false,"rental_uris":{"android":"levelo://app?vid=9354a28e-1390-47ce-b499-4ae6a9619ace","ios":"levelo://app?vid=9354a28e-1390-47ce-b499-4ae6a9619ace"},"vehicle_type_id":"4","last_reported":1701245421,"current_range_meters":29200,"station_id":"ce4bhnp2rcd13ifvqgvg","pricing_plan_id":"free"},{"bike_id":"710ebacc-d5b3-451f-9bbe-cf886ae15f1c","system_id":"levelo_inurba_marseille","lat":43.24071,"lon":5.37765,"is_reserved":false,"is_disabled":false,"rental_uris":{"android":"levelo://app?vid=710ebacc-d5b3-451f-9bbe-cf886ae15f1c","ios":"levelo://app?vid=710ebacc-d5b3-451f-9bbe-cf886ae15f1c"},"vehicle_type_id":"4","last_reported":1701245421,"current_range_meters":12800,"station_id":"ce4bhnp2rcd13ifvqgvg","pricing_plan_id":"free"},{"bike_id":"23cc72a6-3b72-4db6-b405-6490ca67740b","system_id":"levelo_inurba_marseille","lat":43.240623,"lon":5.377642,"is_reserved":false,"is_disabled":false,"rental_uris":{"android":"levelo://app?vid=23cc72a6-3b72-4db6-b405-6490ca67740b","ios":"levelo://app?vid=23cc72a6-3b72-4db6-b405-6490ca67740b"},"vehicle_type_id":"4","last_reported":1701245421,"current_range_meters":18800,"station_id":"ce4bhnp2rcd13ifvqgvg","pricing_plan_id":"free"},{"bike_id":"9eec972f-5d5d-4d54-9d3e-06582b240775","system_id":"levelo_inurba_marseille","lat":43.2407,"lon":5.37761,"is_reserved":false,"is_disabled":false,"rental_uris":{"android":"levelo://app?vid=9eec972f-5d5d-4d54-9d3e-06582b240775","ios":"levelo://app?vid=9eec972f-5d5d-4d54-9d3e-06582b240775"},"vehicle_type_id":"4","last_reported":1701245421,"current_range_meters":22800,"station_id":"ce4bhnp2rcd13ifvqgvg","pricing_plan_id":"free"},{"bike_id":"a9a4f42c-6a64-4841-803f-b1d59d3eef61","system_id":"levelo_inurba_marseille","lat":43.240623,"lon":5.377642,"is_reserved":false,"is_disabled":false,"rental_uris":{"android":"levelo://app?vid=a9a4f42c-6a64-4841-803f-b1d59d3eef61","ios":"levelo://app?vid=a9a4f42c-6a64-4841-803f-b1d59d3eef61"},"vehicle_type_id":"4","last_reported":1701245421,"current_range_meters":9200,"station_id":"ce4bhnp2rcd13ifvqgvg","pricing_plan_id":"free"},{"bike_id":"b22e1e1c-0f34-47ab-9cd2-5670d1abd0c8","system_id":"levelo_inurba_marseille","lat":43.2407,"lon":5.37763,"is_reserved":false,"is_disabled":false,"rental_uris":{"android":"levelo://app?vid=b22e1e1c-0f34-47ab-9cd2-5670d1abd0c8","ios":"levelo://app?vid=b22e1e1c-0f34-47ab-9cd2-5670d1abd0c8"},"vehicle_type_id":"4","last_reported":1701245421,"current_range_meters":12800,"station_id":"ce4bhnp2rcd13ifvqgvg","pricing_plan_id":"free"},