{"last_updated":1679137549,"ttl":30,"version":"2.2","data":{"bikes":[{"bike_id":"97bf4b6f-e159-4e4b-a5c1-6189ac93b154","system_id":"levelo_inurba_marseille","lat":43.309076,"lon":5.368465,"is_reserved":false,"is_disabled":false,"rental_uris":{"android":"levelo://app?vid=97bf4b6f-e159-4e4b-a5c1-6189ac93b154","ios":"levelo://app?vid=97bf4b6f-e159-4e4b-a5c1-6189ac93b154"},"vehicle_type_id":"4","last_reported":1679137549,"current_range_meters":30000,"station_id":"ce4bgn92rcd13ifvqbvg","pricing_plan_id":"free"},{"bike_id":"f273d4fc-8773-4cc3-a870-85f4a91f1948","system_id":"levelo_inurba_marseille","lat":43.309076,"lon":5.368465,"is_reserved":false,"is_disabled":false,"rental_uris":{"android":"levelo://app?vid=f273d4fc-8773-4cc3-a870-85f4a91f1948","ios":"levelo://app?vid=f273d4fc-8773-4cc3-a870-85f4a91f1948"},"vehicle_type_id":"4","last_reported":1679137549,"current_range_meters":30800,"station_id":"ce4bgn92rcd13ifvqbvg","pricing_plan_id":"free"},{"bike_id":"b8eda21b-83de-4248-8b75-265279000c19","system_id":"levelo_inurba_marseille","lat":43.309076,"lon":5.368465,"is_reserved":false,"is_disabled":false,"rental_uris":{"android":"levelo://app?vid=b8eda21b-83de-4248-8b75-265279000c19","ios":"levelo://app?vid=b8eda21b-83de-4248-8b75-265279000c19"},"vehicle_type_id":"4","last_reported":1679137549,"current_range_meters":30000,"station_id":"ce4bgn92rcd13ifvqbvg","pricing_plan_id":"free"},{"bike_id":"54cce7ff-96b3-4498-bf48-60fcfbe779c3","system_id":"levelo_inurba_marseille","lat":43.309076,"lon":5.368465,"is_reserved":false,"is_disabled":false,"rental_uris":{"android":"levelo://app?vid=54cce7ff-96b3-4498-bf48-60fcfbe779c3","ios":"levelo://app?vid=54cce7ff-96b3-4498-bf48-60fcfbe779c3"},"vehicle_type_id":"4","last_reported":1679137549,"current_range_meters":29600,"station_id":"ce4bgn92rcd13ifvqbvg","pricing_plan_id":"free"},{"bike_id":"30805c94-034d-4491-857f-a05c473afe18","system_id":"levelo_inurba_marseille","lat":43.309076,"lon":5.368465,"is_reserved":false,"is_disabled":false,"rental_uris":{"android":"levelo://app?vid=30805c94-034d-4491-857f-a05c473afe18","ios":"levelo://app?vid=30805c94-034d-4491-857f-a05c473afe18"},"vehicle_type_id":"4","last_reported":1679137549,"current_range_meters":31200,"station_id":"ce4bgn92rcd13ifvqbvg","pricing_plan_id":"free"},{"bike_id":"97cb2b17-186d-4e2e-8d06-3852be14513e","system_id":"levelo_inurba_marseille","lat":43.309076,"lon":5.368465,"is_reserved":false,"is_disabled":false,"rental_uris":{"android":"levelo://app?vid=97cb2b17-186d-4e2e-8d06-3852be14513e","ios":"levelo://app?vid=97cb2b17-186d-4e2e-8d06-3852be14513e"},"vehicle_type_id":"4","last_reported":1679137549,"current_range_meters":28400,"station_id":"ce4bgn92rcd13ifvqbvg","pricing_plan_id":"free"},{"bike_id":"68c87299-200d-400f-ae19-812a85a97ad7","system_id":"levelo_inurba_marseille","lat":43.309076,"lon":5.368465,"is_reserved":false,"is_disabled":false,"rental_uris":{"android":"levelo://app?vid=68c87299-200d-400f-ae19-812a85a97ad7","ios":"levelo://app?vid=68c87299-200d-400f-ae19-812a85a97ad7"},"vehicle_type_id":"4","last_reported":1679137549,"current_range_meters":800,"station_id":"ce4bgn92rcd13ifvqbvg","pricing_plan_id":"free"},{"bike_id":"4539ef50-676b-47a7-a6a1-2f9e8abcf40c","system_id":"levelo_inurba_marseille","lat":43.30904,"lon":5.36856,"is_reserved":false,"is_disabled":false,"rental_uris":{"android":"levelo://app?vid=4539ef50-676b-47a7-a6a1-2f9e8abcf40c","ios":"levelo://app?vid=4539ef50-676b-47a7-a6a1-2f9e8abcf40c"},"vehicle_type_id":"4","last_reported":1679137549,"current_range_meters":31600,"station_id":"","pricing_plan_id":"free"},{"bike_id":"407d6005-a3e9-4dd9-a002-334398564341","system_id":"levelo_inurba_marseille","lat":43.314811,"lon":5.373103,"is_reserved":false,"is_disabled":false,"rental_uris":{"android":"levelo://app?vid=407d6005-a3e9-4dd9-a002-334398564341","ios":"levelo://app?vid=407d6005-a3e9-4dd9-a002-334398564341"},"vehicle_type_id":"4","last_reported":1679137549,"current_range_meters":27600,"station_id":"ce4bgt12rcd13ifvqcd0","pricing_plan_id":"free"},{"bike_id":"b5a47ac1-2fad-4a34-b1a8-382e603ad9cc","system_id":"levelo_inurba_marseille","lat":43.306435,"lon":5.373585,"is_reserved":false,"is_disabled":false,"rental_uris":{"android":"levelo://app?vid=b5a47ac1-2fad-4a34-b1a8-382e603ad9cc","ios":"levelo://app?vid=b5a47ac1-2fad-4a34-b1a8-382e603ad9cc"},"vehicle_type_id":"4","last_reported":1679137549,"current_range_meters":20400,"station_id":"","pricing_plan_id":"free"},{"bike_id":"572f6e8f-2886-4dee-b96f-0dfadddbb5b5","system_id":"levelo_inurba_marseille","lat":43.317075,"lon":5.377367,"is_reserved":false,"is_disabled":false,"rental_uris":{"android":"levelo://app?vid=572f6e8f-2886-4dee-b96f-0dfadddbb5b5","ios":"levelo://app?vid=572f6e8f-2886-4dee-b96f-0dfadddbb5b5"},"vehicle_type_id":"4","last_reported":1679137549,"current_range_meters":5600,"station_id":"ce4bgth2rcd13ifvqch0","pricing_plan_id":"free"},{"bike_id":"80fd8269-f702-4847-b24b-ccd7ee9b4fb4","system_id":"levelo_inurba_marseille","lat":43.305425,"lon":5.37624,"is_reserved":false,"is_disabled":false,"rental_uris":{"android":"levelo://app?vid=80fd8269-f702-4847-b24b-ccd7ee9b4fb4","ios":"levelo://app?vid=80fd8269-f702-4847-b24b-ccd7ee9b4fb4"},"vehicle_type_id":"4","last_reported":1679137549,"current_range_meters":17600,"station_id":"","pricing_plan_id":"free"},{"bike_id":"5e2ca681-bbd3-4797-bff4-0561e225d840","system_id":"levelo_inurba_marseille","lat":43.308012,"lon":5.381511,"is_reserved":false,"is_disabled":false,"rental_uris":{"android":"levelo://app?vid=5e2ca681-bbd3-4797-bff4-0561e225d840","ios":"levelo://app?vid=5e2ca681-bbd3-4797-bff4-0561e225d840"},"vehicle_type_id":"4","last_reported":1679137549,"current_range_meters":17200,"station_id":"ce4bgt12rcd13ifvqce0","pricing_plan_id":"free"},{"bike_id":"82c70a27-7014-4ee5-85fb-4d89453ce77a","system_id":"levelo_inurba_marseille","lat":43.30479,"lon":5.37905,"is_reserved":false,"is_disabled":false,"rental_uris":{"android":"levelo://app?vid=82c70a27-7014-4ee5-85fb-4d89453ce77a","ios":"levelo://app?vid=82c70a27-7014-4ee5-85fb-4d89453ce77a"},"vehicle_type_id":"4","last_reported":1679137549,"current_range_meters":4800,"station_id":"ce4bgup2rcd13ifvqcn0","pricing_plan_id":"free"},{"bike_id":"6db4323b-26e6-4cb4-8851-5e160a9fe940","system_id":"levelo_inurba_marseille","lat":43.304606,"lon":5.379026,"is_reserved":false,"is_disabled":false,"rental_uris":{"android":"levelo://app?vid=6db4323b-26e6-4cb4-8851-5e160a9fe940","ios":"levelo://app?vid=6db4323b-26e6-4cb4-8851-5e160a9fe940"},"vehicle_type_id":"4","last_reported":1679137549,"current_range_meters":28400,"station_id":"ce4bgup2rcd13ifvqcn0","pricing_plan_id":"free"},{"bike_id":"ccf574be-f158-4f67-a1eb-567904ca93a5","system_id":"levelo_inurba_marseille","lat":43.304606,"lon":5.379026,"is_reserved":false,"is_disabled":false,"rental_uris":{"android":"levelo://app?vid=ccf574be-f158-4f67-a1eb-567904ca93a5","ios":"levelo://app?vid=ccf574be-f158-4f67-a1eb-567904ca93a5"},"vehicle_type_id":"4","last_reported":1679137549,"current_range_meters":31200,"station_id":"ce4bgup2rcd13ifvqcn0","pricing_plan_id":"free"},{"bike_id":"ff93788e-693f-441a-ba6a-8419085c29f2","system_id":"levelo_inurba_marseille","lat":43.304606,"lon":5.379026,"is_reserved":false,"is_disabled":false,"rental_uris":{"android":"levelo://app?vid=ff93788e-693f-441a-ba6a-8419085c29f2","ios":"levelo://app?vid=ff93788e-693f-441a-ba6a-8419085c29f2"},"vehicle_type_id":"4","last_reported":1679137549,"current_range_meters":3600,"station_id":"ce4bgup2rcd13ifvqcn0","pricing_plan_id":"free"},{"bike_id":"add9d283-03c0-4956-813e-707acf1aa471","system_id":"levelo_inurba_marseille","lat":43.304606,"lon":5.379026,"is_reserved":false,"is_disabled":false,"rental_uris":{"android":"levelo://app?vid=add9d283-03c0-4956-813e-707acf1aa471","ios":"levelo://app?vid=add9d283-03c0-4956-813e-707acf1aa471"},"vehicle_type_id":"4","last_reported":1679137549,"current_range_meters":16400,"station_id":"ce4bgup2rcd13ifvqcn0","pricing_plan_id":"free"},{"bike_id":"5eab96fc-3952-4ad2-8abc-ea4feb8a7d90","system_id":"levelo_inurba_marseille","lat":43.304606,"lon":5.379026,"is_reserved":false,"is_disabled":false,"rental_uris":{"android":"levelo://app?vid=5eab96fc-3952-4ad2-8abc-ea4feb8a7d90","ios":"levelo://app?vid=5eab96fc-3952-4ad2-8abc-ea4feb8a7d90"},"vehicle_type_id":"4","last_reported":1679137549,"current_range_meters":13200,"station_id":"ce4bgup2rcd13ifvqcn0","pricing_plan_id":"free"},{"bike_id":"967215d4-8d36-4b4b-b62b-35cb5d83f5e2","system_id":"levelo_inurba_marseille","lat":43.30143,"lon":5.37413,"is_reserved":false,"is_disabled":false,"rental_uris":{"android":"levelo://app?vid=967215d4-8d36-4b4b-b62b-35cb5d83f5e2","ios":"levelo://app?vid=967215d4-8d36-4b4b-b62b-35cb5d83f5e2"},"vehicle_type_id":"4","last_reported":1679137549,"current_range_meters":31600,"station_id":"ce4bgs92rcd13ifvqcc0","pricing_plan_id":"free"},{"bike_id":"212f21a2-1096-465f-b0fd-136e3a84bd29","system_id":"levelo_inurba_marseille","lat":43.313663,"lon":5.38498,"is_reserved":false,"is_disabled":false,"rental_uris":{"android":"levelo://app?vid=212f21a2-1096-465f-b0fd-136e3a84bd29","ios":"levelo://app?vid=212f21a2-1096-465f-b0fd-136e3a84bd29"},"vehicle_type_id":"4","last_reported":1679137549,"current_range_meters":28400,"station_id":"","pricing_plan_id":"free"},{"bike_id":"8f6585ad-5434-49bb-9d11-d0c307e238cb","system_id":"levelo_inurba_marseille","lat":43.31523,"lon":5.3858,"is_reserved":false,"is_disabled":false,"rental_uris":{"android":"levelo://app?vid=8f6585ad-5434-49bb-9d11-d0c307e238cb","ios":"levelo://app?vid=8f6585ad-5434-49bb-9d11-d0c307e238cb"},"vehicle_type_id":"4","last_reported":1679137549,"current_range_meters":0,"station_id":"","pricing_plan_id":"free"},{"bike_id":"ccbdecd2-3e1c-44cb-91f2-944239ccaba2","system_id":"levelo_inurba_marseille","lat":43.298433,"lon":5.362774,"is_reserved":false,"is_disabled":false,"rental_uris":{"android":"levelo://app?vid=ccbdecd2-3e1c-44cb-91f2-944239ccaba2","ios":"levelo://app?vid=ccbdecd2-3e1c-44cb-91f2-944239ccaba2"},"vehicle_type_id":"4","last_reported":1679137549,"current_range_meters":28000,"station_id":"ce4bgpp2rcd13ifvqc3g","pricing_plan_id":"free"},{"bike_id":"ca94c564-ec13-474e-b346-182dc26ff745","system_id":"levelo_inurba_marseille","lat":43.305356,"lon":5.384248,"is_reserved":false,"is_disabled":false,"rental_uris":{"android":"levelo://app?vid=ca94c564-ec13-474e-b346-182dc26ff745","ios":"levelo://app?vid=ca94c564-ec13-474e-b346-182dc26ff745"},"vehicle_type_id":"4","last_reported":1679137549,"current_range_meters":20400,"station_id":"ce4bgg92rcd13ifvqb30","pricing_plan_id":"free"},{"bike_id":"79d19069-ec08-40f8-b179-b69c755cd57e","system_id":"levelo_inurba_marseille","lat":43.298433,"lon":5.362774,"is_reserved":false,"is_disabled":false,"rental_uris":{"android":"levelo://app?vid=79d19069-ec08-40f8-b179-b69c755cd57e","ios":"levelo://app?vid=79d19069-ec08-40f8-b179-b69c755cd57e"},"vehicle_type_id":"4","last_reported":1679137549,"current_range_meters":10400,"station_id":"ce4bgpp2rcd13ifvqc3g","pricing_plan_id":"free"},{"bike_id":"a508872a-9d97-4b5b-bcba-f7157ec2aa37","system_id":"levelo_inurba_marseille","lat":43.298433,"lon":5.362774,"is_reserved":false,"is_disabled":false,"rental_uris":{"android":"levelo://app?vid=a508872a-9d97-4b5b-bcba-f7157ec2aa37","ios":"levelo://app?vid=a508872a-9d97-4b5b-bcba-f7157ec2aa37"},"vehicle_type_id":"4","last_reported":1679137549,"current_range_meters":8800,"station_id":"ce4bgpp2rcd13ifvqc3g","pricing_plan_id":"free"},{"bike_id":"3998b253-cb56-4f44-8594-477ac1b5c3c6","system_id":"levelo_inurba_marseille","lat":43.2991,"lon":5.37471,"is_reserved":false,"is_disabled":false,"rental_uris":{"android":"levelo://app?vid=3998b253-cb56-4f44-8594-477ac1b5c3c6","ios":"levelo://app?vid=3998b253-cb56-4f44-8594-477ac1b5c3c6"},"vehicle_type_id":"4","last_reported":1679137549,"current_range_meters":18800,"station_id":"","pricing_plan_id":"free"},{"bike_id":"1bc841ab-c3b2-4a5b-a1ef-cf84bfadbe9d","system_id":"levelo_inurba_marseille","lat":43.299103,"lon":5.374763,"is_reserved":false,"is_disabled":false,"rental_uris":{"android":"levelo://app?vid=1bc841ab-c3b2-4a5b-a1ef-cf84bfadbe9d","ios":"levelo://app?vid=1bc841ab-c3b2-4a5b-a1ef-cf84bfadbe9d"},"vehicle_type_id":"4","last_reported":1679137549,"current_range_meters":29200,"station_id":"","pricing_plan_id":"free"},{"bike_id":"98387c0e-78cc-4deb-990f-611eab5ee203","system_id":"levelo_inurba_marseille","lat":43.297808,"lon":5.371105,"is_reserved":false,"is_disabled":false,"rental_uris":{"android":"levelo://app?vid=98387c0e-78cc-4deb-990f-611eab5ee203","ios":"levelo://app?vid=98387c0e-78cc-4deb-990f-611eab5ee203"},"vehicle_type_id":"4","last_reported":1679137549,"current_range_meters":0,"station_id":"ce4bgop2rcd13ifvqc1g","pricing_plan_id":"free"},{"bike_id":"9e35a879-b364-46ce-a485-2e712978f1a5","system_id":"levelo_inurba_marseille","lat":43.296814,"lon":5.372848,"is_reserved":false,"is_disabled":false,"rental_uris":{"android":"levelo://app?vid=9e35a879-b364-46ce-a485-2e712978f1a5","ios":"levelo://app?vid=9e35a879-b364-46ce-a485-2e712978f1a5"},"vehicle_type_id":"4","last_reported":1679137549,"current_range_meters":31200,"station_id":"ce4bgk12rcd13ifvqbj0","pricing_plan_id":"free"},{"bike_id":"f3bb4fab-0b57-42cf-99cf-3af47e697fa1","system_id":"levelo_inurba_marseille","lat":43.31755,"lon":5.39014,"is_reserved":false,"is_disabled":false,"rental_uris":{"android":"levelo://app?vid=f3bb4fab-0b57-42cf-99cf-3af47e697fa1","ios":"levelo://app?vid=f3bb4fab-0b57-42cf-99cf-3af47e697fa1"},"vehicle_type_id":"4","last_reported":1679137549,"current_range_meters":6000,"station_id":"","pricing_plan_id":"free"},{"bike_id":"94281df2-49ea-451c-8ef9-c4e3e7663544","system_id":"levelo_inurba_marseille","lat":43.31756,"lon":5.39016,"is_reserved":false,"is_disabled":false,"rental_uris":{"android":"levelo://app?vid=94281df2-49ea-451c-8ef9-c4e3e7663544","ios":"levelo://app?vid=94281df2-49ea-451c-8ef9-c4e3e7663544"},"vehicle_type_id":"4","last_reported":1679137549,"current_range_meters":21200,"station_id":"ce4bhqp2rcd13ifvqhng","pricing_plan_id":"free"},{"bike_id":"02f93a76-c55f-4f6b-8202-b139cae6a9a5","system_id":"levelo_inurba_marseille","lat":43.317557,"lon":5.390173,"is_reserved":false,"is_disabled":false,"rental_uris":{"android":"levelo://app?vid=02f93a76-c55f-4f6b-8202-b139cae6a9a5","ios":"levelo://app?vid=02f93a76-c55f-4f6b-8202-b139cae6a9a5"},"vehicle_type_id":"4","last_reported":1679137549,"current_range_meters":21200,"station_id":"ce4bhqp2rcd13ifvqhng","pricing_plan_id":"free"},{"bike_id":"4dafff6b-9621-4e2b-86a4-abd86b4f6566","system_id":"levelo_inurba_marseille","lat":43.3176,"lon":5.39017,"is_reserved":false,"is_disabled":false,"rental_uris":{"android":"levelo://app?vid=4dafff6b-9621-4e2b-86a4-abd86b4f6566","ios":"levelo://app?vid=4dafff6b-9621-4e2b-86a4-abd86b4f6566"},"vehicle_type_id":"4","last_reported":1679137549,"current_range_meters":0,"station_id":"ce4bhqp2rcd13ifvqhng","pricing_plan_id":"free"},{"bike_id":"0dd82044-24a0-4753-a67a-2ac8767c190a","system_id":"levelo_inurba_marseille","lat":43.317557,"lon":5.390173,"is_reserved":false,"is_disabled":false,"rental_uris":{"android":"levelo://app?vid=0dd82044-24a0-4753-a67a-2ac8767c190a","ios":"levelo://app?vid=0dd82044-24a0-4753-a67a-2ac8767c190a"},"vehicle_type_id":"4","last_reported":1679137549,"current_range_meters":30000,"station_id":"ce4bhqp2rcd13ifvqhng","pricing_plan_id":"free"},{"bike_id":"5971bedb-4e55-4cca-a827-15c1c85bce63","system_id":"levelo_inurba_marseille","lat":43.2997,"lon":5.384932,"is_reserved":false,"is_disabled":false,"rental_uris":{"android":"levelo://app?vid=5971bedb-4e55-4cca-a827-15c1c85bce63","ios":"levelo://app?vid=5971bedb-4e55-4cca-a827-15c1c85bce63"},"vehicle_type_id":"4","last_reported":1679137549,"current_range_meters":0,"station_id":"ce4bgj92rcd13ifvqbd0","pricing_plan_id":"free"},{"bike_id":"ffa62f5c-14f2-4fb8-a187-88e43283bef6","system_id":"levelo_inurba_marseille","lat":43.29972,"lon":5.38499,"is_reserved":false,"is_disabled":false,"rental_uris":{"android":"levelo://app?vid=ffa62f5c-14f2-4fb8-a187-88e43283bef6","ios":"levelo://app?vid=ffa62f5c-14f2-4fb8-a187-88e43283bef6"},"vehicle_type_id":"4","last_reported":1679137549,"current_range_meters":14000,"station_id":"ce4bgj92rcd13ifvqbd0","pricing_plan_id":"free"},{"bike_id":"f200a91b-2ec0-40a7-8800-cf7736b13884","system_id":"levelo_inurba_marseille","lat":43.29968,"lon":5.38495,"is_reserved":false,"is_disabled":false,"rental_uris":{"android":"levelo://app?vid=f200a91b-2ec0-40a7-8800-cf7736b13884","ios":"levelo://app?vid=f200a91b-2ec0-40a7-8800-cf7736b13884"},"vehicle_type_id":"4","last_reported":1679137549,"current_range_meters":24400,"station_id":"","pricing_plan_id":"free"},{"bike_id":"1ba1eb34-6e47-49ac-9079-c9ca3cfe0078","system_id":"levelo_inurba_marseille","lat":43.32367,"lon":5.388836,"is_reserved":false,"is_disabled":false,"rental_uris":{"android":"levelo://app?vid=1ba1eb34-6e47-49ac-9079-c9ca3cfe0078","ios":"levelo://app?vid=1ba1eb34-6e47-49ac-9079-c9ca3cfe0078"},"vehicle_type_id":"4","last_reported":1679137549,"current_range_meters":0,"station_id":"ce4bhqp2rcd13ifvqhog","pricing_plan_id":"free"},{"bike_id":"5bff09d5-edd7-430d-8856-a801401bb174","system_id":"levelo_inurba_marseille","lat":43.32367,"lon":5.388836,"is_reserved":false,"is_disabled":false,"rental_uris":{"android":"levelo://app?vid=5bff09d5-edd7-430d-8856-a801401bb174","ios":"levelo://app?vid=5bff09d5-edd7-430d-8856-a801401bb174"},"vehicle_type_id":"4","last_reported":1679137549,"current_range_meters":16000,"station_id":"ce4bhqp2rcd13ifvqhog","pricing_plan_id":"free"},{"bike_id":"02f0d5b4-f832-4894-bcd6-3eb3e92ff03e","system_id":"levelo_inurba_marseille","lat":43.32367,"lon":5.388836,"is_reserved":false,"is_disabled":false,"rental_uris":{"android":"levelo://app?vid=02f0d5b4-f832-4894-bcd6-3eb3e92ff03e","ios":"levelo://app?vid=02f0d5b4-f832-4894-bcd6-3eb3e92ff03e"},"vehicle_type_id":"4","last_reported":1679137549,"current_range_meters":18400,"station_id":"ce4bhqp2rcd13ifvqhog","pricing_plan_id":"free"},{"bike_id":"e09d8415-f4c0-488c-86fa-02843db0bbc0","system_id":"levelo_inurba_marseille","lat":43.29308,"lon":5.37183,"is_reserved":false,"is_disabled":false,"rental_uris":{"android":"levelo://app?vid=e09d8415-f4c0-488c-86fa-02843db0bbc0","ios":"levelo://app?vid=e09d8415-f4c0-488c-86fa-02843db0bbc0"},"vehicle_type_id":"4","last_reported":1679137549,"current_range_meters":22000,"station_id":"","pricing_plan_id":"free"},{"bike_id":"fe68128f-1fcc-49e7-b11d-1d6a55b69e98","system_id":"levelo_inurba_marseille","lat":43.293009,"lon":5.374584,"is_reserved":false,"is_disabled":false,"rental_uris":{"android":"levelo://app?vid=fe68128f-1fcc-49e7-b11d-1d6a55b69e98","ios":"levelo://app?vid=fe68128f-1fcc-49e7-b11d-1d6a55b69e98"},"vehicle_type_id":"4","last_reported":1679137549,"current_range_meters":20000,"station_id":"ce4bgi12rcd13ifvqb70","pricing_plan_id":"free"},{"bike_id":"95f8f483-56c1-4147-a682-b005a68ce3d8","system_id":"levelo_inurba_marseille","lat":43.29307,"lon":5.37461,"is_reserved":false,"is_disabled":false,"rental_uris":{"android":"levelo://app?vid=95f8f483-56c1-4147-a682-b005a68ce3d8","ios":"levelo://app?vid=95f8f483-56c1-4147-a682-b005a68ce3d8"},"vehicle_type_id":"4","last_reported":1679137549,"current_range_meters":11200,"station_id":"ce4bgi12rcd13ifvqb70","pricing_plan_id":"free"},{"bike_id":"0474e54e-e46c-492b-88a0-c26758345b61","system_id":"levelo_inurba_marseille","lat":43.29302,"lon":5.37452,"is_reserved":false,"is_disabled":false,"rental_uris":{"android":"levelo://app?vid=0474e54e-e46c-492b-88a0-c26758345b61","ios":"levelo://app?vid=0474e54e-e46c-492b-88a0-c26758345b61"},"vehicle_type_id":"4","last_reported":1679137549,"current_range_meters":0,"station_id":"ce4bgi12rcd13ifvqb70","pricing_plan_id":"free"},{"bike_id":"52dea411-aef0-4779-8f3b-f01173eab910","system_id":"levelo_inurba_marseille","lat":43.293009,"lon":5.374584,"is_reserved":false,"is_disabled":false,"rental_uris":{"android":"levelo://app?vid=52dea411-aef0-4779-8f3b-f01173eab910","ios":"levelo://app?vid=52dea411-aef0-4779-8f3b-f01173eab910"},"vehicle_type_id":"4","last_reported":1679137549,"current_range_meters":10400,"station_id":"ce4bgi12rcd13ifvqb70","pricing_plan_id":"free"},{"bike_id":"ee1007a9-aaad-4df9-a12d-c6e9ab90980c","system_id":"levelo_inurba_marseille","lat":43.29301,"lon":5.37461,"is_reserved":false,"is_disabled":false,"rental_uris":{"android":"levelo://app?vid=ee1007a9-aaad-4df9-a12d-c6e9ab90980c","ios":"levelo://app?vid=ee1007a9-aaad-4df9-a12d-c6e9ab90980c"},"vehicle_type_id":"4","last_reported":1679137549,"current_range_meters":15600,"station_id":"ce4bgi12rcd13ifvqb70","pricing_plan_id":"free"},{"bike_id":"40e77eb5-2c07-407f-a6df-1b13bb06d5ba","system_id":"levelo_inurba_marseille","lat":43.29226,"lon":5.360644,"is_reserved":false,"is_disabled":false,"rental_uris":{"android":"levelo://app?vid=40e77eb5-2c07-407f-a6df-1b13bb06d5ba","ios":"levelo://app?vid=40e77eb5-2c07-407f-a6df-1b13bb06d5ba"},"vehicle_type_id":"4","last_reported":1679137549,"current_range_meters":24400,"station_id":"ce4bhbh2rcd13ifvqeqg","pricing_plan_id":"free"},{"bike_id":"72ecc823-da40-4350-9c78-78e3b63736f0","system_id":"levelo_inurba_marseille","lat":43.300852,"lon":5.390859,"is_reserved":false,"is_disabled":false,"rental_uris":{"android":"levelo://app?vid=72ecc823-da40-4350-9c78-78e3b63736f0","ios":"levelo://app?vid=72ecc823-da40-4350-9c78-78e3b63736f0"},"vehicle_type_id":"4","last_reported":1679137549,"current_range_meters":10400,"station_id":"ce4bh192rcd13ifvqdb0","pricing_plan_id":"free"},{"bike_id":"575d7e69-108a-4e8d-9515-8253b8519f9c","system_id":"levelo_inurba_marseille","lat":43.29529,"lon":5.385581,"is_reserved":false,"is_disabled":false,"rental_uris":{"android":"levelo://app?vid=575d7e69-108a-4e8d-9515-8253b8519f9c","ios":"levelo://app?vid=575d7e69-108a-4e8d-9515-8253b8519f9c"},"vehicle_type_id":"4","last_reported":1679137549,"current_range_meters":22800,"station_id":"ce4bgih2rcd13ifvqba0","pricing_plan_id":"free"},{"bike_id":"bea79c4d-800f-4417-8a50-f99899e87ee8","system_id":"levelo_inurba_marseille","lat":43.313291,"lon":5.396838,"is_reserved":false,"is_disabled":false,"rental_uris":{"android":"levelo://app?vid=bea79c4d-800f-4417-8a50-f99899e87ee8","ios":"levelo://app?vid=bea79c4d-800f-4417-8a50-f99899e87ee8"},"vehicle_type_id":"4","last_reported":1679137549,"current_range_meters":29200,"station_id":"ce4bgvp2rcd13ifvqcu0","pricing_plan_id":"free"},{"bike_id":"744e5e9d-2f71-40a4-a1c0-2cabd6f34905","system_id":"levelo_inurba_marseille","lat":43.313291,"lon":5.396838,"is_reserved":false,"is_disabled":false,"rental_uris":{"android":"levelo://app?vid=744e5e9d-2f71-40a4-a1c0-2cabd6f34905","ios":"levelo://app?vid=744e5e9d-2f71-40a4-a1c0-2cabd6f34905"},"vehicle_type_id":"4","last_reported":1679137549,"current_range_meters":7600,"station_id":"ce4bgvp2rcd13ifvqcu0","pricing_plan_id":"free"},{"bike_id":"486beaed-628f-4bcc-ba3b-e0de696bd3dc","system_id":"levelo_inurba_marseille","lat":43.32221,"lon":5.39424,"is_reserved":false,"is_disabled":false,"rental_uris":{"android":"levelo://app?vid=486beaed-628f-4bcc-ba3b-e0de696bd3dc","ios":"levelo://app?vid=486beaed-628f-4bcc-ba3b-e0de696bd3dc"},"vehicle_type_id":"4","last_reported":1679137549,"current_range_meters":11200,"station_id":"","pricing_plan_id":"free"},{"bike_id":"9d73986e-53f2-4d21-8972-8af2b0a00712","system_id":"levelo_inurba_marseille","lat":43.290755,"lon":5.371861,"is_reserved":false,"is_disabled":false,"rental_uris":{"android":"levelo://app?vid=9d73986e-53f2-4d21-8972-8af2b0a00712","ios":"levelo://app?vid=9d73986e-53f2-4d21-8972-8af2b0a00712"},"vehicle_type_id":"4","last_reported":1679137549,"current_range_meters":9600,"station_id":"ce4bh5p2rcd13ifvqe4g","pricing_plan_id":"free"},{"bike_id":"04074a47-6778-47cd-9e70-878060bb4138","system_id":"levelo_inurba_marseille","lat":43.302008,"lon":5.394694,"is_reserved":false,"is_disabled":false,"rental_uris":{"android":"levelo://app?vid=04074a47-6778-47cd-9e70-878060bb4138","ios":"levelo://app?vid=04074a47-6778-47cd-9e70-878060bb4138"},"vehicle_type_id":"4","last_reported":1679137549,"current_range_meters":10400,"station_id":"ce4bh0p2rcd13ifvqd70","pricing_plan_id":"free"},{"bike_id":"1ce5f4c4-0ab6-4cc4-ae7b-97d3d4680529","system_id":"levelo_inurba_marseille","lat":43.302008,"lon":5.394694,"is_reserved":false,"is_disabled":false,"rental_uris":{"android":"levelo://app?vid=1ce5f4c4-0ab6-4cc4-ae7b-97d3d4680529","ios":"levelo://app?vid=1ce5f4c4-0ab6-4cc4-ae7b-97d3d4680529"},"vehicle_type_id":"4","last_reported":1679137549,"current_range_meters":31600,"station_id":"ce4bh0p2rcd13ifvqd70","pricing_plan_id":"free"},{"bike_id":"8ffa5caa-f4ef-4bc9-87d7-c07a9501c858","system_id":"levelo_inurba_marseille","lat":43.302008,"lon":5.394694,"is_reserved":false,"is_disabled":false,"rental_uris":{"android":"levelo://app?vid=8ffa5caa-f4ef-4bc9-87d7-c07a9501c858","ios":"levelo://app?vid=8ffa5caa-f4ef-4bc9-87d7-c07a9501c858"},"vehicle_type_id":"4","last_reported":1679137549,"current_range_meters":22800,"station_id":"ce4bh0p2rcd13ifvqd70","pricing_plan_id":"free"},{"bike_id":"ed21a93d-b737-4351-ae89-870491878806","system_id":"levelo_inurba_marseille","lat":43.302008,"lon":5.394694,"is_reserved":false,"is_disabled":false,"rental_uris":{"android":"levelo://app?vid=ed21a93d-b737-4351-ae89-870491878806","ios":"levelo://app?vid=ed21a93d-b737-4351-ae89-870491878806"},"vehicle_type_id":"4","last_reported":1679137549,"current_range_meters":25200,"station_id":"ce4bh0p2rcd13ifvqd70","pricing_plan_id":"free"},{"bike_id":"7aefd4c4-4ee9-47be-a549-1a907ea427a6","system_id":"levelo_inurba_marseille","lat":43.302008,"lon":5.394694,"is_reserved":false,"is_disabled":false,"rental_uris":{"android":"levelo://app?vid=7aefd4c4-4ee9-47be-a549-1a907ea427a6","ios":"levelo://app?vid=7aefd4c4-4ee9-47be-a549-1a907ea427a6"},"vehicle_type_id":"4","last_reported":1679137549,"current_range_meters":19200,"station_id":"ce4bh0p2rcd13ifvqd70","pricing_plan_id":"free"},{"bike_id":"fb61b3be-5e22-42d5-8cb6-fcf2cc23418d","system_id":"levelo_inurba_marseille","lat":43.294154,"lon":5.386343,"is_reserved":false,"is_disabled":false,"rental_uris":{"android":"levelo://app?vid=fb61b3be-5e22-42d5-8cb6-fcf2cc23418d","ios":"levelo://app?vid=fb61b3be-5e22-42d5-8cb6-fcf2cc23418d"},"vehicle_type_id":"4","last_reported":1679137549,"current_range_meters":0,"station_id":"ce4bh2h2rcd13ifvqdh0","pricing_plan_id":"free"},{"bike_id":"3a789127-3e1e-4f8e-9f5c-cbcaf88eabbd","system_id":"levelo_inurba_marseille","lat":43.294033,"lon":5.386371,"is_reserved":false,"is_disabled":false,"rental_uris":{"android":"levelo://app?vid=3a789127-3e1e-4f8e-9f5c-cbcaf88eabbd","ios":"levelo://app?vid=3a789127-3e1e-4f8e-9f5c-cbcaf88eabbd"},"vehicle_type_id":"4","last_reported":1679137549,"current_range_meters":12400,"station_id":"ce4bh2h2rcd13ifvqdh0","pricing_plan_id":"free"},{"bike_id":"bb3b3cee-b3de-4952-b882-fa911f225f43","system_id":"levelo_inurba_marseille","lat":43.33039,"lon":5.3892,"is_reserved":false,"is_disabled":false,"rental_uris":{"android":"levelo://app?vid=bb3b3cee-b3de-4952-b882-fa911f225f43","ios":"levelo://app?vid=bb3b3cee-b3de-4952-b882-fa911f225f43"},"vehicle_type_id":"4","last_reported":1679137549,"current_range_meters":31600,"station_id":"","pricing_plan_id":"free"},{"bike_id":"280ae56b-0efa-445c-987c-0d35124d9b27","system_id":"levelo_inurba_marseille","lat":43.33045,"lon":5.38916,"is_reserved":false,"is_disabled":false,"rental_uris":{"android":"levelo://app?vid=280ae56b-0efa-445c-987c-0d35124d9b27","ios":"levelo://app?vid=280ae56b-0efa-445c-987c-0d35124d9b27"},"vehicle_type_id":"4","last_reported":1679137549,"current_range_meters":16800,"station_id":"ce4bhr92rcd13ifvqhrg","pricing_plan_id":"free"},{"bike_id":"a9d7c170-05d1-4c4f-a223-2a3feddf11a5","system_id":"levelo_inurba_marseille","lat":43.330442,"lon":5.389148,"is_reserved":false,"is_disabled":false,"rental_uris":{"android":"levelo://app?vid=a9d7c170-05d1-4c4f-a223-2a3feddf11a5","ios":"levelo://app?vid=a9d7c170-05d1-4c4f-a223-2a3feddf11a5"},"vehicle_type_id":"4","last_reported":1679137549,"current_range_meters":11600,"station_id":"ce4bhr92rcd13ifvqhrg","pricing_plan_id":"free"},{"bike_id":"ce5219df-955e-48b7-90e4-7319b4bfed1a","system_id":"levelo_inurba_marseille","lat":43.33042,"lon":5.38922,"is_reserved":false,"is_disabled":false,"rental_uris":{"android":"levelo://app?vid=ce5219df-955e-48b7-90e4-7319b4bfed1a","ios":"levelo://app?vid=ce5219df-955e-48b7-90e4-7319b4bfed1a"},"vehicle_type_id":"4","last_reported":1679137549,"current_range_meters":20800,"station_id":"","pricing_plan_id":"free"},{"bike_id":"c1bd34d0-4610-48e2-8e02-8371529bb122","system_id":"levelo_inurba_marseille","lat":43.33045,"lon":5.38918,"is_reserved":false,"is_disabled":false,"rental_uris":{"android":"levelo://app?vid=c1bd34d0-4610-48e2-8e02-8371529bb122","ios":"levelo://app?vid=c1bd34d0-4610-48e2-8e02-8371529bb122"},"vehicle_type_id":"4","last_reported":1679137549,"current_range_meters":8400,"station_id":"","pricing_plan_id":"free"},{"bike_id":"28eab2d0-d0b6-4985-a27f-5565370b1b3f","system_id":"levelo_inurba_marseille","lat":43.290995,"lon":5.381361,"is_reserved":false,"is_disabled":false,"rental_uris":{"android":"levelo://app?vid=28eab2d0-d0b6-4985-a27f-5565370b1b3f","ios":"levelo://app?vid=28eab2d0-d0b6-4985-a27f-5565370b1b3f"},"vehicle_type_id":"4","last_reported":1679137549,"current_range_meters":24000,"station_id":"ce4bh512rcd13ifvqe2g","pricing_plan_id":"free"},{"bike_id":"330db8ef-c748-47c5-8461-907e7274a784","system_id":"levelo_inurba_marseille","lat":43.295169,"lon":5.390426,"is_reserved":false,"is_disabled":false,"rental_uris":{"android":"levelo://app?vid=330db8ef-c748-47c5-8461-907e7274a784","ios":"levelo://app?vid=330db8ef-c748-47c5-8461-907e7274a784"},"vehicle_type_id":"4","last_reported":1679137549,"current_range_meters":14000,"station_id":"ce4bh3p2rcd13ifvqdp0","pricing_plan_id":"free"},{"bike_id":"f0888a5d-8469-4a4a-aa32-e51183159fbe","system_id":"levelo_inurba_marseille","lat":43.337437,"lon":5.374608,"is_reserved":false,"is_disabled":false,"rental_uris":{"android":"levelo://app?vid=f0888a5d-8469-4a4a-aa32-e51183159fbe","ios":"levelo://app?vid=f0888a5d-8469-4a4a-aa32-e51183159fbe"},"vehicle_type_id":"4","last_reported":1679137549,"current_range_meters":11600,"station_id":"","pricing_plan_id":"free"},{"bike_id":"97a70748-85a2-4139-aa8d-3426ee2a5b86","system_id":"levelo_inurba_marseille","lat":43.337501,"lon":5.374448,"is_reserved":false,"is_disabled":false,"rental_uris":{"android":"levelo://app?vid=97a70748-85a2-4139-aa8d-3426ee2a5b86","ios":"levelo://app?vid=97a70748-85a2-4139-aa8d-3426ee2a5b86"},"vehicle_type_id":"4","last_reported":1679137549,"current_range_meters":0,"station_id":"","pricing_plan_id":"free"},{"bike_id":"3691d997-1cad-46ed-b7e6-586680d35f2f","system_id":"levelo_inurba_marseille","lat":43.33748,"lon":5.374785,"is_reserved":false,"is_disabled":false,"rental_uris":{"android":"levelo://app?vid=3691d997-1cad-46ed-b7e6-586680d35f2f","ios":"levelo://app?vid=3691d997-1cad-46ed-b7e6-586680d35f2f"},"vehicle_type_id":"4","last_reported":1679137549,"current_range_meters":22000,"station_id":"","pricing_plan_id":"free"},{"bike_id":"f3e60a9c-2b74-43cb-ac11-5dfafdbb73c0","system_id":"levelo_inurba_marseille","lat":43.337559,"lon":5.374642,"is_reserved":false,"is_disabled":false,"rental_uris":{"android":"levelo://app?vid=f3e60a9c-2b74-43cb-ac11-5dfafdbb73c0","ios":"levelo://app?vid=f3e60a9c-2b74-43cb-ac11-5dfafdbb73c0"},"vehicle_type_id":"4","last_reported":1679137549,"current_range_meters":27200,"station_id":"","pricing_plan_id":"free"},{"bike_id":"28399e44-5a2f-432a-993c-d2cf41f7c93a","system_id":"levelo_inurba_marseille","lat":43.30642,"lon":5.401031,"is_reserved":false,"is_disabled":false,"rental_uris":{"android":"levelo://app?vid=28399e44-5a2f-432a-993c-d2cf41f7c93a","ios":"levelo://app?vid=28399e44-5a2f-432a-993c-d2cf41f7c93a"},"vehicle_type_id":"4","last_reported":1679137549,"current_range_meters":31600,"station_id":"ce4bh112rcd13ifvqda0","pricing_plan_id":"free"},{"bike_id":"4463fc57-a3e2-4cb4-bdef-ead0b2cc2c86","system_id":"levelo_inurba_marseille","lat":43.301117,"lon":5.398795,"is_reserved":false,"is_disabled":false,"rental_uris":{"android":"levelo://app?vid=4463fc57-a3e2-4cb4-bdef-ead0b2cc2c86","ios":"levelo://app?vid=4463fc57-a3e2-4cb4-bdef-ead0b2cc2c86"},"vehicle_type_id":"4","last_reported":1679137549,"current_range_meters":20000,"station_id":"ce4bh0h2rcd13ifvqd40","pricing_plan_id":"free"},{"bike_id":"33619fda-b350-456e-9721-36245cc27d37","system_id":"levelo_inurba_marseille","lat":43.298681,"lon":5.397225,"is_reserved":false,"is_disabled":false,"rental_uris":{"android":"levelo://app?vid=33619fda-b350-456e-9721-36245cc27d37","ios":"levelo://app?vid=33619fda-b350-456e-9721-36245cc27d37"},"vehicle_type_id":"4","last_reported":1679137549,"current_range_meters":22400,"station_id":"ce4bh0h2rcd13ifvqd50","pricing_plan_id":"free"},{"bike_id":"7d8123dd-d5d0-4bc1-b347-f4b12a3175c2","system_id":"levelo_inurba_marseille","lat":43.300707,"lon":5.39955,"is_reserved":false,"is_disabled":false,"rental_uris":{"android":"levelo://app?vid=7d8123dd-d5d0-4bc1-b347-f4b12a3175c2","ios":"levelo://app?vid=7d8123dd-d5d0-4bc1-b347-f4b12a3175c2"},"vehicle_type_id":"4","last_reported":1679137549,"current_range_meters":0,"station_id":"","pricing_plan_id":"free"},{"bike_id":"326c3110-a2e3-43cf-9b88-e4acbd426261","system_id":"levelo_inurba_marseille","lat":43.30259,"lon":5.40076,"is_reserved":false,"is_disabled":false,"rental_uris":{"android":"levelo://app?vid=326c3110-a2e3-43cf-9b88-e4acbd426261","ios":"levelo://app?vid=326c3110-a2e3-43cf-9b88-e4acbd426261"},"vehicle_type_id":"4","last_reported":1679137549,"current_range_meters":29200,"station_id":"ce4bgvh2rcd13ifvqcs0","pricing_plan_id":"free"},{"bike_id":"90ccd025-70f2-49cd-a1f2-ad98ff02d809","system_id":"levelo_inurba_marseille","lat":43.316517,"lon":5.404375,"is_reserved":false,"is_disabled":false,"rental_uris":{"android":"levelo://app?vid=90ccd025-70f2-49cd-a1f2-ad98ff02d809","ios":"levelo://app?vid=90ccd025-70f2-49cd-a1f2-ad98ff02d809"},"vehicle_type_id":"4","last_reported":1679137549,"current_range_meters":12000,"station_id":"ce4bh012rcd13ifvqd00","pricing_plan_id":"free"},{"bike_id":"debdf2f7-d015-441c-a2d5-be924e6a1370","system_id":"levelo_inurba_marseille","lat":43.316517,"lon":5.404375,"is_reserved":false,"is_disabled":false,"rental_uris":{"android":"levelo://app?vid=debdf2f7-d015-441c-a2d5-be924e6a1370","ios":"levelo://app?vid=debdf2f7-d015-441c-a2d5-be924e6a1370"},"vehicle_type_id":"4","last_reported":1679137549,"current_range_meters":22000,"station_id":"ce4bh012rcd13ifvqd00","pricing_plan_id":"free"},{"bike_id":"7da50cf2-84b2-4cdc-90b1-294cf45698cb","system_id":"levelo_inurba_marseille","lat":43.32342,"lon":5.40619,"is_reserved":false,"is_disabled":false,"rental_uris":{"android":"levelo://app?vid=7da50cf2-84b2-4cdc-90b1-294cf45698cb","ios":"levelo://app?vid=7da50cf2-84b2-4cdc-90b1-294cf45698cb"},"vehicle_type_id":"4","last_reported":1679137549,"current_range_meters":8400,"station_id":"ce4bhq92rcd13ifvqhjg","pricing_plan_id":"free"},{"bike_id":"8e10fd20-24dc-42c4-a864-fd4d474ca2c2","system_id":"levelo_inurba_marseille","lat":43.29282,"lon":5.4012,"is_reserved":false,"is_disabled":false,"rental_uris":{"android":"levelo://app?vid=8e10fd20-24dc-42c4-a864-fd4d474ca2c2","ios":"levelo://app?vid=8e10fd20-24dc-42c4-a864-fd4d474ca2c2"},"vehicle_type_id":"4","last_reported":1679137549,"current_range_meters":11200,"station_id":"ce4bh312rcd13ifvqdk0","pricing_plan_id":"free"},{"bike_id":"23c6bd2d-ca97-4d0c-bf83-f7536fb2651d","system_id":"levelo_inurba_marseille","lat":43.282744,"lon":5.350533,"is_reserved":false,"is_disabled":false,"rental_uris":{"android":"levelo://app?vid=23c6bd2d-ca97-4d0c-bf83-f7536fb2651d","ios":"levelo://app?vid=23c6bd2d-ca97-4d0c-bf83-f7536fb2651d"},"vehicle_type_id":"4","last_reported":1679137549,"current_range_meters":15200,"station_id":"ce4bhbp2rcd13ifvqerg","pricing_plan_id":"free"},{"bike_id":"bfd12b77-5122-446c-8b75-9f9f22256e70","system_id":"levelo_inurba_marseille","lat":43.282744,"lon":5.350533,"is_reserved":false,"is_disabled":false,"rental_uris":{"android":"levelo://app?vid=bfd12b77-5122-446c-8b75-9f9f22256e70","ios":"levelo://app?vid=bfd12b77-5122-446c-8b75-9f9f22256e70"},"vehicle_type_id":"4","last_reported":1679137549,"current_range_meters":8000,"station_id":"ce4bhbp2rcd13ifvqerg","pricing_plan_id":"free"},{"bike_id":"bf9ec56b-b3a5-446a-be66-b68e311ec1c9","system_id":"levelo_inurba_marseille","lat":43.28039,"lon":5.369297,"is_reserved":false,"is_disabled":false,"rental_uris":{"android":"levelo://app?vid=bf9ec56b-b3a5-446a-be66-b68e311ec1c9","ios":"levelo://app?vid=bf9ec56b-b3a5-446a-be66-b68e311ec1c9"},"vehicle_type_id":"4","last_reported":1679137549,"current_range_meters":3200,"station_id":"ce4bha12rcd13ifvqef0","pricing_plan_id":"free"},{"bike_id":"96955e6a-6d5a-4766-90ab-8459a7eef653","system_id":"levelo_inurba_marseille","lat":43.28099,"lon":5.37842,"is_reserved":false,"is_disabled":false,"rental_uris":{"android":"levelo://app?vid=96955e6a-6d5a-4766-90ab-8459a7eef653","ios":"levelo://app?vid=96955e6a-6d5a-4766-90ab-8459a7eef653"},"vehicle_type_id":"4","last_reported":1679137549,"current_range_meters":24800,"station_id":"ce4bha12rcd13ifvqee0","pricing_plan_id":"free"},{"bike_id":"9174fbeb-8f5c-4d3e-86fc-fe50c58f6e36","system_id":"levelo_inurba_marseille","lat":43.284462,"lon":5.392121,"is_reserved":false,"is_disabled":false,"rental_uris":{"android":"levelo://app?vid=9174fbeb-8f5c-4d3e-86fc-fe50c58f6e36","ios":"levelo://app?vid=9174fbeb-8f5c-4d3e-86fc-fe50c58f6e36"},"vehicle_type_id":"4","last_reported":1679137549,"current_range_meters":24000,"station_id":"ce4bhoh2rcd13ifvqh5g","pricing_plan_id":"free"},{"bike_id":"fd94f329-7a13-4190-8e3c-0c1eb267c7ec","system_id":"levelo_inurba_marseille","lat":43.304188,"lon":5.412904,"is_reserved":false,"is_disabled":false,"rental_uris":{"android":"levelo://app?vid=fd94f329-7a13-4190-8e3c-0c1eb267c7ec","ios":"levelo://app?vid=fd94f329-7a13-4190-8e3c-0c1eb267c7ec"},"vehicle_type_id":"4","last_reported":1679137549,"current_range_meters":24000,"station_id":"ce4bhop2rcd13ifvqh8g","pricing_plan_id":"free"},{"bike_id":"45393937-dcaf-44fb-9447-7c776899be08","system_id":"levelo_inurba_marseille","lat":43.304188,"lon":5.412904,"is_reserved":false,"is_disabled":false,"rental_uris":{"android":"levelo://app?vid=45393937-dcaf-44fb-9447-7c776899be08","ios":"levelo://app?vid=45393937-dcaf-44fb-9447-7c776899be08"},"vehicle_type_id":"4","last_reported":1679137549,"current_range_meters":29600,"station_id":"ce4bhop2rcd13ifvqh8g","pricing_plan_id":"free"},{"bike_id":"2f032b77-131f-41ac-bb8c-c73cf83f7ea0","system_id":"levelo_inurba_marseille","lat":43.304188,"lon":5.412904,"is_reserved":false,"is_disabled":false,"rental_uris":{"android":"levelo://app?vid=2f032b77-131f-41ac-bb8c-c73cf83f7ea0","ios":"levelo://app?vid=2f032b77-131f-41ac-bb8c-c73cf83f7ea0"},"vehicle_type_id":"4","last_reported":1679137549,"current_range_meters":26800,"station_id":"ce4bhop2rcd13ifvqh8g","pricing_plan_id":"free"},{"bike_id":"658b77a8-8b9e-400f-96d5-8a91c5d2380f","system_id":"levelo_inurba_marseille","lat":43.320045,"lon":5.415048,"is_reserved":false,"is_disabled":false,"rental_uris":{"android":"levelo://app?vid=658b77a8-8b9e-400f-96d5-8a91c5d2380f","ios":"levelo://app?vid=658b77a8-8b9e-400f-96d5-8a91c5d2380f"},"vehicle_type_id":"4","last_reported":1679137549,"current_range_meters":31600,"station_id":"ce4bhq92rcd13ifvqhkg","pricing_plan_id":"free"},{"bike_id":"cde36197-57e4-412a-b9f7-3cb80c390fd0","system_id":"levelo_inurba_marseille","lat":43.320045,"lon":5.415048,"is_reserved":false,"is_disabled":false,"rental_uris":{"android":"levelo://app?vid=cde36197-57e4-412a-b9f7-3cb80c390fd0","ios":"levelo://app?vid=cde36197-57e4-412a-b9f7-3cb80c390fd0"},"vehicle_type_id":"4","last_reported":1679137549,"current_range_meters":16000,"station_id":"ce4bhq92rcd13ifvqhkg","pricing_plan_id":"free"},{"bike_id":"1f546a56-315d-4be8-832b-53022259ca15","system_id":"levelo_inurba_marseille","lat":43.320045,"lon":5.415048,"is_reserved":false,"is_disabled":false,"rental_uris":{"android":"levelo://app?vid=1f546a56-315d-4be8-832b-53022259ca15","ios":"levelo://app?vid=1f546a56-315d-4be8-832b-53022259ca15"},"vehicle_type_id":"4","last_reported":1679137549,"current_range_meters":30800,"station_id":"ce4bhq92rcd13ifvqhkg","pricing_plan_id":"free"},{"bike_id":"e63b7c40-45c8-4a0e-8f35-eb897d4b615f","system_id":"levelo_inurba_marseille","lat":43.320045,"lon":5.415048,"is_reserved":false,"is_disabled":false,"rental_uris":{"android":"levelo://app?vid=e63b7c40-45c8-4a0e-8f35-eb897d4b615f","ios":"levelo://app?vid=e63b7c40-45c8-4a0e-8f35-eb897d4b615f"},"vehicle_type_id":"4","last_reported":1679137549,"current_range_meters":28800,"station_id":"ce4bhq92rcd13ifvqhkg","pricing_plan_id":"free"},{"bike_id":"e9dda882-ca58-4a46-a265-632de5ca5664","system_id":"levelo_inurba_marseille","lat":43.320045,"lon":5.415048,"is_reserved":false,"is_disabled":false,"rental_uris":{"android":"levelo://app?vid=e9dda882-ca58-4a46-a265-632de5ca5664","ios":"levelo://app?vid=e9dda882-ca58-4a46-a265-632de5ca5664"},"vehicle_type_id":"4","last_reported":1679137549,"current_range_meters":19600,"station_id":"ce4bhq92rcd13ifvqhkg","pricing_plan_id":"free"},{"bike_id":"c75e7d08-1d08-4ca1-9b13-f81bd533daf2","system_id":"levelo_inurba_marseille","lat":43.320045,"lon":5.415048,"is_reserved":false,"is_disabled":false,"rental_uris":{"android":"levelo://app?vid=c75e7d08-1d08-4ca1-9b13-f81bd533daf2","ios":"levelo://app?vid=c75e7d08-1d08-4ca1-9b13-f81bd533daf2"},"vehicle_type_id":"4","last_reported":1679137549,"current_range_meters":23600,"station_id":"ce4bhq92rcd13ifvqhkg","pricing_plan_id":"free"},{"bike_id":"bedb14d8-91ff-4e58-b812-4d3a7f033715","system_id":"levelo_inurba_marseille","lat":43.279742,"lon":5.38744,"is_reserved":false,"is_disabled":false,"rental_uris":{"android":"levelo://app?vid=bedb14d8-91ff-4e58-b812-4d3a7f033715","ios":"levelo://app?vid=bedb14d8-91ff-4e58-b812-4d3a7f033715"},"vehicle_type_id":"4","last_reported":1679137549,"current_range_meters":12400,"station_id":"ce4bhg12rcd13ifvqf80","pricing_plan_id":"free"},{"bike_id":"bcfb9e20-4843-439e-9b99-8c5749b87c4b","system_id":"levelo_inurba_marseille","lat":43.32037,"lon":5.41554,"is_reserved":false,"is_disabled":false,"rental_uris":{"android":"levelo://app?vid=bcfb9e20-4843-439e-9b99-8c5749b87c4b","ios":"levelo://app?vid=bcfb9e20-4843-439e-9b99-8c5749b87c4b"},"vehicle_type_id":"4","last_reported":1679137549,"current_range_meters":25600,"station_id":"","pricing_plan_id":"free"},{"bike_id":"294c327b-f36a-434b-848f-ee2f749a8453","system_id":"levelo_inurba_marseille","lat":43.320045,"lon":5.415048,"is_reserved":false,"is_disabled":false,"rental_uris":{"android":"levelo://app?vid=294c327b-f36a-434b-848f-ee2f749a8453","ios":"levelo://app?vid=294c327b-f36a-434b-848f-ee2f749a8453"},"vehicle_type_id":"4","last_reported":1679137549,"current_range_meters":30400,"station_id":"ce4bhq92rcd13ifvqhkg","pricing_plan_id":"free"},{"bike_id":"c34d57ec-4476-4cc1-a06c-036c66df0b9d","system_id":"levelo_inurba_marseille","lat":43.320045,"lon":5.415048,"is_reserved":false,"is_disabled":false,"rental_uris":{"android":"levelo://app?vid=c34d57ec-4476-4cc1-a06c-036c66df0b9d","ios":"levelo://app?vid=c34d57ec-4476-4cc1-a06c-036c66df0b9d"},"vehicle_type_id":"4","last_reported":1679137549,"current_range_meters":23200,"station_id":"ce4bhq92rcd13ifvqhkg","pricing_plan_id":"free"},{"bike_id":"7069e2c0-1abd-46b6-9db3-4b0bd07c23b1","system_id":"levelo_inurba_marseille","lat":43.279742,"lon":5.38744,"is_reserved":false,"is_disabled":false,"rental_uris":{"android":"levelo://app?vid=7069e2c0-1abd-46b6-9db3-4b0bd07c23b1","ios":"levelo://app?vid=7069e2c0-1abd-46b6-9db3-4b0bd07c23b1"},"vehicle_type_id":"4","last_reported":1679137549,"current_range_meters":28400,"station_id":"ce4bhg12rcd13ifvqf80","pricing_plan_id":"free"},{"bike_id":"58adbf7b-6361-46bc-beb6-db1532359567","system_id":"levelo_inurba_marseille","lat":43.320045,"lon":5.415048,"is_reserved":false,"is_disabled":false,"rental_uris":{"android":"levelo://app?vid=58adbf7b-6361-46bc-beb6-db1532359567","ios":"levelo://app?vid=58adbf7b-6361-46bc-beb6-db1532359567"},"vehicle_type_id":"4","last_reported":1679137549,"current_range_meters":14800,"station_id":"ce4bhq92rcd13ifvqhkg","pricing_plan_id":"free"},{"bike_id":"5f8d4aa6-e3ec-4cf8-9154-89b932816309","system_id":"levelo_inurba_marseille","lat":43.27959,"lon":5.3872,"is_reserved":false,"is_disabled":false,"rental_uris":{"android":"levelo://app?vid=5f8d4aa6-e3ec-4cf8-9154-89b932816309","ios":"levelo://app?vid=5f8d4aa6-e3ec-4cf8-9154-89b932816309"},"vehicle_type_id":"4","last_reported":1679137549,"current_range_meters":19600,"station_id":"ce4bhg12rcd13ifvqf80","pricing_plan_id":"free"},{"bike_id":"cd3b785d-068f-429b-bc8c-338b83cac1d6","system_id":"levelo_inurba_marseille","lat":43.320045,"lon":5.415048,"is_reserved":false,"is_disabled":false,"rental_uris":{"android":"levelo://app?vid=cd3b785d-068f-429b-bc8c-338b83cac1d6","ios":"levelo://app?vid=cd3b785d-068f-429b-bc8c-338b83cac1d6"},"vehicle_type_id":"4","last_reported":1679137549,"current_range_meters":30800,"station_id":"ce4bhq92rcd13ifvqhkg","pricing_plan_id":"free"},{"bike_id":"9d002998-c479-45f0-879d-1bd38fbf953b","system_id":"levelo_inurba_marseille","lat":43.324761,"lon":5.414347,"is_reserved":false,"is_disabled":false,"rental_uris":{"android":"levelo://app?vid=9d002998-c479-45f0-879d-1bd38fbf953b","ios":"levelo://app?vid=9d002998-c479-45f0-879d-1bd38fbf953b"},"vehicle_type_id":"4","last_reported":1679137549,"current_range_meters":10800,"station_id":"","pricing_plan_id":"free"},{"bike_id":"1a7ba517-0e78-48fb-b989-3f02f461905a","system_id":"levelo_inurba_marseille","lat":43.32538,"lon":5.41431,"is_reserved":false,"is_disabled":false,"rental_uris":{"android":"levelo://app?vid=1a7ba517-0e78-48fb-b989-3f02f461905a","ios":"levelo://app?vid=1a7ba517-0e78-48fb-b989-3f02f461905a"},"vehicle_type_id":"4","last_reported":1679137549,"current_range_meters":23600,"station_id":"ce4bhq12rcd13ifvqhhg","pricing_plan_id":"free"},{"bike_id":"b301481b-0566-4b7a-aea3-e3ed856d84c4","system_id":"levelo_inurba_marseille","lat":43.292569,"lon":5.409107,"is_reserved":false,"is_disabled":false,"rental_uris":{"android":"levelo://app?vid=b301481b-0566-4b7a-aea3-e3ed856d84c4","ios":"levelo://app?vid=b301481b-0566-4b7a-aea3-e3ed856d84c4"},"vehicle_type_id":"4","last_reported":1679137549,"current_range_meters":400,"station_id":"ce4bh192rcd13ifvqdc0","pricing_plan_id":"free"},{"bike_id":"5eb79788-81fa-40c5-9dff-eb80d0b727bd","system_id":"levelo_inurba_marseille","lat":43.3254,"lon":5.41436,"is_reserved":false,"is_disabled":false,"rental_uris":{"android":"levelo://app?vid=5eb79788-81fa-40c5-9dff-eb80d0b727bd","ios":"levelo://app?vid=5eb79788-81fa-40c5-9dff-eb80d0b727bd"},"vehicle_type_id":"4","last_reported":1679137549,"current_range_meters":28000,"station_id":"ce4bhq12rcd13ifvqhhg","pricing_plan_id":"free"},{"bike_id":"50785d3e-58c5-4b93-a91c-df2c3948b81f","system_id":"levelo_inurba_marseille","lat":43.27618,"lon":5.361009,"is_reserved":false,"is_disabled":false,"rental_uris":{"android":"levelo://app?vid=50785d3e-58c5-4b93-a91c-df2c3948b81f","ios":"levelo://app?vid=50785d3e-58c5-4b93-a91c-df2c3948b81f"},"vehicle_type_id":"4","last_reported":1679137549,"current_range_meters":400,"station_id":"ce4bgj92rcd13ifvqbe0","pricing_plan_id":"free"},{"bike_id":"f995c744-6073-4477-93a7-95eb32c94ed1","system_id":"levelo_inurba_marseille","lat":43.32543,"lon":5.41438,"is_reserved":false,"is_disabled":false,"rental_uris":{"android":"levelo://app?vid=f995c744-6073-4477-93a7-95eb32c94ed1","ios":"levelo://app?vid=f995c744-6073-4477-93a7-95eb32c94ed1"},"vehicle_type_id":"4","last_reported":1679137549,"current_range_meters":10000,"station_id":"","pricing_plan_id":"free"},{"bike_id":"10d10cf0-6210-416b-aec4-8db00a0c885f","system_id":"levelo_inurba_marseille","lat":43.29252,"lon":5.40916,"is_reserved":false,"is_disabled":false,"rental_uris":{"android":"levelo://app?vid=10d10cf0-6210-416b-aec4-8db00a0c885f","ios":"levelo://app?vid=10d10cf0-6210-416b-aec4-8db00a0c885f"},"vehicle_type_id":"4","last_reported":1679137549,"current_range_meters":29600,"station_id":"ce4bh192rcd13ifvqdc0","pricing_plan_id":"free"},{"bike_id":"2f1c2b78-49bf-4ebd-b514-0867fec24ee7","system_id":"levelo_inurba_marseille","lat":43.32539,"lon":5.4145,"is_reserved":false,"is_disabled":false,"rental_uris":{"android":"levelo://app?vid=2f1c2b78-49bf-4ebd-b514-0867fec24ee7","ios":"levelo://app?vid=2f1c2b78-49bf-4ebd-b514-0867fec24ee7"},"vehicle_type_id":"4","last_reported":1679137549,"current_range_meters":31600,"station_id":"ce4bhq12rcd13ifvqhhg","pricing_plan_id":"free"},{"bike_id":"05614bef-4bd5-4771-b39c-9ab363a1e83a","system_id":"levelo_inurba_marseille","lat":43.276095,"lon":5.361115,"is_reserved":false,"is_disabled":false,"rental_uris":{"android":"levelo://app?vid=05614bef-4bd5-4771-b39c-9ab363a1e83a","ios":"levelo://app?vid=05614bef-4bd5-4771-b39c-9ab363a1e83a"},"vehicle_type_id":"4","last_reported":1679137549,"current_range_meters":0,"station_id":"","pricing_plan_id":"free"},{"bike_id":"90925f69-1ed7-4cfd-931a-b3c13828f268","system_id":"levelo_inurba_marseille","lat":43.280784,"lon":5.396622,"is_reserved":false,"is_disabled":false,"rental_uris":{"android":"levelo://app?vid=90925f69-1ed7-4cfd-931a-b3c13828f268","ios":"levelo://app?vid=90925f69-1ed7-4cfd-931a-b3c13828f268"},"vehicle_type_id":"4","last_reported":1679137549,"current_range_meters":10000,"station_id":"ce4bho12rcd13ifvqh2g","pricing_plan_id":"free"},{"bike_id":"e39066fb-9c6b-4c45-9884-ca13c5c4f41d","system_id":"levelo_inurba_marseille","lat":43.273613,"lon":5.362705,"is_reserved":false,"is_disabled":false,"rental_uris":{"android":"levelo://app?vid=e39066fb-9c6b-4c45-9884-ca13c5c4f41d","ios":"levelo://app?vid=e39066fb-9c6b-4c45-9884-ca13c5c4f41d"},"vehicle_type_id":"4","last_reported":1679137549,"current_range_meters":25200,"station_id":"ce4bhbh2rcd13ifvqeo0","pricing_plan_id":"free"},{"bike_id":"ee421bd5-2968-4287-a2e9-205ee61969b2","system_id":"levelo_inurba_marseille","lat":43.273613,"lon":5.362705,"is_reserved":false,"is_disabled":false,"rental_uris":{"android":"levelo://app?vid=ee421bd5-2968-4287-a2e9-205ee61969b2","ios":"levelo://app?vid=ee421bd5-2968-4287-a2e9-205ee61969b2"},"vehicle_type_id":"4","last_reported":1679137549,"current_range_meters":23200,"station_id":"ce4bhbh2rcd13ifvqeo0","pricing_plan_id":"free"},{"bike_id":"1fcc799d-f7a6-41a4-a72c-851db06557f6","system_id":"levelo_inurba_marseille","lat":43.336134,"lon":5.410341,"is_reserved":false,"is_disabled":false,"rental_uris":{"android":"levelo://app?vid=1fcc799d-f7a6-41a4-a72c-851db06557f6","ios":"levelo://app?vid=1fcc799d-f7a6-41a4-a72c-851db06557f6"},"vehicle_type_id":"4","last_reported":1679137549,"current_range_meters":31600,"station_id":"ce4bhqh2rcd13ifvqhmg","pricing_plan_id":"free"},{"bike_id":"2a2bf965-75da-4403-8c64-96a22ca46d0a","system_id":"levelo_inurba_marseille","lat":43.33604,"lon":5.41033,"is_reserved":false,"is_disabled":false,"rental_uris":{"android":"levelo://app?vid=2a2bf965-75da-4403-8c64-96a22ca46d0a","ios":"levelo://app?vid=2a2bf965-75da-4403-8c64-96a22ca46d0a"},"vehicle_type_id":"4","last_reported":1679137549,"current_range_meters":29600,"station_id":"ce4bhqh2rcd13ifvqhmg","pricing_plan_id":"free"},{"bike_id":"8a5b1134-272b-4294-88f9-a7d7d960b1d4","system_id":"levelo_inurba_marseille","lat":43.336134,"lon":5.410341,"is_reserved":false,"is_disabled":false,"rental_uris":{"android":"levelo://app?vid=8a5b1134-272b-4294-88f9-a7d7d960b1d4","ios":"levelo://app?vid=8a5b1134-272b-4294-88f9-a7d7d960b1d4"},"vehicle_type_id":"4","last_reported":1679137549,"current_range_meters":30000,"station_id":"ce4bhqh2rcd13ifvqhmg","pricing_plan_id":"free"},{"bike_id":"6757ce82-c7dc-4f5d-a2a2-d1b936ec94d1","system_id":"levelo_inurba_marseille","lat":43.276769,"lon":5.388787,"is_reserved":false,"is_disabled":false,"rental_uris":{"android":"levelo://app?vid=6757ce82-c7dc-4f5d-a2a2-d1b936ec94d1","ios":"levelo://app?vid=6757ce82-c7dc-4f5d-a2a2-d1b936ec94d1"},"vehicle_type_id":"4","last_reported":1679137549,"current_range_meters":24400,"station_id":"ce4bhi12rcd13ifvqfo0","pricing_plan_id":"free"},{"bike_id":"236d1a49-08c1-4fe2-b313-6fd7df03d0aa","system_id":"levelo_inurba_marseille","lat":43.276769,"lon":5.388787,"is_reserved":false,"is_disabled":false,"rental_uris":{"android":"levelo://app?vid=236d1a49-08c1-4fe2-b313-6fd7df03d0aa","ios":"levelo://app?vid=236d1a49-08c1-4fe2-b313-6fd7df03d0aa"},"vehicle_type_id":"4","last_reported":1679137549,"current_range_meters":28000,"station_id":"ce4bhi12rcd13ifvqfo0","pricing_plan_id":"free"},{"bike_id":"6d650eb7-90d7-4658-9990-54fbd25a519d","system_id":"levelo_inurba_marseille","lat":43.27978,"lon":5.39961,"is_reserved":false,"is_disabled":false,"rental_uris":{"android":"levelo://app?vid=6d650eb7-90d7-4658-9990-54fbd25a519d","ios":"levelo://app?vid=6d650eb7-90d7-4658-9990-54fbd25a519d"},"vehicle_type_id":"4","last_reported":1679137549,"current_range_meters":0,"station_id":"","pricing_plan_id":"free"},{"bike_id":"b7a56549-6b7d-497e-8496-7ff25fff6ed4","system_id":"levelo_inurba_marseille","lat":43.3108,"lon":5.4243,"is_reserved":false,"is_disabled":false,"rental_uris":{"android":"levelo://app?vid=b7a56549-6b7d-497e-8496-7ff25fff6ed4","ios":"levelo://app?vid=b7a56549-6b7d-497e-8496-7ff25fff6ed4"},"vehicle_type_id":"4","last_reported":1679137549,"current_range_meters":27600,"station_id":"","pricing_plan_id":"free"},{"bike_id":"c39e6ab0-6a79-4716-838a-58b753ae7d69","system_id":"levelo_inurba_marseille","lat":43.310785,"lon":5.424305,"is_reserved":false,"is_disabled":false,"rental_uris":{"android":"levelo://app?vid=c39e6ab0-6a79-4716-838a-58b753ae7d69","ios":"levelo://app?vid=c39e6ab0-6a79-4716-838a-58b753ae7d69"},"vehicle_type_id":"4","last_reported":1679137549,"current_range_meters":19200,"station_id":"ce4bhp92rcd13ifvqhag","pricing_plan_id":"free"},{"bike_id":"f3e8fb6d-352b-4dd2-b33c-1eafeef7186f","system_id":"levelo_inurba_marseille","lat":43.31081,"lon":5.42433,"is_reserved":false,"is_disabled":false,"rental_uris":{"android":"levelo://app?vid=f3e8fb6d-352b-4dd2-b33c-1eafeef7186f","ios":"levelo://app?vid=f3e8fb6d-352b-4dd2-b33c-1eafeef7186f"},"vehicle_type_id":"4","last_reported":1679137549,"current_range_meters":27600,"station_id":"","pricing_plan_id":"free"},{"bike_id":"dcf781a7-183f-4b18-a082-0731d10fe12d","system_id":"levelo_inurba_marseille","lat":43.304096,"lon":5.425385,"is_reserved":false,"is_disabled":false,"rental_uris":{"android":"levelo://app?vid=dcf781a7-183f-4b18-a082-0731d10fe12d","ios":"levelo://app?vid=dcf781a7-183f-4b18-a082-0731d10fe12d"},"vehicle_type_id":"4","last_reported":1679137549,"current_range_meters":27600,"station_id":"ce4bhoh2rcd13ifvqh6g","pricing_plan_id":"free"},{"bike_id":"246c9cc1-efb7-4307-b85e-64d129dfd4bc","system_id":"levelo_inurba_marseille","lat":43.30413,"lon":5.42539,"is_reserved":false,"is_disabled":false,"rental_uris":{"android":"levelo://app?vid=246c9cc1-efb7-4307-b85e-64d129dfd4bc","ios":"levelo://app?vid=246c9cc1-efb7-4307-b85e-64d129dfd4bc"},"vehicle_type_id":"4","last_reported":1679137549,"current_range_meters":12400,"station_id":"ce4bhoh2rcd13ifvqh6g","pricing_plan_id":"free"},{"bike_id":"d332159b-fec7-4b67-9919-be60931f34a1","system_id":"levelo_inurba_marseille","lat":43.304096,"lon":5.425385,"is_reserved":false,"is_disabled":false,"rental_uris":{"android":"levelo://app?vid=d332159b-fec7-4b67-9919-be60931f34a1","ios":"levelo://app?vid=d332159b-fec7-4b67-9919-be60931f34a1"},"vehicle_type_id":"4","last_reported":1679137549,"current_range_meters":25200,"station_id":"ce4bhoh2rcd13ifvqh6g","pricing_plan_id":"free"},{"bike_id":"c65b0f2f-ddd4-4ced-99dc-a066a8acf787","system_id":"levelo_inurba_marseille","lat":43.304096,"lon":5.425385,"is_reserved":false,"is_disabled":false,"rental_uris":{"android":"levelo://app?vid=c65b0f2f-ddd4-4ced-99dc-a066a8acf787","ios":"levelo://app?vid=c65b0f2f-ddd4-4ced-99dc-a066a8acf787"},"vehicle_type_id":"4","last_reported":1679137549,"current_range_meters":16400,"station_id":"ce4bhoh2rcd13ifvqh6g","pricing_plan_id":"free"},{"bike_id":"4c260c9a-8730-453f-9a5e-5d3f544c6a77","system_id":"levelo_inurba_marseille","lat":43.304117,"lon":5.425407,"is_reserved":false,"is_disabled":false,"rental_uris":{"android":"levelo://app?vid=4c260c9a-8730-453f-9a5e-5d3f544c6a77","ios":"levelo://app?vid=4c260c9a-8730-453f-9a5e-5d3f544c6a77"},"vehicle_type_id":"4","last_reported":1679137549,"current_range_meters":27200,"station_id":"ce4bhoh2rcd13ifvqh6g","pricing_plan_id":"free"},{"bike_id":"f6c8bd2c-a4dc-41e6-b41c-3f99f5c5dd2b","system_id":"levelo_inurba_marseille","lat":43.304096,"lon":5.425385,"is_reserved":false,"is_disabled":false,"rental_uris":{"android":"levelo://app?vid=f6c8bd2c-a4dc-41e6-b41c-3f99f5c5dd2b","ios":"levelo://app?vid=f6c8bd2c-a4dc-41e6-b41c-3f99f5c5dd2b"},"vehicle_type_id":"4","last_reported":1679137549,"current_range_meters":25200,"station_id":"ce4bhoh2rcd13ifvqh6g","pricing_plan_id":"free"},{"bike_id":"5eecbdc6-4bd3-493c-a320-5c6a01a076fb","system_id":"levelo_inurba_marseille","lat":43.304096,"lon":5.425385,"is_reserved":false,"is_disabled":false,"rental_uris":{"android":"levelo://app?vid=5eecbdc6-4bd3-493c-a320-5c6a01a076fb","ios":"levelo://app?vid=5eecbdc6-4bd3-493c-a320-5c6a01a076fb"},"vehicle_type_id":"4","last_reported":1679137549,"current_range_meters":31600,"station_id":"ce4bhoh2rcd13ifvqh6g","pricing_plan_id":"free"},{"bike_id":"97845fa5-b394-4ad4-aedb-37c067bbba4d","system_id":"levelo_inurba_marseille","lat":43.30417,"lon":5.42543,"is_reserved":false,"is_disabled":false,"rental_uris":{"android":"levelo://app?vid=97845fa5-b394-4ad4-aedb-37c067bbba4d","ios":"levelo://app?vid=97845fa5-b394-4ad4-aedb-37c067bbba4d"},"vehicle_type_id":"4","last_reported":1679137549,"current_range_meters":24800,"station_id":"","pricing_plan_id":"free"},{"bike_id":"1130bd26-8973-42e5-b748-8c0392d35f23","system_id":"levelo_inurba_marseille","lat":43.304096,"lon":5.425385,"is_reserved":false,"is_disabled":false,"rental_uris":{"android":"levelo://app?vid=1130bd26-8973-42e5-b748-8c0392d35f23","ios":"levelo://app?vid=1130bd26-8973-42e5-b748-8c0392d35f23"},"vehicle_type_id":"4","last_reported":1679137549,"current_range_meters":16000,"station_id":"ce4bhoh2rcd13ifvqh6g","pricing_plan_id":"free"},{"bike_id":"0102a14d-1976-4b23-815b-e01f89045796","system_id":"levelo_inurba_marseille","lat":43.304096,"lon":5.425385,"is_reserved":false,"is_disabled":false,"rental_uris":{"android":"levelo://app?vid=0102a14d-1976-4b23-815b-e01f89045796","ios":"levelo://app?vid=0102a14d-1976-4b23-815b-e01f89045796"},"vehicle_type_id":"4","last_reported":1679137549,"current_range_meters":25200,"station_id":"ce4bhoh2rcd13ifvqh6g","pricing_plan_id":"free"},{"bike_id":"141a9303-f150-4a10-a349-f013d006a082","system_id":"levelo_inurba_marseille","lat":43.29554,"lon":5.422863,"is_reserved":false,"is_disabled":false,"rental_uris":{"android":"levelo://app?vid=141a9303-f150-4a10-a349-f013d006a082","ios":"levelo://app?vid=141a9303-f150-4a10-a349-f013d006a082"},"vehicle_type_id":"4","last_reported":1679137549,"current_range_meters":31600,"station_id":"","pricing_plan_id":"free"},{"bike_id":"bd9903a7-2bb3-4907-a661-848c73f8eae3","system_id":"levelo_inurba_marseille","lat":43.295553,"lon":5.422874,"is_reserved":false,"is_disabled":false,"rental_uris":{"android":"levelo://app?vid=bd9903a7-2bb3-4907-a661-848c73f8eae3","ios":"levelo://app?vid=bd9903a7-2bb3-4907-a661-848c73f8eae3"},"vehicle_type_id":"4","last_reported":1679137549,"current_range_meters":31600,"station_id":"","pricing_plan_id":"free"},{"bike_id":"4a323648-6a6a-4603-bc2c-12b70102a17c","system_id":"levelo_inurba_marseille","lat":43.29548,"lon":5.42286,"is_reserved":false,"is_disabled":false,"rental_uris":{"android":"levelo://app?vid=4a323648-6a6a-4603-bc2c-12b70102a17c","ios":"levelo://app?vid=4a323648-6a6a-4603-bc2c-12b70102a17c"},"vehicle_type_id":"4","last_reported":1679137549,"current_range_meters":29600,"station_id":"","pricing_plan_id":"free"},{"bike_id":"d5ce91c7-eea7-4f5f-869d-fd52053f0c67","system_id":"levelo_inurba_marseille","lat":43.295567,"lon":5.422911,"is_reserved":false,"is_disabled":false,"rental_uris":{"android":"levelo://app?vid=d5ce91c7-eea7-4f5f-869d-fd52053f0c67","ios":"levelo://app?vid=d5ce91c7-eea7-4f5f-869d-fd52053f0c67"},"vehicle_type_id":"4","last_reported":1679137549,"current_range_meters":12400,"station_id":"ce4bhph2rcd13ifvqhdg","pricing_plan_id":"free"},{"bike_id":"6e03de97-14f0-43d8-aa2c-081f22436685","system_id":"levelo_inurba_marseille","lat":43.295574,"lon":5.422931,"is_reserved":false,"is_disabled":false,"rental_uris":{"android":"levelo://app?vid=6e03de97-14f0-43d8-aa2c-081f22436685","ios":"levelo://app?vid=6e03de97-14f0-43d8-aa2c-081f22436685"},"vehicle_type_id":"4","last_reported":1679137549,"current_range_meters":20800,"station_id":"ce4bhph2rcd13ifvqhdg","pricing_plan_id":"free"},{"bike_id":"07b4fcbf-0b2a-496b-a57f-97dfd12cb6e4","system_id":"levelo_inurba_marseille","lat":43.29555,"lon":5.42292,"is_reserved":false,"is_disabled":false,"rental_uris":{"android":"levelo://app?vid=07b4fcbf-0b2a-496b-a57f-97dfd12cb6e4","ios":"levelo://app?vid=07b4fcbf-0b2a-496b-a57f-97dfd12cb6e4"},"vehicle_type_id":"4","last_reported":1679137549,"current_range_meters":31600,"station_id":"ce4bhph2rcd13ifvqhdg","pricing_plan_id":"free"},{"bike_id":"c9972f80-e251-4166-af7c-0461e95842a3","system_id":"levelo_inurba_marseille","lat":43.29557,"lon":5.422936,"is_reserved":false,"is_disabled":false,"rental_uris":{"android":"levelo://app?vid=c9972f80-e251-4166-af7c-0461e95842a3","ios":"levelo://app?vid=c9972f80-e251-4166-af7c-0461e95842a3"},"vehicle_type_id":"4","last_reported":1679137549,"current_range_meters":26400,"station_id":"ce4bhph2rcd13ifvqhdg","pricing_plan_id":"free"},{"bike_id":"728a5816-028c-4a92-bd69-ad0a44d83942","system_id":"levelo_inurba_marseille","lat":43.295552,"lon":5.422928,"is_reserved":false,"is_disabled":false,"rental_uris":{"android":"levelo://app?vid=728a5816-028c-4a92-bd69-ad0a44d83942","ios":"levelo://app?vid=728a5816-028c-4a92-bd69-ad0a44d83942"},"vehicle_type_id":"4","last_reported":1679137549,"current_range_meters":31600,"station_id":"ce4bhph2rcd13ifvqhdg","pricing_plan_id":"free"},{"bike_id":"a47f368e-fe90-4d64-a60f-12b90f6f925a","system_id":"levelo_inurba_marseille","lat":43.295523,"lon":5.422926,"is_reserved":false,"is_disabled":false,"rental_uris":{"android":"levelo://app?vid=a47f368e-fe90-4d64-a60f-12b90f6f925a","ios":"levelo://app?vid=a47f368e-fe90-4d64-a60f-12b90f6f925a"},"vehicle_type_id":"4","last_reported":1679137549,"current_range_meters":26400,"station_id":"ce4bhph2rcd13ifvqhdg","pricing_plan_id":"free"},{"bike_id":"7150df6c-b8d4-43c1-933b-5000883b64e5","system_id":"levelo_inurba_marseille","lat":43.269319,"lon":5.389397,"is_reserved":false,"is_disabled":false,"rental_uris":{"android":"levelo://app?vid=7150df6c-b8d4-43c1-933b-5000883b64e5","ios":"levelo://app?vid=7150df6c-b8d4-43c1-933b-5000883b64e5"},"vehicle_type_id":"4","last_reported":1679137549,"current_range_meters":13600,"station_id":"ce4bhhh2rcd13ifvqfl0","pricing_plan_id":"free"},{"bike_id":"6b3dcc17-e244-4278-873b-dcc4f88e1197","system_id":"levelo_inurba_marseille","lat":43.33775,"lon":5.42131,"is_reserved":false,"is_disabled":false,"rental_uris":{"android":"levelo://app?vid=6b3dcc17-e244-4278-873b-dcc4f88e1197","ios":"levelo://app?vid=6b3dcc17-e244-4278-873b-dcc4f88e1197"},"vehicle_type_id":"4","last_reported":1679137549,"current_range_meters":11600,"station_id":"","pricing_plan_id":"free"},{"bike_id":"13e9c317-54d0-4108-a9c1-e398979642d8","system_id":"levelo_inurba_marseille","lat":43.265714,"lon":5.372891,"is_reserved":false,"is_disabled":false,"rental_uris":{"android":"levelo://app?vid=13e9c317-54d0-4108-a9c1-e398979642d8","ios":"levelo://app?vid=13e9c317-54d0-4108-a9c1-e398979642d8"},"vehicle_type_id":"4","last_reported":1679137549,"current_range_meters":31600,"station_id":"ce4bhg12rcd13ifvqf70","pricing_plan_id":"free"},{"bike_id":"d8426991-7c71-402d-9435-6ffd7b9b9b8f","system_id":"levelo_inurba_marseille","lat":43.265714,"lon":5.372891,"is_reserved":false,"is_disabled":false,"rental_uris":{"android":"levelo://app?vid=d8426991-7c71-402d-9435-6ffd7b9b9b8f","ios":"levelo://app?vid=d8426991-7c71-402d-9435-6ffd7b9b9b8f"},"vehicle_type_id":"4","last_reported":1679137549,"current_range_meters":31600,"station_id":"ce4bhg12rcd13ifvqf70","pricing_plan_id":"free"},{"bike_id":"3f345a27-d6b0-4cd3-ae12-1f9f2dc18b00","system_id":"levelo_inurba_marseille","lat":43.265714,"lon":5.372891,"is_reserved":false,"is_disabled":false,"rental_uris":{"android":"levelo://app?vid=3f345a27-d6b0-4cd3-ae12-1f9f2dc18b00","ios":"levelo://app?vid=3f345a27-d6b0-4cd3-ae12-1f9f2dc18b00"},"vehicle_type_id":"4","last_reported":1679137549,"current_range_meters":4800,"station_id":"ce4bhg12rcd13ifvqf70","pricing_plan_id":"free"},{"bike_id":"42fd30d1-61f1-4792-a069-7109fc32152f","system_id":"levelo_inurba_marseille","lat":43.26536,"lon":5.37293,"is_reserved":false,"is_disabled":false,"rental_uris":{"android":"levelo://app?vid=42fd30d1-61f1-4792-a069-7109fc32152f","ios":"levelo://app?vid=42fd30d1-61f1-4792-a069-7109fc32152f"},"vehicle_type_id":"4","last_reported":1679137549,"current_range_meters":28400,"station_id":"","pricing_plan_id":"free"},{"bike_id":"b9ba372b-8a94-4cab-95d6-0377f7f24e39","system_id":"levelo_inurba_marseille","lat":43.27996,"lon":5.416624,"is_reserved":false,"is_disabled":false,"rental_uris":{"android":"levelo://app?vid=b9ba372b-8a94-4cab-95d6-0377f7f24e39","ios":"levelo://app?vid=b9ba372b-8a94-4cab-95d6-0377f7f24e39"},"vehicle_type_id":"4","last_reported":1679137549,"current_range_meters":12000,"station_id":"ce4bho12rcd13ifvqh1g","pricing_plan_id":"free"},{"bike_id":"3548160d-e77d-4a99-980e-38152e2e7bb4","system_id":"levelo_inurba_marseille","lat":43.27996,"lon":5.416624,"is_reserved":false,"is_disabled":false,"rental_uris":{"android":"levelo://app?vid=3548160d-e77d-4a99-980e-38152e2e7bb4","ios":"levelo://app?vid=3548160d-e77d-4a99-980e-38152e2e7bb4"},"vehicle_type_id":"4","last_reported":1679137549,"current_range_meters":24400,"station_id":"ce4bho12rcd13ifvqh1g","pricing_plan_id":"free"},{"bike_id":"92eabeb6-2068-4d84-9efb-1f19cf3c38e1","system_id":"levelo_inurba_marseille","lat":43.267966,"lon":5.393976,"is_reserved":false,"is_disabled":false,"rental_uris":{"android":"levelo://app?vid=92eabeb6-2068-4d84-9efb-1f19cf3c38e1","ios":"levelo://app?vid=92eabeb6-2068-4d84-9efb-1f19cf3c38e1"},"vehicle_type_id":"4","last_reported":1679137549,"current_range_meters":29600,"station_id":"ce4bhh12rcd13ifvqfg0","pricing_plan_id":"free"},{"bike_id":"be0373fd-dd55-4083-a034-aaa7747c51df","system_id":"levelo_inurba_marseille","lat":43.26781,"lon":5.39414,"is_reserved":false,"is_disabled":false,"rental_uris":{"android":"levelo://app?vid=be0373fd-dd55-4083-a034-aaa7747c51df","ios":"levelo://app?vid=be0373fd-dd55-4083-a034-aaa7747c51df"},"vehicle_type_id":"4","last_reported":1679137549,"current_range_meters":21200,"station_id":"","pricing_plan_id":"free"},{"bike_id":"aead4dbd-9d8b-441e-87d9-d1c701861609","system_id":"levelo_inurba_marseille","lat":43.265571,"lon":5.390032,"is_reserved":false,"is_disabled":false,"rental_uris":{"android":"levelo://app?vid=aead4dbd-9d8b-441e-87d9-d1c701861609","ios":"levelo://app?vid=aead4dbd-9d8b-441e-87d9-d1c701861609"},"vehicle_type_id":"4","last_reported":1679137549,"current_range_meters":22400,"station_id":"ce4bhe12rcd13ifvqf30","pricing_plan_id":"free"},{"bike_id":"b735c8d1-59e3-4ea8-835e-f4e4dad19822","system_id":"levelo_inurba_marseille","lat":43.265571,"lon":5.390032,"is_reserved":false,"is_disabled":false,"rental_uris":{"android":"levelo://app?vid=b735c8d1-59e3-4ea8-835e-f4e4dad19822","ios":"levelo://app?vid=b735c8d1-59e3-4ea8-835e-f4e4dad19822"},"vehicle_type_id":"4","last_reported":1679137549,"current_range_meters":28400,"station_id":"ce4bhe12rcd13ifvqf30","pricing_plan_id":"free"},{"bike_id":"e96667f1-a214-4a1c-b594-76b9eac8aafa","system_id":"levelo_inurba_marseille","lat":43.317104,"lon":5.436818,"is_reserved":false,"is_disabled":false,"rental_uris":{"android":"levelo://app?vid=e96667f1-a214-4a1c-b594-76b9eac8aafa","ios":"levelo://app?vid=e96667f1-a214-4a1c-b594-76b9eac8aafa"},"vehicle_type_id":"4","last_reported":1679137549,"current_range_meters":12400,"station_id":"ce4bhp92rcd13ifvqhcg","pricing_plan_id":"free"},{"bike_id":"ac452865-9b87-4c43-8271-255d036af305","system_id":"levelo_inurba_marseille","lat":43.317104,"lon":5.436818,"is_reserved":false,"is_disabled":false,"rental_uris":{"android":"levelo://app?vid=ac452865-9b87-4c43-8271-255d036af305","ios":"levelo://app?vid=ac452865-9b87-4c43-8271-255d036af305"},"vehicle_type_id":"4","last_reported":1679137549,"current_range_meters":0,"station_id":"ce4bhp92rcd13ifvqhcg","pricing_plan_id":"free"},{"bike_id":"3a657590-6350-4781-ab7f-4ba14b3bb2d0","system_id":"levelo_inurba_marseille","lat":43.267959,"lon":5.402687,"is_reserved":false,"is_disabled":false,"rental_uris":{"android":"levelo://app?vid=3a657590-6350-4781-ab7f-4ba14b3bb2d0","ios":"levelo://app?vid=3a657590-6350-4781-ab7f-4ba14b3bb2d0"},"vehicle_type_id":"4","last_reported":1679137549,"current_range_meters":24000,"station_id":"ce501612rcd8frsf0b60","pricing_plan_id":"free"},{"bike_id":"61d338c9-abd5-4d95-83e1-5352a77351f8","system_id":"levelo_inurba_marseille","lat":43.267959,"lon":5.402685,"is_reserved":false,"is_disabled":false,"rental_uris":{"android":"levelo://app?vid=61d338c9-abd5-4d95-83e1-5352a77351f8","ios":"levelo://app?vid=61d338c9-abd5-4d95-83e1-5352a77351f8"},"vehicle_type_id":"4","last_reported":1679137549,"current_range_meters":13200,"station_id":"ce501612rcd8frsf0b60","pricing_plan_id":"free"},{"bike_id":"1f706e12-a827-472f-afe1-8322ed0894de","system_id":"levelo_inurba_marseille","lat":43.260225,"lon":5.375455,"is_reserved":false,"is_disabled":false,"rental_uris":{"android":"levelo://app?vid=1f706e12-a827-472f-afe1-8322ed0894de","ios":"levelo://app?vid=1f706e12-a827-472f-afe1-8322ed0894de"},"vehicle_type_id":"4","last_reported":1679137549,"current_range_meters":18400,"station_id":"ce4bhgh2rcd13ifvqfa0","pricing_plan_id":"free"},{"bike_id":"49fabf54-719e-411f-ab16-162a4341a195","system_id":"levelo_inurba_marseille","lat":43.260225,"lon":5.375455,"is_reserved":false,"is_disabled":false,"rental_uris":{"android":"levelo://app?vid=49fabf54-719e-411f-ab16-162a4341a195","ios":"levelo://app?vid=49fabf54-719e-411f-ab16-162a4341a195"},"vehicle_type_id":"4","last_reported":1679137549,"current_range_meters":18800,"station_id":"ce4bhgh2rcd13ifvqfa0","pricing_plan_id":"free"},{"bike_id":"14947ac9-7fed-47d1-aca9-85e4e8958f89","system_id":"levelo_inurba_marseille","lat":43.260219,"lon":5.37546,"is_reserved":false,"is_disabled":false,"rental_uris":{"android":"levelo://app?vid=14947ac9-7fed-47d1-aca9-85e4e8958f89","ios":"levelo://app?vid=14947ac9-7fed-47d1-aca9-85e4e8958f89"},"vehicle_type_id":"4","last_reported":1679137549,"current_range_meters":20000,"station_id":"ce4bhgh2rcd13ifvqfa0","pricing_plan_id":"free"},{"bike_id":"f5534818-ad88-4836-b3dc-c242a5e74772","system_id":"levelo_inurba_marseille","lat":43.2607,"lon":5.393983,"is_reserved":false,"is_disabled":false,"rental_uris":{"android":"levelo://app?vid=f5534818-ad88-4836-b3dc-c242a5e74772","ios":"levelo://app?vid=f5534818-ad88-4836-b3dc-c242a5e74772"},"vehicle_type_id":"4","last_reported":1679137549,"current_range_meters":0,"station_id":"ce4bhh92rcd13ifvqfj0","pricing_plan_id":"free"},{"bike_id":"b2638b17-f6c1-40ce-abc7-841f855245ea","system_id":"levelo_inurba_marseille","lat":43.2607,"lon":5.393983,"is_reserved":false,"is_disabled":false,"rental_uris":{"android":"levelo://app?vid=b2638b17-f6c1-40ce-abc7-841f855245ea","ios":"levelo://app?vid=b2638b17-f6c1-40ce-abc7-841f855245ea"},"vehicle_type_id":"4","last_reported":1679137549,"current_range_meters":10800,"station_id":"ce4bhh92rcd13ifvqfj0","pricing_plan_id":"free"},{"bike_id":"7994bd4d-976d-4c62-9c25-431207d5b6d2","system_id":"levelo_inurba_marseille","lat":43.254947,"lon":5.376454,"is_reserved":false,"is_disabled":false,"rental_uris":{"android":"levelo://app?vid=7994bd4d-976d-4c62-9c25-431207d5b6d2","ios":"levelo://app?vid=7994bd4d-976d-4c62-9c25-431207d5b6d2"},"vehicle_type_id":"4","last_reported":1679137549,"current_range_meters":31600,"station_id":"ce4bhh12rcd13ifvqff0","pricing_plan_id":"free"},{"bike_id":"1e222674-c7fa-4849-9836-a6f20052e7b9","system_id":"levelo_inurba_marseille","lat":43.250009,"lon":5.389195,"is_reserved":false,"is_disabled":false,"rental_uris":{"android":"levelo://app?vid=1e222674-c7fa-4849-9836-a6f20052e7b9","ios":"levelo://app?vid=1e222674-c7fa-4849-9836-a6f20052e7b9"},"vehicle_type_id":"4","last_reported":1679137549,"current_range_meters":26800,"station_id":"ce4bhgp2rcd13ifvqfd0","pricing_plan_id":"free"},{"bike_id":"9402795b-e345-4c63-998c-39ec5c0ea4c1","system_id":"levelo_inurba_marseille","lat":43.250009,"lon":5.389195,"is_reserved":false,"is_disabled":false,"rental_uris":{"android":"levelo://app?vid=9402795b-e345-4c63-998c-39ec5c0ea4c1","ios":"levelo://app?vid=9402795b-e345-4c63-998c-39ec5c0ea4c1"},"vehicle_type_id":"4","last_reported":1679137549,"current_range_meters":31600,"station_id":"ce4bhgp2rcd13ifvqfd0","pricing_plan_id":"free"},{"bike_id":"b97371b0-2081-4d7c-9ff6-4ce3dbddad9f","system_id":"levelo_inurba_marseille","lat":43.250009,"lon":5.389195,"is_reserved":false,"is_disabled":false,"rental_uris":{"android":"levelo://app?vid=b97371b0-2081-4d7c-9ff6-4ce3dbddad9f","ios":"levelo://app?vid=b97371b0-2081-4d7c-9ff6-4ce3dbddad9f"},"vehicle_type_id":"4","last_reported":1679137549,"current_range_meters":31200,"station_id":"ce4bhgp2rcd13ifvqfd0","pricing_plan_id":"free"},{"bike_id":"4fa24eba-609a-44a6-a9b5-1c8089b1e434","system_id":"levelo_inurba_marseille","lat":43.250009,"lon":5.389195,"is_reserved":false,"is_disabled":false,"rental_uris":{"android":"levelo://app?vid=4fa24eba-609a-44a6-a9b5-1c8089b1e434","ios":"levelo://app?vid=4fa24eba-609a-44a6-a9b5-1c8089b1e434"},"vehicle_type_id":"4","last_reported":1679137549,"current_range_meters":17600,"station_id":"ce4bhgp2rcd13ifvqfd0","pricing_plan_id":"free"},{"bike_id":"d3033048-c81a-4bb4-9bf8-b1c88293fa96","system_id":"levelo_inurba_marseille","lat":43.250009,"lon":5.389195,"is_reserved":false,"is_disabled":false,"rental_uris":{"android":"levelo://app?vid=d3033048-c81a-4bb4-9bf8-b1c88293fa96","ios":"levelo://app?vid=d3033048-c81a-4bb4-9bf8-b1c88293fa96"},"vehicle_type_id":"4","last_reported":1679137549,"current_range_meters":31600,"station_id":"ce4bhgp2rcd13ifvqfd0","pricing_plan_id":"free"},{"bike_id":"bf4fb621-500e-4434-aef7-29623ecc99dc","system_id":"levelo_inurba_marseille","lat":43.250009,"lon":5.389195,"is_reserved":false,"is_disabled":false,"rental_uris":{"android":"levelo://app?vid=bf4fb621-500e-4434-aef7-29623ecc99dc","ios":"levelo://app?vid=bf4fb621-500e-4434-aef7-29623ecc99dc"},"vehicle_type_id":"4","last_reported":1679137549,"current_range_meters":13200,"station_id":"ce4bhgp2rcd13ifvqfd0","pricing_plan_id":"free"},{"bike_id":"e7987d1e-4c1e-4857-95a0-727645aaef87","system_id":"levelo_inurba_marseille","lat":43.250009,"lon":5.389195,"is_reserved":false,"is_disabled":false,"rental_uris":{"android":"levelo://app?vid=e7987d1e-4c1e-4857-95a0-727645aaef87","ios":"levelo://app?vid=e7987d1e-4c1e-4857-95a0-727645aaef87"},"vehicle_type_id":"4","last_reported":1679137549,"current_range_meters":18800,"station_id":"ce4bhgp2rcd13ifvqfd0","pricing_plan_id":"free"},{"bike_id":"d4c63f60-40f1-48d2-8689-3c61ecbc0b6c","system_id":"levelo_inurba_marseille","lat":43.250009,"lon":5.389195,"is_reserved":false,"is_disabled":false,"rental_uris":{"android":"levelo://app?vid=d4c63f60-40f1-48d2-8689-3c61ecbc0b6c","ios":"levelo://app?vid=d4c63f60-40f1-48d2-8689-3c61ecbc0b6c"},"vehicle_type_id":"4","last_reported":1679137549,"current_range_meters":31600,"station_id":"ce4bhgp2rcd13ifvqfd0","pricing_plan_id":"free"},{"bike_id":"84af4f38-ec70-4ebb-af39-a66368d94cd0","system_id":"levelo_inurba_marseille","lat":43.250009,"lon":5.389195,"is_reserved":false,"is_disabled":false,"rental_uris":{"android":"levelo://app?vid=84af4f38-ec70-4ebb-af39-a66368d94cd0","ios":"levelo://app?vid=84af4f38-ec70-4ebb-af39-a66368d94cd0"},"vehicle_type_id":"4","last_reported":1679137549,"current_range_meters":28400,"station_id":"ce4bhgp2rcd13ifvqfd0","pricing_plan_id":"free"},{"bike_id":"c8aeffd4-d769-4f54-90b9-6937c7646dac","system_id":"levelo_inurba_marseille","lat":43.24813,"lon":5.37458,"is_reserved":false,"is_disabled":false,"rental_uris":{"android":"levelo://app?vid=c8aeffd4-d769-4f54-90b9-6937c7646dac","ios":"levelo://app?vid=c8aeffd4-d769-4f54-90b9-6937c7646dac"},"vehicle_type_id":"4","last_reported":1679137549,"current_range_meters":11600,"station_id":"ce4bhgh2rcd13ifvqfb0","pricing_plan_id":"free"},{"bike_id":"a01639dd-e953-4278-8674-cd891c28a0ab","system_id":"levelo_inurba_marseille","lat":43.2479,"lon":5.374457,"is_reserved":false,"is_disabled":false,"rental_uris":{"android":"levelo://app?vid=a01639dd-e953-4278-8674-cd891c28a0ab","ios":"levelo://app?vid=a01639dd-e953-4278-8674-cd891c28a0ab"},"vehicle_type_id":"4","last_reported":1679137549,"current_range_meters":24000,"station_id":"ce4bhgh2rcd13ifvqfb0","pricing_plan_id":"free"},{"bike_id":"fa2b681f-8672-4599-8263-aa7e1cbcfe31","system_id":"levelo_inurba_marseille","lat":43.2479,"lon":5.374457,"is_reserved":false,"is_disabled":false,"rental_uris":{"android":"levelo://app?vid=fa2b681f-8672-4599-8263-aa7e1cbcfe31","ios":"levelo://app?vid=fa2b681f-8672-4599-8263-aa7e1cbcfe31"},"vehicle_type_id":"4","last_reported":1679137549,"current_range_meters":22800,"station_id":"ce4bhgh2rcd13ifvqfb0","pricing_plan_id":"free"},{"bike_id":"bb8da5b6-8315-4286-9ec5-98f52de794d3","system_id":"levelo_inurba_marseille","lat":43.2479,"lon":5.374457,"is_reserved":false,"is_disabled":false,"rental_uris":{"android":"levelo://app?vid=bb8da5b6-8315-4286-9ec5-98f52de794d3","ios":"levelo://app?vid=bb8da5b6-8315-4286-9ec5-98f52de794d3"},"vehicle_type_id":"4","last_reported":1679137549,"current_range_meters":29600,"station_id":"ce4bhgh2rcd13ifvqfb0","pricing_plan_id":"free"},{"bike_id":"148aa54a-cb02-4c92-ac3d-1f41b949cfd2","system_id":"levelo_inurba_marseille","lat":43.2479,"lon":5.374457,"is_reserved":false,"is_disabled":false,"rental_uris":{"android":"levelo://app?vid=148aa54a-cb02-4c92-ac3d-1f41b949cfd2","ios":"levelo://app?vid=148aa54a-cb02-4c92-ac3d-1f41b949cfd2"},"vehicle_type_id":"4","last_reported":1679137549,"current_range_meters":24800,"station_id":"ce4bhgh2rcd13ifvqfb0","pricing_plan_id":"free"},{"bike_id":"6ab15381-f62e-4506-82d9-e508302955c8","system_id":"levelo_inurba_marseille","lat":43.24802,"lon":5.37453,"is_reserved":false,"is_disabled":false,"rental_uris":{"android":"levelo://app?vid=6ab15381-f62e-4506-82d9-e508302955c8","ios":"levelo://app?vid=6ab15381-f62e-4506-82d9-e508302955c8"},"vehicle_type_id":"4","last_reported":1679137549,"current_range_meters":17200,"station_id":"ce4bhgh2rcd13ifvqfb0","pricing_plan_id":"free"},{"bike_id":"7ce66863-916e-43d9-9f4d-1ac9f0665a8c","system_id":"levelo_inurba_marseille","lat":43.246467,"lon":5.388984,"is_reserved":false,"is_disabled":false,"rental_uris":{"android":"levelo://app?vid=7ce66863-916e-43d9-9f4d-1ac9f0665a8c","ios":"levelo://app?vid=7ce66863-916e-43d9-9f4d-1ac9f0665a8c"},"vehicle_type_id":"4","last_reported":1679137549,"current_range_meters":26400,"station_id":"ce4bhg12rcd13ifvqf60","pricing_plan_id":"free"},{"bike_id":"592adabc-a5ae-45cb-8040-f3f3638a9dd4","system_id":"levelo_inurba_marseille","lat":43.246461,"lon":5.389014,"is_reserved":false,"is_disabled":false,"rental_uris":{"android":"levelo://app?vid=592adabc-a5ae-45cb-8040-f3f3638a9dd4","ios":"levelo://app?vid=592adabc-a5ae-45cb-8040-f3f3638a9dd4"},"vehicle_type_id":"4","last_reported":1679137549,"current_range_meters":30000,"station_id":"ce4bhg12rcd13ifvqf60","pricing_plan_id":"free"},{"bike_id":"2f2e67d9-ef12-49f5-93bb-89e83bd22016","system_id":"levelo_inurba_marseille","lat":43.246467,"lon":5.388984,"is_reserved":false,"is_disabled":false,"rental_uris":{"android":"levelo://app?vid=2f2e67d9-ef12-49f5-93bb-89e83bd22016","ios":"levelo://app?vid=2f2e67d9-ef12-49f5-93bb-89e83bd22016"},"vehicle_type_id":"4","last_reported":1679137549,"current_range_meters":31200,"station_id":"ce4bhg12rcd13ifvqf60","pricing_plan_id":"free"},{"bike_id":"ecb3a446-224f-464f-b1cd-12740cea4b67","system_id":"levelo_inurba_marseille","lat":43.24391,"lon":5.37062,"is_reserved":false,"is_disabled":false,"rental_uris":{"android":"levelo://app?vid=ecb3a446-224f-464f-b1cd-12740cea4b67","ios":"levelo://app?vid=ecb3a446-224f-464f-b1cd-12740cea4b67"},"vehicle_type_id":"4","last_reported":1679137549,"current_range_meters":29600,"station_id":"","pricing_plan_id":"free"},{"bike_id":"27451b56-b88f-4f88-8075-fbbc8f0dc709","system_id":"levelo_inurba_marseille","lat":43.2439,"lon":5.37057,"is_reserved":false,"is_disabled":false,"rental_uris":{"android":"levelo://app?vid=27451b56-b88f-4f88-8075-fbbc8f0dc709","ios":"levelo://app?vid=27451b56-b88f-4f88-8075-fbbc8f0dc709"},"vehicle_type_id":"4","last_reported":1679137549,"current_range_meters":31600,"station_id":"","pricing_plan_id":"free"},{"bike_id":"27450aed-d877-488a-a0ec-8d24e5ef24d4","system_id":"levelo_inurba_marseille","lat":43.2439,"lon":5.37058,"is_reserved":false,"is_disabled":false,"rental_uris":{"android":"levelo://app?vid=27450aed-d877-488a-a0ec-8d24e5ef24d4","ios":"levelo://app?vid=27450aed-d877-488a-a0ec-8d24e5ef24d4"},"vehicle_type_id":"4","last_reported":1679137549,"current_range_meters":20000,"station_id":"ce4bhhh2rcd13ifvqfk0","pricing_plan_id":"free"},{"bike_id":"7cf502a4-d89a-4150-9a4f-384b140ecf74","system_id":"levelo_inurba_marseille","lat":43.243884,"lon":5.370736,"is_reserved":false,"is_disabled":false,"rental_uris":{"android":"levelo://app?vid=7cf502a4-d89a-4150-9a4f-384b140ecf74","ios":"levelo://app?vid=7cf502a4-d89a-4150-9a4f-384b140ecf74"},"vehicle_type_id":"4","last_reported":1679137549,"current_range_meters":13200,"station_id":"ce4bhhh2rcd13ifvqfk0","pricing_plan_id":"free"},{"bike_id":"89bd9dfa-5d7a-43d2-847c-e2c648177d88","system_id":"levelo_inurba_marseille","lat":43.243884,"lon":5.370736,"is_reserved":false,"is_disabled":false,"rental_uris":{"android":"levelo://app?vid=89bd9dfa-5d7a-43d2-847c-e2c648177d88","ios":"levelo://app?vid=89bd9dfa-5d7a-43d2-847c-e2c648177d88"},"vehicle_type_id":"4","last_reported":1679137549,"current_range_meters":22000,"station_id":"ce4bhhh2rcd13ifvqfk0","pricing_plan_id":"free"},{"bike_id":"3cc1b91a-bbdf-4548-bd59-fc3083c04c06","system_id":"levelo_inurba_marseille","lat":43.243884,"lon":5.370736,"is_reserved":false,"is_disabled":false,"rental_uris":{"android":"levelo://app?vid=3cc1b91a-bbdf-4548-bd59-fc3083c04c06","ios":"levelo://app?vid=3cc1b91a-bbdf-4548-bd59-fc3083c04c06"},"vehicle_type_id":"4","last_reported":1679137549,"current_range_meters":12400,"station_id":"ce4bhhh2rcd13ifvqfk0","pricing_plan_id":"free"},{"bike_id":"616f7ff5-9d4b-4998-9f13-95338ff38559","system_id":"levelo_inurba_marseille","lat":43.24386,"lon":5.37062,"is_reserved":false,"is_disabled":false,"rental_uris":{"android":"levelo://app?vid=616f7ff5-9d4b-4998-9f13-95338ff38559","ios":"levelo://app?vid=616f7ff5-9d4b-4998-9f13-95338ff38559"},"vehicle_type_id":"4","last_reported":1679137549,"current_range_meters":7200,"station_id":"ce4bhhh2rcd13ifvqfk0","pricing_plan_id":"free"},{"bike_id":"82afc80d-f60f-47dd-bfa0-74fed95fa0bf","system_id":"levelo_inurba_marseille","lat":43.243884,"lon":5.370736,"is_reserved":false,"is_disabled":false,"rental_uris":{"android":"levelo://app?vid=82afc80d-f60f-47dd-bfa0-74fed95fa0bf","ios":"levelo://app?vid=82afc80d-f60f-47dd-bfa0-74fed95fa0bf"},"vehicle_type_id":"4","last_reported":1679137549,"current_range_meters":28400,"station_id":"ce4bhhh2rcd13ifvqfk0","pricing_plan_id":"free"},{"bike_id":"57bf2e4f-643d-4f9d-9bfb-2b77de7399a7","system_id":"levelo_inurba_marseille","lat":43.243464,"lon":5.370462,"is_reserved":false,"is_disabled":false,"rental_uris":{"android":"levelo://app?vid=57bf2e4f-643d-4f9d-9bfb-2b77de7399a7","ios":"levelo://app?vid=57bf2e4f-643d-4f9d-9bfb-2b77de7399a7"},"vehicle_type_id":"4","last_reported":1679137549,"current_range_meters":25600,"station_id":"","pricing_plan_id":"free"},{"bike_id":"9bd9e240-3c49-4b16-8408-ddf83d2b7b5a","system_id":"levelo_inurba_marseille","lat":43.245581,"lon":5.395069,"is_reserved":false,"is_disabled":false,"rental_uris":{"android":"levelo://app?vid=9bd9e240-3c49-4b16-8408-ddf83d2b7b5a","ios":"levelo://app?vid=9bd9e240-3c49-4b16-8408-ddf83d2b7b5a"},"vehicle_type_id":"4","last_reported":1679137549,"current_range_meters":31600,"station_id":"ce4bhlp2rcd13ifvqgjg","pricing_plan_id":"free"},{"bike_id":"9cca43f5-ee3d-45eb-9473-bf94aa86b2ee","system_id":"levelo_inurba_marseille","lat":43.287526,"lon":5.458848,"is_reserved":false,"is_disabled":false,"rental_uris":{"android":"levelo://app?vid=9cca43f5-ee3d-45eb-9473-bf94aa86b2ee","ios":"levelo://app?vid=9cca43f5-ee3d-45eb-9473-bf94aa86b2ee"},"vehicle_type_id":"4","last_reported":1679137549,"current_range_meters":0,"station_id":"","pricing_plan_id":"free"},{"bike_id":"5c6341fd-8bc2-48ef-b984-5aab12472d86","system_id":"levelo_inurba_marseille","lat":43.287503,"lon":5.458982,"is_reserved":false,"is_disabled":false,"rental_uris":{"android":"levelo://app?vid=5c6341fd-8bc2-48ef-b984-5aab12472d86","ios":"levelo://app?vid=5c6341fd-8bc2-48ef-b984-5aab12472d86"},"vehicle_type_id":"4","last_reported":1679137549,"current_range_meters":8000,"station_id":"","pricing_plan_id":"free"},{"bike_id":"5521ec33-ee6d-49f4-9471-d24cf70bcd7b","system_id":"levelo_inurba_marseille","lat":43.240623,"lon":5.377642,"is_reserved":false,"is_disabled":false,"rental_uris":{"android":"levelo://app?vid=5521ec33-ee6d-49f4-9471-d24cf70bcd7b","ios":"levelo://app?vid=5521ec33-ee6d-49f4-9471-d24cf70bcd7b"},"vehicle_type_id":"4","last_reported":1679137549,"current_range_meters":31600,"station_id":"ce4bhnp2rcd13ifvqgvg","pricing_plan_id":"free"},{"bike_id":"ad1dc089-4a54-4561-856d-26d7bb94e38b","system_id":"levelo_inurba_marseille","lat":43.24074,"lon":5.3776,"is_reserved":false,"is_disabled":false,"rental_uris":{"android":"levelo://app?vid=ad1dc089-4a54-4561-856d-26d7bb94e38b","ios":"levelo://app?vid=ad1dc089-4a54-4561-856d-26d7bb94e38b"},"vehicle_type_id":"4","last_reported":1679137549,"current_range_meters":400,"station_id":"","pricing_plan_id":"free"},{"bike_id":"c03daf93-bd02-4eae-9c2b-09e471aa7c7a","system_id":"levelo_inurba_marseille","lat":43.240623,"lon":5.377642,"is_reserved":false,"is_disabled":false,"rental_uris":{"android":"levelo://app?vid=c03daf93-bd02-4eae-9c2b-09e471aa7c7a","ios":"levelo://app?vid=c03daf93-bd02-4eae-9c2b-09e471aa7c7a"},"vehicle_type_id":"4","last_reported":1679137549,"current_range_meters":14800,"station_id":"ce4bhnp2rcd13ifvqgvg","pricing_plan_id":"free"},{"bike_id":"1405e1b5-ea6b-437e-8568-056654c484a1","system_id":"levelo_inurba_marseille","lat":43.240717,"lon":5.37756,"is_reserved":false,"is_disabled":false,"rental_uris":{"android":"levelo://app?vid=1405e1b5-ea6b-437e-8568-056654c484a1","ios":"levelo://app?vid=1405e1b5-ea6b-437e-8568-056654c484a1"},"vehicle_type_id":"4","last_reported":1679137549,"current_range_meters":6400,"station_id":"ce4bhnp2rcd13ifvqgvg","pricing_plan_id":"free"},{"bike_id":"d1636f64-6b09-4b48-bf38-0b5b7957612a","system_id":"levelo_inurba_marseille","lat":43.240623,"lon":5.377642,"is_reserved":false,"is_disabled":false,"rental_uris":{"android":"levelo://app?vid=d1636f64-6b09-4b48-bf38-0b5b7957612a","ios":"levelo://app?vid=d1636f64-6b09-4b48-bf38-0b5b7957612a"},"vehicle_type_id":"4","last_reported":1679137549,"current_range_meters":31600,"station_id":"ce4bhnp2rcd13ifvqgvg","pricing_plan_id":"free"},{"bike_id":"e2b39f61-a433-4fea-8ef4-f9a8742713b8","system_id":"levelo_inurba_marseille","lat":43.240623,"lon":5.377642,"is_reserved":false,"is_disabled":false,"rental_uris":{"android":"levelo://app?vid=e2b39f61-a433-4fea-8ef4-f9a8742713b8","ios":"levelo://app?vid=e2b39f61-a433-4fea-8ef4-f9a8742713b8"},"vehicle_type_id":"4","last_reported":1679137549,"current_range_meters":10000,"station_id":"ce4bhnp2rcd13ifvqgvg","pricing_plan_id":"free"},{"bike_id":"6c1b86ae-6f99-47ab-850c-d6cfd7e427f3","system_id":"levelo_inurba_marseille","lat":43.240623,"lon":5.377642,"is_reserved":false,"is_disabled":false,"rental_uris":{"android":"levelo://app?vid=6c1b86ae-6f99-47ab-850c-d6cfd7e427f3","ios":"levelo://app?vid=6c1b86ae-6f99-47ab-850c-d6cfd7e427f3"},"vehicle_type_id":"4","last_reported":1679137549,"current_range_meters":22800,"station_id":"ce4bhnp2rcd13ifvqgvg","pricing_plan_id":"free"},{"bike_id":"77800063-d00a-4522-9222-b8d7fdda693b","system_id":"levelo_inurba_marseille","lat":43.240623,"lon":5.377642,"is_reserved":false,"is_disabled":false,"rental_uris":{"android":"levelo://app?vid=77800063-d00a-4522-9222-b8d7fdda693b","ios":"levelo://app?vid=77800063-d00a-4522-9222-b8d7fdda693b"},"vehicle_type_id":"4","last_reported":1679137549,"current_range_meters":31600,"station_id":"ce4bhnp2rcd13ifvqgvg","pricing_plan_id":"free"},{"bike_id":"339c1e63-5f80-41c0-9b02-04a53519dd7f","system_id":"levelo_inurba_marseille","lat":43.240623,"lon":5.377642,"is_reserved":false,"is_disabled":false,"rental_uris":{"android":"levelo://app?vid=339c1e63-5f80-41c0-9b02-04a53519dd7f","ios":"levelo://app?vid=339c1e63-5f80-41c0-9b02-04a53519dd7f"},"vehicle_type_id":"4","last_reported":1679137549,"current_range_meters":18800,"station_id":"ce4bhnp2rcd13ifvqgvg","pricing_plan_id":"free"},{"bike_id":"811a07ed-5ca5-49ed-93cc-5ab9d215e5d0","system_id":"levelo_inurba_marseille","lat":43.24069,"lon":5.37763,"is_reserved":false,"is_disabled":false,"rental_uris":{"android":"levelo://app?vid=811a07ed-5ca5-49ed-93cc-5ab9d215e5d0","ios":"levelo://app?vid=811a07ed-5ca5-49ed-93cc-5ab9d215e5d0"},"vehicle_type_id":"4","last_reported":1679137549,"current_range_meters":26400,"station_id":"","pricing_plan_id":"free"},{"bike_id":"1b1d4d40-f035-4b05-ac23-061d1c3ac3e4","system_id":"levelo_inurba_marseille","lat":43.240623,"lon":5.377642,"is_reserved":false,"is_disabled":false,"rental_uris":{"android":"levelo://app?vid=1b1d4d40-f035-4b05-ac23-061d1c3ac3e4","ios":"levelo://app?vid=1b1d4d40-f035-4b05-ac23-061d1c3ac3e4"},"vehicle_type_id":"4","last_reported":1679137549,"current_range_meters":31200,"station_id":"ce4bhnp2rcd13ifvqgvg","pricing_plan_id":"free"},{"bike_id":"1cf51fd7-292b-4239-aa57-f8f4b8e031d4","system_id":"levelo_inurba_marseille","lat":43.240623,"lon":5.377642,"is_reserved":false,"is_disabled":false,"rental_uris":{"android":"levelo://app?vid=1cf51fd7-292b-4239-aa57-f8f4b8e031d4","ios":"levelo://app?vid=1cf51fd7-292b-4239-aa57-f8f4b8e031d4"},"vehicle_type_id":"4","last_reported":1679137549,"current_range_meters":31600,"station_id":"ce4bhnp2rcd13ifvqgvg","pricing_plan_id":"free"},{"bike_id":"4e730d75-f3e8-4fce-9074-2369ce73636a","system_id":"levelo_inurba_marseille","lat":43.239588,"lon":5.366238,"is_reserved":false,"is_disabled":false,"rental_uris":{"android":"levelo://app?vid=4e730d75-f3e8-4fce-9074-2369ce73636a","ios":"levelo://app?vid=4e730d75-f3e8-4fce-9074-2369ce73636a"},"vehicle_type_id":"4","last_reported":1679137549,"current_range_meters":21600,"station_id":"ce4bhi12rcd13ifvqfp0","pricing_plan_id":"free"},{"bike_id":"1160818b-86ff-4cff-80c0-e478bee146f0","system_id":"levelo_inurba_marseille","lat":43.239588,"lon":5.366238,"is_reserved":false,"is_disabled":false,"rental_uris":{"android":"levelo://app?vid=1160818b-86ff-4cff-80c0-e478bee146f0","ios":"levelo://app?vid=1160818b-86ff-4cff-80c0-e478bee146f0"},"vehicle_type_id":"4","last_reported":1679137549,"current_range_meters":30800,"station_id":"ce4bhi12rcd13ifvqfp0","pricing_plan_id":"free"},{"bike_id":"b7c0b7fd-b75f-4654-849d-0c508a7e912a","system_id":"levelo_inurba_marseille","lat":43.239588,"lon":5.366238,"is_reserved":false,"is_disabled":false,"rental_uris":{"android":"levelo://app?vid=b7c0b7fd-b75f-4654-849d-0c508a7e912a","ios":"levelo://app?vid=b7c0b7fd-b75f-4654-849d-0c508a7e912a"},"vehicle_type_id":"4","last_reported":1679137549,"current_range_meters":31600,"station_id":"ce4bhi12rcd13ifvqfp0","pricing_plan_id":"free"},{"bike_id":"ab394c89-8497-404c-883e-f087b1f270d4","system_id":"levelo_inurba_marseille","lat":43.23962,"lon":5.36634,"is_reserved":false,"is_disabled":false,"rental_uris":{"android":"levelo://app?vid=ab394c89-8497-404c-883e-f087b1f270d4","ios":"levelo://app?vid=ab394c89-8497-404c-883e-f087b1f270d4"},"vehicle_type_id":"4","last_reported":1679137549,"current_range_meters":26400,"station_id":"ce4bhi12rcd13ifvqfp0","pricing_plan_id":"free"},{"bike_id":"f960b67b-eb2e-4f7c-a88b-6b2a6352d4a8","system_id":"levelo_inurba_marseille","lat":43.239614,"lon":5.366298,"is_reserved":false,"is_disabled":false,"rental_uris":{"android":"levelo://app?vid=f960b67b-eb2e-4f7c-a88b-6b2a6352d4a8","ios":"levelo://app?vid=f960b67b-eb2e-4f7c-a88b-6b2a6352d4a8"},"vehicle_type_id":"4","last_reported":1679137549,"current_range_meters":24400,"station_id":"ce4bhi12rcd13ifvqfp0","pricing_plan_id":"free"},{"bike_id":"ce0d0e2f-16b2-419e-bf1d-7ecab68ee399","system_id":"levelo_inurba_marseille","lat":43.239588,"lon":5.366238,"is_reserved":false,"is_disabled":false,"rental_uris":{"android":"levelo://app?vid=ce0d0e2f-16b2-419e-bf1d-7ecab68ee399","ios":"levelo://app?vid=ce0d0e2f-16b2-419e-bf1d-7ecab68ee399"},"vehicle_type_id":"4","last_reported":1679137549,"current_range_meters":31600,"station_id":"ce4bhi12rcd13ifvqfp0","pricing_plan_id":"free"},{"bike_id":"a93c0770-e4fd-489f-a66a-ccd3ea1c69fc","system_id":"levelo_inurba_marseille","lat":43.2396,"lon":5.366343,"is_reserved":false,"is_disabled":false,"rental_uris":{"android":"levelo://app?vid=a93c0770-e4fd-489f-a66a-ccd3ea1c69fc","ios":"levelo://app?vid=a93c0770-e4fd-489f-a66a-ccd3ea1c69fc"},"vehicle_type_id":"4","last_reported":1679137549,"current_range_meters":20400,"station_id":"ce4bhi12rcd13ifvqfp0","pricing_plan_id":"free"},{"bike_id":"437b3b28-7def-4438-aff1-8bc916abfa6d","system_id":"levelo_inurba_marseille","lat":43.241782,"lon":5.397264,"is_reserved":false,"is_disabled":false,"rental_uris":{"android":"levelo://app?vid=437b3b28-7def-4438-aff1-8bc916abfa6d","ios":"levelo://app?vid=437b3b28-7def-4438-aff1-8bc916abfa6d"},"vehicle_type_id":"4","last_reported":1679137549,"current_range_meters":20400,"station_id":"ce4bhn12rcd13ifvqgpg","pricing_plan_id":"free"},{"bike_id":"c97a4080-8b03-41c3-aabf-61ffb1ae7bc3","system_id":"levelo_inurba_marseille","lat":43.241782,"lon":5.397264,"is_reserved":false,"is_disabled":false,"rental_uris":{"android":"levelo://app?vid=c97a4080-8b03-41c3-aabf-61ffb1ae7bc3","ios":"levelo://app?vid=c97a4080-8b03-41c3-aabf-61ffb1ae7bc3"},"vehicle_type_id":"4","last_reported":1679137549,"current_range_meters":31600,"station_id":"ce4bhn12rcd13ifvqgpg","pricing_plan_id":"free"},{"bike_id":"383b24ac-9324-4dd9-91f6-51ce7fd5181a","system_id":"levelo_inurba_marseille","lat":43.241782,"lon":5.397264,"is_reserved":false,"is_disabled":false,"rental_uris":{"android":"levelo://app?vid=383b24ac-9324-4dd9-91f6-51ce7fd5181a","ios":"levelo://app?vid=383b24ac-9324-4dd9-91f6-51ce7fd5181a"},"vehicle_type_id":"4","last_reported":1679137549,"current_range_meters":31600,"station_id":"ce4bhn12rcd13ifvqgpg","pricing_plan_id":"free"},{"bike_id":"88879922-dcd9-4b6f-9fe6-a6a039e9642d","system_id":"levelo_inurba_marseille","lat":43.231923,"lon":5.355545,"is_reserved":false,"is_disabled":false,"rental_uris":{"android":"levelo://app?vid=88879922-dcd9-4b6f-9fe6-a6a039e9642d","ios":"levelo://app?vid=88879922-dcd9-4b6f-9fe6-a6a039e9642d"},"vehicle_type_id":"4","last_reported":1679137549,"current_range_meters":31600,"station_id":"ce4bhu92rcd13ifvqi70","pricing_plan_id":"free"},{"bike_id":"9396a642-8421-4ca9-b20d-a2492104caf9","system_id":"levelo_inurba_marseille","lat":43.231919,"lon":5.355532,"is_reserved":false,"is_disabled":false,"rental_uris":{"android":"levelo://app?vid=9396a642-8421-4ca9-b20d-a2492104caf9","ios":"levelo://app?vid=9396a642-8421-4ca9-b20d-a2492104caf9"},"vehicle_type_id":"4","last_reported":1679137549,"current_range_meters":32000,"station_id":"ce4bhu92rcd13ifvqi70","pricing_plan_id":"free"},{"bike_id":"f9079c9a-45b1-4321-bdd7-c26504f6524c","system_id":"levelo_inurba_marseille","lat":43.231923,"lon":5.355545,"is_reserved":false,"is_disabled":false,"rental_uris":{"android":"levelo://app?vid=f9079c9a-45b1-4321-bdd7-c26504f6524c","ios":"levelo://app?vid=f9079c9a-45b1-4321-bdd7-c26504f6524c"},"vehicle_type_id":"4","last_reported":1679137549,"current_range_meters":29600,"station_id":"ce4bhu92rcd13ifvqi70","pricing_plan_id":"free"},{"bike_id":"b9f6f4f0-f36b-4f70-8715-1fede5862196","system_id":"levelo_inurba_marseille","lat":43.231919,"lon":5.355532,"is_reserved":false,"is_disabled":false,"rental_uris":{"android":"levelo://app?vid=b9f6f4f0-f36b-4f70-8715-1fede5862196","ios":"levelo://app?vid=b9f6f4f0-f36b-4f70-8715-1fede5862196"},"vehicle_type_id":"4","last_reported":1679137549,"current_range_meters":31600,"station_id":"ce4bhu92rcd13ifvqi70","pricing_plan_id":"free"},{"bike_id":"956fe110-a343-4414-91a1-6e3d50bfa094","system_id":"levelo_inurba_marseille","lat":43.231923,"lon":5.355545,"is_reserved":false,"is_disabled":false,"rental_uris":{"android":"levelo://app?vid=956fe110-a343-4414-91a1-6e3d50bfa094","ios":"levelo://app?vid=956fe110-a343-4414-91a1-6e3d50bfa094"},"vehicle_type_id":"4","last_reported":1679137549,"current_range_meters":31600,"station_id":"ce4bhu92rcd13ifvqi70","pricing_plan_id":"free"},{"bike_id":"5c296cfe-bb42-4ddc-9604-9304ff266475","system_id":"levelo_inurba_marseille","lat":43.231919,"lon":5.355532,"is_reserved":false,"is_disabled":false,"rental_uris":{"android":"levelo://app?vid=5c296cfe-bb42-4ddc-9604-9304ff266475","ios":"levelo://app?vid=5c296cfe-bb42-4ddc-9604-9304ff266475"},"vehicle_type_id":"4","last_reported":1679137549,"current_range_meters":32000,"station_id":"ce4bhu92rcd13ifvqi70","pricing_plan_id":"free"},{"bike_id":"db8b1c8e-dd5e-4e52-8bde-220d8004abe5","system_id":"levelo_inurba_marseille","lat":43.231923,"lon":5.355545,"is_reserved":false,"is_disabled":false,"rental_uris":{"android":"levelo://app?vid=db8b1c8e-dd5e-4e52-8bde-220d8004abe5","ios":"levelo://app?vid=db8b1c8e-dd5e-4e52-8bde-220d8004abe5"},"vehicle_type_id":"4","last_reported":1679137549,"current_range_meters":16400,"station_id":"ce4bhu92rcd13ifvqi70","pricing_plan_id":"free"},{"bike_id":"ff98316f-748f-4069-a942-b27635abd352","system_id":"levelo_inurba_marseille","lat":43.231923,"lon":5.355545,"is_reserved":false,"is_disabled":false,"rental_uris":{"android":"levelo://app?vid=ff98316f-748f-4069-a942-b27635abd352","ios":"levelo://app?vid=ff98316f-748f-4069-a942-b27635abd352"},"vehicle_type_id":"4","last_reported":1679137549,"current_range_meters":31600,"station_id":"ce4bhu92rcd13ifvqi70","pricing_plan_id":"free"},{"bike_id":"0010ebe6-0da4-49c8-96ff-1cfa6d1925a0","system_id":"levelo_inurba_marseille","lat":43.231919,"lon":5.355532,"is_reserved":false,"is_disabled":false,"rental_uris":{"android":"levelo://app?vid=0010ebe6-0da4-49c8-96ff-1cfa6d1925a0","ios":"levelo://app?vid=0010ebe6-0da4-49c8-96ff-1cfa6d1925a0"},"vehicle_type_id":"4","last_reported":1679137549,"current_range_meters":26400,"station_id":"ce4bhu92rcd13ifvqi70","pricing_plan_id":"free"},{"bike_id":"11c62a0d-7882-4db7-9dce-2e8145ca1f47","system_id":"levelo_inurba_marseille","lat":43.231919,"lon":5.355532,"is_reserved":false,"is_disabled":false,"rental_uris":{"android":"levelo://app?vid=11c62a0d-7882-4db7-9dce-2e8145ca1f47","ios":"levelo://app?vid=11c62a0d-7882-4db7-9dce-2e8145ca1f47"},"vehicle_type_id":"4","last_reported":1679137549,"current_range_meters":15600,"station_id":"ce4bhu92rcd13ifvqi70","pricing_plan_id":"free"},{"bike_id":"c609bd05-9ac8-45c2-9e95-79b7cc3205ec","system_id":"levelo_inurba_marseille","lat":43.231919,"lon":5.355532,"is_reserved":false,"is_disabled":false,"rental_uris":{"android":"levelo://app?vid=c609bd05-9ac8-45c2-9e95-79b7cc3205ec","ios":"levelo://app?vid=c609bd05-9ac8-45c2-9e95-79b7cc3205ec"},