{"last_updated":1704218961,"ttl":30,"version":"2.2","data":{"bikes":[{"bike_id":"93617ab3-b933-493b-90fc-f66e4d44f71f","system_id":"levelo_inurba_marseille","lat":43.31494,"lon":5.37301,"is_reserved":false,"is_disabled":false,"rental_uris":{"android":"levelo://app?vid=93617ab3-b933-493b-90fc-f66e4d44f71f","ios":"levelo://app?vid=93617ab3-b933-493b-90fc-f66e4d44f71f"},"vehicle_type_id":"4","last_reported":1704218961,"current_range_meters":0,"station_id":"ce4bgt12rcd13ifvqcd0","pricing_plan_id":"free"},{"bike_id":"a926c6c3-cc7d-487e-9f2a-0f561ebc1f50","system_id":"levelo_inurba_marseille","lat":43.314811,"lon":5.373104,"is_reserved":false,"is_disabled":false,"rental_uris":{"android":"levelo://app?vid=a926c6c3-cc7d-487e-9f2a-0f561ebc1f50","ios":"levelo://app?vid=a926c6c3-cc7d-487e-9f2a-0f561ebc1f50"},"vehicle_type_id":"4","last_reported":1704218961,"current_range_meters":13600,"station_id":"ce4bgt12rcd13ifvqcd0","pricing_plan_id":"free"},{"bike_id":"177a7016-72b6-4d3c-9792-1145e7783ea6","system_id":"levelo_inurba_marseille","lat":43.305989,"lon":5.37225,"is_reserved":false,"is_disabled":false,"rental_uris":{"android":"levelo://app?vid=177a7016-72b6-4d3c-9792-1145e7783ea6","ios":"levelo://app?vid=177a7016-72b6-4d3c-9792-1145e7783ea6"},"vehicle_type_id":"4","last_reported":1704218961,"current_range_meters":26800,"station_id":"ce4bgqh2rcd13ifvqc4g","pricing_plan_id":"free"},{"bike_id":"0469a7f6-beff-4c64-b1fe-fa03767c47ca","system_id":"levelo_inurba_marseille","lat":43.317075,"lon":5.377367,"is_reserved":false,"is_disabled":false,"rental_uris":{"android":"levelo://app?vid=0469a7f6-beff-4c64-b1fe-fa03767c47ca","ios":"levelo://app?vid=0469a7f6-beff-4c64-b1fe-fa03767c47ca"},"vehicle_type_id":"4","last_reported":1704218961,"current_range_meters":24000,"station_id":"ce4bgth2rcd13ifvqch0","pricing_plan_id":"free"},{"bike_id":"25af9e1c-886c-4f64-92f2-5ca68e46ae4a","system_id":"levelo_inurba_marseille","lat":43.31722,"lon":5.37668,"is_reserved":false,"is_disabled":false,"rental_uris":{"android":"levelo://app?vid=25af9e1c-886c-4f64-92f2-5ca68e46ae4a","ios":"levelo://app?vid=25af9e1c-886c-4f64-92f2-5ca68e46ae4a"},"vehicle_type_id":"4","last_reported":1704218961,"current_range_meters":13600,"station_id":"","pricing_plan_id":"free"},{"bike_id":"fda865ec-3f75-4f64-9f03-d7d64edceca3","system_id":"levelo_inurba_marseille","lat":43.308433,"lon":5.377297,"is_reserved":false,"is_disabled":false,"rental_uris":{"android":"levelo://app?vid=fda865ec-3f75-4f64-9f03-d7d64edceca3","ios":"levelo://app?vid=fda865ec-3f75-4f64-9f03-d7d64edceca3"},"vehicle_type_id":"4","last_reported":1704218961,"current_range_meters":0,"station_id":"","pricing_plan_id":"free"},{"bike_id":"a158a497-f5e0-4b42-a166-096899b92f55","system_id":"levelo_inurba_marseille","lat":43.317075,"lon":5.377367,"is_reserved":false,"is_disabled":false,"rental_uris":{"android":"levelo://app?vid=a158a497-f5e0-4b42-a166-096899b92f55","ios":"levelo://app?vid=a158a497-f5e0-4b42-a166-096899b92f55"},"vehicle_type_id":"4","last_reported":1704218961,"current_range_meters":8400,"station_id":"ce4bgth2rcd13ifvqch0","pricing_plan_id":"free"},{"bike_id":"086e6c4e-c719-4117-b81a-b622f4f7a36c","system_id":"levelo_inurba_marseille","lat":43.317075,"lon":5.377367,"is_reserved":false,"is_disabled":false,"rental_uris":{"android":"levelo://app?vid=086e6c4e-c719-4117-b81a-b622f4f7a36c","ios":"levelo://app?vid=086e6c4e-c719-4117-b81a-b622f4f7a36c"},"vehicle_type_id":"4","last_reported":1704218961,"current_range_meters":18800,"station_id":"ce4bgth2rcd13ifvqch0","pricing_plan_id":"free"},{"bike_id":"056acc95-4722-44d4-8447-223ecd5edc6a","system_id":"levelo_inurba_marseille","lat":43.301939,"lon":5.366286,"is_reserved":false,"is_disabled":false,"rental_uris":{"android":"levelo://app?vid=056acc95-4722-44d4-8447-223ecd5edc6a","ios":"levelo://app?vid=056acc95-4722-44d4-8447-223ecd5edc6a"},"vehicle_type_id":"4","last_reported":1704218961,"current_range_meters":26400,"station_id":"ce4bgrh2rcd13ifvqc8g","pricing_plan_id":"free"},{"bike_id":"15239b33-6a40-4bba-9c04-91cd8bc34c35","system_id":"levelo_inurba_marseille","lat":43.308012,"lon":5.381511,"is_reserved":false,"is_disabled":false,"rental_uris":{"android":"levelo://app?vid=15239b33-6a40-4bba-9c04-91cd8bc34c35","ios":"levelo://app?vid=15239b33-6a40-4bba-9c04-91cd8bc34c35"},"vehicle_type_id":"4","last_reported":1704218961,"current_range_meters":7200,"station_id":"ce4bgt12rcd13ifvqce0","pricing_plan_id":"free"},{"bike_id":"918b0c4f-9f90-4a33-8454-b6b062a47494","system_id":"levelo_inurba_marseille","lat":43.31077,"lon":5.38302,"is_reserved":false,"is_disabled":false,"rental_uris":{"android":"levelo://app?vid=918b0c4f-9f90-4a33-8454-b6b062a47494","ios":"levelo://app?vid=918b0c4f-9f90-4a33-8454-b6b062a47494"},"vehicle_type_id":"4","last_reported":1704218961,"current_range_meters":9600,"station_id":"ce4bgt92rcd13ifvqcf0","pricing_plan_id":"free"},{"bike_id":"5377074b-30e2-4d67-825b-9deb3b1dbed3","system_id":"levelo_inurba_marseille","lat":43.304708,"lon":5.379039,"is_reserved":false,"is_disabled":false,"rental_uris":{"android":"levelo://app?vid=5377074b-30e2-4d67-825b-9deb3b1dbed3","ios":"levelo://app?vid=5377074b-30e2-4d67-825b-9deb3b1dbed3"},"vehicle_type_id":"4","last_reported":1704218961,"current_range_meters":10000,"station_id":"","pricing_plan_id":"free"},{"bike_id":"83528385-c0b9-4dc4-82c5-231a156e147d","system_id":"levelo_inurba_marseille","lat":43.304606,"lon":5.379026,"is_reserved":false,"is_disabled":false,"rental_uris":{"android":"levelo://app?vid=83528385-c0b9-4dc4-82c5-231a156e147d","ios":"levelo://app?vid=83528385-c0b9-4dc4-82c5-231a156e147d"},"vehicle_type_id":"4","last_reported":1704218961,"current_range_meters":10800,"station_id":"ce4bgup2rcd13ifvqcn0","pricing_plan_id":"free"},{"bike_id":"ad6ad867-32a9-46eb-abb2-554e24d06a1f","system_id":"levelo_inurba_marseille","lat":43.319935,"lon":5.381699,"is_reserved":false,"is_disabled":false,"rental_uris":{"android":"levelo://app?vid=ad6ad867-32a9-46eb-abb2-554e24d06a1f","ios":"levelo://app?vid=ad6ad867-32a9-46eb-abb2-554e24d06a1f"},"vehicle_type_id":"4","last_reported":1704218961,"current_range_meters":0,"station_id":"ce4bhr12rcd13ifvqhpg","pricing_plan_id":"free"},{"bike_id":"fae05253-4b26-440e-8f8a-e295278bc93b","system_id":"levelo_inurba_marseille","lat":43.313571,"lon":5.384829,"is_reserved":false,"is_disabled":false,"rental_uris":{"android":"levelo://app?vid=fae05253-4b26-440e-8f8a-e295278bc93b","ios":"levelo://app?vid=fae05253-4b26-440e-8f8a-e295278bc93b"},"vehicle_type_id":"4","last_reported":1704218961,"current_range_meters":23600,"station_id":"ce4bgt92rcd13ifvqcf0","pricing_plan_id":"free"},{"bike_id":"d60c186d-8dd5-4367-932d-c10a72aed291","system_id":"levelo_inurba_marseille","lat":43.31355,"lon":5.38489,"is_reserved":false,"is_disabled":false,"rental_uris":{"android":"levelo://app?vid=d60c186d-8dd5-4367-932d-c10a72aed291","ios":"levelo://app?vid=d60c186d-8dd5-4367-932d-c10a72aed291"},"vehicle_type_id":"4","last_reported":1704218961,"current_range_meters":15600,"station_id":"ce4bgt92rcd13ifvqcf0","pricing_plan_id":"free"},{"bike_id":"6617089a-5fe6-453e-8385-18d8a8658822","system_id":"levelo_inurba_marseille","lat":43.313571,"lon":5.384829,"is_reserved":false,"is_disabled":false,"rental_uris":{"android":"levelo://app?vid=6617089a-5fe6-453e-8385-18d8a8658822","ios":"levelo://app?vid=6617089a-5fe6-453e-8385-18d8a8658822"},"vehicle_type_id":"4","last_reported":1704218961,"current_range_meters":29600,"station_id":"ce4bgt92rcd13ifvqcf0","pricing_plan_id":"free"},{"bike_id":"e988250e-f10c-43a1-867f-c67f69689b04","system_id":"levelo_inurba_marseille","lat":43.31361,"lon":5.38492,"is_reserved":false,"is_disabled":false,"rental_uris":{"android":"levelo://app?vid=e988250e-f10c-43a1-867f-c67f69689b04","ios":"levelo://app?vid=e988250e-f10c-43a1-867f-c67f69689b04"},"vehicle_type_id":"4","last_reported":1704218961,"current_range_meters":4000,"station_id":"ce4bgt92rcd13ifvqcf0","pricing_plan_id":"free"},{"bike_id":"a2427446-c7b0-492e-97cf-bdde94dfd9b4","system_id":"levelo_inurba_marseille","lat":43.313571,"lon":5.384829,"is_reserved":false,"is_disabled":false,"rental_uris":{"android":"levelo://app?vid=a2427446-c7b0-492e-97cf-bdde94dfd9b4","ios":"levelo://app?vid=a2427446-c7b0-492e-97cf-bdde94dfd9b4"},"vehicle_type_id":"4","last_reported":1704218961,"current_range_meters":22800,"station_id":"ce4bgt92rcd13ifvqcf0","pricing_plan_id":"free"},{"bike_id":"5064bb0a-92ad-4e40-ac0d-287b35d02dbf","system_id":"levelo_inurba_marseille","lat":43.31357,"lon":5.38503,"is_reserved":false,"is_disabled":false,"rental_uris":{"android":"levelo://app?vid=5064bb0a-92ad-4e40-ac0d-287b35d02dbf","ios":"levelo://app?vid=5064bb0a-92ad-4e40-ac0d-287b35d02dbf"},"vehicle_type_id":"4","last_reported":1704218961,"current_range_meters":1600,"station_id":"ce4bgt92rcd13ifvqcf0","pricing_plan_id":"free"},{"bike_id":"17504bde-947a-4cd6-98b3-9a4c66aca99b","system_id":"levelo_inurba_marseille","lat":43.313827,"lon":5.385007,"is_reserved":false,"is_disabled":false,"rental_uris":{"android":"levelo://app?vid=17504bde-947a-4cd6-98b3-9a4c66aca99b","ios":"levelo://app?vid=17504bde-947a-4cd6-98b3-9a4c66aca99b"},"vehicle_type_id":"4","last_reported":1704218961,"current_range_meters":20400,"station_id":"ce4bgt92rcd13ifvqcf0","pricing_plan_id":"free"},{"bike_id":"78c2de0e-6eca-459e-9fd3-b367fa89c7a6","system_id":"levelo_inurba_marseille","lat":43.299724,"lon":5.371829,"is_reserved":false,"is_disabled":false,"rental_uris":{"android":"levelo://app?vid=78c2de0e-6eca-459e-9fd3-b367fa89c7a6","ios":"levelo://app?vid=78c2de0e-6eca-459e-9fd3-b367fa89c7a6"},"vehicle_type_id":"4","last_reported":1704218961,"current_range_meters":6400,"station_id":"ce4bgr92rcd13ifvqc7g","pricing_plan_id":"free"},{"bike_id":"7cdbed5f-b8f4-4b52-b95d-a83170f67b64","system_id":"levelo_inurba_marseille","lat":43.299724,"lon":5.371829,"is_reserved":false,"is_disabled":false,"rental_uris":{"android":"levelo://app?vid=7cdbed5f-b8f4-4b52-b95d-a83170f67b64","ios":"levelo://app?vid=7cdbed5f-b8f4-4b52-b95d-a83170f67b64"},"vehicle_type_id":"4","last_reported":1704218961,"current_range_meters":25600,"station_id":"ce4bgr92rcd13ifvqc7g","pricing_plan_id":"free"},{"bike_id":"51f410c6-3f1c-44f7-89d7-d9f7d1eb75dc","system_id":"levelo_inurba_marseille","lat":43.299222,"lon":5.365554,"is_reserved":false,"is_disabled":false,"rental_uris":{"android":"levelo://app?vid=51f410c6-3f1c-44f7-89d7-d9f7d1eb75dc","ios":"levelo://app?vid=51f410c6-3f1c-44f7-89d7-d9f7d1eb75dc"},"vehicle_type_id":"4","last_reported":1704218961,"current_range_meters":15600,"station_id":"ce4bgm92rcd13ifvqbr0","pricing_plan_id":"free"},{"bike_id":"f7592c01-ad29-4947-95d8-b54252a3c50a","system_id":"levelo_inurba_marseille","lat":43.299243,"lon":5.37481,"is_reserved":false,"is_disabled":false,"rental_uris":{"android":"levelo://app?vid=f7592c01-ad29-4947-95d8-b54252a3c50a","ios":"levelo://app?vid=f7592c01-ad29-4947-95d8-b54252a3c50a"},"vehicle_type_id":"4","last_reported":1704218961,"current_range_meters":16400,"station_id":"ce4bgjh2rcd13ifvqbg0","pricing_plan_id":"free"},{"bike_id":"73de5b08-f686-4345-9f50-452e6ba9e500","system_id":"levelo_inurba_marseille","lat":43.311722,"lon":5.387247,"is_reserved":false,"is_disabled":false,"rental_uris":{"android":"levelo://app?vid=73de5b08-f686-4345-9f50-452e6ba9e500","ios":"levelo://app?vid=73de5b08-f686-4345-9f50-452e6ba9e500"},"vehicle_type_id":"4","last_reported":1704218961,"current_range_meters":25600,"station_id":"ce4bgv12rcd13ifvqcp0","pricing_plan_id":"free"},{"bike_id":"9e316ee8-7f02-4c13-8183-4d9c57cafd93","system_id":"levelo_inurba_marseille","lat":43.311722,"lon":5.387247,"is_reserved":false,"is_disabled":false,"rental_uris":{"android":"levelo://app?vid=9e316ee8-7f02-4c13-8183-4d9c57cafd93","ios":"levelo://app?vid=9e316ee8-7f02-4c13-8183-4d9c57cafd93"},"vehicle_type_id":"4","last_reported":1704218961,"current_range_meters":5600,"station_id":"ce4bgv12rcd13ifvqcp0","pricing_plan_id":"free"},{"bike_id":"f629bdd7-11a7-4b7c-9182-6332f4076f6b","system_id":"levelo_inurba_marseille","lat":43.32549,"lon":5.37729,"is_reserved":false,"is_disabled":false,"rental_uris":{"android":"levelo://app?vid=f629bdd7-11a7-4b7c-9182-6332f4076f6b","ios":"levelo://app?vid=f629bdd7-11a7-4b7c-9182-6332f4076f6b"},"vehicle_type_id":"4","last_reported":1704218961,"current_range_meters":18400,"station_id":"","pricing_plan_id":"free"},{"bike_id":"3dca080c-933a-426a-9e47-ab29288e76a9","system_id":"levelo_inurba_marseille","lat":43.311722,"lon":5.387247,"is_reserved":false,"is_disabled":false,"rental_uris":{"android":"levelo://app?vid=3dca080c-933a-426a-9e47-ab29288e76a9","ios":"levelo://app?vid=3dca080c-933a-426a-9e47-ab29288e76a9"},"vehicle_type_id":"4","last_reported":1704218961,"current_range_meters":7600,"station_id":"ce4bgv12rcd13ifvqcp0","pricing_plan_id":"free"},{"bike_id":"8752a032-5a63-4551-8b69-590b5f45408e","system_id":"levelo_inurba_marseille","lat":43.322872,"lon":5.382756,"is_reserved":false,"is_disabled":false,"rental_uris":{"android":"levelo://app?vid=8752a032-5a63-4551-8b69-590b5f45408e","ios":"levelo://app?vid=8752a032-5a63-4551-8b69-590b5f45408e"},"vehicle_type_id":"4","last_reported":1704218961,"current_range_meters":24800,"station_id":"ce4bhr12rcd13ifvqhqg","pricing_plan_id":"free"},{"bike_id":"6b1c1cd9-bf21-4435-aa35-31f0298b8839","system_id":"levelo_inurba_marseille","lat":43.297774,"lon":5.370875,"is_reserved":false,"is_disabled":false,"rental_uris":{"android":"levelo://app?vid=6b1c1cd9-bf21-4435-aa35-31f0298b8839","ios":"levelo://app?vid=6b1c1cd9-bf21-4435-aa35-31f0298b8839"},"vehicle_type_id":"4","last_reported":1704218961,"current_range_meters":18000,"station_id":"ce4bgop2rcd13ifvqc1g","pricing_plan_id":"free"},{"bike_id":"f206342c-38bc-4948-a4e1-517e8437b144","system_id":"levelo_inurba_marseille","lat":43.328371,"lon":5.366912,"is_reserved":false,"is_disabled":false,"rental_uris":{"android":"levelo://app?vid=f206342c-38bc-4948-a4e1-517e8437b144","ios":"levelo://app?vid=f206342c-38bc-4948-a4e1-517e8437b144"},"vehicle_type_id":"4","last_reported":1704218961,"current_range_meters":11200,"station_id":"ce4bhs92rcd13ifvqi0g","pricing_plan_id":"free"},{"bike_id":"2c34cac5-58a3-4ec6-a51a-0e680d5b2c4e","system_id":"levelo_inurba_marseille","lat":43.328371,"lon":5.366912,"is_reserved":false,"is_disabled":false,"rental_uris":{"android":"levelo://app?vid=2c34cac5-58a3-4ec6-a51a-0e680d5b2c4e","ios":"levelo://app?vid=2c34cac5-58a3-4ec6-a51a-0e680d5b2c4e"},"vehicle_type_id":"4","last_reported":1704218961,"current_range_meters":18400,"station_id":"ce4bhs92rcd13ifvqi0g","pricing_plan_id":"free"},{"bike_id":"e25879d8-1688-47e8-8a17-f3fd5e5877cc","system_id":"levelo_inurba_marseille","lat":43.328371,"lon":5.366912,"is_reserved":false,"is_disabled":false,"rental_uris":{"android":"levelo://app?vid=e25879d8-1688-47e8-8a17-f3fd5e5877cc","ios":"levelo://app?vid=e25879d8-1688-47e8-8a17-f3fd5e5877cc"},"vehicle_type_id":"4","last_reported":1704218961,"current_range_meters":9600,"station_id":"ce4bhs92rcd13ifvqi0g","pricing_plan_id":"free"},{"bike_id":"98fd740c-da1c-45aa-a4bb-91192fa701c6","system_id":"levelo_inurba_marseille","lat":43.328371,"lon":5.366912,"is_reserved":false,"is_disabled":false,"rental_uris":{"android":"levelo://app?vid=98fd740c-da1c-45aa-a4bb-91192fa701c6","ios":"levelo://app?vid=98fd740c-da1c-45aa-a4bb-91192fa701c6"},"vehicle_type_id":"4","last_reported":1704218961,"current_range_meters":10800,"station_id":"ce4bhs92rcd13ifvqi0g","pricing_plan_id":"free"},{"bike_id":"9e975a2c-d17e-401a-ab86-dc7630bbfee5","system_id":"levelo_inurba_marseille","lat":43.297163,"lon":5.365866,"is_reserved":false,"is_disabled":false,"rental_uris":{"android":"levelo://app?vid=9e975a2c-d17e-401a-ab86-dc7630bbfee5","ios":"levelo://app?vid=9e975a2c-d17e-401a-ab86-dc7630bbfee5"},"vehicle_type_id":"4","last_reported":1704218961,"current_range_meters":12000,"station_id":"ce4bgn12rcd13ifvqbt0","pricing_plan_id":"free"},{"bike_id":"88ae529d-15c8-4fee-967c-2babcd5eb2ee","system_id":"levelo_inurba_marseille","lat":43.297163,"lon":5.365866,"is_reserved":false,"is_disabled":false,"rental_uris":{"android":"levelo://app?vid=88ae529d-15c8-4fee-967c-2babcd5eb2ee","ios":"levelo://app?vid=88ae529d-15c8-4fee-967c-2babcd5eb2ee"},"vehicle_type_id":"4","last_reported":1704218961,"current_range_meters":6000,"station_id":"ce4bgn12rcd13ifvqbt0","pricing_plan_id":"free"},{"bike_id":"370cccf7-c9ba-46c2-819b-c8e8cacc4c21","system_id":"levelo_inurba_marseille","lat":43.3277,"lon":5.37458,"is_reserved":false,"is_disabled":false,"rental_uris":{"android":"levelo://app?vid=370cccf7-c9ba-46c2-819b-c8e8cacc4c21","ios":"levelo://app?vid=370cccf7-c9ba-46c2-819b-c8e8cacc4c21"},"vehicle_type_id":"4","last_reported":1704218961,"current_range_meters":8000,"station_id":"","pricing_plan_id":"free"},{"bike_id":"dd14bc55-ab59-4eb7-b9c6-4faa05018f85","system_id":"levelo_inurba_marseille","lat":43.2968,"lon":5.37291,"is_reserved":false,"is_disabled":false,"rental_uris":{"android":"levelo://app?vid=dd14bc55-ab59-4eb7-b9c6-4faa05018f85","ios":"levelo://app?vid=dd14bc55-ab59-4eb7-b9c6-4faa05018f85"},"vehicle_type_id":"4","last_reported":1704218961,"current_range_meters":19600,"station_id":"ce4bgk12rcd13ifvqbj0","pricing_plan_id":"free"},{"bike_id":"515528e7-40f1-499b-b1b4-2739acbd1445","system_id":"levelo_inurba_marseille","lat":43.29573,"lon":5.367355,"is_reserved":false,"is_disabled":false,"rental_uris":{"android":"levelo://app?vid=515528e7-40f1-499b-b1b4-2739acbd1445","ios":"levelo://app?vid=515528e7-40f1-499b-b1b4-2739acbd1445"},"vehicle_type_id":"4","last_reported":1704218961,"current_range_meters":18400,"station_id":"ce4bgph2rcd13ifvqc2g","pricing_plan_id":"free"},{"bike_id":"bf0a4f53-7909-4e31-bf67-ae0170e1f659","system_id":"levelo_inurba_marseille","lat":43.29573,"lon":5.367355,"is_reserved":false,"is_disabled":false,"rental_uris":{"android":"levelo://app?vid=bf0a4f53-7909-4e31-bf67-ae0170e1f659","ios":"levelo://app?vid=bf0a4f53-7909-4e31-bf67-ae0170e1f659"},"vehicle_type_id":"4","last_reported":1704218961,"current_range_meters":10800,"station_id":"ce4bgph2rcd13ifvqc2g","pricing_plan_id":"free"},{"bike_id":"377c8254-82f4-487c-b5e0-397493086885","system_id":"levelo_inurba_marseille","lat":43.307945,"lon":5.376487,"is_reserved":false,"is_disabled":false,"rental_uris":{"android":"levelo://app?vid=377c8254-82f4-487c-b5e0-397493086885","ios":"levelo://app?vid=377c8254-82f4-487c-b5e0-397493086885"},"vehicle_type_id":"4","last_reported":1704218961,"current_range_meters":13600,"station_id":"ce4bgv92rcd13ifvqcq0","pricing_plan_id":"free"},{"bike_id":"2e0a8b0c-ebcc-465a-a67e-8fc64efc0393","system_id":"levelo_inurba_marseille","lat":43.309589,"lon":5.390258,"is_reserved":false,"is_disabled":false,"rental_uris":{"android":"levelo://app?vid=2e0a8b0c-ebcc-465a-a67e-8fc64efc0393","ios":"levelo://app?vid=2e0a8b0c-ebcc-465a-a67e-8fc64efc0393"},"vehicle_type_id":"4","last_reported":1704218961,"current_range_meters":17200,"station_id":"ce4bgup2rcd13ifvqco0","pricing_plan_id":"free"},{"bike_id":"0eb73cc6-5f0c-4ec4-a733-5a219c159f57","system_id":"levelo_inurba_marseille","lat":43.317557,"lon":5.390173,"is_reserved":false,"is_disabled":false,"rental_uris":{"android":"levelo://app?vid=0eb73cc6-5f0c-4ec4-a733-5a219c159f57","ios":"levelo://app?vid=0eb73cc6-5f0c-4ec4-a733-5a219c159f57"},"vehicle_type_id":"4","last_reported":1704218961,"current_range_meters":26800,"station_id":"ce4bhqp2rcd13ifvqhng","pricing_plan_id":"free"},{"bike_id":"36eb7fde-29db-41ad-95c0-c3370deb117c","system_id":"levelo_inurba_marseille","lat":43.317557,"lon":5.390173,"is_reserved":false,"is_disabled":false,"rental_uris":{"android":"levelo://app?vid=36eb7fde-29db-41ad-95c0-c3370deb117c","ios":"levelo://app?vid=36eb7fde-29db-41ad-95c0-c3370deb117c"},"vehicle_type_id":"4","last_reported":1704218961,"current_range_meters":23200,"station_id":"ce4bhqp2rcd13ifvqhng","pricing_plan_id":"free"},{"bike_id":"e7ce1b90-7a6e-4b29-86e6-27abccb43c49","system_id":"levelo_inurba_marseille","lat":43.317557,"lon":5.390173,"is_reserved":false,"is_disabled":false,"rental_uris":{"android":"levelo://app?vid=e7ce1b90-7a6e-4b29-86e6-27abccb43c49","ios":"levelo://app?vid=e7ce1b90-7a6e-4b29-86e6-27abccb43c49"},"vehicle_type_id":"4","last_reported":1704218961,"current_range_meters":11600,"station_id":"ce4bhqp2rcd13ifvqhng","pricing_plan_id":"free"},{"bike_id":"cc34c7ba-09fb-460c-b679-01220be5d07c","system_id":"levelo_inurba_marseille","lat":43.298037,"lon":5.381066,"is_reserved":false,"is_disabled":false,"rental_uris":{"android":"levelo://app?vid=cc34c7ba-09fb-460c-b679-01220be5d07c","ios":"levelo://app?vid=cc34c7ba-09fb-460c-b679-01220be5d07c"},"vehicle_type_id":"4","last_reported":1704218961,"current_range_meters":14000,"station_id":"ce4bgip2rcd13ifvqbb0","pricing_plan_id":"free"},{"bike_id":"6c8e7f01-fe14-406a-8711-f88cebb3fb5a","system_id":"levelo_inurba_marseille","lat":43.304274,"lon":5.388873,"is_reserved":false,"is_disabled":false,"rental_uris":{"android":"levelo://app?vid=6c8e7f01-fe14-406a-8711-f88cebb3fb5a","ios":"levelo://app?vid=6c8e7f01-fe14-406a-8711-f88cebb3fb5a"},"vehicle_type_id":"4","last_reported":1704218961,"current_range_meters":8400,"station_id":"ce4bgk12rcd13ifvqbi0","pricing_plan_id":"free"},{"bike_id":"e9ae8b2b-9607-4c7e-8f7b-072d8581feb2","system_id":"levelo_inurba_marseille","lat":43.30433,"lon":5.38893,"is_reserved":false,"is_disabled":false,"rental_uris":{"android":"levelo://app?vid=e9ae8b2b-9607-4c7e-8f7b-072d8581feb2","ios":"levelo://app?vid=e9ae8b2b-9607-4c7e-8f7b-072d8581feb2"},"vehicle_type_id":"4","last_reported":1704218961,"current_range_meters":9200,"station_id":"ce4bgk12rcd13ifvqbi0","pricing_plan_id":"free"},{"bike_id":"80033163-5649-4a1e-b3c3-7e4ce96bbccd","system_id":"levelo_inurba_marseille","lat":43.304274,"lon":5.388873,"is_reserved":false,"is_disabled":false,"rental_uris":{"android":"levelo://app?vid=80033163-5649-4a1e-b3c3-7e4ce96bbccd","ios":"levelo://app?vid=80033163-5649-4a1e-b3c3-7e4ce96bbccd"},"vehicle_type_id":"4","last_reported":1704218961,"current_range_meters":9600,"station_id":"ce4bgk12rcd13ifvqbi0","pricing_plan_id":"free"},{"bike_id":"3caa82eb-a699-4138-a6a2-8663d1035404","system_id":"levelo_inurba_marseille","lat":43.304278,"lon":5.388868,"is_reserved":false,"is_disabled":false,"rental_uris":{"android":"levelo://app?vid=3caa82eb-a699-4138-a6a2-8663d1035404","ios":"levelo://app?vid=3caa82eb-a699-4138-a6a2-8663d1035404"},"vehicle_type_id":"4","last_reported":1704218961,"current_range_meters":2000,"station_id":"ce4bgk12rcd13ifvqbi0","pricing_plan_id":"free"},{"bike_id":"19d489e7-6727-4527-88ef-bd90e7cf482f","system_id":"levelo_inurba_marseille","lat":43.296263,"lon":5.377094,"is_reserved":false,"is_disabled":false,"rental_uris":{"android":"levelo://app?vid=19d489e7-6727-4527-88ef-bd90e7cf482f","ios":"levelo://app?vid=19d489e7-6727-4527-88ef-bd90e7cf482f"},"vehicle_type_id":"4","last_reported":1704218961,"current_range_meters":17600,"station_id":"ce4bgi92rcd13ifvqb90","pricing_plan_id":"free"},{"bike_id":"d60802d6-4f47-444a-b234-883690eec05b","system_id":"levelo_inurba_marseille","lat":43.33062,"lon":5.3627,"is_reserved":false,"is_disabled":false,"rental_uris":{"android":"levelo://app?vid=d60802d6-4f47-444a-b234-883690eec05b","ios":"levelo://app?vid=d60802d6-4f47-444a-b234-883690eec05b"},"vehicle_type_id":"4","last_reported":1704218961,"current_range_meters":14800,"station_id":"","pricing_plan_id":"free"},{"bike_id":"cc0e34db-c4ad-44e8-a571-ef99056f9c6a","system_id":"levelo_inurba_marseille","lat":43.296263,"lon":5.377094,"is_reserved":false,"is_disabled":false,"rental_uris":{"android":"levelo://app?vid=cc0e34db-c4ad-44e8-a571-ef99056f9c6a","ios":"levelo://app?vid=cc0e34db-c4ad-44e8-a571-ef99056f9c6a"},"vehicle_type_id":"4","last_reported":1704218961,"current_range_meters":21200,"station_id":"ce4bgi92rcd13ifvqb90","pricing_plan_id":"free"},{"bike_id":"75a8d458-67e5-47c0-bdf1-95b018c78e43","system_id":"levelo_inurba_marseille","lat":43.296263,"lon":5.377094,"is_reserved":false,"is_disabled":false,"rental_uris":{"android":"levelo://app?vid=75a8d458-67e5-47c0-bdf1-95b018c78e43","ios":"levelo://app?vid=75a8d458-67e5-47c0-bdf1-95b018c78e43"},"vehicle_type_id":"4","last_reported":1704218961,"current_range_meters":8000,"station_id":"ce4bgi92rcd13ifvqb90","pricing_plan_id":"free"},{"bike_id":"71c66557-e039-46f8-b746-2704e4c9394f","system_id":"levelo_inurba_marseille","lat":43.298037,"lon":5.381066,"is_reserved":false,"is_disabled":false,"rental_uris":{"android":"levelo://app?vid=71c66557-e039-46f8-b746-2704e4c9394f","ios":"levelo://app?vid=71c66557-e039-46f8-b746-2704e4c9394f"},"vehicle_type_id":"4","last_reported":1704218961,"current_range_meters":2800,"station_id":"ce4bgip2rcd13ifvqbb0","pricing_plan_id":"free"},{"bike_id":"f67b4ce4-0c9c-4cd2-b119-b472dfee5204","system_id":"levelo_inurba_marseille","lat":43.29538,"lon":5.375,"is_reserved":false,"is_disabled":false,"rental_uris":{"android":"levelo://app?vid=f67b4ce4-0c9c-4cd2-b119-b472dfee5204","ios":"levelo://app?vid=f67b4ce4-0c9c-4cd2-b119-b472dfee5204"},"vehicle_type_id":"4","last_reported":1704218961,"current_range_meters":21200,"station_id":"ce4bgi92rcd13ifvqb90","pricing_plan_id":"free"},{"bike_id":"7119845d-00aa-4d9f-be8c-fc97d41f1380","system_id":"levelo_inurba_marseille","lat":43.297594,"lon":5.381134,"is_reserved":false,"is_disabled":false,"rental_uris":{"android":"levelo://app?vid=7119845d-00aa-4d9f-be8c-fc97d41f1380","ios":"levelo://app?vid=7119845d-00aa-4d9f-be8c-fc97d41f1380"},"vehicle_type_id":"4","last_reported":1704218961,"current_range_meters":3200,"station_id":"ce4bgip2rcd13ifvqbb0","pricing_plan_id":"free"},{"bike_id":"4874e97e-15fc-442d-987e-12f59c7da007","system_id":"levelo_inurba_marseille","lat":43.29975,"lon":5.38491,"is_reserved":false,"is_disabled":false,"rental_uris":{"android":"levelo://app?vid=4874e97e-15fc-442d-987e-12f59c7da007","ios":"levelo://app?vid=4874e97e-15fc-442d-987e-12f59c7da007"},"vehicle_type_id":"4","last_reported":1704218961,"current_range_meters":0,"station_id":"ce4bgj92rcd13ifvqbd0","pricing_plan_id":"free"},{"bike_id":"6e1cfaf3-c919-4223-a34d-ab2a56b53bd4","system_id":"levelo_inurba_marseille","lat":43.32361,"lon":5.388727,"is_reserved":false,"is_disabled":false,"rental_uris":{"android":"levelo://app?vid=6e1cfaf3-c919-4223-a34d-ab2a56b53bd4","ios":"levelo://app?vid=6e1cfaf3-c919-4223-a34d-ab2a56b53bd4"},"vehicle_type_id":"4","last_reported":1704218961,"current_range_meters":0,"station_id":"ce4bhqp2rcd13ifvqhog","pricing_plan_id":"free"},{"bike_id":"6708a5b5-13c0-4d12-80c0-d3dd5e200e56","system_id":"levelo_inurba_marseille","lat":43.32367,"lon":5.388836,"is_reserved":false,"is_disabled":false,"rental_uris":{"android":"levelo://app?vid=6708a5b5-13c0-4d12-80c0-d3dd5e200e56","ios":"levelo://app?vid=6708a5b5-13c0-4d12-80c0-d3dd5e200e56"},"vehicle_type_id":"4","last_reported":1704218961,"current_range_meters":3600,"station_id":"ce4bhqp2rcd13ifvqhog","pricing_plan_id":"free"},{"bike_id":"eca70caa-d54b-4611-8a3b-fe837b30a37d","system_id":"levelo_inurba_marseille","lat":43.293259,"lon":5.371586,"is_reserved":false,"is_disabled":false,"rental_uris":{"android":"levelo://app?vid=eca70caa-d54b-4611-8a3b-fe837b30a37d","ios":"levelo://app?vid=eca70caa-d54b-4611-8a3b-fe837b30a37d"},"vehicle_type_id":"4","last_reported":1704218961,"current_range_meters":16400,"station_id":"ce4bgh92rcd13ifvqb40","pricing_plan_id":"free"},{"bike_id":"6d680ffd-704c-4213-bf5a-661973562b1b","system_id":"levelo_inurba_marseille","lat":43.293009,"lon":5.374584,"is_reserved":false,"is_disabled":false,"rental_uris":{"android":"levelo://app?vid=6d680ffd-704c-4213-bf5a-661973562b1b","ios":"levelo://app?vid=6d680ffd-704c-4213-bf5a-661973562b1b"},"vehicle_type_id":"4","last_reported":1704218961,"current_range_meters":22800,"station_id":"ce4bgi12rcd13ifvqb70","pricing_plan_id":"free"},{"bike_id":"fe9b8666-2ef8-4285-a193-027e7366225b","system_id":"levelo_inurba_marseille","lat":43.292311,"lon":5.360731,"is_reserved":false,"is_disabled":false,"rental_uris":{"android":"levelo://app?vid=fe9b8666-2ef8-4285-a193-027e7366225b","ios":"levelo://app?vid=fe9b8666-2ef8-4285-a193-027e7366225b"},"vehicle_type_id":"4","last_reported":1704218961,"current_range_meters":0,"station_id":"ce4bhbh2rcd13ifvqeqg","pricing_plan_id":"free"},{"bike_id":"429d8474-1034-4820-812c-0358e6d2a2cb","system_id":"levelo_inurba_marseille","lat":43.292311,"lon":5.360731,"is_reserved":false,"is_disabled":false,"rental_uris":{"android":"levelo://app?vid=429d8474-1034-4820-812c-0358e6d2a2cb","ios":"levelo://app?vid=429d8474-1034-4820-812c-0358e6d2a2cb"},"vehicle_type_id":"4","last_reported":1704218961,"current_range_meters":22000,"station_id":"ce4bhbh2rcd13ifvqeqg","pricing_plan_id":"free"},{"bike_id":"f012b0a6-5e34-470c-a317-394ceb66f263","system_id":"levelo_inurba_marseille","lat":43.292311,"lon":5.360731,"is_reserved":false,"is_disabled":false,"rental_uris":{"android":"levelo://app?vid=f012b0a6-5e34-470c-a317-394ceb66f263","ios":"levelo://app?vid=f012b0a6-5e34-470c-a317-394ceb66f263"},"vehicle_type_id":"4","last_reported":1704218961,"current_range_meters":18800,"station_id":"ce4bhbh2rcd13ifvqeqg","pricing_plan_id":"free"},{"bike_id":"57b8a882-c0fe-4c8f-8e2b-8259399d671f","system_id":"levelo_inurba_marseille","lat":43.300852,"lon":5.390859,"is_reserved":false,"is_disabled":false,"rental_uris":{"android":"levelo://app?vid=57b8a882-c0fe-4c8f-8e2b-8259399d671f","ios":"levelo://app?vid=57b8a882-c0fe-4c8f-8e2b-8259399d671f"},"vehicle_type_id":"4","last_reported":1704218961,"current_range_meters":17600,"station_id":"ce4bh192rcd13ifvqdb0","pricing_plan_id":"free"},{"bike_id":"52f3e613-64d4-42d6-b698-9e71563a5f03","system_id":"levelo_inurba_marseille","lat":43.298767,"lon":5.389293,"is_reserved":false,"is_disabled":false,"rental_uris":{"android":"levelo://app?vid=52f3e613-64d4-42d6-b698-9e71563a5f03","ios":"levelo://app?vid=52f3e613-64d4-42d6-b698-9e71563a5f03"},"vehicle_type_id":"4","last_reported":1704218961,"current_range_meters":0,"station_id":"","pricing_plan_id":"free"},{"bike_id":"6a81b50f-ae4b-4c12-a481-44b003323491","system_id":"levelo_inurba_marseille","lat":43.312932,"lon":5.3968,"is_reserved":false,"is_disabled":false,"rental_uris":{"android":"levelo://app?vid=6a81b50f-ae4b-4c12-a481-44b003323491","ios":"levelo://app?vid=6a81b50f-ae4b-4c12-a481-44b003323491"},"vehicle_type_id":"4","last_reported":1704218961,"current_range_meters":17600,"station_id":"ce4bgvp2rcd13ifvqcu0","pricing_plan_id":"free"},{"bike_id":"28b8e6e0-d668-4204-bb1e-bc427ee5b0b2","system_id":"levelo_inurba_marseille","lat":43.313291,"lon":5.396838,"is_reserved":false,"is_disabled":false,"rental_uris":{"android":"levelo://app?vid=28b8e6e0-d668-4204-bb1e-bc427ee5b0b2","ios":"levelo://app?vid=28b8e6e0-d668-4204-bb1e-bc427ee5b0b2"},"vehicle_type_id":"4","last_reported":1704218961,"current_range_meters":16000,"station_id":"ce4bgvp2rcd13ifvqcu0","pricing_plan_id":"free"},{"bike_id":"e4e844d6-79b8-48c9-8846-de353e605d92","system_id":"levelo_inurba_marseille","lat":43.313291,"lon":5.396838,"is_reserved":false,"is_disabled":false,"rental_uris":{"android":"levelo://app?vid=e4e844d6-79b8-48c9-8846-de353e605d92","ios":"levelo://app?vid=e4e844d6-79b8-48c9-8846-de353e605d92"},"vehicle_type_id":"4","last_reported":1704218961,"current_range_meters":15600,"station_id":"ce4bgvp2rcd13ifvqcu0","pricing_plan_id":"free"},{"bike_id":"5e6ccca6-697b-4df7-8b55-ccc63a93a0da","system_id":"levelo_inurba_marseille","lat":43.313291,"lon":5.396838,"is_reserved":false,"is_disabled":false,"rental_uris":{"android":"levelo://app?vid=5e6ccca6-697b-4df7-8b55-ccc63a93a0da","ios":"levelo://app?vid=5e6ccca6-697b-4df7-8b55-ccc63a93a0da"},"vehicle_type_id":"4","last_reported":1704218961,"current_range_meters":17200,"station_id":"ce4bgvp2rcd13ifvqcu0","pricing_plan_id":"free"},{"bike_id":"200c095e-1d41-43e1-a2ad-2178b5b8cc79","system_id":"levelo_inurba_marseille","lat":43.29532,"lon":5.38547,"is_reserved":false,"is_disabled":false,"rental_uris":{"android":"levelo://app?vid=200c095e-1d41-43e1-a2ad-2178b5b8cc79","ios":"levelo://app?vid=200c095e-1d41-43e1-a2ad-2178b5b8cc79"},"vehicle_type_id":"4","last_reported":1704218961,"current_range_meters":0,"station_id":"ce4bgih2rcd13ifvqba0","pricing_plan_id":"free"},{"bike_id":"fede6c54-ee75-408c-99d5-b985bdc26110","system_id":"levelo_inurba_marseille","lat":43.29529,"lon":5.385581,"is_reserved":false,"is_disabled":false,"rental_uris":{"android":"levelo://app?vid=fede6c54-ee75-408c-99d5-b985bdc26110","ios":"levelo://app?vid=fede6c54-ee75-408c-99d5-b985bdc26110"},"vehicle_type_id":"4","last_reported":1704218961,"current_range_meters":20400,"station_id":"ce4bgih2rcd13ifvqba0","pricing_plan_id":"free"},{"bike_id":"78cc13d5-21b6-47dd-9bb0-f75a0bc718e8","system_id":"levelo_inurba_marseille","lat":43.29529,"lon":5.385581,"is_reserved":false,"is_disabled":false,"rental_uris":{"android":"levelo://app?vid=78cc13d5-21b6-47dd-9bb0-f75a0bc718e8","ios":"levelo://app?vid=78cc13d5-21b6-47dd-9bb0-f75a0bc718e8"},"vehicle_type_id":"4","last_reported":1704218961,"current_range_meters":8400,"station_id":"ce4bgih2rcd13ifvqba0","pricing_plan_id":"free"},{"bike_id":"42f709e7-b965-49ad-a599-239ab8cf0722","system_id":"levelo_inurba_marseille","lat":43.29066,"lon":5.37159,"is_reserved":false,"is_disabled":false,"rental_uris":{"android":"levelo://app?vid=42f709e7-b965-49ad-a599-239ab8cf0722","ios":"levelo://app?vid=42f709e7-b965-49ad-a599-239ab8cf0722"},"vehicle_type_id":"4","last_reported":1704218961,"current_range_meters":0,"station_id":"ce4bh5p2rcd13ifvqe4g","pricing_plan_id":"free"},{"bike_id":"10d1323e-bf23-41a9-a94d-3bc1390315dc","system_id":"levelo_inurba_marseille","lat":43.289184,"lon":5.366408,"is_reserved":false,"is_disabled":false,"rental_uris":{"android":"levelo://app?vid=10d1323e-bf23-41a9-a94d-3bc1390315dc","ios":"levelo://app?vid=10d1323e-bf23-41a9-a94d-3bc1390315dc"},"vehicle_type_id":"4","last_reported":1704218961,"current_range_meters":22000,"station_id":"ce4bhap2rcd13ifvqek0","pricing_plan_id":"free"},{"bike_id":"ae1ae941-ee76-4441-8aec-b4b10b8a18a0","system_id":"levelo_inurba_marseille","lat":43.302008,"lon":5.394694,"is_reserved":false,"is_disabled":false,"rental_uris":{"android":"levelo://app?vid=ae1ae941-ee76-4441-8aec-b4b10b8a18a0","ios":"levelo://app?vid=ae1ae941-ee76-4441-8aec-b4b10b8a18a0"},"vehicle_type_id":"4","last_reported":1704218961,"current_range_meters":17600,"station_id":"ce4bh0p2rcd13ifvqd70","pricing_plan_id":"free"},{"bike_id":"a3f16aa7-937e-4326-be61-94820f1710ca","system_id":"levelo_inurba_marseille","lat":43.302008,"lon":5.394694,"is_reserved":false,"is_disabled":false,"rental_uris":{"android":"levelo://app?vid=a3f16aa7-937e-4326-be61-94820f1710ca","ios":"levelo://app?vid=a3f16aa7-937e-4326-be61-94820f1710ca"},"vehicle_type_id":"4","last_reported":1704218961,"current_range_meters":30800,"station_id":"ce4bh0p2rcd13ifvqd70","pricing_plan_id":"free"},{"bike_id":"2aa69697-0349-4ebe-8c1c-2cc80e98b834","system_id":"levelo_inurba_marseille","lat":43.290518,"lon":5.359225,"is_reserved":false,"is_disabled":false,"rental_uris":{"android":"levelo://app?vid=2aa69697-0349-4ebe-8c1c-2cc80e98b834","ios":"levelo://app?vid=2aa69697-0349-4ebe-8c1c-2cc80e98b834"},"vehicle_type_id":"4","last_reported":1704218961,"current_range_meters":31200,"station_id":"ce4bha92rcd13ifvqeg0","pricing_plan_id":"free"},{"bike_id":"a5fe7474-1f83-4a35-ab42-64bd6a23b0b6","system_id":"levelo_inurba_marseille","lat":43.29034,"lon":5.35921,"is_reserved":false,"is_disabled":false,"rental_uris":{"android":"levelo://app?vid=a5fe7474-1f83-4a35-ab42-64bd6a23b0b6","ios":"levelo://app?vid=a5fe7474-1f83-4a35-ab42-64bd6a23b0b6"},"vehicle_type_id":"4","last_reported":1704218961,"current_range_meters":9200,"station_id":"ce4bha92rcd13ifvqeg0","pricing_plan_id":"free"},{"bike_id":"44b56ce9-6c4c-4a8c-a5e0-834858ca10d7","system_id":"levelo_inurba_marseille","lat":43.294153,"lon":5.386305,"is_reserved":false,"is_disabled":false,"rental_uris":{"android":"levelo://app?vid=44b56ce9-6c4c-4a8c-a5e0-834858ca10d7","ios":"levelo://app?vid=44b56ce9-6c4c-4a8c-a5e0-834858ca10d7"},"vehicle_type_id":"4","last_reported":1704218961,"current_range_meters":6000,"station_id":"ce4bh2h2rcd13ifvqdh0","pricing_plan_id":"free"},{"bike_id":"74c48073-f9f4-4d74-819d-501248d3ab40","system_id":"levelo_inurba_marseille","lat":43.294153,"lon":5.386305,"is_reserved":false,"is_disabled":false,"rental_uris":{"android":"levelo://app?vid=74c48073-f9f4-4d74-819d-501248d3ab40","ios":"levelo://app?vid=74c48073-f9f4-4d74-819d-501248d3ab40"},"vehicle_type_id":"4","last_reported":1704218961,"current_range_meters":16400,"station_id":"ce4bh2h2rcd13ifvqdh0","pricing_plan_id":"free"},{"bike_id":"78429acc-e2a6-4f47-816f-55a2a51e75cc","system_id":"levelo_inurba_marseille","lat":43.294153,"lon":5.386305,"is_reserved":false,"is_disabled":false,"rental_uris":{"android":"levelo://app?vid=78429acc-e2a6-4f47-816f-55a2a51e75cc","ios":"levelo://app?vid=78429acc-e2a6-4f47-816f-55a2a51e75cc"},"vehicle_type_id":"4","last_reported":1704218961,"current_range_meters":21200,"station_id":"ce4bh2h2rcd13ifvqdh0","pricing_plan_id":"free"},{"bike_id":"938b2d41-91ba-4601-8051-76235dbb2af0","system_id":"levelo_inurba_marseille","lat":43.294153,"lon":5.386305,"is_reserved":false,"is_disabled":false,"rental_uris":{"android":"levelo://app?vid=938b2d41-91ba-4601-8051-76235dbb2af0","ios":"levelo://app?vid=938b2d41-91ba-4601-8051-76235dbb2af0"},"vehicle_type_id":"4","last_reported":1704218961,"current_range_meters":22400,"station_id":"ce4bh2h2rcd13ifvqdh0","pricing_plan_id":"free"},{"bike_id":"7419530c-1f58-412a-b1b7-8aeea1ff8899","system_id":"levelo_inurba_marseille","lat":43.294162,"lon":5.386292,"is_reserved":false,"is_disabled":false,"rental_uris":{"android":"levelo://app?vid=7419530c-1f58-412a-b1b7-8aeea1ff8899","ios":"levelo://app?vid=7419530c-1f58-412a-b1b7-8aeea1ff8899"},"vehicle_type_id":"4","last_reported":1704218961,"current_range_meters":23600,"station_id":"ce4bh2h2rcd13ifvqdh0","pricing_plan_id":"free"},{"bike_id":"9914a087-0b14-4f6e-a10b-fc5dc0676d20","system_id":"levelo_inurba_marseille","lat":43.289468,"lon":5.363719,"is_reserved":false,"is_disabled":false,"rental_uris":{"android":"levelo://app?vid=9914a087-0b14-4f6e-a10b-fc5dc0676d20","ios":"levelo://app?vid=9914a087-0b14-4f6e-a10b-fc5dc0676d20"},"vehicle_type_id":"4","last_reported":1704218961,"current_range_meters":3600,"station_id":"ce4bhc92rcd13ifvqetg","pricing_plan_id":"free"},{"bike_id":"c988cc8b-feaa-410b-ac7c-a562db9b4052","system_id":"levelo_inurba_marseille","lat":43.289184,"lon":5.366408,"is_reserved":false,"is_disabled":false,"rental_uris":{"android":"levelo://app?vid=c988cc8b-feaa-410b-ac7c-a562db9b4052","ios":"levelo://app?vid=c988cc8b-feaa-410b-ac7c-a562db9b4052"},"vehicle_type_id":"4","last_reported":1704218961,"current_range_meters":8400,"station_id":"ce4bhap2rcd13ifvqek0","pricing_plan_id":"free"},{"bike_id":"a1d8bf28-44cf-4ac3-8266-809e080ef758","system_id":"levelo_inurba_marseille","lat":43.289468,"lon":5.363719,"is_reserved":false,"is_disabled":false,"rental_uris":{"android":"levelo://app?vid=a1d8bf28-44cf-4ac3-8266-809e080ef758","ios":"levelo://app?vid=a1d8bf28-44cf-4ac3-8266-809e080ef758"},"vehicle_type_id":"4","last_reported":1704218961,"current_range_meters":20400,"station_id":"ce4bhc92rcd13ifvqetg","pricing_plan_id":"free"},{"bike_id":"7468694b-970d-4df3-8e80-96a6ddc05fda","system_id":"levelo_inurba_marseille","lat":43.292644,"lon":5.384257,"is_reserved":false,"is_disabled":false,"rental_uris":{"android":"levelo://app?vid=7468694b-970d-4df3-8e80-96a6ddc05fda","ios":"levelo://app?vid=7468694b-970d-4df3-8e80-96a6ddc05fda"},"vehicle_type_id":"4","last_reported":1704218961,"current_range_meters":13200,"station_id":"ce4bh692rcd13ifvqea0","pricing_plan_id":"free"},{"bike_id":"e8bce316-0ba7-4a8d-be1a-6471e5169a71","system_id":"levelo_inurba_marseille","lat":43.292644,"lon":5.384257,"is_reserved":false,"is_disabled":false,"rental_uris":{"android":"levelo://app?vid=e8bce316-0ba7-4a8d-be1a-6471e5169a71","ios":"levelo://app?vid=e8bce316-0ba7-4a8d-be1a-6471e5169a71"},"vehicle_type_id":"4","last_reported":1704218961,"current_range_meters":2400,"station_id":"ce4bh692rcd13ifvqea0","pricing_plan_id":"free"},{"bike_id":"41ee84d8-3660-48ec-bd66-7fa1bb8205cb","system_id":"levelo_inurba_marseille","lat":43.292642,"lon":5.384254,"is_reserved":false,"is_disabled":false,"rental_uris":{"android":"levelo://app?vid=41ee84d8-3660-48ec-bd66-7fa1bb8205cb","ios":"levelo://app?vid=41ee84d8-3660-48ec-bd66-7fa1bb8205cb"},"vehicle_type_id":"4","last_reported":1704218961,"current_range_meters":3600,"station_id":"ce4bh692rcd13ifvqea0","pricing_plan_id":"free"},{"bike_id":"61283d63-4755-40fb-b286-2701fe6c0b43","system_id":"levelo_inurba_marseille","lat":43.292644,"lon":5.384257,"is_reserved":false,"is_disabled":false,"rental_uris":{"android":"levelo://app?vid=61283d63-4755-40fb-b286-2701fe6c0b43","ios":"levelo://app?vid=61283d63-4755-40fb-b286-2701fe6c0b43"},"vehicle_type_id":"4","last_reported":1704218961,"current_range_meters":14800,"station_id":"ce4bh692rcd13ifvqea0","pricing_plan_id":"free"},{"bike_id":"6af8edee-07bf-420e-8364-a18386aa61fb","system_id":"levelo_inurba_marseille","lat":43.292644,"lon":5.384257,"is_reserved":false,"is_disabled":false,"rental_uris":{"android":"levelo://app?vid=6af8edee-07bf-420e-8364-a18386aa61fb","ios":"levelo://app?vid=6af8edee-07bf-420e-8364-a18386aa61fb"},"vehicle_type_id":"4","last_reported":1704218961,"current_range_meters":15200,"station_id":"ce4bh692rcd13ifvqea0","pricing_plan_id":"free"},{"bike_id":"d71eac39-edae-4719-8085-420f1308ff3a","system_id":"levelo_inurba_marseille","lat":43.292644,"lon":5.384257,"is_reserved":false,"is_disabled":false,"rental_uris":{"android":"levelo://app?vid=d71eac39-edae-4719-8085-420f1308ff3a","ios":"levelo://app?vid=d71eac39-edae-4719-8085-420f1308ff3a"},"vehicle_type_id":"4","last_reported":1704218961,"current_range_meters":29200,"station_id":"ce4bh692rcd13ifvqea0","pricing_plan_id":"free"},{"bike_id":"15c13b40-3ff4-4e77-bc88-9c081f09028d","system_id":"levelo_inurba_marseille","lat":43.292644,"lon":5.384257,"is_reserved":false,"is_disabled":false,"rental_uris":{"android":"levelo://app?vid=15c13b40-3ff4-4e77-bc88-9c081f09028d","ios":"levelo://app?vid=15c13b40-3ff4-4e77-bc88-9c081f09028d"},"vehicle_type_id":"4","last_reported":1704218961,"current_range_meters":20000,"station_id":"ce4bh692rcd13ifvqea0","pricing_plan_id":"free"},{"bike_id":"a4d958a1-cff0-4f56-a3ad-69675096aa55","system_id":"levelo_inurba_marseille","lat":43.290104,"lon":5.356111,"is_reserved":false,"is_disabled":false,"rental_uris":{"android":"levelo://app?vid=a4d958a1-cff0-4f56-a3ad-69675096aa55","ios":"levelo://app?vid=a4d958a1-cff0-4f56-a3ad-69675096aa55"},"vehicle_type_id":"4","last_reported":1704218961,"current_range_meters":13600,"station_id":"ce4bhb92rcd13ifvqen0","pricing_plan_id":"free"},{"bike_id":"97e6d302-d8ae-4cd9-b1e3-8e1fdbb047dd","system_id":"levelo_inurba_marseille","lat":43.29793,"lon":5.39338,"is_reserved":false,"is_disabled":false,"rental_uris":{"android":"levelo://app?vid=97e6d302-d8ae-4cd9-b1e3-8e1fdbb047dd","ios":"levelo://app?vid=97e6d302-d8ae-4cd9-b1e3-8e1fdbb047dd"},"vehicle_type_id":"4","last_reported":1704218961,"current_range_meters":21200,"station_id":"chh1huq6cuj3fo74tm60","pricing_plan_id":"free"},{"bike_id":"9d3969ed-e28c-41ea-9eb2-1d6e0c4b70b7","system_id":"levelo_inurba_marseille","lat":43.29791,"lon":5.3934,"is_reserved":false,"is_disabled":false,"rental_uris":{"android":"levelo://app?vid=9d3969ed-e28c-41ea-9eb2-1d6e0c4b70b7","ios":"levelo://app?vid=9d3969ed-e28c-41ea-9eb2-1d6e0c4b70b7"},"vehicle_type_id":"4","last_reported":1704218961,"current_range_meters":25600,"station_id":"chh1huq6cuj3fo74tm60","pricing_plan_id":"free"},{"bike_id":"1b661565-d788-4b59-a09f-ab587564e4a4","system_id":"levelo_inurba_marseille","lat":43.297913,"lon":5.393457,"is_reserved":false,"is_disabled":false,"rental_uris":{"android":"levelo://app?vid=1b661565-d788-4b59-a09f-ab587564e4a4","ios":"levelo://app?vid=1b661565-d788-4b59-a09f-ab587564e4a4"},"vehicle_type_id":"4","last_reported":1704218961,"current_range_meters":0,"station_id":"chh1huq6cuj3fo74tm60","pricing_plan_id":"free"},{"bike_id":"d5ac8ca8-d49b-4867-a3ef-fc4ee1210e7c","system_id":"levelo_inurba_marseille","lat":43.297791,"lon":5.39341,"is_reserved":false,"is_disabled":false,"rental_uris":{"android":"levelo://app?vid=d5ac8ca8-d49b-4867-a3ef-fc4ee1210e7c","ios":"levelo://app?vid=d5ac8ca8-d49b-4867-a3ef-fc4ee1210e7c"},"vehicle_type_id":"4","last_reported":1704218961,"current_range_meters":31200,"station_id":"chh1huq6cuj3fo74tm60","pricing_plan_id":"free"},{"bike_id":"df7c4558-ce2a-45b1-b7ee-d67ebf717f50","system_id":"levelo_inurba_marseille","lat":43.295169,"lon":5.390426,"is_reserved":false,"is_disabled":false,"rental_uris":{"android":"levelo://app?vid=df7c4558-ce2a-45b1-b7ee-d67ebf717f50","ios":"levelo://app?vid=df7c4558-ce2a-45b1-b7ee-d67ebf717f50"},"vehicle_type_id":"4","last_reported":1704218961,"current_range_meters":14800,"station_id":"ce4bh3p2rcd13ifvqdp0","pricing_plan_id":"free"},{"bike_id":"c99da862-3401-435d-be0d-65f4e7c8d374","system_id":"levelo_inurba_marseille","lat":43.330442,"lon":5.389148,"is_reserved":false,"is_disabled":false,"rental_uris":{"android":"levelo://app?vid=c99da862-3401-435d-be0d-65f4e7c8d374","ios":"levelo://app?vid=c99da862-3401-435d-be0d-65f4e7c8d374"},"vehicle_type_id":"4","last_reported":1704218961,"current_range_meters":15200,"station_id":"ce4bhr92rcd13ifvqhrg","pricing_plan_id":"free"},{"bike_id":"65b1d59e-f372-46a6-bc06-fed7d510cc44","system_id":"levelo_inurba_marseille","lat":43.295169,"lon":5.390426,"is_reserved":false,"is_disabled":false,"rental_uris":{"android":"levelo://app?vid=65b1d59e-f372-46a6-bc06-fed7d510cc44","ios":"levelo://app?vid=65b1d59e-f372-46a6-bc06-fed7d510cc44"},"vehicle_type_id":"4","last_reported":1704218961,"current_range_meters":13200,"station_id":"ce4bh3p2rcd13ifvqdp0","pricing_plan_id":"free"},{"bike_id":"f5b114db-0556-4f43-a92b-41f74a008c29","system_id":"levelo_inurba_marseille","lat":43.295169,"lon":5.390426,"is_reserved":false,"is_disabled":false,"rental_uris":{"android":"levelo://app?vid=f5b114db-0556-4f43-a92b-41f74a008c29","ios":"levelo://app?vid=f5b114db-0556-4f43-a92b-41f74a008c29"},"vehicle_type_id":"4","last_reported":1704218961,"current_range_meters":20800,"station_id":"ce4bh3p2rcd13ifvqdp0","pricing_plan_id":"free"},{"bike_id":"98c6218a-162e-4dd1-ab4e-5b95aebb9908","system_id":"levelo_inurba_marseille","lat":43.28856,"lon":5.358371,"is_reserved":false,"is_disabled":false,"rental_uris":{"android":"levelo://app?vid=98c6218a-162e-4dd1-ab4e-5b95aebb9908","ios":"levelo://app?vid=98c6218a-162e-4dd1-ab4e-5b95aebb9908"},"vehicle_type_id":"4","last_reported":1704218961,"current_range_meters":16000,"station_id":"ce4bhb12rcd13ifvqem0","pricing_plan_id":"free"},{"bike_id":"d0092e62-c8fa-4003-8981-e2f81ed81ffc","system_id":"levelo_inurba_marseille","lat":43.309371,"lon":5.401449,"is_reserved":false,"is_disabled":false,"rental_uris":{"android":"levelo://app?vid=d0092e62-c8fa-4003-8981-e2f81ed81ffc","ios":"levelo://app?vid=d0092e62-c8fa-4003-8981-e2f81ed81ffc"},"vehicle_type_id":"4","last_reported":1704218961,"current_range_meters":12000,"station_id":"ce4bgvp2rcd13ifvqct0","pricing_plan_id":"free"},{"bike_id":"775bebf0-60dd-4589-9959-186588d50ea9","system_id":"levelo_inurba_marseille","lat":43.312609,"lon":5.401662,"is_reserved":false,"is_disabled":false,"rental_uris":{"android":"levelo://app?vid=775bebf0-60dd-4589-9959-186588d50ea9","ios":"levelo://app?vid=775bebf0-60dd-4589-9959-186588d50ea9"},"vehicle_type_id":"4","last_reported":1704218961,"current_range_meters":0,"station_id":"ce4bh092rcd13ifvqd30","pricing_plan_id":"free"},{"bike_id":"c42c8229-61c8-4d52-b298-e1c8275251aa","system_id":"levelo_inurba_marseille","lat":43.309371,"lon":5.401449,"is_reserved":false,"is_disabled":false,"rental_uris":{"android":"levelo://app?vid=c42c8229-61c8-4d52-b298-e1c8275251aa","ios":"levelo://app?vid=c42c8229-61c8-4d52-b298-e1c8275251aa"},"vehicle_type_id":"4","last_reported":1704218961,"current_range_meters":4400,"station_id":"ce4bgvp2rcd13ifvqct0","pricing_plan_id":"free"},{"bike_id":"1c86c5a0-cffc-4faa-94a1-6cf5f93206ea","system_id":"levelo_inurba_marseille","lat":43.337605,"lon":5.374572,"is_reserved":false,"is_disabled":false,"rental_uris":{"android":"levelo://app?vid=1c86c5a0-cffc-4faa-94a1-6cf5f93206ea","ios":"levelo://app?vid=1c86c5a0-cffc-4faa-94a1-6cf5f93206ea"},"vehicle_type_id":"4","last_reported":1704218961,"current_range_meters":5600,"station_id":"","pricing_plan_id":"free"},{"bike_id":"7bff5d96-c9da-413f-9076-7fbeec946e12","system_id":"levelo_inurba_marseille","lat":43.33761,"lon":5.37475,"is_reserved":false,"is_disabled":false,"rental_uris":{"android":"levelo://app?vid=7bff5d96-c9da-413f-9076-7fbeec946e12","ios":"levelo://app?vid=7bff5d96-c9da-413f-9076-7fbeec946e12"},"vehicle_type_id":"4","last_reported":1704218961,"current_range_meters":25200,"station_id":"","pricing_plan_id":"free"},{"bike_id":"1b55c50c-04c6-490e-ba7b-7b95b41dd60f","system_id":"levelo_inurba_marseille","lat":43.33768,"lon":5.37462,"is_reserved":false,"is_disabled":false,"rental_uris":{"android":"levelo://app?vid=1b55c50c-04c6-490e-ba7b-7b95b41dd60f","ios":"levelo://app?vid=1b55c50c-04c6-490e-ba7b-7b95b41dd60f"},"vehicle_type_id":"4","last_reported":1704218961,"current_range_meters":30000,"station_id":"","pricing_plan_id":"free"},{"bike_id":"46bcbd8a-0b5f-4b89-aac9-34812a85cd49","system_id":"levelo_inurba_marseille","lat":43.337681,"lon":5.374847,"is_reserved":false,"is_disabled":false,"rental_uris":{"android":"levelo://app?vid=46bcbd8a-0b5f-4b89-aac9-34812a85cd49","ios":"levelo://app?vid=46bcbd8a-0b5f-4b89-aac9-34812a85cd49"},"vehicle_type_id":"4","last_reported":1704218961,"current_range_meters":14400,"station_id":"","pricing_plan_id":"free"},{"bike_id":"2698b1cc-9d8f-4af1-9d41-a07e93bd5755","system_id":"levelo_inurba_marseille","lat":43.33767,"lon":5.37497,"is_reserved":false,"is_disabled":false,"rental_uris":{"android":"levelo://app?vid=2698b1cc-9d8f-4af1-9d41-a07e93bd5755","ios":"levelo://app?vid=2698b1cc-9d8f-4af1-9d41-a07e93bd5755"},"vehicle_type_id":"4","last_reported":1704218961,"current_range_meters":28400,"station_id":"","pricing_plan_id":"free"},{"bike_id":"1f3afca3-4e6e-4d3d-b72b-4cdf9c1cd19b","system_id":"levelo_inurba_marseille","lat":43.30138,"lon":5.39869,"is_reserved":false,"is_disabled":false,"rental_uris":{"android":"levelo://app?vid=1f3afca3-4e6e-4d3d-b72b-4cdf9c1cd19b","ios":"levelo://app?vid=1f3afca3-4e6e-4d3d-b72b-4cdf9c1cd19b"},"vehicle_type_id":"4","last_reported":1704218961,"current_range_meters":24400,"station_id":"ce4bh0h2rcd13ifvqd40","pricing_plan_id":"free"},{"bike_id":"8a9c26db-c47e-4444-8be8-d550c5eb9567","system_id":"levelo_inurba_marseille","lat":43.298681,"lon":5.397225,"is_reserved":false,"is_disabled":false,"rental_uris":{"android":"levelo://app?vid=8a9c26db-c47e-4444-8be8-d550c5eb9567","ios":"levelo://app?vid=8a9c26db-c47e-4444-8be8-d550c5eb9567"},"vehicle_type_id":"4","last_reported":1704218961,"current_range_meters":23200,"station_id":"ce4bh0h2rcd13ifvqd50","pricing_plan_id":"free"},{"bike_id":"51b7d6e2-04a8-4e29-ba36-4916a8da7d9d","system_id":"levelo_inurba_marseille","lat":43.28662,"lon":5.36357,"is_reserved":false,"is_disabled":false,"rental_uris":{"android":"levelo://app?vid=51b7d6e2-04a8-4e29-ba36-4916a8da7d9d","ios":"levelo://app?vid=51b7d6e2-04a8-4e29-ba36-4916a8da7d9d"},"vehicle_type_id":"4","last_reported":1704218961,"current_range_meters":15600,"station_id":"ce4bhah2rcd13ifvqej0","pricing_plan_id":"free"},{"bike_id":"957a8cee-84e9-4ebd-a841-71468fcfa911","system_id":"levelo_inurba_marseille","lat":43.295196,"lon":5.39397,"is_reserved":false,"is_disabled":false,"rental_uris":{"android":"levelo://app?vid=957a8cee-84e9-4ebd-a841-71468fcfa911","ios":"levelo://app?vid=957a8cee-84e9-4ebd-a841-71468fcfa911"},"vehicle_type_id":"4","last_reported":1704218961,"current_range_meters":3600,"station_id":"ce4bh292rcd13ifvqdf0","pricing_plan_id":"free"},{"bike_id":"6fd7c8ba-69b1-4481-8b2e-433bfbcde5b6","system_id":"levelo_inurba_marseille","lat":43.302759,"lon":5.400793,"is_reserved":false,"is_disabled":false,"rental_uris":{"android":"levelo://app?vid=6fd7c8ba-69b1-4481-8b2e-433bfbcde5b6","ios":"levelo://app?vid=6fd7c8ba-69b1-4481-8b2e-433bfbcde5b6"},"vehicle_type_id":"4","last_reported":1704218961,"current_range_meters":22000,"station_id":"ce4bgvh2rcd13ifvqcs0","pricing_plan_id":"free"},{"bike_id":"816562be-f5a0-4340-a936-bf1a41cb1df9","system_id":"levelo_inurba_marseille","lat":43.290283,"lon":5.386321,"is_reserved":false,"is_disabled":false,"rental_uris":{"android":"levelo://app?vid=816562be-f5a0-4340-a936-bf1a41cb1df9","ios":"levelo://app?vid=816562be-f5a0-4340-a936-bf1a41cb1df9"},"vehicle_type_id":"4","last_reported":1704218961,"current_range_meters":18400,"station_id":"","pricing_plan_id":"free"},{"bike_id":"4c9bee6e-7f67-4e33-9bdf-2ad46096a165","system_id":"levelo_inurba_marseille","lat":43.290345,"lon":5.38646,"is_reserved":false,"is_disabled":false,"rental_uris":{"android":"levelo://app?vid=4c9bee6e-7f67-4e33-9bdf-2ad46096a165","ios":"levelo://app?vid=4c9bee6e-7f67-4e33-9bdf-2ad46096a165"},"vehicle_type_id":"4","last_reported":1704218961,"current_range_meters":16000,"station_id":"ce4bh4p2rcd13ifvqe0g","pricing_plan_id":"free"},{"bike_id":"ad00fead-263d-43d9-8a54-c7ebb41f72e7","system_id":"levelo_inurba_marseille","lat":43.290345,"lon":5.38646,"is_reserved":false,"is_disabled":false,"rental_uris":{"android":"levelo://app?vid=ad00fead-263d-43d9-8a54-c7ebb41f72e7","ios":"levelo://app?vid=ad00fead-263d-43d9-8a54-c7ebb41f72e7"},"vehicle_type_id":"4","last_reported":1704218961,"current_range_meters":0,"station_id":"ce4bh4p2rcd13ifvqe0g","pricing_plan_id":"free"},{"bike_id":"814ff3c4-64ad-4534-bcf2-d593e0ba5264","system_id":"levelo_inurba_marseille","lat":43.290345,"lon":5.38646,"is_reserved":false,"is_disabled":false,"rental_uris":{"android":"levelo://app?vid=814ff3c4-64ad-4534-bcf2-d593e0ba5264","ios":"levelo://app?vid=814ff3c4-64ad-4534-bcf2-d593e0ba5264"},"vehicle_type_id":"4","last_reported":1704218961,"current_range_meters":17600,"station_id":"ce4bh4p2rcd13ifvqe0g","pricing_plan_id":"free"},{"bike_id":"2f206ab3-fe81-48f9-9503-4919d85b7759","system_id":"levelo_inurba_marseille","lat":43.302759,"lon":5.400793,"is_reserved":false,"is_disabled":false,"rental_uris":{"android":"levelo://app?vid=2f206ab3-fe81-48f9-9503-4919d85b7759","ios":"levelo://app?vid=2f206ab3-fe81-48f9-9503-4919d85b7759"},"vehicle_type_id":"4","last_reported":1704218961,"current_range_meters":0,"station_id":"ce4bgvh2rcd13ifvqcs0","pricing_plan_id":"free"},{"bike_id":"a3d2ce9c-c153-4f5e-b9c7-7dc929290074","system_id":"levelo_inurba_marseille","lat":43.286039,"lon":5.370681,"is_reserved":false,"is_disabled":false,"rental_uris":{"android":"levelo://app?vid=a3d2ce9c-c153-4f5e-b9c7-7dc929290074","ios":"levelo://app?vid=a3d2ce9c-c153-4f5e-b9c7-7dc929290074"},"vehicle_type_id":"4","last_reported":1704218961,"current_range_meters":8000,"station_id":"ce4bht12rcd13ifvqi60","pricing_plan_id":"free"},{"bike_id":"668ca955-e8b6-48dd-865c-987616fc04fd","system_id":"levelo_inurba_marseille","lat":43.287184,"lon":5.37937,"is_reserved":false,"is_disabled":false,"rental_uris":{"android":"levelo://app?vid=668ca955-e8b6-48dd-865c-987616fc04fd","ios":"levelo://app?vid=668ca955-e8b6-48dd-865c-987616fc04fd"},"vehicle_type_id":"4","last_reported":1704218961,"current_range_meters":22000,"station_id":"ce4bh9p2rcd13ifvqec0","pricing_plan_id":"free"},{"bike_id":"d9ad1379-eb66-46da-b695-9f077e1fe8de","system_id":"levelo_inurba_marseille","lat":43.287184,"lon":5.37937,"is_reserved":false,"is_disabled":false,"rental_uris":{"android":"levelo://app?vid=d9ad1379-eb66-46da-b695-9f077e1fe8de","ios":"levelo://app?vid=d9ad1379-eb66-46da-b695-9f077e1fe8de"},"vehicle_type_id":"4","last_reported":1704218961,"current_range_meters":27200,"station_id":"ce4bh9p2rcd13ifvqec0","pricing_plan_id":"free"},{"bike_id":"c1e86d6c-2c7f-4147-b49b-66cdaab00bac","system_id":"levelo_inurba_marseille","lat":43.287185,"lon":5.379373,"is_reserved":false,"is_disabled":false,"rental_uris":{"android":"levelo://app?vid=c1e86d6c-2c7f-4147-b49b-66cdaab00bac","ios":"levelo://app?vid=c1e86d6c-2c7f-4147-b49b-66cdaab00bac"},"vehicle_type_id":"4","last_reported":1704218961,"current_range_meters":29200,"station_id":"ce4bh9p2rcd13ifvqec0","pricing_plan_id":"free"},{"bike_id":"0da9a64a-5d25-4ad6-b965-f29830394745","system_id":"levelo_inurba_marseille","lat":43.287185,"lon":5.379373,"is_reserved":false,"is_disabled":false,"rental_uris":{"android":"levelo://app?vid=0da9a64a-5d25-4ad6-b965-f29830394745","ios":"levelo://app?vid=0da9a64a-5d25-4ad6-b965-f29830394745"},"vehicle_type_id":"4","last_reported":1704218961,"current_range_meters":15200,"station_id":"ce4bh9p2rcd13ifvqec0","pricing_plan_id":"free"},{"bike_id":"9b0c9e9e-977c-43ca-8676-217c423ef706","system_id":"levelo_inurba_marseille","lat":43.316912,"lon":5.404651,"is_reserved":false,"is_disabled":false,"rental_uris":{"android":"levelo://app?vid=9b0c9e9e-977c-43ca-8676-217c423ef706","ios":"levelo://app?vid=9b0c9e9e-977c-43ca-8676-217c423ef706"},"vehicle_type_id":"4","last_reported":1704218961,"current_range_meters":27200,"station_id":"ce4bh012rcd13ifvqd00","pricing_plan_id":"free"},{"bike_id":"fe9d9231-9266-42cd-b245-ed8ea3c0bdbb","system_id":"levelo_inurba_marseille","lat":43.31689,"lon":5.40466,"is_reserved":false,"is_disabled":false,"rental_uris":{"android":"levelo://app?vid=fe9d9231-9266-42cd-b245-ed8ea3c0bdbb","ios":"levelo://app?vid=fe9d9231-9266-42cd-b245-ed8ea3c0bdbb"},"vehicle_type_id":"4","last_reported":1704218961,"current_range_meters":19200,"station_id":"ce4bh012rcd13ifvqd00","pricing_plan_id":"free"},{"bike_id":"7e284e2a-43eb-4c08-bd5b-9c7d05ff4480","system_id":"levelo_inurba_marseille","lat":43.316821,"lon":5.404737,"is_reserved":false,"is_disabled":false,"rental_uris":{"android":"levelo://app?vid=7e284e2a-43eb-4c08-bd5b-9c7d05ff4480","ios":"levelo://app?vid=7e284e2a-43eb-4c08-bd5b-9c7d05ff4480"},"vehicle_type_id":"4","last_reported":1704218961,"current_range_meters":15200,"station_id":"ce4bh012rcd13ifvqd00","pricing_plan_id":"free"},{"bike_id":"7630d77c-ac04-4c93-83c5-347d8d464ac3","system_id":"levelo_inurba_marseille","lat":43.316821,"lon":5.404737,"is_reserved":false,"is_disabled":false,"rental_uris":{"android":"levelo://app?vid=7630d77c-ac04-4c93-83c5-347d8d464ac3","ios":"levelo://app?vid=7630d77c-ac04-4c93-83c5-347d8d464ac3"},"vehicle_type_id":"4","last_reported":1704218961,"current_range_meters":13600,"station_id":"ce4bh012rcd13ifvqd00","pricing_plan_id":"free"},{"bike_id":"4be29f09-39da-46a0-8aa2-d5b4db454c49","system_id":"levelo_inurba_marseille","lat":43.294314,"lon":5.397498,"is_reserved":false,"is_disabled":false,"rental_uris":{"android":"levelo://app?vid=4be29f09-39da-46a0-8aa2-d5b4db454c49","ios":"levelo://app?vid=4be29f09-39da-46a0-8aa2-d5b4db454c49"},"vehicle_type_id":"4","last_reported":1704218961,"current_range_meters":27200,"station_id":"ce4bh3h2rcd13ifvqdo0","pricing_plan_id":"free"},{"bike_id":"78cb2912-e6a3-4dfb-96bf-ae04a8ffa8b0","system_id":"levelo_inurba_marseille","lat":43.284534,"lon":5.358662,"is_reserved":false,"is_disabled":false,"rental_uris":{"android":"levelo://app?vid=78cb2912-e6a3-4dfb-96bf-ae04a8ffa8b0","ios":"levelo://app?vid=78cb2912-e6a3-4dfb-96bf-ae04a8ffa8b0"},"vehicle_type_id":"4","last_reported":1704218961,"current_range_meters":26000,"station_id":"ce4bhah2rcd13ifvqei0","pricing_plan_id":"free"},{"bike_id":"56a63065-4223-4a17-aa54-3d68e4d8589d","system_id":"levelo_inurba_marseille","lat":43.284534,"lon":5.358662,"is_reserved":false,"is_disabled":false,"rental_uris":{"android":"levelo://app?vid=56a63065-4223-4a17-aa54-3d68e4d8589d","ios":"levelo://app?vid=56a63065-4223-4a17-aa54-3d68e4d8589d"},"vehicle_type_id":"4","last_reported":1704218961,"current_range_meters":28000,"station_id":"ce4bhah2rcd13ifvqei0","pricing_plan_id":"free"},{"bike_id":"198b03a6-0350-47db-b014-8668c58cf8b6","system_id":"levelo_inurba_marseille","lat":43.285856,"lon":5.350771,"is_reserved":false,"is_disabled":false,"rental_uris":{"android":"levelo://app?vid=198b03a6-0350-47db-b014-8668c58cf8b6","ios":"levelo://app?vid=198b03a6-0350-47db-b014-8668c58cf8b6"},"vehicle_type_id":"4","last_reported":1704218961,"current_range_meters":16400,"station_id":"ce4bhch2rcd13ifvqeug","pricing_plan_id":"free"},{"bike_id":"9952cd75-0399-418a-90b9-5c85f9591805","system_id":"levelo_inurba_marseille","lat":43.294314,"lon":5.397498,"is_reserved":false,"is_disabled":false,"rental_uris":{"android":"levelo://app?vid=9952cd75-0399-418a-90b9-5c85f9591805","ios":"levelo://app?vid=9952cd75-0399-418a-90b9-5c85f9591805"},"vehicle_type_id":"4","last_reported":1704218961,"current_range_meters":17600,"station_id":"ce4bh3h2rcd13ifvqdo0","pricing_plan_id":"free"},{"bike_id":"9e4bd4f1-a4a1-4deb-87fa-1f39326e2ad6","system_id":"levelo_inurba_marseille","lat":43.285848,"lon":5.350787,"is_reserved":false,"is_disabled":false,"rental_uris":{"android":"levelo://app?vid=9e4bd4f1-a4a1-4deb-87fa-1f39326e2ad6","ios":"levelo://app?vid=9e4bd4f1-a4a1-4deb-87fa-1f39326e2ad6"},"vehicle_type_id":"4","last_reported":1704218961,"current_range_meters":400,"station_id":"ce4bhch2rcd13ifvqeug","pricing_plan_id":"free"},{"bike_id":"ea452d59-fd7c-4ca4-b54a-c5822bee293c","system_id":"levelo_inurba_marseille","lat":43.285856,"lon":5.350771,"is_reserved":false,"is_disabled":false,"rental_uris":{"android":"levelo://app?vid=ea452d59-fd7c-4ca4-b54a-c5822bee293c","ios":"levelo://app?vid=ea452d59-fd7c-4ca4-b54a-c5822bee293c"},"vehicle_type_id":"4","last_reported":1704218961,"current_range_meters":22800,"station_id":"ce4bhch2rcd13ifvqeug","pricing_plan_id":"free"},{"bike_id":"e0964926-5ee6-497d-b9ca-56de80166d78","system_id":"levelo_inurba_marseille","lat":43.285856,"lon":5.350771,"is_reserved":false,"is_disabled":false,"rental_uris":{"android":"levelo://app?vid=e0964926-5ee6-497d-b9ca-56de80166d78","ios":"levelo://app?vid=e0964926-5ee6-497d-b9ca-56de80166d78"},"vehicle_type_id":"4","last_reported":1704218961,"current_range_meters":14000,"station_id":"ce4bhch2rcd13ifvqeug","pricing_plan_id":"free"},{"bike_id":"d1778d07-21dd-4306-a10c-c10385ac6734","system_id":"levelo_inurba_marseille","lat":43.285848,"lon":5.350787,"is_reserved":false,"is_disabled":false,"rental_uris":{"android":"levelo://app?vid=d1778d07-21dd-4306-a10c-c10385ac6734","ios":"levelo://app?vid=d1778d07-21dd-4306-a10c-c10385ac6734"},"vehicle_type_id":"4","last_reported":1704218961,"current_range_meters":26800,"station_id":"ce4bhch2rcd13ifvqeug","pricing_plan_id":"free"},{"bike_id":"a60634ac-fbed-4f56-8d80-3f71403b8b6a","system_id":"levelo_inurba_marseille","lat":43.285848,"lon":5.350787,"is_reserved":false,"is_disabled":false,"rental_uris":{"android":"levelo://app?vid=a60634ac-fbed-4f56-8d80-3f71403b8b6a","ios":"levelo://app?vid=a60634ac-fbed-4f56-8d80-3f71403b8b6a"},"vehicle_type_id":"4","last_reported":1704218961,"current_range_meters":19200,"station_id":"ce4bhch2rcd13ifvqeug","pricing_plan_id":"free"},{"bike_id":"da83c696-1560-46ef-849a-744338060e2d","system_id":"levelo_inurba_marseille","lat":43.285856,"lon":5.350771,"is_reserved":false,"is_disabled":false,"rental_uris":{"android":"levelo://app?vid=da83c696-1560-46ef-849a-744338060e2d","ios":"levelo://app?vid=da83c696-1560-46ef-849a-744338060e2d"},"vehicle_type_id":"4","last_reported":1704218961,"current_range_meters":24400,"station_id":"ce4bhch2rcd13ifvqeug","pricing_plan_id":"free"},{"bike_id":"bc3b2dea-6094-46e3-ba1f-789fbaf8b479","system_id":"levelo_inurba_marseille","lat":43.285856,"lon":5.350771,"is_reserved":false,"is_disabled":false,"rental_uris":{"android":"levelo://app?vid=bc3b2dea-6094-46e3-ba1f-789fbaf8b479","ios":"levelo://app?vid=bc3b2dea-6094-46e3-ba1f-789fbaf8b479"},"vehicle_type_id":"4","last_reported":1704218961,"current_range_meters":18800,"station_id":"ce4bhch2rcd13ifvqeug","pricing_plan_id":"free"},{"bike_id":"48e908df-9ca7-4c39-be98-5f1da33c5b54","system_id":"levelo_inurba_marseille","lat":43.285856,"lon":5.350771,"is_reserved":false,"is_disabled":false,"rental_uris":{"android":"levelo://app?vid=48e908df-9ca7-4c39-be98-5f1da33c5b54","ios":"levelo://app?vid=48e908df-9ca7-4c39-be98-5f1da33c5b54"},"vehicle_type_id":"4","last_reported":1704218961,"current_range_meters":28800,"station_id":"ce4bhch2rcd13ifvqeug","pricing_plan_id":"free"},{"bike_id":"54183fa3-b505-40cc-b2ff-0532389c7565","system_id":"levelo_inurba_marseille","lat":43.285856,"lon":5.350771,"is_reserved":false,"is_disabled":false,"rental_uris":{"android":"levelo://app?vid=54183fa3-b505-40cc-b2ff-0532389c7565","ios":"levelo://app?vid=54183fa3-b505-40cc-b2ff-0532389c7565"},"vehicle_type_id":"4","last_reported":1704218961,"current_range_meters":17200,"station_id":"ce4bhch2rcd13ifvqeug","pricing_plan_id":"free"},{"bike_id":"af044b30-736c-4036-bef6-3e90032877a4","system_id":"levelo_inurba_marseille","lat":43.285856,"lon":5.350771,"is_reserved":false,"is_disabled":false,"rental_uris":{"android":"levelo://app?vid=af044b30-736c-4036-bef6-3e90032877a4","ios":"levelo://app?vid=af044b30-736c-4036-bef6-3e90032877a4"},"vehicle_type_id":"4","last_reported":1704218961,"current_range_meters":30000,"station_id":"ce4bhch2rcd13ifvqeug","pricing_plan_id":"free"},{"bike_id":"7a58648b-53f1-4205-b07f-651f1b31f071","system_id":"levelo_inurba_marseille","lat":43.286595,"lon":5.386795,"is_reserved":false,"is_disabled":false,"rental_uris":{"android":"levelo://app?vid=7a58648b-53f1-4205-b07f-651f1b31f071","ios":"levelo://app?vid=7a58648b-53f1-4205-b07f-651f1b31f071"},"vehicle_type_id":"4","last_reported":1704218961,"current_range_meters":27600,"station_id":"ce4bh492rcd13ifvqdug","pricing_plan_id":"free"},{"bike_id":"78635e7c-6d4d-44a8-8d79-c0ae5f625d69","system_id":"levelo_inurba_marseille","lat":43.286595,"lon":5.386795,"is_reserved":false,"is_disabled":false,"rental_uris":{"android":"levelo://app?vid=78635e7c-6d4d-44a8-8d79-c0ae5f625d69","ios":"levelo://app?vid=78635e7c-6d4d-44a8-8d79-c0ae5f625d69"},"vehicle_type_id":"4","last_reported":1704218961,"current_range_meters":29600,"station_id":"ce4bh492rcd13ifvqdug","pricing_plan_id":"free"},{"bike_id":"3bc1d0bd-ab2e-4500-8615-2742c8291fec","system_id":"levelo_inurba_marseille","lat":43.319179,"lon":5.407725,"is_reserved":false,"is_disabled":false,"rental_uris":{"android":"levelo://app?vid=3bc1d0bd-ab2e-4500-8615-2742c8291fec","ios":"levelo://app?vid=3bc1d0bd-ab2e-4500-8615-2742c8291fec"},"vehicle_type_id":"4","last_reported":1704218961,"current_range_meters":21200,"station_id":"ce4bhq12rcd13ifvqhig","pricing_plan_id":"free"},{"bike_id":"cceb7d57-b024-4cf4-a504-5b77f5db55c4","system_id":"levelo_inurba_marseille","lat":43.337184,"lon":5.391793,"is_reserved":false,"is_disabled":false,"rental_uris":{"android":"levelo://app?vid=cceb7d57-b024-4cf4-a504-5b77f5db55c4","ios":"levelo://app?vid=cceb7d57-b024-4cf4-a504-5b77f5db55c4"},"vehicle_type_id":"4","last_reported":1704218961,"current_range_meters":22800,"station_id":"","pricing_plan_id":"free"},{"bike_id":"f38d7302-1d50-43dc-a25d-fca4fb84faed","system_id":"levelo_inurba_marseille","lat":43.323464,"lon":5.406297,"is_reserved":false,"is_disabled":false,"rental_uris":{"android":"levelo://app?vid=f38d7302-1d50-43dc-a25d-fca4fb84faed","ios":"levelo://app?vid=f38d7302-1d50-43dc-a25d-fca4fb84faed"},"vehicle_type_id":"4","last_reported":1704218961,"current_range_meters":26400,"station_id":"ce4bhq92rcd13ifvqhjg","pricing_plan_id":"free"},{"bike_id":"df68335f-4aff-4af1-8998-531b8df176b8","system_id":"levelo_inurba_marseille","lat":43.284793,"lon":5.384113,"is_reserved":false,"is_disabled":false,"rental_uris":{"android":"levelo://app?vid=df68335f-4aff-4af1-8998-531b8df176b8","ios":"levelo://app?vid=df68335f-4aff-4af1-8998-531b8df176b8"},"vehicle_type_id":"4","last_reported":1704218961,"current_range_meters":12800,"station_id":"ce4bh512rcd13ifvqe3g","pricing_plan_id":"free"},{"bike_id":"6c45a482-cf78-4771-9670-bf57a0acbe3c","system_id":"levelo_inurba_marseille","lat":43.284787,"lon":5.384116,"is_reserved":false,"is_disabled":false,"rental_uris":{"android":"levelo://app?vid=6c45a482-cf78-4771-9670-bf57a0acbe3c","ios":"levelo://app?vid=6c45a482-cf78-4771-9670-bf57a0acbe3c"},"vehicle_type_id":"4","last_reported":1704218961,"current_range_meters":25200,"station_id":"ce4bh512rcd13ifvqe3g","pricing_plan_id":"free"},{"bike_id":"7df1fbc8-7d8b-4109-acd9-c46ca516a06b","system_id":"levelo_inurba_marseille","lat":43.284787,"lon":5.384116,"is_reserved":false,"is_disabled":false,"rental_uris":{"android":"levelo://app?vid=7df1fbc8-7d8b-4109-acd9-c46ca516a06b","ios":"levelo://app?vid=7df1fbc8-7d8b-4109-acd9-c46ca516a06b"},"vehicle_type_id":"4","last_reported":1704218961,"current_range_meters":20800,"station_id":"ce4bh512rcd13ifvqe3g","pricing_plan_id":"free"},{"bike_id":"7dd5de91-d80c-4d6e-b73a-0bdbbcca11b8","system_id":"levelo_inurba_marseille","lat":43.29795,"lon":5.404086,"is_reserved":false,"is_disabled":false,"rental_uris":{"android":"levelo://app?vid=7dd5de91-d80c-4d6e-b73a-0bdbbcca11b8","ios":"levelo://app?vid=7dd5de91-d80c-4d6e-b73a-0bdbbcca11b8"},"vehicle_type_id":"4","last_reported":1704218961,"current_range_meters":12400,"station_id":"ce4bh112rcd13ifvqd90","pricing_plan_id":"free"},{"bike_id":"8a64bd4f-be44-4fbf-8ff0-ffbc837321ff","system_id":"levelo_inurba_marseille","lat":43.283494,"lon":5.380945,"is_reserved":false,"is_disabled":false,"rental_uris":{"android":"levelo://app?vid=8a64bd4f-be44-4fbf-8ff0-ffbc837321ff","ios":"levelo://app?vid=8a64bd4f-be44-4fbf-8ff0-ffbc837321ff"},"vehicle_type_id":"4","last_reported":1704218961,"current_range_meters":15200,"station_id":"ce4bh412rcd13ifvqdr0","pricing_plan_id":"free"},{"bike_id":"b4b4191a-f3bf-4cb5-8e56-a7b8b3e4992e","system_id":"levelo_inurba_marseille","lat":43.284217,"lon":5.349697,"is_reserved":false,"is_disabled":false,"rental_uris":{"android":"levelo://app?vid=b4b4191a-f3bf-4cb5-8e56-a7b8b3e4992e","ios":"levelo://app?vid=b4b4191a-f3bf-4cb5-8e56-a7b8b3e4992e"},"vehicle_type_id":"4","last_reported":1704218961,"current_range_meters":27600,"station_id":"ce4bhbh2rcd13ifvqepg","pricing_plan_id":"free"},{"bike_id":"d3c5b8b3-d819-4b98-841f-4400d0406966","system_id":"levelo_inurba_marseille","lat":43.289363,"lon":5.396322,"is_reserved":false,"is_disabled":false,"rental_uris":{"android":"levelo://app?vid=d3c5b8b3-d819-4b98-841f-4400d0406966","ios":"levelo://app?vid=d3c5b8b3-d819-4b98-841f-4400d0406966"},"vehicle_type_id":"4","last_reported":1704218961,"current_range_meters":26400,"station_id":"ce4bh3h2rcd13ifvqdn0","pricing_plan_id":"free"},{"bike_id":"4e102f92-be49-4148-943a-b984056a424d","system_id":"levelo_inurba_marseille","lat":43.292724,"lon":5.401131,"is_reserved":false,"is_disabled":false,"rental_uris":{"android":"levelo://app?vid=4e102f92-be49-4148-943a-b984056a424d","ios":"levelo://app?vid=4e102f92-be49-4148-943a-b984056a424d"},"vehicle_type_id":"4","last_reported":1704218961,"current_range_meters":10800,"station_id":"ce4bh312rcd13ifvqdk0","pricing_plan_id":"free"},{"bike_id":"8d66e175-2e21-47b2-b261-e78c9ec054ca","system_id":"levelo_inurba_marseille","lat":43.28275,"lon":5.35075,"is_reserved":false,"is_disabled":false,"rental_uris":{"android":"levelo://app?vid=8d66e175-2e21-47b2-b261-e78c9ec054ca","ios":"levelo://app?vid=8d66e175-2e21-47b2-b261-e78c9ec054ca"},"vehicle_type_id":"4","last_reported":1704218961,"current_range_meters":14800,"station_id":"ce4bhbp2rcd13ifvqerg","pricing_plan_id":"free"},{"bike_id":"def056f5-39de-46e6-b394-a09bb84a5e2a","system_id":"levelo_inurba_marseille","lat":43.28268,"lon":5.35065,"is_reserved":false,"is_disabled":false,"rental_uris":{"android":"levelo://app?vid=def056f5-39de-46e6-b394-a09bb84a5e2a","ios":"levelo://app?vid=def056f5-39de-46e6-b394-a09bb84a5e2a"},"vehicle_type_id":"4","last_reported":1704218961,"current_range_meters":18400,"station_id":"ce4bhbp2rcd13ifvqerg","pricing_plan_id":"free"},{"bike_id":"dd86f97e-56bd-46cf-98a7-3451a61cfa2a","system_id":"levelo_inurba_marseille","lat":43.283502,"lon":5.386471,"is_reserved":false,"is_disabled":false,"rental_uris":{"android":"levelo://app?vid=dd86f97e-56bd-46cf-98a7-3451a61cfa2a","ios":"levelo://app?vid=dd86f97e-56bd-46cf-98a7-3451a61cfa2a"},"vehicle_type_id":"4","last_reported":1704218961,"current_range_meters":22000,"station_id":"ce4bh492rcd13ifvqdvg","pricing_plan_id":"free"},{"bike_id":"cf12fc53-a260-4e59-8c25-9e1dfa6b9b91","system_id":"levelo_inurba_marseille","lat":43.28265,"lon":5.3506,"is_reserved":false,"is_disabled":false,"rental_uris":{"android":"levelo://app?vid=cf12fc53-a260-4e59-8c25-9e1dfa6b9b91","ios":"levelo://app?vid=cf12fc53-a260-4e59-8c25-9e1dfa6b9b91"},"vehicle_type_id":"4","last_reported":1704218961,"current_range_meters":21600,"station_id":"ce4bhbp2rcd13ifvqerg","pricing_plan_id":"free"},{"bike_id":"5381af6b-492e-4e50-accf-05242f554e1d","system_id":"levelo_inurba_marseille","lat":43.284462,"lon":5.392121,"is_reserved":false,"is_disabled":false,"rental_uris":{"android":"levelo://app?vid=5381af6b-492e-4e50-accf-05242f554e1d","ios":"levelo://app?vid=5381af6b-492e-4e50-accf-05242f554e1d"},"vehicle_type_id":"4","last_reported":1704218961,"current_range_meters":17600,"station_id":"ce4bhoh2rcd13ifvqh5g","pricing_plan_id":"free"},{"bike_id":"60f2faed-0152-4c3e-9988-b297e8b3ea47","system_id":"levelo_inurba_marseille","lat":43.28573,"lon":5.394992,"is_reserved":false,"is_disabled":false,"rental_uris":{"android":"levelo://app?vid=60f2faed-0152-4c3e-9988-b297e8b3ea47","ios":"levelo://app?vid=60f2faed-0152-4c3e-9988-b297e8b3ea47"},"vehicle_type_id":"4","last_reported":1704218961,"current_range_meters":2400,"station_id":"ce4bh292rcd13ifvqdg0","pricing_plan_id":"free"},{"bike_id":"47be9058-f308-4dc0-996e-c27959e739bc","system_id":"levelo_inurba_marseille","lat":43.28573,"lon":5.394992,"is_reserved":false,"is_disabled":false,"rental_uris":{"android":"levelo://app?vid=47be9058-f308-4dc0-996e-c27959e739bc","ios":"levelo://app?vid=47be9058-f308-4dc0-996e-c27959e739bc"},"vehicle_type_id":"4","last_reported":1704218961,"current_range_meters":28000,"station_id":"ce4bh292rcd13ifvqdg0","pricing_plan_id":"free"},{"bike_id":"ee0ef843-99dc-4cea-a942-347ace613b25","system_id":"levelo_inurba_marseille","lat":43.326605,"lon":5.409903,"is_reserved":false,"is_disabled":false,"rental_uris":{"android":"levelo://app?vid=ee0ef843-99dc-4cea-a942-347ace613b25","ios":"levelo://app?vid=ee0ef843-99dc-4cea-a942-347ace613b25"},"vehicle_type_id":"4","last_reported":1704218961,"current_range_meters":28800,"station_id":"ce4bhpp2rcd13ifvqhgg","pricing_plan_id":"free"},{"bike_id":"233c128d-4121-48ee-b754-fe929781ea2c","system_id":"levelo_inurba_marseille","lat":43.326605,"lon":5.409903,"is_reserved":false,"is_disabled":false,"rental_uris":{"android":"levelo://app?vid=233c128d-4121-48ee-b754-fe929781ea2c","ios":"levelo://app?vid=233c128d-4121-48ee-b754-fe929781ea2c"},"vehicle_type_id":"4","last_reported":1704218961,"current_range_meters":19600,"station_id":"ce4bhpp2rcd13ifvqhgg","pricing_plan_id":"free"},{"bike_id":"ce388a99-2ab1-41b7-ae86-b40c471c3cbf","system_id":"levelo_inurba_marseille","lat":43.30411,"lon":5.41269,"is_reserved":false,"is_disabled":false,"rental_uris":{"android":"levelo://app?vid=ce388a99-2ab1-41b7-ae86-b40c471c3cbf","ios":"levelo://app?vid=ce388a99-2ab1-41b7-ae86-b40c471c3cbf"},"vehicle_type_id":"4","last_reported":1704218961,"current_range_meters":4400,"station_id":"ce4bhop2rcd13ifvqh8g","pricing_plan_id":"free"},{"bike_id":"b862911d-5c92-4d21-8e78-73053e0b2e9b","system_id":"levelo_inurba_marseille","lat":43.304188,"lon":5.412904,"is_reserved":false,"is_disabled":false,"rental_uris":{"android":"levelo://app?vid=b862911d-5c92-4d21-8e78-73053e0b2e9b","ios":"levelo://app?vid=b862911d-5c92-4d21-8e78-73053e0b2e9b"},"vehicle_type_id":"4","last_reported":1704218961,"current_range_meters":3200,"station_id":"ce4bhop2rcd13ifvqh8g","pricing_plan_id":"free"},{"bike_id":"1701dfb7-5b83-4e73-958d-dcf903185e15","system_id":"levelo_inurba_marseille","lat":43.304188,"lon":5.412904,"is_reserved":false,"is_disabled":false,"rental_uris":{"android":"levelo://app?vid=1701dfb7-5b83-4e73-958d-dcf903185e15","ios":"levelo://app?vid=1701dfb7-5b83-4e73-958d-dcf903185e15"},"vehicle_type_id":"4","last_reported":1704218961,"current_range_meters":31200,"station_id":"ce4bhop2rcd13ifvqh8g","pricing_plan_id":"free"},{"bike_id":"4c38d8ad-21e8-4201-bfdd-13b474fca092","system_id":"levelo_inurba_marseille","lat":43.279087,"lon":5.380114,"is_reserved":false,"is_disabled":false,"rental_uris":{"android":"levelo://app?vid=4c38d8ad-21e8-4201-bfdd-13b474fca092","ios":"levelo://app?vid=4c38d8ad-21e8-4201-bfdd-13b474fca092"},"vehicle_type_id":"4","last_reported":1704218961,"current_range_meters":11200,"station_id":"ce4bhf92rcd13ifvqf50","pricing_plan_id":"free"},{"bike_id":"dbecc0f6-cb2e-4a57-ae5e-30201b5c5d53","system_id":"levelo_inurba_marseille","lat":43.28708,"lon":5.39985,"is_reserved":false,"is_disabled":false,"rental_uris":{"android":"levelo://app?vid=dbecc0f6-cb2e-4a57-ae5e-30201b5c5d53","ios":"levelo://app?vid=dbecc0f6-cb2e-4a57-ae5e-30201b5c5d53"},"vehicle_type_id":"4","last_reported":1704218961,"current_range_meters":24400,"station_id":"ce4bho92rcd13ifvqh3g","pricing_plan_id":"free"},{"bike_id":"6e6658d0-c148-4e77-885a-818b2a313fca","system_id":"levelo_inurba_marseille","lat":43.320388,"lon":5.415414,"is_reserved":false,"is_disabled":false,"rental_uris":{"android":"levelo://app?vid=6e6658d0-c148-4e77-885a-818b2a313fca","ios":"levelo://app?vid=6e6658d0-c148-4e77-885a-818b2a313fca"},"vehicle_type_id":"4","last_reported":1704218961,"current_range_meters":29200,"station_id":"ce4bhq92rcd13ifvqhkg","pricing_plan_id":"free"},{"bike_id":"27faae58-fcb2-4169-a868-498dc7e14ada","system_id":"levelo_inurba_marseille","lat":43.320045,"lon":5.415046,"is_reserved":false,"is_disabled":false,"rental_uris":{"android":"levelo://app?vid=27faae58-fcb2-4169-a868-498dc7e14ada","ios":"levelo://app?vid=27faae58-fcb2-4169-a868-498dc7e14ada"},"vehicle_type_id":"4","last_reported":1704218961,"current_range_meters":28000,"station_id":"ce4bhq92rcd13ifvqhkg","pricing_plan_id":"free"},{"bike_id":"ce728427-ea3e-4068-87e8-c7ef02210f4b","system_id":"levelo_inurba_marseille","lat":43.27618,"lon":5.361009,"is_reserved":false,"is_disabled":false,"rental_uris":{"android":"levelo://app?vid=ce728427-ea3e-4068-87e8-c7ef02210f4b","ios":"levelo://app?vid=ce728427-ea3e-4068-87e8-c7ef02210f4b"},"vehicle_type_id":"4","last_reported":1704218961,"current_range_meters":20000,"station_id":"ce4bgj92rcd13ifvqbe0","pricing_plan_id":"free"},{"bike_id":"90c32ba2-47e1-4364-9be5-8d005ab3b3da","system_id":"levelo_inurba_marseille","lat":43.276179,"lon":5.361009,"is_reserved":false,"is_disabled":false,"rental_uris":{"android":"levelo://app?vid=90c32ba2-47e1-4364-9be5-8d005ab3b3da","ios":"levelo://app?vid=90c32ba2-47e1-4364-9be5-8d005ab3b3da"},"vehicle_type_id":"4","last_reported":1704218961,"current_range_meters":0,"station_id":"ce4bgj92rcd13ifvqbe0","pricing_plan_id":"free"},{"bike_id":"2f07b6ec-cb19-4393-848e-201add03b747","system_id":"levelo_inurba_marseille","lat":43.280784,"lon":5.396622,"is_reserved":false,"is_disabled":false,"rental_uris":{"android":"levelo://app?vid=2f07b6ec-cb19-4393-848e-201add03b747","ios":"levelo://app?vid=2f07b6ec-cb19-4393-848e-201add03b747"},"vehicle_type_id":"4","last_reported":1704218961,"current_range_meters":24000,"station_id":"ce4bho12rcd13ifvqh2g","pricing_plan_id":"free"},{"bike_id":"5ab594f1-7ffd-456e-9aac-464851122d8f","system_id":"levelo_inurba_marseille","lat":43.278399,"lon":5.392139,"is_reserved":false,"is_disabled":false,"rental_uris":{"android":"levelo://app?vid=5ab594f1-7ffd-456e-9aac-464851122d8f","ios":"levelo://app?vid=5ab594f1-7ffd-456e-9aac-464851122d8f"},"vehicle_type_id":"4","last_reported":1704218961,"current_range_meters":23600,"station_id":"ce4bhjp2rcd13ifvqga0","pricing_plan_id":"free"},{"bike_id":"ac8863c8-c04c-49ad-8d8c-57f8e72910a9","system_id":"levelo_inurba_marseille","lat":43.278401,"lon":5.392152,"is_reserved":false,"is_disabled":false,"rental_uris":{"android":"levelo://app?vid=ac8863c8-c04c-49ad-8d8c-57f8e72910a9","ios":"levelo://app?vid=ac8863c8-c04c-49ad-8d8c-57f8e72910a9"},"vehicle_type_id":"4","last_reported":1704218961,"current_range_meters":3600,"station_id":"ce4bhjp2rcd13ifvqga0","pricing_plan_id":"free"},{"bike_id":"2774f0d0-ce20-4035-bcbf-3fc04f618288","system_id":"levelo_inurba_marseille","lat":43.279975,"lon":5.40009,"is_reserved":false,"is_disabled":false,"rental_uris":{"android":"levelo://app?vid=2774f0d0-ce20-4035-bcbf-3fc04f618288","ios":"levelo://app?vid=2774f0d0-ce20-4035-bcbf-3fc04f618288"},"vehicle_type_id":"4","last_reported":1704218961,"current_range_meters":30000,"station_id":"ce4bho92rcd13ifvqh4g","pricing_plan_id":"free"},{"bike_id":"575dab36-6090-4ba0-b893-e3f7e28cfb60","system_id":"levelo_inurba_marseille","lat":43.317121,"lon":5.423936,"is_reserved":false,"is_disabled":false,"rental_uris":{"android":"levelo://app?vid=575dab36-6090-4ba0-b893-e3f7e28cfb60","ios":"levelo://app?vid=575dab36-6090-4ba0-b893-e3f7e28cfb60"},"vehicle_type_id":"4","last_reported":1704218961,"current_range_meters":15600,"station_id":"ce4bhp92rcd13ifvqhbg","pricing_plan_id":"free"},{"bike_id":"01adf045-df8a-4b37-9bf8-4403dc70ebbc","system_id":"levelo_inurba_marseille","lat":43.317121,"lon":5.423936,"is_reserved":false,"is_disabled":false,"rental_uris":{"android":"levelo://app?vid=01adf045-df8a-4b37-9bf8-4403dc70ebbc","ios":"levelo://app?vid=01adf045-df8a-4b37-9bf8-4403dc70ebbc"},"vehicle_type_id":"4","last_reported":1704218961,"current_range_meters":20400,"station_id":"ce4bhp92rcd13ifvqhbg","pricing_plan_id":"free"},{"bike_id":"5e3452d0-bbc8-463b-8852-ec98e809d5a0","system_id":"levelo_inurba_marseille","lat":43.317121,"lon":5.423936,"is_reserved":false,"is_disabled":false,"rental_uris":{"android":"levelo://app?vid=5e3452d0-bbc8-463b-8852-ec98e809d5a0","ios":"levelo://app?vid=5e3452d0-bbc8-463b-8852-ec98e809d5a0"},"vehicle_type_id":"4","last_reported":1704218961,"current_range_meters":31200,"station_id":"ce4bhp92rcd13ifvqhbg","pricing_plan_id":"free"},{"bike_id":"f3e351f0-7ca3-497e-a450-69da3118abd7","system_id":"levelo_inurba_marseille","lat":43.317121,"lon":5.423936,"is_reserved":false,"is_disabled":false,"rental_uris":{"android":"levelo://app?vid=f3e351f0-7ca3-497e-a450-69da3118abd7","ios":"levelo://app?vid=f3e351f0-7ca3-497e-a450-69da3118abd7"},"vehicle_type_id":"4","last_reported":1704218961,"current_range_meters":25600,"station_id":"ce4bhp92rcd13ifvqhbg","pricing_plan_id":"free"},{"bike_id":"c2f050c8-5829-4d0e-9d3b-560f9daeb30d","system_id":"levelo_inurba_marseille","lat":43.31081,"lon":5.42427,"is_reserved":false,"is_disabled":false,"rental_uris":{"android":"levelo://app?vid=c2f050c8-5829-4d0e-9d3b-560f9daeb30d","ios":"levelo://app?vid=c2f050c8-5829-4d0e-9d3b-560f9daeb30d"},"vehicle_type_id":"4","last_reported":1704218961,"current_range_meters":31200,"station_id":"ce4bhp92rcd13ifvqhag","pricing_plan_id":"free"},{"bike_id":"27069f3d-7d0a-4623-9f37-1f04f341a2d7","system_id":"levelo_inurba_marseille","lat":43.31083,"lon":5.42428,"is_reserved":false,"is_disabled":false,"rental_uris":{"android":"levelo://app?vid=27069f3d-7d0a-4623-9f37-1f04f341a2d7","ios":"levelo://app?vid=27069f3d-7d0a-4623-9f37-1f04f341a2d7"},"vehicle_type_id":"4","last_reported":1704218961,"current_range_meters":16000,"station_id":"ce4bhp92rcd13ifvqhag","pricing_plan_id":"free"},{"bike_id":"4760841b-4fd7-4b7d-aef3-782de75b0909","system_id":"levelo_inurba_marseille","lat":43.317121,"lon":5.423936,"is_reserved":false,"is_disabled":false,"rental_uris":{"android":"levelo://app?vid=4760841b-4fd7-4b7d-aef3-782de75b0909","ios":"levelo://app?vid=4760841b-4fd7-4b7d-aef3-782de75b0909"},"vehicle_type_id":"4","last_reported":1704218961,"current_range_meters":20800,"station_id":"ce4bhp92rcd13ifvqhbg","pricing_plan_id":"free"},{"bike_id":"47f8cb60-186e-4e83-96aa-050d47af2974","system_id":"levelo_inurba_marseille","lat":43.34134,"lon":5.40898,"is_reserved":false,"is_disabled":false,"rental_uris":{"android":"levelo://app?vid=47f8cb60-186e-4e83-96aa-050d47af2974","ios":"levelo://app?vid=47f8cb60-186e-4e83-96aa-050d47af2974"},"vehicle_type_id":"4","last_reported":1704218961,"current_range_meters":11600,"station_id":"ce4bhqh2rcd13ifvqhlg","pricing_plan_id":"free"},{"bike_id":"16332610-6d03-4244-a9d6-f27236f43554","system_id":"levelo_inurba_marseille","lat":43.3414,"lon":5.40898,"is_reserved":false,"is_disabled":false,"rental_uris":{"android":"levelo://app?vid=16332610-6d03-4244-a9d6-f27236f43554","ios":"levelo://app?vid=16332610-6d03-4244-a9d6-f27236f43554"},"vehicle_type_id":"4","last_reported":1704218961,"current_range_meters":26400,"station_id":"ce4bhqh2rcd13ifvqhlg","pricing_plan_id":"free"},{"bike_id":"d7a0f436-4a10-430d-9dfa-fb613b9a9e9c","system_id":"levelo_inurba_marseille","lat":43.340804,"lon":5.410219,"is_reserved":false,"is_disabled":false,"rental_uris":{"android":"levelo://app?vid=d7a0f436-4a10-430d-9dfa-fb613b9a9e9c","ios":"levelo://app?vid=d7a0f436-4a10-430d-9dfa-fb613b9a9e9c"},"vehicle_type_id":"4","last_reported":1704218961,"current_range_meters":19600,"station_id":"ce4bhqh2rcd13ifvqhlg","pricing_plan_id":"free"},{"bike_id":"1d28ebc9-9f7c-4f57-a1a0-bccb637d352f","system_id":"levelo_inurba_marseille","lat":43.273125,"lon":5.390731,"is_reserved":false,"is_disabled":false,"rental_uris":{"android":"levelo://app?vid=1d28ebc9-9f7c-4f57-a1a0-bccb637d352f","ios":"levelo://app?vid=1d28ebc9-9f7c-4f57-a1a0-bccb637d352f"},"vehicle_type_id":"4","last_reported":1704218961,"current_range_meters":24400,"station_id":"ce4bhgp2rcd13ifvqfe0","pricing_plan_id":"free"},{"bike_id":"b7745adc-4a38-48b6-afaf-51e11892eda8","system_id":"levelo_inurba_marseille","lat":43.274099,"lon":5.394019,"is_reserved":false,"is_disabled":false,"rental_uris":{"android":"levelo://app?vid=b7745adc-4a38-48b6-afaf-51e11892eda8","ios":"levelo://app?vid=b7745adc-4a38-48b6-afaf-51e11892eda8"},"vehicle_type_id":"4","last_reported":1704218961,"current_range_meters":27600,"station_id":"ce4bhdp2rcd13ifvqf20","pricing_plan_id":"free"},{"bike_id":"43af864c-2268-4a27-8d30-3de587a03484","system_id":"levelo_inurba_marseille","lat":43.274103,"lon":5.394016,"is_reserved":false,"is_disabled":false,"rental_uris":{"android":"levelo://app?vid=43af864c-2268-4a27-8d30-3de587a03484","ios":"levelo://app?vid=43af864c-2268-4a27-8d30-3de587a03484"},"vehicle_type_id":"4","last_reported":1704218961,"current_range_meters":9600,"station_id":"ce4bhdp2rcd13ifvqf20","pricing_plan_id":"free"},{"bike_id":"c0e7addb-0862-4074-be0c-0073076ea976","system_id":"levelo_inurba_marseille","lat":43.274099,"lon":5.394019,"is_reserved":false,"is_disabled":false,"rental_uris":{"android":"levelo://app?vid=c0e7addb-0862-4074-be0c-0073076ea976","ios":"levelo://app?vid=c0e7addb-0862-4074-be0c-0073076ea976"},"vehicle_type_id":"4","last_reported":1704218961,"current_range_meters":15200,"station_id":"ce4bhdp2rcd13ifvqf20","pricing_plan_id":"free"},{"bike_id":"2ea63b5f-5611-4e23-a9e5-5bdc3150234e","system_id":"levelo_inurba_marseille","lat":43.295511,"lon":5.422926,"is_reserved":false,"is_disabled":false,"rental_uris":{"android":"levelo://app?vid=2ea63b5f-5611-4e23-a9e5-5bdc3150234e","ios":"levelo://app?vid=2ea63b5f-5611-4e23-a9e5-5bdc3150234e"},"vehicle_type_id":"4","last_reported":1704218961,"current_range_meters":25200,"station_id":"ce4bhph2rcd13ifvqhdg","pricing_plan_id":"free"},{"bike_id":"6799384f-245e-4aec-883f-624faf7fd51e","system_id":"levelo_inurba_marseille","lat":43.295511,"lon":5.422926,"is_reserved":false,"is_disabled":false,"rental_uris":{"android":"levelo://app?vid=6799384f-245e-4aec-883f-624faf7fd51e","ios":"levelo://app?vid=6799384f-245e-4aec-883f-624faf7fd51e"},"vehicle_type_id":"4","last_reported":1704218961,"current_range_meters":30000,"station_id":"ce4bhph2rcd13ifvqhdg","pricing_plan_id":"free"},{"bike_id":"c5ec987f-3553-4a8b-b395-5e9f4be08d83","system_id":"levelo_inurba_marseille","lat":43.272118,"lon":5.391758,"is_reserved":false,"is_disabled":false,"rental_uris":{"android":"levelo://app?vid=c5ec987f-3553-4a8b-b395-5e9f4be08d83","ios":"levelo://app?vid=c5ec987f-3553-4a8b-b395-5e9f4be08d83"},"vehicle_type_id":"4","last_reported":1704218961,"current_range_meters":22400,"station_id":"ce4bhhp2rcd13ifvqfm0","pricing_plan_id":"free"},{"bike_id":"0981adf6-92c5-4e1b-820e-2802de113eaa","system_id":"levelo_inurba_marseille","lat":43.27111,"lon":5.38956,"is_reserved":false,"is_disabled":false,"rental_uris":{"android":"levelo://app?vid=0981adf6-92c5-4e1b-820e-2802de113eaa","ios":"levelo://app?vid=0981adf6-92c5-4e1b-820e-2802de113eaa"},"vehicle_type_id":"4","last_reported":1704218961,"current_range_meters":23200,"station_id":"","pricing_plan_id":"free"},{"bike_id":"054e8014-76d4-4862-b045-f9a3e7f5e93a","system_id":"levelo_inurba_marseille","lat":43.278128,"lon":5.407195,"is_reserved":false,"is_disabled":false,"rental_uris":{"android":"levelo://app?vid=054e8014-76d4-4862-b045-f9a3e7f5e93a","ios":"levelo://app?vid=054e8014-76d4-4862-b045-f9a3e7f5e93a"},"vehicle_type_id":"4","last_reported":1704218961,"current_range_meters":16000,"station_id":"ce4bhnh2rcd13ifvqgtg","pricing_plan_id":"free"},{"bike_id":"e08f148d-1295-4235-b051-4d75cdf2192f","system_id":"levelo_inurba_marseille","lat":43.278128,"lon":5.407195,"is_reserved":false,"is_disabled":false,"rental_uris":{"android":"levelo://app?vid=e08f148d-1295-4235-b051-4d75cdf2192f","ios":"levelo://app?vid=e08f148d-1295-4235-b051-4d75cdf2192f"},"vehicle_type_id":"4","last_reported":1704218961,"current_range_meters":22000,"station_id":"ce4bhnh2rcd13ifvqgtg","pricing_plan_id":"free"},{"bike_id":"c7e3f0d0-fbfd-4ceb-8b58-b5b2d7b8dfe4","system_id":"levelo_inurba_marseille","lat":43.269467,"lon":5.386439,"is_reserved":false,"is_disabled":false,"rental_uris":{"android":"levelo://app?vid=c7e3f0d0-fbfd-4ceb-8b58-b5b2d7b8dfe4","ios":"levelo://app?vid=c7e3f0d0-fbfd-4ceb-8b58-b5b2d7b8dfe4"},"vehicle_type_id":"4","last_reported":1704218961,"current_range_meters":6800,"station_id":"ce4bhh92rcd13ifvqfh0","pricing_plan_id":"free"},{"bike_id":"32cdb11c-82cf-4330-be18-083a9a33ff82","system_id":"levelo_inurba_marseille","lat":43.26681,"lon":5.382694,"is_reserved":false,"is_disabled":false,"rental_uris":{"android":"levelo://app?vid=32cdb11c-82cf-4330-be18-083a9a33ff82","ios":"levelo://app?vid=32cdb11c-82cf-4330-be18-083a9a33ff82"},"vehicle_type_id":"4","last_reported":1704218961,"current_range_meters":29200,"station_id":"ce4bhg92rcd13ifvqf90","pricing_plan_id":"free"},{"bike_id":"d78a92b3-8d25-4e12-a6a4-a059c8b14763","system_id":"levelo_inurba_marseille","lat":43.265714,"lon":5.372891,"is_reserved":false,"is_disabled":false,"rental_uris":{"android":"levelo://app?vid=d78a92b3-8d25-4e12-a6a4-a059c8b14763","ios":"levelo://app?vid=d78a92b3-8d25-4e12-a6a4-a059c8b14763"},"vehicle_type_id":"4","last_reported":1704218961,"current_range_meters":13600,"station_id":"ce4bhg12rcd13ifvqf70","pricing_plan_id":"free"},{"bike_id":"7c3c75f3-2f79-4900-bc2d-1b5579762775","system_id":"levelo_inurba_marseille","lat":43.265714,"lon":5.372891,"is_reserved":false,"is_disabled":false,"rental_uris":{"android":"levelo://app?vid=7c3c75f3-2f79-4900-bc2d-1b5579762775","ios":"levelo://app?vid=7c3c75f3-2f79-4900-bc2d-1b5579762775"},"vehicle_type_id":"4","last_reported":1704218961,"current_range_meters":31200,"station_id":"ce4bhg12rcd13ifvqf70","pricing_plan_id":"free"},{"bike_id":"c5583a46-f991-4c88-bcbd-49c79089cb81","system_id":"levelo_inurba_marseille","lat":43.26555,"lon":5.37281,"is_reserved":false,"is_disabled":false,"rental_uris":{"android":"levelo://app?vid=c5583a46-f991-4c88-bcbd-49c79089cb81","ios":"levelo://app?vid=c5583a46-f991-4c88-bcbd-49c79089cb81"},"vehicle_type_id":"4","last_reported":1704218961,"current_range_meters":22800,"station_id":"ce4bhg12rcd13ifvqf70","pricing_plan_id":"free"},{"bike_id":"498f4649-4242-4573-9915-c9b2b3555db6","system_id":"levelo_inurba_marseille","lat":43.265714,"lon":5.372891,"is_reserved":false,"is_disabled":false,"rental_uris":{"android":"levelo://app?vid=498f4649-4242-4573-9915-c9b2b3555db6","ios":"levelo://app?vid=498f4649-4242-4573-9915-c9b2b3555db6"},"vehicle_type_id":"4","last_reported":1704218961,"current_range_meters":17200,"station_id":"ce4bhg12rcd13ifvqf70","pricing_plan_id":"free"},{"bike_id":"963974ce-5870-4af8-84f2-0dc3b0fc534c","system_id":"levelo_inurba_marseille","lat":43.27996,"lon":5.416624,"is_reserved":false,"is_disabled":false,"rental_uris":{"android":"levelo://app?vid=963974ce-5870-4af8-84f2-0dc3b0fc534c","ios":"levelo://app?vid=963974ce-5870-4af8-84f2-0dc3b0fc534c"},"vehicle_type_id":"4","last_reported":1704218961,"current_range_meters":17600,"station_id":"ce4bho12rcd13ifvqh1g","pricing_plan_id":"free"},{"bike_id":"2bdf59be-e0b9-40da-b6af-abd96991b40d","system_id":"levelo_inurba_marseille","lat":43.27996,"lon":5.416624,"is_reserved":false,"is_disabled":false,"rental_uris":{"android":"levelo://app?vid=2bdf59be-e0b9-40da-b6af-abd96991b40d","ios":"levelo://app?vid=2bdf59be-e0b9-40da-b6af-abd96991b40d"},"vehicle_type_id":"4","last_reported":1704218961,"current_range_meters":14000,"station_id":"ce4bho12rcd13ifvqh1g","pricing_plan_id":"free"},{"bike_id":"6d56746b-555d-485f-9bc0-520c69e5e465","system_id":"levelo_inurba_marseille","lat":43.279907,"lon":5.41663,"is_reserved":false,"is_disabled":false,"rental_uris":{"android":"levelo://app?vid=6d56746b-555d-485f-9bc0-520c69e5e465","ios":"levelo://app?vid=6d56746b-555d-485f-9bc0-520c69e5e465"},"vehicle_type_id":"4","last_reported":1704218961,"current_range_meters":31200,"station_id":"ce4bho12rcd13ifvqh1g","pricing_plan_id":"free"},{"bike_id":"7552dc67-1782-4263-8825-10c5b00b31be","system_id":"levelo_inurba_marseille","lat":43.27994,"lon":5.41668,"is_reserved":false,"is_disabled":false,"rental_uris":{"android":"levelo://app?vid=7552dc67-1782-4263-8825-10c5b00b31be","ios":"levelo://app?vid=7552dc67-1782-4263-8825-10c5b00b31be"},"vehicle_type_id":"4","last_reported":1704218961,"current_range_meters":28000,"station_id":"ce4bho12rcd13ifvqh1g","pricing_plan_id":"free"},{"bike_id":"4069870e-f5e8-4bfb-b990-bd0741967933","system_id":"levelo_inurba_marseille","lat":43.27996,"lon":5.416624,"is_reserved":false,"is_disabled":false,"rental_uris":{"android":"levelo://app?vid=4069870e-f5e8-4bfb-b990-bd0741967933","ios":"levelo://app?vid=4069870e-f5e8-4bfb-b990-bd0741967933"},"vehicle_type_id":"4","last_reported":1704218961,"current_range_meters":31600,"station_id":"ce4bho12rcd13ifvqh1g","pricing_plan_id":"free"},{"bike_id":"4e7b82a4-f271-4a72-bdbd-460d1cfbd58d","system_id":"levelo_inurba_marseille","lat":43.27181,"lon":5.404997,"is_reserved":false,"is_disabled":false,"rental_uris":{"android":"levelo://app?vid=4e7b82a4-f271-4a72-bdbd-460d1cfbd58d","ios":"levelo://app?vid=4e7b82a4-f271-4a72-bdbd-460d1cfbd58d"},"vehicle_type_id":"4","last_reported":1704218961,"current_range_meters":4800,"station_id":"","pricing_plan_id":"free"},{"bike_id":"460910cc-aef6-4f7e-be46-c5e79eaea7ec","system_id":"levelo_inurba_marseille","lat":43.308051,"lon":5.43527,"is_reserved":false,"is_disabled":false,"rental_uris":{"android":"levelo://app?vid=460910cc-aef6-4f7e-be46-c5e79eaea7ec","ios":"levelo://app?vid=460910cc-aef6-4f7e-be46-c5e79eaea7ec"},"vehicle_type_id":"4","last_reported":1704218961,"current_range_meters":13600,"station_id":"ce4bhph2rcd13ifvqheg","pricing_plan_id":"free"},{"bike_id":"4acdea58-b679-4180-9812-65bb718e8387","system_id":"levelo_inurba_marseille","lat":43.308051,"lon":5.43527,"is_reserved":false,"is_disabled":false,"rental_uris":{"android":"levelo://app?vid=4acdea58-b679-4180-9812-65bb718e8387","ios":"levelo://app?vid=4acdea58-b679-4180-9812-65bb718e8387"},"vehicle_type_id":"4","last_reported":1704218961,"current_range_meters":31200,"station_id":"ce4bhph2rcd13ifvqheg","pricing_plan_id":"free"},{"bike_id":"9a764548-f7d9-4055-b98a-9b7da8d0b530","system_id":"levelo_inurba_marseille","lat":43.265569,"lon":5.390047,"is_reserved":false,"is_disabled":false,"rental_uris":{"android":"levelo://app?vid=9a764548-f7d9-4055-b98a-9b7da8d0b530","ios":"levelo://app?vid=9a764548-f7d9-4055-b98a-9b7da8d0b530"},"vehicle_type_id":"4","last_reported":1704218961,"current_range_meters":5600,"station_id":"ce4bhe12rcd13ifvqf30","pricing_plan_id":"free"},{"bike_id":"faf6b809-d321-44d2-9d07-a55538dc187d","system_id":"levelo_inurba_marseille","lat":43.258224,"lon":5.394369,"is_reserved":false,"is_disabled":false,"rental_uris":{"android":"levelo://app?vid=faf6b809-d321-44d2-9d07-a55538dc187d","ios":"levelo://app?vid=faf6b809-d321-44d2-9d07-a55538dc187d"},"vehicle_type_id":"4","last_reported":1704218961,"current_range_meters":13200,"station_id":"ce4bhip2rcd13ifvqft0","pricing_plan_id":"free"},{"bike_id":"dac5ea74-92f7-462e-b536-31f322bb01c0","system_id":"levelo_inurba_marseille","lat":43.331893,"lon":5.431791,"is_reserved":false,"is_disabled":false,"rental_uris":{"android":"levelo://app?vid=dac5ea74-92f7-462e-b536-31f322bb01c0","ios":"levelo://app?vid=dac5ea74-92f7-462e-b536-31f322bb01c0"},"vehicle_type_id":"4","last_reported":1704218961,"current_range_meters":2800,"station_id":"","pricing_plan_id":"free"},{"bike_id":"6a9d119b-3b47-43fd-978f-8e074adbc90a","system_id":"levelo_inurba_marseille","lat":43.317104,"lon":5.436818,"is_reserved":false,"is_disabled":false,"rental_uris":{"android":"levelo://app?vid=6a9d119b-3b47-43fd-978f-8e074adbc90a","ios":"levelo://app?vid=6a9d119b-3b47-43fd-978f-8e074adbc90a"},"vehicle_type_id":"4","last_reported":1704218961,"current_range_meters":30000,"station_id":"ce4bhp92rcd13ifvqhcg","pricing_plan_id":"free"},{"bike_id":"a3856c02-83b2-424a-8de2-25198868578b","system_id":"levelo_inurba_marseille","lat":43.317104,"lon":5.436818,"is_reserved":false,"is_disabled":false,"rental_uris":{"android":"levelo://app?vid=a3856c02-83b2-424a-8de2-25198868578b","ios":"levelo://app?vid=a3856c02-83b2-424a-8de2-25198868578b"},"vehicle_type_id":"4","last_reported":1704218961,"current_range_meters":4000,"station_id":"ce4bhp92rcd13ifvqhcg","pricing_plan_id":"free"},{"bike_id":"8e62e469-3383-4b1b-900e-4e54b7147643","system_id":"levelo_inurba_marseille","lat":43.271388,"lon":5.409269,"is_reserved":false,"is_disabled":false,"rental_uris":{"android":"levelo://app?vid=8e62e469-3383-4b1b-900e-4e54b7147643","ios":"levelo://app?vid=8e62e469-3383-4b1b-900e-4e54b7147643"},"vehicle_type_id":"4","last_reported":1704218961,"current_range_meters":20400,"station_id":"ce4bhl12rcd13ifvqgf0","pricing_plan_id":"free"},{"bike_id":"a83537a0-c298-4859-8f14-d8ca8fb4fc50","system_id":"levelo_inurba_marseille","lat":43.26202,"lon":5.379299,"is_reserved":false,"is_disabled":false,"rental_uris":{"android":"levelo://app?vid=a83537a0-c298-4859-8f14-d8ca8fb4fc50","ios":"levelo://app?vid=a83537a0-c298-4859-8f14-d8ca8fb4fc50"},"vehicle_type_id":"4","last_reported":1704218961,"current_range_meters":4400,"station_id":"ce4bhjp2rcd13ifvqg90","pricing_plan_id":"free"},{"bike_id":"731d1d64-4595-4ff8-9472-5253b6aa8bfd","system_id":"levelo_inurba_marseille","lat":43.267959,"lon":5.402685,"is_reserved":false,"is_disabled":false,"rental_uris":{"android":"levelo://app?vid=731d1d64-4595-4ff8-9472-5253b6aa8bfd","ios":"levelo://app?vid=731d1d64-4595-4ff8-9472-5253b6aa8bfd"},"vehicle_type_id":"4","last_reported":1704218961,"current_range_meters":27600,"station_id":"ce501612rcd8frsf0b60","pricing_plan_id":"free"},{"bike_id":"a41cda1f-80bb-4992-a7f9-020feec0370d","system_id":"levelo_inurba_marseille","lat":43.2651,"lon":5.39469,"is_reserved":false,"is_disabled":false,"rental_uris":{"android":"levelo://app?vid=a41cda1f-80bb-4992-a7f9-020feec0370d","ios":"levelo://app?vid=a41cda1f-80bb-4992-a7f9-020feec0370d"},"vehicle_type_id":"4","last_reported":1704218961,"current_range_meters":8000,"station_id":"ce4bhi12rcd13ifvqfq0","pricing_plan_id":"free"},{"bike_id":"b3d4289e-df97-4680-bb1c-b1df68cb2e3e","system_id":"levelo_inurba_marseille","lat":43.2651,"lon":5.39469,"is_reserved":false,"is_disabled":false,"rental_uris":{"android":"levelo://app?vid=b3d4289e-df97-4680-bb1c-b1df68cb2e3e","ios":"levelo://app?vid=b3d4289e-df97-4680-bb1c-b1df68cb2e3e"},