{"last_updated":1734757712,"ttl":60,"version":"2.2","data":{"bikes":[{"bike_id":"e716dfee-b0db-49e3-830f-8a7adb3a90a3","system_id":"levelo_inurba_marseille","lat":43.280824,"lon":5.396554,"is_reserved":false,"is_disabled":false,"rental_uris":{"android":"levelo://app?vid=e716dfee-b0db-49e3-830f-8a7adb3a90a3","ios":"levelo://app?vid=e716dfee-b0db-49e3-830f-8a7adb3a90a3"},"vehicle_type_id":"4","last_reported":1734757713,"current_range_meters":38800,"station_id":"ce4bho12rcd13ifvqh2g","pricing_plan_id":"cebpf4jnsgd1na2vs0mg"},{"bike_id":"e7496b92-66e7-4b13-9f94-3abc8c7ef2bc","system_id":"levelo_inurba_marseille","lat":43.30908,"lon":5.40152,"is_reserved":false,"is_disabled":false,"rental_uris":{"android":"levelo://app?vid=e7496b92-66e7-4b13-9f94-3abc8c7ef2bc","ios":"levelo://app?vid=e7496b92-66e7-4b13-9f94-3abc8c7ef2bc"},"vehicle_type_id":"4","last_reported":1734757713,"current_range_meters":17600,"station_id":"ce4bgvp2rcd13ifvqct0","pricing_plan_id":"cebpf4jnsgd1na2vs0mg"},{"bike_id":"8b58a356-7b53-4941-baff-a82d27c8533d","system_id":"levelo_inurba_marseille","lat":43.29566,"lon":5.39974,"is_reserved":false,"is_disabled":false,"rental_uris":{"android":"levelo://app?vid=8b58a356-7b53-4941-baff-a82d27c8533d","ios":"levelo://app?vid=8b58a356-7b53-4941-baff-a82d27c8533d"},"vehicle_type_id":"4","last_reported":1734757713,"current_range_meters":34800,"station_id":"ce4bh312rcd13ifvqdj0","pricing_plan_id":"cebpf4jnsgd1na2vs0mg"},{"bike_id":"d8d2107a-34b0-48de-9165-5b99c850cf6f","system_id":"levelo_inurba_marseille","lat":43.31754,"lon":5.39018,"is_reserved":false,"is_disabled":false,"rental_uris":{"android":"levelo://app?vid=d8d2107a-34b0-48de-9165-5b99c850cf6f","ios":"levelo://app?vid=d8d2107a-34b0-48de-9165-5b99c850cf6f"},"vehicle_type_id":"4","last_reported":1734757713,"current_range_meters":3600,"station_id":"ce4bhqp2rcd13ifvqhng","pricing_plan_id":"cebpf4jnsgd1na2vs0mg"},{"bike_id":"c20c717d-c827-41e6-9454-3f93a777b421","system_id":"levelo_inurba_marseille","lat":43.27851,"lon":5.3919,"is_reserved":false,"is_disabled":false,"rental_uris":{"android":"levelo://app?vid=c20c717d-c827-41e6-9454-3f93a777b421","ios":"levelo://app?vid=c20c717d-c827-41e6-9454-3f93a777b421"},"vehicle_type_id":"4","last_reported":1734757713,"current_range_meters":37600,"station_id":"ce4bhjp2rcd13ifvqga0","pricing_plan_id":"cebpf4jnsgd1na2vs0mg"},{"bike_id":"12b28a6a-a08d-4088-a058-24fc8a1b7dad","system_id":"levelo_inurba_marseille","lat":43.25866,"lon":5.3991,"is_reserved":false,"is_disabled":false,"rental_uris":{"android":"levelo://app?vid=12b28a6a-a08d-4088-a058-24fc8a1b7dad","ios":"levelo://app?vid=12b28a6a-a08d-4088-a058-24fc8a1b7dad"},"vehicle_type_id":"4","last_reported":1734757713,"current_range_meters":22800,"station_id":"ce4bhl92rcd13ifvqghg","pricing_plan_id":"cebpf4jnsgd1na2vs0mg"},{"bike_id":"24041a61-6630-4c4c-89da-019f888e35f5","system_id":"levelo_inurba_marseille","lat":43.28715,"lon":5.39995,"is_reserved":false,"is_disabled":true,"rental_uris":{"android":"levelo://app?vid=24041a61-6630-4c4c-89da-019f888e35f5","ios":"levelo://app?vid=24041a61-6630-4c4c-89da-019f888e35f5"},"vehicle_type_id":"4","last_reported":1734757713,"current_range_meters":30800,"station_id":"ce4bho92rcd13ifvqh3g","pricing_plan_id":"cebpf4jnsgd1na2vs0mg"},{"bike_id":"0b3c962c-40d1-4375-b60d-644d72aaacf1","system_id":"levelo_inurba_marseille","lat":43.280101,"lon":5.404028,"is_reserved":false,"is_disabled":true,"rental_uris":{"android":"levelo://app?vid=0b3c962c-40d1-4375-b60d-644d72aaacf1","ios":"levelo://app?vid=0b3c962c-40d1-4375-b60d-644d72aaacf1"},"vehicle_type_id":"4","last_reported":1734757713,"current_range_meters":0,"station_id":"","pricing_plan_id":"cebpf4jnsgd1na2vs0mg"},{"bike_id":"aa496fe5-ff01-4c76-b230-91db42ff1c79","system_id":"levelo_inurba_marseille","lat":43.26939,"lon":5.40249,"is_reserved":false,"is_disabled":false,"rental_uris":{"android":"levelo://app?vid=aa496fe5-ff01-4c76-b230-91db42ff1c79","ios":"levelo://app?vid=aa496fe5-ff01-4c76-b230-91db42ff1c79"},"vehicle_type_id":"4","last_reported":1734757713,"current_range_meters":37600,"station_id":"cjm6bp8fraef2m0cb0m0","pricing_plan_id":"cebpf4jnsgd1na2vs0mg"},{"bike_id":"5ed1074f-f060-4c89-87ad-d7edcdcebfba","system_id":"levelo_inurba_marseille","lat":43.27674,"lon":5.38977,"is_reserved":false,"is_disabled":false,"rental_uris":{"android":"levelo://app?vid=5ed1074f-f060-4c89-87ad-d7edcdcebfba","ios":"levelo://app?vid=5ed1074f-f060-4c89-87ad-d7edcdcebfba"},"vehicle_type_id":"4","last_reported":1734757713,"current_range_meters":28000,"station_id":"ce4bhi12rcd13ifvqfo0","pricing_plan_id":"cebpf4jnsgd1na2vs0mg"},{"bike_id":"19b4fa94-a9e7-43f4-bb42-436dcb8c21dd","system_id":"levelo_inurba_marseille","lat":43.2901,"lon":5.35616,"is_reserved":false,"is_disabled":false,"rental_uris":{"android":"levelo://app?vid=19b4fa94-a9e7-43f4-bb42-436dcb8c21dd","ios":"levelo://app?vid=19b4fa94-a9e7-43f4-bb42-436dcb8c21dd"},"vehicle_type_id":"4","last_reported":1734757713,"current_range_meters":38800,"station_id":"ce4bhb92rcd13ifvqen0","pricing_plan_id":"cebpf4jnsgd1na2vs0mg"},{"bike_id":"c05e7616-33bf-4fd1-bb8b-bad4822419fe","system_id":"levelo_inurba_marseille","lat":43.24812,"lon":5.37461,"is_reserved":false,"is_disabled":false,"rental_uris":{"android":"levelo://app?vid=c05e7616-33bf-4fd1-bb8b-bad4822419fe","ios":"levelo://app?vid=c05e7616-33bf-4fd1-bb8b-bad4822419fe"},"vehicle_type_id":"4","last_reported":1734757713,"current_range_meters":28800,"station_id":"ce4bhgh2rcd13ifvqfb0","pricing_plan_id":"cebpf4jnsgd1na2vs0mg"},{"bike_id":"cfa8c83c-76ab-42d0-bac6-f1f387c99e86","system_id":"levelo_inurba_marseille","lat":43.29886,"lon":5.38902,"is_reserved":false,"is_disabled":false,"rental_uris":{"android":"levelo://app?vid=cfa8c83c-76ab-42d0-bac6-f1f387c99e86","ios":"levelo://app?vid=cfa8c83c-76ab-42d0-bac6-f1f387c99e86"},"vehicle_type_id":"4","last_reported":1734757713,"current_range_meters":38800,"station_id":"ce4bh392rcd13ifvqdl0","pricing_plan_id":"cebpf4jnsgd1na2vs0mg"},{"bike_id":"6d401513-66ba-4f40-af76-25e509695a78","system_id":"levelo_inurba_marseille","lat":43.29226,"lon":5.36082,"is_reserved":false,"is_disabled":false,"rental_uris":{"android":"levelo://app?vid=6d401513-66ba-4f40-af76-25e509695a78","ios":"levelo://app?vid=6d401513-66ba-4f40-af76-25e509695a78"},"vehicle_type_id":"4","last_reported":1734757713,"current_range_meters":25200,"station_id":"ce4bhbh2rcd13ifvqeqg","pricing_plan_id":"cebpf4jnsgd1na2vs0mg"},{"bike_id":"0c416f96-e023-4e22-81e2-21b4618932e5","system_id":"levelo_inurba_marseille","lat":43.29791,"lon":5.38119,"is_reserved":false,"is_disabled":true,"rental_uris":{"android":"levelo://app?vid=0c416f96-e023-4e22-81e2-21b4618932e5","ios":"levelo://app?vid=0c416f96-e023-4e22-81e2-21b4618932e5"},"vehicle_type_id":"4","last_reported":1734757713,"current_range_meters":23200,"station_id":"ce4bgip2rcd13ifvqbb0","pricing_plan_id":"cebpf4jnsgd1na2vs0mg"},{"bike_id":"93cd12d2-ee52-454b-a1c6-a2a94b1185da","system_id":"levelo_inurba_marseille","lat":43.24787,"lon":5.37461,"is_reserved":false,"is_disabled":false,"rental_uris":{"android":"levelo://app?vid=93cd12d2-ee52-454b-a1c6-a2a94b1185da","ios":"levelo://app?vid=93cd12d2-ee52-454b-a1c6-a2a94b1185da"},"vehicle_type_id":"4","last_reported":1734757713,"current_range_meters":38400,"station_id":"ce4bhgh2rcd13ifvqfb0","pricing_plan_id":"cebpf4jnsgd1na2vs0mg"},{"bike_id":"40cf54cb-b601-4452-a9d4-77e49eb44305","system_id":"levelo_inurba_marseille","lat":43.25106,"lon":5.403346,"is_reserved":false,"is_disabled":false,"rental_uris":{"android":"levelo://app?vid=40cf54cb-b601-4452-a9d4-77e49eb44305","ios":"levelo://app?vid=40cf54cb-b601-4452-a9d4-77e49eb44305"},"vehicle_type_id":"4","last_reported":1734757713,"current_range_meters":34800,"station_id":"ce4bhlh2rcd13ifvqgig","pricing_plan_id":"cebpf4jnsgd1na2vs0mg"},{"bike_id":"608374e1-f5ef-4e14-aac6-f3b4fbfd2453","system_id":"levelo_inurba_marseille","lat":43.25087,"lon":5.39538,"is_reserved":false,"is_disabled":false,"rental_uris":{"android":"levelo://app?vid=608374e1-f5ef-4e14-aac6-f3b4fbfd2453","ios":"levelo://app?vid=608374e1-f5ef-4e14-aac6-f3b4fbfd2453"},"vehicle_type_id":"4","last_reported":1734757713,"current_range_meters":32400,"station_id":"ce4bhm12rcd13ifvqgkg","pricing_plan_id":"cebpf4jnsgd1na2vs0mg"},{"bike_id":"644e3219-1450-4f2a-b186-c356cfe42ba2","system_id":"levelo_inurba_marseille","lat":43.28087,"lon":5.39635,"is_reserved":false,"is_disabled":false,"rental_uris":{"android":"levelo://app?vid=644e3219-1450-4f2a-b186-c356cfe42ba2","ios":"levelo://app?vid=644e3219-1450-4f2a-b186-c356cfe42ba2"},"vehicle_type_id":"4","last_reported":1734757713,"current_range_meters":10800,"station_id":"ce4bho12rcd13ifvqh2g","pricing_plan_id":"cebpf4jnsgd1na2vs0mg"},{"bike_id":"9a2d818d-8291-440b-b579-df7acffca84e","system_id":"levelo_inurba_marseille","lat":43.27316,"lon":5.39096,"is_reserved":false,"is_disabled":false,"rental_uris":{"android":"levelo://app?vid=9a2d818d-8291-440b-b579-df7acffca84e","ios":"levelo://app?vid=9a2d818d-8291-440b-b579-df7acffca84e"},"vehicle_type_id":"4","last_reported":1734757713,"current_range_meters":37600,"station_id":"ce4bhgp2rcd13ifvqfe0","pricing_plan_id":"cebpf4jnsgd1na2vs0mg"},{"bike_id":"0dc27d4a-8841-4be6-998d-8a86b6d393f2","system_id":"levelo_inurba_marseille","lat":43.304138,"lon":5.412923,"is_reserved":false,"is_disabled":false,"rental_uris":{"android":"levelo://app?vid=0dc27d4a-8841-4be6-998d-8a86b6d393f2","ios":"levelo://app?vid=0dc27d4a-8841-4be6-998d-8a86b6d393f2"},"vehicle_type_id":"4","last_reported":1734757713,"current_range_meters":38800,"station_id":"ce4bhop2rcd13ifvqh8g","pricing_plan_id":"cebpf4jnsgd1na2vs0mg"},{"bike_id":"bdac6032-cb73-4da5-b699-708529d5b6ae","system_id":"levelo_inurba_marseille","lat":43.29961,"lon":5.41326,"is_reserved":false,"is_disabled":false,"rental_uris":{"android":"levelo://app?vid=bdac6032-cb73-4da5-b699-708529d5b6ae","ios":"levelo://app?vid=bdac6032-cb73-4da5-b699-708529d5b6ae"},"vehicle_type_id":"4","last_reported":1734757713,"current_range_meters":38000,"station_id":"ce4bhp12rcd13ifvqh9g","pricing_plan_id":"cebpf4jnsgd1na2vs0mg"},{"bike_id":"28d82292-98ba-4250-85c9-c5fea471f0be","system_id":"levelo_inurba_marseille","lat":43.29545,"lon":5.42288,"is_reserved":false,"is_disabled":false,"rental_uris":{"android":"levelo://app?vid=28d82292-98ba-4250-85c9-c5fea471f0be","ios":"levelo://app?vid=28d82292-98ba-4250-85c9-c5fea471f0be"},"vehicle_type_id":"4","last_reported":1734757713,"current_range_meters":15200,"station_id":"ce4bhph2rcd13ifvqhdg","pricing_plan_id":"cebpf4jnsgd1na2vs0mg"},{"bike_id":"a552f0f7-f135-4aca-b80e-8e9a86d87428","system_id":"levelo_inurba_marseille","lat":43.34146,"lon":5.40904,"is_reserved":false,"is_disabled":false,"rental_uris":{"android":"levelo://app?vid=a552f0f7-f135-4aca-b80e-8e9a86d87428","ios":"levelo://app?vid=a552f0f7-f135-4aca-b80e-8e9a86d87428"},"vehicle_type_id":"4","last_reported":1734757713,"current_range_meters":28000,"station_id":"ce4bhqh2rcd13ifvqhlg","pricing_plan_id":"cebpf4jnsgd1na2vs0mg"},{"bike_id":"310ff8fa-5cc6-4047-bf9d-779daaea8d73","system_id":"levelo_inurba_marseille","lat":43.284129,"lon":5.349946,"is_reserved":false,"is_disabled":false,"rental_uris":{"android":"levelo://app?vid=310ff8fa-5cc6-4047-bf9d-779daaea8d73","ios":"levelo://app?vid=310ff8fa-5cc6-4047-bf9d-779daaea8d73"},"vehicle_type_id":"4","last_reported":1734757713,"current_range_meters":20000,"station_id":"ce4bhbh2rcd13ifvqepg","pricing_plan_id":"cebpf4jnsgd1na2vs0mg"},{"bike_id":"85f27a5d-9af7-4b09-a20c-f802a8f11d6d","system_id":"levelo_inurba_marseille","lat":43.326562,"lon":5.409815,"is_reserved":false,"is_disabled":false,"rental_uris":{"android":"levelo://app?vid=85f27a5d-9af7-4b09-a20c-f802a8f11d6d","ios":"levelo://app?vid=85f27a5d-9af7-4b09-a20c-f802a8f11d6d"},"vehicle_type_id":"4","last_reported":1734757713,"current_range_meters":38000,"station_id":"ce4bhpp2rcd13ifvqhgg","pricing_plan_id":"cebpf4jnsgd1na2vs0mg"},{"bike_id":"8b30cfb8-ea02-46e2-8211-7cffe61d4b61","system_id":"levelo_inurba_marseille","lat":43.2792,"lon":5.39578,"is_reserved":false,"is_disabled":false,"rental_uris":{"android":"levelo://app?vid=8b30cfb8-ea02-46e2-8211-7cffe61d4b61","ios":"levelo://app?vid=8b30cfb8-ea02-46e2-8211-7cffe61d4b61"},"vehicle_type_id":"4","last_reported":1734757713,"current_range_meters":19200,"station_id":"ce4bhf92rcd13ifvqf40","pricing_plan_id":"cebpf4jnsgd1na2vs0mg"},{"bike_id":"3d2e7b3c-8e7f-4212-90cd-fa103541ba03","system_id":"levelo_inurba_marseille","lat":43.30927,"lon":5.4014,"is_reserved":false,"is_disabled":false,"rental_uris":{"android":"levelo://app?vid=3d2e7b3c-8e7f-4212-90cd-fa103541ba03","ios":"levelo://app?vid=3d2e7b3c-8e7f-4212-90cd-fa103541ba03"},"vehicle_type_id":"4","last_reported":1734757713,"current_range_meters":39200,"station_id":"ce4bgvp2rcd13ifvqct0","pricing_plan_id":"cebpf4jnsgd1na2vs0mg"},{"bike_id":"878e731c-50ce-40b4-9337-ca0ba6d4c8f1","system_id":"levelo_inurba_marseille","lat":43.27551,"lon":5.38423,"is_reserved":false,"is_disabled":false,"rental_uris":{"android":"levelo://app?vid=878e731c-50ce-40b4-9337-ca0ba6d4c8f1","ios":"levelo://app?vid=878e731c-50ce-40b4-9337-ca0ba6d4c8f1"},"vehicle_type_id":"4","last_reported":1734757713,"current_range_meters":38800,"station_id":"ce4bhh92rcd13ifvqfi0","pricing_plan_id":"cebpf4jnsgd1na2vs0mg"},{"bike_id":"7bf00481-e119-414e-90ce-ea5678d48638","system_id":"levelo_inurba_marseille","lat":43.239661,"lon":5.366436,"is_reserved":false,"is_disabled":false,"rental_uris":{"android":"levelo://app?vid=7bf00481-e119-414e-90ce-ea5678d48638","ios":"levelo://app?vid=7bf00481-e119-414e-90ce-ea5678d48638"},"vehicle_type_id":"4","last_reported":1734757713,"current_range_meters":11600,"station_id":"ce4bhi12rcd13ifvqfp0","pricing_plan_id":"cebpf4jnsgd1na2vs0mg"},{"bike_id":"9adbfd80-4a90-423e-918b-efc9aefda7cd","system_id":"levelo_inurba_marseille","lat":43.258669,"lon":5.398944,"is_reserved":false,"is_disabled":false,"rental_uris":{"android":"levelo://app?vid=9adbfd80-4a90-423e-918b-efc9aefda7cd","ios":"levelo://app?vid=9adbfd80-4a90-423e-918b-efc9aefda7cd"},"vehicle_type_id":"4","last_reported":1734757713,"current_range_meters":38400,"station_id":"ce4bhl92rcd13ifvqghg","pricing_plan_id":"cebpf4jnsgd1na2vs0mg"},{"bike_id":"7880673c-eb56-47eb-93e7-0de537d40a6b","system_id":"levelo_inurba_marseille","lat":43.27057,"lon":5.40277,"is_reserved":false,"is_disabled":false,"rental_uris":{"android":"levelo://app?vid=7880673c-eb56-47eb-93e7-0de537d40a6b","ios":"levelo://app?vid=7880673c-eb56-47eb-93e7-0de537d40a6b"},"vehicle_type_id":"4","last_reported":1734757713,"current_range_meters":24800,"station_id":"ce4bhk92rcd13ifvqgc0","pricing_plan_id":"cebpf4jnsgd1na2vs0mg"},{"bike_id":"9b5c443d-e6cf-46ac-8fe3-b898cf6edb1b","system_id":"levelo_inurba_marseille","lat":43.28705,"lon":5.39979,"is_reserved":false,"is_disabled":false,"rental_uris":{"android":"levelo://app?vid=9b5c443d-e6cf-46ac-8fe3-b898cf6edb1b","ios":"levelo://app?vid=9b5c443d-e6cf-46ac-8fe3-b898cf6edb1b"},"vehicle_type_id":"4","last_reported":1734757713,"current_range_meters":33200,"station_id":"ce4bho92rcd13ifvqh3g","pricing_plan_id":"cebpf4jnsgd1na2vs0mg"},{"bike_id":"dd52cea9-6fe3-460c-a4fc-255f18d6f38c","system_id":"levelo_inurba_marseille","lat":43.249978,"lon":5.389234,"is_reserved":false,"is_disabled":false,"rental_uris":{"android":"levelo://app?vid=dd52cea9-6fe3-460c-a4fc-255f18d6f38c","ios":"levelo://app?vid=dd52cea9-6fe3-460c-a4fc-255f18d6f38c"},"vehicle_type_id":"4","last_reported":1734757713,"current_range_meters":27200,"station_id":"ce4bhgp2rcd13ifvqfd0","pricing_plan_id":"cebpf4jnsgd1na2vs0mg"},{"bike_id":"02835011-6781-4b21-8cf5-3bf4e96fb2c9","system_id":"levelo_inurba_marseille","lat":43.32442,"lon":5.3657,"is_reserved":false,"is_disabled":false,"rental_uris":{"android":"levelo://app?vid=02835011-6781-4b21-8cf5-3bf4e96fb2c9","ios":"levelo://app?vid=02835011-6781-4b21-8cf5-3bf4e96fb2c9"},"vehicle_type_id":"4","last_reported":1734757713,"current_range_meters":30000,"station_id":"ce4bhs12rcd13ifvqhvg","pricing_plan_id":"cebpf4jnsgd1na2vs0mg"},{"bike_id":"dbfa572c-48d2-40b7-9e4a-c067a654725a","system_id":"levelo_inurba_marseille","lat":43.29698,"lon":5.36607,"is_reserved":false,"is_disabled":false,"rental_uris":{"android":"levelo://app?vid=dbfa572c-48d2-40b7-9e4a-c067a654725a","ios":"levelo://app?vid=dbfa572c-48d2-40b7-9e4a-c067a654725a"},"vehicle_type_id":"4","last_reported":1734757713,"current_range_meters":38800,"station_id":"ce4bgn12rcd13ifvqbt0","pricing_plan_id":"cebpf4jnsgd1na2vs0mg"},{"bike_id":"7017237f-7f5b-463f-af32-26fae3d6e1ba","system_id":"levelo_inurba_marseille","lat":43.31118,"lon":5.37766,"is_reserved":false,"is_disabled":false,"rental_uris":{"android":"levelo://app?vid=7017237f-7f5b-463f-af32-26fae3d6e1ba","ios":"levelo://app?vid=7017237f-7f5b-463f-af32-26fae3d6e1ba"},"vehicle_type_id":"4","last_reported":1734757713,"current_range_meters":35600,"station_id":"ce4bgt92rcd13ifvqcg0","pricing_plan_id":"cebpf4jnsgd1na2vs0mg"},{"bike_id":"f09b1015-cbbb-4fde-bfaa-ba347afe5a0d","system_id":"levelo_inurba_marseille","lat":43.306044,"lon":5.372138,"is_reserved":false,"is_disabled":false,"rental_uris":{"android":"levelo://app?vid=f09b1015-cbbb-4fde-bfaa-ba347afe5a0d","ios":"levelo://app?vid=f09b1015-cbbb-4fde-bfaa-ba347afe5a0d"},"vehicle_type_id":"4","last_reported":1734757713,"current_range_meters":30000,"station_id":"ce4bgqh2rcd13ifvqc4g","pricing_plan_id":"cebpf4jnsgd1na2vs0mg"},{"bike_id":"0330259f-0861-48f5-9a21-7a991082f91c","system_id":"levelo_inurba_marseille","lat":43.252562,"lon":5.381974,"is_reserved":false,"is_disabled":false,"rental_uris":{"android":"levelo://app?vid=0330259f-0861-48f5-9a21-7a991082f91c","ios":"levelo://app?vid=0330259f-0861-48f5-9a21-7a991082f91c"},"vehicle_type_id":"4","last_reported":1734757713,"current_range_meters":36000,"station_id":"","pricing_plan_id":"cebpf4jnsgd1na2vs0mg"},{"bike_id":"fbf3da40-6db3-4b0a-ba01-e3b05174c03a","system_id":"levelo_inurba_marseille","lat":43.282649,"lon":5.350681,"is_reserved":false,"is_disabled":false,"rental_uris":{"android":"levelo://app?vid=fbf3da40-6db3-4b0a-ba01-e3b05174c03a","ios":"levelo://app?vid=fbf3da40-6db3-4b0a-ba01-e3b05174c03a"},"vehicle_type_id":"4","last_reported":1734757713,"current_range_meters":38800,"station_id":"ce4bhbp2rcd13ifvqerg","pricing_plan_id":"cebpf4jnsgd1na2vs0mg"},{"bike_id":"d7b4ef74-65a7-4cb6-80d6-27a4287c4da5","system_id":"levelo_inurba_marseille","lat":43.23949,"lon":5.36638,"is_reserved":false,"is_disabled":false,"rental_uris":{"android":"levelo://app?vid=d7b4ef74-65a7-4cb6-80d6-27a4287c4da5","ios":"levelo://app?vid=d7b4ef74-65a7-4cb6-80d6-27a4287c4da5"},"vehicle_type_id":"4","last_reported":1734757713,"current_range_meters":37600,"station_id":"ce4bhi12rcd13ifvqfp0","pricing_plan_id":"cebpf4jnsgd1na2vs0mg"},{"bike_id":"1f265f2c-c3ce-4530-9858-4eca3d9e00e1","system_id":"levelo_inurba_marseille","lat":43.23176,"lon":5.39961,"is_reserved":false,"is_disabled":false,"rental_uris":{"android":"levelo://app?vid=1f265f2c-c3ce-4530-9858-4eca3d9e00e1","ios":"levelo://app?vid=1f265f2c-c3ce-4530-9858-4eca3d9e00e1"},"vehicle_type_id":"4","last_reported":1734757713,"current_range_meters":12000,"station_id":"ce4bhn12rcd13ifvqgqg","pricing_plan_id":"cebpf4jnsgd1na2vs0mg"},{"bike_id":"3fae049f-3926-4e9c-82ca-cd12b762f7e3","system_id":"levelo_inurba_marseille","lat":43.297865,"lon":5.370985,"is_reserved":false,"is_disabled":false,"rental_uris":{"android":"levelo://app?vid=3fae049f-3926-4e9c-82ca-cd12b762f7e3","ios":"levelo://app?vid=3fae049f-3926-4e9c-82ca-cd12b762f7e3"},"vehicle_type_id":"4","last_reported":1734757713,"current_range_meters":38800,"station_id":"ce4bgop2rcd13ifvqc1g","pricing_plan_id":"cebpf4jnsgd1na2vs0mg"},{"bike_id":"bbbc0149-89d1-4855-b5da-9a78ea4780d5","system_id":"levelo_inurba_marseille","lat":43.29616,"lon":5.37721,"is_reserved":false,"is_disabled":false,"rental_uris":{"android":"levelo://app?vid=bbbc0149-89d1-4855-b5da-9a78ea4780d5","ios":"levelo://app?vid=bbbc0149-89d1-4855-b5da-9a78ea4780d5"},"vehicle_type_id":"4","last_reported":1734757713,"current_range_meters":38400,"station_id":"ce4bgi92rcd13ifvqb90","pricing_plan_id":"cebpf4jnsgd1na2vs0mg"},{"bike_id":"7fd1c797-e3d8-4dec-be0f-7347244fa071","system_id":"levelo_inurba_marseille","lat":43.31721,"lon":5.42411,"is_reserved":false,"is_disabled":false,"rental_uris":{"android":"levelo://app?vid=7fd1c797-e3d8-4dec-be0f-7347244fa071","ios":"levelo://app?vid=7fd1c797-e3d8-4dec-be0f-7347244fa071"},"vehicle_type_id":"4","last_reported":1734757713,"current_range_meters":14800,"station_id":"ce4bhp92rcd13ifvqhbg","pricing_plan_id":"cebpf4jnsgd1na2vs0mg"},{"bike_id":"13e08978-592e-46f1-914a-cab0ea6f756d","system_id":"levelo_inurba_marseille","lat":43.29758,"lon":5.40919,"is_reserved":false,"is_disabled":true,"rental_uris":{"android":"levelo://app?vid=13e08978-592e-46f1-914a-cab0ea6f756d","ios":"levelo://app?vid=13e08978-592e-46f1-914a-cab0ea6f756d"},"vehicle_type_id":"4","last_reported":1734757713,"current_range_meters":1200,"station_id":"","pricing_plan_id":"cebpf4jnsgd1na2vs0mg"},{"bike_id":"6840d155-4ad1-41f0-8aba-5b39be5e42db","system_id":"levelo_inurba_marseille","lat":43.34146,"lon":5.40896,"is_reserved":false,"is_disabled":true,"rental_uris":{"android":"levelo://app?vid=6840d155-4ad1-41f0-8aba-5b39be5e42db","ios":"levelo://app?vid=6840d155-4ad1-41f0-8aba-5b39be5e42db"},"vehicle_type_id":"4","last_reported":1734757713,"current_range_meters":27600,"station_id":"ce4bhqh2rcd13ifvqhlg","pricing_plan_id":"cebpf4jnsgd1na2vs0mg"},{"bike_id":"0d48f3b0-1fa0-4cfc-93b0-41dadf3dff3a","system_id":"levelo_inurba_marseille","lat":43.24812,"lon":5.37454,"is_reserved":false,"is_disabled":false,"rental_uris":{"android":"levelo://app?vid=0d48f3b0-1fa0-4cfc-93b0-41dadf3dff3a","ios":"levelo://app?vid=0d48f3b0-1fa0-4cfc-93b0-41dadf3dff3a"},"vehicle_type_id":"4","last_reported":1734757713,"current_range_meters":26800,"station_id":"ce4bhgh2rcd13ifvqfb0","pricing_plan_id":"cebpf4jnsgd1na2vs0mg"},{"bike_id":"f0e17797-aec2-44b7-9818-f9146787ce8c","system_id":"levelo_inurba_marseille","lat":43.2841,"lon":5.34998,"is_reserved":false,"is_disabled":false,"rental_uris":{"android":"levelo://app?vid=f0e17797-aec2-44b7-9818-f9146787ce8c","ios":"levelo://app?vid=f0e17797-aec2-44b7-9818-f9146787ce8c"},"vehicle_type_id":"4","last_reported":1734757713,"current_range_meters":4800,"station_id":"ce4bhbh2rcd13ifvqepg","pricing_plan_id":"cebpf4jnsgd1na2vs0mg"},{"bike_id":"e724f4e5-0922-4e36-91f4-8a4c9d514ff5","system_id":"levelo_inurba_marseille","lat":43.29849,"lon":5.36271,"is_reserved":false,"is_disabled":false,"rental_uris":{"android":"levelo://app?vid=e724f4e5-0922-4e36-91f4-8a4c9d514ff5","ios":"levelo://app?vid=e724f4e5-0922-4e36-91f4-8a4c9d514ff5"},"vehicle_type_id":"4","last_reported":1734757713,"current_range_meters":38000,"station_id":"ce4bgpp2rcd13ifvqc3g","pricing_plan_id":"cebpf4jnsgd1na2vs0mg"},{"bike_id":"fe187b0f-abff-4fa7-8a20-0462e6c79208","system_id":"levelo_inurba_marseille","lat":43.24393,"lon":5.37065,"is_reserved":false,"is_disabled":false,"rental_uris":{"android":"levelo://app?vid=fe187b0f-abff-4fa7-8a20-0462e6c79208","ios":"levelo://app?vid=fe187b0f-abff-4fa7-8a20-0462e6c79208"},"vehicle_type_id":"4","last_reported":1734757713,"current_range_meters":22800,"station_id":"ce4bhhh2rcd13ifvqfk0","pricing_plan_id":"cebpf4jnsgd1na2vs0mg"},{"bike_id":"25370f69-ab0e-41cb-a92d-f55b78900f4b","system_id":"levelo_inurba_marseille","lat":43.281071,"lon":5.378413,"is_reserved":false,"is_disabled":false,"rental_uris":{"android":"levelo://app?vid=25370f69-ab0e-41cb-a92d-f55b78900f4b","ios":"levelo://app?vid=25370f69-ab0e-41cb-a92d-f55b78900f4b"},"vehicle_type_id":"4","last_reported":1734757713,"current_range_meters":38800,"station_id":"ce4bha12rcd13ifvqee0","pricing_plan_id":"cebpf4jnsgd1na2vs0mg"},{"bike_id":"d98f0b8a-1ef4-43b4-85a1-12b00b5f4de1","system_id":"levelo_inurba_marseille","lat":43.28411,"lon":5.34991,"is_reserved":false,"is_disabled":false,"rental_uris":{"android":"levelo://app?vid=d98f0b8a-1ef4-43b4-85a1-12b00b5f4de1","ios":"levelo://app?vid=d98f0b8a-1ef4-43b4-85a1-12b00b5f4de1"},"vehicle_type_id":"4","last_reported":1734757713,"current_range_meters":10000,"station_id":"ce4bhbh2rcd13ifvqepg","pricing_plan_id":"cebpf4jnsgd1na2vs0mg"},{"bike_id":"cbd8c37e-4c23-4764-beb6-a16227464b84","system_id":"levelo_inurba_marseille","lat":43.26818,"lon":5.40269,"is_reserved":false,"is_disabled":false,"rental_uris":{"android":"levelo://app?vid=cbd8c37e-4c23-4764-beb6-a16227464b84","ios":"levelo://app?vid=cbd8c37e-4c23-4764-beb6-a16227464b84"},"vehicle_type_id":"4","last_reported":1734757713,"current_range_meters":36800,"station_id":"ce501612rcd8frsf0b60","pricing_plan_id":"cebpf4jnsgd1na2vs0mg"},{"bike_id":"ecf2b6fb-aff9-4c2e-bfed-71698cff47d7","system_id":"levelo_inurba_marseille","lat":43.28619,"lon":5.35102,"is_reserved":false,"is_disabled":false,"rental_uris":{"android":"levelo://app?vid=ecf2b6fb-aff9-4c2e-bfed-71698cff47d7","ios":"levelo://app?vid=ecf2b6fb-aff9-4c2e-bfed-71698cff47d7"},"vehicle_type_id":"4","last_reported":1734757713,"current_range_meters":35600,"station_id":"ce4bhch2rcd13ifvqeug","pricing_plan_id":"cebpf4jnsgd1na2vs0mg"},{"bike_id":"0e2bb598-cdc5-410c-840d-9a9428cfc3b4","system_id":"levelo_inurba_marseille","lat":43.28615,"lon":5.3511,"is_reserved":false,"is_disabled":false,"rental_uris":{"android":"levelo://app?vid=0e2bb598-cdc5-410c-840d-9a9428cfc3b4","ios":"levelo://app?vid=0e2bb598-cdc5-410c-840d-9a9428cfc3b4"},"vehicle_type_id":"4","last_reported":1734757713,"current_range_meters":29600,"station_id":"ce4bhch2rcd13ifvqeug","pricing_plan_id":"cebpf4jnsgd1na2vs0mg"},{"bike_id":"7c3c128c-088c-4a47-84ca-9fbec4c058a1","system_id":"levelo_inurba_marseille","lat":43.310716,"lon":5.38356,"is_reserved":false,"is_disabled":false,"rental_uris":{"android":"levelo://app?vid=7c3c128c-088c-4a47-84ca-9fbec4c058a1","ios":"levelo://app?vid=7c3c128c-088c-4a47-84ca-9fbec4c058a1"},"vehicle_type_id":"4","last_reported":1734757713,"current_range_meters":29600,"station_id":"ce4bgv92rcd13ifvqcr0","pricing_plan_id":"cebpf4jnsgd1na2vs0mg"},{"bike_id":"59ca2ebc-7c6f-439a-a11b-02933f88209e","system_id":"levelo_inurba_marseille","lat":43.27071,"lon":5.42282,"is_reserved":false,"is_disabled":false,"rental_uris":{"android":"levelo://app?vid=59ca2ebc-7c6f-439a-a11b-02933f88209e","ios":"levelo://app?vid=59ca2ebc-7c6f-439a-a11b-02933f88209e"},"vehicle_type_id":"4","last_reported":1734757713,"current_range_meters":38400,"station_id":"ce4bhk92rcd13ifvqgb0","pricing_plan_id":"cebpf4jnsgd1na2vs0mg"},{"bike_id":"c36f9794-db64-4a07-823f-b590f113a19f","system_id":"levelo_inurba_marseille","lat":43.279428,"lon":5.410416,"is_reserved":false,"is_disabled":false,"rental_uris":{"android":"levelo://app?vid=c36f9794-db64-4a07-823f-b590f113a19f","ios":"levelo://app?vid=c36f9794-db64-4a07-823f-b590f113a19f"},"vehicle_type_id":"4","last_reported":1734757713,"current_range_meters":8000,"station_id":"ce4bhnp2rcd13ifvqh0g","pricing_plan_id":"cebpf4jnsgd1na2vs0mg"},{"bike_id":"a05e82d5-edf0-4bab-8347-bee3a08758db","system_id":"levelo_inurba_marseille","lat":43.30313,"lon":5.4043,"is_reserved":false,"is_disabled":false,"rental_uris":{"android":"levelo://app?vid=a05e82d5-edf0-4bab-8347-bee3a08758db","ios":"levelo://app?vid=a05e82d5-edf0-4bab-8347-bee3a08758db"},"vehicle_type_id":"4","last_reported":1734757713,"current_range_meters":37600,"station_id":"ce4bh012rcd13ifvqd10","pricing_plan_id":"cebpf4jnsgd1na2vs0mg"},{"bike_id":"18b3f870-bfe7-4396-81e5-34ed6ada0d75","system_id":"levelo_inurba_marseille","lat":43.30157,"lon":5.38082,"is_reserved":false,"is_disabled":false,"rental_uris":{"android":"levelo://app?vid=18b3f870-bfe7-4396-81e5-34ed6ada0d75","ios":"levelo://app?vid=18b3f870-bfe7-4396-81e5-34ed6ada0d75"},"vehicle_type_id":"4","last_reported":1734757713,"current_range_meters":38800,"station_id":"ce4bgjp2rcd13ifvqbh0","pricing_plan_id":"cebpf4jnsgd1na2vs0mg"},{"bike_id":"75bcc3b1-3091-4198-922a-90b0ea0094c0","system_id":"levelo_inurba_marseille","lat":43.25582,"lon":5.38236,"is_reserved":false,"is_disabled":false,"rental_uris":{"android":"levelo://app?vid=75bcc3b1-3091-4198-922a-90b0ea0094c0","ios":"levelo://app?vid=75bcc3b1-3091-4198-922a-90b0ea0094c0"},"vehicle_type_id":"4","last_reported":1734757713,"current_range_meters":38800,"station_id":"ce4bhih2rcd13ifvqfs0","pricing_plan_id":"cebpf4jnsgd1na2vs0mg"},{"bike_id":"25dffdc4-12e6-479d-a1cf-aedf5dd4dcc0","system_id":"levelo_inurba_marseille","lat":43.29035,"lon":5.39967,"is_reserved":false,"is_disabled":false,"rental_uris":{"android":"levelo://app?vid=25dffdc4-12e6-479d-a1cf-aedf5dd4dcc0","ios":"levelo://app?vid=25dffdc4-12e6-479d-a1cf-aedf5dd4dcc0"},"vehicle_type_id":"4","last_reported":1734757713,"current_range_meters":38800,"station_id":"ce4bh392rcd13ifvqdm0","pricing_plan_id":"cebpf4jnsgd1na2vs0mg"},{"bike_id":"7d0dceaf-10a5-4c28-b6ae-56be7eaf2718","system_id":"levelo_inurba_marseille","lat":43.305325,"lon":5.38431,"is_reserved":false,"is_disabled":false,"rental_uris":{"android":"levelo://app?vid=7d0dceaf-10a5-4c28-b6ae-56be7eaf2718","ios":"levelo://app?vid=7d0dceaf-10a5-4c28-b6ae-56be7eaf2718"},"vehicle_type_id":"4","last_reported":1734757713,"current_range_meters":23200,"station_id":"ce4bgg92rcd13ifvqb30","pricing_plan_id":"cebpf4jnsgd1na2vs0mg"},{"bike_id":"050c3878-40f7-4736-b04e-eb1dd4174ffa","system_id":"levelo_inurba_marseille","lat":43.231889,"lon":5.399811,"is_reserved":false,"is_disabled":false,"rental_uris":{"android":"levelo://app?vid=050c3878-40f7-4736-b04e-eb1dd4174ffa","ios":"levelo://app?vid=050c3878-40f7-4736-b04e-eb1dd4174ffa"},"vehicle_type_id":"4","last_reported":1734757713,"current_range_meters":38800,"station_id":"ce4bhn12rcd13ifvqgqg","pricing_plan_id":"cebpf4jnsgd1na2vs0mg"},{"bike_id":"29bcfbc2-15c3-4d12-902c-a9cc440147bd","system_id":"levelo_inurba_marseille","lat":43.314864,"lon":5.372788,"is_reserved":false,"is_disabled":false,"rental_uris":{"android":"levelo://app?vid=29bcfbc2-15c3-4d12-902c-a9cc440147bd","ios":"levelo://app?vid=29bcfbc2-15c3-4d12-902c-a9cc440147bd"},"vehicle_type_id":"4","last_reported":1734757713,"current_range_meters":28800,"station_id":"ce4bgt12rcd13ifvqcd0","pricing_plan_id":"cebpf4jnsgd1na2vs0mg"},{"bike_id":"ceca975b-b342-4918-8353-e4cd51aebfcc","system_id":"levelo_inurba_marseille","lat":43.2864,"lon":5.35099,"is_reserved":false,"is_disabled":false,"rental_uris":{"android":"levelo://app?vid=ceca975b-b342-4918-8353-e4cd51aebfcc","ios":"levelo://app?vid=ceca975b-b342-4918-8353-e4cd51aebfcc"},"vehicle_type_id":"4","last_reported":1734757713,"current_range_meters":7200,"station_id":"ce4bhch2rcd13ifvqeug","pricing_plan_id":"cebpf4jnsgd1na2vs0mg"},{"bike_id":"03286736-5394-4129-9c27-84c710038dd7","system_id":"levelo_inurba_marseille","lat":43.30923,"lon":5.40159,"is_reserved":false,"is_disabled":false,"rental_uris":{"android":"levelo://app?vid=03286736-5394-4129-9c27-84c710038dd7","ios":"levelo://app?vid=03286736-5394-4129-9c27-84c710038dd7"},"vehicle_type_id":"4","last_reported":1734757713,"current_range_meters":18000,"station_id":"ce4bgvp2rcd13ifvqct0","pricing_plan_id":"cebpf4jnsgd1na2vs0mg"},{"bike_id":"f8c9a0c3-0667-4276-9742-81aa6c9f0476","system_id":"levelo_inurba_marseille","lat":43.30143,"lon":5.37415,"is_reserved":false,"is_disabled":false,"rental_uris":{"android":"levelo://app?vid=f8c9a0c3-0667-4276-9742-81aa6c9f0476","ios":"levelo://app?vid=f8c9a0c3-0667-4276-9742-81aa6c9f0476"},"vehicle_type_id":"4","last_reported":1734757713,"current_range_meters":15200,"station_id":"ce4bgs92rcd13ifvqcc0","pricing_plan_id":"cebpf4jnsgd1na2vs0mg"},{"bike_id":"2fbac725-3191-4869-aa19-e8afeddd72f3","system_id":"levelo_inurba_marseille","lat":43.23176,"lon":5.39983,"is_reserved":false,"is_disabled":false,"rental_uris":{"android":"levelo://app?vid=2fbac725-3191-4869-aa19-e8afeddd72f3","ios":"levelo://app?vid=2fbac725-3191-4869-aa19-e8afeddd72f3"},"vehicle_type_id":"4","last_reported":1734757713,"current_range_meters":18800,"station_id":"ce4bhn12rcd13ifvqgqg","pricing_plan_id":"cebpf4jnsgd1na2vs0mg"},{"bike_id":"10fcee42-d221-4289-ab07-0d2d2329ab09","system_id":"levelo_inurba_marseille","lat":43.31326,"lon":5.39712,"is_reserved":false,"is_disabled":false,"rental_uris":{"android":"levelo://app?vid=10fcee42-d221-4289-ab07-0d2d2329ab09","ios":"levelo://app?vid=10fcee42-d221-4289-ab07-0d2d2329ab09"},"vehicle_type_id":"4","last_reported":1734757713,"current_range_meters":38800,"station_id":"ce4bgvp2rcd13ifvqcu0","pricing_plan_id":"cebpf4jnsgd1na2vs0mg"},{"bike_id":"e417a272-d33a-4d16-95e4-0075717874ff","system_id":"levelo_inurba_marseille","lat":43.3189,"lon":5.4073,"is_reserved":false,"is_disabled":false,"rental_uris":{"android":"levelo://app?vid=e417a272-d33a-4d16-95e4-0075717874ff","ios":"levelo://app?vid=e417a272-d33a-4d16-95e4-0075717874ff"},"vehicle_type_id":"4","last_reported":1734757713,"current_range_meters":37600,"station_id":"ce4bhq12rcd13ifvqhig","pricing_plan_id":"cebpf4jnsgd1na2vs0mg"},{"bike_id":"2d33d852-2454-42ae-b783-c4d3c265a19e","system_id":"levelo_inurba_marseille","lat":43.311196,"lon":5.377611,"is_reserved":false,"is_disabled":false,"rental_uris":{"android":"levelo://app?vid=2d33d852-2454-42ae-b783-c4d3c265a19e","ios":"levelo://app?vid=2d33d852-2454-42ae-b783-c4d3c265a19e"},"vehicle_type_id":"4","last_reported":1734757713,"current_range_meters":36400,"station_id":"ce4bgt92rcd13ifvqcg0","pricing_plan_id":"cebpf4jnsgd1na2vs0mg"},{"bike_id":"0980de7c-a667-49ae-a8d0-d19b45101443","system_id":"levelo_inurba_marseille","lat":43.24819,"lon":5.37441,"is_reserved":false,"is_disabled":false,"rental_uris":{"android":"levelo://app?vid=0980de7c-a667-49ae-a8d0-d19b45101443","ios":"levelo://app?vid=0980de7c-a667-49ae-a8d0-d19b45101443"},"vehicle_type_id":"4","last_reported":1734757713,"current_range_meters":27200,"station_id":"ce4bhgh2rcd13ifvqfb0","pricing_plan_id":"cebpf4jnsgd1na2vs0mg"},{"bike_id":"08babfce-8d02-4ece-afc6-ebc8b0bc7604","system_id":"levelo_inurba_marseille","lat":43.29038,"lon":5.35928,"is_reserved":false,"is_disabled":false,"rental_uris":{"android":"levelo://app?vid=08babfce-8d02-4ece-afc6-ebc8b0bc7604","ios":"levelo://app?vid=08babfce-8d02-4ece-afc6-ebc8b0bc7604"},"vehicle_type_id":"4","last_reported":1734757713,"current_range_meters":27600,"station_id":"ce4bha92rcd13ifvqeg0","pricing_plan_id":"cebpf4jnsgd1na2vs0mg"},{"bike_id":"1337798b-3909-4d2e-9c82-73cad4e2fa59","system_id":"levelo_inurba_marseille","lat":43.29191,"lon":5.35807,"is_reserved":false,"is_disabled":false,"rental_uris":{"android":"levelo://app?vid=1337798b-3909-4d2e-9c82-73cad4e2fa59","ios":"levelo://app?vid=1337798b-3909-4d2e-9c82-73cad4e2fa59"},"vehicle_type_id":"4","last_reported":1734757713,"current_range_meters":10800,"station_id":"ce4bhb12rcd13ifvqel0","pricing_plan_id":"cebpf4jnsgd1na2vs0mg"},{"bike_id":"6940a9be-7c5c-4d11-a212-1f7afbab3d77","system_id":"levelo_inurba_marseille","lat":43.24786,"lon":5.41897,"is_reserved":false,"is_disabled":false,"rental_uris":{"android":"levelo://app?vid=6940a9be-7c5c-4d11-a212-1f7afbab3d77","ios":"levelo://app?vid=6940a9be-7c5c-4d11-a212-1f7afbab3d77"},"vehicle_type_id":"4","last_reported":1734757713,"current_range_meters":6000,"station_id":"","pricing_plan_id":"cebpf4jnsgd1na2vs0mg"},{"bike_id":"ae0d433e-0a1e-4605-b6d4-7ce034ac0e57","system_id":"levelo_inurba_marseille","lat":43.30154,"lon":5.38086,"is_reserved":false,"is_disabled":false,"rental_uris":{"android":"levelo://app?vid=ae0d433e-0a1e-4605-b6d4-7ce034ac0e57","ios":"levelo://app?vid=ae0d433e-0a1e-4605-b6d4-7ce034ac0e57"},"vehicle_type_id":"4","last_reported":1734757713,"current_range_meters":36000,"station_id":"ce4bgjp2rcd13ifvqbh0","pricing_plan_id":"cebpf4jnsgd1na2vs0mg"},{"bike_id":"54d44a46-a2d6-4450-922f-4ed5f2190865","system_id":"levelo_inurba_marseille","lat":43.31324,"lon":5.39697,"is_reserved":false,"is_disabled":false,"rental_uris":{"android":"levelo://app?vid=54d44a46-a2d6-4450-922f-4ed5f2190865","ios":"levelo://app?vid=54d44a46-a2d6-4450-922f-4ed5f2190865"},"vehicle_type_id":"4","last_reported":1734757713,"current_range_meters":29600,"station_id":"ce4bgvp2rcd13ifvqcu0","pricing_plan_id":"cebpf4jnsgd1na2vs0mg"},{"bike_id":"0bf8c29b-ab82-4f95-b838-6e86232700fe","system_id":"levelo_inurba_marseille","lat":43.308016,"lon":5.381684,"is_reserved":false,"is_disabled":false,"rental_uris":{"android":"levelo://app?vid=0bf8c29b-ab82-4f95-b838-6e86232700fe","ios":"levelo://app?vid=0bf8c29b-ab82-4f95-b838-6e86232700fe"},"vehicle_type_id":"4","last_reported":1734757713,"current_range_meters":38800,"station_id":"ce4bgt12rcd13ifvqce0","pricing_plan_id":"cebpf4jnsgd1na2vs0mg"},{"bike_id":"782bcbf2-b7de-4b04-bebc-aaa0329dd90c","system_id":"levelo_inurba_marseille","lat":43.23191,"lon":5.35554,"is_reserved":false,"is_disabled":false,"rental_uris":{"android":"levelo://app?vid=782bcbf2-b7de-4b04-bebc-aaa0329dd90c","ios":"levelo://app?vid=782bcbf2-b7de-4b04-bebc-aaa0329dd90c"},"vehicle_type_id":"4","last_reported":1734757713,"current_range_meters":33200,"station_id":"ce4bhu92rcd13ifvqi70","pricing_plan_id":"cebpf4jnsgd1na2vs0mg"},{"bike_id":"48a0485c-a9ae-47ac-a574-5ebc9f138f64","system_id":"levelo_inurba_marseille","lat":43.29721,"lon":5.37684,"is_reserved":false,"is_disabled":true,"rental_uris":{"android":"levelo://app?vid=48a0485c-a9ae-47ac-a574-5ebc9f138f64","ios":"levelo://app?vid=48a0485c-a9ae-47ac-a574-5ebc9f138f64"},"vehicle_type_id":"4","last_reported":1734757713,"current_range_meters":24000,"station_id":"ce4bgkh2rcd13ifvqbl0","pricing_plan_id":"cebpf4jnsgd1na2vs0mg"},{"bike_id":"0e2f42e5-6dae-40b9-b533-ed1d3f489ab0","system_id":"levelo_inurba_marseille","lat":43.24179,"lon":5.39728,"is_reserved":false,"is_disabled":false,"rental_uris":{"android":"levelo://app?vid=0e2f42e5-6dae-40b9-b533-ed1d3f489ab0","ios":"levelo://app?vid=0e2f42e5-6dae-40b9-b533-ed1d3f489ab0"},"vehicle_type_id":"4","last_reported":1734757713,"current_range_meters":38800,"station_id":"ce4bhn12rcd13ifvqgpg","pricing_plan_id":"cebpf4jnsgd1na2vs0mg"},{"bike_id":"4a2be021-2f35-4eb8-83ed-9e2dc754db9b","system_id":"levelo_inurba_marseille","lat":43.3172,"lon":5.42401,"is_reserved":false,"is_disabled":false,"rental_uris":{"android":"levelo://app?vid=4a2be021-2f35-4eb8-83ed-9e2dc754db9b","ios":"levelo://app?vid=4a2be021-2f35-4eb8-83ed-9e2dc754db9b"},"vehicle_type_id":"4","last_reported":1734757713,"current_range_meters":38800,"station_id":"ce4bhp92rcd13ifvqhbg","pricing_plan_id":"cebpf4jnsgd1na2vs0mg"},{"bike_id":"28359293-f545-4fe0-abe9-968f18af110f","system_id":"levelo_inurba_marseille","lat":43.30324,"lon":5.40434,"is_reserved":false,"is_disabled":false,"rental_uris":{"android":"levelo://app?vid=28359293-f545-4fe0-abe9-968f18af110f","ios":"levelo://app?vid=28359293-f545-4fe0-abe9-968f18af110f"},"vehicle_type_id":"4","last_reported":1734757713,"current_range_meters":8000,"station_id":"ce4bh012rcd13ifvqd10","pricing_plan_id":"cebpf4jnsgd1na2vs0mg"},{"bike_id":"2e59fed5-bb70-4db4-a892-ef646d43a580","system_id":"levelo_inurba_marseille","lat":43.30802,"lon":5.3816,"is_reserved":false,"is_disabled":false,"rental_uris":{"android":"levelo://app?vid=2e59fed5-bb70-4db4-a892-ef646d43a580","ios":"levelo://app?vid=2e59fed5-bb70-4db4-a892-ef646d43a580"},"vehicle_type_id":"4","last_reported":1734757713,"current_range_meters":22800,"station_id":"ce4bgt12rcd13ifvqce0","pricing_plan_id":"cebpf4jnsgd1na2vs0mg"},{"bike_id":"c0367093-a612-4183-a348-a08d96ce7e39","system_id":"levelo_inurba_marseille","lat":43.24078,"lon":5.37751,"is_reserved":false,"is_disabled":false,"rental_uris":{"android":"levelo://app?vid=c0367093-a612-4183-a348-a08d96ce7e39","ios":"levelo://app?vid=c0367093-a612-4183-a348-a08d96ce7e39"},"vehicle_type_id":"4","last_reported":1734757713,"current_range_meters":35600,"station_id":"ce4bhnp2rcd13ifvqgvg","pricing_plan_id":"cebpf4jnsgd1na2vs0mg"},{"bike_id":"e9e5d726-62e1-4b6b-a23c-0a4951c24076","system_id":"levelo_inurba_marseille","lat":43.24075,"lon":5.39666,"is_reserved":false,"is_disabled":true,"rental_uris":{"android":"levelo://app?vid=e9e5d726-62e1-4b6b-a23c-0a4951c24076","ios":"levelo://app?vid=e9e5d726-62e1-4b6b-a23c-0a4951c24076"},"vehicle_type_id":"4","last_reported":1734757713,"current_range_meters":0,"station_id":"","pricing_plan_id":"cebpf4jnsgd1na2vs0mg"},{"bike_id":"d532bafb-9e8b-4cf7-90e8-b135eb98500d","system_id":"levelo_inurba_marseille","lat":43.30539,"lon":5.36696,"is_reserved":false,"is_disabled":false,"rental_uris":{"android":"levelo://app?vid=d532bafb-9e8b-4cf7-90e8-b135eb98500d","ios":"levelo://app?vid=d532bafb-9e8b-4cf7-90e8-b135eb98500d"},"vehicle_type_id":"4","last_reported":1734757713,"current_range_meters":36400,"station_id":"ce4bgrp2rcd13ifvqc9g","pricing_plan_id":"cebpf4jnsgd1na2vs0mg"},{"bike_id":"59820848-2d73-4563-b25b-01c82220ccac","system_id":"levelo_inurba_marseille","lat":43.25113,"lon":5.4032,"is_reserved":false,"is_disabled":false,"rental_uris":{"android":"levelo://app?vid=59820848-2d73-4563-b25b-01c82220ccac","ios":"levelo://app?vid=59820848-2d73-4563-b25b-01c82220ccac"},"vehicle_type_id":"4","last_reported":1734757713,"current_range_meters":20800,"station_id":"ce4bhlh2rcd13ifvqgig","pricing_plan_id":"cebpf4jnsgd1na2vs0mg"},{"bike_id":"d5834700-17bf-49b7-be3d-a1ac2bdb58ef","system_id":"levelo_inurba_marseille","lat":43.28675,"lon":5.38675,"is_reserved":false,"is_disabled":false,"rental_uris":{"android":"levelo://app?vid=d5834700-17bf-49b7-be3d-a1ac2bdb58ef","ios":"levelo://app?vid=d5834700-17bf-49b7-be3d-a1ac2bdb58ef"},"vehicle_type_id":"4","last_reported":1734757713,"current_range_meters":38000,"station_id":"ce4bh492rcd13ifvqdug","pricing_plan_id":"cebpf4jnsgd1na2vs0mg"},{"bike_id":"36e1421a-526a-45b4-9352-d10c15fd9574","system_id":"levelo_inurba_marseille","lat":43.30799,"lon":5.43526,"is_reserved":false,"is_disabled":false,"rental_uris":{"android":"levelo://app?vid=36e1421a-526a-45b4-9352-d10c15fd9574","ios":"levelo://app?vid=36e1421a-526a-45b4-9352-d10c15fd9574"},"vehicle_type_id":"4","last_reported":1734757713,"current_range_meters":22400,"station_id":"ce4bhph2rcd13ifvqheg","pricing_plan_id":"cebpf4jnsgd1na2vs0mg"},{"bike_id":"e1e55b34-0cc8-42c6-b9d9-a442d6ab0cd4","system_id":"levelo_inurba_marseille","lat":43.23182,"lon":5.39997,"is_reserved":false,"is_disabled":false,"rental_uris":{"android":"levelo://app?vid=e1e55b34-0cc8-42c6-b9d9-a442d6ab0cd4","ios":"levelo://app?vid=e1e55b34-0cc8-42c6-b9d9-a442d6ab0cd4"},"vehicle_type_id":"4","last_reported":1734757713,"current_range_meters":27600,"station_id":"ce4bhn12rcd13ifvqgqg","pricing_plan_id":"cebpf4jnsgd1na2vs0mg"},{"bike_id":"7dfe0b4f-686f-4b42-9a2a-a22fb46e027a","system_id":"levelo_inurba_marseille","lat":43.30923,"lon":5.40154,"is_reserved":false,"is_disabled":false,"rental_uris":{"android":"levelo://app?vid=7dfe0b4f-686f-4b42-9a2a-a22fb46e027a","ios":"levelo://app?vid=7dfe0b4f-686f-4b42-9a2a-a22fb46e027a"},"vehicle_type_id":"4","last_reported":1734757713,"current_range_meters":34800,"station_id":"ce4bgvp2rcd13ifvqct0","pricing_plan_id":"cebpf4jnsgd1na2vs0mg"},{"bike_id":"b67e6347-c993-4186-b85c-1f54c9e75564","system_id":"levelo_inurba_marseille","lat":43.27577,"lon":5.3842,"is_reserved":false,"is_disabled":false,"rental_uris":{"android":"levelo://app?vid=b67e6347-c993-4186-b85c-1f54c9e75564","ios":"levelo://app?vid=b67e6347-c993-4186-b85c-1f54c9e75564"},"vehicle_type_id":"4","last_reported":1734757713,"current_range_meters":38800,"station_id":"ce4bhh92rcd13ifvqfi0","pricing_plan_id":"cebpf4jnsgd1na2vs0mg"},{"bike_id":"b35735ca-4b10-4ec8-832b-1b83f1359495","system_id":"levelo_inurba_marseille","lat":43.26812,"lon":5.40251,"is_reserved":false,"is_disabled":false,"rental_uris":{"android":"levelo://app?vid=b35735ca-4b10-4ec8-832b-1b83f1359495","ios":"levelo://app?vid=b35735ca-4b10-4ec8-832b-1b83f1359495"},"vehicle_type_id":"4","last_reported":1734757713,"current_range_meters":29600,"station_id":"ce501612rcd8frsf0b60","pricing_plan_id":"cebpf4jnsgd1na2vs0mg"},{"bike_id":"0e7ace62-43ff-4b65-b292-1bdd6f5e20e7","system_id":"levelo_inurba_marseille","lat":43.31716,"lon":5.3774,"is_reserved":false,"is_disabled":false,"rental_uris":{"android":"levelo://app?vid=0e7ace62-43ff-4b65-b292-1bdd6f5e20e7","ios":"levelo://app?vid=0e7ace62-43ff-4b65-b292-1bdd6f5e20e7"},"vehicle_type_id":"4","last_reported":1734757713,"current_range_meters":13600,"station_id":"ce4bgth2rcd13ifvqch0","pricing_plan_id":"cebpf4jnsgd1na2vs0mg"},{"bike_id":"44127e4e-8e84-4a38-89f7-8f4efb63f7a5","system_id":"levelo_inurba_marseille","lat":43.311987,"lon":5.367531,"is_reserved":false,"is_disabled":true,"rental_uris":{"android":"levelo://app?vid=44127e4e-8e84-4a38-89f7-8f4efb63f7a5","ios":"levelo://app?vid=44127e4e-8e84-4a38-89f7-8f4efb63f7a5"},"vehicle_type_id":"4","last_reported":1734757713,"current_range_meters":0,"station_id":"","pricing_plan_id":"cebpf4jnsgd1na2vs0mg"},{"bike_id":"5a3111e7-c3c7-4666-95c0-9b09eb1e723b","system_id":"levelo_inurba_marseille","lat":43.29898,"lon":5.43666,"is_reserved":false,"is_disabled":false,"rental_uris":{"android":"levelo://app?vid=5a3111e7-c3c7-4666-95c0-9b09eb1e723b","ios":"levelo://app?vid=5a3111e7-c3c7-4666-95c0-9b09eb1e723b"},"vehicle_type_id":"4","last_reported":1734757713,"current_range_meters":36000,"station_id":"ce4bhpp2rcd13ifvqhfg","pricing_plan_id":"cebpf4jnsgd1na2vs0mg"},{"bike_id":"db49232e-e7b0-4a58-8930-7d7ec4ae6a21","system_id":"levelo_inurba_marseille","lat":43.341387,"lon":5.409103,"is_reserved":false,"is_disabled":false,"rental_uris":{"android":"levelo://app?vid=db49232e-e7b0-4a58-8930-7d7ec4ae6a21","ios":"levelo://app?vid=db49232e-e7b0-4a58-8930-7d7ec4ae6a21"},"vehicle_type_id":"4","last_reported":1734757713,"current_range_meters":33200,"station_id":"ce4bhqh2rcd13ifvqhlg","pricing_plan_id":"cebpf4jnsgd1na2vs0mg"},{"bike_id":"b8ce54b2-32d5-4019-be2e-db2708973b48","system_id":"levelo_inurba_marseille","lat":43.29786,"lon":5.39332,"is_reserved":false,"is_disabled":false,"rental_uris":{"android":"levelo://app?vid=b8ce54b2-32d5-4019-be2e-db2708973b48","ios":"levelo://app?vid=b8ce54b2-32d5-4019-be2e-db2708973b48"},"vehicle_type_id":"4","last_reported":1734757713,"current_range_meters":38800,"station_id":"chh1huq6cuj3fo74tm60","pricing_plan_id":"cebpf4jnsgd1na2vs0mg"},{"bike_id":"63a8be10-eab6-4051-9cf4-7cd7d9f05561","system_id":"levelo_inurba_marseille","lat":43.27901,"lon":5.38005,"is_reserved":false,"is_disabled":false,"rental_uris":{"android":"levelo://app?vid=63a8be10-eab6-4051-9cf4-7cd7d9f05561","ios":"levelo://app?vid=63a8be10-eab6-4051-9cf4-7cd7d9f05561"},"vehicle_type_id":"4","last_reported":1734757713,"current_range_meters":37600,"station_id":"ce4bhf92rcd13ifvqf50","pricing_plan_id":"cebpf4jnsgd1na2vs0mg"},{"bike_id":"f34eacaa-2915-488b-8995-9de516cb09f1","system_id":"levelo_inurba_marseille","lat":43.297179,"lon":5.366061,"is_reserved":false,"is_disabled":false,"rental_uris":{"android":"levelo://app?vid=f34eacaa-2915-488b-8995-9de516cb09f1","ios":"levelo://app?vid=f34eacaa-2915-488b-8995-9de516cb09f1"},"vehicle_type_id":"4","last_reported":1734757713,"current_range_meters":33600,"station_id":"ce4bgn12rcd13ifvqbt0","pricing_plan_id":"cebpf4jnsgd1na2vs0mg"},{"bike_id":"4c1fd80c-e9fb-42bb-9ee8-77cae5913cbe","system_id":"levelo_inurba_marseille","lat":43.28612,"lon":5.37053,"is_reserved":false,"is_disabled":false,"rental_uris":{"android":"levelo://app?vid=4c1fd80c-e9fb-42bb-9ee8-77cae5913cbe","ios":"levelo://app?vid=4c1fd80c-e9fb-42bb-9ee8-77cae5913cbe"},"vehicle_type_id":"4","last_reported":1734757713,"current_range_meters":34800,"station_id":"ce4bht12rcd13ifvqi60","pricing_plan_id":"cebpf4jnsgd1na2vs0mg"},{"bike_id":"a198e248-41c4-4a27-af7b-34f7a7595000","system_id":"levelo_inurba_marseille","lat":43.29914,"lon":5.37473,"is_reserved":false,"is_disabled":false,"rental_uris":{"android":"levelo://app?vid=a198e248-41c4-4a27-af7b-34f7a7595000","ios":"levelo://app?vid=a198e248-41c4-4a27-af7b-34f7a7595000"},"vehicle_type_id":"4","last_reported":1734757713,"current_range_meters":38800,"station_id":"ce4bgjh2rcd13ifvqbg0","pricing_plan_id":"cebpf4jnsgd1na2vs0mg"},{"bike_id":"3bc83e9f-31e1-4cf5-80f2-b940545c7400","system_id":"levelo_inurba_marseille","lat":43.30412,"lon":5.41297,"is_reserved":false,"is_disabled":false,"rental_uris":{"android":"levelo://app?vid=3bc83e9f-31e1-4cf5-80f2-b940545c7400","ios":"levelo://app?vid=3bc83e9f-31e1-4cf5-80f2-b940545c7400"},"vehicle_type_id":"4","last_reported":1734757713,"current_range_meters":38800,"station_id":"ce4bhop2rcd13ifvqh8g","pricing_plan_id":"cebpf4jnsgd1na2vs0mg"},{"bike_id":"8acec430-af8c-407b-9add-3610ac3ae271","system_id":"levelo_inurba_marseille","lat":43.31888,"lon":5.40731,"is_reserved":false,"is_disabled":false,"rental_uris":{"android":"levelo://app?vid=8acec430-af8c-407b-9add-3610ac3ae271","ios":"levelo://app?vid=8acec430-af8c-407b-9add-3610ac3ae271"},"vehicle_type_id":"4","last_reported":1734757713,"current_range_meters":37600,"station_id":"ce4bhq12rcd13ifvqhig","pricing_plan_id":"cebpf4jnsgd1na2vs0mg"},{"bike_id":"6d3e152a-52b7-4e48-8ce9-495072b8eb15","system_id":"levelo_inurba_marseille","lat":43.33024,"lon":5.39037,"is_reserved":false,"is_disabled":false,"rental_uris":{"android":"levelo://app?vid=6d3e152a-52b7-4e48-8ce9-495072b8eb15","ios":"levelo://app?vid=6d3e152a-52b7-4e48-8ce9-495072b8eb15"},"vehicle_type_id":"4","last_reported":1734757713,"current_range_meters":38800,"station_id":"ce4bhr92rcd13ifvqhrg","pricing_plan_id":"cebpf4jnsgd1na2vs0mg"},{"bike_id":"f4106c4e-f598-41ff-9f05-337b3040db0e","system_id":"levelo_inurba_marseille","lat":43.33022,"lon":5.390479,"is_reserved":false,"is_disabled":true,"rental_uris":{"android":"levelo://app?vid=f4106c4e-f598-41ff-9f05-337b3040db0e","ios":"levelo://app?vid=f4106c4e-f598-41ff-9f05-337b3040db0e"},"vehicle_type_id":"4","last_reported":1734757713,"current_range_meters":11200,"station_id":"ce4bhr92rcd13ifvqhrg","pricing_plan_id":"cebpf4jnsgd1na2vs0mg"},{"bike_id":"6bb7a1d6-7735-4e7f-8328-d407549dc042","system_id":"levelo_inurba_marseille","lat":43.30867,"lon":5.39643,"is_reserved":false,"is_disabled":false,"rental_uris":{"android":"levelo://app?vid=6bb7a1d6-7735-4e7f-8328-d407549dc042","ios":"levelo://app?vid=6bb7a1d6-7735-4e7f-8328-d407549dc042"},"vehicle_type_id":"4","last_reported":1734757713,"current_range_meters":30400,"station_id":"ce4bh012rcd13ifvqcv0","pricing_plan_id":"cebpf4jnsgd1na2vs0mg"},{"bike_id":"88d0fca1-50cd-440e-a583-785fe0c07914","system_id":"levelo_inurba_marseille","lat":43.33018,"lon":5.39045,"is_reserved":false,"is_disabled":false,"rental_uris":{"android":"levelo://app?vid=88d0fca1-50cd-440e-a583-785fe0c07914","ios":"levelo://app?vid=88d0fca1-50cd-440e-a583-785fe0c07914"},"vehicle_type_id":"4","last_reported":1734757713,"current_range_meters":38400,"station_id":"ce4bhr92rcd13ifvqhrg","pricing_plan_id":"cebpf4jnsgd1na2vs0mg"},{"bike_id":"584b817f-1a7d-4e53-8e6b-a260280bc97e","system_id":"levelo_inurba_marseille","lat":43.27815,"lon":5.40706,"is_reserved":false,"is_disabled":false,"rental_uris":{"android":"levelo://app?vid=584b817f-1a7d-4e53-8e6b-a260280bc97e","ios":"levelo://app?vid=584b817f-1a7d-4e53-8e6b-a260280bc97e"},"vehicle_type_id":"4","last_reported":1734757713,"current_range_meters":18000,"station_id":"ce4bhnh2rcd13ifvqgtg","pricing_plan_id":"cebpf4jnsgd1na2vs0mg"},{"bike_id":"cecaf16b-5b31-4273-a444-929e57e79b10","system_id":"levelo_inurba_marseille","lat":43.311117,"lon":5.377638,"is_reserved":false,"is_disabled":false,"rental_uris":{"android":"levelo://app?vid=cecaf16b-5b31-4273-a444-929e57e79b10","ios":"levelo://app?vid=cecaf16b-5b31-4273-a444-929e57e79b10"},"vehicle_type_id":"4","last_reported":1734757713,"current_range_meters":32400,"station_id":"ce4bgt92rcd13ifvqcg0","pricing_plan_id":"cebpf4jnsgd1na2vs0mg"},{"bike_id":"b2c5d99c-ba16-4c1c-b1a8-cfcbc20ed5ba","system_id":"levelo_inurba_marseille","lat":43.29705,"lon":5.366115,"is_reserved":false,"is_disabled":false,"rental_uris":{"android":"levelo://app?vid=b2c5d99c-ba16-4c1c-b1a8-cfcbc20ed5ba","ios":"levelo://app?vid=b2c5d99c-ba16-4c1c-b1a8-cfcbc20ed5ba"},"vehicle_type_id":"4","last_reported":1734757713,"current_range_meters":32800,"station_id":"ce4bgn12rcd13ifvqbt0","pricing_plan_id":"cebpf4jnsgd1na2vs0mg"},{"bike_id":"e21b3740-0042-462a-b7db-bf50c59c5c46","system_id":"levelo_inurba_marseille","lat":43.23169,"lon":5.39987,"is_reserved":false,"is_disabled":false,"rental_uris":{"android":"levelo://app?vid=e21b3740-0042-462a-b7db-bf50c59c5c46","ios":"levelo://app?vid=e21b3740-0042-462a-b7db-bf50c59c5c46"},"vehicle_type_id":"4","last_reported":1734757713,"current_range_meters":39200,"station_id":"ce4bhn12rcd13ifvqgqg","pricing_plan_id":"cebpf4jnsgd1na2vs0mg"},{"bike_id":"4ce5df16-d3d9-4bcd-bd7b-5456cdfb6471","system_id":"levelo_inurba_marseille","lat":43.296193,"lon":5.371686,"is_reserved":false,"is_disabled":false,"rental_uris":{"android":"levelo://app?vid=4ce5df16-d3d9-4bcd-bd7b-5456cdfb6471","ios":"levelo://app?vid=4ce5df16-d3d9-4bcd-bd7b-5456cdfb6471"},"vehicle_type_id":"4","last_reported":1734757713,"current_range_meters":36000,"station_id":"ce4bgnh2rcd13ifvqc0g","pricing_plan_id":"cebpf4jnsgd1na2vs0mg"},{"bike_id":"dbe90d0d-6773-40ce-87df-d9313af3222e","system_id":"levelo_inurba_marseille","lat":43.24075,"lon":5.37758,"is_reserved":false,"is_disabled":false,"rental_uris":{"android":"levelo://app?vid=dbe90d0d-6773-40ce-87df-d9313af3222e","ios":"levelo://app?vid=dbe90d0d-6773-40ce-87df-d9313af3222e"},"vehicle_type_id":"4","last_reported":1734757713,"current_range_meters":16800,"station_id":"ce4bhnp2rcd13ifvqgvg","pricing_plan_id":"cebpf4jnsgd1na2vs0mg"},{"bike_id":"4f194fad-2c11-451a-aacb-a9cd5fab3fd3","system_id":"levelo_inurba_marseille","lat":43.30797,"lon":5.38159,"is_reserved":false,"is_disabled":false,"rental_uris":{"android":"levelo://app?vid=4f194fad-2c11-451a-aacb-a9cd5fab3fd3","ios":"levelo://app?vid=4f194fad-2c11-451a-aacb-a9cd5fab3fd3"},"vehicle_type_id":"4","last_reported":1734757713,"current_range_meters":38800,"station_id":"ce4bgt12rcd13ifvqce0","pricing_plan_id":"cebpf4jnsgd1na2vs0mg"},{"bike_id":"81c55f70-3f5b-44f5-82c2-dadd04d937b5","system_id":"levelo_inurba_marseille","lat":43.31127,"lon":5.37787,"is_reserved":false,"is_disabled":false,"rental_uris":{"android":"levelo://app?vid=81c55f70-3f5b-44f5-82c2-dadd04d937b5","ios":"levelo://app?vid=81c55f70-3f5b-44f5-82c2-dadd04d937b5"},"vehicle_type_id":"4","last_reported":1734757713,"current_range_meters":12000,"station_id":"ce4bgt92rcd13ifvqcg0","pricing_plan_id":"cebpf4jnsgd1na2vs0mg"},{"bike_id":"b2a7f13a-9614-4595-a264-2c05c7dda9fd","system_id":"levelo_inurba_marseille","lat":43.26493,"lon":5.39558,"is_reserved":false,"is_disabled":false,"rental_uris":{"android":"levelo://app?vid=b2a7f13a-9614-4595-a264-2c05c7dda9fd","ios":"levelo://app?vid=b2a7f13a-9614-4595-a264-2c05c7dda9fd"},"vehicle_type_id":"4","last_reported":1734757713,"current_range_meters":14800,"station_id":"ce4bhi12rcd13ifvqfq0","pricing_plan_id":"cebpf4jnsgd1na2vs0mg"},{"bike_id":"6abb3668-d181-4971-a8ab-bb3a3eb8a7ec","system_id":"levelo_inurba_marseille","lat":43.23194,"lon":5.35549,"is_reserved":false,"is_disabled":false,"rental_uris":{"android":"levelo://app?vid=6abb3668-d181-4971-a8ab-bb3a3eb8a7ec","ios":"levelo://app?vid=6abb3668-d181-4971-a8ab-bb3a3eb8a7ec"},"vehicle_type_id":"4","last_reported":1734757713,"current_range_meters":22400,"station_id":"ce4bhu92rcd13ifvqi70","pricing_plan_id":"cebpf4jnsgd1na2vs0mg"},{"bike_id":"eeb165cd-0850-4135-b307-a7a2de607d7b","system_id":"levelo_inurba_marseille","lat":43.2861,"lon":5.37059,"is_reserved":false,"is_disabled":false,"rental_uris":{"android":"levelo://app?vid=eeb165cd-0850-4135-b307-a7a2de607d7b","ios":"levelo://app?vid=eeb165cd-0850-4135-b307-a7a2de607d7b"},"vehicle_type_id":"4","last_reported":1734757713,"current_range_meters":38800,"station_id":"ce4bht12rcd13ifvqi60","pricing_plan_id":"cebpf4jnsgd1na2vs0mg"},{"bike_id":"d15b9e1c-c1ed-413d-8ee1-a35fe12ec13c","system_id":"levelo_inurba_marseille","lat":43.30885,"lon":5.39634,"is_reserved":false,"is_disabled":false,"rental_uris":{"android":"levelo://app?vid=d15b9e1c-c1ed-413d-8ee1-a35fe12ec13c","ios":"levelo://app?vid=d15b9e1c-c1ed-413d-8ee1-a35fe12ec13c"},"vehicle_type_id":"4","last_reported":1734757713,"current_range_meters":36400,"station_id":"ce4bh012rcd13ifvqcv0","pricing_plan_id":"cebpf4jnsgd1na2vs0mg"},{"bike_id":"0b9f727d-92d2-402e-ac25-0e1d9792d334","system_id":"levelo_inurba_marseille","lat":43.24994,"lon":5.38942,"is_reserved":false,"is_disabled":false,"rental_uris":{"android":"levelo://app?vid=0b9f727d-92d2-402e-ac25-0e1d9792d334","ios":"levelo://app?vid=0b9f727d-92d2-402e-ac25-0e1d9792d334"},"vehicle_type_id":"4","last_reported":1734757713,"current_range_meters":38400,"station_id":"ce4bhgp2rcd13ifvqfd0","pricing_plan_id":"cebpf4jnsgd1na2vs0mg"},{"bike_id":"38077ad9-646c-4713-bce3-fb4f9d47c809","system_id":"levelo_inurba_marseille","lat":43.317071,"lon":5.377505,"is_reserved":false,"is_disabled":false,"rental_uris":{"android":"levelo://app?vid=38077ad9-646c-4713-bce3-fb4f9d47c809","ios":"levelo://app?vid=38077ad9-646c-4713-bce3-fb4f9d47c809"},"vehicle_type_id":"4","last_reported":1734757713,"current_range_meters":28000,"station_id":"ce4bgth2rcd13ifvqch0","pricing_plan_id":"cebpf4jnsgd1na2vs0mg"},{"bike_id":"c6c8b182-0397-4cc8-ad31-743b7c56031b","system_id":"levelo_inurba_marseille","lat":43.27213,"lon":5.39194,"is_reserved":false,"is_disabled":true,"rental_uris":{"android":"levelo://app?vid=c6c8b182-0397-4cc8-ad31-743b7c56031b","ios":"levelo://app?vid=c6c8b182-0397-4cc8-ad31-743b7c56031b"},"vehicle_type_id":"4","last_reported":1734757713,"current_range_meters":38400,"station_id":"ce4bhhp2rcd13ifvqfm0","pricing_plan_id":"cebpf4jnsgd1na2vs0mg"},{"bike_id":"9da68241-8fb6-414c-8667-0ff864b20b5f","system_id":"levelo_inurba_marseille","lat":43.31322,"lon":5.39698,"is_reserved":false,"is_disabled":false,"rental_uris":{"android":"levelo://app?vid=9da68241-8fb6-414c-8667-0ff864b20b5f","ios":"levelo://app?vid=9da68241-8fb6-414c-8667-0ff864b20b5f"},"vehicle_type_id":"4","last_reported":1734757713,"current_range_meters":24800,"station_id":"ce4bgvp2rcd13ifvqcu0","pricing_plan_id":"cebpf4jnsgd1na2vs0mg"},{"bike_id":"979766f3-bfcd-4ae9-8814-3169221ac160","system_id":"levelo_inurba_marseille","lat":43.33024,"lon":5.39033,"is_reserved":false,"is_disabled":false,"rental_uris":{"android":"levelo://app?vid=979766f3-bfcd-4ae9-8814-3169221ac160","ios":"levelo://app?vid=979766f3-bfcd-4ae9-8814-3169221ac160"},"vehicle_type_id":"4","last_reported":1734757713,"current_range_meters":34800,"station_id":"ce4bhr92rcd13ifvqhrg","pricing_plan_id":"cebpf4jnsgd1na2vs0mg"},{"bike_id":"f0d1216b-8996-4492-9334-a08093831500","system_id":"levelo_inurba_marseille","lat":43.32478,"lon":5.36563,"is_reserved":false,"is_disabled":false,"rental_uris":{"android":"levelo://app?vid=f0d1216b-8996-4492-9334-a08093831500","ios":"levelo://app?vid=f0d1216b-8996-4492-9334-a08093831500"},"vehicle_type_id":"4","last_reported":1734757713,"current_range_meters":37600,"station_id":"ce4bhs12rcd13ifvqhvg","pricing_plan_id":"cebpf4jnsgd1na2vs0mg"},{"bike_id":"9f50244a-d38a-491a-9f70-c23a46404b46","system_id":"levelo_inurba_marseille","lat":43.2861,"lon":5.37051,"is_reserved":false,"is_disabled":false,"rental_uris":{"android":"levelo://app?vid=9f50244a-d38a-491a-9f70-c23a46404b46","ios":"levelo://app?vid=9f50244a-d38a-491a-9f70-c23a46404b46"},"vehicle_type_id":"4","last_reported":1734757713,"current_range_meters":38800,"station_id":"ce4bht12rcd13ifvqi60","pricing_plan_id":"cebpf4jnsgd1na2vs0mg"},{"bike_id":"d49e9901-0be3-493d-8b2e-09dfce392707","system_id":"levelo_inurba_marseille","lat":43.27373,"lon":5.36253,"is_reserved":false,"is_disabled":false,"rental_uris":{"android":"levelo://app?vid=d49e9901-0be3-493d-8b2e-09dfce392707","ios":"levelo://app?vid=d49e9901-0be3-493d-8b2e-09dfce392707"},"vehicle_type_id":"4","last_reported":1734757713,"current_range_meters":39200,"station_id":"ce4bhbh2rcd13ifvqeo0","pricing_plan_id":"cebpf4jnsgd1na2vs0mg"},{"bike_id":"90fbf7b3-3e59-4761-9ba2-48103aa75f60","system_id":"levelo_inurba_marseille","lat":43.298938,"lon":5.436716,"is_reserved":false,"is_disabled":false,"rental_uris":{"android":"levelo://app?vid=90fbf7b3-3e59-4761-9ba2-48103aa75f60","ios":"levelo://app?vid=90fbf7b3-3e59-4761-9ba2-48103aa75f60"},"vehicle_type_id":"4","last_reported":1734757713,"current_range_meters":28000,"station_id":"ce4bhpp2rcd13ifvqhfg","pricing_plan_id":"cebpf4jnsgd1na2vs0mg"},{"bike_id":"8942ed6d-6932-40d6-8b65-147bf95bdda5","system_id":"levelo_inurba_marseille","lat":43.28665,"lon":5.36346,"is_reserved":false,"is_disabled":false,"rental_uris":{"android":"levelo://app?vid=8942ed6d-6932-40d6-8b65-147bf95bdda5","ios":"levelo://app?vid=8942ed6d-6932-40d6-8b65-147bf95bdda5"},"vehicle_type_id":"4","last_reported":1734757713,"current_range_meters":37600,"station_id":"ce4bhah2rcd13ifvqej0","pricing_plan_id":"cebpf4jnsgd1na2vs0mg"},{"bike_id":"3e76721f-98e4-431f-969b-21f0e57609ec","system_id":"levelo_inurba_marseille","lat":43.246645,"lon":5.381561,"is_reserved":false,"is_disabled":false,"rental_uris":{"android":"levelo://app?vid=3e76721f-98e4-431f-969b-21f0e57609ec","ios":"levelo://app?vid=3e76721f-98e4-431f-969b-21f0e57609ec"},"vehicle_type_id":"4","last_reported":1734757713,"current_range_meters":38800,"station_id":"ce4bhih2rcd13ifvqfr0","pricing_plan_id":"cebpf4jnsgd1na2vs0mg"},{"bike_id":"73c5d15f-aeaa-4940-a243-ec7cfd0884f8","system_id":"levelo_inurba_marseille","lat":43.26933,"lon":5.38917,"is_reserved":false,"is_disabled":false,"rental_uris":{"android":"levelo://app?vid=73c5d15f-aeaa-4940-a243-ec7cfd0884f8","ios":"levelo://app?vid=73c5d15f-aeaa-4940-a243-ec7cfd0884f8"},"vehicle_type_id":"4","last_reported":1734757713,"current_range_meters":38000,"station_id":"ce4bhhh2rcd13ifvqfl0","pricing_plan_id":"cebpf4jnsgd1na2vs0mg"},{"bike_id":"e51e8478-ad23-4a6c-adc3-c43d84dcb451","system_id":"levelo_inurba_marseille","lat":43.31082,"lon":5.38362,"is_reserved":false,"is_disabled":false,"rental_uris":{"android":"levelo://app?vid=e51e8478-ad23-4a6c-adc3-c43d84dcb451","ios":"levelo://app?vid=e51e8478-ad23-4a6c-adc3-c43d84dcb451"},"vehicle_type_id":"4","last_reported":1734757713,"current_range_meters":27200,"station_id":"ce4bgv92rcd13ifvqcr0","pricing_plan_id":"cebpf4jnsgd1na2vs0mg"},{"bike_id":"58ea6daf-273f-404a-a779-c6c897a38dcf","system_id":"levelo_inurba_marseille","lat":43.28153,"lon":5.42643,"is_reserved":false,"is_disabled":false,"rental_uris":{"android":"levelo://app?vid=58ea6daf-273f-404a-a779-c6c897a38dcf","ios":"levelo://app?vid=58ea6daf-273f-404a-a779-c6c897a38dcf"},"vehicle_type_id":"4","last_reported":1734757713,"current_range_meters":34800,"station_id":"ce4bhnh2rcd13ifvqgug","pricing_plan_id":"cebpf4jnsgd1na2vs0mg"},{"bike_id":"ad15d246-6125-4c44-b372-f33777f0d465","system_id":"levelo_inurba_marseille","lat":43.307993,"lon":5.381561,"is_reserved":false,"is_disabled":false,"rental_uris":{"android":"levelo://app?vid=ad15d246-6125-4c44-b372-f33777f0d465","ios":"levelo://app?vid=ad15d246-6125-4c44-b372-f33777f0d465"},"vehicle_type_id":"4","last_reported":1734757713,"current_range_meters":35600,"station_id":"ce4bgt12rcd13ifvqce0","pricing_plan_id":"cebpf4jnsgd1na2vs0mg"},{"bike_id":"6dbd9857-3f08-4de3-845c-7862a1c498e3","system_id":"levelo_inurba_marseille","lat":43.29069,"lon":5.37154,"is_reserved":false,"is_disabled":false,"rental_uris":{"android":"levelo://app?vid=6dbd9857-3f08-4de3-845c-7862a1c498e3","ios":"levelo://app?vid=6dbd9857-3f08-4de3-845c-7862a1c498e3"},"vehicle_type_id":"4","last_reported":1734757713,"current_range_meters":35600,"station_id":"ce4bh5p2rcd13ifvqe4g","pricing_plan_id":"cebpf4jnsgd1na2vs0mg"},{"bike_id":"ae5f46d8-a758-4d2a-a79c-d125f2f2631f","system_id":"levelo_inurba_marseille","lat":43.27557,"lon":5.41288,"is_reserved":false,"is_disabled":false,"rental_uris":{"android":"levelo://app?vid=ae5f46d8-a758-4d2a-a79c-d125f2f2631f","ios":"levelo://app?vid=ae5f46d8-a758-4d2a-a79c-d125f2f2631f"},"vehicle_type_id":"4","last_reported":1734757713,"current_range_meters":22800,"station_id":"","pricing_plan_id":"cebpf4jnsgd1na2vs0mg"},{"bike_id":"8fb1bad3-a121-4eb1-a55f-687f99cf68d1","system_id":"levelo_inurba_marseille","lat":43.25488,"lon":5.37646,"is_reserved":false,"is_disabled":false,"rental_uris":{"android":"levelo://app?vid=8fb1bad3-a121-4eb1-a55f-687f99cf68d1","ios":"levelo://app?vid=8fb1bad3-a121-4eb1-a55f-687f99cf68d1"},"vehicle_type_id":"4","last_reported":1734757713,"current_range_meters":37600,"station_id":"ce4bhh12rcd13ifvqff0","pricing_plan_id":"cebpf4jnsgd1na2vs0mg"},{"bike_id":"253d4698-f20c-46f9-bf88-279a0a2c0063","system_id":"levelo_inurba_marseille","lat":43.23959,"lon":5.36634,"is_reserved":false,"is_disabled":false,"rental_uris":{"android":"levelo://app?vid=253d4698-f20c-46f9-bf88-279a0a2c0063","ios":"levelo://app?vid=253d4698-f20c-46f9-bf88-279a0a2c0063"},"vehicle_type_id":"4","last_reported":1734757713,"current_range_meters":35200,"station_id":"ce4bhi12rcd13ifvqfp0","pricing_plan_id":"cebpf4jnsgd1na2vs0mg"},{"bike_id":"852ed0f0-d0a0-46ea-8da1-988f10f2135a","system_id":"levelo_inurba_marseille","lat":43.30543,"lon":5.36533,"is_reserved":false,"is_disabled":false,"rental_uris":{"android":"levelo://app?vid=852ed0f0-d0a0-46ea-8da1-988f10f2135a","ios":"levelo://app?vid=852ed0f0-d0a0-46ea-8da1-988f10f2135a"},"vehicle_type_id":"4","last_reported":1734757713,"current_range_meters":36800,"station_id":"ce4bgs12rcd13ifvqcag","pricing_plan_id":"cebpf4jnsgd1na2vs0mg"},{"bike_id":"62c4bf08-2663-4d5f-b5a0-40453d217c52","system_id":"levelo_inurba_marseille","lat":43.26197,"lon":5.37926,"is_reserved":false,"is_disabled":false,"rental_uris":{"android":"levelo://app?vid=62c4bf08-2663-4d5f-b5a0-40453d217c52","ios":"levelo://app?vid=62c4bf08-2663-4d5f-b5a0-40453d217c52"},"vehicle_type_id":"4","last_reported":1734757713,"current_range_meters":37600,"station_id":"ce4bhjp2rcd13ifvqg90","pricing_plan_id":"cebpf4jnsgd1na2vs0mg"},{"bike_id":"8f6b1583-aded-4ec7-94b5-fc5432a2645e","system_id":"levelo_inurba_marseille","lat":43.23956,"lon":5.36656,"is_reserved":false,"is_disabled":false,"rental_uris":{"android":"levelo://app?vid=8f6b1583-aded-4ec7-94b5-fc5432a2645e","ios":"levelo://app?vid=8f6b1583-aded-4ec7-94b5-fc5432a2645e"},"vehicle_type_id":"4","last_reported":1734757713,"current_range_meters":14000,"station_id":"ce4bhi12rcd13ifvqfp0","pricing_plan_id":"cebpf4jnsgd1na2vs0mg"},{"bike_id":"108b58f7-795b-4bc3-887e-c514a0a656af","system_id":"levelo_inurba_marseille","lat":43.26958,"lon":5.4031,"is_reserved":false,"is_disabled":false,"rental_uris":{"android":"levelo://app?vid=108b58f7-795b-4bc3-887e-c514a0a656af","ios":"levelo://app?vid=108b58f7-795b-4bc3-887e-c514a0a656af"},"vehicle_type_id":"4","last_reported":1734757713,"current_range_meters":38400,"station_id":"cjm6bp8fraef2m0cb0m0","pricing_plan_id":"cebpf4jnsgd1na2vs0mg"},{"bike_id":"fc4ff347-ef4d-4a4d-ae09-babf618fedb6","system_id":"levelo_inurba_marseille","lat":43.24167,"lon":5.36403,"is_reserved":false,"is_disabled":false,"rental_uris":{"android":"levelo://app?vid=fc4ff347-ef4d-4a4d-ae09-babf618fedb6","ios":"levelo://app?vid=fc4ff347-ef4d-4a4d-ae09-babf618fedb6"},"vehicle_type_id":"4","last_reported":1734757713,"current_range_meters":36400,"station_id":"cpo36qri1sfpv3e86is0","pricing_plan_id":"cebpf4jnsgd1na2vs0mg"},{"bike_id":"4e1c702f-4fec-4a09-a45d-af1848f5ba3b","system_id":"levelo_inurba_marseille","lat":43.255772,"lon":5.382364,"is_reserved":false,"is_disabled":false,"rental_uris":{"android":"levelo://app?vid=4e1c702f-4fec-4a09-a45d-af1848f5ba3b","ios":"levelo://app?vid=4e1c702f-4fec-4a09-a45d-af1848f5ba3b"},"vehicle_type_id":"4","last_reported":1734757713,"current_range_meters":38000,"station_id":"ce4bhih2rcd13ifvqfs0","pricing_plan_id":"cebpf4jnsgd1na2vs0mg"},{"bike_id":"94ffdfe1-a160-437d-b957-ddfb1b76b373","system_id":"levelo_inurba_marseille","lat":43.30257,"lon":5.4008,"is_reserved":false,"is_disabled":false,"rental_uris":{"android":"levelo://app?vid=94ffdfe1-a160-437d-b957-ddfb1b76b373","ios":"levelo://app?vid=94ffdfe1-a160-437d-b957-ddfb1b76b373"},"vehicle_type_id":"4","last_reported":1734757713,"current_range_meters":38000,"station_id":"ce4bgvh2rcd13ifvqcs0","pricing_plan_id":"cebpf4jnsgd1na2vs0mg"},{"bike_id":"6b872744-cca0-4dde-922a-4418414b1d97","system_id":"levelo_inurba_marseille","lat":43.28845,"lon":5.35846,"is_reserved":false,"is_disabled":false,"rental_uris":{"android":"levelo://app?vid=6b872744-cca0-4dde-922a-4418414b1d97","ios":"levelo://app?vid=6b872744-cca0-4dde-922a-4418414b1d97"},"vehicle_type_id":"4","last_reported":1734757713,"current_range_meters":11200,"station_id":"ce4bhb12rcd13ifvqem0","pricing_plan_id":"cebpf4jnsgd1na2vs0mg"},{"bike_id":"0fa7c283-b845-49a6-b0b1-e1a0116c4f73","system_id":"levelo_inurba_marseille","lat":43.26499,"lon":5.39541,"is_reserved":false,"is_disabled":false,"rental_uris":{"android":"levelo://app?vid=0fa7c283-b845-49a6-b0b1-e1a0116c4f73","ios":"levelo://app?vid=0fa7c283-b845-49a6-b0b1-e1a0116c4f73"},"vehicle_type_id":"4","last_reported":1734757713,"current_range_meters":38800,"station_id":"ce4bhi12rcd13ifvqfq0","pricing_plan_id":"cebpf4jnsgd1na2vs0mg"},{"bike_id":"2256b045-f1b2-47b8-809f-3fa07ee0ad45","system_id":"levelo_inurba_marseille","lat":43.26573,"lon":5.37337,"is_reserved":false,"is_disabled":false,"rental_uris":{"android":"levelo://app?vid=2256b045-f1b2-47b8-809f-3fa07ee0ad45","ios":"levelo://app?vid=2256b045-f1b2-47b8-809f-3fa07ee0ad45"},"vehicle_type_id":"4","last_reported":1734757713,"current_range_meters":17600,"station_id":"ce4bhg12rcd13ifvqf70","pricing_plan_id":"cebpf4jnsgd1na2vs0mg"},{"bike_id":"3140837c-a9d4-4740-adbf-5d102545d88e","system_id":"levelo_inurba_marseille","lat":43.25725,"lon":5.4111,"is_reserved":false,"is_disabled":false,"rental_uris":{"android":"levelo://app?vid=3140837c-a9d4-4740-adbf-5d102545d88e","ios":"levelo://app?vid=3140837c-a9d4-4740-adbf-5d102545d88e"},"vehicle_type_id":"4","last_reported":1734757713,"current_range_meters":39200,"station_id":"ce4bhkp2rcd13ifvqgd0","pricing_plan_id":"cebpf4jnsgd1na2vs0mg"},{"bike_id":"4695cff2-e8a9-4cfc-a059-a1678fa39cf5","system_id":"levelo_inurba_marseille","lat":43.27813,"lon":5.40708,"is_reserved":false,"is_disabled":false,"rental_uris":{"android":"levelo://app?vid=4695cff2-e8a9-4cfc-a059-a1678fa39cf5","ios":"levelo://app?vid=4695cff2-e8a9-4cfc-a059-a1678fa39cf5"},"vehicle_type_id":"4","last_reported":1734757713,"current_range_meters":28400,"station_id":"ce4bhnh2rcd13ifvqgtg","pricing_plan_id":"cebpf4jnsgd1na2vs0mg"},{"bike_id":"1b0e9d34-71b5-4d2a-8c59-b2701c6566e6","system_id":"levelo_inurba_marseille","lat":43.25496,"lon":5.37649,"is_reserved":false,"is_disabled":false,"rental_uris":{"android":"levelo://app?vid=1b0e9d34-71b5-4d2a-8c59-b2701c6566e6","ios":"levelo://app?vid=1b0e9d34-71b5-4d2a-8c59-b2701c6566e6"},"vehicle_type_id":"4","last_reported":1734757713,"current_range_meters":8400,"station_id":"ce4bhh12rcd13ifvqff0","pricing_plan_id":"cebpf4jnsgd1na2vs0mg"},{"bike_id":"249bcee6-9d43-43e4-a153-2711267056b1","system_id":"levelo_inurba_marseille","lat":43.27942,"lon":5.4104,"is_reserved":false,"is_disabled":false,"rental_uris":{"android":"levelo://app?vid=249bcee6-9d43-43e4-a153-2711267056b1","ios":"levelo://app?vid=249bcee6-9d43-43e4-a153-2711267056b1"},"vehicle_type_id":"4","last_reported":1734757713,"current_range_meters":26800,"station_id":"ce4bhnp2rcd13ifvqh0g","pricing_plan_id":"cebpf4jnsgd1na2vs0mg"},{"bike_id":"a7263506-55a2-424c-bf60-392469998b91","system_id":"levelo_inurba_marseille","lat":43.27995,"lon":5.36976,"is_reserved":false,"is_disabled":false,"rental_uris":{"android":"levelo://app?vid=a7263506-55a2-424c-bf60-392469998b91","ios":"levelo://app?vid=a7263506-55a2-424c-bf60-392469998b91"},"vehicle_type_id":"4","last_reported":1734757713,"current_range_meters":38800,"station_id":"ce4bha12rcd13ifvqef0","pricing_plan_id":"cebpf4jnsgd1na2vs0mg"},{"bike_id":"014f65b2-e389-4dc9-bdbc-de77644f1fd3","system_id":"levelo_inurba_marseille","lat":43.24811,"lon":5.37457,"is_reserved":false,"is_disabled":false,"rental_uris":{"android":"levelo://app?vid=014f65b2-e389-4dc9-bdbc-de77644f1fd3","ios":"levelo://app?vid=014f65b2-e389-4dc9-bdbc-de77644f1fd3"},"vehicle_type_id":"4","last_reported":1734757713,"current_range_meters":9600,"station_id":"ce4bhgh2rcd13ifvqfb0","pricing_plan_id":"cebpf4jnsgd1na2vs0mg"},{"bike_id":"6f1b836b-ff96-4c47-bfcc-e7e6b1224c70","system_id":"levelo_inurba_marseille","lat":43.29716,"lon":5.3771,"is_reserved":false,"is_disabled":false,"rental_uris":{"android":"levelo://app?vid=6f1b836b-ff96-4c47-bfcc-e7e6b1224c70","ios":"levelo://app?vid=6f1b836b-ff96-4c47-bfcc-e7e6b1224c70"},"vehicle_type_id":"4","last_reported":1734757713,"current_range_meters":28400,"station_id":"ce4bgkh2rcd13ifvqbl0","pricing_plan_id":"cebpf4jnsgd1na2vs0mg"},{"bike_id":"66bfaf26-e1fc-475c-b75c-ffb29954b6d2","system_id":"levelo_inurba_marseille","lat":43.290047,"lon":5.356241,"is_reserved":false,"is_disabled":false,"rental_uris":{"android":"levelo://app?vid=66bfaf26-e1fc-475c-b75c-ffb29954b6d2","ios":"levelo://app?vid=66bfaf26-e1fc-475c-b75c-ffb29954b6d2"},"vehicle_type_id":"4","last_reported":1734757713,"current_range_meters":26800,"station_id":"ce4bhb92rcd13ifvqen0","pricing_plan_id":"cebpf4jnsgd1na2vs0mg"},{"bike_id":"82f38e0e-70ed-4733-98f0-1731d4c3c8ab","system_id":"levelo_inurba_marseille","lat":43.28715,"lon":5.37367,"is_reserved":false,"is_disabled":false,"rental_uris":{"android":"levelo://app?vid=82f38e0e-70ed-4733-98f0-1731d4c3c8ab","ios":"levelo://app?vid=82f38e0e-70ed-4733-98f0-1731d4c3c8ab"},"vehicle_type_id":"4","last_reported":1734757713,"current_range_meters":38800,"station_id":"ce4bh3p2rcd13ifvqdq0","pricing_plan_id":"cebpf4jnsgd1na2vs0mg"},{"bike_id":"56754bd6-e9a0-4c5f-91ef-061af1afbdb6","system_id":"levelo_inurba_marseille","lat":43.30457,"lon":5.37904,"is_reserved":false,"is_disabled":false,"rental_uris":{"android":"levelo://app?vid=56754bd6-e9a0-4c5f-91ef-061af1afbdb6","ios":"levelo://app?vid=56754bd6-e9a0-4c5f-91ef-061af1afbdb6"},"vehicle_type_id":"4","last_reported":1734757713,"current_range_meters":39200,"station_id":"ce4bgup2rcd13ifvqcn0","pricing_plan_id":"cebpf4jnsgd1na2vs0mg"},{"bike_id":"bd23a801-7ebe-4d21-b274-7e6fae8da365","system_id":"levelo_inurba_marseille","lat":43.265663,"lon":5.390122,"is_reserved":false,"is_disabled":false,"rental_uris":{"android":"levelo://app?vid=bd23a801-7ebe-4d21-b274-7e6fae8da365","ios":"levelo://app?vid=bd23a801-7ebe-4d21-b274-7e6fae8da365"},"vehicle_type_id":"4","last_reported":1734757713,"current_range_meters":28400,"station_id":"ce4bhe12rcd13ifvqf30","pricing_plan_id":"cebpf4jnsgd1na2vs0mg"},{"bike_id":"172d315c-f238-4938-98db-4defbc0282b4","system_id":"levelo_inurba_marseille","lat":43.2511,"lon":5.40324,"is_reserved":false,"is_disabled":false,"rental_uris":{"android":"levelo://app?vid=172d315c-f238-4938-98db-4defbc0282b4","ios":"levelo://app?vid=172d315c-f238-4938-98db-4defbc0282b4"},"vehicle_type_id":"4","last_reported":1734757713,"current_range_meters":38800,"station_id":"ce4bhlh2rcd13ifvqgig","pricing_plan_id":"cebpf4jnsgd1na2vs0mg"},{"bike_id":"99a6d131-5bad-4343-a723-e7fe142328dc","system_id":"levelo_inurba_marseille","lat":43.28694,"lon":5.37395,"is_reserved":false,"is_disabled":true,"rental_uris":{"android":"levelo://app?vid=99a6d131-5bad-4343-a723-e7fe142328dc","ios":"levelo://app?vid=99a6d131-5bad-4343-a723-e7fe142328dc"},"vehicle_type_id":"4","last_reported":1734757713,"current_range_meters":0,"station_id":"ce4bh3p2rcd13ifvqdq0","pricing_plan_id":"cebpf4jnsgd1na2vs0mg"},{"bike_id":"6a858be1-6962-40de-8c38-5c7f90a31857","system_id":"levelo_inurba_marseille","lat":43.24674,"lon":5.38162,"is_reserved":false,"is_disabled":false,"rental_uris":{"android":"levelo://app?vid=6a858be1-6962-40de-8c38-5c7f90a31857","ios":"levelo://app?vid=6a858be1-6962-40de-8c38-5c7f90a31857"},"vehicle_type_id":"4","last_reported":1734757713,"current_range_meters":38800,"station_id":"ce4bhih2rcd13ifvqfr0","pricing_plan_id":"cebpf4jnsgd1na2vs0mg"},{"bike_id":"2a12bde8-ca1e-4ca8-8cbb-8dbf9a638106","system_id":"levelo_inurba_marseille","lat":43.23201,"lon":5.35548,"is_reserved":false,"is_disabled":false,"rental_uris":{"android":"levelo://app?vid=2a12bde8-ca1e-4ca8-8cbb-8dbf9a638106","ios":"levelo://app?vid=2a12bde8-ca1e-4ca8-8cbb-8dbf9a638106"},"vehicle_type_id":"4","last_reported":1734757713,"current_range_meters":22800,"station_id":"ce4bhu92rcd13ifvqi70","pricing_plan_id":"cebpf4jnsgd1na2vs0mg"},{"bike_id":"82b98b08-cf84-40f3-a0a4-1136038c5b5f","system_id":"levelo_inurba_marseille","lat":43.28827,"lon":5.35864,"is_reserved":false,"is_disabled":false,"rental_uris":{"android":"levelo://app?vid=82b98b08-cf84-40f3-a0a4-1136038c5b5f","ios":"levelo://app?vid=82b98b08-cf84-40f3-a0a4-1136038c5b5f"},"vehicle_type_id":"4","last_reported":1734757713,"current_range_meters":30800,"station_id":"ce4bhb12rcd13ifvqem0","pricing_plan_id":"cebpf4jnsgd1na2vs0mg"},{"bike_id":"c4f01ca7-28f1-454d-ba01-b7f6f6e2db1f","system_id":"levelo_inurba_marseille","lat":43.24803,"lon":5.37453,"is_reserved":false,"is_disabled":false,"rental_uris":{"android":"levelo://app?vid=c4f01ca7-28f1-454d-ba01-b7f6f6e2db1f","ios":"levelo://app?vid=c4f01ca7-28f1-454d-ba01-b7f6f6e2db1f"},"vehicle_type_id":"4","last_reported":1734757713,"current_range_meters":38000,"station_id":"ce4bhgh2rcd13ifvqfb0","pricing_plan_id":"cebpf4jnsgd1na2vs0mg"},{"bike_id":"82abaae9-3692-47f6-9496-45f8991794ae","system_id":"levelo_inurba_marseille","lat":43.279593,"lon":5.387191,"is_reserved":false,"is_disabled":false,"rental_uris":{"android":"levelo://app?vid=82abaae9-3692-47f6-9496-45f8991794ae","ios":"levelo://app?vid=82abaae9-3692-47f6-9496-45f8991794ae"},"vehicle_type_id":"4","last_reported":1734757713,"current_range_meters":38000,"station_id":"ce4bhg12rcd13ifvqf80","pricing_plan_id":"cebpf4jnsgd1na2vs0mg"},{"bike_id":"d9e31e13-d2b9-4926-bcde-e349aeb42a53","system_id":"levelo_inurba_marseille","lat":43.26203,"lon":5.37926,"is_reserved":false,"is_disabled":true,"rental_uris":{"android":"levelo://app?vid=d9e31e13-d2b9-4926-bcde-e349aeb42a53","ios":"levelo://app?vid=d9e31e13-d2b9-4926-bcde-e349aeb42a53"},"vehicle_type_id":"4","last_reported":1734757713,"current_range_meters":800,"station_id":"ce4bhjp2rcd13ifvqg90","pricing_plan_id":"cebpf4jnsgd1na2vs0mg"},{"bike_id":"f0bcbb45-555d-4c5b-8534-084b0fafc4e9","system_id":"levelo_inurba_marseille","lat":43.291669,"lon":5.371461,"is_reserved":false,"is_disabled":true,"rental_uris":{"android":"levelo://app?vid=f0bcbb45-555d-4c5b-8534-084b0fafc4e9","ios":"levelo://app?vid=f0bcbb45-555d-4c5b-8534-084b0fafc4e9"},"vehicle_type_id":"4","last_reported":1734757713,"current_range_meters":8800,"station_id":"ce4bha92rcd13ifvqeh0","pricing_plan_id":"cebpf4jnsgd1na2vs0mg"},{"bike_id":"007b2cb2-37ee-4b09-90d1-30cc0ef392b8","system_id":"levelo_inurba_marseille","lat":43.3153,"lon":5.38039,"is_reserved":false,"is_disabled":false,"rental_uris":{"android":"levelo://app?vid=007b2cb2-37ee-4b09-90d1-30cc0ef392b8","ios":"levelo://app?vid=007b2cb2-37ee-4b09-90d1-30cc0ef392b8"},"vehicle_type_id":"4","last_reported":1734757713,"current_range_meters":38800,"station_id":"ce4bhsp2rcd13ifvqi50","pricing_plan_id":"cebpf4jnsgd1na2vs0mg"},{"bike_id":"0d97fe76-08b3-4fe5-94cd-e3771b17b56e","system_id":"levelo_inurba_marseille","lat":43.25081,"lon":5.3952,"is_reserved":false,"is_disabled":false,"rental_uris":{"android":"levelo://app?vid=0d97fe76-08b3-4fe5-94cd-e3771b17b56e","ios":"levelo://app?vid=0d97fe76-08b3-4fe5-94cd-e3771b17b56e"},"vehicle_type_id":"4","last_reported":1734757713,"current_range_meters":22000,"station_id":"ce4bhm12rcd13ifvqgkg","pricing_plan_id":"cebpf4jnsgd1na2vs0mg"},{"bike_id":"b002d028-e42c-46e2-93ce-a18a7a90546e","system_id":"levelo_inurba_marseille","lat":43.32282,"lon":5.38273,"is_reserved":false,"is_disabled":false,"rental_uris":{"android":"levelo://app?vid=b002d028-e42c-46e2-93ce-a18a7a90546e","ios":"levelo://app?vid=b002d028-e42c-46e2-93ce-a18a7a90546e"},"vehicle_type_id":"4","last_reported":1734757713,"current_range_meters":14400,"station_id":"ce4bhr12rcd13ifvqhqg","pricing_plan_id":"cebpf4jnsgd1na2vs0mg"},{"bike_id":"6ddead71-4302-4eb5-b277-f6d2acacef55","system_id":"levelo_inurba_marseille","lat":43.30138,"lon":5.39877,"is_reserved":false,"is_disabled":true,"rental_uris":{"android":"levelo://app?vid=6ddead71-4302-4eb5-b277-f6d2acacef55","ios":"levelo://app?vid=6ddead71-4302-4eb5-b277-f6d2acacef55"},"vehicle_type_id":"4","last_reported":1734757713,"current_range_meters":8400,"station_id":"ce4bh0h2rcd13ifvqd40","pricing_plan_id":"cebpf4jnsgd1na2vs0mg"},{"bike_id":"e39e00de-d654-4b2b-a19b-8fcb80b59fbe","system_id":"levelo_inurba_marseille","lat":43.30128,"lon":5.39877,"is_reserved":false,"is_disabled":false,"rental_uris":{"android":"levelo://app?vid=e39e00de-d654-4b2b-a19b-8fcb80b59fbe","ios":"levelo://app?vid=e39e00de-d654-4b2b-a19b-8fcb80b59fbe"},"vehicle_type_id":"4","last_reported":1734757713,"current_range_meters":38800,"station_id":"ce4bh0h2rcd13ifvqd40","pricing_plan_id":"cebpf4jnsgd1na2vs0mg"},{"bike_id":"7e4293b3-a7b1-492a-91f9-a9ee5b82794f","system_id":"levelo_inurba_marseille","lat":43.29572,"lon":5.3996,"is_reserved":false,"is_disabled":true,"rental_uris":{"android":"levelo://app?vid=7e4293b3-a7b1-492a-91f9-a9ee5b82794f","ios":"levelo://app?vid=7e4293b3-a7b1-492a-91f9-a9ee5b82794f"},"vehicle_type_id":"4","last_reported":1734757713,"current_range_meters":37600,"station_id":"ce4bh312rcd13ifvqdj0","pricing_plan_id":"cebpf4jnsgd1na2vs0mg"},{"bike_id":"486821a0-5863-41fe-b9c6-edf50f006330","system_id":"levelo_inurba_marseille","lat":43.29286,"lon":5.40101,"is_reserved":false,"is_disabled":false,"rental_uris":{"android":"levelo://app?vid=486821a0-5863-41fe-b9c6-edf50f006330","ios":"levelo://app?vid=486821a0-5863-41fe-b9c6-edf50f006330"},"vehicle_type_id":"4","last_reported":1734757713,"current_range_meters":38800,"station_id":"ce4bh312rcd13ifvqdk0","pricing_plan_id":"cebpf4jnsgd1na2vs0mg"},{"bike_id":"b8be2a2c-fd7d-4fab-a7c3-2755aa67b37b","system_id":"levelo_inurba_marseille","lat":43.29903,"lon":5.37466,"is_reserved":false,"is_disabled":false,"rental_uris":{"android":"levelo://app?vid=b8be2a2c-fd7d-4fab-a7c3-2755aa67b37b","ios":"levelo://app?vid=b8be2a2c-fd7d-4fab-a7c3-2755aa67b37b"},"vehicle_type_id":"4","last_reported":1734757713,"current_range_meters":32400,"station_id":"ce4bgjh2rcd13ifvqbg0","pricing_plan_id":"cebpf4jnsgd1na2vs0mg"},{"bike_id":"4094ac40-fe97-4483-91f4-bc4b6a97b4f3","system_id":"levelo_inurba_marseille","lat":43.258286,"lon":5.394281,"is_reserved":false,"is_disabled":false,"rental_uris":{"android":"levelo://app?vid=4094ac40-fe97-4483-91f4-bc4b6a97b4f3","ios":"levelo://app?vid=4094ac40-fe97-4483-91f4-bc4b6a97b4f3"},"vehicle_type_id":"4","last_reported":1734757713,"current_range_meters":7200,"station_id":"ce4bhip2rcd13ifvqft0","pricing_plan_id":"cebpf4jnsgd1na2vs0mg"},{"bike_id":"b44f9236-c33f-43b3-ab7e-0f32e9951c9e","system_id":"levelo_inurba_marseille","lat":43.23196,"lon":5.35552,"is_reserved":false,"is_disabled":false,"rental_uris":{"android":"levelo://app?vid=b44f9236-c33f-43b3-ab7e-0f32e9951c9e","ios":"levelo://app?vid=b44f9236-c33f-43b3-ab7e-0f32e9951c9e"},"vehicle_type_id":"4","last_reported":1734757713,"current_range_meters":37600,"station_id":"ce4bhu92rcd13ifvqi70","pricing_plan_id":"cebpf4jnsgd1na2vs0mg"},{"bike_id":"a894c487-ad26-4da6-846b-7a6d7010fc61","system_id":"levelo_inurba_marseille","lat":43.303539,"lon":5.41876,"is_reserved":false,"is_disabled":false,"rental_uris":{"android":"levelo://app?vid=a894c487-ad26-4da6-846b-7a6d7010fc61","ios":"levelo://app?vid=a894c487-ad26-4da6-846b-7a6d7010fc61"},"vehicle_type_id":"4","last_reported":1734757713,"current_range_meters":38400,"station_id":"ce4bhop2rcd13ifvqh7g","pricing_plan_id":"cebpf4jnsgd1na2vs0mg"},{"bike_id":"54023e82-f3a3-43c5-8a68-e8a4379958da","system_id":"levelo_inurba_marseille","lat":43.28855,"lon":5.39319,"is_reserved":false,"is_disabled":false,"rental_uris":{"android":"levelo://app?vid=54023e82-f3a3-43c5-8a68-e8a4379958da","ios":"levelo://app?vid=54023e82-f3a3-43c5-8a68-e8a4379958da"},"vehicle_type_id":"4","last_reported":1734757713,"current_range_meters":38800,"station_id":"ce4bh2p2rcd13ifvqdi0","pricing_plan_id":"cebpf4jnsgd1na2vs0mg"},{"bike_id":"8133552a-c54c-4e14-b778-c793dac1d3ec","system_id":"levelo_inurba_marseille","lat":43.2925,"lon":5.40905,"is_reserved":false,"is_disabled":false,"rental_uris":{"android":"levelo://app?vid=8133552a-c54c-4e14-b778-c793dac1d3ec","ios":"levelo://app?vid=8133552a-c54c-4e14-b778-c793dac1d3ec"},"vehicle_type_id":"4","last_reported":1734757713,"current_range_meters":35600,"station_id":"ce4bh192rcd13ifvqdc0","pricing_plan_id":"cebpf4jnsgd1na2vs0mg"},{"bike_id":"db122134-c31b-4a82-9b05-bda39f6fec31","system_id":"levelo_inurba_marseille","lat":43.2467,"lon":5.38135,"is_reserved":false,"is_disabled":false,"rental_uris":{"android":"levelo://app?vid=db122134-c31b-4a82-9b05-bda39f6fec31","ios":"levelo://app?vid=db122134-c31b-4a82-9b05-bda39f6fec31"},"vehicle_type_id":"4","last_reported":1734757713,"current_range_meters":38400,"station_id":"ce4bhih2rcd13ifvqfr0","pricing_plan_id":"cebpf4jnsgd1na2vs0mg"},{"bike_id":"868c7ed3-7ca1-4ce7-bfa5-8e5c350ae3b7","system_id":"levelo_inurba_marseille","lat":43.31177,"lon":5.38719,"is_reserved":false,"is_disabled":false,"rental_uris":{"android":"levelo://app?vid=868c7ed3-7ca1-4ce7-bfa5-8e5c350ae3b7","ios":"levelo://app?vid=868c7ed3-7ca1-4ce7-bfa5-8e5c350ae3b7"},"vehicle_type_id":"4","last_reported":1734757713,"current_range_meters":28400,"station_id":"ce4bgv12rcd13ifvqcp0","pricing_plan_id":"cebpf4jnsgd1na2vs0mg"},{"bike_id":"3798593a-5b27-4be0-a19d-ee53a8d97020","system_id":"levelo_inurba_marseille","lat":43.265636,"lon":5.390053,"is_reserved":false,"is_disabled":false,"rental_uris":{"android":"levelo://app?vid=3798593a-5b27-4be0-a19d-ee53a8d97020","ios":"levelo://app?vid=3798593a-5b27-4be0-a19d-ee53a8d97020"},"vehicle_type_id":"4","last_reported":1734757713,"current_range_meters":19600,"station_id":"ce4bhe12rcd13ifvqf30","pricing_plan_id":"cebpf4jnsgd1na2vs0mg"},{"bike_id":"6b2d33d2-c480-4eff-a39c-ef0138c5be04","system_id":"levelo_inurba_marseille","lat":43.29744,"lon":5.36625,"is_reserved":false,"is_disabled":false,"rental_uris":{"android":"levelo://app?vid=6b2d33d2-c480-4eff-a39c-ef0138c5be04","ios":"levelo://app?vid=6b2d33d2-c480-4eff-a39c-ef0138c5be04"},"vehicle_type_id":"4","last_reported":1734757713,"current_range_meters":38800,"station_id":"ce4bgn12rcd13ifvqbt0","pricing_plan_id":"cebpf4jnsgd1na2vs0mg"},{"bike_id":"17b601cd-a936-4f03-83ec-79f3f5082e84","system_id":"levelo_inurba_marseille","lat":43.33019,"lon":5.39035,"is_reserved":false,"is_disabled":false,"rental_uris":{"android":"levelo://app?vid=17b601cd-a936-4f03-83ec-79f3f5082e84","ios":"levelo://app?vid=17b601cd-a936-4f03-83ec-79f3f5082e84"},"vehicle_type_id":"4","last_reported":1734757713,"current_range_meters":38800,"station_id":"ce4bhr92rcd13ifvqhrg","pricing_plan_id":"cebpf4jnsgd1na2vs0mg"},{"bike_id":"a4cdc68d-9a41-489e-9b1d-3577a4e39cb2","system_id":"levelo_inurba_marseille","lat":43.31719,"lon":5.42403,"is_reserved":false,"is_disabled":false,"rental_uris":{"android":"levelo://app?vid=a4cdc68d-9a41-489e-9b1d-3577a4e39cb2","ios":"levelo://app?vid=a4cdc68d-9a41-489e-9b1d-3577a4e39cb2"},"vehicle_type_id":"4","last_reported":1734757713,"current_range_meters":38800,"station_id":"ce4bhp92rcd13ifvqhbg","pricing_plan_id":"cebpf4jnsgd1na2vs0mg"},{"bike_id":"c7a92880-39e2-4aa8-beb1-d3f7fee63a5e","system_id":"levelo_inurba_marseille","lat":43.29854,"lon":5.36284,"is_reserved":false,"is_disabled":false,"rental_uris":{"android":"levelo://app?vid=c7a92880-39e2-4aa8-beb1-d3f7fee63a5e","ios":"levelo://app?vid=c7a92880-39e2-4aa8-beb1-d3f7fee63a5e"},"vehicle_type_id":"4","last_reported":1734757713,"current_range_meters":36800,"station_id":"ce4bgpp2rcd13ifvqc3g","pricing_plan_id":"cebpf4jnsgd1na2vs0mg"},{"bike_id":"61bd45b4-bece-42b5-80d4-864f70786968","system_id":"levelo_inurba_marseille","lat":43.28618,"lon":5.35099,"is_reserved":false,"is_disabled":false,"rental_uris":{"android":"levelo://app?vid=61bd45b4-bece-42b5-80d4-864f70786968","ios":"levelo://app?vid=61bd45b4-bece-42b5-80d4-864f70786968"},"vehicle_type_id":"4","last_reported":1734757713,"current_range_meters":6400,"station_id":"ce4bhch2rcd13ifvqeug","pricing_plan_id":"cebpf4jnsgd1na2vs0mg"},{"bike_id":"ba623d7f-de4d-43e6-9a39-be19938e75fb","system_id":"levelo_inurba_marseille","lat":43.293738,"lon":5.378567,"is_reserved":false,"is_disabled":true,"rental_uris":{"android":"levelo://app?vid=ba623d7f-de4d-43e6-9a39-be19938e75fb","ios":"levelo://app?vid=ba623d7f-de4d-43e6-9a39-be19938e75fb"},"vehicle_type_id":"4","last_reported":1734757713,"current_range_meters":37600,"station_id":"ce4bgjh2rcd13ifvqbf0","pricing_plan_id":"cebpf4jnsgd1na2vs0mg"},{"bike_id":"018f5571-4b34-48d4-958a-35f5a2845ad1","system_id":"levelo_inurba_marseille","lat":43.24391,"lon":5.37051,"is_reserved":false,"is_disabled":false,"rental_uris":{"android":"levelo://app?vid=018f5571-4b34-48d4-958a-35f5a2845ad1","ios":"levelo://app?vid=018f5571-4b34-48d4-958a-35f5a2845ad1"},"vehicle_type_id":"4","last_reported":1734757713,"current_range_meters":38000,"station_id":"ce4bhhh2rcd13ifvqfk0","pricing_plan_id":"cebpf4jnsgd1na2vs0mg"},{"bike_id":"96ba536b-2cb3-4278-bf91-5a965d369b9b","system_id":"levelo_inurba_marseille","lat":43.243885,"lon":5.370526,"is_reserved":false,"is_disabled":false,"rental_uris":{"android":"levelo://app?vid=96ba536b-2cb3-4278-bf91-5a965d369b9b","ios":"levelo://app?vid=96ba536b-2cb3-4278-bf91-5a965d369b9b"},"vehicle_type_id":"4","last_reported":1734757713,"current_range_meters":38800,"station_id":"ce4bhhh2rcd13ifvqfk0","pricing_plan_id":"cebpf4jnsgd1na2vs0mg"},{"bike_id":"90b39612-8237-43ff-a252-5e565c8e2d2d","system_id":"levelo_inurba_marseille","lat":43.29586,"lon":5.38107,"is_reserved":false,"is_disabled":true,"rental_uris":{"android":"levelo://app?vid=90b39612-8237-43ff-a252-5e565c8e2d2d","ios":"levelo://app?vid=90b39612-8237-43ff-a252-5e565c8e2d2d"},"vehicle_type_id":"4","last_reported":1734757713,"current_range_meters":0,"station_id":"ce4bgl12rcd13ifvqbo0","pricing_plan_id":"cebpf4jnsgd1na2vs0mg"},{"bike_id":"eb66acd5-ad04-42f2-8460-25bae4cd3515","system_id":"levelo_inurba_marseille","lat":43.30277,"lon":5.37703,"is_reserved":false,"is_disabled":false,"rental_uris":{"android":"levelo://app?vid=eb66acd5-ad04-42f2-8460-25bae4cd3515","ios":"levelo://app?vid=eb66acd5-ad04-42f2-8460-25bae4cd3515"},"vehicle_type_id":"4","last_reported":1734757713,"current_range_meters":37600,"station_id":"ce4bguh2rcd13ifvqcj0","pricing_plan_id":"cebpf4jnsgd1na2vs0mg"},{"bike_id":"caa28317-677f-4684-8cc6-46932db162b9","system_id":"levelo_inurba_marseille","lat":43.27811,"lon":5.4073,"is_reserved":false,"is_disabled":false,"rental_uris":{"android":"levelo://app?vid=caa28317-677f-4684-8cc6-46932db162b9","ios":"levelo://app?vid=caa28317-677f-4684-8cc6-46932db162b9"},"vehicle_type_id":"4","last_reported":1734757713,"current_range_meters":18800,"station_id":"ce4bhnh2rcd13ifvqgtg","pricing_plan_id":"cebpf4jnsgd1na2vs0mg"},{"bike_id":"d7a9a039-2919-4498-94bc-85df69bbf9b4","system_id":"levelo_inurba_marseille","lat":43.250848,"lon":5.395127,"is_reserved":false,"is_disabled":true,"rental_uris":{"android":"levelo://app?vid=d7a9a039-2919-4498-94bc-85df69bbf9b4","ios":"levelo://app?vid=d7a9a039-2919-4498-94bc-85df69bbf9b4"},"vehicle_type_id":"4","last_reported":1734757713,"current_range_meters":1600,"station_id":"ce4bhm12rcd13ifvqgkg","pricing_plan_id":"cebpf4jnsgd1na2vs0mg"},{"bike_id":"f7f2f941-70c7-4fad-821c-81acac786e14","system_id":"levelo_inurba_marseille","lat":43.31755,"lon":5.39029,"is_reserved":false,"is_disabled":false,"rental_uris":{"android":"levelo://app?vid=f7f2f941-70c7-4fad-821c-81acac786e14","ios":"levelo://app?vid=f7f2f941-70c7-4fad-821c-81acac786e14"},"vehicle_type_id":"4","last_reported":1734757713,"current_range_meters":25200,"station_id":"ce4bhqp2rcd13ifvqhng","pricing_plan_id":"cebpf4jnsgd1na2vs0mg"},{"bike_id":"f6e00a83-cc1f-4aaf-83bb-77e9d3b9e809","system_id":"levelo_inurba_marseille","lat":43.337444,"lon":5.374475,"is_reserved":false,"is_disabled":false,"rental_uris":{"android":"levelo://app?vid=f6e00a83-cc1f-4aaf-83bb-77e9d3b9e809","ios":"levelo://app?vid=f6e00a83-cc1f-4aaf-83bb-77e9d3b9e809"},"vehicle_type_id":"4","last_reported":1734757713,"current_range_meters":30000,"station_id":"","pricing_plan_id":"cebpf4jnsgd1na2vs0mg"},{"bike_id":"2e0a4273-9b64-4eb1-8d1b-b8e55991eb0a","system_id":"levelo_inurba_marseille","lat":43.27267,"lon":5.40079,"is_reserved":false,"is_disabled":true,"rental_uris":{"android":"levelo://app?vid=2e0a4273-9b64-4eb1-8d1b-b8e55991eb0a","ios":"levelo://app?vid=2e0a4273-9b64-4eb1-8d1b-b8e55991eb0a"},"vehicle_type_id":"4","last_reported":1734757713,"current_range_meters":0,"station_id":"","pricing_plan_id":"cebpf4jnsgd1na2vs0mg"},{"bike_id":"5d66802c-7f21-4e3c-9864-bbe5dedb9849","system_id":"levelo_inurba_marseille","lat":43.3065,"lon":5.40077,"is_reserved":false,"is_disabled":false,"rental_uris":{"android":"levelo://app?vid=5d66802c-7f21-4e3c-9864-bbe5dedb9849","ios":"levelo://app?vid=5d66802c-7f21-4e3c-9864-bbe5dedb9849"},"vehicle_type_id":"4","last_reported":1734757713,"current_range_meters":13600,"station_id":"ce4bh112rcd13ifvqda0","pricing_plan_id":"cebpf4jnsgd1na2vs0mg"},{"bike_id":"cc973fd4-f0ac-4016-a5e2-1bd0637993cd","system_id":"levelo_inurba_marseille","lat":43.30532,"lon":5.3843,"is_reserved":false,"is_disabled":false,"rental_uris":{"android":"levelo://app?vid=cc973fd4-f0ac-4016-a5e2-1bd0637993cd","ios":"levelo://app?vid=cc973fd4-f0ac-4016-a5e2-1bd0637993cd"},"vehicle_type_id":"4","last_reported":1734757713,"current_range_meters":38400,"station_id":"ce4bgg92rcd13ifvqb30","pricing_plan_id":"cebpf4jnsgd1na2vs0mg"},{"bike_id":"f957ffa3-7b76-4b18-bb62-81627d313cf8","system_id":"levelo_inurba_marseille","lat":43.231897,"lon":5.355547,"is_reserved":false,"is_disabled":false,"rental_uris":{"android":"levelo://app?vid=f957ffa3-7b76-4b18-bb62-81627d313cf8","ios":"levelo://app?vid=f957ffa3-7b76-4b18-bb62-81627d313cf8"},"vehicle_type_id":"4","last_reported":1734757713,"current_range_meters":27200,"station_id":"ce4bhu92rcd13ifvqi70","pricing_plan_id":"cebpf4jnsgd1na2vs0mg"},{"bike_id":"07b19cc1-31e5-4713-9742-f27d0892c2e1","system_id":"levelo_inurba_marseille","lat":43.26896,"lon":5.41706,"is_reserved":false,"is_disabled":false,"rental_uris":{"android":"levelo://app?vid=07b19cc1-31e5-4713-9742-f27d0892c2e1","ios":"levelo://app?vid=07b19cc1-31e5-4713-9742-f27d0892c2e1"},"vehicle_type_id":"4","last_reported":1734757713,"current_range_meters":11200,"station_id":"","pricing_plan_id":"cebpf4jnsgd1na2vs0mg"},{"bike_id":"5dd95ec7-a282-40a6-a0fe-4e2e61de4064","system_id":"levelo_inurba_marseille","lat":43.26332,"lon":5.40132,"is_reserved":false,"is_disabled":true,"rental_uris":{"android":"levelo://app?vid=5dd95ec7-a282-40a6-a0fe-4e2e61de4064","ios":"levelo://app?vid=5dd95ec7-a282-40a6-a0fe-4e2e61de4064"},"vehicle_type_id":"4","last_reported":1734757713,"current_range_meters":4800,"station_id":"","pricing_plan_id":"cebpf4jnsgd1na2vs0mg"},{"bike_id":"7a274847-3e08-4566-bcea-3c017f0034eb","system_id":"levelo_inurba_marseille","lat":43.30878,"lon":5.3965,"is_reserved":false,"is_disabled":false,"rental_uris":{"android":"levelo://app?vid=7a274847-3e08-4566-bcea-3c017f0034eb","ios":"levelo://app?vid=7a274847-3e08-4566-bcea-3c017f0034eb"},"vehicle_type_id":"4","last_reported":1734757713,"current_range_meters":24400,"station_id":"ce4bh012rcd13ifvqcv0","pricing_plan_id":"cebpf4jnsgd1na2vs0mg"},{"bike_id":"8d23ef1c-4d80-41f5-8856-02b6ab55c880","system_id":"levelo_inurba_marseille","lat":43.33729,"lon":5.39181,"is_reserved":false,"is_disabled":false,"rental_uris":{"android":"levelo://app?vid=8d23ef1c-4d80-41f5-8856-02b6ab55c880","ios":"levelo://app?vid=8d23ef1c-4d80-41f5-8856-02b6ab55c880"},"vehicle_type_id":"4","last_reported":1734757713,"current_range_meters":36800,"station_id":"ce4bhr92rcd13ifvqhsg","pricing_plan_id":"cebpf4jnsgd1na2vs0mg"},{"bike_id":"273828d0-ad53-4df1-ab71-8bd58cada311","system_id":"levelo_inurba_marseille","lat":43.23186,"lon":5.39985,"is_reserved":false,"is_disabled":false,"rental_uris":{"android":"levelo://app?vid=273828d0-ad53-4df1-ab71-8bd58cada311","ios":"levelo://app?vid=273828d0-ad53-4df1-ab71-8bd58cada311"},"vehicle_type_id":"4","last_reported":1734757713,"current_range_meters":14400,"station_id":"ce4bhn12rcd13ifvqgqg","pricing_plan_id":"cebpf4jnsgd1na2vs0mg"},{"bike_id":"2256e953-e04c-4a1a-96b7-b03d74e4d2b6","system_id":"levelo_inurba_marseille","lat":43.24807,"lon":5.37449,"is_reserved":false,"is_disabled":false,"rental_uris":{"android":"levelo://app?vid=2256e953-e04c-4a1a-96b7-b03d74e4d2b6","ios":"levelo://app?vid=2256e953-e04c-4a1a-96b7-b03d74e4d2b6"},"vehicle_type_id":"4","last_reported":1734757713,"current_range_meters":38400,"station_id":"ce4bhgh2rcd13ifvqfb0","pricing_plan_id":"cebpf4jnsgd1na2vs0mg"},{"bike_id":"d891b729-182c-43af-9f42-b00875e2ab8d","system_id":"levelo_inurba_marseille","lat":43.31708,"lon":5.37765,"is_reserved":false,"is_disabled":false,"rental_uris":{"android":"levelo://app?vid=d891b729-182c-43af-9f42-b00875e2ab8d","ios":"levelo://app?vid=d891b729-182c-43af-9f42-b00875e2ab8d"},"vehicle_type_id":"4","last_reported":1734757713,"current_range_meters":8800,"station_id":"ce4bgth2rcd13ifvqch0","pricing_plan_id":"cebpf4jnsgd1na2vs0mg"},{"bike_id":"d60d8232-4a96-492d-9348-9c3d8bdfda03","system_id":"levelo_inurba_marseille","lat":43.29846,"lon":5.36273,"is_reserved":false,"is_disabled":false,"rental_uris":{"android":"levelo://app?vid=d60d8232-4a96-492d-9348-9c3d8bdfda03","ios":"levelo://app?vid=d60d8232-4a96-492d-9348-9c3d8bdfda03"},"vehicle_type_id":"4","last_reported":1734757713,"current_range_meters":38800,"station_id":"ce4bgpp2rcd13ifvqc3g","pricing_plan_id":"cebpf4jnsgd1na2vs0mg"},{"bike_id":"0365d627-bfc5-459b-8305-c5938b939cbe","system_id":"levelo_inurba_marseille","lat":43.269389,"lon":5.389229,"is_reserved":false,"is_disabled":false,"rental_uris":{"android":"levelo://app?vid=0365d627-bfc5-459b-8305-c5938b939cbe","ios":"levelo://app?vid=0365d627-bfc5-459b-8305-c5938b939cbe"},"vehicle_type_id":"4","last_reported":1734757713,"current_range_meters":28400,"station_id":"ce4bhhh2rcd13ifvqfl0","pricing_plan_id":"cebpf4jnsgd1na2vs0mg"},{"bike_id":"41957561-5e49-4727-a7e0-01365af5c65f","system_id":"levelo_inurba_marseille","lat":43.30936,"lon":5.40142,"is_reserved":false,"is_disabled":false,"rental_uris":{"android":"levelo://app?vid=41957561-5e49-4727-a7e0-01365af5c65f","ios":"levelo://app?vid=41957561-5e49-4727-a7e0-01365af5c65f"},"vehicle_type_id":"4","last_reported":1734757713,"current_range_meters":34800,"station_id":"ce4bgvp2rcd13ifvqct0","pricing_plan_id":"cebpf4jnsgd1na2vs0mg"},{"bike_id":"19f34006-1dba-4c03-b59a-0511830589aa","system_id":"levelo_inurba_marseille","lat":43.24841,"lon":5.37487,"is_reserved":false,"is_disabled":false,"rental_uris":{"android":"levelo://app?vid=19f34006-1dba-4c03-b59a-0511830589aa","ios":"levelo://app?vid=19f34006-1dba-4c03-b59a-0511830589aa"},"vehicle_type_id":"4","last_reported":1734757713,"current_range_meters":23200,"station_id":"","pricing_plan_id":"cebpf4jnsgd1na2vs0mg"},{"bike_id":"57e57271-a098-4e6d-a7d1-6383e396d7b6","system_id":"levelo_inurba_marseille","lat":43.30585,"lon":5.39352,"is_reserved":false,"is_disabled":false,"rental_uris":{"android":"levelo://app?vid=57e57271-a098-4e6d-a7d1-6383e396d7b6","ios":"levelo://app?vid=57e57271-a098-4e6d-a7d1-6383e396d7b6"},"vehicle_type_id":"4","last_reported":1734757713,"current_range_meters":11600,"station_id":"ce4bh0p2rcd13ifvqd80","pricing_plan_id":"cebpf4jnsgd1na2vs0mg"},{"bike_id":"bffdb595-5ef9-4fbb-b316-887b15202198","system_id":"levelo_inurba_marseille","lat":43.2828,"lon":5.351,"is_reserved":false,"is_disabled":false,"rental_uris":{"android":"levelo://app?vid=bffdb595-5ef9-4fbb-b316-887b15202198","ios":"levelo://app?vid=bffdb595-5ef9-4fbb-b316-887b15202198"},"vehicle_type_id":"4","last_reported":1734757713,"current_range_meters":38800,"station_id":"ce4bhbp2rcd13ifvqerg","pricing_plan_id":"cebpf4jnsgd1na2vs0mg"},