{"last_updated":1751376420,"ttl":60,"version":"2.2","data":{"bikes":[{"bike_id":"3da29fb8-fc97-44c6-b9ac-31dd456b2fd4","system_id":"levelo_inurba_marseille","lat":43.33771,"lon":5.37424,"is_reserved":false,"is_disabled":true,"rental_uris":{"android":"levelo://app?vid=3da29fb8-fc97-44c6-b9ac-31dd456b2fd4","ios":"levelo://app?vid=3da29fb8-fc97-44c6-b9ac-31dd456b2fd4"},"vehicle_type_id":"4","last_reported":1751376420,"current_range_meters":0,"station_id":"","pricing_plan_id":"cebpf4jnsgd1na2vs0mg"},{"bike_id":"01861ad8-a8d7-4be6-816e-651927c87584","system_id":"levelo_inurba_marseille","lat":43.33751,"lon":5.37456,"is_reserved":false,"is_disabled":true,"rental_uris":{"android":"levelo://app?vid=01861ad8-a8d7-4be6-816e-651927c87584","ios":"levelo://app?vid=01861ad8-a8d7-4be6-816e-651927c87584"},"vehicle_type_id":"4","last_reported":1751376420,"current_range_meters":0,"station_id":"","pricing_plan_id":"cebpf4jnsgd1na2vs0mg"},{"bike_id":"c0233825-48c7-4308-99a0-0cbf10efd402","system_id":"levelo_inurba_marseille","lat":43.32253,"lon":5.37466,"is_reserved":false,"is_disabled":true,"rental_uris":{"android":"levelo://app?vid=c0233825-48c7-4308-99a0-0cbf10efd402","ios":"levelo://app?vid=c0233825-48c7-4308-99a0-0cbf10efd402"},"vehicle_type_id":"4","last_reported":1751376420,"current_range_meters":0,"station_id":"","pricing_plan_id":"cebpf4jnsgd1na2vs0mg"},{"bike_id":"3168b9fb-97d2-4a0e-b7ee-673bb8cf7525","system_id":"levelo_inurba_marseille","lat":43.27777,"lon":5.35568,"is_reserved":false,"is_disabled":true,"rental_uris":{"android":"levelo://app?vid=3168b9fb-97d2-4a0e-b7ee-673bb8cf7525","ios":"levelo://app?vid=3168b9fb-97d2-4a0e-b7ee-673bb8cf7525"},"vehicle_type_id":"4","last_reported":1751376420,"current_range_meters":0,"station_id":"","pricing_plan_id":"cebpf4jnsgd1na2vs0mg"},{"bike_id":"1d934d30-6a85-4b30-9a35-9bb4ad4cb2ca","system_id":"levelo_inurba_marseille","lat":43.32707,"lon":5.4237,"is_reserved":false,"is_disabled":true,"rental_uris":{"android":"levelo://app?vid=1d934d30-6a85-4b30-9a35-9bb4ad4cb2ca","ios":"levelo://app?vid=1d934d30-6a85-4b30-9a35-9bb4ad4cb2ca"},"vehicle_type_id":"4","last_reported":1751376420,"current_range_meters":0,"station_id":"","pricing_plan_id":"cebpf4jnsgd1na2vs0mg"},{"bike_id":"2850ea7e-df18-492b-825f-2053f060420f","system_id":"levelo_inurba_marseille","lat":43.29726,"lon":5.38201,"is_reserved":false,"is_disabled":true,"rental_uris":{"android":"levelo://app?vid=2850ea7e-df18-492b-825f-2053f060420f","ios":"levelo://app?vid=2850ea7e-df18-492b-825f-2053f060420f"},"vehicle_type_id":"4","last_reported":1751376420,"current_range_meters":0,"station_id":"","pricing_plan_id":"cebpf4jnsgd1na2vs0mg"},{"bike_id":"3378c13c-e4e0-45be-9bfe-f3a4bc2c600e","system_id":"levelo_inurba_marseille","lat":43.29765,"lon":5.46035,"is_reserved":false,"is_disabled":true,"rental_uris":{"android":"levelo://app?vid=3378c13c-e4e0-45be-9bfe-f3a4bc2c600e","ios":"levelo://app?vid=3378c13c-e4e0-45be-9bfe-f3a4bc2c600e"},"vehicle_type_id":"4","last_reported":1751376420,"current_range_meters":0,"station_id":"","pricing_plan_id":"cebpf4jnsgd1na2vs0mg"},{"bike_id":"2ccccc82-c8a9-4c3b-909d-52c0bf697aa3","system_id":"levelo_inurba_marseille","lat":43.27597,"lon":5.35859,"is_reserved":false,"is_disabled":true,"rental_uris":{"android":"levelo://app?vid=2ccccc82-c8a9-4c3b-909d-52c0bf697aa3","ios":"levelo://app?vid=2ccccc82-c8a9-4c3b-909d-52c0bf697aa3"},"vehicle_type_id":"4","last_reported":1751376420,"current_range_meters":0,"station_id":"","pricing_plan_id":"cebpf4jnsgd1na2vs0mg"},{"bike_id":"4e23a522-1745-493d-ba79-2666579155b6","system_id":"levelo_inurba_marseille","lat":43.307948,"lon":5.376486,"is_reserved":false,"is_disabled":true,"rental_uris":{"android":"levelo://app?vid=4e23a522-1745-493d-ba79-2666579155b6","ios":"levelo://app?vid=4e23a522-1745-493d-ba79-2666579155b6"},"vehicle_type_id":"4","last_reported":1751376420,"current_range_meters":0,"station_id":"","pricing_plan_id":"cebpf4jnsgd1na2vs0mg"},{"bike_id":"c9700359-7f1e-4ea5-8eb5-d9c4ea1b8ef7","system_id":"levelo_inurba_marseille","lat":43.2633,"lon":5.37371,"is_reserved":false,"is_disabled":true,"rental_uris":{"android":"levelo://app?vid=c9700359-7f1e-4ea5-8eb5-d9c4ea1b8ef7","ios":"levelo://app?vid=c9700359-7f1e-4ea5-8eb5-d9c4ea1b8ef7"},"vehicle_type_id":"4","last_reported":1751376420,"current_range_meters":0,"station_id":"","pricing_plan_id":"cebpf4jnsgd1na2vs0mg"},{"bike_id":"3035be0e-7c3d-4f7d-a1cb-7a1af59e497b","system_id":"levelo_inurba_marseille","lat":43.29677,"lon":5.36008,"is_reserved":false,"is_disabled":true,"rental_uris":{"android":"levelo://app?vid=3035be0e-7c3d-4f7d-a1cb-7a1af59e497b","ios":"levelo://app?vid=3035be0e-7c3d-4f7d-a1cb-7a1af59e497b"},"vehicle_type_id":"4","last_reported":1751376420,"current_range_meters":0,"station_id":"","pricing_plan_id":"cebpf4jnsgd1na2vs0mg"},{"bike_id":"7c27703b-0c4b-43a4-9420-7a52f6ce68fd","system_id":"levelo_inurba_marseille","lat":43.29303,"lon":5.37464,"is_reserved":false,"is_disabled":true,"rental_uris":{"android":"levelo://app?vid=7c27703b-0c4b-43a4-9420-7a52f6ce68fd","ios":"levelo://app?vid=7c27703b-0c4b-43a4-9420-7a52f6ce68fd"},"vehicle_type_id":"4","last_reported":1751376420,"current_range_meters":0,"station_id":"ce4bgi12rcd13ifvqb70","pricing_plan_id":"cebpf4jnsgd1na2vs0mg"},{"bike_id":"2be9178c-122f-4ddb-a9c5-86630f089b8f","system_id":"levelo_inurba_marseille","lat":43.296662,"lon":5.39573,"is_reserved":false,"is_disabled":true,"rental_uris":{"android":"levelo://app?vid=2be9178c-122f-4ddb-a9c5-86630f089b8f","ios":"levelo://app?vid=2be9178c-122f-4ddb-a9c5-86630f089b8f"},"vehicle_type_id":"4","last_reported":1751376420,"current_range_meters":0,"station_id":"ce4bgup2rcd13ifvqcn0","pricing_plan_id":"cebpf4jnsgd1na2vs0mg"},{"bike_id":"47c54165-4141-4bc0-b83d-d3697137f93d","system_id":"levelo_inurba_marseille","lat":43.30253,"lon":5.40069,"is_reserved":false,"is_disabled":true,"rental_uris":{"android":"levelo://app?vid=47c54165-4141-4bc0-b83d-d3697137f93d","ios":"levelo://app?vid=47c54165-4141-4bc0-b83d-d3697137f93d"},"vehicle_type_id":"4","last_reported":1751376420,"current_range_meters":0,"station_id":"ce4bgvh2rcd13ifvqcs0","pricing_plan_id":"cebpf4jnsgd1na2vs0mg"},{"bike_id":"d96d8a58-67ab-49c0-9549-9b0331f883cb","system_id":"levelo_inurba_marseille","lat":43.30588,"lon":5.39357,"is_reserved":false,"is_disabled":true,"rental_uris":{"android":"levelo://app?vid=d96d8a58-67ab-49c0-9549-9b0331f883cb","ios":"levelo://app?vid=d96d8a58-67ab-49c0-9549-9b0331f883cb"},"vehicle_type_id":"4","last_reported":1751376420,"current_range_meters":0,"station_id":"ce4bh0p2rcd13ifvqd80","pricing_plan_id":"cebpf4jnsgd1na2vs0mg"},{"bike_id":"f3ae1503-3a63-49c1-9ce0-579418112958","system_id":"levelo_inurba_marseille","lat":43.29567,"lon":5.3997,"is_reserved":false,"is_disabled":true,"rental_uris":{"android":"levelo://app?vid=f3ae1503-3a63-49c1-9ce0-579418112958","ios":"levelo://app?vid=f3ae1503-3a63-49c1-9ce0-579418112958"},"vehicle_type_id":"4","last_reported":1751376420,"current_range_meters":0,"station_id":"ce4bh312rcd13ifvqdj0","pricing_plan_id":"cebpf4jnsgd1na2vs0mg"},{"bike_id":"9ffbddd5-da45-477b-a898-10c6c94f1b99","system_id":"levelo_inurba_marseille","lat":43.284793,"lon":5.38416,"is_reserved":false,"is_disabled":true,"rental_uris":{"android":"levelo://app?vid=9ffbddd5-da45-477b-a898-10c6c94f1b99","ios":"levelo://app?vid=9ffbddd5-da45-477b-a898-10c6c94f1b99"},"vehicle_type_id":"4","last_reported":1751376420,"current_range_meters":0,"station_id":"ce4bh512rcd13ifvqe3g","pricing_plan_id":"cebpf4jnsgd1na2vs0mg"},{"bike_id":"994dd081-f238-42ae-abac-6d0c99cc8ee3","system_id":"levelo_inurba_marseille","lat":43.29038,"lon":5.37553,"is_reserved":false,"is_disabled":true,"rental_uris":{"android":"levelo://app?vid=994dd081-f238-42ae-abac-6d0c99cc8ee3","ios":"levelo://app?vid=994dd081-f238-42ae-abac-6d0c99cc8ee3"},"vehicle_type_id":"4","last_reported":1751376420,"current_range_meters":0,"station_id":"ce4bh692rcd13ifvqe90","pricing_plan_id":"cebpf4jnsgd1na2vs0mg"},{"bike_id":"bb99217f-b54c-44c9-b007-c7f9996fde08","system_id":"levelo_inurba_marseille","lat":43.28846,"lon":5.35849,"is_reserved":false,"is_disabled":true,"rental_uris":{"android":"levelo://app?vid=bb99217f-b54c-44c9-b007-c7f9996fde08","ios":"levelo://app?vid=bb99217f-b54c-44c9-b007-c7f9996fde08"},"vehicle_type_id":"4","last_reported":1751376420,"current_range_meters":0,"station_id":"ce4bhb12rcd13ifvqem0","pricing_plan_id":"cebpf4jnsgd1na2vs0mg"},{"bike_id":"ca39587a-4daf-4a38-899f-a6cc5202eaa0","system_id":"levelo_inurba_marseille","lat":43.28255,"lon":5.35101,"is_reserved":false,"is_disabled":true,"rental_uris":{"android":"levelo://app?vid=ca39587a-4daf-4a38-899f-a6cc5202eaa0","ios":"levelo://app?vid=ca39587a-4daf-4a38-899f-a6cc5202eaa0"},"vehicle_type_id":"4","last_reported":1751376420,"current_range_meters":0,"station_id":"ce4bhbp2rcd13ifvqerg","pricing_plan_id":"cebpf4jnsgd1na2vs0mg"},{"bike_id":"8ac81312-ea27-41fc-a939-0b2c12c827a4","system_id":"levelo_inurba_marseille","lat":43.28261,"lon":5.35061,"is_reserved":false,"is_disabled":true,"rental_uris":{"android":"levelo://app?vid=8ac81312-ea27-41fc-a939-0b2c12c827a4","ios":"levelo://app?vid=8ac81312-ea27-41fc-a939-0b2c12c827a4"},"vehicle_type_id":"4","last_reported":1751376420,"current_range_meters":0,"station_id":"ce4bhbp2rcd13ifvqerg","pricing_plan_id":"cebpf4jnsgd1na2vs0mg"},{"bike_id":"1d267972-6da7-4ccd-8062-105d9e954377","system_id":"levelo_inurba_marseille","lat":43.28614,"lon":5.35111,"is_reserved":false,"is_disabled":true,"rental_uris":{"android":"levelo://app?vid=1d267972-6da7-4ccd-8062-105d9e954377","ios":"levelo://app?vid=1d267972-6da7-4ccd-8062-105d9e954377"},"vehicle_type_id":"4","last_reported":1751376420,"current_range_meters":0,"station_id":"ce4bhch2rcd13ifvqeug","pricing_plan_id":"cebpf4jnsgd1na2vs0mg"},{"bike_id":"15055bb9-69f1-4bc1-83e5-48f8546df35f","system_id":"levelo_inurba_marseille","lat":43.25467,"lon":5.37541,"is_reserved":false,"is_disabled":true,"rental_uris":{"android":"levelo://app?vid=15055bb9-69f1-4bc1-83e5-48f8546df35f","ios":"levelo://app?vid=15055bb9-69f1-4bc1-83e5-48f8546df35f"},"vehicle_type_id":"4","last_reported":1751376420,"current_range_meters":0,"station_id":"ce4bhh12rcd13ifvqff0","pricing_plan_id":"cebpf4jnsgd1na2vs0mg"},{"bike_id":"816f05e8-ec23-4bf5-86cb-a39286c04e0e","system_id":"levelo_inurba_marseille","lat":43.24411,"lon":5.37043,"is_reserved":false,"is_disabled":true,"rental_uris":{"android":"levelo://app?vid=816f05e8-ec23-4bf5-86cb-a39286c04e0e","ios":"levelo://app?vid=816f05e8-ec23-4bf5-86cb-a39286c04e0e"},"vehicle_type_id":"4","last_reported":1751376420,"current_range_meters":0,"station_id":"ce4bhhh2rcd13ifvqfk0","pricing_plan_id":"cebpf4jnsgd1na2vs0mg"},{"bike_id":"37552715-d29e-4f5b-b79d-967e2fbfdfe3","system_id":"levelo_inurba_marseille","lat":43.23114,"lon":5.43699,"is_reserved":false,"is_disabled":true,"rental_uris":{"android":"levelo://app?vid=37552715-d29e-4f5b-b79d-967e2fbfdfe3","ios":"levelo://app?vid=37552715-d29e-4f5b-b79d-967e2fbfdfe3"},"vehicle_type_id":"4","last_reported":1751376420,"current_range_meters":0,"station_id":"ce4bhmp2rcd13ifvqgog","pricing_plan_id":"cebpf4jnsgd1na2vs0mg"},{"bike_id":"7c617506-95d5-4b87-8210-9fb58a8633f5","system_id":"levelo_inurba_marseille","lat":43.23153,"lon":5.43739,"is_reserved":false,"is_disabled":true,"rental_uris":{"android":"levelo://app?vid=7c617506-95d5-4b87-8210-9fb58a8633f5","ios":"levelo://app?vid=7c617506-95d5-4b87-8210-9fb58a8633f5"},"vehicle_type_id":"4","last_reported":1751376420,"current_range_meters":0,"station_id":"ce4bhmp2rcd13ifvqgog","pricing_plan_id":"cebpf4jnsgd1na2vs0mg"},{"bike_id":"4a78cc22-d633-46fc-9314-a51aa464cdd5","system_id":"levelo_inurba_marseille","lat":43.23191,"lon":5.39978,"is_reserved":false,"is_disabled":true,"rental_uris":{"android":"levelo://app?vid=4a78cc22-d633-46fc-9314-a51aa464cdd5","ios":"levelo://app?vid=4a78cc22-d633-46fc-9314-a51aa464cdd5"},"vehicle_type_id":"4","last_reported":1751376420,"current_range_meters":0,"station_id":"ce4bhn12rcd13ifvqgqg","pricing_plan_id":"cebpf4jnsgd1na2vs0mg"},{"bike_id":"fef598a8-1773-4f6b-b1b5-c047abf388a6","system_id":"levelo_inurba_marseille","lat":43.30422,"lon":5.41317,"is_reserved":false,"is_disabled":true,"rental_uris":{"android":"levelo://app?vid=fef598a8-1773-4f6b-b1b5-c047abf388a6","ios":"levelo://app?vid=fef598a8-1773-4f6b-b1b5-c047abf388a6"},"vehicle_type_id":"4","last_reported":1751376420,"current_range_meters":0,"station_id":"ce4bhop2rcd13ifvqh8g","pricing_plan_id":"cebpf4jnsgd1na2vs0mg"},{"bike_id":"64b1279f-0d7b-40eb-8449-37e325debd41","system_id":"levelo_inurba_marseille","lat":43.23194,"lon":5.3555,"is_reserved":false,"is_disabled":true,"rental_uris":{"android":"levelo://app?vid=64b1279f-0d7b-40eb-8449-37e325debd41","ios":"levelo://app?vid=64b1279f-0d7b-40eb-8449-37e325debd41"},"vehicle_type_id":"4","last_reported":1751376420,"current_range_meters":0,"station_id":"ce4bhu92rcd13ifvqi70","pricing_plan_id":"cebpf4jnsgd1na2vs0mg"},{"bike_id":"46ed2b9f-1912-466e-b039-bc4b03b9c281","system_id":"levelo_inurba_marseille","lat":43.23769,"lon":5.36179,"is_reserved":false,"is_disabled":true,"rental_uris":{"android":"levelo://app?vid=46ed2b9f-1912-466e-b039-bc4b03b9c281","ios":"levelo://app?vid=46ed2b9f-1912-466e-b039-bc4b03b9c281"},"vehicle_type_id":"4","last_reported":1751376420,"current_range_meters":800,"station_id":"","pricing_plan_id":"cebpf4jnsgd1na2vs0mg"},{"bike_id":"a2e408a0-3023-4ca2-8851-775812262359","system_id":"levelo_inurba_marseille","lat":43.27434,"lon":5.39396,"is_reserved":false,"is_disabled":true,"rental_uris":{"android":"levelo://app?vid=a2e408a0-3023-4ca2-8851-775812262359","ios":"levelo://app?vid=a2e408a0-3023-4ca2-8851-775812262359"},"vehicle_type_id":"4","last_reported":1751376420,"current_range_meters":800,"station_id":"ce4bhdp2rcd13ifvqf20","pricing_plan_id":"cebpf4jnsgd1na2vs0mg"},{"bike_id":"7fdc6017-dbfc-45d9-9537-0b0584cdb24a","system_id":"levelo_inurba_marseille","lat":43.23962,"lon":5.36626,"is_reserved":false,"is_disabled":true,"rental_uris":{"android":"levelo://app?vid=7fdc6017-dbfc-45d9-9537-0b0584cdb24a","ios":"levelo://app?vid=7fdc6017-dbfc-45d9-9537-0b0584cdb24a"},"vehicle_type_id":"4","last_reported":1751376420,"current_range_meters":800,"station_id":"ce4bhi12rcd13ifvqfp0","pricing_plan_id":"cebpf4jnsgd1na2vs0mg"},{"bike_id":"f3bb54e5-5710-469b-95d1-519f2df26e28","system_id":"levelo_inurba_marseille","lat":43.30262,"lon":5.38184,"is_reserved":false,"is_disabled":true,"rental_uris":{"android":"levelo://app?vid=f3bb54e5-5710-469b-95d1-519f2df26e28","ios":"levelo://app?vid=f3bb54e5-5710-469b-95d1-519f2df26e28"},"vehicle_type_id":"4","last_reported":1751376420,"current_range_meters":1200,"station_id":"","pricing_plan_id":"cebpf4jnsgd1na2vs0mg"},{"bike_id":"995d61a1-ac24-4f55-a372-3063ccf9e5fb","system_id":"levelo_inurba_marseille","lat":43.297668,"lon":5.381202,"is_reserved":false,"is_disabled":true,"rental_uris":{"android":"levelo://app?vid=995d61a1-ac24-4f55-a372-3063ccf9e5fb","ios":"levelo://app?vid=995d61a1-ac24-4f55-a372-3063ccf9e5fb"},"vehicle_type_id":"4","last_reported":1751376420,"current_range_meters":1200,"station_id":"ce4bgip2rcd13ifvqbb0","pricing_plan_id":"cebpf4jnsgd1na2vs0mg"},{"bike_id":"aacf0286-b8b3-4dcc-99df-3c0d92efa356","system_id":"levelo_inurba_marseille","lat":43.25119,"lon":5.39906,"is_reserved":false,"is_disabled":true,"rental_uris":{"android":"levelo://app?vid=aacf0286-b8b3-4dcc-99df-3c0d92efa356","ios":"levelo://app?vid=aacf0286-b8b3-4dcc-99df-3c0d92efa356"},"vehicle_type_id":"4","last_reported":1751376420,"current_range_meters":1600,"station_id":"","pricing_plan_id":"cebpf4jnsgd1na2vs0mg"},{"bike_id":"b4b1dcec-0ab6-465c-8584-9eca087cb02d","system_id":"levelo_inurba_marseille","lat":43.30306,"lon":5.36893,"is_reserved":false,"is_disabled":true,"rental_uris":{"android":"levelo://app?vid=b4b1dcec-0ab6-465c-8584-9eca087cb02d","ios":"levelo://app?vid=b4b1dcec-0ab6-465c-8584-9eca087cb02d"},"vehicle_type_id":"4","last_reported":1751376420,"current_range_meters":1600,"station_id":"ce4bgqh2rcd13ifvqc5g","pricing_plan_id":"cebpf4jnsgd1na2vs0mg"},{"bike_id":"fa73f5a0-0b67-4f78-bb31-5def4f2ff7c9","system_id":"levelo_inurba_marseille","lat":43.2842,"lon":5.37514,"is_reserved":false,"is_disabled":true,"rental_uris":{"android":"levelo://app?vid=fa73f5a0-0b67-4f78-bb31-5def4f2ff7c9","ios":"levelo://app?vid=fa73f5a0-0b67-4f78-bb31-5def4f2ff7c9"},"vehicle_type_id":"4","last_reported":1751376420,"current_range_meters":1600,"station_id":"ce4bh412rcd13ifvqds0","pricing_plan_id":"cebpf4jnsgd1na2vs0mg"},{"bike_id":"be9eef68-c17e-4a86-8f25-9b6d6e4e86d3","system_id":"levelo_inurba_marseille","lat":43.29581,"lon":5.37524,"is_reserved":false,"is_disabled":true,"rental_uris":{"android":"levelo://app?vid=be9eef68-c17e-4a86-8f25-9b6d6e4e86d3","ios":"levelo://app?vid=be9eef68-c17e-4a86-8f25-9b6d6e4e86d3"},"vehicle_type_id":"4","last_reported":1751376420,"current_range_meters":2000,"station_id":"ce4bgh92rcd13ifvqb50","pricing_plan_id":"cebpf4jnsgd1na2vs0mg"},{"bike_id":"6346854d-967c-470e-9bcf-0ee9cbb31745","system_id":"levelo_inurba_marseille","lat":43.26929,"lon":5.41993,"is_reserved":false,"is_disabled":false,"rental_uris":{"android":"levelo://app?vid=6346854d-967c-470e-9bcf-0ee9cbb31745","ios":"levelo://app?vid=6346854d-967c-470e-9bcf-0ee9cbb31745"},"vehicle_type_id":"4","last_reported":1751376420,"current_range_meters":2800,"station_id":"","pricing_plan_id":"cebpf4jnsgd1na2vs0mg"},{"bike_id":"a22c2ad0-3f62-440c-8f11-12082a1c07f6","system_id":"levelo_inurba_marseille","lat":43.2953,"lon":5.37504,"is_reserved":false,"is_disabled":false,"rental_uris":{"android":"levelo://app?vid=a22c2ad0-3f62-440c-8f11-12082a1c07f6","ios":"levelo://app?vid=a22c2ad0-3f62-440c-8f11-12082a1c07f6"},"vehicle_type_id":"4","last_reported":1751376420,"current_range_meters":2800,"station_id":"ce4bgkp2rcd13ifvqbmg","pricing_plan_id":"cebpf4jnsgd1na2vs0mg"},{"bike_id":"e583867d-c0ce-4bd2-89f5-7dff4a5dd0ae","system_id":"levelo_inurba_marseille","lat":43.29037,"lon":5.38656,"is_reserved":false,"is_disabled":false,"rental_uris":{"android":"levelo://app?vid=e583867d-c0ce-4bd2-89f5-7dff4a5dd0ae","ios":"levelo://app?vid=e583867d-c0ce-4bd2-89f5-7dff4a5dd0ae"},"vehicle_type_id":"4","last_reported":1751376420,"current_range_meters":2800,"station_id":"ce4bh4p2rcd13ifvqe0g","pricing_plan_id":"cebpf4jnsgd1na2vs0mg"},{"bike_id":"76379fc0-2e50-467a-b027-334355c06846","system_id":"levelo_inurba_marseille","lat":43.28626,"lon":5.35106,"is_reserved":false,"is_disabled":false,"rental_uris":{"android":"levelo://app?vid=76379fc0-2e50-467a-b027-334355c06846","ios":"levelo://app?vid=76379fc0-2e50-467a-b027-334355c06846"},"vehicle_type_id":"4","last_reported":1751376420,"current_range_meters":2800,"station_id":"ce4bhch2rcd13ifvqeug","pricing_plan_id":"cebpf4jnsgd1na2vs0mg"},{"bike_id":"7f97088d-e474-4ed8-940b-bc4e90b6c422","system_id":"levelo_inurba_marseille","lat":43.28152,"lon":5.42648,"is_reserved":false,"is_disabled":false,"rental_uris":{"android":"levelo://app?vid=7f97088d-e474-4ed8-940b-bc4e90b6c422","ios":"levelo://app?vid=7f97088d-e474-4ed8-940b-bc4e90b6c422"},"vehicle_type_id":"4","last_reported":1751376420,"current_range_meters":2800,"station_id":"ce4bhnh2rcd13ifvqgug","pricing_plan_id":"cebpf4jnsgd1na2vs0mg"},{"bike_id":"2066e932-3005-4aee-a3b5-537d831c96d3","system_id":"levelo_inurba_marseille","lat":43.243909,"lon":5.370665,"is_reserved":false,"is_disabled":false,"rental_uris":{"android":"levelo://app?vid=2066e932-3005-4aee-a3b5-537d831c96d3","ios":"levelo://app?vid=2066e932-3005-4aee-a3b5-537d831c96d3"},"vehicle_type_id":"4","last_reported":1751376420,"current_range_meters":3200,"station_id":"","pricing_plan_id":"cebpf4jnsgd1na2vs0mg"},{"bike_id":"7547e1e4-2d85-4907-971d-6c8e5c4cb529","system_id":"levelo_inurba_marseille","lat":43.25367,"lon":5.375095,"is_reserved":false,"is_disabled":false,"rental_uris":{"android":"levelo://app?vid=7547e1e4-2d85-4907-971d-6c8e5c4cb529","ios":"levelo://app?vid=7547e1e4-2d85-4907-971d-6c8e5c4cb529"},"vehicle_type_id":"4","last_reported":1751376420,"current_range_meters":3200,"station_id":"","pricing_plan_id":"cebpf4jnsgd1na2vs0mg"},{"bike_id":"789032cd-0172-49d3-9ccf-ed3d54bea1d9","system_id":"levelo_inurba_marseille","lat":43.29534,"lon":5.38547,"is_reserved":false,"is_disabled":false,"rental_uris":{"android":"levelo://app?vid=789032cd-0172-49d3-9ccf-ed3d54bea1d9","ios":"levelo://app?vid=789032cd-0172-49d3-9ccf-ed3d54bea1d9"},"vehicle_type_id":"4","last_reported":1751376420,"current_range_meters":3200,"station_id":"ce4bgih2rcd13ifvqba0","pricing_plan_id":"cebpf4jnsgd1na2vs0mg"},{"bike_id":"10dcffeb-a626-43e2-a80d-b834a0f8cb6e","system_id":"levelo_inurba_marseille","lat":43.27369,"lon":5.36255,"is_reserved":false,"is_disabled":false,"rental_uris":{"android":"levelo://app?vid=10dcffeb-a626-43e2-a80d-b834a0f8cb6e","ios":"levelo://app?vid=10dcffeb-a626-43e2-a80d-b834a0f8cb6e"},"vehicle_type_id":"4","last_reported":1751376420,"current_range_meters":3200,"station_id":"ce4bhbh2rcd13ifvqeo0","pricing_plan_id":"cebpf4jnsgd1na2vs0mg"},{"bike_id":"f9d7b080-0e2d-4d16-8524-f20f64f5d68f","system_id":"levelo_inurba_marseille","lat":43.26552,"lon":5.3732,"is_reserved":false,"is_disabled":false,"rental_uris":{"android":"levelo://app?vid=f9d7b080-0e2d-4d16-8524-f20f64f5d68f","ios":"levelo://app?vid=f9d7b080-0e2d-4d16-8524-f20f64f5d68f"},"vehicle_type_id":"4","last_reported":1751376420,"current_range_meters":3200,"station_id":"ce4bhg12rcd13ifvqf70","pricing_plan_id":"cebpf4jnsgd1na2vs0mg"},{"bike_id":"9c188145-649d-456e-916a-4c9facfeb93a","system_id":"levelo_inurba_marseille","lat":43.265563,"lon":5.372767,"is_reserved":false,"is_disabled":false,"rental_uris":{"android":"levelo://app?vid=9c188145-649d-456e-916a-4c9facfeb93a","ios":"levelo://app?vid=9c188145-649d-456e-916a-4c9facfeb93a"},"vehicle_type_id":"4","last_reported":1751376420,"current_range_meters":3200,"station_id":"ce4bhg12rcd13ifvqf70","pricing_plan_id":"cebpf4jnsgd1na2vs0mg"},{"bike_id":"e5a91c12-a9d1-463a-8abe-d0dd37cf3197","system_id":"levelo_inurba_marseille","lat":43.29804,"lon":5.37751,"is_reserved":false,"is_disabled":false,"rental_uris":{"android":"levelo://app?vid=e5a91c12-a9d1-463a-8abe-d0dd37cf3197","ios":"levelo://app?vid=e5a91c12-a9d1-463a-8abe-d0dd37cf3197"},"vehicle_type_id":"4","last_reported":1751376420,"current_range_meters":3600,"station_id":"","pricing_plan_id":"cebpf4jnsgd1na2vs0mg"},{"bike_id":"eefe716a-08fc-4a36-ac2a-8a44dd66b893","system_id":"levelo_inurba_marseille","lat":43.301369,"lon":5.387771,"is_reserved":false,"is_disabled":false,"rental_uris":{"android":"levelo://app?vid=eefe716a-08fc-4a36-ac2a-8a44dd66b893","ios":"levelo://app?vid=eefe716a-08fc-4a36-ac2a-8a44dd66b893"},"vehicle_type_id":"4","last_reported":1751376420,"current_range_meters":3600,"station_id":"ce4bghh2rcd13ifvqb60","pricing_plan_id":"cebpf4jnsgd1na2vs0mg"},{"bike_id":"3307596f-953e-4f28-b4f7-d39f7e1377da","system_id":"levelo_inurba_marseille","lat":43.27618,"lon":5.36109,"is_reserved":false,"is_disabled":false,"rental_uris":{"android":"levelo://app?vid=3307596f-953e-4f28-b4f7-d39f7e1377da","ios":"levelo://app?vid=3307596f-953e-4f28-b4f7-d39f7e1377da"},"vehicle_type_id":"4","last_reported":1751376420,"current_range_meters":3600,"station_id":"ce4bgj92rcd13ifvqbe0","pricing_plan_id":"cebpf4jnsgd1na2vs0mg"},{"bike_id":"cbecfc24-5ce4-44d2-bcdb-8ced60de9d6d","system_id":"levelo_inurba_marseille","lat":43.24181,"lon":5.39753,"is_reserved":false,"is_disabled":false,"rental_uris":{"android":"levelo://app?vid=cbecfc24-5ce4-44d2-bcdb-8ced60de9d6d","ios":"levelo://app?vid=cbecfc24-5ce4-44d2-bcdb-8ced60de9d6d"},"vehicle_type_id":"4","last_reported":1751376420,"current_range_meters":4000,"station_id":"ce4bhn12rcd13ifvqgpg","pricing_plan_id":"cebpf4jnsgd1na2vs0mg"},{"bike_id":"0300d523-ea52-4f9b-bd46-a508cab90411","system_id":"levelo_inurba_marseille","lat":43.289368,"lon":5.363872,"is_reserved":false,"is_disabled":false,"rental_uris":{"android":"levelo://app?vid=0300d523-ea52-4f9b-bd46-a508cab90411","ios":"levelo://app?vid=0300d523-ea52-4f9b-bd46-a508cab90411"},"vehicle_type_id":"4","last_reported":1751376420,"current_range_meters":4400,"station_id":"ce4bhc92rcd13ifvqetg","pricing_plan_id":"cebpf4jnsgd1na2vs0mg"},{"bike_id":"83a6c937-3dc8-4b5c-8afc-d9169c2d30ea","system_id":"levelo_inurba_marseille","lat":43.2981,"lon":5.381,"is_reserved":false,"is_disabled":false,"rental_uris":{"android":"levelo://app?vid=83a6c937-3dc8-4b5c-8afc-d9169c2d30ea","ios":"levelo://app?vid=83a6c937-3dc8-4b5c-8afc-d9169c2d30ea"},"vehicle_type_id":"4","last_reported":1751376420,"current_range_meters":4800,"station_id":"ce4bgip2rcd13ifvqbb0","pricing_plan_id":"cebpf4jnsgd1na2vs0mg"},{"bike_id":"56f07c3d-b838-4baa-a7bf-3a876ea4cb66","system_id":"levelo_inurba_marseille","lat":43.2901,"lon":5.38133,"is_reserved":false,"is_disabled":false,"rental_uris":{"android":"levelo://app?vid=56f07c3d-b838-4baa-a7bf-3a876ea4cb66","ios":"levelo://app?vid=56f07c3d-b838-4baa-a7bf-3a876ea4cb66"},"vehicle_type_id":"4","last_reported":1751376420,"current_range_meters":4800,"station_id":"ce4bh4p2rcd13ifvqe1g","pricing_plan_id":"cebpf4jnsgd1na2vs0mg"},{"bike_id":"be8827f9-95a7-47e1-8b6d-6121c8f43f1c","system_id":"levelo_inurba_marseille","lat":43.28461,"lon":5.35889,"is_reserved":false,"is_disabled":false,"rental_uris":{"android":"levelo://app?vid=be8827f9-95a7-47e1-8b6d-6121c8f43f1c","ios":"levelo://app?vid=be8827f9-95a7-47e1-8b6d-6121c8f43f1c"},"vehicle_type_id":"4","last_reported":1751376420,"current_range_meters":4800,"station_id":"ce4bhah2rcd13ifvqei0","pricing_plan_id":"cebpf4jnsgd1na2vs0mg"},{"bike_id":"51d2477f-d675-4d7c-a47c-28c4b8ef66ac","system_id":"levelo_inurba_marseille","lat":43.25575,"lon":5.38228,"is_reserved":false,"is_disabled":false,"rental_uris":{"android":"levelo://app?vid=51d2477f-d675-4d7c-a47c-28c4b8ef66ac","ios":"levelo://app?vid=51d2477f-d675-4d7c-a47c-28c4b8ef66ac"},"vehicle_type_id":"4","last_reported":1751376420,"current_range_meters":4800,"station_id":"ce4bhih2rcd13ifvqfs0","pricing_plan_id":"cebpf4jnsgd1na2vs0mg"},{"bike_id":"48fc887c-14a6-4c3f-ae4a-e5be89e1bf90","system_id":"levelo_inurba_marseille","lat":43.28269,"lon":5.3508,"is_reserved":false,"is_disabled":false,"rental_uris":{"android":"levelo://app?vid=48fc887c-14a6-4c3f-ae4a-e5be89e1bf90","ios":"levelo://app?vid=48fc887c-14a6-4c3f-ae4a-e5be89e1bf90"},"vehicle_type_id":"4","last_reported":1751376420,"current_range_meters":5600,"station_id":"ce4bhbp2rcd13ifvqerg","pricing_plan_id":"cebpf4jnsgd1na2vs0mg"},{"bike_id":"8aa8d3ec-3a93-426a-a4eb-65bfb8875fbc","system_id":"levelo_inurba_marseille","lat":43.26803,"lon":5.3941,"is_reserved":false,"is_disabled":false,"rental_uris":{"android":"levelo://app?vid=8aa8d3ec-3a93-426a-a4eb-65bfb8875fbc","ios":"levelo://app?vid=8aa8d3ec-3a93-426a-a4eb-65bfb8875fbc"},"vehicle_type_id":"4","last_reported":1751376420,"current_range_meters":5600,"station_id":"ce4bhh12rcd13ifvqfg0","pricing_plan_id":"cebpf4jnsgd1na2vs0mg"},{"bike_id":"6c018267-f9c0-4596-918c-03e4e3ec6849","system_id":"levelo_inurba_marseille","lat":43.258883,"lon":5.398843,"is_reserved":false,"is_disabled":false,"rental_uris":{"android":"levelo://app?vid=6c018267-f9c0-4596-918c-03e4e3ec6849","ios":"levelo://app?vid=6c018267-f9c0-4596-918c-03e4e3ec6849"},"vehicle_type_id":"4","last_reported":1751376420,"current_range_meters":5600,"station_id":"ce4bhl92rcd13ifvqghg","pricing_plan_id":"cebpf4jnsgd1na2vs0mg"},{"bike_id":"7f626dcb-d15c-4062-90ea-e96e5a2d31ac","system_id":"levelo_inurba_marseille","lat":43.25925,"lon":5.40891,"is_reserved":false,"is_disabled":false,"rental_uris":{"android":"levelo://app?vid=7f626dcb-d15c-4062-90ea-e96e5a2d31ac","ios":"levelo://app?vid=7f626dcb-d15c-4062-90ea-e96e5a2d31ac"},"vehicle_type_id":"4","last_reported":1751376420,"current_range_meters":5600,"station_id":"ce4bhm92rcd13ifvqglg","pricing_plan_id":"cebpf4jnsgd1na2vs0mg"},{"bike_id":"371eda42-418f-4feb-8ef3-59c807caee57","system_id":"levelo_inurba_marseille","lat":43.31718,"lon":5.42405,"is_reserved":false,"is_disabled":false,"rental_uris":{"android":"levelo://app?vid=371eda42-418f-4feb-8ef3-59c807caee57","ios":"levelo://app?vid=371eda42-418f-4feb-8ef3-59c807caee57"},"vehicle_type_id":"4","last_reported":1751376420,"current_range_meters":5600,"station_id":"ce4bhp92rcd13ifvqhbg","pricing_plan_id":"cebpf4jnsgd1na2vs0mg"},{"bike_id":"162af4e6-d224-4240-aeac-6cb0ae06de53","system_id":"levelo_inurba_marseille","lat":43.29923,"lon":5.3786,"is_reserved":false,"is_disabled":false,"rental_uris":{"android":"levelo://app?vid=162af4e6-d224-4240-aeac-6cb0ae06de53","ios":"levelo://app?vid=162af4e6-d224-4240-aeac-6cb0ae06de53"},"vehicle_type_id":"4","last_reported":1751376420,"current_range_meters":6000,"station_id":"","pricing_plan_id":"cebpf4jnsgd1na2vs0mg"},{"bike_id":"c820fde0-17dc-42f7-ae34-c8529c3d09d9","system_id":"levelo_inurba_marseille","lat":43.29562,"lon":5.37525,"is_reserved":false,"is_disabled":false,"rental_uris":{"android":"levelo://app?vid=c820fde0-17dc-42f7-ae34-c8529c3d09d9","ios":"levelo://app?vid=c820fde0-17dc-42f7-ae34-c8529c3d09d9"},"vehicle_type_id":"4","last_reported":1751376420,"current_range_meters":6000,"station_id":"ce4bgh92rcd13ifvqb50","pricing_plan_id":"cebpf4jnsgd1na2vs0mg"},{"bike_id":"0229f2bd-7f12-4d1e-ba06-317ff465ba11","system_id":"levelo_inurba_marseille","lat":43.27373,"lon":5.36251,"is_reserved":false,"is_disabled":false,"rental_uris":{"android":"levelo://app?vid=0229f2bd-7f12-4d1e-ba06-317ff465ba11","ios":"levelo://app?vid=0229f2bd-7f12-4d1e-ba06-317ff465ba11"},"vehicle_type_id":"4","last_reported":1751376420,"current_range_meters":6000,"station_id":"ce4bhbh2rcd13ifvqeo0","pricing_plan_id":"cebpf4jnsgd1na2vs0mg"},{"bike_id":"c1485a96-b120-4142-86ff-f25bfe6c9f04","system_id":"levelo_inurba_marseille","lat":43.273715,"lon":5.362587,"is_reserved":false,"is_disabled":false,"rental_uris":{"android":"levelo://app?vid=c1485a96-b120-4142-86ff-f25bfe6c9f04","ios":"levelo://app?vid=c1485a96-b120-4142-86ff-f25bfe6c9f04"},"vehicle_type_id":"4","last_reported":1751376420,"current_range_meters":6000,"station_id":"ce4bhbh2rcd13ifvqeo0","pricing_plan_id":"cebpf4jnsgd1na2vs0mg"},{"bike_id":"2dfdd899-96d0-493e-aa03-b146a6ba8a6f","system_id":"levelo_inurba_marseille","lat":43.26792,"lon":5.39413,"is_reserved":false,"is_disabled":false,"rental_uris":{"android":"levelo://app?vid=2dfdd899-96d0-493e-aa03-b146a6ba8a6f","ios":"levelo://app?vid=2dfdd899-96d0-493e-aa03-b146a6ba8a6f"},"vehicle_type_id":"4","last_reported":1751376420,"current_range_meters":6000,"station_id":"ce4bhh12rcd13ifvqfg0","pricing_plan_id":"cebpf4jnsgd1na2vs0mg"},{"bike_id":"f6b6d6fb-a1dc-45e9-b6d3-6382d0efce67","system_id":"levelo_inurba_marseille","lat":43.2512,"lon":5.40315,"is_reserved":false,"is_disabled":false,"rental_uris":{"android":"levelo://app?vid=f6b6d6fb-a1dc-45e9-b6d3-6382d0efce67","ios":"levelo://app?vid=f6b6d6fb-a1dc-45e9-b6d3-6382d0efce67"},"vehicle_type_id":"4","last_reported":1751376420,"current_range_meters":6400,"station_id":"ce4bhlh2rcd13ifvqgig","pricing_plan_id":"cebpf4jnsgd1na2vs0mg"},{"bike_id":"fba5abce-2ab8-4f96-a373-ea0b9f5eaef1","system_id":"levelo_inurba_marseille","lat":43.33425,"lon":5.37747,"is_reserved":false,"is_disabled":false,"rental_uris":{"android":"levelo://app?vid=fba5abce-2ab8-4f96-a373-ea0b9f5eaef1","ios":"levelo://app?vid=fba5abce-2ab8-4f96-a373-ea0b9f5eaef1"},"vehicle_type_id":"4","last_reported":1751376420,"current_range_meters":6800,"station_id":"","pricing_plan_id":"cebpf4jnsgd1na2vs0mg"},{"bike_id":"fdd918fa-8111-47d4-bc65-163e4612b715","system_id":"levelo_inurba_marseille","lat":43.29519,"lon":5.37507,"is_reserved":false,"is_disabled":false,"rental_uris":{"android":"levelo://app?vid=fdd918fa-8111-47d4-bc65-163e4612b715","ios":"levelo://app?vid=fdd918fa-8111-47d4-bc65-163e4612b715"},"vehicle_type_id":"4","last_reported":1751376420,"current_range_meters":6800,"station_id":"ce4bgkp2rcd13ifvqbmg","pricing_plan_id":"cebpf4jnsgd1na2vs0mg"},{"bike_id":"1165b7cb-e86e-471a-b3a2-eff31e453346","system_id":"levelo_inurba_marseille","lat":43.30895,"lon":5.36847,"is_reserved":false,"is_disabled":false,"rental_uris":{"android":"levelo://app?vid=1165b7cb-e86e-471a-b3a2-eff31e453346","ios":"levelo://app?vid=1165b7cb-e86e-471a-b3a2-eff31e453346"},"vehicle_type_id":"4","last_reported":1751376420,"current_range_meters":6800,"station_id":"ce4bgn92rcd13ifvqbvg","pricing_plan_id":"cebpf4jnsgd1na2vs0mg"},{"bike_id":"63fb1b87-b5df-4d66-aea3-15b5f54134d7","system_id":"levelo_inurba_marseille","lat":43.31075,"lon":5.38354,"is_reserved":false,"is_disabled":false,"rental_uris":{"android":"levelo://app?vid=63fb1b87-b5df-4d66-aea3-15b5f54134d7","ios":"levelo://app?vid=63fb1b87-b5df-4d66-aea3-15b5f54134d7"},"vehicle_type_id":"4","last_reported":1751376420,"current_range_meters":6800,"station_id":"ce4bgv92rcd13ifvqcr0","pricing_plan_id":"cebpf4jnsgd1na2vs0mg"},{"bike_id":"3be763ee-e007-4ff7-85c1-61bf957c3e2a","system_id":"levelo_inurba_marseille","lat":43.30328,"lon":5.40429,"is_reserved":false,"is_disabled":false,"rental_uris":{"android":"levelo://app?vid=3be763ee-e007-4ff7-85c1-61bf957c3e2a","ios":"levelo://app?vid=3be763ee-e007-4ff7-85c1-61bf957c3e2a"},"vehicle_type_id":"4","last_reported":1751376420,"current_range_meters":6800,"station_id":"ce4bh012rcd13ifvqd10","pricing_plan_id":"cebpf4jnsgd1na2vs0mg"},{"bike_id":"4bf5600a-fa4f-47c3-9301-476710ab6d23","system_id":"levelo_inurba_marseille","lat":43.30644,"lon":5.40094,"is_reserved":false,"is_disabled":false,"rental_uris":{"android":"levelo://app?vid=4bf5600a-fa4f-47c3-9301-476710ab6d23","ios":"levelo://app?vid=4bf5600a-fa4f-47c3-9301-476710ab6d23"},"vehicle_type_id":"4","last_reported":1751376420,"current_range_meters":6800,"station_id":"ce4bh112rcd13ifvqda0","pricing_plan_id":"cebpf4jnsgd1na2vs0mg"},{"bike_id":"9cbf4a91-c8d8-4ccf-b6f7-d6a35cc74acb","system_id":"levelo_inurba_marseille","lat":43.25007,"lon":5.38896,"is_reserved":false,"is_disabled":false,"rental_uris":{"android":"levelo://app?vid=9cbf4a91-c8d8-4ccf-b6f7-d6a35cc74acb","ios":"levelo://app?vid=9cbf4a91-c8d8-4ccf-b6f7-d6a35cc74acb"},"vehicle_type_id":"4","last_reported":1751376420,"current_range_meters":6800,"station_id":"ce4bhgp2rcd13ifvqfd0","pricing_plan_id":"cebpf4jnsgd1na2vs0mg"},{"bike_id":"d184140c-c2ad-4284-84dd-918dfef1301f","system_id":"levelo_inurba_marseille","lat":43.23167,"lon":5.39992,"is_reserved":false,"is_disabled":false,"rental_uris":{"android":"levelo://app?vid=d184140c-c2ad-4284-84dd-918dfef1301f","ios":"levelo://app?vid=d184140c-c2ad-4284-84dd-918dfef1301f"},"vehicle_type_id":"4","last_reported":1751376420,"current_range_meters":6800,"station_id":"ce4bhn12rcd13ifvqgqg","pricing_plan_id":"cebpf4jnsgd1na2vs0mg"},{"bike_id":"eeca0981-6e6b-4cc4-992c-65a8b8bbec4c","system_id":"levelo_inurba_marseille","lat":43.2293,"lon":5.35377,"is_reserved":false,"is_disabled":false,"rental_uris":{"android":"levelo://app?vid=eeca0981-6e6b-4cc4-992c-65a8b8bbec4c","ios":"levelo://app?vid=eeca0981-6e6b-4cc4-992c-65a8b8bbec4c"},"vehicle_type_id":"4","last_reported":1751376420,"current_range_meters":6800,"station_id":"cpo3532slgdg3j2ikp40","pricing_plan_id":"cebpf4jnsgd1na2vs0mg"},{"bike_id":"f5c16f07-bc6f-4121-91a7-5ad90eec4f34","system_id":"levelo_inurba_marseille","lat":43.31184,"lon":5.37288,"is_reserved":false,"is_disabled":false,"rental_uris":{"android":"levelo://app?vid=f5c16f07-bc6f-4121-91a7-5ad90eec4f34","ios":"levelo://app?vid=f5c16f07-bc6f-4121-91a7-5ad90eec4f34"},"vehicle_type_id":"4","last_reported":1751376420,"current_range_meters":7200,"station_id":"","pricing_plan_id":"cebpf4jnsgd1na2vs0mg"},{"bike_id":"abf4e338-69e7-42db-ac2f-892e9c461495","system_id":"levelo_inurba_marseille","lat":43.28271,"lon":5.35078,"is_reserved":false,"is_disabled":false,"rental_uris":{"android":"levelo://app?vid=abf4e338-69e7-42db-ac2f-892e9c461495","ios":"levelo://app?vid=abf4e338-69e7-42db-ac2f-892e9c461495"},"vehicle_type_id":"4","last_reported":1751376420,"current_range_meters":7200,"station_id":"ce4bhbp2rcd13ifvqerg","pricing_plan_id":"cebpf4jnsgd1na2vs0mg"},{"bike_id":"07e9ddb0-98c0-410d-92a1-cdb19b7c6778","system_id":"levelo_inurba_marseille","lat":43.26547,"lon":5.37306,"is_reserved":false,"is_disabled":false,"rental_uris":{"android":"levelo://app?vid=07e9ddb0-98c0-410d-92a1-cdb19b7c6778","ios":"levelo://app?vid=07e9ddb0-98c0-410d-92a1-cdb19b7c6778"},"vehicle_type_id":"4","last_reported":1751376420,"current_range_meters":7200,"station_id":"ce4bhg12rcd13ifvqf70","pricing_plan_id":"cebpf4jnsgd1na2vs0mg"},{"bike_id":"43fcb430-53f7-4349-b49c-62f8e6ea8db4","system_id":"levelo_inurba_marseille","lat":43.284599,"lon":5.436984,"is_reserved":false,"is_disabled":false,"rental_uris":{"android":"levelo://app?vid=43fcb430-53f7-4349-b49c-62f8e6ea8db4","ios":"levelo://app?vid=43fcb430-53f7-4349-b49c-62f8e6ea8db4"},"vehicle_type_id":"4","last_reported":1751376420,"current_range_meters":8000,"station_id":"","pricing_plan_id":"cebpf4jnsgd1na2vs0mg"},{"bike_id":"b05ac08d-847b-4f20-ac36-038a0d69d167","system_id":"levelo_inurba_marseille","lat":43.28128,"lon":5.35851,"is_reserved":false,"is_disabled":false,"rental_uris":{"android":"levelo://app?vid=b05ac08d-847b-4f20-ac36-038a0d69d167","ios":"levelo://app?vid=b05ac08d-847b-4f20-ac36-038a0d69d167"},"vehicle_type_id":"4","last_reported":1751376420,"current_range_meters":8000,"station_id":"","pricing_plan_id":"cebpf4jnsgd1na2vs0mg"},{"bike_id":"238a8eda-a3e2-4879-bc01-340175e896e0","system_id":"levelo_inurba_marseille","lat":43.24552,"lon":5.39563,"is_reserved":false,"is_disabled":false,"rental_uris":{"android":"levelo://app?vid=238a8eda-a3e2-4879-bc01-340175e896e0","ios":"levelo://app?vid=238a8eda-a3e2-4879-bc01-340175e896e0"},"vehicle_type_id":"4","last_reported":1751376420,"current_range_meters":8000,"station_id":"","pricing_plan_id":"cebpf4jnsgd1na2vs0mg"},{"bike_id":"818e4799-6dca-46bf-b713-f495e40f4360","system_id":"levelo_inurba_marseille","lat":43.29914,"lon":5.37466,"is_reserved":false,"is_disabled":false,"rental_uris":{"android":"levelo://app?vid=818e4799-6dca-46bf-b713-f495e40f4360","ios":"levelo://app?vid=818e4799-6dca-46bf-b713-f495e40f4360"},"vehicle_type_id":"4","last_reported":1751376420,"current_range_meters":8000,"station_id":"ce4bgjh2rcd13ifvqbg0","pricing_plan_id":"cebpf4jnsgd1na2vs0mg"},{"bike_id":"4144593b-6f51-46e6-82a3-bef5a304ef2c","system_id":"levelo_inurba_marseille","lat":43.3108,"lon":5.38353,"is_reserved":false,"is_disabled":false,"rental_uris":{"android":"levelo://app?vid=4144593b-6f51-46e6-82a3-bef5a304ef2c","ios":"levelo://app?vid=4144593b-6f51-46e6-82a3-bef5a304ef2c"},"vehicle_type_id":"4","last_reported":1751376420,"current_range_meters":8000,"station_id":"ce4bgv92rcd13ifvqcr0","pricing_plan_id":"cebpf4jnsgd1na2vs0mg"},{"bike_id":"79d28eff-9156-4dff-9607-ea976c5d7880","system_id":"levelo_inurba_marseille","lat":43.28848,"lon":5.39301,"is_reserved":false,"is_disabled":false,"rental_uris":{"android":"levelo://app?vid=79d28eff-9156-4dff-9607-ea976c5d7880","ios":"levelo://app?vid=79d28eff-9156-4dff-9607-ea976c5d7880"},"vehicle_type_id":"4","last_reported":1751376420,"current_range_meters":8000,"station_id":"ce4bh2p2rcd13ifvqdi0","pricing_plan_id":"cebpf4jnsgd1na2vs0mg"},{"bike_id":"4b4201df-dc33-4cd5-b48e-2779dce91b4d","system_id":"levelo_inurba_marseille","lat":43.26062,"lon":5.39395,"is_reserved":false,"is_disabled":false,"rental_uris":{"android":"levelo://app?vid=4b4201df-dc33-4cd5-b48e-2779dce91b4d","ios":"levelo://app?vid=4b4201df-dc33-4cd5-b48e-2779dce91b4d"},"vehicle_type_id":"4","last_reported":1751376420,"current_range_meters":8000,"station_id":"ce4bhh92rcd13ifvqfj0","pricing_plan_id":"cebpf4jnsgd1na2vs0mg"},{"bike_id":"2ae31ea7-45ad-4003-946e-8e58e657184a","system_id":"levelo_inurba_marseille","lat":43.25115,"lon":5.40314,"is_reserved":false,"is_disabled":false,"rental_uris":{"android":"levelo://app?vid=2ae31ea7-45ad-4003-946e-8e58e657184a","ios":"levelo://app?vid=2ae31ea7-45ad-4003-946e-8e58e657184a"},"vehicle_type_id":"4","last_reported":1751376420,"current_range_meters":8000,"station_id":"ce4bhlh2rcd13ifvqgig","pricing_plan_id":"cebpf4jnsgd1na2vs0mg"},{"bike_id":"5694cac2-11df-4b0a-97c2-76276b5832a0","system_id":"levelo_inurba_marseille","lat":43.27344,"lon":5.36251,"is_reserved":false,"is_disabled":false,"rental_uris":{"android":"levelo://app?vid=5694cac2-11df-4b0a-97c2-76276b5832a0","ios":"levelo://app?vid=5694cac2-11df-4b0a-97c2-76276b5832a0"},"vehicle_type_id":"4","last_reported":1751376420,"current_range_meters":8400,"station_id":"ce4bhbh2rcd13ifvqeo0","pricing_plan_id":"cebpf4jnsgd1na2vs0mg"},{"bike_id":"715441c3-abd4-41dc-a1b4-50d7f3ff91f6","system_id":"levelo_inurba_marseille","lat":43.27671,"lon":5.38892,"is_reserved":false,"is_disabled":false,"rental_uris":{"android":"levelo://app?vid=715441c3-abd4-41dc-a1b4-50d7f3ff91f6","ios":"levelo://app?vid=715441c3-abd4-41dc-a1b4-50d7f3ff91f6"},"vehicle_type_id":"4","last_reported":1751376420,"current_range_meters":8400,"station_id":"ce4bhi12rcd13ifvqfo0","pricing_plan_id":"cebpf4jnsgd1na2vs0mg"},{"bike_id":"860ecc02-a6d5-4fbe-ada6-b9197deada15","system_id":"levelo_inurba_marseille","lat":43.325529,"lon":5.389246,"is_reserved":false,"is_disabled":false,"rental_uris":{"android":"levelo://app?vid=860ecc02-a6d5-4fbe-ada6-b9197deada15","ios":"levelo://app?vid=860ecc02-a6d5-4fbe-ada6-b9197deada15"},"vehicle_type_id":"4","last_reported":1751376420,"current_range_meters":9200,"station_id":"","pricing_plan_id":"cebpf4jnsgd1na2vs0mg"},{"bike_id":"aaa86ae1-c78c-464a-bdfd-dbc6011e50c4","system_id":"levelo_inurba_marseille","lat":43.3137,"lon":5.36693,"is_reserved":false,"is_disabled":false,"rental_uris":{"android":"levelo://app?vid=aaa86ae1-c78c-464a-bdfd-dbc6011e50c4","ios":"levelo://app?vid=aaa86ae1-c78c-464a-bdfd-dbc6011e50c4"},"vehicle_type_id":"4","last_reported":1751376420,"current_range_meters":9200,"station_id":"ce4bgr92rcd13ifvqc6g","pricing_plan_id":"cebpf4jnsgd1na2vs0mg"},{"bike_id":"e11ffde0-d953-481d-a3c0-5c7782a8d5be","system_id":"levelo_inurba_marseille","lat":43.280396,"lon":5.369443,"is_reserved":false,"is_disabled":false,"rental_uris":{"android":"levelo://app?vid=e11ffde0-d953-481d-a3c0-5c7782a8d5be","ios":"levelo://app?vid=e11ffde0-d953-481d-a3c0-5c7782a8d5be"},"vehicle_type_id":"4","last_reported":1751376420,"current_range_meters":9200,"station_id":"ce4bha12rcd13ifvqef0","pricing_plan_id":"cebpf4jnsgd1na2vs0mg"},{"bike_id":"39ebdc85-c42f-40ad-ad42-a406b3337dff","system_id":"levelo_inurba_marseille","lat":43.25937,"lon":5.40911,"is_reserved":false,"is_disabled":false,"rental_uris":{"android":"levelo://app?vid=39ebdc85-c42f-40ad-ad42-a406b3337dff","ios":"levelo://app?vid=39ebdc85-c42f-40ad-ad42-a406b3337dff"},"vehicle_type_id":"4","last_reported":1751376420,"current_range_meters":9200,"station_id":"ce4bhm92rcd13ifvqglg","pricing_plan_id":"cebpf4jnsgd1na2vs0mg"},{"bike_id":"8252b44a-d048-4379-9209-2efa2e627825","system_id":"levelo_inurba_marseille","lat":43.2922,"lon":5.40576,"is_reserved":false,"is_disabled":false,"rental_uris":{"android":"levelo://app?vid=8252b44a-d048-4379-9209-2efa2e627825","ios":"levelo://app?vid=8252b44a-d048-4379-9209-2efa2e627825"},"vehicle_type_id":"4","last_reported":1751376420,"current_range_meters":9600,"station_id":"","pricing_plan_id":"cebpf4jnsgd1na2vs0mg"},{"bike_id":"d21431c1-278d-463f-9786-c8bf8996ff03","system_id":"levelo_inurba_marseille","lat":43.30321,"lon":5.36896,"is_reserved":false,"is_disabled":false,"rental_uris":{"android":"levelo://app?vid=d21431c1-278d-463f-9786-c8bf8996ff03","ios":"levelo://app?vid=d21431c1-278d-463f-9786-c8bf8996ff03"},"vehicle_type_id":"4","last_reported":1751376420,"current_range_meters":9600,"station_id":"ce4bgqh2rcd13ifvqc5g","pricing_plan_id":"cebpf4jnsgd1na2vs0mg"},{"bike_id":"6fc7d9da-f033-4c3e-be74-042e325f72cd","system_id":"levelo_inurba_marseille","lat":43.26669,"lon":5.38279,"is_reserved":false,"is_disabled":false,"rental_uris":{"android":"levelo://app?vid=6fc7d9da-f033-4c3e-be74-042e325f72cd","ios":"levelo://app?vid=6fc7d9da-f033-4c3e-be74-042e325f72cd"},"vehicle_type_id":"4","last_reported":1751376420,"current_range_meters":9600,"station_id":"ce4bhg92rcd13ifvqf90","pricing_plan_id":"cebpf4jnsgd1na2vs0mg"},{"bike_id":"a2d75040-288f-4e7b-b239-19a85a43d967","system_id":"levelo_inurba_marseille","lat":43.2466,"lon":5.38166,"is_reserved":false,"is_disabled":false,"rental_uris":{"android":"levelo://app?vid=a2d75040-288f-4e7b-b239-19a85a43d967","ios":"levelo://app?vid=a2d75040-288f-4e7b-b239-19a85a43d967"},"vehicle_type_id":"4","last_reported":1751376420,"current_range_meters":9600,"station_id":"ce4bhih2rcd13ifvqfr0","pricing_plan_id":"cebpf4jnsgd1na2vs0mg"},{"bike_id":"6b04a8db-f012-4ea9-88f5-d59ff3f24fd9","system_id":"levelo_inurba_marseille","lat":43.299013,"lon":5.436584,"is_reserved":false,"is_disabled":false,"rental_uris":{"android":"levelo://app?vid=6b04a8db-f012-4ea9-88f5-d59ff3f24fd9","ios":"levelo://app?vid=6b04a8db-f012-4ea9-88f5-d59ff3f24fd9"},"vehicle_type_id":"4","last_reported":1751376420,"current_range_meters":9600,"station_id":"ce4bhpp2rcd13ifvqhfg","pricing_plan_id":"cebpf4jnsgd1na2vs0mg"},{"bike_id":"3a33ebd2-49a2-4e39-92d7-f09d7dd08672","system_id":"levelo_inurba_marseille","lat":43.21736,"lon":5.34592,"is_reserved":false,"is_disabled":false,"rental_uris":{"android":"levelo://app?vid=3a33ebd2-49a2-4e39-92d7-f09d7dd08672","ios":"levelo://app?vid=3a33ebd2-49a2-4e39-92d7-f09d7dd08672"},"vehicle_type_id":"4","last_reported":1751376420,"current_range_meters":9600,"station_id":"st_cvj6r9ubvosntc0bgbag","pricing_plan_id":"cebpf4jnsgd1na2vs0mg"},{"bike_id":"9bc17c01-52ec-4445-8fec-ad057c2f14cb","system_id":"levelo_inurba_marseille","lat":43.29368,"lon":5.37836,"is_reserved":false,"is_disabled":false,"rental_uris":{"android":"levelo://app?vid=9bc17c01-52ec-4445-8fec-ad057c2f14cb","ios":"levelo://app?vid=9bc17c01-52ec-4445-8fec-ad057c2f14cb"},"vehicle_type_id":"4","last_reported":1751376420,"current_range_meters":10000,"station_id":"ce4bgjh2rcd13ifvqbf0","pricing_plan_id":"cebpf4jnsgd1na2vs0mg"},{"bike_id":"dc8356f0-02e4-44af-baca-f0665ea88859","system_id":"levelo_inurba_marseille","lat":43.27375,"lon":5.36255,"is_reserved":false,"is_disabled":false,"rental_uris":{"android":"levelo://app?vid=dc8356f0-02e4-44af-baca-f0665ea88859","ios":"levelo://app?vid=dc8356f0-02e4-44af-baca-f0665ea88859"},"vehicle_type_id":"4","last_reported":1751376420,"current_range_meters":10000,"station_id":"ce4bhbh2rcd13ifvqeo0","pricing_plan_id":"cebpf4jnsgd1na2vs0mg"},{"bike_id":"56536789-5ce0-4e42-a12f-cd59fccbc66d","system_id":"levelo_inurba_marseille","lat":43.321105,"lon":5.367689,"is_reserved":false,"is_disabled":false,"rental_uris":{"android":"levelo://app?vid=56536789-5ce0-4e42-a12f-cd59fccbc66d","ios":"levelo://app?vid=56536789-5ce0-4e42-a12f-cd59fccbc66d"},"vehicle_type_id":"4","last_reported":1751376420,"current_range_meters":10000,"station_id":"ce4bhrh2rcd13ifvqhug","pricing_plan_id":"cebpf4jnsgd1na2vs0mg"},{"bike_id":"b2ec7371-4e1a-4f7b-ae6c-60c5a54c237b","system_id":"levelo_inurba_marseille","lat":43.212311,"lon":5.350757,"is_reserved":false,"is_disabled":false,"rental_uris":{"android":"levelo://app?vid=b2ec7371-4e1a-4f7b-ae6c-60c5a54c237b","ios":"levelo://app?vid=b2ec7371-4e1a-4f7b-ae6c-60c5a54c237b"},"vehicle_type_id":"4","last_reported":1751376420,"current_range_meters":10800,"station_id":"","pricing_plan_id":"cebpf4jnsgd1na2vs0mg"},{"bike_id":"a28c59f5-fce1-481a-bcff-87b69ba3d8a2","system_id":"levelo_inurba_marseille","lat":43.30312,"lon":5.3687,"is_reserved":false,"is_disabled":false,"rental_uris":{"android":"levelo://app?vid=a28c59f5-fce1-481a-bcff-87b69ba3d8a2","ios":"levelo://app?vid=a28c59f5-fce1-481a-bcff-87b69ba3d8a2"},"vehicle_type_id":"4","last_reported":1751376420,"current_range_meters":10800,"station_id":"ce4bgqh2rcd13ifvqc5g","pricing_plan_id":"cebpf4jnsgd1na2vs0mg"},{"bike_id":"e34c9d26-f1be-4131-8f51-1f485b7c31e7","system_id":"levelo_inurba_marseille","lat":43.30784,"lon":5.38162,"is_reserved":false,"is_disabled":false,"rental_uris":{"android":"levelo://app?vid=e34c9d26-f1be-4131-8f51-1f485b7c31e7","ios":"levelo://app?vid=e34c9d26-f1be-4131-8f51-1f485b7c31e7"},"vehicle_type_id":"4","last_reported":1751376420,"current_range_meters":10800,"station_id":"ce4bgt12rcd13ifvqce0","pricing_plan_id":"cebpf4jnsgd1na2vs0mg"},{"bike_id":"7c179fd1-9791-4be7-a9db-2ade31da90b4","system_id":"levelo_inurba_marseille","lat":43.30252,"lon":5.40055,"is_reserved":false,"is_disabled":false,"rental_uris":{"android":"levelo://app?vid=7c179fd1-9791-4be7-a9db-2ade31da90b4","ios":"levelo://app?vid=7c179fd1-9791-4be7-a9db-2ade31da90b4"},"vehicle_type_id":"4","last_reported":1751376420,"current_range_meters":10800,"station_id":"ce4bgvh2rcd13ifvqcs0","pricing_plan_id":"cebpf4jnsgd1na2vs0mg"},{"bike_id":"56be89a4-f32b-4791-84c8-af5e60e1f92c","system_id":"levelo_inurba_marseille","lat":43.2827,"lon":5.35077,"is_reserved":false,"is_disabled":false,"rental_uris":{"android":"levelo://app?vid=56be89a4-f32b-4791-84c8-af5e60e1f92c","ios":"levelo://app?vid=56be89a4-f32b-4791-84c8-af5e60e1f92c"},"vehicle_type_id":"4","last_reported":1751376420,"current_range_meters":10800,"station_id":"ce4bhbp2rcd13ifvqerg","pricing_plan_id":"cebpf4jnsgd1na2vs0mg"},{"bike_id":"7cdaf104-8d6a-46bc-81d9-956dc327dd05","system_id":"levelo_inurba_marseille","lat":43.29571,"lon":5.36746,"is_reserved":false,"is_disabled":false,"rental_uris":{"android":"levelo://app?vid=7cdaf104-8d6a-46bc-81d9-956dc327dd05","ios":"levelo://app?vid=7cdaf104-8d6a-46bc-81d9-956dc327dd05"},"vehicle_type_id":"4","last_reported":1751376420,"current_range_meters":11200,"station_id":"ce4bgph2rcd13ifvqc2g","pricing_plan_id":"cebpf4jnsgd1na2vs0mg"},{"bike_id":"09e47256-6b37-4a34-900c-23fb8dcbccef","system_id":"levelo_inurba_marseille","lat":43.25823,"lon":5.39438,"is_reserved":false,"is_disabled":false,"rental_uris":{"android":"levelo://app?vid=09e47256-6b37-4a34-900c-23fb8dcbccef","ios":"levelo://app?vid=09e47256-6b37-4a34-900c-23fb8dcbccef"},"vehicle_type_id":"4","last_reported":1751376420,"current_range_meters":11200,"station_id":"ce4bhip2rcd13ifvqft0","pricing_plan_id":"cebpf4jnsgd1na2vs0mg"},{"bike_id":"fc4f7a6e-d30e-49c2-a3fc-521129bf8cad","system_id":"levelo_inurba_marseille","lat":43.33614,"lon":5.41029,"is_reserved":false,"is_disabled":false,"rental_uris":{"android":"levelo://app?vid=fc4f7a6e-d30e-49c2-a3fc-521129bf8cad","ios":"levelo://app?vid=fc4f7a6e-d30e-49c2-a3fc-521129bf8cad"},"vehicle_type_id":"4","last_reported":1751376420,"current_range_meters":11200,"station_id":"ce4bhqh2rcd13ifvqhmg","pricing_plan_id":"cebpf4jnsgd1na2vs0mg"},{"bike_id":"dfd578c6-3028-47d8-bab5-a52655cbc8c2","system_id":"levelo_inurba_marseille","lat":43.217499,"lon":5.346007,"is_reserved":false,"is_disabled":false,"rental_uris":{"android":"levelo://app?vid=dfd578c6-3028-47d8-bab5-a52655cbc8c2","ios":"levelo://app?vid=dfd578c6-3028-47d8-bab5-a52655cbc8c2"},"vehicle_type_id":"4","last_reported":1751376420,"current_range_meters":11200,"station_id":"st_cvj6r9ubvosntc0bgbag","pricing_plan_id":"cebpf4jnsgd1na2vs0mg"},{"bike_id":"44eee1fb-a8c5-430a-9857-3b234a16b956","system_id":"levelo_inurba_marseille","lat":43.29269,"lon":5.37627,"is_reserved":false,"is_disabled":false,"rental_uris":{"android":"levelo://app?vid=44eee1fb-a8c5-430a-9857-3b234a16b956","ios":"levelo://app?vid=44eee1fb-a8c5-430a-9857-3b234a16b956"},"vehicle_type_id":"4","last_reported":1751376420,"current_range_meters":11600,"station_id":"ce4bgi12rcd13ifvqb80","pricing_plan_id":"cebpf4jnsgd1na2vs0mg"},{"bike_id":"1b226ac8-817f-45f3-9a69-f54d706a4112","system_id":"levelo_inurba_marseille","lat":43.29535,"lon":5.37497,"is_reserved":false,"is_disabled":false,"rental_uris":{"android":"levelo://app?vid=1b226ac8-817f-45f3-9a69-f54d706a4112","ios":"levelo://app?vid=1b226ac8-817f-45f3-9a69-f54d706a4112"},"vehicle_type_id":"4","last_reported":1751376420,"current_range_meters":11600,"station_id":"ce4bgkp2rcd13ifvqbmg","pricing_plan_id":"cebpf4jnsgd1na2vs0mg"},{"bike_id":"003de24d-b7bb-4cfa-a435-acad1abf0e43","system_id":"levelo_inurba_marseille","lat":43.24622,"lon":5.38943,"is_reserved":false,"is_disabled":false,"rental_uris":{"android":"levelo://app?vid=003de24d-b7bb-4cfa-a435-acad1abf0e43","ios":"levelo://app?vid=003de24d-b7bb-4cfa-a435-acad1abf0e43"},"vehicle_type_id":"4","last_reported":1751376420,"current_range_meters":11600,"station_id":"ce4bhg12rcd13ifvqf60","pricing_plan_id":"cebpf4jnsgd1na2vs0mg"},{"bike_id":"ac2e8578-7542-41ac-9d8b-94a3933e93de","system_id":"levelo_inurba_marseille","lat":43.29571,"lon":5.37524,"is_reserved":false,"is_disabled":false,"rental_uris":{"android":"levelo://app?vid=ac2e8578-7542-41ac-9d8b-94a3933e93de","ios":"levelo://app?vid=ac2e8578-7542-41ac-9d8b-94a3933e93de"},"vehicle_type_id":"4","last_reported":1751376420,"current_range_meters":12000,"station_id":"ce4bgh92rcd13ifvqb50","pricing_plan_id":"cebpf4jnsgd1na2vs0mg"},{"bike_id":"2b65ba94-dbf8-4dba-89ec-8369fd3e413e","system_id":"levelo_inurba_marseille","lat":43.30549,"lon":5.36532,"is_reserved":false,"is_disabled":false,"rental_uris":{"android":"levelo://app?vid=2b65ba94-dbf8-4dba-89ec-8369fd3e413e","ios":"levelo://app?vid=2b65ba94-dbf8-4dba-89ec-8369fd3e413e"},"vehicle_type_id":"4","last_reported":1751376420,"current_range_meters":12000,"station_id":"ce4bgs12rcd13ifvqcag","pricing_plan_id":"cebpf4jnsgd1na2vs0mg"},{"bike_id":"2aede51a-e7ae-46e8-a1e0-cbfd19f987ef","system_id":"levelo_inurba_marseille","lat":43.273764,"lon":5.362603,"is_reserved":false,"is_disabled":false,"rental_uris":{"android":"levelo://app?vid=2aede51a-e7ae-46e8-a1e0-cbfd19f987ef","ios":"levelo://app?vid=2aede51a-e7ae-46e8-a1e0-cbfd19f987ef"},"vehicle_type_id":"4","last_reported":1751376420,"current_range_meters":12000,"station_id":"ce4bhbh2rcd13ifvqeo0","pricing_plan_id":"cebpf4jnsgd1na2vs0mg"},{"bike_id":"eacdff40-ffca-4f3c-a901-6126fddc1b4d","system_id":"levelo_inurba_marseille","lat":43.27358,"lon":5.36248,"is_reserved":false,"is_disabled":false,"rental_uris":{"android":"levelo://app?vid=eacdff40-ffca-4f3c-a901-6126fddc1b4d","ios":"levelo://app?vid=eacdff40-ffca-4f3c-a901-6126fddc1b4d"},"vehicle_type_id":"4","last_reported":1751376420,"current_range_meters":12000,"station_id":"ce4bhbh2rcd13ifvqeo0","pricing_plan_id":"cebpf4jnsgd1na2vs0mg"},{"bike_id":"c27e395e-bf2e-4af8-af6f-ac9feb9ade56","system_id":"levelo_inurba_marseille","lat":43.24654,"lon":5.389,"is_reserved":false,"is_disabled":false,"rental_uris":{"android":"levelo://app?vid=c27e395e-bf2e-4af8-af6f-ac9feb9ade56","ios":"levelo://app?vid=c27e395e-bf2e-4af8-af6f-ac9feb9ade56"},"vehicle_type_id":"4","last_reported":1751376420,"current_range_meters":12000,"station_id":"ce4bhg12rcd13ifvqf60","pricing_plan_id":"cebpf4jnsgd1na2vs0mg"},{"bike_id":"95430554-c32e-4aae-9f16-526107881b29","system_id":"levelo_inurba_marseille","lat":43.2438,"lon":5.37074,"is_reserved":false,"is_disabled":false,"rental_uris":{"android":"levelo://app?vid=95430554-c32e-4aae-9f16-526107881b29","ios":"levelo://app?vid=95430554-c32e-4aae-9f16-526107881b29"},"vehicle_type_id":"4","last_reported":1751376420,"current_range_meters":12000,"station_id":"ce4bhhh2rcd13ifvqfk0","pricing_plan_id":"cebpf4jnsgd1na2vs0mg"},{"bike_id":"e499cb2c-713a-4174-aa1d-daf10325f143","system_id":"levelo_inurba_marseille","lat":43.27843,"lon":5.40717,"is_reserved":false,"is_disabled":false,"rental_uris":{"android":"levelo://app?vid=e499cb2c-713a-4174-aa1d-daf10325f143","ios":"levelo://app?vid=e499cb2c-713a-4174-aa1d-daf10325f143"},"vehicle_type_id":"4","last_reported":1751376420,"current_range_meters":12000,"station_id":"ce4bhnh2rcd13ifvqgtg","pricing_plan_id":"cebpf4jnsgd1na2vs0mg"},{"bike_id":"b86a5af6-f375-47e7-8673-5cb9d7440c97","system_id":"levelo_inurba_marseille","lat":43.29562,"lon":5.42287,"is_reserved":false,"is_disabled":false,"rental_uris":{"android":"levelo://app?vid=b86a5af6-f375-47e7-8673-5cb9d7440c97","ios":"levelo://app?vid=b86a5af6-f375-47e7-8673-5cb9d7440c97"},"vehicle_type_id":"4","last_reported":1751376420,"current_range_meters":12000,"station_id":"ce4bhph2rcd13ifvqhdg","pricing_plan_id":"cebpf4jnsgd1na2vs0mg"},{"bike_id":"b28aa0a0-791c-4a08-9a16-c7bf6ea0ed5a","system_id":"levelo_inurba_marseille","lat":43.22521,"lon":5.34802,"is_reserved":false,"is_disabled":false,"rental_uris":{"android":"levelo://app?vid=b28aa0a0-791c-4a08-9a16-c7bf6ea0ed5a","ios":"levelo://app?vid=b28aa0a0-791c-4a08-9a16-c7bf6ea0ed5a"},"vehicle_type_id":"4","last_reported":1751376420,"current_range_meters":12000,"station_id":"st_cvj5dfep6f1abm77gieg","pricing_plan_id":"cebpf4jnsgd1na2vs0mg"},{"bike_id":"2d23d3a7-6cbc-4df4-9886-018b3c43e0d9","system_id":"levelo_inurba_marseille","lat":43.22953,"lon":5.35387,"is_reserved":false,"is_disabled":false,"rental_uris":{"android":"levelo://app?vid=2d23d3a7-6cbc-4df4-9886-018b3c43e0d9","ios":"levelo://app?vid=2d23d3a7-6cbc-4df4-9886-018b3c43e0d9"},"vehicle_type_id":"4","last_reported":1751376420,"current_range_meters":12400,"station_id":"cpo3532slgdg3j2ikp40","pricing_plan_id":"cebpf4jnsgd1na2vs0mg"},{"bike_id":"c2b72fe0-bae6-4c7b-ad48-9e771b203dc8","system_id":"levelo_inurba_marseille","lat":43.313546,"lon":5.384668,"is_reserved":false,"is_disabled":false,"rental_uris":{"android":"levelo://app?vid=c2b72fe0-bae6-4c7b-ad48-9e771b203dc8","ios":"levelo://app?vid=c2b72fe0-bae6-4c7b-ad48-9e771b203dc8"},"vehicle_type_id":"4","last_reported":1751376420,"current_range_meters":12800,"station_id":"ce4bgt92rcd13ifvqcf0","pricing_plan_id":"cebpf4jnsgd1na2vs0mg"},{"bike_id":"5cc72c8b-53c7-4d66-b94a-08c4f9215683","system_id":"levelo_inurba_marseille","lat":43.28037,"lon":5.36961,"is_reserved":false,"is_disabled":false,"rental_uris":{"android":"levelo://app?vid=5cc72c8b-53c7-4d66-b94a-08c4f9215683","ios":"levelo://app?vid=5cc72c8b-53c7-4d66-b94a-08c4f9215683"},"vehicle_type_id":"4","last_reported":1751376420,"current_range_meters":12800,"station_id":"ce4bha12rcd13ifvqef0","pricing_plan_id":"cebpf4jnsgd1na2vs0mg"},{"bike_id":"729ed812-0359-471a-af11-52b1bfb49aef","system_id":"levelo_inurba_marseille","lat":43.28412,"lon":5.34991,"is_reserved":false,"is_disabled":false,"rental_uris":{"android":"levelo://app?vid=729ed812-0359-471a-af11-52b1bfb49aef","ios":"levelo://app?vid=729ed812-0359-471a-af11-52b1bfb49aef"},"vehicle_type_id":"4","last_reported":1751376420,"current_range_meters":12800,"station_id":"ce4bhbh2rcd13ifvqepg","pricing_plan_id":"cebpf4jnsgd1na2vs0mg"},{"bike_id":"8b3fc219-ee90-44cc-a530-96f74a90eede","system_id":"levelo_inurba_marseille","lat":43.28618,"lon":5.35098,"is_reserved":false,"is_disabled":false,"rental_uris":{"android":"levelo://app?vid=8b3fc219-ee90-44cc-a530-96f74a90eede","ios":"levelo://app?vid=8b3fc219-ee90-44cc-a530-96f74a90eede"},"vehicle_type_id":"4","last_reported":1751376420,"current_range_meters":12800,"station_id":"ce4bhch2rcd13ifvqeug","pricing_plan_id":"cebpf4jnsgd1na2vs0mg"},{"bike_id":"5631c7ea-fb56-4ee9-8df0-6e0aa2f0ff30","system_id":"levelo_inurba_marseille","lat":43.241727,"lon":5.363973,"is_reserved":false,"is_disabled":false,"rental_uris":{"android":"levelo://app?vid=5631c7ea-fb56-4ee9-8df0-6e0aa2f0ff30","ios":"levelo://app?vid=5631c7ea-fb56-4ee9-8df0-6e0aa2f0ff30"},"vehicle_type_id":"4","last_reported":1751376420,"current_range_meters":12800,"station_id":"cpo36qri1sfpv3e86is0","pricing_plan_id":"cebpf4jnsgd1na2vs0mg"},{"bike_id":"f6ce3607-bf0c-440f-97bf-95061db38672","system_id":"levelo_inurba_marseille","lat":43.30646,"lon":5.4011,"is_reserved":false,"is_disabled":false,"rental_uris":{"android":"levelo://app?vid=f6ce3607-bf0c-440f-97bf-95061db38672","ios":"levelo://app?vid=f6ce3607-bf0c-440f-97bf-95061db38672"},"vehicle_type_id":"4","last_reported":1751376420,"current_range_meters":13600,"station_id":"ce4bh112rcd13ifvqda0","pricing_plan_id":"cebpf4jnsgd1na2vs0mg"},{"bike_id":"17216d5b-4756-482a-9df8-07f8e5104c6e","system_id":"levelo_inurba_marseille","lat":43.2902,"lon":5.38646,"is_reserved":false,"is_disabled":false,"rental_uris":{"android":"levelo://app?vid=17216d5b-4756-482a-9df8-07f8e5104c6e","ios":"levelo://app?vid=17216d5b-4756-482a-9df8-07f8e5104c6e"},"vehicle_type_id":"4","last_reported":1751376420,"current_range_meters":13600,"station_id":"ce4bh4p2rcd13ifvqe0g","pricing_plan_id":"cebpf4jnsgd1na2vs0mg"},{"bike_id":"87f2030d-836a-48e0-849f-fa511db0dc8f","system_id":"levelo_inurba_marseille","lat":43.27376,"lon":5.36259,"is_reserved":false,"is_disabled":false,"rental_uris":{"android":"levelo://app?vid=87f2030d-836a-48e0-849f-fa511db0dc8f","ios":"levelo://app?vid=87f2030d-836a-48e0-849f-fa511db0dc8f"},"vehicle_type_id":"4","last_reported":1751376420,"current_range_meters":13600,"station_id":"ce4bhbh2rcd13ifvqeo0","pricing_plan_id":"cebpf4jnsgd1na2vs0mg"},{"bike_id":"df41d261-25ce-43cc-a333-b7b0fc486854","system_id":"levelo_inurba_marseille","lat":43.32484,"lon":5.36571,"is_reserved":false,"is_disabled":false,"rental_uris":{"android":"levelo://app?vid=df41d261-25ce-43cc-a333-b7b0fc486854","ios":"levelo://app?vid=df41d261-25ce-43cc-a333-b7b0fc486854"},"vehicle_type_id":"4","last_reported":1751376420,"current_range_meters":13600,"station_id":"ce4bhs12rcd13ifvqhvg","pricing_plan_id":"cebpf4jnsgd1na2vs0mg"},{"bike_id":"537004b8-796b-418d-9d3a-229bfc37a3fb","system_id":"levelo_inurba_marseille","lat":43.24167,"lon":5.36396,"is_reserved":false,"is_disabled":false,"rental_uris":{"android":"levelo://app?vid=537004b8-796b-418d-9d3a-229bfc37a3fb","ios":"levelo://app?vid=537004b8-796b-418d-9d3a-229bfc37a3fb"},"vehicle_type_id":"4","last_reported":1751376420,"current_range_meters":13600,"station_id":"cpo36qri1sfpv3e86is0","pricing_plan_id":"cebpf4jnsgd1na2vs0mg"},{"bike_id":"d4f1eddf-817e-4c50-9a30-a23e9b6fbb35","system_id":"levelo_inurba_marseille","lat":43.337444,"lon":5.374475,"is_reserved":false,"is_disabled":true,"rental_uris":{"android":"levelo://app?vid=d4f1eddf-817e-4c50-9a30-a23e9b6fbb35","ios":"levelo://app?vid=d4f1eddf-817e-4c50-9a30-a23e9b6fbb35"},"vehicle_type_id":"4","last_reported":1751376420,"current_range_meters":14000,"station_id":"","pricing_plan_id":"cebpf4jnsgd1na2vs0mg"},{"bike_id":"c4001335-1366-4a50-bc1f-04441a99a76d","system_id":"levelo_inurba_marseille","lat":43.29531,"lon":5.38545,"is_reserved":false,"is_disabled":false,"rental_uris":{"android":"levelo://app?vid=c4001335-1366-4a50-bc1f-04441a99a76d","ios":"levelo://app?vid=c4001335-1366-4a50-bc1f-04441a99a76d"},"vehicle_type_id":"4","last_reported":1751376420,"current_range_meters":14000,"station_id":"ce4bgih2rcd13ifvqba0","pricing_plan_id":"cebpf4jnsgd1na2vs0mg"},{"bike_id":"d72b1f44-372f-4b08-8f59-3d40a861c0ce","system_id":"levelo_inurba_marseille","lat":43.29531,"lon":5.38541,"is_reserved":false,"is_disabled":false,"rental_uris":{"android":"levelo://app?vid=d72b1f44-372f-4b08-8f59-3d40a861c0ce","ios":"levelo://app?vid=d72b1f44-372f-4b08-8f59-3d40a861c0ce"},"vehicle_type_id":"4","last_reported":1751376420,"current_range_meters":14000,"station_id":"ce4bgih2rcd13ifvqba0","pricing_plan_id":"cebpf4jnsgd1na2vs0mg"},{"bike_id":"7d89a7a9-5747-4050-a47c-a81ac5bc4a52","system_id":"levelo_inurba_marseille","lat":43.27374,"lon":5.3626,"is_reserved":false,"is_disabled":false,"rental_uris":{"android":"levelo://app?vid=7d89a7a9-5747-4050-a47c-a81ac5bc4a52","ios":"levelo://app?vid=7d89a7a9-5747-4050-a47c-a81ac5bc4a52"},"vehicle_type_id":"4","last_reported":1751376420,"current_range_meters":14000,"station_id":"ce4bhbh2rcd13ifvqeo0","pricing_plan_id":"cebpf4jnsgd1na2vs0mg"},{"bike_id":"d2b2c9f7-7d24-4524-a821-27526206abd8","system_id":"levelo_inurba_marseille","lat":43.29275,"lon":5.36864,"is_reserved":false,"is_disabled":false,"rental_uris":{"android":"levelo://app?vid=d2b2c9f7-7d24-4524-a821-27526206abd8","ios":"levelo://app?vid=d2b2c9f7-7d24-4524-a821-27526206abd8"},"vehicle_type_id":"4","last_reported":1751376420,"current_range_meters":14000,"station_id":"ce4bhbp2rcd13ifvqesg","pricing_plan_id":"cebpf4jnsgd1na2vs0mg"},{"bike_id":"9daf3538-6d8b-4f23-abc2-a95eb894e247","system_id":"levelo_inurba_marseille","lat":43.26555,"lon":5.37288,"is_reserved":false,"is_disabled":false,"rental_uris":{"android":"levelo://app?vid=9daf3538-6d8b-4f23-abc2-a95eb894e247","ios":"levelo://app?vid=9daf3538-6d8b-4f23-abc2-a95eb894e247"},"vehicle_type_id":"4","last_reported":1751376420,"current_range_meters":14000,"station_id":"ce4bhg12rcd13ifvqf70","pricing_plan_id":"cebpf4jnsgd1na2vs0mg"},{"bike_id":"859b6cf6-411c-4a6e-b2f1-d5866da46ff7","system_id":"levelo_inurba_marseille","lat":43.24167,"lon":5.36404,"is_reserved":false,"is_disabled":false,"rental_uris":{"android":"levelo://app?vid=859b6cf6-411c-4a6e-b2f1-d5866da46ff7","ios":"levelo://app?vid=859b6cf6-411c-4a6e-b2f1-d5866da46ff7"},"vehicle_type_id":"4","last_reported":1751376420,"current_range_meters":14000,"station_id":"cpo36qri1sfpv3e86is0","pricing_plan_id":"cebpf4jnsgd1na2vs0mg"},{"bike_id":"7668ad4d-e875-45c5-8cfe-d22f11274d59","system_id":"levelo_inurba_marseille","lat":43.24166,"lon":5.36406,"is_reserved":false,"is_disabled":false,"rental_uris":{"android":"levelo://app?vid=7668ad4d-e875-45c5-8cfe-d22f11274d59","ios":"levelo://app?vid=7668ad4d-e875-45c5-8cfe-d22f11274d59"},"vehicle_type_id":"4","last_reported":1751376420,"current_range_meters":14000,"station_id":"cpo36qri1sfpv3e86is0","pricing_plan_id":"cebpf4jnsgd1na2vs0mg"},{"bike_id":"27c77a81-e237-479a-84d3-496b6e8c0dc7","system_id":"levelo_inurba_marseille","lat":43.21198,"lon":5.35077,"is_reserved":false,"is_disabled":false,"rental_uris":{"android":"levelo://app?vid=27c77a81-e237-479a-84d3-496b6e8c0dc7","ios":"levelo://app?vid=27c77a81-e237-479a-84d3-496b6e8c0dc7"},"vehicle_type_id":"4","last_reported":1751376420,"current_range_meters":14000,"station_id":"st_cvj6sg6p6f1abm77japg","pricing_plan_id":"cebpf4jnsgd1na2vs0mg"},{"bike_id":"0a5a6df3-791d-4e1e-9f7c-cb1cf013a1c7","system_id":"levelo_inurba_marseille","lat":43.25759,"lon":5.41114,"is_reserved":false,"is_disabled":false,"rental_uris":{"android":"levelo://app?vid=0a5a6df3-791d-4e1e-9f7c-cb1cf013a1c7","ios":"levelo://app?vid=0a5a6df3-791d-4e1e-9f7c-cb1cf013a1c7"},"vehicle_type_id":"4","last_reported":1751376420,"current_range_meters":14400,"station_id":"","pricing_plan_id":"cebpf4jnsgd1na2vs0mg"},{"bike_id":"886e572c-7469-48bb-ae96-ca71c7a65946","system_id":"levelo_inurba_marseille","lat":43.2862,"lon":5.35109,"is_reserved":false,"is_disabled":false,"rental_uris":{"android":"levelo://app?vid=886e572c-7469-48bb-ae96-ca71c7a65946","ios":"levelo://app?vid=886e572c-7469-48bb-ae96-ca71c7a65946"},"vehicle_type_id":"4","last_reported":1751376420,"current_range_meters":14400,"station_id":"ce4bhch2rcd13ifvqeug","pricing_plan_id":"cebpf4jnsgd1na2vs0mg"},{"bike_id":"c0228700-5312-4a39-89af-ec53a5d729c5","system_id":"levelo_inurba_marseille","lat":43.28289,"lon":5.43231,"is_reserved":false,"is_disabled":false,"rental_uris":{"android":"levelo://app?vid=c0228700-5312-4a39-89af-ec53a5d729c5","ios":"levelo://app?vid=c0228700-5312-4a39-89af-ec53a5d729c5"},"vehicle_type_id":"4","last_reported":1751376420,"current_range_meters":14800,"station_id":"","pricing_plan_id":"cebpf4jnsgd1na2vs0mg"},{"bike_id":"bdd6dd06-fd6a-4a80-95ed-071ec2d23490","system_id":"levelo_inurba_marseille","lat":43.295617,"lon":5.375697,"is_reserved":false,"is_disabled":false,"rental_uris":{"android":"levelo://app?vid=bdd6dd06-fd6a-4a80-95ed-071ec2d23490","ios":"levelo://app?vid=bdd6dd06-fd6a-4a80-95ed-071ec2d23490"},"vehicle_type_id":"4","last_reported":1751376420,"current_range_meters":14800,"station_id":"ce4bgh92rcd13ifvqb50","pricing_plan_id":"cebpf4jnsgd1na2vs0mg"},{"bike_id":"2b87b8ef-7a3d-48ef-abdb-916756a08805","system_id":"levelo_inurba_marseille","lat":43.2953,"lon":5.38538,"is_reserved":false,"is_disabled":false,"rental_uris":{"android":"levelo://app?vid=2b87b8ef-7a3d-48ef-abdb-916756a08805","ios":"levelo://app?vid=2b87b8ef-7a3d-48ef-abdb-916756a08805"},"vehicle_type_id":"4","last_reported":1751376420,"current_range_meters":14800,"station_id":"ce4bgih2rcd13ifvqba0","pricing_plan_id":"cebpf4jnsgd1na2vs0mg"},{"bike_id":"26578b7e-f474-4eaf-9d8e-1f40b92a0f35","system_id":"levelo_inurba_marseille","lat":43.26207,"lon":5.37441,"is_reserved":false,"is_disabled":false,"rental_uris":{"android":"levelo://app?vid=26578b7e-f474-4eaf-9d8e-1f40b92a0f35","ios":"levelo://app?vid=26578b7e-f474-4eaf-9d8e-1f40b92a0f35"},"vehicle_type_id":"4","last_reported":1751376420,"current_range_meters":14800,"station_id":"ce4bhgp2rcd13ifvqfc0","pricing_plan_id":"cebpf4jnsgd1na2vs0mg"},{"bike_id":"17494b2e-2430-470e-9fa8-2322dbe356ec","system_id":"levelo_inurba_marseille","lat":43.27205,"lon":5.39182,"is_reserved":false,"is_disabled":false,"rental_uris":{"android":"levelo://app?vid=17494b2e-2430-470e-9fa8-2322dbe356ec","ios":"levelo://app?vid=17494b2e-2430-470e-9fa8-2322dbe356ec"},"vehicle_type_id":"4","last_reported":1751376420,"current_range_meters":14800,"station_id":"ce4bhhp2rcd13ifvqfm0","pricing_plan_id":"cebpf4jnsgd1na2vs0mg"},{"bike_id":"1dd9ef34-4353-40cc-8c4a-27a3524c2181","system_id":"levelo_inurba_marseille","lat":43.2407,"lon":5.37765,"is_reserved":false,"is_disabled":false,"rental_uris":{"android":"levelo://app?vid=1dd9ef34-4353-40cc-8c4a-27a3524c2181","ios":"levelo://app?vid=1dd9ef34-4353-40cc-8c4a-27a3524c2181"},"vehicle_type_id":"4","last_reported":1751376420,"current_range_meters":14800,"station_id":"ce4bhnp2rcd13ifvqgvg","pricing_plan_id":"cebpf4jnsgd1na2vs0mg"},{"bike_id":"7d2ebbac-d26c-416a-b58e-5e3abed80858","system_id":"levelo_inurba_marseille","lat":43.21185,"lon":5.35101,"is_reserved":false,"is_disabled":false,"rental_uris":{"android":"levelo://app?vid=7d2ebbac-d26c-416a-b58e-5e3abed80858","ios":"levelo://app?vid=7d2ebbac-d26c-416a-b58e-5e3abed80858"},"vehicle_type_id":"4","last_reported":1751376420,"current_range_meters":14800,"station_id":"st_cvj6sg6p6f1abm77japg","pricing_plan_id":"cebpf4jnsgd1na2vs0mg"},{"bike_id":"c61036a9-1a66-4480-8bd4-cd2fb585b287","system_id":"levelo_inurba_marseille","lat":43.26932,"lon":5.40572,"is_reserved":false,"is_disabled":false,"rental_uris":{"android":"levelo://app?vid=c61036a9-1a66-4480-8bd4-cd2fb585b287","ios":"levelo://app?vid=c61036a9-1a66-4480-8bd4-cd2fb585b287"},"vehicle_type_id":"4","last_reported":1751376420,"current_range_meters":15200,"station_id":"","pricing_plan_id":"cebpf4jnsgd1na2vs0mg"},{"bike_id":"9c49e9a3-fac0-4343-949d-47c954bea231","system_id":"levelo_inurba_marseille","lat":43.31328,"lon":5.396836,"is_reserved":false,"is_disabled":false,"rental_uris":{"android":"levelo://app?vid=9c49e9a3-fac0-4343-949d-47c954bea231","ios":"levelo://app?vid=9c49e9a3-fac0-4343-949d-47c954bea231"},"vehicle_type_id":"4","last_reported":1751376420,"current_range_meters":15200,"station_id":"ce4bgvp2rcd13ifvqcu0","pricing_plan_id":"cebpf4jnsgd1na2vs0mg"},{"bike_id":"50885573-dc35-4ddd-8359-a2d96d5afb26","system_id":"levelo_inurba_marseille","lat":43.26064,"lon":5.39396,"is_reserved":false,"is_disabled":false,"rental_uris":{"android":"levelo://app?vid=50885573-dc35-4ddd-8359-a2d96d5afb26","ios":"levelo://app?vid=50885573-dc35-4ddd-8359-a2d96d5afb26"},"vehicle_type_id":"4","last_reported":1751376420,"current_range_meters":15200,"station_id":"ce4bhh92rcd13ifvqfj0","pricing_plan_id":"cebpf4jnsgd1na2vs0mg"},{"bike_id":"9eae4642-36df-4e73-8e16-05e0e51ba04b","system_id":"levelo_inurba_marseille","lat":43.23962,"lon":5.36644,"is_reserved":false,"is_disabled":false,"rental_uris":{"android":"levelo://app?vid=9eae4642-36df-4e73-8e16-05e0e51ba04b","ios":"levelo://app?vid=9eae4642-36df-4e73-8e16-05e0e51ba04b"},"vehicle_type_id":"4","last_reported":1751376420,"current_range_meters":15200,"station_id":"ce4bhi12rcd13ifvqfp0","pricing_plan_id":"cebpf4jnsgd1na2vs0mg"},{"bike_id":"7ec324f9-ca86-47e8-8c84-2f33ab8edb8c","system_id":"levelo_inurba_marseille","lat":43.281168,"lon":5.427656,"is_reserved":false,"is_disabled":false,"rental_uris":{"android":"levelo://app?vid=7ec324f9-ca86-47e8-8c84-2f33ab8edb8c","ios":"levelo://app?vid=7ec324f9-ca86-47e8-8c84-2f33ab8edb8c"},"vehicle_type_id":"4","last_reported":1751376420,"current_range_meters":15200,"station_id":"ce4bhnh2rcd13ifvqgug","pricing_plan_id":"cebpf4jnsgd1na2vs0mg"},{"bike_id":"86fa6ce7-8cbe-47ff-b5d3-c2b4938fd05c","system_id":"levelo_inurba_marseille","lat":43.211941,"lon":5.350703,"is_reserved":false,"is_disabled":false,"rental_uris":{"android":"levelo://app?vid=86fa6ce7-8cbe-47ff-b5d3-c2b4938fd05c","ios":"levelo://app?vid=86fa6ce7-8cbe-47ff-b5d3-c2b4938fd05c"},"vehicle_type_id":"4","last_reported":1751376420,"current_range_meters":16000,"station_id":"","pricing_plan_id":"cebpf4jnsgd1na2vs0mg"},{"bike_id":"e7a06c63-8b0e-48d2-9310-ac61906a3cd3","system_id":"levelo_inurba_marseille","lat":43.30919,"lon":5.36843,"is_reserved":false,"is_disabled":false,"rental_uris":{"android":"levelo://app?vid=e7a06c63-8b0e-48d2-9310-ac61906a3cd3","ios":"levelo://app?vid=e7a06c63-8b0e-48d2-9310-ac61906a3cd3"},"vehicle_type_id":"4","last_reported":1751376420,"current_range_meters":16000,"station_id":"ce4bgn92rcd13ifvqbvg","pricing_plan_id":"cebpf4jnsgd1na2vs0mg"},{"bike_id":"82522992-39cd-4cc1-bf11-bf1394360248","system_id":"levelo_inurba_marseille","lat":43.31491,"lon":5.373,"is_reserved":false,"is_disabled":false,"rental_uris":{"android":"levelo://app?vid=82522992-39cd-4cc1-bf11-bf1394360248","ios":"levelo://app?vid=82522992-39cd-4cc1-bf11-bf1394360248"},"vehicle_type_id":"4","last_reported":1751376420,"current_range_meters":16000,"station_id":"ce4bgt12rcd13ifvqcd0","pricing_plan_id":"cebpf4jnsgd1na2vs0mg"},{"bike_id":"330577f7-c428-4701-9e13-a0815653244b","system_id":"levelo_inurba_marseille","lat":43.27373,"lon":5.36257,"is_reserved":false,"is_disabled":false,"rental_uris":{"android":"levelo://app?vid=330577f7-c428-4701-9e13-a0815653244b","ios":"levelo://app?vid=330577f7-c428-4701-9e13-a0815653244b"},"vehicle_type_id":"4","last_reported":1751376420,"current_range_meters":16000,"station_id":"ce4bhbh2rcd13ifvqeo0","pricing_plan_id":"cebpf4jnsgd1na2vs0mg"},{"bike_id":"3d03fb95-8e3b-4596-876f-491b9dec2687","system_id":"levelo_inurba_marseille","lat":43.262173,"lon":5.374585,"is_reserved":false,"is_disabled":false,"rental_uris":{"android":"levelo://app?vid=3d03fb95-8e3b-4596-876f-491b9dec2687","ios":"levelo://app?vid=3d03fb95-8e3b-4596-876f-491b9dec2687"},"vehicle_type_id":"4","last_reported":1751376420,"current_range_meters":16000,"station_id":"ce4bhgp2rcd13ifvqfc0","pricing_plan_id":"cebpf4jnsgd1na2vs0mg"},{"bike_id":"8498f84a-11e7-4beb-9e4b-814b3365ca63","system_id":"levelo_inurba_marseille","lat":43.25488,"lon":5.37647,"is_reserved":false,"is_disabled":false,"rental_uris":{"android":"levelo://app?vid=8498f84a-11e7-4beb-9e4b-814b3365ca63","ios":"levelo://app?vid=8498f84a-11e7-4beb-9e4b-814b3365ca63"},"vehicle_type_id":"4","last_reported":1751376420,"current_range_meters":16000,"station_id":"ce4bhh12rcd13ifvqff0","pricing_plan_id":"cebpf4jnsgd1na2vs0mg"},{"bike_id":"69414a00-6b92-45ef-9e22-ba9deca86057","system_id":"levelo_inurba_marseille","lat":43.27538,"lon":5.38482,"is_reserved":false,"is_disabled":false,"rental_uris":{"android":"levelo://app?vid=69414a00-6b92-45ef-9e22-ba9deca86057","ios":"levelo://app?vid=69414a00-6b92-45ef-9e22-ba9deca86057"},"vehicle_type_id":"4","last_reported":1751376420,"current_range_meters":16000,"station_id":"ce4bhh92rcd13ifvqfi0","pricing_plan_id":"cebpf4jnsgd1na2vs0mg"},{"bike_id":"1caca1fc-4911-4e37-9aeb-383803780faf","system_id":"levelo_inurba_marseille","lat":43.32149,"lon":5.36793,"is_reserved":false,"is_disabled":false,"rental_uris":{"android":"levelo://app?vid=1caca1fc-4911-4e37-9aeb-383803780faf","ios":"levelo://app?vid=1caca1fc-4911-4e37-9aeb-383803780faf"},"vehicle_type_id":"4","last_reported":1751376420,"current_range_meters":16000,"station_id":"ce4bhrh2rcd13ifvqhug","pricing_plan_id":"cebpf4jnsgd1na2vs0mg"},{"bike_id":"947c0abc-8a28-4463-9d63-6c7d61393962","system_id":"levelo_inurba_marseille","lat":43.24158,"lon":5.36433,"is_reserved":false,"is_disabled":false,"rental_uris":{"android":"levelo://app?vid=947c0abc-8a28-4463-9d63-6c7d61393962","ios":"levelo://app?vid=947c0abc-8a28-4463-9d63-6c7d61393962"},"vehicle_type_id":"4","last_reported":1751376420,"current_range_meters":16000,"station_id":"cpo36qri1sfpv3e86is0","pricing_plan_id":"cebpf4jnsgd1na2vs0mg"},{"bike_id":"8c81beba-bb94-449a-a14d-d8db12d6c3bc","system_id":"levelo_inurba_marseille","lat":43.21752,"lon":5.34588,"is_reserved":false,"is_disabled":false,"rental_uris":{"android":"levelo://app?vid=8c81beba-bb94-449a-a14d-d8db12d6c3bc","ios":"levelo://app?vid=8c81beba-bb94-449a-a14d-d8db12d6c3bc"},"vehicle_type_id":"4","last_reported":1751376420,"current_range_meters":16000,"station_id":"st_cvj6r9ubvosntc0bgbag","pricing_plan_id":"cebpf4jnsgd1na2vs0mg"},{"bike_id":"60aed5b4-04a7-4930-a9c4-5540cdbcfb8b","system_id":"levelo_inurba_marseille","lat":43.33761,"lon":5.37451,"is_reserved":false,"is_disabled":false,"rental_uris":{"android":"levelo://app?vid=60aed5b4-04a7-4930-a9c4-5540cdbcfb8b","ios":"levelo://app?vid=60aed5b4-04a7-4930-a9c4-5540cdbcfb8b"},"vehicle_type_id":"4","last_reported":1751376420,"current_range_meters":16400,"station_id":"","pricing_plan_id":"cebpf4jnsgd1na2vs0mg"},{"bike_id":"4900e692-c68a-4562-b0e3-54a7ef4ce269","system_id":"levelo_inurba_marseille","lat":43.31231,"lon":5.36878,"is_reserved":false,"is_disabled":false,"rental_uris":{"android":"levelo://app?vid=4900e692-c68a-4562-b0e3-54a7ef4ce269","ios":"levelo://app?vid=4900e692-c68a-4562-b0e3-54a7ef4ce269"},"vehicle_type_id":"4","last_reported":1751376420,"current_range_meters":16400,"station_id":"ce4bgl92rcd13ifvqbq0","pricing_plan_id":"cebpf4jnsgd1na2vs0mg"},{"bike_id":"6b2ddcec-816f-42cf-b55b-a185c165d31c","system_id":"levelo_inurba_marseille","lat":43.241654,"lon":5.363974,"is_reserved":false,"is_disabled":false,"rental_uris":{"android":"levelo://app?vid=6b2ddcec-816f-42cf-b55b-a185c165d31c","ios":"levelo://app?vid=6b2ddcec-816f-42cf-b55b-a185c165d31c"},"vehicle_type_id":"4","last_reported":1751376420,"current_range_meters":16400,"station_id":"cpo36qri1sfpv3e86is0","pricing_plan_id":"cebpf4jnsgd1na2vs0mg"},{"bike_id":"2bc25ca4-c28c-4335-a0aa-b132b20800b4","system_id":"levelo_inurba_marseille","lat":43.29424,"lon":5.37418,"is_reserved":false,"is_disabled":false,"rental_uris":{"android":"levelo://app?vid=2bc25ca4-c28c-4335-a0aa-b132b20800b4","ios":"levelo://app?vid=2bc25ca4-c28c-4335-a0aa-b132b20800b4"},"vehicle_type_id":"4","last_reported":1751376420,"current_range_meters":16800,"station_id":"","pricing_plan_id":"cebpf4jnsgd1na2vs0mg"},{"bike_id":"539ed013-9e80-448a-999f-a7819f54786a","system_id":"levelo_inurba_marseille","lat":43.290309,"lon":5.375668,"is_reserved":false,"is_disabled":false,"rental_uris":{"android":"levelo://app?vid=539ed013-9e80-448a-999f-a7819f54786a","ios":"levelo://app?vid=539ed013-9e80-448a-999f-a7819f54786a"},"vehicle_type_id":"4","last_reported":1751376420,"current_range_meters":16800,"station_id":"","pricing_plan_id":"cebpf4jnsgd1na2vs0mg"},{"bike_id":"87f0dc01-08b6-4443-8ad6-92ede38280c2","system_id":"levelo_inurba_marseille","lat":43.29938,"lon":5.36526,"is_reserved":false,"is_disabled":false,"rental_uris":{"android":"levelo://app?vid=87f0dc01-08b6-4443-8ad6-92ede38280c2","ios":"levelo://app?vid=87f0dc01-08b6-4443-8ad6-92ede38280c2"},"vehicle_type_id":"4","last_reported":1751376420,"current_range_meters":16800,"station_id":"ce4bgm92rcd13ifvqbr0","pricing_plan_id":"cebpf4jnsgd1na2vs0mg"},{"bike_id":"77a747e5-8682-464b-86d3-183300866a41","system_id":"levelo_inurba_marseille","lat":43.284612,"lon":5.358838,"is_reserved":false,"is_disabled":false,"rental_uris":{"android":"levelo://app?vid=77a747e5-8682-464b-86d3-183300866a41","ios":"levelo://app?vid=77a747e5-8682-464b-86d3-183300866a41"},"vehicle_type_id":"4","last_reported":1751376420,"current_range_meters":16800,"station_id":"ce4bhah2rcd13ifvqei0","pricing_plan_id":"cebpf4jnsgd1na2vs0mg"},{"bike_id":"661d1004-f06e-4b01-863e-cabf664e16cf","system_id":"levelo_inurba_marseille","lat":43.28931,"lon":5.36638,"is_reserved":false,"is_disabled":false,"rental_uris":{"android":"levelo://app?vid=661d1004-f06e-4b01-863e-cabf664e16cf","ios":"levelo://app?vid=661d1004-f06e-4b01-863e-cabf664e16cf"},"vehicle_type_id":"4","last_reported":1751376420,"current_range_meters":16800,"station_id":"ce4bhap2rcd13ifvqek0","pricing_plan_id":"cebpf4jnsgd1na2vs0mg"},{"bike_id":"094b67c2-9449-4dac-bb24-745b71c96455","system_id":"levelo_inurba_marseille","lat":43.2738,"lon":5.36264,"is_reserved":false,"is_disabled":false,"rental_uris":{"android":"levelo://app?vid=094b67c2-9449-4dac-bb24-745b71c96455","ios":"levelo://app?vid=094b67c2-9449-4dac-bb24-745b71c96455"},"vehicle_type_id":"4","last_reported":1751376420,"current_range_meters":16800,"station_id":"ce4bhbh2rcd13ifvqeo0","pricing_plan_id":"cebpf4jnsgd1na2vs0mg"},{"bike_id":"a0cef316-ad95-4855-8f78-a31341a2b90e","system_id":"levelo_inurba_marseille","lat":43.31251,"lon":5.37807,"is_reserved":false,"is_disabled":false,"rental_uris":{"android":"levelo://app?vid=a0cef316-ad95-4855-8f78-a31341a2b90e","ios":"levelo://app?vid=a0cef316-ad95-4855-8f78-a31341a2b90e"},"vehicle_type_id":"4","last_reported":1751376420,"current_range_meters":17200,"station_id":"","pricing_plan_id":"cebpf4jnsgd1na2vs0mg"},{"bike_id":"dde39140-580b-4977-b35b-e5095d2fafc3","system_id":"levelo_inurba_marseille","lat":43.29698,"lon":5.37691,"is_reserved":false,"is_disabled":false,"rental_uris":{"android":"levelo://app?vid=dde39140-580b-4977-b35b-e5095d2fafc3","ios":"levelo://app?vid=dde39140-580b-4977-b35b-e5095d2fafc3"},"vehicle_type_id":"4","last_reported":1751376420,"current_range_meters":17200,"station_id":"ce4bgkh2rcd13ifvqbl0","pricing_plan_id":"cebpf4jnsgd1na2vs0mg"},{"bike_id":"d2fe2280-9dda-4f08-822f-aa45767453bf","system_id":"levelo_inurba_marseille","lat":43.3136,"lon":5.36692,"is_reserved":false,"is_disabled":false,"rental_uris":{"android":"levelo://app?vid=d2fe2280-9dda-4f08-822f-aa45767453bf","ios":"levelo://app?vid=d2fe2280-9dda-4f08-822f-aa45767453bf"},"vehicle_type_id":"4","last_reported":1751376420,"current_range_meters":17200,"station_id":"ce4bgr92rcd13ifvqc6g","pricing_plan_id":"cebpf4jnsgd1na2vs0mg"},{"bike_id":"2357f9e0-8fc0-476a-8d21-1364e103413b","system_id":"levelo_inurba_marseille","lat":43.28416,"lon":5.34978,"is_reserved":false,"is_disabled":false,"rental_uris":{"android":"levelo://app?vid=2357f9e0-8fc0-476a-8d21-1364e103413b","ios":"levelo://app?vid=2357f9e0-8fc0-476a-8d21-1364e103413b"},"vehicle_type_id":"4","last_reported":1751376420,"current_range_meters":17200,"station_id":"ce4bhbh2rcd13ifvqepg","pricing_plan_id":"cebpf4jnsgd1na2vs0mg"},{"bike_id":"1b1d2a55-7937-4e4f-8e1d-0772a66cddb7","system_id":"levelo_inurba_marseille","lat":43.28616,"lon":5.35102,"is_reserved":false,"is_disabled":false,"rental_uris":{"android":"levelo://app?vid=1b1d2a55-7937-4e4f-8e1d-0772a66cddb7","ios":"levelo://app?vid=1b1d2a55-7937-4e4f-8e1d-0772a66cddb7"},"vehicle_type_id":"4","last_reported":1751376420,"current_range_meters":17200,"station_id":"ce4bhch2rcd13ifvqeug","pricing_plan_id":"cebpf4jnsgd1na2vs0mg"},{"bike_id":"36d83600-3670-4035-a5e5-3c9d57af76a0","system_id":"levelo_inurba_marseille","lat":43.24186,"lon":5.36381,"is_reserved":false,"is_disabled":false,"rental_uris":{"android":"levelo://app?vid=36d83600-3670-4035-a5e5-3c9d57af76a0","ios":"levelo://app?vid=36d83600-3670-4035-a5e5-3c9d57af76a0"},"vehicle_type_id":"4","last_reported":1751376420,"current_range_meters":17200,"station_id":"cpo36qri1sfpv3e86is0","pricing_plan_id":"cebpf4jnsgd1na2vs0mg"},{"bike_id":"8233db61-1d36-41a5-a985-c98b6a5f0fb4","system_id":"levelo_inurba_marseille","lat":43.21751,"lon":5.34614,"is_reserved":false,"is_disabled":false,"rental_uris":{"android":"levelo://app?vid=8233db61-1d36-41a5-a985-c98b6a5f0fb4","ios":"levelo://app?vid=8233db61-1d36-41a5-a985-c98b6a5f0fb4"},"vehicle_type_id":"4","last_reported":1751376420,"current_range_meters":17200,"station_id":"st_cvj6r9ubvosntc0bgbag","pricing_plan_id":"cebpf4jnsgd1na2vs0mg"},{"bike_id":"0c1b4f74-5294-4b59-932d-b742ce647d9e","system_id":"levelo_inurba_marseille","lat":43.21188,"lon":5.35076,"is_reserved":false,"is_disabled":false,"rental_uris":{"android":"levelo://app?vid=0c1b4f74-5294-4b59-932d-b742ce647d9e","ios":"levelo://app?vid=0c1b4f74-5294-4b59-932d-b742ce647d9e"},"vehicle_type_id":"4","last_reported":1751376420,"current_range_meters":17200,"station_id":"st_cvj6sg6p6f1abm77japg","pricing_plan_id":"cebpf4jnsgd1na2vs0mg"},{"bike_id":"8a74f5cd-9efa-4362-bea7-a32db4dcc85c","system_id":"levelo_inurba_marseille","lat":43.21182,"lon":5.35094,"is_reserved":false,"is_disabled":false,"rental_uris":{"android":"levelo://app?vid=8a74f5cd-9efa-4362-bea7-a32db4dcc85c","ios":"levelo://app?vid=8a74f5cd-9efa-4362-bea7-a32db4dcc85c"},"vehicle_type_id":"4","last_reported":1751376420,"current_range_meters":17200,"station_id":"st_cvj6sg6p6f1abm77japg","pricing_plan_id":"cebpf4jnsgd1na2vs0mg"},{"bike_id":"02fe63e2-0ad7-4211-9148-8bddc8ee7810","system_id":"levelo_inurba_marseille","lat":43.31463,"lon":5.37297,"is_reserved":false,"is_disabled":false,"rental_uris":{"android":"levelo://app?vid=02fe63e2-0ad7-4211-9148-8bddc8ee7810","ios":"levelo://app?vid=02fe63e2-0ad7-4211-9148-8bddc8ee7810"},"vehicle_type_id":"4","last_reported":1751376420,"current_range_meters":17600,"station_id":"ce4bgt12rcd13ifvqcd0","pricing_plan_id":"cebpf4jnsgd1na2vs0mg"},{"bike_id":"c2cc3873-3136-4ba7-984d-6514f2a6bcc2","system_id":"levelo_inurba_marseille","lat":43.26692,"lon":5.3827,"is_reserved":false,"is_disabled":false,"rental_uris":{"android":"levelo://app?vid=c2cc3873-3136-4ba7-984d-6514f2a6bcc2","ios":"levelo://app?vid=c2cc3873-3136-4ba7-984d-6514f2a6bcc2"},"vehicle_type_id":"4","last_reported":1751376420,"current_range_meters":17600,"station_id":"ce4bhg92rcd13ifvqf90","pricing_plan_id":"cebpf4jnsgd1na2vs0mg"},{"bike_id":"fc7e8355-f532-43ec-9e4c-45a0bcaf9efb","system_id":"levelo_inurba_marseille","lat":43.23147,"lon":5.43749,"is_reserved":false,"is_disabled":false,"rental_uris":{"android":"levelo://app?vid=fc7e8355-f532-43ec-9e4c-45a0bcaf9efb","ios":"levelo://app?vid=fc7e8355-f532-43ec-9e4c-45a0bcaf9efb"},"vehicle_type_id":"4","last_reported":1751376420,"current_range_meters":17600,"station_id":"ce4bhmp2rcd13ifvqgog","pricing_plan_id":"cebpf4jnsgd1na2vs0mg"},{"bike_id":"cb8101ed-3fb9-4250-b4b5-837a7c9dee6e","system_id":"levelo_inurba_marseille","lat":43.288234,"lon":5.392526,"is_reserved":false,"is_disabled":false,"rental_uris":{"android":"levelo://app?vid=cb8101ed-3fb9-4250-b4b5-837a7c9dee6e","ios":"levelo://app?vid=cb8101ed-3fb9-4250-b4b5-837a7c9dee6e"},"vehicle_type_id":"4","last_reported":1751376420,"current_range_meters":18000,"station_id":"ce4bh3h2rcd13ifvqdn0","pricing_plan_id":"cebpf4jnsgd1na2vs0mg"},{"bike_id":"cfb9cfaf-efbc-4ddf-887d-f32223a437cb","system_id":"levelo_inurba_marseille","lat":43.292687,"lon":5.384393,"is_reserved":false,"is_disabled":false,"rental_uris":{"android":"levelo://app?vid=cfb9cfaf-efbc-4ddf-887d-f32223a437cb","ios":"levelo://app?vid=cfb9cfaf-efbc-4ddf-887d-f32223a437cb"},"vehicle_type_id":"4","last_reported":1751376420,"current_range_meters":18000,"station_id":"ce4bh692rcd13ifvqea0","pricing_plan_id":"cebpf4jnsgd1na2vs0mg"},{"bike_id":"1e6b9f52-da41-4d6b-90e7-4aee7cbf4f90","system_id":"levelo_inurba_marseille","lat":43.28635,"lon":5.35083,"is_reserved":false,"is_disabled":false,"rental_uris":{"android":"levelo://app?vid=1e6b9f52-da41-4d6b-90e7-4aee7cbf4f90","ios":"levelo://app?vid=1e6b9f52-da41-4d6b-90e7-4aee7cbf4f90"},"vehicle_type_id":"4","last_reported":1751376420,"current_range_meters":18000,"station_id":"ce4bhch2rcd13ifvqeug","pricing_plan_id":"cebpf4jnsgd1na2vs0mg"},{"bike_id":"afb78327-cc2c-423c-9e7b-9e6a58647879","system_id":"levelo_inurba_marseille","lat":43.336864,"lon":5.392134,"is_reserved":false,"is_disabled":false,"rental_uris":{"android":"levelo://app?vid=afb78327-cc2c-423c-9e7b-9e6a58647879","ios":"levelo://app?vid=afb78327-cc2c-423c-9e7b-9e6a58647879"},"vehicle_type_id":"4","last_reported":1751376420,"current_range_meters":18000,"station_id":"ce4bhr92rcd13ifvqhsg","pricing_plan_id":"cebpf4jnsgd1na2vs0mg"},{"bike_id":"fdcc33b3-b27b-4fd9-90cb-c9421efe9db6","system_id":"levelo_inurba_marseille","lat":43.27811,"lon":5.41408,"is_reserved":false,"is_disabled":false,"rental_uris":{"android":"levelo://app?vid=fdcc33b3-b27b-4fd9-90cb-c9421efe9db6","ios":"levelo://app?vid=fdcc33b3-b27b-4fd9-90cb-c9421efe9db6"},"vehicle_type_id":"4","last_reported":1751376420,"current_range_meters":18800,"station_id":"","pricing_plan_id":"cebpf4jnsgd1na2vs0mg"},{"bike_id":"f00e3044-9bd1-48b5-b342-151af21b34fa","system_id":"levelo_inurba_marseille","lat":43.29976,"lon":5.37418,"is_reserved":false,"is_disabled":false,"rental_uris":{"android":"levelo://app?vid=f00e3044-9bd1-48b5-b342-151af21b34fa","ios":"levelo://app?vid=f00e3044-9bd1-48b5-b342-151af21b34fa"},"vehicle_type_id":"4","last_reported":1751376420,"current_range_meters":18800,"station_id":"","pricing_plan_id":"cebpf4jnsgd1na2vs0mg"},{"bike_id":"9131e479-5baa-4e04-8225-e2300f06d94e","system_id":"levelo_inurba_marseille","lat":43.29007,"lon":5.38144,"is_reserved":false,"is_disabled":false,"rental_uris":{"android":"levelo://app?vid=9131e479-5baa-4e04-8225-e2300f06d94e","ios":"levelo://app?vid=9131e479-5baa-4e04-8225-e2300f06d94e"},"vehicle_type_id":"4","last_reported":1751376420,"current_range_meters":18800,"station_id":"ce4bh4p2rcd13ifvqe1g","pricing_plan_id":"cebpf4jnsgd1na2vs0mg"},{"bike_id":"c4acea15-443e-42a6-ac6f-430904e62d8a","system_id":"levelo_inurba_marseille","lat":43.29268,"lon":5.38429,"is_reserved":false,"is_disabled":false,"rental_uris":{"android":"levelo://app?vid=c4acea15-443e-42a6-ac6f-430904e62d8a","ios":"levelo://app?vid=c4acea15-443e-42a6-ac6f-430904e62d8a"},"vehicle_type_id":"4","last_reported":1751376420,"current_range_meters":18800,"station_id":"ce4bh692rcd13ifvqea0","pricing_plan_id":"cebpf4jnsgd1na2vs0mg"},{"bike_id":"ffc2c720-2642-40d7-90ae-c7af941730b2","system_id":"levelo_inurba_marseille","lat":43.28988,"lon":5.35614,"is_reserved":false,"is_disabled":false,"rental_uris":{"android":"levelo://app?vid=ffc2c720-2642-40d7-90ae-c7af941730b2","ios":"levelo://app?vid=ffc2c720-2642-40d7-90ae-c7af941730b2"},"vehicle_type_id":"4","last_reported":1751376420,"current_range_meters":18800,"station_id":"ce4bhb92rcd13ifvqen0","pricing_plan_id":"cebpf4jnsgd1na2vs0mg"},{"bike_id":"31d9e872-9003-4cc9-866e-0c65be2363e3","system_id":"levelo_inurba_marseille","lat":43.28273,"lon":5.35089,"is_reserved":false,"is_disabled":false,"rental_uris":{"android":"levelo://app?vid=31d9e872-9003-4cc9-866e-0c65be2363e3","ios":"levelo://app?vid=31d9e872-9003-4cc9-866e-0c65be2363e3"},"vehicle_type_id":"4","last_reported":1751376420,"current_range_meters":18800,"station_id":"ce4bhbp2rcd13ifvqerg","pricing_plan_id":"cebpf4jnsgd1na2vs0mg"},{"bike_id":"8757932e-1812-4d79-a709-a08cf6f79851","system_id":"levelo_inurba_marseille","lat":43.28084,"lon":5.3965,"is_reserved":false,"is_disabled":false,"rental_uris":{"android":"levelo://app?vid=8757932e-1812-4d79-a709-a08cf6f79851","ios":"levelo://app?vid=8757932e-1812-4d79-a709-a08cf6f79851"},"vehicle_type_id":"4","last_reported":1751376420,"current_range_meters":18800,"station_id":"ce4bho12rcd13ifvqh2g","pricing_plan_id":"cebpf4jnsgd1na2vs0mg"},{"bike_id":"e18c3224-6a40-42bc-97a4-83b2683ff547","system_id":"levelo_inurba_marseille","lat":43.2677,"lon":5.40257,"is_reserved":false,"is_disabled":false,"rental_uris":{"android":"levelo://app?vid=e18c3224-6a40-42bc-97a4-83b2683ff547","ios":"levelo://app?vid=e18c3224-6a40-42bc-97a4-83b2683ff547"},"vehicle_type_id":"4","last_reported":1751376420,"current_range_meters":18800,"station_id":"ce501612rcd8frsf0b60","pricing_plan_id":"cebpf4jnsgd1na2vs0mg"},{"bike_id":"b80880c9-674e-481f-9392-de7ab46fadff","system_id":"levelo_inurba_marseille","lat":43.21745,"lon":5.3461,"is_reserved":false,"is_disabled":false,"rental_uris":{"android":"levelo://app?vid=b80880c9-674e-481f-9392-de7ab46fadff","ios":"levelo://app?vid=b80880c9-674e-481f-9392-de7ab46fadff"},"vehicle_type_id":"4","last_reported":1751376420,"current_range_meters":18800,"station_id":"st_cvj6r9ubvosntc0bgbag","pricing_plan_id":"cebpf4jnsgd1na2vs0mg"},{"bike_id":"d0f90c24-dd03-411b-9731-55305f76b7c8","system_id":"levelo_inurba_marseille","lat":43.21195,"lon":5.35067,"is_reserved":false,"is_disabled":false,"rental_uris":{"android":"levelo://app?vid=d0f90c24-dd03-411b-9731-55305f76b7c8","ios":"levelo://app?vid=d0f90c24-dd03-411b-9731-55305f76b7c8"},"vehicle_type_id":"4","last_reported":1751376420,"current_range_meters":18800,"station_id":"st_cvj6sg6p6f1abm77japg","pricing_plan_id":"cebpf4jnsgd1na2vs0mg"},{"bike_id":"2022f0fb-dad0-42b3-a01a-b2affcc4f0e5","system_id":"levelo_inurba_marseille","lat":43.29534,"lon":5.3855,"is_reserved":false,"is_disabled":false,"rental_uris":{"android":"levelo://app?vid=2022f0fb-dad0-42b3-a01a-b2affcc4f0e5","ios":"levelo://app?vid=2022f0fb-dad0-42b3-a01a-b2affcc4f0e5"},"vehicle_type_id":"4","last_reported":1751376420,"current_range_meters":19200,"station_id":"ce4bgih2rcd13ifvqba0","pricing_plan_id":"cebpf4jnsgd1na2vs0mg"},{"bike_id":"4922963d-4a1d-4b20-94ff-7b77e6573f03","system_id":"levelo_inurba_marseille","lat":43.2762,"lon":5.36111,"is_reserved":false,"is_disabled":false,"rental_uris":{"android":"levelo://app?vid=4922963d-4a1d-4b20-94ff-7b77e6573f03","ios":"levelo://app?vid=4922963d-4a1d-4b20-94ff-7b77e6573f03"},"vehicle_type_id":"4","last_reported":1751376420,"current_range_meters":19200,"station_id":"ce4bgj92rcd13ifvqbe0","pricing_plan_id":"cebpf4jnsgd1na2vs0mg"},{"bike_id":"79e31ddd-3c69-4797-90ea-525405f34e2a","system_id":"levelo_inurba_marseille","lat":43.31481,"lon":5.37257,"is_reserved":false,"is_disabled":false,"rental_uris":{"android":"levelo://app?vid=79e31ddd-3c69-4797-90ea-525405f34e2a","ios":"levelo://app?vid=79e31ddd-3c69-4797-90ea-525405f34e2a"},"vehicle_type_id":"4","last_reported":1751376420,"current_range_meters":19200,"station_id":"ce4bgt12rcd13ifvqcd0","pricing_plan_id":"cebpf4jnsgd1na2vs0mg"},{"bike_id":"a77823e9-247f-490e-9912-e856ac287daa","system_id":"levelo_inurba_marseille","lat":43.30926,"lon":5.4014,"is_reserved":false,"is_disabled":false,"rental_uris":{"android":"levelo://app?vid=a77823e9-247f-490e-9912-e856ac287daa","ios":"levelo://app?vid=a77823e9-247f-490e-9912-e856ac287daa"},"vehicle_type_id":"4","last_reported":1751376420,"current_range_meters":19200,"station_id":"ce4bgvp2rcd13ifvqct0","pricing_plan_id":"cebpf4jnsgd1na2vs0mg"},{"bike_id":"8026e2cf-f586-486f-af2f-d543b2daf1ed","system_id":"levelo_inurba_marseille","lat":43.2827,"lon":5.350778,"is_reserved":false,"is_disabled":false,"rental_uris":{"android":"levelo://app?vid=8026e2cf-f586-486f-af2f-d543b2daf1ed","ios":"levelo://app?vid=8026e2cf-f586-486f-af2f-d543b2daf1ed"},"vehicle_type_id":"4","last_reported":1751376420,"current_range_meters":19200,"station_id":"ce4bhbp2rcd13ifvqerg","pricing_plan_id":"cebpf4jnsgd1na2vs0mg"},{"bike_id":"77b3567e-f387-40a1-aa99-e607609aa954","system_id":"levelo_inurba_marseille","lat":43.25485,"lon":5.37619,"is_reserved":false,"is_disabled":false,"rental_uris":{"android":"levelo://app?vid=77b3567e-f387-40a1-aa99-e607609aa954","ios":"levelo://app?vid=77b3567e-f387-40a1-aa99-e607609aa954"},"vehicle_type_id":"4","last_reported":1751376420,"current_range_meters":19200,"station_id":"ce4bhh12rcd13ifvqff0","pricing_plan_id":"cebpf4jnsgd1na2vs0mg"},{"bike_id":"b217d3b3-907c-42b8-90b0-b0bb12a41695","system_id":"levelo_inurba_marseille","lat":43.241761,"lon":5.397168,"is_reserved":false,"is_disabled":false,"rental_uris":{"android":"levelo://app?vid=b217d3b3-907c-42b8-90b0-b0bb12a41695","ios":"levelo://app?vid=b217d3b3-907c-42b8-90b0-b0bb12a41695"},"vehicle_type_id":"4","last_reported":1751376420,"current_range_meters":19200,"station_id":"ce4bhn12rcd13ifvqgpg","pricing_plan_id":"cebpf4jnsgd1na2vs0mg"},{"bike_id":"81b9753f-aa28-4513-89a4-3ee72628d38d","system_id":"levelo_inurba_marseille","lat":43.32098,"lon":5.36789,"is_reserved":false,"is_disabled":false,"rental_uris":{"android":"levelo://app?vid=81b9753f-aa28-4513-89a4-3ee72628d38d","ios":"levelo://app?vid=81b9753f-aa28-4513-89a4-3ee72628d38d"},"vehicle_type_id":"4","last_reported":1751376420,"current_range_meters":19200,"station_id":"ce4bhrh2rcd13ifvqhug","pricing_plan_id":"cebpf4jnsgd1na2vs0mg"},{"bike_id":"6a117f79-3945-42c1-aaa9-f01191528115","system_id":"levelo_inurba_marseille","lat":43.32475,"lon":5.36567,"is_reserved":false,"is_disabled":false,"rental_uris":{"android":"levelo://app?vid=6a117f79-3945-42c1-aaa9-f01191528115","ios":"levelo://app?vid=6a117f79-3945-42c1-aaa9-f01191528115"},"vehicle_type_id":"4","last_reported":1751376420,"current_range_meters":19200,"station_id":"ce4bhs12rcd13ifvqhvg","pricing_plan_id":"cebpf4jnsgd1na2vs0mg"},{"bike_id":"6168064d-6604-4c2e-826a-ecf036e1a8d7","system_id":"levelo_inurba_marseille","lat":43.24164,"lon":5.36386,"is_reserved":false,"is_disabled":false,"rental_uris":{"android":"levelo://app?vid=6168064d-6604-4c2e-826a-ecf036e1a8d7","ios":"levelo://app?vid=6168064d-6604-4c2e-826a-ecf036e1a8d7"},"vehicle_type_id":"4","last_reported":1751376420,"current_range_meters":19200,"station_id":"cpo36qri1sfpv3e86is0","pricing_plan_id":"cebpf4jnsgd1na2vs0mg"},{"bike_id":"dbe6a7d8-6edc-4015-8658-f68eeb46a661","system_id":"levelo_inurba_marseille","lat":43.33582,"lon":5.39871,"is_reserved":false,"is_disabled":false,"rental_uris":{"android":"levelo://app?vid=dbe6a7d8-6edc-4015-8658-f68eeb46a661","ios":"levelo://app?vid=dbe6a7d8-6edc-4015-8658-f68eeb46a661"},"vehicle_type_id":"4","last_reported":1751376420,"current_range_meters":19600,"station_id":"","pricing_plan_id":"cebpf4jnsgd1na2vs0mg"},{"bike_id":"18afa4d4-ccd5-4af1-8cb2-a7f5774480a7","system_id":"levelo_inurba_marseille","lat":43.30554,"lon":5.38413,"is_reserved":false,"is_disabled":false,"rental_uris":{"android":"levelo://app?vid=18afa4d4-ccd5-4af1-8cb2-a7f5774480a7","ios":"levelo://app?vid=18afa4d4-ccd5-4af1-8cb2-a7f5774480a7"},"vehicle_type_id":"4","last_reported":1751376420,"current_range_meters":19600,"station_id":"","pricing_plan_id":"cebpf4jnsgd1na2vs0mg"},{"bike_id":"607859e1-5788-4d7f-9820-3fb2f6d7582a","system_id":"levelo_inurba_marseille","lat":43.2972,"lon":5.37695,"is_reserved":false,"is_disabled":false,"rental_uris":{"android":"levelo://app?vid=607859e1-5788-4d7f-9820-3fb2f6d7582a","ios":"levelo://app?vid=607859e1-5788-4d7f-9820-3fb2f6d7582a"},"vehicle_type_id":"4","last_reported":1751376420,"current_range_meters":19600,"station_id":"ce4bgkh2rcd13ifvqbl0","pricing_plan_id":"cebpf4jnsgd1na2vs0mg"},{"bike_id":"52c5fadc-a9b3-460e-a595-6aae52c945b4","system_id":"levelo_inurba_marseille","lat":43.31496,"lon":5.37313,"is_reserved":false,"is_disabled":false,"rental_uris":{"android":"levelo://app?vid=52c5fadc-a9b3-460e-a595-6aae52c945b4","ios":"levelo://app?vid=52c5fadc-a9b3-460e-a595-6aae52c945b4"},"vehicle_type_id":"4","last_reported":1751376420,"current_range_meters":19600,"station_id":"ce4bgt12rcd13ifvqcd0","pricing_plan_id":"cebpf4jnsgd1na2vs0mg"},{"bike_id":"5bbb9163-852f-4b72-a454-8eb0a96224e0","system_id":"levelo_inurba_marseille","lat":43.31462,"lon":5.37307,"is_reserved":false,"is_disabled":false,"rental_uris":{"android":"levelo://app?vid=5bbb9163-852f-4b72-a454-8eb0a96224e0","ios":"levelo://app?vid=5bbb9163-852f-4b72-a454-8eb0a96224e0"},"vehicle_type_id":"4","last_reported":1751376420,"current_range_meters":19600,"station_id":"ce4bgt12rcd13ifvqcd0","pricing_plan_id":"cebpf4jnsgd1na2vs0mg"},{"bike_id":"dc568f06-ffb3-40c1-89da-44191bfe516b","system_id":"levelo_inurba_marseille","lat":43.32106,"lon":5.36774,"is_reserved":false,"is_disabled":false,"rental_uris":{"android":"levelo://app?vid=dc568f06-ffb3-40c1-89da-44191bfe516b","ios":"levelo://app?vid=dc568f06-ffb3-40c1-89da-44191bfe516b"},"vehicle_type_id":"4","last_reported":1751376420,"current_range_meters":19600,"station_id":"ce4bhrh2rcd13ifvqhug","pricing_plan_id":"cebpf4jnsgd1na2vs0mg"},{"bike_id":"7e62b058-a7ed-4634-80f1-04d3de596de7","system_id":"levelo_inurba_marseille","lat":43.29846,"lon":5.36828,"is_reserved":false,"is_disabled":false,"rental_uris":{"android":"levelo://app?vid=7e62b058-a7ed-4634-80f1-04d3de596de7","ios":"levelo://app?vid=7e62b058-a7ed-4634-80f1-04d3de596de7"},