{"last_updated":1685563623,"ttl":30,"version":"2.2","data":{"bikes":[{"bike_id":"a35eff7a-8453-475c-ad82-746e7d149133","system_id":"levelo_inurba_marseille","lat":43.314811,"lon":5.373103,"is_reserved":false,"is_disabled":false,"rental_uris":{"android":"levelo://app?vid=a35eff7a-8453-475c-ad82-746e7d149133","ios":"levelo://app?vid=a35eff7a-8453-475c-ad82-746e7d149133"},"vehicle_type_id":"4","last_reported":1685563623,"current_range_meters":12800,"station_id":"ce4bgt12rcd13ifvqcd0","pricing_plan_id":"free"},{"bike_id":"1f048376-828c-4a20-8a23-00faf626485a","system_id":"levelo_inurba_marseille","lat":43.309076,"lon":5.368465,"is_reserved":false,"is_disabled":false,"rental_uris":{"android":"levelo://app?vid=1f048376-828c-4a20-8a23-00faf626485a","ios":"levelo://app?vid=1f048376-828c-4a20-8a23-00faf626485a"},"vehicle_type_id":"4","last_reported":1685563623,"current_range_meters":24400,"station_id":"ce4bgn92rcd13ifvqbvg","pricing_plan_id":"free"},{"bike_id":"e71b5fc8-3769-4095-a62d-8f22200ec6d6","system_id":"levelo_inurba_marseille","lat":43.314811,"lon":5.373104,"is_reserved":false,"is_disabled":false,"rental_uris":{"android":"levelo://app?vid=e71b5fc8-3769-4095-a62d-8f22200ec6d6","ios":"levelo://app?vid=e71b5fc8-3769-4095-a62d-8f22200ec6d6"},"vehicle_type_id":"4","last_reported":1685563623,"current_range_meters":31200,"station_id":"ce4bgt12rcd13ifvqcd0","pricing_plan_id":"free"},{"bike_id":"80fae448-9a5e-414e-9e50-9c142a8ff8c0","system_id":"levelo_inurba_marseille","lat":43.314811,"lon":5.373104,"is_reserved":false,"is_disabled":false,"rental_uris":{"android":"levelo://app?vid=80fae448-9a5e-414e-9e50-9c142a8ff8c0","ios":"levelo://app?vid=80fae448-9a5e-414e-9e50-9c142a8ff8c0"},"vehicle_type_id":"4","last_reported":1685563623,"current_range_meters":25200,"station_id":"ce4bgt12rcd13ifvqcd0","pricing_plan_id":"free"},{"bike_id":"c72e543d-4127-409e-9bef-39f1c52b9341","system_id":"levelo_inurba_marseille","lat":43.314811,"lon":5.373104,"is_reserved":false,"is_disabled":false,"rental_uris":{"android":"levelo://app?vid=c72e543d-4127-409e-9bef-39f1c52b9341","ios":"levelo://app?vid=c72e543d-4127-409e-9bef-39f1c52b9341"},"vehicle_type_id":"4","last_reported":1685563623,"current_range_meters":31200,"station_id":"ce4bgt12rcd13ifvqcd0","pricing_plan_id":"free"},{"bike_id":"7cab63a5-d9e9-4869-8052-c9bae06387b0","system_id":"levelo_inurba_marseille","lat":43.314811,"lon":5.373104,"is_reserved":false,"is_disabled":false,"rental_uris":{"android":"levelo://app?vid=7cab63a5-d9e9-4869-8052-c9bae06387b0","ios":"levelo://app?vid=7cab63a5-d9e9-4869-8052-c9bae06387b0"},"vehicle_type_id":"4","last_reported":1685563623,"current_range_meters":18000,"station_id":"ce4bgt12rcd13ifvqcd0","pricing_plan_id":"free"},{"bike_id":"31376484-6a04-4188-835a-210c41b8d35e","system_id":"levelo_inurba_marseille","lat":43.314811,"lon":5.373104,"is_reserved":false,"is_disabled":false,"rental_uris":{"android":"levelo://app?vid=31376484-6a04-4188-835a-210c41b8d35e","ios":"levelo://app?vid=31376484-6a04-4188-835a-210c41b8d35e"},"vehicle_type_id":"4","last_reported":1685563623,"current_range_meters":17200,"station_id":"ce4bgt12rcd13ifvqcd0","pricing_plan_id":"free"},{"bike_id":"d810ce61-c5eb-4ff0-b0d8-d029158f24e4","system_id":"levelo_inurba_marseille","lat":43.31499,"lon":5.37305,"is_reserved":false,"is_disabled":false,"rental_uris":{"android":"levelo://app?vid=d810ce61-c5eb-4ff0-b0d8-d029158f24e4","ios":"levelo://app?vid=d810ce61-c5eb-4ff0-b0d8-d029158f24e4"},"vehicle_type_id":"4","last_reported":1685563623,"current_range_meters":0,"station_id":"ce4bgt12rcd13ifvqcd0","pricing_plan_id":"free"},{"bike_id":"f69a3f8a-adab-435a-ad98-4302ca7a3c35","system_id":"levelo_inurba_marseille","lat":43.3172,"lon":5.37099,"is_reserved":false,"is_disabled":false,"rental_uris":{"android":"levelo://app?vid=f69a3f8a-adab-435a-ad98-4302ca7a3c35","ios":"levelo://app?vid=f69a3f8a-adab-435a-ad98-4302ca7a3c35"},"vehicle_type_id":"4","last_reported":1685563623,"current_range_meters":16000,"station_id":"","pricing_plan_id":"free"},{"bike_id":"036ddaaf-126b-4ecc-ace9-1f62fce4ed67","system_id":"levelo_inurba_marseille","lat":43.305706,"lon":5.365654,"is_reserved":false,"is_disabled":false,"rental_uris":{"android":"levelo://app?vid=036ddaaf-126b-4ecc-ace9-1f62fce4ed67","ios":"levelo://app?vid=036ddaaf-126b-4ecc-ace9-1f62fce4ed67"},"vehicle_type_id":"4","last_reported":1685563623,"current_range_meters":1600,"station_id":"ce4bgs12rcd13ifvqcag","pricing_plan_id":"free"},{"bike_id":"679de4b6-06ff-499a-b84c-13863fb707ff","system_id":"levelo_inurba_marseille","lat":43.305706,"lon":5.365654,"is_reserved":false,"is_disabled":false,"rental_uris":{"android":"levelo://app?vid=679de4b6-06ff-499a-b84c-13863fb707ff","ios":"levelo://app?vid=679de4b6-06ff-499a-b84c-13863fb707ff"},"vehicle_type_id":"4","last_reported":1685563623,"current_range_meters":28000,"station_id":"ce4bgs12rcd13ifvqcag","pricing_plan_id":"free"},{"bike_id":"b64a73b1-16ae-4b97-aa49-e9a59869b34f","system_id":"levelo_inurba_marseille","lat":43.305989,"lon":5.37225,"is_reserved":false,"is_disabled":false,"rental_uris":{"android":"levelo://app?vid=b64a73b1-16ae-4b97-aa49-e9a59869b34f","ios":"levelo://app?vid=b64a73b1-16ae-4b97-aa49-e9a59869b34f"},"vehicle_type_id":"4","last_reported":1685563623,"current_range_meters":12800,"station_id":"ce4bgqh2rcd13ifvqc4g","pricing_plan_id":"free"},{"bike_id":"a2d4c44a-88d1-47b8-b51c-d0215d770009","system_id":"levelo_inurba_marseille","lat":43.305989,"lon":5.37225,"is_reserved":false,"is_disabled":false,"rental_uris":{"android":"levelo://app?vid=a2d4c44a-88d1-47b8-b51c-d0215d770009","ios":"levelo://app?vid=a2d4c44a-88d1-47b8-b51c-d0215d770009"},"vehicle_type_id":"4","last_reported":1685563623,"current_range_meters":22000,"station_id":"ce4bgqh2rcd13ifvqc4g","pricing_plan_id":"free"},{"bike_id":"5a48ed31-516c-410a-b504-37cecb4b62b7","system_id":"levelo_inurba_marseille","lat":43.305989,"lon":5.37225,"is_reserved":false,"is_disabled":false,"rental_uris":{"android":"levelo://app?vid=5a48ed31-516c-410a-b504-37cecb4b62b7","ios":"levelo://app?vid=5a48ed31-516c-410a-b504-37cecb4b62b7"},"vehicle_type_id":"4","last_reported":1685563623,"current_range_meters":5600,"station_id":"ce4bgqh2rcd13ifvqc4g","pricing_plan_id":"free"},{"bike_id":"3d2fa99d-3b53-4ce6-9602-8503c6d0ed17","system_id":"levelo_inurba_marseille","lat":43.305989,"lon":5.37225,"is_reserved":false,"is_disabled":false,"rental_uris":{"android":"levelo://app?vid=3d2fa99d-3b53-4ce6-9602-8503c6d0ed17","ios":"levelo://app?vid=3d2fa99d-3b53-4ce6-9602-8503c6d0ed17"},"vehicle_type_id":"4","last_reported":1685563623,"current_range_meters":16800,"station_id":"ce4bgqh2rcd13ifvqc4g","pricing_plan_id":"free"},{"bike_id":"44970321-6a3b-4d0d-82c4-4de8d0722cdc","system_id":"levelo_inurba_marseille","lat":43.305989,"lon":5.37225,"is_reserved":false,"is_disabled":false,"rental_uris":{"android":"levelo://app?vid=44970321-6a3b-4d0d-82c4-4de8d0722cdc","ios":"levelo://app?vid=44970321-6a3b-4d0d-82c4-4de8d0722cdc"},"vehicle_type_id":"4","last_reported":1685563623,"current_range_meters":800,"station_id":"ce4bgqh2rcd13ifvqc4g","pricing_plan_id":"free"},{"bike_id":"56213e47-32ff-4d66-b150-4d1426339e82","system_id":"levelo_inurba_marseille","lat":43.305989,"lon":5.37225,"is_reserved":false,"is_disabled":false,"rental_uris":{"android":"levelo://app?vid=56213e47-32ff-4d66-b150-4d1426339e82","ios":"levelo://app?vid=56213e47-32ff-4d66-b150-4d1426339e82"},"vehicle_type_id":"4","last_reported":1685563623,"current_range_meters":6800,"station_id":"ce4bgqh2rcd13ifvqc4g","pricing_plan_id":"free"},{"bike_id":"2e436361-2164-4679-b061-d77fbd415422","system_id":"levelo_inurba_marseille","lat":43.31877,"lon":5.37406,"is_reserved":false,"is_disabled":false,"rental_uris":{"android":"levelo://app?vid=2e436361-2164-4679-b061-d77fbd415422","ios":"levelo://app?vid=2e436361-2164-4679-b061-d77fbd415422"},"vehicle_type_id":"4","last_reported":1685563623,"current_range_meters":21600,"station_id":"","pricing_plan_id":"free"},{"bike_id":"7e4bfe88-08b6-4683-958b-fec7684b32f3","system_id":"levelo_inurba_marseille","lat":43.311131,"lon":5.377651,"is_reserved":false,"is_disabled":false,"rental_uris":{"android":"levelo://app?vid=7e4bfe88-08b6-4683-958b-fec7684b32f3","ios":"levelo://app?vid=7e4bfe88-08b6-4683-958b-fec7684b32f3"},"vehicle_type_id":"4","last_reported":1685563623,"current_range_meters":22800,"station_id":"ce4bgt92rcd13ifvqcg0","pricing_plan_id":"free"},{"bike_id":"dc58f958-a228-4b35-be48-7e9ec1791273","system_id":"levelo_inurba_marseille","lat":43.317075,"lon":5.377367,"is_reserved":false,"is_disabled":false,"rental_uris":{"android":"levelo://app?vid=dc58f958-a228-4b35-be48-7e9ec1791273","ios":"levelo://app?vid=dc58f958-a228-4b35-be48-7e9ec1791273"},"vehicle_type_id":"4","last_reported":1685563623,"current_range_meters":4000,"station_id":"ce4bgth2rcd13ifvqch0","pricing_plan_id":"free"},{"bike_id":"997919aa-2218-4b0d-ab25-41179850189a","system_id":"levelo_inurba_marseille","lat":43.30449,"lon":5.37096,"is_reserved":false,"is_disabled":false,"rental_uris":{"android":"levelo://app?vid=997919aa-2218-4b0d-ab25-41179850189a","ios":"levelo://app?vid=997919aa-2218-4b0d-ab25-41179850189a"},"vehicle_type_id":"4","last_reported":1685563623,"current_range_meters":2800,"station_id":"","pricing_plan_id":"free"},{"bike_id":"20fb1e6b-ef22-41d8-9250-11513a095df8","system_id":"levelo_inurba_marseille","lat":43.31002,"lon":5.38021,"is_reserved":false,"is_disabled":false,"rental_uris":{"android":"levelo://app?vid=20fb1e6b-ef22-41d8-9250-11513a095df8","ios":"levelo://app?vid=20fb1e6b-ef22-41d8-9250-11513a095df8"},"vehicle_type_id":"4","last_reported":1685563623,"current_range_meters":7600,"station_id":"","pricing_plan_id":"free"},{"bike_id":"b6b372ab-3420-4dc6-98e9-1e46f4668c70","system_id":"levelo_inurba_marseille","lat":43.308012,"lon":5.381511,"is_reserved":false,"is_disabled":false,"rental_uris":{"android":"levelo://app?vid=b6b372ab-3420-4dc6-98e9-1e46f4668c70","ios":"levelo://app?vid=b6b372ab-3420-4dc6-98e9-1e46f4668c70"},"vehicle_type_id":"4","last_reported":1685563623,"current_range_meters":0,"station_id":"ce4bgt12rcd13ifvqce0","pricing_plan_id":"free"},{"bike_id":"2dcc5246-91f6-4cb7-aa3f-5b0eb3b97880","system_id":"levelo_inurba_marseille","lat":43.308012,"lon":5.381511,"is_reserved":false,"is_disabled":false,"rental_uris":{"android":"levelo://app?vid=2dcc5246-91f6-4cb7-aa3f-5b0eb3b97880","ios":"levelo://app?vid=2dcc5246-91f6-4cb7-aa3f-5b0eb3b97880"},"vehicle_type_id":"4","last_reported":1685563623,"current_range_meters":4400,"station_id":"ce4bgt12rcd13ifvqce0","pricing_plan_id":"free"},{"bike_id":"454d47a4-f9d5-4e0f-9c57-6676bd9547f6","system_id":"levelo_inurba_marseille","lat":43.308012,"lon":5.381511,"is_reserved":false,"is_disabled":false,"rental_uris":{"android":"levelo://app?vid=454d47a4-f9d5-4e0f-9c57-6676bd9547f6","ios":"levelo://app?vid=454d47a4-f9d5-4e0f-9c57-6676bd9547f6"},"vehicle_type_id":"4","last_reported":1685563623,"current_range_meters":12800,"station_id":"ce4bgt12rcd13ifvqce0","pricing_plan_id":"free"},{"bike_id":"9a390f9f-55c0-4ab5-baa7-eeda7f721684","system_id":"levelo_inurba_marseille","lat":43.304606,"lon":5.379026,"is_reserved":false,"is_disabled":false,"rental_uris":{"android":"levelo://app?vid=9a390f9f-55c0-4ab5-baa7-eeda7f721684","ios":"levelo://app?vid=9a390f9f-55c0-4ab5-baa7-eeda7f721684"},"vehicle_type_id":"4","last_reported":1685563623,"current_range_meters":8400,"station_id":"ce4bgup2rcd13ifvqcn0","pricing_plan_id":"free"},{"bike_id":"c4276daf-0211-485f-a822-26c3ab061cf5","system_id":"levelo_inurba_marseille","lat":43.3021,"lon":5.37443,"is_reserved":false,"is_disabled":false,"rental_uris":{"android":"levelo://app?vid=c4276daf-0211-485f-a822-26c3ab061cf5","ios":"levelo://app?vid=c4276daf-0211-485f-a822-26c3ab061cf5"},"vehicle_type_id":"4","last_reported":1685563623,"current_range_meters":13200,"station_id":"","pricing_plan_id":"free"},{"bike_id":"1ac7a262-6bc8-4539-8d5b-690d9b603bcc","system_id":"levelo_inurba_marseille","lat":43.304606,"lon":5.379026,"is_reserved":false,"is_disabled":false,"rental_uris":{"android":"levelo://app?vid=1ac7a262-6bc8-4539-8d5b-690d9b603bcc","ios":"levelo://app?vid=1ac7a262-6bc8-4539-8d5b-690d9b603bcc"},"vehicle_type_id":"4","last_reported":1685563623,"current_range_meters":10400,"station_id":"ce4bgup2rcd13ifvqcn0","pricing_plan_id":"free"},{"bike_id":"7a8cd430-dd37-4a8d-b5ff-3141c9f698f4","system_id":"levelo_inurba_marseille","lat":43.31819,"lon":5.38165,"is_reserved":false,"is_disabled":false,"rental_uris":{"android":"levelo://app?vid=7a8cd430-dd37-4a8d-b5ff-3141c9f698f4","ios":"levelo://app?vid=7a8cd430-dd37-4a8d-b5ff-3141c9f698f4"},"vehicle_type_id":"4","last_reported":1685563623,"current_range_meters":4000,"station_id":"","pricing_plan_id":"free"},{"bike_id":"6e055130-a0af-4cab-8304-7571e6f94a24","system_id":"levelo_inurba_marseille","lat":43.304606,"lon":5.379026,"is_reserved":false,"is_disabled":false,"rental_uris":{"android":"levelo://app?vid=6e055130-a0af-4cab-8304-7571e6f94a24","ios":"levelo://app?vid=6e055130-a0af-4cab-8304-7571e6f94a24"},"vehicle_type_id":"4","last_reported":1685563623,"current_range_meters":28800,"station_id":"ce4bgup2rcd13ifvqcn0","pricing_plan_id":"free"},{"bike_id":"e01879d8-a1ae-4492-94f9-0b5e4185c0af","system_id":"levelo_inurba_marseille","lat":43.31645,"lon":5.38319,"is_reserved":false,"is_disabled":false,"rental_uris":{"android":"levelo://app?vid=e01879d8-a1ae-4492-94f9-0b5e4185c0af","ios":"levelo://app?vid=e01879d8-a1ae-4492-94f9-0b5e4185c0af"},"vehicle_type_id":"4","last_reported":1685563623,"current_range_meters":0,"station_id":"","pricing_plan_id":"free"},{"bike_id":"d81a4dd2-5496-4ddd-ba80-4324dc22f878","system_id":"levelo_inurba_marseille","lat":43.31639,"lon":5.38337,"is_reserved":false,"is_disabled":false,"rental_uris":{"android":"levelo://app?vid=d81a4dd2-5496-4ddd-ba80-4324dc22f878","ios":"levelo://app?vid=d81a4dd2-5496-4ddd-ba80-4324dc22f878"},"vehicle_type_id":"4","last_reported":1685563623,"current_range_meters":22800,"station_id":"","pricing_plan_id":"free"},{"bike_id":"9c4eb06a-e32f-4fed-8974-3a073e4fe459","system_id":"levelo_inurba_marseille","lat":43.319935,"lon":5.381699,"is_reserved":false,"is_disabled":false,"rental_uris":{"android":"levelo://app?vid=9c4eb06a-e32f-4fed-8974-3a073e4fe459","ios":"levelo://app?vid=9c4eb06a-e32f-4fed-8974-3a073e4fe459"},"vehicle_type_id":"4","last_reported":1685563623,"current_range_meters":9200,"station_id":"ce4bhr12rcd13ifvqhpg","pricing_plan_id":"free"},{"bike_id":"8122b6a2-1897-433f-8d73-049d77b58160","system_id":"levelo_inurba_marseille","lat":43.319935,"lon":5.381699,"is_reserved":false,"is_disabled":false,"rental_uris":{"android":"levelo://app?vid=8122b6a2-1897-433f-8d73-049d77b58160","ios":"levelo://app?vid=8122b6a2-1897-433f-8d73-049d77b58160"},"vehicle_type_id":"4","last_reported":1685563623,"current_range_meters":2400,"station_id":"ce4bhr12rcd13ifvqhpg","pricing_plan_id":"free"},{"bike_id":"6a260593-3712-4beb-8458-5ccd33cdb3c7","system_id":"levelo_inurba_marseille","lat":43.299385,"lon":5.36558,"is_reserved":false,"is_disabled":false,"rental_uris":{"android":"levelo://app?vid=6a260593-3712-4beb-8458-5ccd33cdb3c7","ios":"levelo://app?vid=6a260593-3712-4beb-8458-5ccd33cdb3c7"},"vehicle_type_id":"4","last_reported":1685563623,"current_range_meters":18800,"station_id":"ce4bgkp2rcd13ifvqbmg","pricing_plan_id":"free"},{"bike_id":"fd718ae2-bd99-428e-bbb7-a79d5a12d726","system_id":"levelo_inurba_marseille","lat":43.30206,"lon":5.38044,"is_reserved":false,"is_disabled":false,"rental_uris":{"android":"levelo://app?vid=fd718ae2-bd99-428e-bbb7-a79d5a12d726","ios":"levelo://app?vid=fd718ae2-bd99-428e-bbb7-a79d5a12d726"},"vehicle_type_id":"4","last_reported":1685563623,"current_range_meters":12400,"station_id":"","pricing_plan_id":"free"},{"bike_id":"c9a7e8c6-5ebf-42fd-82c1-da47d59e5fe5","system_id":"levelo_inurba_marseille","lat":43.29851,"lon":5.36289,"is_reserved":false,"is_disabled":false,"rental_uris":{"android":"levelo://app?vid=c9a7e8c6-5ebf-42fd-82c1-da47d59e5fe5","ios":"levelo://app?vid=c9a7e8c6-5ebf-42fd-82c1-da47d59e5fe5"},"vehicle_type_id":"4","last_reported":1685563623,"current_range_meters":2400,"station_id":"ce4bgpp2rcd13ifvqc3g","pricing_plan_id":"free"},{"bike_id":"074e8a13-d5de-45d4-8428-6bfafdd02dfb","system_id":"levelo_inurba_marseille","lat":43.305364,"lon":5.384119,"is_reserved":false,"is_disabled":false,"rental_uris":{"android":"levelo://app?vid=074e8a13-d5de-45d4-8428-6bfafdd02dfb","ios":"levelo://app?vid=074e8a13-d5de-45d4-8428-6bfafdd02dfb"},"vehicle_type_id":"4","last_reported":1685563623,"current_range_meters":11600,"station_id":"ce4bgg92rcd13ifvqb30","pricing_plan_id":"free"},{"bike_id":"a1c70359-752a-4c70-87cf-94477ece8d5f","system_id":"levelo_inurba_marseille","lat":43.29844,"lon":5.3628,"is_reserved":false,"is_disabled":false,"rental_uris":{"android":"levelo://app?vid=a1c70359-752a-4c70-87cf-94477ece8d5f","ios":"levelo://app?vid=a1c70359-752a-4c70-87cf-94477ece8d5f"},"vehicle_type_id":"4","last_reported":1685563623,"current_range_meters":8800,"station_id":"ce4bgpp2rcd13ifvqc3g","pricing_plan_id":"free"},{"bike_id":"bc35f60b-1b21-41da-8cd9-d98dc95a7326","system_id":"levelo_inurba_marseille","lat":43.297774,"lon":5.370875,"is_reserved":false,"is_disabled":false,"rental_uris":{"android":"levelo://app?vid=bc35f60b-1b21-41da-8cd9-d98dc95a7326","ios":"levelo://app?vid=bc35f60b-1b21-41da-8cd9-d98dc95a7326"},"vehicle_type_id":"4","last_reported":1685563623,"current_range_meters":28800,"station_id":"ce4bgop2rcd13ifvqc1g","pricing_plan_id":"free"},{"bike_id":"0989bea8-7a0d-421a-8660-550234e86241","system_id":"levelo_inurba_marseille","lat":43.3283,"lon":5.36688,"is_reserved":false,"is_disabled":false,"rental_uris":{"android":"levelo://app?vid=0989bea8-7a0d-421a-8660-550234e86241","ios":"levelo://app?vid=0989bea8-7a0d-421a-8660-550234e86241"},"vehicle_type_id":"4","last_reported":1685563623,"current_range_meters":18800,"station_id":"ce4bhs92rcd13ifvqi0g","pricing_plan_id":"free"},{"bike_id":"7c009b87-e835-4534-bfc0-40404c5c0199","system_id":"levelo_inurba_marseille","lat":43.32836,"lon":5.36684,"is_reserved":false,"is_disabled":false,"rental_uris":{"android":"levelo://app?vid=7c009b87-e835-4534-bfc0-40404c5c0199","ios":"levelo://app?vid=7c009b87-e835-4534-bfc0-40404c5c0199"},"vehicle_type_id":"4","last_reported":1685563623,"current_range_meters":19600,"station_id":"ce4bhs92rcd13ifvqi0g","pricing_plan_id":"free"},{"bike_id":"b57cca7d-5d95-4784-8bfd-05e65547db16","system_id":"levelo_inurba_marseille","lat":43.311722,"lon":5.387247,"is_reserved":false,"is_disabled":false,"rental_uris":{"android":"levelo://app?vid=b57cca7d-5d95-4784-8bfd-05e65547db16","ios":"levelo://app?vid=b57cca7d-5d95-4784-8bfd-05e65547db16"},"vehicle_type_id":"4","last_reported":1685563623,"current_range_meters":8000,"station_id":"ce4bgv12rcd13ifvqcp0","pricing_plan_id":"free"},{"bike_id":"8c831443-7c11-494f-bd59-cd62383b4d6b","system_id":"levelo_inurba_marseille","lat":43.29625,"lon":5.36865,"is_reserved":false,"is_disabled":false,"rental_uris":{"android":"levelo://app?vid=8c831443-7c11-494f-bd59-cd62383b4d6b","ios":"levelo://app?vid=8c831443-7c11-494f-bd59-cd62383b4d6b"},"vehicle_type_id":"4","last_reported":1685563623,"current_range_meters":26400,"station_id":"","pricing_plan_id":"free"},{"bike_id":"460670cd-eced-4d38-93b3-e1e18ca47848","system_id":"levelo_inurba_marseille","lat":43.309589,"lon":5.390258,"is_reserved":false,"is_disabled":false,"rental_uris":{"android":"levelo://app?vid=460670cd-eced-4d38-93b3-e1e18ca47848","ios":"levelo://app?vid=460670cd-eced-4d38-93b3-e1e18ca47848"},"vehicle_type_id":"4","last_reported":1685563623,"current_range_meters":9200,"station_id":"ce4bgup2rcd13ifvqco0","pricing_plan_id":"free"},{"bike_id":"ff79cac9-a0c2-47f5-bca3-f4edf658c89e","system_id":"levelo_inurba_marseille","lat":43.317557,"lon":5.390173,"is_reserved":false,"is_disabled":false,"rental_uris":{"android":"levelo://app?vid=ff79cac9-a0c2-47f5-bca3-f4edf658c89e","ios":"levelo://app?vid=ff79cac9-a0c2-47f5-bca3-f4edf658c89e"},"vehicle_type_id":"4","last_reported":1685563623,"current_range_meters":1600,"station_id":"ce4bhqp2rcd13ifvqhng","pricing_plan_id":"free"},{"bike_id":"4b267e26-2f55-4cdc-9bd9-970d121ad656","system_id":"levelo_inurba_marseille","lat":43.31763,"lon":5.39015,"is_reserved":false,"is_disabled":false,"rental_uris":{"android":"levelo://app?vid=4b267e26-2f55-4cdc-9bd9-970d121ad656","ios":"levelo://app?vid=4b267e26-2f55-4cdc-9bd9-970d121ad656"},"vehicle_type_id":"4","last_reported":1685563623,"current_range_meters":2800,"station_id":"ce4bhqp2rcd13ifvqhng","pricing_plan_id":"free"},{"bike_id":"36ae8566-3707-41ea-8f0f-31c724853eee","system_id":"levelo_inurba_marseille","lat":43.31756,"lon":5.3902,"is_reserved":false,"is_disabled":false,"rental_uris":{"android":"levelo://app?vid=36ae8566-3707-41ea-8f0f-31c724853eee","ios":"levelo://app?vid=36ae8566-3707-41ea-8f0f-31c724853eee"},"vehicle_type_id":"4","last_reported":1685563623,"current_range_meters":19200,"station_id":"ce4bhqp2rcd13ifvqhng","pricing_plan_id":"free"},{"bike_id":"f770f405-5f96-48f1-a8f7-d86863a7c3e8","system_id":"levelo_inurba_marseille","lat":43.31759,"lon":5.3902,"is_reserved":false,"is_disabled":false,"rental_uris":{"android":"levelo://app?vid=f770f405-5f96-48f1-a8f7-d86863a7c3e8","ios":"levelo://app?vid=f770f405-5f96-48f1-a8f7-d86863a7c3e8"},"vehicle_type_id":"4","last_reported":1685563623,"current_range_meters":800,"station_id":"ce4bhqp2rcd13ifvqhng","pricing_plan_id":"free"},{"bike_id":"45f07aff-801c-4c4d-8bcc-94e9b9616c31","system_id":"levelo_inurba_marseille","lat":43.31761,"lon":5.39022,"is_reserved":false,"is_disabled":false,"rental_uris":{"android":"levelo://app?vid=45f07aff-801c-4c4d-8bcc-94e9b9616c31","ios":"levelo://app?vid=45f07aff-801c-4c4d-8bcc-94e9b9616c31"},"vehicle_type_id":"4","last_reported":1685563623,"current_range_meters":2800,"station_id":"ce4bhqp2rcd13ifvqhng","pricing_plan_id":"free"},{"bike_id":"a608eb4a-1121-492f-8445-08c05e0a3f81","system_id":"levelo_inurba_marseille","lat":43.29504,"lon":5.3633,"is_reserved":false,"is_disabled":false,"rental_uris":{"android":"levelo://app?vid=a608eb4a-1121-492f-8445-08c05e0a3f81","ios":"levelo://app?vid=a608eb4a-1121-492f-8445-08c05e0a3f81"},"vehicle_type_id":"4","last_reported":1685563623,"current_range_meters":10400,"station_id":"","pricing_plan_id":"free"},{"bike_id":"4d477974-081b-4f6e-8d40-038800b12c2f","system_id":"levelo_inurba_marseille","lat":43.295748,"lon":5.37522,"is_reserved":false,"is_disabled":false,"rental_uris":{"android":"levelo://app?vid=4d477974-081b-4f6e-8d40-038800b12c2f","ios":"levelo://app?vid=4d477974-081b-4f6e-8d40-038800b12c2f"},"vehicle_type_id":"4","last_reported":1685563623,"current_range_meters":18000,"station_id":"ce4bgh92rcd13ifvqb50","pricing_plan_id":"free"},{"bike_id":"7d1834e4-f669-48e9-bcee-ac88ab378be7","system_id":"levelo_inurba_marseille","lat":43.296277,"lon":5.377108,"is_reserved":false,"is_disabled":false,"rental_uris":{"android":"levelo://app?vid=7d1834e4-f669-48e9-bcee-ac88ab378be7","ios":"levelo://app?vid=7d1834e4-f669-48e9-bcee-ac88ab378be7"},"vehicle_type_id":"4","last_reported":1685563623,"current_range_meters":0,"station_id":"ce4bgi92rcd13ifvqb90","pricing_plan_id":"free"},{"bike_id":"68e21551-da99-41ef-90ae-9df80a57b59f","system_id":"levelo_inurba_marseille","lat":43.295302,"lon":5.375093,"is_reserved":false,"is_disabled":false,"rental_uris":{"android":"levelo://app?vid=68e21551-da99-41ef-90ae-9df80a57b59f","ios":"levelo://app?vid=68e21551-da99-41ef-90ae-9df80a57b59f"},"vehicle_type_id":"4","last_reported":1685563623,"current_range_meters":27200,"station_id":"ce4bgkp2rcd13ifvqbmg","pricing_plan_id":"free"},{"bike_id":"9534ee29-36dd-4d67-9062-9a240fc62a1c","system_id":"levelo_inurba_marseille","lat":43.299717,"lon":5.384845,"is_reserved":false,"is_disabled":false,"rental_uris":{"android":"levelo://app?vid=9534ee29-36dd-4d67-9062-9a240fc62a1c","ios":"levelo://app?vid=9534ee29-36dd-4d67-9062-9a240fc62a1c"},"vehicle_type_id":"4","last_reported":1685563623,"current_range_meters":2800,"station_id":"ce4bgj92rcd13ifvqbd0","pricing_plan_id":"free"},{"bike_id":"5c1ae803-bb83-4405-b753-5d2604b52519","system_id":"levelo_inurba_marseille","lat":43.305059,"lon":5.391047,"is_reserved":false,"is_disabled":false,"rental_uris":{"android":"levelo://app?vid=5c1ae803-bb83-4405-b753-5d2604b52519","ios":"levelo://app?vid=5c1ae803-bb83-4405-b753-5d2604b52519"},"vehicle_type_id":"4","last_reported":1685563623,"current_range_meters":7200,"station_id":"","pricing_plan_id":"free"},{"bike_id":"44437fa6-a312-44d3-bb14-1b6ba0aa8ca4","system_id":"levelo_inurba_marseille","lat":43.32367,"lon":5.388836,"is_reserved":false,"is_disabled":false,"rental_uris":{"android":"levelo://app?vid=44437fa6-a312-44d3-bb14-1b6ba0aa8ca4","ios":"levelo://app?vid=44437fa6-a312-44d3-bb14-1b6ba0aa8ca4"},"vehicle_type_id":"4","last_reported":1685563623,"current_range_meters":12000,"station_id":"ce4bhqp2rcd13ifvqhog","pricing_plan_id":"free"},{"bike_id":"bd3d7178-6daa-4b22-b9a0-679e8b7fd598","system_id":"levelo_inurba_marseille","lat":43.32367,"lon":5.388836,"is_reserved":false,"is_disabled":false,"rental_uris":{"android":"levelo://app?vid=bd3d7178-6daa-4b22-b9a0-679e8b7fd598","ios":"levelo://app?vid=bd3d7178-6daa-4b22-b9a0-679e8b7fd598"},"vehicle_type_id":"4","last_reported":1685563623,"current_range_meters":19200,"station_id":"ce4bhqp2rcd13ifvqhog","pricing_plan_id":"free"},{"bike_id":"fc2d505d-ec8a-4ee8-be56-159f01226b32","system_id":"levelo_inurba_marseille","lat":43.32367,"lon":5.388836,"is_reserved":false,"is_disabled":false,"rental_uris":{"android":"levelo://app?vid=fc2d505d-ec8a-4ee8-be56-159f01226b32","ios":"levelo://app?vid=fc2d505d-ec8a-4ee8-be56-159f01226b32"},"vehicle_type_id":"4","last_reported":1685563623,"current_range_meters":11600,"station_id":"ce4bhqp2rcd13ifvqhog","pricing_plan_id":"free"},{"bike_id":"8a8eb0b7-fc16-44b6-96e6-eb923e795629","system_id":"levelo_inurba_marseille","lat":43.32367,"lon":5.38885,"is_reserved":false,"is_disabled":false,"rental_uris":{"android":"levelo://app?vid=8a8eb0b7-fc16-44b6-96e6-eb923e795629","ios":"levelo://app?vid=8a8eb0b7-fc16-44b6-96e6-eb923e795629"},"vehicle_type_id":"4","last_reported":1685563623,"current_range_meters":3600,"station_id":"ce4bhqp2rcd13ifvqhog","pricing_plan_id":"free"},{"bike_id":"78de2555-d242-4845-84ba-180dfc56f4be","system_id":"levelo_inurba_marseille","lat":43.292749,"lon":5.368398,"is_reserved":false,"is_disabled":false,"rental_uris":{"android":"levelo://app?vid=78de2555-d242-4845-84ba-180dfc56f4be","ios":"levelo://app?vid=78de2555-d242-4845-84ba-180dfc56f4be"},"vehicle_type_id":"4","last_reported":1685563623,"current_range_meters":400,"station_id":"ce4bhbp2rcd13ifvqesg","pricing_plan_id":"free"},{"bike_id":"17e59587-863e-46f8-8b8a-91e7f069614f","system_id":"levelo_inurba_marseille","lat":43.32639,"lon":5.38782,"is_reserved":false,"is_disabled":false,"rental_uris":{"android":"levelo://app?vid=17e59587-863e-46f8-8b8a-91e7f069614f","ios":"levelo://app?vid=17e59587-863e-46f8-8b8a-91e7f069614f"},"vehicle_type_id":"4","last_reported":1685563623,"current_range_meters":26400,"station_id":"","pricing_plan_id":"free"},{"bike_id":"b0e6652d-be15-4254-beff-2a3aaebf24be","system_id":"levelo_inurba_marseille","lat":43.302992,"lon":5.392136,"is_reserved":false,"is_disabled":false,"rental_uris":{"android":"levelo://app?vid=b0e6652d-be15-4254-beff-2a3aaebf24be","ios":"levelo://app?vid=b0e6652d-be15-4254-beff-2a3aaebf24be"},"vehicle_type_id":"4","last_reported":1685563623,"current_range_meters":31200,"station_id":"ce4bgkh2rcd13ifvqbk0","pricing_plan_id":"free"},{"bike_id":"a35ee7ce-8c45-4122-be11-a835aa1e6468","system_id":"levelo_inurba_marseille","lat":43.30085,"lon":5.390856,"is_reserved":false,"is_disabled":false,"rental_uris":{"android":"levelo://app?vid=a35ee7ce-8c45-4122-be11-a835aa1e6468","ios":"levelo://app?vid=a35ee7ce-8c45-4122-be11-a835aa1e6468"},"vehicle_type_id":"4","last_reported":1685563623,"current_range_meters":10800,"station_id":"ce4bh192rcd13ifvqdb0","pricing_plan_id":"free"},{"bike_id":"fd1359be-a27d-4b39-badd-a62c71348b0d","system_id":"levelo_inurba_marseille","lat":43.30082,"lon":5.39083,"is_reserved":false,"is_disabled":false,"rental_uris":{"android":"levelo://app?vid=fd1359be-a27d-4b39-badd-a62c71348b0d","ios":"levelo://app?vid=fd1359be-a27d-4b39-badd-a62c71348b0d"},"vehicle_type_id":"4","last_reported":1685563623,"current_range_meters":11600,"station_id":"ce4bh192rcd13ifvqdb0","pricing_plan_id":"free"},{"bike_id":"d7a39ad4-b024-42ee-b071-56489df0d5a1","system_id":"levelo_inurba_marseille","lat":43.33225,"lon":5.37871,"is_reserved":false,"is_disabled":false,"rental_uris":{"android":"levelo://app?vid=d7a39ad4-b024-42ee-b071-56489df0d5a1","ios":"levelo://app?vid=d7a39ad4-b024-42ee-b071-56489df0d5a1"},"vehicle_type_id":"4","last_reported":1685563623,"current_range_meters":800,"station_id":"","pricing_plan_id":"free"},{"bike_id":"a7663400-7a8d-40ef-bf10-61757d1c8fa1","system_id":"levelo_inurba_marseille","lat":43.291671,"lon":5.371575,"is_reserved":false,"is_disabled":false,"rental_uris":{"android":"levelo://app?vid=a7663400-7a8d-40ef-bf10-61757d1c8fa1","ios":"levelo://app?vid=a7663400-7a8d-40ef-bf10-61757d1c8fa1"},"vehicle_type_id":"4","last_reported":1685563623,"current_range_meters":28400,"station_id":"ce4bha92rcd13ifvqeh0","pricing_plan_id":"free"},{"bike_id":"b0872dc3-355d-4744-a032-1ed89173ae2b","system_id":"levelo_inurba_marseille","lat":43.313291,"lon":5.396838,"is_reserved":false,"is_disabled":false,"rental_uris":{"android":"levelo://app?vid=b0872dc3-355d-4744-a032-1ed89173ae2b","ios":"levelo://app?vid=b0872dc3-355d-4744-a032-1ed89173ae2b"},"vehicle_type_id":"4","last_reported":1685563623,"current_range_meters":6800,"station_id":"ce4bgvp2rcd13ifvqcu0","pricing_plan_id":"free"},{"bike_id":"05969578-0917-4596-bbb8-29676862f2af","system_id":"levelo_inurba_marseille","lat":43.313291,"lon":5.396838,"is_reserved":false,"is_disabled":false,"rental_uris":{"android":"levelo://app?vid=05969578-0917-4596-bbb8-29676862f2af","ios":"levelo://app?vid=05969578-0917-4596-bbb8-29676862f2af"},"vehicle_type_id":"4","last_reported":1685563623,"current_range_meters":2800,"station_id":"ce4bgvp2rcd13ifvqcu0","pricing_plan_id":"free"},{"bike_id":"5b1155f9-9f98-4f89-bdcf-34ff32bf4ddb","system_id":"levelo_inurba_marseille","lat":43.31915,"lon":5.39559,"is_reserved":false,"is_disabled":false,"rental_uris":{"android":"levelo://app?vid=5b1155f9-9f98-4f89-bdcf-34ff32bf4ddb","ios":"levelo://app?vid=5b1155f9-9f98-4f89-bdcf-34ff32bf4ddb"},"vehicle_type_id":"4","last_reported":1685563623,"current_range_meters":10800,"station_id":"","pricing_plan_id":"free"},{"bike_id":"16209ad7-f1bb-4dc9-90e2-f941f70c6718","system_id":"levelo_inurba_marseille","lat":43.313291,"lon":5.396838,"is_reserved":false,"is_disabled":false,"rental_uris":{"android":"levelo://app?vid=16209ad7-f1bb-4dc9-90e2-f941f70c6718","ios":"levelo://app?vid=16209ad7-f1bb-4dc9-90e2-f941f70c6718"},"vehicle_type_id":"4","last_reported":1685563623,"current_range_meters":800,"station_id":"ce4bgvp2rcd13ifvqcu0","pricing_plan_id":"free"},{"bike_id":"84125dcd-4e7d-4d8c-bd73-b8aecc39155a","system_id":"levelo_inurba_marseille","lat":43.313291,"lon":5.396838,"is_reserved":false,"is_disabled":false,"rental_uris":{"android":"levelo://app?vid=84125dcd-4e7d-4d8c-bd73-b8aecc39155a","ios":"levelo://app?vid=84125dcd-4e7d-4d8c-bd73-b8aecc39155a"},"vehicle_type_id":"4","last_reported":1685563623,"current_range_meters":22000,"station_id":"ce4bgvp2rcd13ifvqcu0","pricing_plan_id":"free"},{"bike_id":"878e0306-4747-4360-9689-24c5d89222b3","system_id":"levelo_inurba_marseille","lat":43.309038,"lon":5.396546,"is_reserved":false,"is_disabled":false,"rental_uris":{"android":"levelo://app?vid=878e0306-4747-4360-9689-24c5d89222b3","ios":"levelo://app?vid=878e0306-4747-4360-9689-24c5d89222b3"},"vehicle_type_id":"4","last_reported":1685563623,"current_range_meters":6800,"station_id":"ce4bh012rcd13ifvqcv0","pricing_plan_id":"free"},{"bike_id":"48bf913a-1ea2-4658-bb85-9ae89d5f37b5","system_id":"levelo_inurba_marseille","lat":43.309038,"lon":5.396546,"is_reserved":false,"is_disabled":false,"rental_uris":{"android":"levelo://app?vid=48bf913a-1ea2-4658-bb85-9ae89d5f37b5","ios":"levelo://app?vid=48bf913a-1ea2-4658-bb85-9ae89d5f37b5"},"vehicle_type_id":"4","last_reported":1685563623,"current_range_meters":14000,"station_id":"ce4bh012rcd13ifvqcv0","pricing_plan_id":"free"},{"bike_id":"efd78386-c249-4f2a-9849-417e7918d559","system_id":"levelo_inurba_marseille","lat":43.29529,"lon":5.385581,"is_reserved":false,"is_disabled":false,"rental_uris":{"android":"levelo://app?vid=efd78386-c249-4f2a-9849-417e7918d559","ios":"levelo://app?vid=efd78386-c249-4f2a-9849-417e7918d559"},"vehicle_type_id":"4","last_reported":1685563623,"current_range_meters":19600,"station_id":"ce4bgih2rcd13ifvqba0","pricing_plan_id":"free"},{"bike_id":"39cd0a0a-1a97-4a43-8b62-546262c833ee","system_id":"levelo_inurba_marseille","lat":43.29529,"lon":5.385581,"is_reserved":false,"is_disabled":false,"rental_uris":{"android":"levelo://app?vid=39cd0a0a-1a97-4a43-8b62-546262c833ee","ios":"levelo://app?vid=39cd0a0a-1a97-4a43-8b62-546262c833ee"},"vehicle_type_id":"4","last_reported":1685563623,"current_range_meters":6400,"station_id":"ce4bgih2rcd13ifvqba0","pricing_plan_id":"free"},{"bike_id":"14e001e5-7c35-4a6d-8c2b-2375d18e6ad0","system_id":"levelo_inurba_marseille","lat":43.29529,"lon":5.385581,"is_reserved":false,"is_disabled":false,"rental_uris":{"android":"levelo://app?vid=14e001e5-7c35-4a6d-8c2b-2375d18e6ad0","ios":"levelo://app?vid=14e001e5-7c35-4a6d-8c2b-2375d18e6ad0"},"vehicle_type_id":"4","last_reported":1685563623,"current_range_meters":0,"station_id":"ce4bgih2rcd13ifvqba0","pricing_plan_id":"free"},{"bike_id":"7f13543f-b4a9-4b9a-95c3-a4a400ec7de9","system_id":"levelo_inurba_marseille","lat":43.29529,"lon":5.385581,"is_reserved":false,"is_disabled":false,"rental_uris":{"android":"levelo://app?vid=7f13543f-b4a9-4b9a-95c3-a4a400ec7de9","ios":"levelo://app?vid=7f13543f-b4a9-4b9a-95c3-a4a400ec7de9"},"vehicle_type_id":"4","last_reported":1685563623,"current_range_meters":0,"station_id":"ce4bgih2rcd13ifvqba0","pricing_plan_id":"free"},{"bike_id":"836c724a-dcfb-48ef-838f-911ac963fdb2","system_id":"levelo_inurba_marseille","lat":43.29529,"lon":5.385581,"is_reserved":false,"is_disabled":false,"rental_uris":{"android":"levelo://app?vid=836c724a-dcfb-48ef-838f-911ac963fdb2","ios":"levelo://app?vid=836c724a-dcfb-48ef-838f-911ac963fdb2"},"vehicle_type_id":"4","last_reported":1685563623,"current_range_meters":8000,"station_id":"ce4bgih2rcd13ifvqba0","pricing_plan_id":"free"},{"bike_id":"2380089b-90e2-4c88-8bae-dd732bb301a8","system_id":"levelo_inurba_marseille","lat":43.29529,"lon":5.385581,"is_reserved":false,"is_disabled":false,"rental_uris":{"android":"levelo://app?vid=2380089b-90e2-4c88-8bae-dd732bb301a8","ios":"levelo://app?vid=2380089b-90e2-4c88-8bae-dd732bb301a8"},"vehicle_type_id":"4","last_reported":1685563623,"current_range_meters":8400,"station_id":"ce4bgih2rcd13ifvqba0","pricing_plan_id":"free"},{"bike_id":"68cd073f-c7ac-400c-ae34-c3bdf344f7cd","system_id":"levelo_inurba_marseille","lat":43.290779,"lon":5.371482,"is_reserved":false,"is_disabled":false,"rental_uris":{"android":"levelo://app?vid=68cd073f-c7ac-400c-ae34-c3bdf344f7cd","ios":"levelo://app?vid=68cd073f-c7ac-400c-ae34-c3bdf344f7cd"},"vehicle_type_id":"4","last_reported":1685563623,"current_range_meters":24000,"station_id":"ce4bh5p2rcd13ifvqe4g","pricing_plan_id":"free"},{"bike_id":"ef9b071a-ec22-4d73-ab72-a278da68b85d","system_id":"levelo_inurba_marseille","lat":43.311722,"lon":5.387247,"is_reserved":false,"is_disabled":false,"rental_uris":{"android":"levelo://app?vid=ef9b071a-ec22-4d73-ab72-a278da68b85d","ios":"levelo://app?vid=ef9b071a-ec22-4d73-ab72-a278da68b85d"},"vehicle_type_id":"4","last_reported":1685563623,"current_range_meters":21600,"station_id":"ce4bgv12rcd13ifvqcp0","pricing_plan_id":"free"},{"bike_id":"1f4a8a7c-0f11-4063-8c71-3bff128014f4","system_id":"levelo_inurba_marseille","lat":43.30208,"lon":5.39466,"is_reserved":false,"is_disabled":false,"rental_uris":{"android":"levelo://app?vid=1f4a8a7c-0f11-4063-8c71-3bff128014f4","ios":"levelo://app?vid=1f4a8a7c-0f11-4063-8c71-3bff128014f4"},"vehicle_type_id":"4","last_reported":1685563623,"current_range_meters":27200,"station_id":"ce4bh0p2rcd13ifvqd70","pricing_plan_id":"free"},{"bike_id":"6ecdc848-234c-4c9a-af22-7878c592ecd7","system_id":"levelo_inurba_marseille","lat":43.290631,"lon":5.359244,"is_reserved":false,"is_disabled":false,"rental_uris":{"android":"levelo://app?vid=6ecdc848-234c-4c9a-af22-7878c592ecd7","ios":"levelo://app?vid=6ecdc848-234c-4c9a-af22-7878c592ecd7"},"vehicle_type_id":"4","last_reported":1685563623,"current_range_meters":14800,"station_id":"ce4bha92rcd13ifvqeg0","pricing_plan_id":"free"},{"bike_id":"a3c61c05-e454-464f-8c3c-ce042ee8e1b2","system_id":"levelo_inurba_marseille","lat":43.290631,"lon":5.359244,"is_reserved":false,"is_disabled":false,"rental_uris":{"android":"levelo://app?vid=a3c61c05-e454-464f-8c3c-ce042ee8e1b2","ios":"levelo://app?vid=a3c61c05-e454-464f-8c3c-ce042ee8e1b2"},"vehicle_type_id":"4","last_reported":1685563623,"current_range_meters":22400,"station_id":"ce4bha92rcd13ifvqeg0","pricing_plan_id":"free"},{"bike_id":"339089a9-e2a1-4603-9f19-12d9f3ee5a73","system_id":"levelo_inurba_marseille","lat":43.29419,"lon":5.38619,"is_reserved":false,"is_disabled":false,"rental_uris":{"android":"levelo://app?vid=339089a9-e2a1-4603-9f19-12d9f3ee5a73","ios":"levelo://app?vid=339089a9-e2a1-4603-9f19-12d9f3ee5a73"},"vehicle_type_id":"4","last_reported":1685563623,"current_range_meters":9200,"station_id":"ce4bh2h2rcd13ifvqdh0","pricing_plan_id":"free"},{"bike_id":"58b46056-c280-407b-b325-80ca0109a168","system_id":"levelo_inurba_marseille","lat":43.29417,"lon":5.38621,"is_reserved":false,"is_disabled":false,"rental_uris":{"android":"levelo://app?vid=58b46056-c280-407b-b325-80ca0109a168","ios":"levelo://app?vid=58b46056-c280-407b-b325-80ca0109a168"},"vehicle_type_id":"4","last_reported":1685563623,"current_range_meters":10000,"station_id":"ce4bh2h2rcd13ifvqdh0","pricing_plan_id":"free"},{"bike_id":"0fef9d24-9b3c-462c-b94d-47b873207143","system_id":"levelo_inurba_marseille","lat":43.294162,"lon":5.386292,"is_reserved":false,"is_disabled":false,"rental_uris":{"android":"levelo://app?vid=0fef9d24-9b3c-462c-b94d-47b873207143","ios":"levelo://app?vid=0fef9d24-9b3c-462c-b94d-47b873207143"},"vehicle_type_id":"4","last_reported":1685563623,"current_range_meters":8800,"station_id":"ce4bh2h2rcd13ifvqdh0","pricing_plan_id":"free"},{"bike_id":"2a42d598-8557-4481-accc-da8b37073bdc","system_id":"levelo_inurba_marseille","lat":43.29414,"lon":5.38621,"is_reserved":false,"is_disabled":false,"rental_uris":{"android":"levelo://app?vid=2a42d598-8557-4481-accc-da8b37073bdc","ios":"levelo://app?vid=2a42d598-8557-4481-accc-da8b37073bdc"},"vehicle_type_id":"4","last_reported":1685563623,"current_range_meters":4400,"station_id":"ce4bh2h2rcd13ifvqdh0","pricing_plan_id":"free"},{"bike_id":"5dc09008-9e94-4aa1-b95b-94a13d1a2d48","system_id":"levelo_inurba_marseille","lat":43.28944,"lon":5.36638,"is_reserved":false,"is_disabled":false,"rental_uris":{"android":"levelo://app?vid=5dc09008-9e94-4aa1-b95b-94a13d1a2d48","ios":"levelo://app?vid=5dc09008-9e94-4aa1-b95b-94a13d1a2d48"},"vehicle_type_id":"4","last_reported":1685563623,"current_range_meters":8800,"station_id":"","pricing_plan_id":"free"},{"bike_id":"2a7e62b7-ace6-4617-a93b-ca58511457ab","system_id":"levelo_inurba_marseille","lat":43.29416,"lon":5.38627,"is_reserved":false,"is_disabled":false,"rental_uris":{"android":"levelo://app?vid=2a7e62b7-ace6-4617-a93b-ca58511457ab","ios":"levelo://app?vid=2a7e62b7-ace6-4617-a93b-ca58511457ab"},"vehicle_type_id":"4","last_reported":1685563623,"current_range_meters":5200,"station_id":"ce4bh2h2rcd13ifvqdh0","pricing_plan_id":"free"},{"bike_id":"55cedf17-0886-4039-b912-1346a83167f8","system_id":"levelo_inurba_marseille","lat":43.29416,"lon":5.38631,"is_reserved":false,"is_disabled":false,"rental_uris":{"android":"levelo://app?vid=55cedf17-0886-4039-b912-1346a83167f8","ios":"levelo://app?vid=55cedf17-0886-4039-b912-1346a83167f8"},"vehicle_type_id":"4","last_reported":1685563623,"current_range_meters":22400,"station_id":"ce4bh2h2rcd13ifvqdh0","pricing_plan_id":"free"},{"bike_id":"a33bd27d-9dad-4052-8b7e-2ca9018c3205","system_id":"levelo_inurba_marseille","lat":43.289184,"lon":5.366408,"is_reserved":false,"is_disabled":false,"rental_uris":{"android":"levelo://app?vid=a33bd27d-9dad-4052-8b7e-2ca9018c3205","ios":"levelo://app?vid=a33bd27d-9dad-4052-8b7e-2ca9018c3205"},"vehicle_type_id":"4","last_reported":1685563623,"current_range_meters":4800,"station_id":"ce4bhap2rcd13ifvqek0","pricing_plan_id":"free"},{"bike_id":"5097489b-c941-48a4-bfd5-d80a38eb4f28","system_id":"levelo_inurba_marseille","lat":43.289184,"lon":5.366408,"is_reserved":false,"is_disabled":false,"rental_uris":{"android":"levelo://app?vid=5097489b-c941-48a4-bfd5-d80a38eb4f28","ios":"levelo://app?vid=5097489b-c941-48a4-bfd5-d80a38eb4f28"},"vehicle_type_id":"4","last_reported":1685563623,"current_range_meters":23200,"station_id":"ce4bhap2rcd13ifvqek0","pricing_plan_id":"free"},{"bike_id":"21dd3cd9-71b9-438f-9a40-2d6a49b29f9b","system_id":"levelo_inurba_marseille","lat":43.294162,"lon":5.386292,"is_reserved":false,"is_disabled":false,"rental_uris":{"android":"levelo://app?vid=21dd3cd9-71b9-438f-9a40-2d6a49b29f9b","ios":"levelo://app?vid=21dd3cd9-71b9-438f-9a40-2d6a49b29f9b"},"vehicle_type_id":"4","last_reported":1685563623,"current_range_meters":13200,"station_id":"ce4bh2h2rcd13ifvqdh0","pricing_plan_id":"free"},{"bike_id":"03927eca-b63b-4771-996f-23b68489ab5b","system_id":"levelo_inurba_marseille","lat":43.29412,"lon":5.38628,"is_reserved":false,"is_disabled":false,"rental_uris":{"android":"levelo://app?vid=03927eca-b63b-4771-996f-23b68489ab5b","ios":"levelo://app?vid=03927eca-b63b-4771-996f-23b68489ab5b"},"vehicle_type_id":"4","last_reported":1685563623,"current_range_meters":25200,"station_id":"ce4bh2h2rcd13ifvqdh0","pricing_plan_id":"free"},{"bike_id":"e4fe744f-3f53-4cfb-a57a-d2370593cc54","system_id":"levelo_inurba_marseille","lat":43.289184,"lon":5.366408,"is_reserved":false,"is_disabled":false,"rental_uris":{"android":"levelo://app?vid=e4fe744f-3f53-4cfb-a57a-d2370593cc54","ios":"levelo://app?vid=e4fe744f-3f53-4cfb-a57a-d2370593cc54"},"vehicle_type_id":"4","last_reported":1685563623,"current_range_meters":7200,"station_id":"ce4bhap2rcd13ifvqek0","pricing_plan_id":"free"},{"bike_id":"f1fed394-9468-41b8-b0b3-9d0f0aee0015","system_id":"levelo_inurba_marseille","lat":43.28938,"lon":5.36638,"is_reserved":false,"is_disabled":false,"rental_uris":{"android":"levelo://app?vid=f1fed394-9468-41b8-b0b3-9d0f0aee0015","ios":"levelo://app?vid=f1fed394-9468-41b8-b0b3-9d0f0aee0015"},"vehicle_type_id":"4","last_reported":1685563623,"current_range_meters":10000,"station_id":"ce4bhap2rcd13ifvqek0","pricing_plan_id":"free"},{"bike_id":"4cffe551-31a4-41be-903e-5624bc0ad10b","system_id":"levelo_inurba_marseille","lat":43.289184,"lon":5.366408,"is_reserved":false,"is_disabled":false,"rental_uris":{"android":"levelo://app?vid=4cffe551-31a4-41be-903e-5624bc0ad10b","ios":"levelo://app?vid=4cffe551-31a4-41be-903e-5624bc0ad10b"},"vehicle_type_id":"4","last_reported":1685563623,"current_range_meters":8000,"station_id":"ce4bhap2rcd13ifvqek0","pricing_plan_id":"free"},{"bike_id":"1049fd3c-61ad-4eef-a74e-b2f2b0bb5505","system_id":"levelo_inurba_marseille","lat":43.28934,"lon":5.36646,"is_reserved":false,"is_disabled":false,"rental_uris":{"android":"levelo://app?vid=1049fd3c-61ad-4eef-a74e-b2f2b0bb5505","ios":"levelo://app?vid=1049fd3c-61ad-4eef-a74e-b2f2b0bb5505"},"vehicle_type_id":"4","last_reported":1685563623,"current_range_meters":2400,"station_id":"ce4bhap2rcd13ifvqek0","pricing_plan_id":"free"},{"bike_id":"772473ec-3d2c-4253-844b-c77be1da3150","system_id":"levelo_inurba_marseille","lat":43.289184,"lon":5.366408,"is_reserved":false,"is_disabled":false,"rental_uris":{"android":"levelo://app?vid=772473ec-3d2c-4253-844b-c77be1da3150","ios":"levelo://app?vid=772473ec-3d2c-4253-844b-c77be1da3150"},"vehicle_type_id":"4","last_reported":1685563623,"current_range_meters":23600,"station_id":"ce4bhap2rcd13ifvqek0","pricing_plan_id":"free"},{"bike_id":"15032fdb-e0be-4d75-bc53-af6b76f45445","system_id":"levelo_inurba_marseille","lat":43.28929,"lon":5.36634,"is_reserved":false,"is_disabled":false,"rental_uris":{"android":"levelo://app?vid=15032fdb-e0be-4d75-bc53-af6b76f45445","ios":"levelo://app?vid=15032fdb-e0be-4d75-bc53-af6b76f45445"},"vehicle_type_id":"4","last_reported":1685563623,"current_range_meters":11600,"station_id":"ce4bhap2rcd13ifvqek0","pricing_plan_id":"free"},{"bike_id":"e4dc9e53-7503-4a4c-8c43-f49a00c79ada","system_id":"levelo_inurba_marseille","lat":43.329862,"lon":5.389192,"is_reserved":false,"is_disabled":false,"rental_uris":{"android":"levelo://app?vid=e4dc9e53-7503-4a4c-8c43-f49a00c79ada","ios":"levelo://app?vid=e4dc9e53-7503-4a4c-8c43-f49a00c79ada"},"vehicle_type_id":"4","last_reported":1685563623,"current_range_meters":14400,"station_id":"","pricing_plan_id":"free"},{"bike_id":"8241d678-7102-4309-b8c8-c8340785a816","system_id":"levelo_inurba_marseille","lat":43.304296,"lon":5.397513,"is_reserved":false,"is_disabled":false,"rental_uris":{"android":"levelo://app?vid=8241d678-7102-4309-b8c8-c8340785a816","ios":"levelo://app?vid=8241d678-7102-4309-b8c8-c8340785a816"},"vehicle_type_id":"4","last_reported":1685563623,"current_range_meters":17600,"station_id":"ce4bh092rcd13ifvqd20","pricing_plan_id":"free"},{"bike_id":"120b4a36-eca3-401a-834e-84449b368aea","system_id":"levelo_inurba_marseille","lat":43.292642,"lon":5.384254,"is_reserved":false,"is_disabled":false,"rental_uris":{"android":"levelo://app?vid=120b4a36-eca3-401a-834e-84449b368aea","ios":"levelo://app?vid=120b4a36-eca3-401a-834e-84449b368aea"},"vehicle_type_id":"4","last_reported":1685563623,"current_range_meters":2000,"station_id":"ce4bh692rcd13ifvqea0","pricing_plan_id":"free"},{"bike_id":"943f1edd-0699-4c59-91bd-be015231347e","system_id":"levelo_inurba_marseille","lat":43.33043,"lon":5.38916,"is_reserved":false,"is_disabled":false,"rental_uris":{"android":"levelo://app?vid=943f1edd-0699-4c59-91bd-be015231347e","ios":"levelo://app?vid=943f1edd-0699-4c59-91bd-be015231347e"},"vehicle_type_id":"4","last_reported":1685563623,"current_range_meters":400,"station_id":"ce4bhr92rcd13ifvqhrg","pricing_plan_id":"free"},{"bike_id":"e61e4c95-8a63-47af-8142-7de9fbfc5a6e","system_id":"levelo_inurba_marseille","lat":43.33048,"lon":5.38916,"is_reserved":false,"is_disabled":false,"rental_uris":{"android":"levelo://app?vid=e61e4c95-8a63-47af-8142-7de9fbfc5a6e","ios":"levelo://app?vid=e61e4c95-8a63-47af-8142-7de9fbfc5a6e"},"vehicle_type_id":"4","last_reported":1685563623,"current_range_meters":6000,"station_id":"ce4bhr92rcd13ifvqhrg","pricing_plan_id":"free"},{"bike_id":"8da7bbf6-b999-4b8f-8628-f7bfa76d9363","system_id":"levelo_inurba_marseille","lat":43.3305,"lon":5.38915,"is_reserved":false,"is_disabled":false,"rental_uris":{"android":"levelo://app?vid=8da7bbf6-b999-4b8f-8628-f7bfa76d9363","ios":"levelo://app?vid=8da7bbf6-b999-4b8f-8628-f7bfa76d9363"},"vehicle_type_id":"4","last_reported":1685563623,"current_range_meters":22800,"station_id":"ce4bhr92rcd13ifvqhrg","pricing_plan_id":"free"},{"bike_id":"6b075236-e18c-4248-82cd-7a7bb736e180","system_id":"levelo_inurba_marseille","lat":43.290104,"lon":5.356111,"is_reserved":false,"is_disabled":false,"rental_uris":{"android":"levelo://app?vid=6b075236-e18c-4248-82cd-7a7bb736e180","ios":"levelo://app?vid=6b075236-e18c-4248-82cd-7a7bb736e180"},"vehicle_type_id":"4","last_reported":1685563623,"current_range_meters":7600,"station_id":"ce4bhb92rcd13ifvqen0","pricing_plan_id":"free"},{"bike_id":"f3d11a58-2e34-4a55-8432-80db58bc2421","system_id":"levelo_inurba_marseille","lat":43.290103,"lon":5.356114,"is_reserved":false,"is_disabled":false,"rental_uris":{"android":"levelo://app?vid=f3d11a58-2e34-4a55-8432-80db58bc2421","ios":"levelo://app?vid=f3d11a58-2e34-4a55-8432-80db58bc2421"},"vehicle_type_id":"4","last_reported":1685563623,"current_range_meters":0,"station_id":"ce4bhb92rcd13ifvqen0","pricing_plan_id":"free"},{"bike_id":"dc9c7aa7-e94c-4605-a181-e67554ceed2e","system_id":"levelo_inurba_marseille","lat":43.289741,"lon":5.378306,"is_reserved":false,"is_disabled":false,"rental_uris":{"android":"levelo://app?vid=dc9c7aa7-e94c-4605-a181-e67554ceed2e","ios":"levelo://app?vid=dc9c7aa7-e94c-4605-a181-e67554ceed2e"},"vehicle_type_id":"4","last_reported":1685563623,"current_range_meters":0,"station_id":"ce4bh9p2rcd13ifvqed0","pricing_plan_id":"free"},{"bike_id":"d59fded7-3b2f-4831-a124-899f2467686e","system_id":"levelo_inurba_marseille","lat":43.28856,"lon":5.358371,"is_reserved":false,"is_disabled":false,"rental_uris":{"android":"levelo://app?vid=d59fded7-3b2f-4831-a124-899f2467686e","ios":"levelo://app?vid=d59fded7-3b2f-4831-a124-899f2467686e"},"vehicle_type_id":"4","last_reported":1685563623,"current_range_meters":8400,"station_id":"ce4bhb12rcd13ifvqem0","pricing_plan_id":"free"},{"bike_id":"7a61d8c9-14c9-4711-80a6-b3c8aceea5a4","system_id":"levelo_inurba_marseille","lat":43.28856,"lon":5.358371,"is_reserved":false,"is_disabled":false,"rental_uris":{"android":"levelo://app?vid=7a61d8c9-14c9-4711-80a6-b3c8aceea5a4","ios":"levelo://app?vid=7a61d8c9-14c9-4711-80a6-b3c8aceea5a4"},"vehicle_type_id":"4","last_reported":1685563623,"current_range_meters":6400,"station_id":"ce4bhb12rcd13ifvqem0","pricing_plan_id":"free"},{"bike_id":"4b4b5e29-68e8-4588-802b-a957500b04c1","system_id":"levelo_inurba_marseille","lat":43.28856,"lon":5.358371,"is_reserved":false,"is_disabled":false,"rental_uris":{"android":"levelo://app?vid=4b4b5e29-68e8-4588-802b-a957500b04c1","ios":"levelo://app?vid=4b4b5e29-68e8-4588-802b-a957500b04c1"},"vehicle_type_id":"4","last_reported":1685563623,"current_range_meters":8800,"station_id":"ce4bhb12rcd13ifvqem0","pricing_plan_id":"free"},{"bike_id":"141c14ea-594b-43ee-894e-8c44af1dcd73","system_id":"levelo_inurba_marseille","lat":43.33741,"lon":5.37457,"is_reserved":false,"is_disabled":false,"rental_uris":{"android":"levelo://app?vid=141c14ea-594b-43ee-894e-8c44af1dcd73","ios":"levelo://app?vid=141c14ea-594b-43ee-894e-8c44af1dcd73"},"vehicle_type_id":"4","last_reported":1685563623,"current_range_meters":24400,"station_id":"","pricing_plan_id":"free"},{"bike_id":"c7942551-36a2-48f0-86d3-473949af1ed6","system_id":"levelo_inurba_marseille","lat":43.33748,"lon":5.3743,"is_reserved":false,"is_disabled":false,"rental_uris":{"android":"levelo://app?vid=c7942551-36a2-48f0-86d3-473949af1ed6","ios":"levelo://app?vid=c7942551-36a2-48f0-86d3-473949af1ed6"},"vehicle_type_id":"4","last_reported":1685563623,"current_range_meters":29600,"station_id":"","pricing_plan_id":"free"},{"bike_id":"09d851e0-31be-41a5-9af2-5d089e94030d","system_id":"levelo_inurba_marseille","lat":43.30925,"lon":5.40145,"is_reserved":false,"is_disabled":false,"rental_uris":{"android":"levelo://app?vid=09d851e0-31be-41a5-9af2-5d089e94030d","ios":"levelo://app?vid=09d851e0-31be-41a5-9af2-5d089e94030d"},"vehicle_type_id":"4","last_reported":1685563623,"current_range_meters":19200,"station_id":"","pricing_plan_id":"free"},{"bike_id":"124b13d2-6454-4e12-b0c9-1fa204d1f78c","system_id":"levelo_inurba_marseille","lat":43.33758,"lon":5.3743,"is_reserved":false,"is_disabled":false,"rental_uris":{"android":"levelo://app?vid=124b13d2-6454-4e12-b0c9-1fa204d1f78c","ios":"levelo://app?vid=124b13d2-6454-4e12-b0c9-1fa204d1f78c"},"vehicle_type_id":"4","last_reported":1685563623,"current_range_meters":28800,"station_id":"","pricing_plan_id":"free"},{"bike_id":"276a87da-3953-4ae3-9df3-51f3436e0c00","system_id":"levelo_inurba_marseille","lat":43.30642,"lon":5.401031,"is_reserved":false,"is_disabled":false,"rental_uris":{"android":"levelo://app?vid=276a87da-3953-4ae3-9df3-51f3436e0c00","ios":"levelo://app?vid=276a87da-3953-4ae3-9df3-51f3436e0c00"},"vehicle_type_id":"4","last_reported":1685563623,"current_range_meters":22400,"station_id":"ce4bh112rcd13ifvqda0","pricing_plan_id":"free"},{"bike_id":"d8112de5-3496-43cb-8ba9-437621514779","system_id":"levelo_inurba_marseille","lat":43.33758,"lon":5.37439,"is_reserved":false,"is_disabled":false,"rental_uris":{"android":"levelo://app?vid=d8112de5-3496-43cb-8ba9-437621514779","ios":"levelo://app?vid=d8112de5-3496-43cb-8ba9-437621514779"},"vehicle_type_id":"4","last_reported":1685563623,"current_range_meters":29600,"station_id":"","pricing_plan_id":"free"},{"bike_id":"db11819d-9023-491a-a222-ce359ea7d5c8","system_id":"levelo_inurba_marseille","lat":43.33759,"lon":5.37445,"is_reserved":false,"is_disabled":false,"rental_uris":{"android":"levelo://app?vid=db11819d-9023-491a-a222-ce359ea7d5c8","ios":"levelo://app?vid=db11819d-9023-491a-a222-ce359ea7d5c8"},"vehicle_type_id":"4","last_reported":1685563623,"current_range_meters":31200,"station_id":"","pricing_plan_id":"free"},{"bike_id":"556c6db1-2600-4c2b-9521-aae8453517c1","system_id":"levelo_inurba_marseille","lat":43.33761,"lon":5.37445,"is_reserved":false,"is_disabled":false,"rental_uris":{"android":"levelo://app?vid=556c6db1-2600-4c2b-9521-aae8453517c1","ios":"levelo://app?vid=556c6db1-2600-4c2b-9521-aae8453517c1"},"vehicle_type_id":"4","last_reported":1685563623,"current_range_meters":5200,"station_id":"","pricing_plan_id":"free"},{"bike_id":"6d678481-0e0b-436a-aa94-9d12fa2c91f5","system_id":"levelo_inurba_marseille","lat":43.33765,"lon":5.37432,"is_reserved":false,"is_disabled":false,"rental_uris":{"android":"levelo://app?vid=6d678481-0e0b-436a-aa94-9d12fa2c91f5","ios":"levelo://app?vid=6d678481-0e0b-436a-aa94-9d12fa2c91f5"},"vehicle_type_id":"4","last_reported":1685563623,"current_range_meters":30400,"station_id":"","pricing_plan_id":"free"},{"bike_id":"c1da147f-158b-4733-bb7b-fe75e1162cb9","system_id":"levelo_inurba_marseille","lat":43.33762,"lon":5.37453,"is_reserved":false,"is_disabled":false,"rental_uris":{"android":"levelo://app?vid=c1da147f-158b-4733-bb7b-fe75e1162cb9","ios":"levelo://app?vid=c1da147f-158b-4733-bb7b-fe75e1162cb9"},"vehicle_type_id":"4","last_reported":1685563623,"current_range_meters":30400,"station_id":"","pricing_plan_id":"free"},{"bike_id":"6e22d9d1-08b9-43bf-8efb-c62ead4b6932","system_id":"levelo_inurba_marseille","lat":43.33768,"lon":5.37427,"is_reserved":false,"is_disabled":false,"rental_uris":{"android":"levelo://app?vid=6e22d9d1-08b9-43bf-8efb-c62ead4b6932","ios":"levelo://app?vid=6e22d9d1-08b9-43bf-8efb-c62ead4b6932"},"vehicle_type_id":"4","last_reported":1685563623,"current_range_meters":31200,"station_id":"","pricing_plan_id":"free"},{"bike_id":"bb799a97-3014-4dcf-b257-d4025dc1546d","system_id":"levelo_inurba_marseille","lat":43.33768,"lon":5.37434,"is_reserved":false,"is_disabled":false,"rental_uris":{"android":"levelo://app?vid=bb799a97-3014-4dcf-b257-d4025dc1546d","ios":"levelo://app?vid=bb799a97-3014-4dcf-b257-d4025dc1546d"},"vehicle_type_id":"4","last_reported":1685563623,"current_range_meters":24800,"station_id":"","pricing_plan_id":"free"},{"bike_id":"96af7e27-fc60-4771-a3ce-84f42d4b538c","system_id":"levelo_inurba_marseille","lat":43.30642,"lon":5.401031,"is_reserved":false,"is_disabled":false,"rental_uris":{"android":"levelo://app?vid=96af7e27-fc60-4771-a3ce-84f42d4b538c","ios":"levelo://app?vid=96af7e27-fc60-4771-a3ce-84f42d4b538c"},"vehicle_type_id":"4","last_reported":1685563623,"current_range_meters":0,"station_id":"ce4bh112rcd13ifvqda0","pricing_plan_id":"free"},{"bike_id":"10c35a87-3b77-4d43-9f56-06c04f8ea76d","system_id":"levelo_inurba_marseille","lat":43.30642,"lon":5.401031,"is_reserved":false,"is_disabled":false,"rental_uris":{"android":"levelo://app?vid=10c35a87-3b77-4d43-9f56-06c04f8ea76d","ios":"levelo://app?vid=10c35a87-3b77-4d43-9f56-06c04f8ea76d"},"vehicle_type_id":"4","last_reported":1685563623,"current_range_meters":15200,"station_id":"ce4bh112rcd13ifvqda0","pricing_plan_id":"free"},{"bike_id":"48af23bb-3f2d-4c2d-8fec-26e7f813002b","system_id":"levelo_inurba_marseille","lat":43.30642,"lon":5.401031,"is_reserved":false,"is_disabled":false,"rental_uris":{"android":"levelo://app?vid=48af23bb-3f2d-4c2d-8fec-26e7f813002b","ios":"levelo://app?vid=48af23bb-3f2d-4c2d-8fec-26e7f813002b"},"vehicle_type_id":"4","last_reported":1685563623,"current_range_meters":17200,"station_id":"ce4bh112rcd13ifvqda0","pricing_plan_id":"free"},{"bike_id":"be70abc3-9b45-4799-9578-b8b91a7f51b2","system_id":"levelo_inurba_marseille","lat":43.28725,"lon":5.37107,"is_reserved":false,"is_disabled":false,"rental_uris":{"android":"levelo://app?vid=be70abc3-9b45-4799-9578-b8b91a7f51b2","ios":"levelo://app?vid=be70abc3-9b45-4799-9578-b8b91a7f51b2"},"vehicle_type_id":"4","last_reported":1685563623,"current_range_meters":25600,"station_id":"","pricing_plan_id":"free"},{"bike_id":"35bfa4ac-7f44-4043-8b80-ca3cb95a558d","system_id":"levelo_inurba_marseille","lat":43.301117,"lon":5.398795,"is_reserved":false,"is_disabled":false,"rental_uris":{"android":"levelo://app?vid=35bfa4ac-7f44-4043-8b80-ca3cb95a558d","ios":"levelo://app?vid=35bfa4ac-7f44-4043-8b80-ca3cb95a558d"},"vehicle_type_id":"4","last_reported":1685563623,"current_range_meters":0,"station_id":"ce4bh0h2rcd13ifvqd40","pricing_plan_id":"free"},{"bike_id":"265b1323-5b4d-4ef8-abf2-ebd34fe138f0","system_id":"levelo_inurba_marseille","lat":43.28713,"lon":5.37392,"is_reserved":false,"is_disabled":false,"rental_uris":{"android":"levelo://app?vid=265b1323-5b4d-4ef8-abf2-ebd34fe138f0","ios":"levelo://app?vid=265b1323-5b4d-4ef8-abf2-ebd34fe138f0"},"vehicle_type_id":"4","last_reported":1685563623,"current_range_meters":8400,"station_id":"","pricing_plan_id":"free"},{"bike_id":"85dc95d9-9295-4654-a705-a7acfa51794f","system_id":"levelo_inurba_marseille","lat":43.286593,"lon":5.363346,"is_reserved":false,"is_disabled":false,"rental_uris":{"android":"levelo://app?vid=85dc95d9-9295-4654-a705-a7acfa51794f","ios":"levelo://app?vid=85dc95d9-9295-4654-a705-a7acfa51794f"},"vehicle_type_id":"4","last_reported":1685563623,"current_range_meters":30400,"station_id":"ce4bhah2rcd13ifvqej0","pricing_plan_id":"free"},{"bike_id":"00826fa9-bdae-4287-ab20-d106d2e5d966","system_id":"levelo_inurba_marseille","lat":43.286591,"lon":5.363346,"is_reserved":false,"is_disabled":false,"rental_uris":{"android":"levelo://app?vid=00826fa9-bdae-4287-ab20-d106d2e5d966","ios":"levelo://app?vid=00826fa9-bdae-4287-ab20-d106d2e5d966"},"vehicle_type_id":"4","last_reported":1685563623,"current_range_meters":31200,"station_id":"ce4bhah2rcd13ifvqej0","pricing_plan_id":"free"},{"bike_id":"d535c997-c3cd-4e9d-83d9-9b0be1b22ab9","system_id":"levelo_inurba_marseille","lat":43.286591,"lon":5.363346,"is_reserved":false,"is_disabled":false,"rental_uris":{"android":"levelo://app?vid=d535c997-c3cd-4e9d-83d9-9b0be1b22ab9","ios":"levelo://app?vid=d535c997-c3cd-4e9d-83d9-9b0be1b22ab9"},"vehicle_type_id":"4","last_reported":1685563623,"current_range_meters":8800,"station_id":"ce4bhah2rcd13ifvqej0","pricing_plan_id":"free"},{"bike_id":"2c15b66d-4d17-4faf-81a4-92799e9ba6fd","system_id":"levelo_inurba_marseille","lat":43.286593,"lon":5.363346,"is_reserved":false,"is_disabled":false,"rental_uris":{"android":"levelo://app?vid=2c15b66d-4d17-4faf-81a4-92799e9ba6fd","ios":"levelo://app?vid=2c15b66d-4d17-4faf-81a4-92799e9ba6fd"},"vehicle_type_id":"4","last_reported":1685563623,"current_range_meters":10000,"station_id":"ce4bhah2rcd13ifvqej0","pricing_plan_id":"free"},{"bike_id":"39e010b7-1a0d-4554-80c5-a9821e22c901","system_id":"levelo_inurba_marseille","lat":43.286591,"lon":5.363346,"is_reserved":false,"is_disabled":false,"rental_uris":{"android":"levelo://app?vid=39e010b7-1a0d-4554-80c5-a9821e22c901","ios":"levelo://app?vid=39e010b7-1a0d-4554-80c5-a9821e22c901"},"vehicle_type_id":"4","last_reported":1685563623,"current_range_meters":400,"station_id":"ce4bhah2rcd13ifvqej0","pricing_plan_id":"free"},{"bike_id":"45bae6c4-f0d0-4460-9f78-cc35c8b82f80","system_id":"levelo_inurba_marseille","lat":43.28701,"lon":5.37381,"is_reserved":false,"is_disabled":false,"rental_uris":{"android":"levelo://app?vid=45bae6c4-f0d0-4460-9f78-cc35c8b82f80","ios":"levelo://app?vid=45bae6c4-f0d0-4460-9f78-cc35c8b82f80"},"vehicle_type_id":"4","last_reported":1685563623,"current_range_meters":28000,"station_id":"","pricing_plan_id":"free"},{"bike_id":"8c69e759-627b-4381-85a1-dbbb2e58a01e","system_id":"levelo_inurba_marseille","lat":43.286593,"lon":5.363346,"is_reserved":false,"is_disabled":false,"rental_uris":{"android":"levelo://app?vid=8c69e759-627b-4381-85a1-dbbb2e58a01e","ios":"levelo://app?vid=8c69e759-627b-4381-85a1-dbbb2e58a01e"},"vehicle_type_id":"4","last_reported":1685563623,"current_range_meters":19200,"station_id":"ce4bhah2rcd13ifvqej0","pricing_plan_id":"free"},{"bike_id":"9850b2ed-7e6b-4e87-a424-358528ed1b58","system_id":"levelo_inurba_marseille","lat":43.286593,"lon":5.363346,"is_reserved":false,"is_disabled":false,"rental_uris":{"android":"levelo://app?vid=9850b2ed-7e6b-4e87-a424-358528ed1b58","ios":"levelo://app?vid=9850b2ed-7e6b-4e87-a424-358528ed1b58"},"vehicle_type_id":"4","last_reported":1685563623,"current_range_meters":10000,"station_id":"ce4bhah2rcd13ifvqej0","pricing_plan_id":"free"},{"bike_id":"7c0bf443-3a0a-4035-82ec-b24091cf4325","system_id":"levelo_inurba_marseille","lat":43.295194,"lon":5.39397,"is_reserved":false,"is_disabled":false,"rental_uris":{"android":"levelo://app?vid=7c0bf443-3a0a-4035-82ec-b24091cf4325","ios":"levelo://app?vid=7c0bf443-3a0a-4035-82ec-b24091cf4325"},"vehicle_type_id":"4","last_reported":1685563623,"current_range_meters":0,"station_id":"ce4bh292rcd13ifvqdf0","pricing_plan_id":"free"},{"bike_id":"e13662ca-484a-4371-b0b6-12c11eb60ec6","system_id":"levelo_inurba_marseille","lat":43.290336,"lon":5.386425,"is_reserved":false,"is_disabled":false,"rental_uris":{"android":"levelo://app?vid=e13662ca-484a-4371-b0b6-12c11eb60ec6","ios":"levelo://app?vid=e13662ca-484a-4371-b0b6-12c11eb60ec6"},"vehicle_type_id":"4","last_reported":1685563623,"current_range_meters":15600,"station_id":"ce4bh4p2rcd13ifvqe0g","pricing_plan_id":"free"},{"bike_id":"de0bbe5d-1352-4495-9fc1-d04f85151a40","system_id":"levelo_inurba_marseille","lat":43.2903,"lon":5.38647,"is_reserved":false,"is_disabled":false,"rental_uris":{"android":"levelo://app?vid=de0bbe5d-1352-4495-9fc1-d04f85151a40","ios":"levelo://app?vid=de0bbe5d-1352-4495-9fc1-d04f85151a40"},"vehicle_type_id":"4","last_reported":1685563623,"current_range_meters":13600,"station_id":"","pricing_plan_id":"free"},{"bike_id":"38b25b11-bbdd-4591-bfdd-c9268ff59cc2","system_id":"levelo_inurba_marseille","lat":43.302759,"lon":5.400793,"is_reserved":false,"is_disabled":false,"rental_uris":{"android":"levelo://app?vid=38b25b11-bbdd-4591-bfdd-c9268ff59cc2","ios":"levelo://app?vid=38b25b11-bbdd-4591-bfdd-c9268ff59cc2"},"vehicle_type_id":"4","last_reported":1685563623,"current_range_meters":10400,"station_id":"ce4bgvh2rcd13ifvqcs0","pricing_plan_id":"free"},{"bike_id":"e618c8d8-8c59-4c29-89a3-b7145715dfed","system_id":"levelo_inurba_marseille","lat":43.29028,"lon":5.38651,"is_reserved":false,"is_disabled":false,"rental_uris":{"android":"levelo://app?vid=e618c8d8-8c59-4c29-89a3-b7145715dfed","ios":"levelo://app?vid=e618c8d8-8c59-4c29-89a3-b7145715dfed"},"vehicle_type_id":"4","last_reported":1685563623,"current_range_meters":12800,"station_id":"ce4bh4p2rcd13ifvqe0g","pricing_plan_id":"free"},{"bike_id":"36abf780-921e-4fa0-86fe-093368397fc3","system_id":"levelo_inurba_marseille","lat":43.302759,"lon":5.400793,"is_reserved":false,"is_disabled":false,"rental_uris":{"android":"levelo://app?vid=36abf780-921e-4fa0-86fe-093368397fc3","ios":"levelo://app?vid=36abf780-921e-4fa0-86fe-093368397fc3"},"vehicle_type_id":"4","last_reported":1685563623,"current_range_meters":18800,"station_id":"ce4bgvh2rcd13ifvqcs0","pricing_plan_id":"free"},{"bike_id":"175c4d96-5f92-45db-9f5b-a68f67bd76c5","system_id":"levelo_inurba_marseille","lat":43.30251,"lon":5.40078,"is_reserved":false,"is_disabled":false,"rental_uris":{"android":"levelo://app?vid=175c4d96-5f92-45db-9f5b-a68f67bd76c5","ios":"levelo://app?vid=175c4d96-5f92-45db-9f5b-a68f67bd76c5"},"vehicle_type_id":"4","last_reported":1685563623,"current_range_meters":2000,"station_id":"","pricing_plan_id":"free"},{"bike_id":"ddbfe616-03c8-4f77-b838-83ebec52b2f5","system_id":"levelo_inurba_marseille","lat":43.286039,"lon":5.370679,"is_reserved":false,"is_disabled":false,"rental_uris":{"android":"levelo://app?vid=ddbfe616-03c8-4f77-b838-83ebec52b2f5","ios":"levelo://app?vid=ddbfe616-03c8-4f77-b838-83ebec52b2f5"},"vehicle_type_id":"4","last_reported":1685563623,"current_range_meters":12400,"station_id":"ce4bht12rcd13ifvqi60","pricing_plan_id":"free"},{"bike_id":"765aebfb-affc-4338-9694-b564f7b6ed10","system_id":"levelo_inurba_marseille","lat":43.286039,"lon":5.370679,"is_reserved":false,"is_disabled":false,"rental_uris":{"android":"levelo://app?vid=765aebfb-affc-4338-9694-b564f7b6ed10","ios":"levelo://app?vid=765aebfb-affc-4338-9694-b564f7b6ed10"},"vehicle_type_id":"4","last_reported":1685563623,"current_range_meters":2800,"station_id":"ce4bht12rcd13ifvqi60","pricing_plan_id":"free"},{"bike_id":"3b4bae20-0fa8-4631-b9a3-24b3af12ce2b","system_id":"levelo_inurba_marseille","lat":43.286039,"lon":5.370679,"is_reserved":false,"is_disabled":false,"rental_uris":{"android":"levelo://app?vid=3b4bae20-0fa8-4631-b9a3-24b3af12ce2b","ios":"levelo://app?vid=3b4bae20-0fa8-4631-b9a3-24b3af12ce2b"},"vehicle_type_id":"4","last_reported":1685563623,"current_range_meters":9200,"station_id":"ce4bht12rcd13ifvqi60","pricing_plan_id":"free"},{"bike_id":"6985961a-d0bc-4de9-9a2e-20050d1a4373","system_id":"levelo_inurba_marseille","lat":43.287185,"lon":5.379373,"is_reserved":false,"is_disabled":false,"rental_uris":{"android":"levelo://app?vid=6985961a-d0bc-4de9-9a2e-20050d1a4373","ios":"levelo://app?vid=6985961a-d0bc-4de9-9a2e-20050d1a4373"},"vehicle_type_id":"4","last_reported":1685563623,"current_range_meters":2000,"station_id":"ce4bh9p2rcd13ifvqec0","pricing_plan_id":"free"},{"bike_id":"e1de985d-19a3-404e-bed1-601c89d05a63","system_id":"levelo_inurba_marseille","lat":43.290336,"lon":5.386425,"is_reserved":false,"is_disabled":false,"rental_uris":{"android":"levelo://app?vid=e1de985d-19a3-404e-bed1-601c89d05a63","ios":"levelo://app?vid=e1de985d-19a3-404e-bed1-601c89d05a63"},"vehicle_type_id":"4","last_reported":1685563623,"current_range_meters":0,"station_id":"ce4bh4p2rcd13ifvqe0g","pricing_plan_id":"free"},{"bike_id":"ba5ee574-329e-4e5c-9e17-a7ffa161218f","system_id":"levelo_inurba_marseille","lat":43.316517,"lon":5.404375,"is_reserved":false,"is_disabled":false,"rental_uris":{"android":"levelo://app?vid=ba5ee574-329e-4e5c-9e17-a7ffa161218f","ios":"levelo://app?vid=ba5ee574-329e-4e5c-9e17-a7ffa161218f"},"vehicle_type_id":"4","last_reported":1685563623,"current_range_meters":0,"station_id":"ce4bh012rcd13ifvqd00","pricing_plan_id":"free"},{"bike_id":"4c44211f-50d9-4fb5-903e-5e8a7cdbdd4a","system_id":"levelo_inurba_marseille","lat":43.316523,"lon":5.404367,"is_reserved":false,"is_disabled":false,"rental_uris":{"android":"levelo://app?vid=4c44211f-50d9-4fb5-903e-5e8a7cdbdd4a","ios":"levelo://app?vid=4c44211f-50d9-4fb5-903e-5e8a7cdbdd4a"},"vehicle_type_id":"4","last_reported":1685563623,"current_range_meters":4400,"station_id":"ce4bh012rcd13ifvqd00","pricing_plan_id":"free"},{"bike_id":"bff91eae-6023-48e2-bb1b-e8aca893a79e","system_id":"levelo_inurba_marseille","lat":43.316523,"lon":5.404367,"is_reserved":false,"is_disabled":false,"rental_uris":{"android":"levelo://app?vid=bff91eae-6023-48e2-bb1b-e8aca893a79e","ios":"levelo://app?vid=bff91eae-6023-48e2-bb1b-e8aca893a79e"},"vehicle_type_id":"4","last_reported":1685563623,"current_range_meters":15200,"station_id":"ce4bh012rcd13ifvqd00","pricing_plan_id":"free"},{"bike_id":"5022d178-8aef-4346-890f-20103fb39def","system_id":"levelo_inurba_marseille","lat":43.316517,"lon":5.404375,"is_reserved":false,"is_disabled":false,"rental_uris":{"android":"levelo://app?vid=5022d178-8aef-4346-890f-20103fb39def","ios":"levelo://app?vid=5022d178-8aef-4346-890f-20103fb39def"},"vehicle_type_id":"4","last_reported":1685563623,"current_range_meters":22400,"station_id":"ce4bh012rcd13ifvqd00","pricing_plan_id":"free"},{"bike_id":"2791305c-c3f9-4d49-b165-c3e4d4b4f460","system_id":"levelo_inurba_marseille","lat":43.316523,"lon":5.404367,"is_reserved":false,"is_disabled":false,"rental_uris":{"android":"levelo://app?vid=2791305c-c3f9-4d49-b165-c3e4d4b4f460","ios":"levelo://app?vid=2791305c-c3f9-4d49-b165-c3e4d4b4f460"},"vehicle_type_id":"4","last_reported":1685563623,"current_range_meters":8800,"station_id":"ce4bh012rcd13ifvqd00","pricing_plan_id":"free"},{"bike_id":"04c83b4d-e038-4c84-9eb5-d4b080a79d94","system_id":"levelo_inurba_marseille","lat":43.316523,"lon":5.404367,"is_reserved":false,"is_disabled":false,"rental_uris":{"android":"levelo://app?vid=04c83b4d-e038-4c84-9eb5-d4b080a79d94","ios":"levelo://app?vid=04c83b4d-e038-4c84-9eb5-d4b080a79d94"},"vehicle_type_id":"4","last_reported":1685563623,"current_range_meters":5200,"station_id":"ce4bh012rcd13ifvqd00","pricing_plan_id":"free"},{"bike_id":"a61729b6-978b-4d04-83b7-c789dd33b3ad","system_id":"levelo_inurba_marseille","lat":43.291994,"lon":5.392907,"is_reserved":false,"is_disabled":false,"rental_uris":{"android":"levelo://app?vid=a61729b6-978b-4d04-83b7-c789dd33b3ad","ios":"levelo://app?vid=a61729b6-978b-4d04-83b7-c789dd33b3ad"},"vehicle_type_id":"4","last_reported":1685563623,"current_range_meters":1600,"station_id":"ce4bh192rcd13ifvqdd0","pricing_plan_id":"free"},{"bike_id":"3d2fe937-acbd-4e7f-825c-e8d013d5d319","system_id":"levelo_inurba_marseille","lat":43.29191,"lon":5.39319,"is_reserved":false,"is_disabled":false,"rental_uris":{"android":"levelo://app?vid=3d2fe937-acbd-4e7f-825c-e8d013d5d319","ios":"levelo://app?vid=3d2fe937-acbd-4e7f-825c-e8d013d5d319"},"vehicle_type_id":"4","last_reported":1685563623,"current_range_meters":2400,"station_id":"ce4bh192rcd13ifvqdd0","pricing_plan_id":"free"},{"bike_id":"03c7e3f6-1422-4064-a0db-6183d54f9c58","system_id":"levelo_inurba_marseille","lat":43.284534,"lon":5.358662,"is_reserved":false,"is_disabled":false,"rental_uris":{"android":"levelo://app?vid=03c7e3f6-1422-4064-a0db-6183d54f9c58","ios":"levelo://app?vid=03c7e3f6-1422-4064-a0db-6183d54f9c58"},"vehicle_type_id":"4","last_reported":1685563623,"current_range_meters":0,"station_id":"ce4bhah2rcd13ifvqei0","pricing_plan_id":"free"},{"bike_id":"a27fe220-3868-45ac-91c2-799f1cab2742","system_id":"levelo_inurba_marseille","lat":43.284534,"lon":5.358662,"is_reserved":false,"is_disabled":false,"rental_uris":{"android":"levelo://app?vid=a27fe220-3868-45ac-91c2-799f1cab2742","ios":"levelo://app?vid=a27fe220-3868-45ac-91c2-799f1cab2742"},"vehicle_type_id":"4","last_reported":1685563623,"current_range_meters":8400,"station_id":"ce4bhah2rcd13ifvqei0","pricing_plan_id":"free"},{"bike_id":"b53b9376-b988-485d-b626-659df460cf30","system_id":"levelo_inurba_marseille","lat":43.284534,"lon":5.358662,"is_reserved":false,"is_disabled":false,"rental_uris":{"android":"levelo://app?vid=b53b9376-b988-485d-b626-659df460cf30","ios":"levelo://app?vid=b53b9376-b988-485d-b626-659df460cf30"},"vehicle_type_id":"4","last_reported":1685563623,"current_range_meters":6000,"station_id":"ce4bhah2rcd13ifvqei0","pricing_plan_id":"free"},{"bike_id":"3dfc30b0-5c9d-450f-87e5-a0bc9d5b383e","system_id":"levelo_inurba_marseille","lat":43.284534,"lon":5.358662,"is_reserved":false,"is_disabled":false,"rental_uris":{"android":"levelo://app?vid=3dfc30b0-5c9d-450f-87e5-a0bc9d5b383e","ios":"levelo://app?vid=3dfc30b0-5c9d-450f-87e5-a0bc9d5b383e"},"vehicle_type_id":"4","last_reported":1685563623,"current_range_meters":7200,"station_id":"ce4bhah2rcd13ifvqei0","pricing_plan_id":"free"},{"bike_id":"8c22106a-1733-4c51-ad14-60f0856bf26f","system_id":"levelo_inurba_marseille","lat":43.295713,"lon":5.399639,"is_reserved":false,"is_disabled":false,"rental_uris":{"android":"levelo://app?vid=8c22106a-1733-4c51-ad14-60f0856bf26f","ios":"levelo://app?vid=8c22106a-1733-4c51-ad14-60f0856bf26f"},"vehicle_type_id":"4","last_reported":1685563623,"current_range_meters":16800,"station_id":"ce4bh312rcd13ifvqdj0","pricing_plan_id":"free"},{"bike_id":"00b9aab4-42c1-48c3-bc66-40c23fc1b34a","system_id":"levelo_inurba_marseille","lat":43.295713,"lon":5.399639,"is_reserved":false,"is_disabled":false,"rental_uris":{"android":"levelo://app?vid=00b9aab4-42c1-48c3-bc66-40c23fc1b34a","ios":"levelo://app?vid=00b9aab4-42c1-48c3-bc66-40c23fc1b34a"},"vehicle_type_id":"4","last_reported":1685563623,"current_range_meters":16800,"station_id":"ce4bh312rcd13ifvqdj0","pricing_plan_id":"free"},{"bike_id":"d463a253-bb36-4652-b5ff-01ec706b40e5","system_id":"levelo_inurba_marseille","lat":43.295713,"lon":5.399639,"is_reserved":false,"is_disabled":false,"rental_uris":{"android":"levelo://app?vid=d463a253-bb36-4652-b5ff-01ec706b40e5","ios":"levelo://app?vid=d463a253-bb36-4652-b5ff-01ec706b40e5"},"vehicle_type_id":"4","last_reported":1685563623,"current_range_meters":5600,"station_id":"ce4bh312rcd13ifvqdj0","pricing_plan_id":"free"},{"bike_id":"848ed282-cad2-4d70-912e-37a123ca4d01","system_id":"levelo_inurba_marseille","lat":43.286595,"lon":5.386795,"is_reserved":false,"is_disabled":false,"rental_uris":{"android":"levelo://app?vid=848ed282-cad2-4d70-912e-37a123ca4d01","ios":"levelo://app?vid=848ed282-cad2-4d70-912e-37a123ca4d01"},"vehicle_type_id":"4","last_reported":1685563623,"current_range_meters":18000,"station_id":"ce4bh492rcd13ifvqdug","pricing_plan_id":"free"},{"bike_id":"5df871e9-80d6-4175-966d-d1ced8a5ad6c","system_id":"levelo_inurba_marseille","lat":43.3269,"lon":5.40381,"is_reserved":false,"is_disabled":false,"rental_uris":{"android":"levelo://app?vid=5df871e9-80d6-4175-966d-d1ced8a5ad6c","ios":"levelo://app?vid=5df871e9-80d6-4175-966d-d1ced8a5ad6c"},"vehicle_type_id":"4","last_reported":1685563623,"current_range_meters":28800,"station_id":"","pricing_plan_id":"free"},{"bike_id":"08954dab-c40b-4bd2-9e6f-58e2017639e4","system_id":"levelo_inurba_marseille","lat":43.288497,"lon":5.393089,"is_reserved":false,"is_disabled":false,"rental_uris":{"android":"levelo://app?vid=08954dab-c40b-4bd2-9e6f-58e2017639e4","ios":"levelo://app?vid=08954dab-c40b-4bd2-9e6f-58e2017639e4"},"vehicle_type_id":"4","last_reported":1685563623,"current_range_meters":13600,"station_id":"ce4bh2p2rcd13ifvqdi0","pricing_plan_id":"free"},{"bike_id":"d3779fbd-8ab3-4965-96cc-83aa4df55c0f","system_id":"levelo_inurba_marseille","lat":43.296263,"lon":5.40601,"is_reserved":false,"is_disabled":false,"rental_uris":{"android":"levelo://app?vid=d3779fbd-8ab3-4965-96cc-83aa4df55c0f","ios":"levelo://app?vid=d3779fbd-8ab3-4965-96cc-83aa4df55c0f"},"vehicle_type_id":"4","last_reported":1685563623,"current_range_meters":26400,"station_id":"ce4bh0h2rcd13ifvqd60","pricing_plan_id":"free"},{"bike_id":"5268763b-1380-4336-a223-698145d64b79","system_id":"levelo_inurba_marseille","lat":43.284209,"lon":5.349719,"is_reserved":false,"is_disabled":false,"rental_uris":{"android":"levelo://app?vid=5268763b-1380-4336-a223-698145d64b79","ios":"levelo://app?vid=5268763b-1380-4336-a223-698145d64b79"},"vehicle_type_id":"4","last_reported":1685563623,"current_range_meters":27600,"station_id":"ce4bhbh2rcd13ifvqepg","pricing_plan_id":"free"},{"bike_id":"d928577e-0cd2-4d9e-a2c6-e4e53bca980d","system_id":"levelo_inurba_marseille","lat":43.281044,"lon":5.378308,"is_reserved":false,"is_disabled":false,"rental_uris":{"android":"levelo://app?vid=d928577e-0cd2-4d9e-a2c6-e4e53bca980d","ios":"levelo://app?vid=d928577e-0cd2-4d9e-a2c6-e4e53bca980d"},"vehicle_type_id":"4","last_reported":1685563623,"current_range_meters":18800,"station_id":"ce4bha12rcd13ifvqee0","pricing_plan_id":"free"},{"bike_id":"0f711e7d-4abc-41bd-8483-612dc3417ceb","system_id":"levelo_inurba_marseille","lat":43.292724,"lon":5.401131,"is_reserved":false,"is_disabled":false,"rental_uris":{"android":"levelo://app?vid=0f711e7d-4abc-41bd-8483-612dc3417ceb","ios":"levelo://app?vid=0f711e7d-4abc-41bd-8483-612dc3417ceb"},"vehicle_type_id":"4","last_reported":1685563623,"current_range_meters":28400,"station_id":"ce4bh312rcd13ifvqdk0","pricing_plan_id":"free"},{"bike_id":"c13e0b55-809f-4f86-bcef-ec640881046e","system_id":"levelo_inurba_marseille","lat":43.292724,"lon":5.401131,"is_reserved":false,"is_disabled":false,"rental_uris":{"android":"levelo://app?vid=c13e0b55-809f-4f86-bcef-ec640881046e","ios":"levelo://app?vid=c13e0b55-809f-4f86-bcef-ec640881046e"},"vehicle_type_id":"4","last_reported":1685563623,"current_range_meters":9600,"station_id":"ce4bh312rcd13ifvqdk0","pricing_plan_id":"free"},{"bike_id":"0f213988-6999-4b7e-ab8f-0f979e1d06ab","system_id":"levelo_inurba_marseille","lat":43.28039,"lon":5.369297,"is_reserved":false,"is_disabled":false,"rental_uris":{"android":"levelo://app?vid=0f213988-6999-4b7e-ab8f-0f979e1d06ab","ios":"levelo://app?vid=0f213988-6999-4b7e-ab8f-0f979e1d06ab"},"vehicle_type_id":"4","last_reported":1685563623,"current_range_meters":5600,"station_id":"ce4bha12rcd13ifvqef0","pricing_plan_id":"free"},{"bike_id":"ef96b259-4ff2-4502-a467-43d7edac6ad2","system_id":"levelo_inurba_marseille","lat":43.28039,"lon":5.369297,"is_reserved":false,"is_disabled":false,"rental_uris":{"android":"levelo://app?vid=ef96b259-4ff2-4502-a467-43d7edac6ad2","ios":"levelo://app?vid=ef96b259-4ff2-4502-a467-43d7edac6ad2"},"vehicle_type_id":"4","last_reported":1685563623,"current_range_meters":19200,"station_id":"ce4bha12rcd13ifvqef0","pricing_plan_id":"free"},{"bike_id":"1a50fe55-58d4-4477-b617-b326e2a7a605","system_id":"levelo_inurba_marseille","lat":43.28039,"lon":5.369297,"is_reserved":false,"is_disabled":false,"rental_uris":{"android":"levelo://app?vid=1a50fe55-58d4-4477-b617-b326e2a7a605","ios":"levelo://app?vid=1a50fe55-58d4-4477-b617-b326e2a7a605"},"vehicle_type_id":"4","last_reported":1685563623,"current_range_meters":30400,"station_id":"ce4bha12rcd13ifvqef0","pricing_plan_id":"free"},{"bike_id":"8b9b3b02-de53-4208-8b5e-14d80f1328bd","system_id":"levelo_inurba_marseille","lat":43.28039,"lon":5.369297,"is_reserved":false,"is_disabled":false,"rental_uris":{"android":"levelo://app?vid=8b9b3b02-de53-4208-8b5e-14d80f1328bd","ios":"levelo://app?vid=8b9b3b02-de53-4208-8b5e-14d80f1328bd"},"vehicle_type_id":"4","last_reported":1685563623,"current_range_meters":17200,"station_id":"ce4bha12rcd13ifvqef0","pricing_plan_id":"free"},{"bike_id":"17d1cdc3-bde6-42e7-b767-6bc6e004325a","system_id":"levelo_inurba_marseille","lat":43.280382,"lon":5.369291,"is_reserved":false,"is_disabled":false,"rental_uris":{"android":"levelo://app?vid=17d1cdc3-bde6-42e7-b767-6bc6e004325a","ios":"levelo://app?vid=17d1cdc3-bde6-42e7-b767-6bc6e004325a"},"vehicle_type_id":"4","last_reported":1685563623,"current_range_meters":28400,"station_id":"ce4bha12rcd13ifvqef0","pricing_plan_id":"free"},{"bike_id":"5149f031-ad70-4944-a1a3-cec9f2411d20","system_id":"levelo_inurba_marseille","lat":43.28039,"lon":5.369297,"is_reserved":false,"is_disabled":false,"rental_uris":{"android":"levelo://app?vid=5149f031-ad70-4944-a1a3-cec9f2411d20","ios":"levelo://app?vid=5149f031-ad70-4944-a1a3-cec9f2411d20"},"vehicle_type_id":"4","last_reported":1685563623,"current_range_meters":18400,"station_id":"ce4bha12rcd13ifvqef0","pricing_plan_id":"free"},{"bike_id":"9dbd11ae-d04b-4faf-bc52-1e6e12e92241","system_id":"levelo_inurba_marseille","lat":43.281044,"lon":5.378308,"is_reserved":false,"is_disabled":false,"rental_uris":{"android":"levelo://app?vid=9dbd11ae-d04b-4faf-bc52-1e6e12e92241","ios":"levelo://app?vid=9dbd11ae-d04b-4faf-bc52-1e6e12e92241"},"vehicle_type_id":"4","last_reported":1685563623,"current_range_meters":400,"station_id":"ce4bha12rcd13ifvqee0","pricing_plan_id":"free"},{"bike_id":"81acfea1-ff93-4f09-9413-d97052a879bd","system_id":"levelo_inurba_marseille","lat":43.290412,"lon":5.399633,"is_reserved":false,"is_disabled":false,"rental_uris":{"android":"levelo://app?vid=81acfea1-ff93-4f09-9413-d97052a879bd","ios":"levelo://app?vid=81acfea1-ff93-4f09-9413-d97052a879bd"},"vehicle_type_id":"4","last_reported":1685563623,"current_range_meters":7600,"station_id":"ce4bh392rcd13ifvqdm0","pricing_plan_id":"free"},{"bike_id":"8b4a8f33-31ad-4793-abe4-d3031bb9c733","system_id":"levelo_inurba_marseille","lat":43.281044,"lon":5.378308,"is_reserved":false,"is_disabled":false,"rental_uris":{"android":"levelo://app?vid=8b4a8f33-31ad-4793-abe4-d3031bb9c733","ios":"levelo://app?vid=8b4a8f33-31ad-4793-abe4-d3031bb9c733"},"vehicle_type_id":"4","last_reported":1685563623,"current_range_meters":10800,"station_id":"ce4bha12rcd13ifvqee0","pricing_plan_id":"free"},{"bike_id":"6d4dad9f-6dfd-4c51-bc93-ffb5d56ead3e","system_id":"levelo_inurba_marseille","lat":43.281044,"lon":5.378308,"is_reserved":false,"is_disabled":false,"rental_uris":{"android":"levelo://app?vid=6d4dad9f-6dfd-4c51-bc93-ffb5d56ead3e","ios":"levelo://app?vid=6d4dad9f-6dfd-4c51-bc93-ffb5d56ead3e"},"vehicle_type_id":"4","last_reported":1685563623,"current_range_meters":16800,"station_id":"ce4bha12rcd13ifvqee0","pricing_plan_id":"free"},{"bike_id":"d172a3e9-5711-4f2c-9958-1e904bfde297","system_id":"levelo_inurba_marseille","lat":43.281044,"lon":5.378308,"is_reserved":false,"is_disabled":false,"rental_uris":{"android":"levelo://app?vid=d172a3e9-5711-4f2c-9958-1e904bfde297","ios":"levelo://app?vid=d172a3e9-5711-4f2c-9958-1e904bfde297"},"vehicle_type_id":"4","last_reported":1685563623,"current_range_meters":0,"station_id":"ce4bha12rcd13ifvqee0","pricing_plan_id":"free"},{"bike_id":"62fdfdc5-ebdf-450f-b1e2-df243853d6f0","system_id":"levelo_inurba_marseille","lat":43.28101,"lon":5.37843,"is_reserved":false,"is_disabled":false,"rental_uris":{"android":"levelo://app?vid=62fdfdc5-ebdf-450f-b1e2-df243853d6f0","ios":"levelo://app?vid=62fdfdc5-ebdf-450f-b1e2-df243853d6f0"},"vehicle_type_id":"4","last_reported":1685563623,"current_range_meters":14400,"station_id":"ce4bha12rcd13ifvqee0","pricing_plan_id":"free"},{"bike_id":"5ddc29c7-48dc-4026-8e5b-a0671c46b6c0","system_id":"levelo_inurba_marseille","lat":43.284462,"lon":5.392121,"is_reserved":false,"is_disabled":false,"rental_uris":{"android":"levelo://app?vid=5ddc29c7-48dc-4026-8e5b-a0671c46b6c0","ios":"levelo://app?vid=5ddc29c7-48dc-4026-8e5b-a0671c46b6c0"},"vehicle_type_id":"4","last_reported":1685563623,"current_range_meters":16000,"station_id":"ce4bhoh2rcd13ifvqh5g","pricing_plan_id":"free"},{"bike_id":"5288a41a-b81d-4877-8b96-c664e8432afd","system_id":"levelo_inurba_marseille","lat":43.32628,"lon":5.40926,"is_reserved":false,"is_disabled":false,"rental_uris":{"android":"levelo://app?vid=5288a41a-b81d-4877-8b96-c664e8432afd","ios":"levelo://app?vid=5288a41a-b81d-4877-8b96-c664e8432afd"},"vehicle_type_id":"4","last_reported":1685563623,"current_range_meters":24400,"station_id":"","pricing_plan_id":"free"},{"bike_id":"b97c96db-b8a0-406f-9469-ec52d8e69fb6","system_id":"levelo_inurba_marseille","lat":43.28577,"lon":5.39496,"is_reserved":false,"is_disabled":false,"rental_uris":{"android":"levelo://app?vid=b97c96db-b8a0-406f-9469-ec52d8e69fb6","ios":"levelo://app?vid=b97c96db-b8a0-406f-9469-ec52d8e69fb6"},"vehicle_type_id":"4","last_reported":1685563623,"current_range_meters":1200,"station_id":"ce4bh292rcd13ifvqdg0","pricing_plan_id":"free"},{"bike_id":"3b6ceb24-05aa-4ff7-9627-07d06cccd75c","system_id":"levelo_inurba_marseille","lat":43.285742,"lon":5.395004,"is_reserved":false,"is_disabled":false,"rental_uris":{"android":"levelo://app?vid=3b6ceb24-05aa-4ff7-9627-07d06cccd75c","ios":"levelo://app?vid=3b6ceb24-05aa-4ff7-9627-07d06cccd75c"},"vehicle_type_id":"4","last_reported":1685563623,"current_range_meters":7600,"station_id":"ce4bh292rcd13ifvqdg0","pricing_plan_id":"free"},{"bike_id":"ffc72560-4563-4723-aa74-e9045fa3cd60","system_id":"levelo_inurba_marseille","lat":43.241782,"lon":5.397261,"is_reserved":false,"is_disabled":false,"rental_uris":{"android":"levelo://app?vid=ffc72560-4563-4723-aa74-e9045fa3cd60","ios":"levelo://app?vid=ffc72560-4563-4723-aa74-e9045fa3cd60"},"vehicle_type_id":"4","last_reported":1685563623,"current_range_meters":15200,"station_id":"ce4bhn12rcd13ifvqgpg","pricing_plan_id":"free"},{"bike_id":"c68c4f80-5956-48f8-846e-9582e0907ea8","system_id":"levelo_inurba_marseille","lat":43.27904,"lon":5.38017,"is_reserved":false,"is_disabled":false,"rental_uris":{"android":"levelo://app?vid=c68c4f80-5956-48f8-846e-9582e0907ea8","ios":"levelo://app?vid=c68c4f80-5956-48f8-846e-9582e0907ea8"},"vehicle_type_id":"4","last_reported":1685563623,"current_range_meters":13200,"station_id":"","pricing_plan_id":"free"},{"bike_id":"c6048c7c-2837-48b9-98df-7d42be2948ab","system_id":"levelo_inurba_marseille","lat":43.27902,"lon":5.38018,"is_reserved":false,"is_disabled":false,"rental_uris":{"android":"levelo://app?vid=c6048c7c-2837-48b9-98df-7d42be2948ab","ios":"levelo://app?vid=c6048c7c-2837-48b9-98df-7d42be2948ab"},"vehicle_type_id":"4","last_reported":1685563623,"current_range_meters":16400,"station_id":"","pricing_plan_id":"free"},{"bike_id":"6831c670-6fa1-48e4-9870-e13279e17df3","system_id":"levelo_inurba_marseille","lat":43.320045,"lon":5.415046,"is_reserved":false,"is_disabled":false,"rental_uris":{"android":"levelo://app?vid=6831c670-6fa1-48e4-9870-e13279e17df3","ios":"levelo://app?vid=6831c670-6fa1-48e4-9870-e13279e17df3"},"vehicle_type_id":"4","last_reported":1685563623,"current_range_meters":29200,"station_id":"ce4bhq92rcd13ifvqhkg","pricing_plan_id":"free"},{"bike_id":"fc0c2cd1-47cc-4366-b24d-d18948bd6469","system_id":"levelo_inurba_marseille","lat":43.299577,"lon":5.413277,"is_reserved":false,"is_disabled":false,"rental_uris":{"android":"levelo://app?vid=fc0c2cd1-47cc-4366-b24d-d18948bd6469","ios":"levelo://app?vid=fc0c2cd1-47cc-4366-b24d-d18948bd6469"},"vehicle_type_id":"4","last_reported":1685563623,"current_range_meters":18800,"station_id":"ce4bhp12rcd13ifvqh9g","pricing_plan_id":"free"},{"bike_id":"7e4031ac-ec75-44b3-994f-94b41055cc4b","system_id":"levelo_inurba_marseille","lat":43.320045,"lon":5.415048,"is_reserved":false,"is_disabled":false,"rental_uris":{"android":"levelo://app?vid=7e4031ac-ec75-44b3-994f-94b41055cc4b","ios":"levelo://app?vid=7e4031ac-ec75-44b3-994f-94b41055cc4b"},"vehicle_type_id":"4","last_reported":1685563623,"current_range_meters":27200,"station_id":"ce4bhq92rcd13ifvqhkg","pricing_plan_id":"free"},{"bike_id":"b92a1e5d-f474-49da-80ff-ea2bcc340262","system_id":"levelo_inurba_marseille","lat":43.32044,"lon":5.41555,"is_reserved":false,"is_disabled":false,"rental_uris":{"android":"levelo://app?vid=b92a1e5d-f474-49da-80ff-ea2bcc340262","ios":"levelo://app?vid=b92a1e5d-f474-49da-80ff-ea2bcc340262"},"vehicle_type_id":"4","last_reported":1685563623,"current_range_meters":30000,"station_id":"","pricing_plan_id":"free"},{"bike_id":"353b660e-4576-4a33-8107-2c47b4ca57cc","system_id":"levelo_inurba_marseille","lat":43.320045,"lon":5.415046,"is_reserved":false,"is_disabled":false,"rental_uris":{"android":"levelo://app?vid=353b660e-4576-4a33-8107-2c47b4ca57cc","ios":"levelo://app?vid=353b660e-4576-4a33-8107-2c47b4ca57cc"},"vehicle_type_id":"4","last_reported":1685563623,"current_range_meters":30000,"station_id":"ce4bhq92rcd13ifvqhkg","pricing_plan_id":"free"},{"bike_id":"dd602990-43c8-44cd-95ed-5d1a0457189b","system_id":"levelo_inurba_marseille","lat":43.32037,"lon":5.41562,"is_reserved":false,"is_disabled":false,"rental_uris":{"android":"levelo://app?vid=dd602990-43c8-44cd-95ed-5d1a0457189b","ios":"levelo://app?vid=dd602990-43c8-44cd-95ed-5d1a0457189b"},"vehicle_type_id":"4","last_reported":1685563623,"current_range_meters":28800,"station_id":"","pricing_plan_id":"free"},{"bike_id":"dba12b91-7596-4795-bf77-fd6d49e21b99","system_id":"levelo_inurba_marseille","lat":43.279742,"lon":5.38744,"is_reserved":false,"is_disabled":false,"rental_uris":{"android":"levelo://app?vid=dba12b91-7596-4795-bf77-fd6d49e21b99","ios":"levelo://app?vid=dba12b91-7596-4795-bf77-fd6d49e21b99"},"vehicle_type_id":"4","last_reported":1685563623,"current_range_meters":6000,"station_id":"ce4bhg12rcd13ifvqf80","pricing_plan_id":"free"},{"bike_id":"7bd282ed-14c0-4573-8503-f47466baca13","system_id":"levelo_inurba_marseille","lat":43.320045,"lon":5.415048,"is_reserved":false,"is_disabled":false,"rental_uris":{"android":"levelo://app?vid=7bd282ed-14c0-4573-8503-f47466baca13","ios":"levelo://app?vid=7bd282ed-14c0-4573-8503-f47466baca13"},"vehicle_type_id":"4","last_reported":1685563623,"current_range_meters":31200,"station_id":"ce4bhq92rcd13ifvqhkg","pricing_plan_id":"free"},{"bike_id":"7fc6d43d-5248-4181-b14d-5c0a8953830f","system_id":"levelo_inurba_marseille","lat":43.320045,"lon":5.415046,"is_reserved":false,"is_disabled":false,"rental_uris":{"android":"levelo://app?vid=7fc6d43d-5248-4181-b14d-5c0a8953830f","ios":"levelo://app?vid=7fc6d43d-5248-4181-b14d-5c0a8953830f"},"vehicle_type_id":"4","last_reported":1685563623,"current_range_meters":28400,"station_id":"ce4bhq92rcd13ifvqhkg","pricing_plan_id":"free"},{"bike_id":"cd3fb09f-a1b6-45f5-89f3-b5047d2cc92e","system_id":"levelo_inurba_marseille","lat":43.27618,"lon":5.361009,"is_reserved":false,"is_disabled":false,"rental_uris":{"android":"levelo://app?vid=cd3fb09f-a1b6-45f5-89f3-b5047d2cc92e","ios":"levelo://app?vid=cd3fb09f-a1b6-45f5-89f3-b5047d2cc92e"},"vehicle_type_id":"4","last_reported":1685563623,"current_range_meters":6000,"station_id":"ce4bgj92rcd13ifvqbe0","pricing_plan_id":"free"},{"bike_id":"3698970e-5400-4526-958f-b404076a3263","system_id":"levelo_inurba_marseille","lat":43.32053,"lon":5.41586,"is_reserved":false,"is_disabled":false,"rental_uris":{"android":"levelo://app?vid=3698970e-5400-4526-958f-b404076a3263","ios":"levelo://app?vid=3698970e-5400-4526-958f-b404076a3263"},"vehicle_type_id":"4","last_reported":1685563623,"current_range_meters":28800,"station_id":"","pricing_plan_id":"free"},{"bike_id":"1912339d-d359-4974-9a88-65115e3afee0","system_id":"levelo_inurba_marseille","lat":43.292569,"lon":5.409107,"is_reserved":false,"is_disabled":false,"rental_uris":{"android":"levelo://app?vid=1912339d-d359-4974-9a88-65115e3afee0","ios":"levelo://app?vid=1912339d-d359-4974-9a88-65115e3afee0"},"vehicle_type_id":"4","last_reported":1685563623,"current_range_meters":2800,"station_id":"ce4bh192rcd13ifvqdc0","pricing_plan_id":"free"},{"bike_id":"65a25d67-170d-4d6f-9e5a-bbad0c807b69","system_id":"levelo_inurba_marseille","lat":43.292571,"lon":5.409107,"is_reserved":false,"is_disabled":false,"rental_uris":{"android":"levelo://app?vid=65a25d67-170d-4d6f-9e5a-bbad0c807b69","ios":"levelo://app?vid=65a25d67-170d-4d6f-9e5a-bbad0c807b69"},"vehicle_type_id":"4","last_reported":1685563623,"current_range_meters":0,"station_id":"ce4bh192rcd13ifvqdc0","pricing_plan_id":"free"},{"bike_id":"b431b6dd-7e7e-4d99-bc98-93782dca5792","system_id":"levelo_inurba_marseille","lat":43.27618,"lon":5.361009,"is_reserved":false,"is_disabled":false,"rental_uris":{"android":"levelo://app?vid=b431b6dd-7e7e-4d99-bc98-93782dca5792","ios":"levelo://app?vid=b431b6dd-7e7e-4d99-bc98-93782dca5792"},"vehicle_type_id":"4","last_reported":1685563623,"current_range_meters":14800,"station_id":"ce4bgj92rcd13ifvqbe0","pricing_plan_id":"free"},{"bike_id":"54a5789f-230d-4d81-9866-d44b91d0297e","system_id":"levelo_inurba_marseille","lat":43.29804,"lon":5.4147,"is_reserved":false,"is_disabled":false,"rental_uris":{"android":"levelo://app?vid=54a5789f-230d-4d81-9866-d44b91d0297e","ios":"levelo://app?vid=54a5789f-230d-4d81-9866-d44b91d0297e"},"vehicle_type_id":"4","last_reported":1685563623,"current_range_meters":800,"station_id":"","pricing_plan_id":"free"},{"bike_id":"ddf1131e-e816-46c9-9279-214086f682e0","system_id":"levelo_inurba_marseille","lat":43.30349,"lon":5.4188,"is_reserved":false,"is_disabled":false,"rental_uris":{"android":"levelo://app?vid=ddf1131e-e816-46c9-9279-214086f682e0","ios":"levelo://app?vid=ddf1131e-e816-46c9-9279-214086f682e0"},"vehicle_type_id":"4","last_reported":1685563623,"current_range_meters":6800,"station_id":"","pricing_plan_id":"free"},{"bike_id":"58155b0d-c60d-4dbc-9776-add50dfa4439","system_id":"levelo_inurba_marseille","lat":43.278399,"lon":5.392139,"is_reserved":false,"is_disabled":false,"rental_uris":{"android":"levelo://app?vid=58155b0d-c60d-4dbc-9776-add50dfa4439","ios":"levelo://app?vid=58155b0d-c60d-4dbc-9776-add50dfa4439"},"vehicle_type_id":"4","last_reported":1685563623,"current_range_meters":11600,"station_id":"ce4bhjp2rcd13ifvqga0","pricing_plan_id":"free"},{"bike_id":"62ef1cbb-27b0-4109-af85-23ec6bdfe10f","system_id":"levelo_inurba_marseille","lat":43.27823,"lon":5.39202,"is_reserved":false,"is_disabled":false,"rental_uris":{"android":"levelo://app?vid=62ef1cbb-27b0-4109-af85-23ec6bdfe10f","ios":"levelo://app?vid=62ef1cbb-27b0-4109-af85-23ec6bdfe10f"},"vehicle_type_id":"4","last_reported":1685563623,"current_range_meters":0,"station_id":"ce4bhjp2rcd13ifvqga0","pricing_plan_id":"free"},{"bike_id":"43eb1b33-0e7f-4d59-b6c1-627871ea6be4","system_id":"levelo_inurba_marseille","lat":43.278289,"lon":5.392178,"is_reserved":false,"is_disabled":false,"rental_uris":{"android":"levelo://app?vid=43eb1b33-0e7f-4d59-b6c1-627871ea6be4","ios":"levelo://app?vid=43eb1b33-0e7f-4d59-b6c1-627871ea6be4"},"vehicle_type_id":"4","last_reported":1685563623,"current_range_meters":4000,"station_id":"ce4bhjp2rcd13ifvqga0","pricing_plan_id":"free"},{"bike_id":"cc234879-9a85-4449-bfa3-9f802734799f","system_id":"levelo_inurba_marseille","lat":43.27377,"lon":5.3625,"is_reserved":false,"is_disabled":false,"rental_uris":{"android":"levelo://app?vid=cc234879-9a85-4449-bfa3-9f802734799f","ios":"levelo://app?vid=cc234879-9a85-4449-bfa3-9f802734799f"},"vehicle_type_id":"4","last_reported":1685563623,"current_range_meters":2800,"station_id":"ce4bhbh2rcd13ifvqeo0","pricing_plan_id":"free"},{"bike_id":"ab9b9128-2a1a-4090-8792-029501f45a74","system_id":"levelo_inurba_marseille","lat":43.27376,"lon":5.3626,"is_reserved":false,"is_disabled":false,"rental_uris":{"android":"levelo://app?vid=ab9b9128-2a1a-4090-8792-029501f45a74","ios":"levelo://app?vid=ab9b9128-2a1a-4090-8792-029501f45a74"},"vehicle_type_id":"4","last_reported":1685563623,"current_range_meters":31200,"station_id":"ce4bhbh2rcd13ifvqeo0","pricing_plan_id":"free"},{"bike_id":"c28da41a-cbf9-44a7-aafd-ccdc1833b35e","system_id":"levelo_inurba_marseille","lat":43.273613,"lon":5.362705,"is_reserved":false,"is_disabled":false,"rental_uris":{"android":"levelo://app?vid=c28da41a-cbf9-44a7-aafd-ccdc1833b35e","ios":"levelo://app?vid=c28da41a-cbf9-44a7-aafd-ccdc1833b35e"},"vehicle_type_id":"4","last_reported":1685563623,"current_range_meters":7600,"station_id":"ce4bhbh2rcd13ifvqeo0","pricing_plan_id":"free"},{"bike_id":"97e3f7a9-213e-4da7-800e-1ad95ef1e40f","system_id":"levelo_inurba_marseille","lat":43.27692,"lon":5.38878,"is_reserved":false,"is_disabled":false,"rental_uris":{"android":"levelo://app?vid=97e3f7a9-213e-4da7-800e-1ad95ef1e40f","ios":"levelo://app?vid=97e3f7a9-213e-4da7-800e-1ad95ef1e40f"},"vehicle_type_id":"4","last_reported":1685563623,"current_range_meters":2400,"station_id":"","pricing_plan_id":"free"},{"bike_id":"04e1d14e-c348-4a9e-886f-594637492b31","system_id":"levelo_inurba_marseille","lat":43.33612,"lon":5.410321,"is_reserved":false,"is_disabled":false,"rental_uris":{"android":"levelo://app?vid=04e1d14e-c348-4a9e-886f-594637492b31","ios":"levelo://app?vid=04e1d14e-c348-4a9e-886f-594637492b31"},"vehicle_type_id":"4","last_reported":1685563623,"current_range_meters":24000,"station_id":"ce4bhqh2rcd13ifvqhmg","pricing_plan_id":"free"},{"bike_id":"da9f6603-7c1e-410d-9524-4d74986f535b","system_id":"levelo_inurba_marseille","lat":43.33612,"lon":5.410321,"is_reserved":false,"is_disabled":false,"rental_uris":{"android":"levelo://app?vid=da9f6603-7c1e-410d-9524-4d74986f535b","ios":"levelo://app?vid=da9f6603-7c1e-410d-9524-4d74986f535b"},"vehicle_type_id":"4","last_reported":1685563623,"current_range_meters":30800,"station_id":"ce4bhqh2rcd13ifvqhmg","pricing_plan_id":"free"},{"bike_id":"59c8b631-ef25-4978-aef3-eb25f3901a9f","system_id":"levelo_inurba_marseille","lat":43.33612,"lon":5.410321,"is_reserved":false,"is_disabled":false,"rental_uris":{"android":"levelo://app?vid=59c8b631-ef25-4978-aef3-eb25f3901a9f","ios":"levelo://app?vid=59c8b631-ef25-4978-aef3-eb25f3901a9f"},"vehicle_type_id":"4","last_reported":1685563623,"current_range_meters":30000,"station_id":"ce4bhqh2rcd13ifvqhmg","pricing_plan_id":"free"},{"bike_id":"487d32e7-0d2e-4f2b-8219-05756dfc1b9b","system_id":"levelo_inurba_marseille","lat":43.33612,"lon":5.410321,"is_reserved":false,"is_disabled":false,"rental_uris":{"android":"levelo://app?vid=487d32e7-0d2e-4f2b-8219-05756dfc1b9b","ios":"levelo://app?vid=487d32e7-0d2e-4f2b-8219-05756dfc1b9b"},"vehicle_type_id":"4","last_reported":1685563623,"current_range_meters":26800,"station_id":"ce4bhqh2rcd13ifvqhmg","pricing_plan_id":"free"},{"bike_id":"464f0ca3-16af-41bd-97ca-d5ed98c6000f","system_id":"levelo_inurba_marseille","lat":43.336134,"lon":5.410341,"is_reserved":false,"is_disabled":false,"rental_uris":{"android":"levelo://app?vid=464f0ca3-16af-41bd-97ca-d5ed98c6000f","ios":"levelo://app?vid=464f0ca3-16af-41bd-97ca-d5ed98c6000f"},"vehicle_type_id":"4","last_reported":1685563623,"current_range_meters":31200,"station_id":"ce4bhqh2rcd13ifvqhmg","pricing_plan_id":"free"},{"bike_id":"a5e9752a-9733-48e5-a602-84e5ddad9bbb","system_id":"levelo_inurba_marseille","lat":43.33612,"lon":5.410321,"is_reserved":false,"is_disabled":false,"rental_uris":{"android":"levelo://app?vid=a5e9752a-9733-48e5-a602-84e5ddad9bbb","ios":"levelo://app?vid=a5e9752a-9733-48e5-a602-84e5ddad9bbb"},"vehicle_type_id":"4","last_reported":1685563623,"current_range_meters":14800,"station_id":"ce4bhqh2rcd13ifvqhmg","pricing_plan_id":"free"},{"bike_id":"6be7abd1-92f0-4b11-a7c3-9803ea85bc9c","system_id":"levelo_inurba_marseille","lat":43.336134,"lon":5.410341,"is_reserved":false,"is_disabled":false,"rental_uris":{"android":"levelo://app?vid=6be7abd1-92f0-4b11-a7c3-9803ea85bc9c","ios":"levelo://app?vid=6be7abd1-92f0-4b11-a7c3-9803ea85bc9c"},"vehicle_type_id":"4","last_reported":1685563623,"current_range_meters":28000,"station_id":"ce4bhqh2rcd13ifvqhmg","pricing_plan_id":"free"},{"bike_id":"dd0b5920-a3a5-46f9-9229-c1c4b5adc16c","system_id":"levelo_inurba_marseille","lat":43.336134,"lon":5.410341,"is_reserved":false,"is_disabled":false,"rental_uris":{"android":"levelo://app?vid=dd0b5920-a3a5-46f9-9229-c1c4b5adc16c","ios":"levelo://app?vid=dd0b5920-a3a5-46f9-9229-c1c4b5adc16c"},"vehicle_type_id":"4","last_reported":1685563623,"current_range_meters":22800,"station_id":"ce4bhqh2rcd13ifvqhmg","pricing_plan_id":"free"},{"bike_id":"1d3a6eff-d99d-4718-a9de-0f1c1782317c","system_id":"levelo_inurba_marseille","lat":43.33612,"lon":5.410321,"is_reserved":false,"is_disabled":false,"rental_uris":{"android":"levelo://app?vid=1d3a6eff-d99d-4718-a9de-0f1c1782317c","ios":"levelo://app?vid=1d3a6eff-d99d-4718-a9de-0f1c1782317c"},"vehicle_type_id":"4","last_reported":1685563623,"current_range_meters":20000,"station_id":"ce4bhqh2rcd13ifvqhmg","pricing_plan_id":"free"},{"bike_id":"d2912307-fa62-4ac5-9ae5-7566f1d786a2","system_id":"levelo_inurba_marseille","lat":43.317121,"lon":5.423936,"is_reserved":false,"is_disabled":false,"rental_uris":{"android":"levelo://app?vid=d2912307-fa62-4ac5-9ae5-7566f1d786a2","ios":"levelo://app?vid=d2912307-fa62-4ac5-9ae5-7566f1d786a2"},"vehicle_type_id":"4","last_reported":1685563623,"current_range_meters":31200,"station_id":"ce4bhp92rcd13ifvqhbg","pricing_plan_id":"free"},{"bike_id":"8e7693a4-b07a-40ba-a479-5e2df611fff1","system_id":"levelo_inurba_marseille","lat":43.317121,"lon":5.423936,"is_reserved":false,"is_disabled":false,"rental_uris":{"android":"levelo://app?vid=8e7693a4-b07a-40ba-a479-5e2df611fff1","ios":"levelo://app?vid=8e7693a4-b07a-40ba-a479-5e2df611fff1"},"vehicle_type_id":"4","last_reported":1685563623,"current_range_meters":22000,"station_id":"ce4bhp92rcd13ifvqhbg","pricing_plan_id":"free"},