{"last_updated":1744535400,"ttl":60,"version":"2.2","data":{"bikes":[{"bike_id":"7dc6f05c-f257-4d62-b71b-a2b97753d797","system_id":"levelo_inurba_marseille","lat":43.305353,"lon":5.384394,"is_reserved":false,"is_disabled":true,"rental_uris":{"android":"levelo://app?vid=7dc6f05c-f257-4d62-b71b-a2b97753d797","ios":"levelo://app?vid=7dc6f05c-f257-4d62-b71b-a2b97753d797"},"vehicle_type_id":"4","last_reported":1744535400,"current_range_meters":2800,"station_id":"ce4bgg92rcd13ifvqb30","pricing_plan_id":"cebpf4jnsgd1na2vs0mg"},{"bike_id":"94455896-0f19-4fae-bd72-9879f01fcd6e","system_id":"levelo_inurba_marseille","lat":43.295563,"lon":5.42288,"is_reserved":false,"is_disabled":true,"rental_uris":{"android":"levelo://app?vid=94455896-0f19-4fae-bd72-9879f01fcd6e","ios":"levelo://app?vid=94455896-0f19-4fae-bd72-9879f01fcd6e"},"vehicle_type_id":"4","last_reported":1744535400,"current_range_meters":2800,"station_id":"ce4bhph2rcd13ifvqhdg","pricing_plan_id":"cebpf4jnsgd1na2vs0mg"},{"bike_id":"b6ff7e66-b821-4f07-a3cf-b9f4abde04e1","system_id":"levelo_inurba_marseille","lat":43.27996,"lon":5.40014,"is_reserved":false,"is_disabled":true,"rental_uris":{"android":"levelo://app?vid=b6ff7e66-b821-4f07-a3cf-b9f4abde04e1","ios":"levelo://app?vid=b6ff7e66-b821-4f07-a3cf-b9f4abde04e1"},"vehicle_type_id":"4","last_reported":1744535400,"current_range_meters":3200,"station_id":"ce4bho92rcd13ifvqh4g","pricing_plan_id":"cebpf4jnsgd1na2vs0mg"},{"bike_id":"f96c0c65-7fce-4b6c-8bb2-232128e93959","system_id":"levelo_inurba_marseille","lat":43.30507,"lon":5.39311,"is_reserved":false,"is_disabled":false,"rental_uris":{"android":"levelo://app?vid=f96c0c65-7fce-4b6c-8bb2-232128e93959","ios":"levelo://app?vid=f96c0c65-7fce-4b6c-8bb2-232128e93959"},"vehicle_type_id":"4","last_reported":1744535400,"current_range_meters":3600,"station_id":"","pricing_plan_id":"cebpf4jnsgd1na2vs0mg"},{"bike_id":"f2c9af42-a832-4609-be6a-7a6fa0049083","system_id":"levelo_inurba_marseille","lat":43.26927,"lon":5.39029,"is_reserved":false,"is_disabled":false,"rental_uris":{"android":"levelo://app?vid=f2c9af42-a832-4609-be6a-7a6fa0049083","ios":"levelo://app?vid=f2c9af42-a832-4609-be6a-7a6fa0049083"},"vehicle_type_id":"4","last_reported":1744535400,"current_range_meters":3600,"station_id":"","pricing_plan_id":"cebpf4jnsgd1na2vs0mg"},{"bike_id":"b82143db-149c-4f5d-831d-938a930561b7","system_id":"levelo_inurba_marseille","lat":43.28616,"lon":5.35106,"is_reserved":false,"is_disabled":false,"rental_uris":{"android":"levelo://app?vid=b82143db-149c-4f5d-831d-938a930561b7","ios":"levelo://app?vid=b82143db-149c-4f5d-831d-938a930561b7"},"vehicle_type_id":"4","last_reported":1744535400,"current_range_meters":3600,"station_id":"ce4bhch2rcd13ifvqeug","pricing_plan_id":"cebpf4jnsgd1na2vs0mg"},{"bike_id":"368308c4-6e19-4dd3-9ed2-703ee237c38d","system_id":"levelo_inurba_marseille","lat":43.239688,"lon":5.366348,"is_reserved":false,"is_disabled":true,"rental_uris":{"android":"levelo://app?vid=368308c4-6e19-4dd3-9ed2-703ee237c38d","ios":"levelo://app?vid=368308c4-6e19-4dd3-9ed2-703ee237c38d"},"vehicle_type_id":"4","last_reported":1744535400,"current_range_meters":3600,"station_id":"ce4bhi12rcd13ifvqfp0","pricing_plan_id":"cebpf4jnsgd1na2vs0mg"},{"bike_id":"4c56221a-0f46-4530-955a-7184a07c8a88","system_id":"levelo_inurba_marseille","lat":43.23223,"lon":5.35525,"is_reserved":false,"is_disabled":true,"rental_uris":{"android":"levelo://app?vid=4c56221a-0f46-4530-955a-7184a07c8a88","ios":"levelo://app?vid=4c56221a-0f46-4530-955a-7184a07c8a88"},"vehicle_type_id":"4","last_reported":1744535400,"current_range_meters":4000,"station_id":"ce4bhu92rcd13ifvqi70","pricing_plan_id":"cebpf4jnsgd1na2vs0mg"},{"bike_id":"6384948e-1798-4a5b-826b-6e48b8282e93","system_id":"levelo_inurba_marseille","lat":43.30343,"lon":5.40448,"is_reserved":false,"is_disabled":false,"rental_uris":{"android":"levelo://app?vid=6384948e-1798-4a5b-826b-6e48b8282e93","ios":"levelo://app?vid=6384948e-1798-4a5b-826b-6e48b8282e93"},"vehicle_type_id":"4","last_reported":1744535400,"current_range_meters":4000,"station_id":"ce4bh012rcd13ifvqd10","pricing_plan_id":"cebpf4jnsgd1na2vs0mg"},{"bike_id":"3f08cc69-711e-4264-b923-68891203ffa4","system_id":"levelo_inurba_marseille","lat":43.32285,"lon":5.38243,"is_reserved":false,"is_disabled":true,"rental_uris":{"android":"levelo://app?vid=3f08cc69-711e-4264-b923-68891203ffa4","ios":"levelo://app?vid=3f08cc69-711e-4264-b923-68891203ffa4"},"vehicle_type_id":"4","last_reported":1744535400,"current_range_meters":4000,"station_id":"ce4bhr12rcd13ifvqhqg","pricing_plan_id":"cebpf4jnsgd1na2vs0mg"},{"bike_id":"995e641f-2376-4a8a-b957-8c3b3986f727","system_id":"levelo_inurba_marseille","lat":43.29619,"lon":5.37168,"is_reserved":false,"is_disabled":false,"rental_uris":{"android":"levelo://app?vid=995e641f-2376-4a8a-b957-8c3b3986f727","ios":"levelo://app?vid=995e641f-2376-4a8a-b957-8c3b3986f727"},"vehicle_type_id":"4","last_reported":1744535400,"current_range_meters":4000,"station_id":"ce4bgnh2rcd13ifvqc0g","pricing_plan_id":"cebpf4jnsgd1na2vs0mg"},{"bike_id":"3121bc38-0903-4013-a2b9-397618f1cfb8","system_id":"levelo_inurba_marseille","lat":43.28839,"lon":5.39295,"is_reserved":false,"is_disabled":false,"rental_uris":{"android":"levelo://app?vid=3121bc38-0903-4013-a2b9-397618f1cfb8","ios":"levelo://app?vid=3121bc38-0903-4013-a2b9-397618f1cfb8"},"vehicle_type_id":"4","last_reported":1744535400,"current_range_meters":4000,"station_id":"ce4bh2p2rcd13ifvqdi0","pricing_plan_id":"cebpf4jnsgd1na2vs0mg"},{"bike_id":"e4380e13-6ea1-432c-b547-badeba89c1b3","system_id":"levelo_inurba_marseille","lat":43.28858,"lon":5.39336,"is_reserved":false,"is_disabled":true,"rental_uris":{"android":"levelo://app?vid=e4380e13-6ea1-432c-b547-badeba89c1b3","ios":"levelo://app?vid=e4380e13-6ea1-432c-b547-badeba89c1b3"},"vehicle_type_id":"4","last_reported":1744535400,"current_range_meters":4400,"station_id":"ce4bh2p2rcd13ifvqdi0","pricing_plan_id":"cebpf4jnsgd1na2vs0mg"},{"bike_id":"dd64b78e-5e6f-40ad-92d7-5ed8a19c86fa","system_id":"levelo_inurba_marseille","lat":43.27948,"lon":5.41029,"is_reserved":false,"is_disabled":false,"rental_uris":{"android":"levelo://app?vid=dd64b78e-5e6f-40ad-92d7-5ed8a19c86fa","ios":"levelo://app?vid=dd64b78e-5e6f-40ad-92d7-5ed8a19c86fa"},"vehicle_type_id":"4","last_reported":1744535400,"current_range_meters":4400,"station_id":"ce4bhnp2rcd13ifvqh0g","pricing_plan_id":"cebpf4jnsgd1na2vs0mg"},{"bike_id":"9b0ae5e8-390f-4f43-a54d-3f6755f85f5e","system_id":"levelo_inurba_marseille","lat":43.265572,"lon":5.390106,"is_reserved":false,"is_disabled":false,"rental_uris":{"android":"levelo://app?vid=9b0ae5e8-390f-4f43-a54d-3f6755f85f5e","ios":"levelo://app?vid=9b0ae5e8-390f-4f43-a54d-3f6755f85f5e"},"vehicle_type_id":"4","last_reported":1744535400,"current_range_meters":4800,"station_id":"ce4bhe12rcd13ifvqf30","pricing_plan_id":"cebpf4jnsgd1na2vs0mg"},{"bike_id":"dd081b68-0a47-41b3-9975-782e5d7a940e","system_id":"levelo_inurba_marseille","lat":43.275001,"lon":5.424796,"is_reserved":false,"is_disabled":false,"rental_uris":{"android":"levelo://app?vid=dd081b68-0a47-41b3-9975-782e5d7a940e","ios":"levelo://app?vid=dd081b68-0a47-41b3-9975-782e5d7a940e"},"vehicle_type_id":"4","last_reported":1744535400,"current_range_meters":4800,"station_id":"ce4bhn92rcd13ifvqgrg","pricing_plan_id":"cebpf4jnsgd1na2vs0mg"},{"bike_id":"61526959-0495-4c82-b747-c427427fef4b","system_id":"levelo_inurba_marseille","lat":43.23146,"lon":5.43692,"is_reserved":false,"is_disabled":false,"rental_uris":{"android":"levelo://app?vid=61526959-0495-4c82-b747-c427427fef4b","ios":"levelo://app?vid=61526959-0495-4c82-b747-c427427fef4b"},"vehicle_type_id":"4","last_reported":1744535400,"current_range_meters":4800,"station_id":"ce4bhmp2rcd13ifvqgog","pricing_plan_id":"cebpf4jnsgd1na2vs0mg"},{"bike_id":"7fc5054b-d89b-428b-969c-570e0c95ca38","system_id":"levelo_inurba_marseille","lat":43.26561,"lon":5.39007,"is_reserved":false,"is_disabled":false,"rental_uris":{"android":"levelo://app?vid=7fc5054b-d89b-428b-969c-570e0c95ca38","ios":"levelo://app?vid=7fc5054b-d89b-428b-969c-570e0c95ca38"},"vehicle_type_id":"4","last_reported":1744535400,"current_range_meters":5600,"station_id":"ce4bhe12rcd13ifvqf30","pricing_plan_id":"cebpf4jnsgd1na2vs0mg"},{"bike_id":"8708dd08-3274-46ab-b322-809752473736","system_id":"levelo_inurba_marseille","lat":43.30329,"lon":5.40441,"is_reserved":false,"is_disabled":false,"rental_uris":{"android":"levelo://app?vid=8708dd08-3274-46ab-b322-809752473736","ios":"levelo://app?vid=8708dd08-3274-46ab-b322-809752473736"},"vehicle_type_id":"4","last_reported":1744535400,"current_range_meters":5600,"station_id":"ce4bh012rcd13ifvqd10","pricing_plan_id":"cebpf4jnsgd1na2vs0mg"},{"bike_id":"46905939-8408-4098-89bd-d37cf841313d","system_id":"levelo_inurba_marseille","lat":43.28252,"lon":5.35035,"is_reserved":false,"is_disabled":false,"rental_uris":{"android":"levelo://app?vid=46905939-8408-4098-89bd-d37cf841313d","ios":"levelo://app?vid=46905939-8408-4098-89bd-d37cf841313d"},"vehicle_type_id":"4","last_reported":1744535400,"current_range_meters":5600,"station_id":"ce4bhbp2rcd13ifvqerg","pricing_plan_id":"cebpf4jnsgd1na2vs0mg"},{"bike_id":"8c58f2fa-99e1-41f8-bf90-9c1648b679b1","system_id":"levelo_inurba_marseille","lat":43.27317,"lon":5.4148,"is_reserved":false,"is_disabled":false,"rental_uris":{"android":"levelo://app?vid=8c58f2fa-99e1-41f8-bf90-9c1648b679b1","ios":"levelo://app?vid=8c58f2fa-99e1-41f8-bf90-9c1648b679b1"},"vehicle_type_id":"4","last_reported":1744535400,"current_range_meters":5600,"station_id":"","pricing_plan_id":"cebpf4jnsgd1na2vs0mg"},{"bike_id":"6955b998-9661-4258-be6b-a95cffb9b0da","system_id":"levelo_inurba_marseille","lat":43.23189,"lon":5.35542,"is_reserved":false,"is_disabled":false,"rental_uris":{"android":"levelo://app?vid=6955b998-9661-4258-be6b-a95cffb9b0da","ios":"levelo://app?vid=6955b998-9661-4258-be6b-a95cffb9b0da"},"vehicle_type_id":"4","last_reported":1744535400,"current_range_meters":6000,"station_id":"ce4bhu92rcd13ifvqi70","pricing_plan_id":"cebpf4jnsgd1na2vs0mg"},{"bike_id":"00673b85-6711-4859-b3bf-30a6d0492894","system_id":"levelo_inurba_marseille","lat":43.2551,"lon":5.37628,"is_reserved":false,"is_disabled":true,"rental_uris":{"android":"levelo://app?vid=00673b85-6711-4859-b3bf-30a6d0492894","ios":"levelo://app?vid=00673b85-6711-4859-b3bf-30a6d0492894"},"vehicle_type_id":"4","last_reported":1744535400,"current_range_meters":6000,"station_id":"ce4bhh12rcd13ifvqff0","pricing_plan_id":"cebpf4jnsgd1na2vs0mg"},{"bike_id":"adfb08db-ad3d-4a60-889b-8e3a7bf8e1c1","system_id":"levelo_inurba_marseille","lat":43.23162,"lon":5.43702,"is_reserved":false,"is_disabled":false,"rental_uris":{"android":"levelo://app?vid=adfb08db-ad3d-4a60-889b-8e3a7bf8e1c1","ios":"levelo://app?vid=adfb08db-ad3d-4a60-889b-8e3a7bf8e1c1"},"vehicle_type_id":"4","last_reported":1744535400,"current_range_meters":6000,"station_id":"ce4bhmp2rcd13ifvqgog","pricing_plan_id":"cebpf4jnsgd1na2vs0mg"},{"bike_id":"3e13ca99-833e-475e-909b-680863a2f005","system_id":"levelo_inurba_marseille","lat":43.24178,"lon":5.39734,"is_reserved":false,"is_disabled":false,"rental_uris":{"android":"levelo://app?vid=3e13ca99-833e-475e-909b-680863a2f005","ios":"levelo://app?vid=3e13ca99-833e-475e-909b-680863a2f005"},"vehicle_type_id":"4","last_reported":1744535400,"current_range_meters":6000,"station_id":"ce4bhn12rcd13ifvqgpg","pricing_plan_id":"cebpf4jnsgd1na2vs0mg"},{"bike_id":"fb689745-55c5-4bab-8a36-bd16050cb1ec","system_id":"levelo_inurba_marseille","lat":43.28912,"lon":5.36505,"is_reserved":false,"is_disabled":false,"rental_uris":{"android":"levelo://app?vid=fb689745-55c5-4bab-8a36-bd16050cb1ec","ios":"levelo://app?vid=fb689745-55c5-4bab-8a36-bd16050cb1ec"},"vehicle_type_id":"4","last_reported":1744535400,"current_range_meters":6400,"station_id":"","pricing_plan_id":"cebpf4jnsgd1na2vs0mg"},{"bike_id":"cfadcc33-5bb8-4f29-9a84-ae98565bb4a2","system_id":"levelo_inurba_marseille","lat":43.240658,"lon":5.378324,"is_reserved":false,"is_disabled":false,"rental_uris":{"android":"levelo://app?vid=cfadcc33-5bb8-4f29-9a84-ae98565bb4a2","ios":"levelo://app?vid=cfadcc33-5bb8-4f29-9a84-ae98565bb4a2"},"vehicle_type_id":"4","last_reported":1744535400,"current_range_meters":6800,"station_id":"ce4bhnp2rcd13ifvqgvg","pricing_plan_id":"cebpf4jnsgd1na2vs0mg"},{"bike_id":"4c893399-b4ed-40ed-a49f-713da320f269","system_id":"levelo_inurba_marseille","lat":43.29861,"lon":5.37841,"is_reserved":false,"is_disabled":false,"rental_uris":{"android":"levelo://app?vid=4c893399-b4ed-40ed-a49f-713da320f269","ios":"levelo://app?vid=4c893399-b4ed-40ed-a49f-713da320f269"},"vehicle_type_id":"4","last_reported":1744535400,"current_range_meters":6800,"station_id":"","pricing_plan_id":"cebpf4jnsgd1na2vs0mg"},{"bike_id":"03c150dd-2e6f-4d93-a813-3885c6574c7f","system_id":"levelo_inurba_marseille","lat":43.302566,"lon":5.4007,"is_reserved":false,"is_disabled":false,"rental_uris":{"android":"levelo://app?vid=03c150dd-2e6f-4d93-a813-3885c6574c7f","ios":"levelo://app?vid=03c150dd-2e6f-4d93-a813-3885c6574c7f"},"vehicle_type_id":"4","last_reported":1744535400,"current_range_meters":6800,"station_id":"ce4bgvh2rcd13ifvqcs0","pricing_plan_id":"cebpf4jnsgd1na2vs0mg"},{"bike_id":"d4c9de3f-c96b-4ca6-bda3-d9f06bda81d5","system_id":"levelo_inurba_marseille","lat":43.23191,"lon":5.39963,"is_reserved":false,"is_disabled":false,"rental_uris":{"android":"levelo://app?vid=d4c9de3f-c96b-4ca6-bda3-d9f06bda81d5","ios":"levelo://app?vid=d4c9de3f-c96b-4ca6-bda3-d9f06bda81d5"},"vehicle_type_id":"4","last_reported":1744535400,"current_range_meters":6400,"station_id":"ce4bhn12rcd13ifvqgqg","pricing_plan_id":"cebpf4jnsgd1na2vs0mg"},{"bike_id":"1130922e-9ccc-463b-9207-aadecd794edb","system_id":"levelo_inurba_marseille","lat":43.319951,"lon":5.381543,"is_reserved":false,"is_disabled":true,"rental_uris":{"android":"levelo://app?vid=1130922e-9ccc-463b-9207-aadecd794edb","ios":"levelo://app?vid=1130922e-9ccc-463b-9207-aadecd794edb"},"vehicle_type_id":"4","last_reported":1744535400,"current_range_meters":7200,"station_id":"ce4bhr12rcd13ifvqhpg","pricing_plan_id":"cebpf4jnsgd1na2vs0mg"},{"bike_id":"a08c9e3e-8b2f-468f-a4ea-c0a98e8dcada","system_id":"levelo_inurba_marseille","lat":43.230598,"lon":5.354896,"is_reserved":false,"is_disabled":false,"rental_uris":{"android":"levelo://app?vid=a08c9e3e-8b2f-468f-a4ea-c0a98e8dcada","ios":"levelo://app?vid=a08c9e3e-8b2f-468f-a4ea-c0a98e8dcada"},"vehicle_type_id":"4","last_reported":1744535400,"current_range_meters":7200,"station_id":"cpo3342slgdg3j2ifvpg","pricing_plan_id":"cebpf4jnsgd1na2vs0mg"},{"bike_id":"ef291804-1477-432e-b153-82ea15725418","system_id":"levelo_inurba_marseille","lat":43.33742,"lon":5.37454,"is_reserved":false,"is_disabled":false,"rental_uris":{"android":"levelo://app?vid=ef291804-1477-432e-b153-82ea15725418","ios":"levelo://app?vid=ef291804-1477-432e-b153-82ea15725418"},"vehicle_type_id":"4","last_reported":1744535400,"current_range_meters":7200,"station_id":"","pricing_plan_id":"cebpf4jnsgd1na2vs0mg"},{"bike_id":"620b61f1-23d7-4e76-aa20-50b1e573b2b9","system_id":"levelo_inurba_marseille","lat":43.31486,"lon":5.37287,"is_reserved":false,"is_disabled":false,"rental_uris":{"android":"levelo://app?vid=620b61f1-23d7-4e76-aa20-50b1e573b2b9","ios":"levelo://app?vid=620b61f1-23d7-4e76-aa20-50b1e573b2b9"},"vehicle_type_id":"4","last_reported":1744535400,"current_range_meters":7200,"station_id":"ce4bgt12rcd13ifvqcd0","pricing_plan_id":"cebpf4jnsgd1na2vs0mg"},{"bike_id":"fb3bf63f-cb8b-4e2d-97b5-e2bd30164ab5","system_id":"levelo_inurba_marseille","lat":43.310526,"lon":5.366684,"is_reserved":false,"is_disabled":false,"rental_uris":{"android":"levelo://app?vid=fb3bf63f-cb8b-4e2d-97b5-e2bd30164ab5","ios":"levelo://app?vid=fb3bf63f-cb8b-4e2d-97b5-e2bd30164ab5"},"vehicle_type_id":"4","last_reported":1744535400,"current_range_meters":7200,"station_id":"","pricing_plan_id":"cebpf4jnsgd1na2vs0mg"},{"bike_id":"6b3e58a5-4636-498d-8717-b1604329e484","system_id":"levelo_inurba_marseille","lat":43.29512,"lon":5.37515,"is_reserved":false,"is_disabled":false,"rental_uris":{"android":"levelo://app?vid=6b3e58a5-4636-498d-8717-b1604329e484","ios":"levelo://app?vid=6b3e58a5-4636-498d-8717-b1604329e484"},"vehicle_type_id":"4","last_reported":1744535400,"current_range_meters":7200,"station_id":"ce4bgkp2rcd13ifvqbmg","pricing_plan_id":"cebpf4jnsgd1na2vs0mg"},{"bike_id":"88802da1-90f2-4aff-90a1-c3598e933096","system_id":"levelo_inurba_marseille","lat":43.30289,"lon":5.39137,"is_reserved":false,"is_disabled":false,"rental_uris":{"android":"levelo://app?vid=88802da1-90f2-4aff-90a1-c3598e933096","ios":"levelo://app?vid=88802da1-90f2-4aff-90a1-c3598e933096"},"vehicle_type_id":"4","last_reported":1744535400,"current_range_meters":7200,"station_id":"","pricing_plan_id":"cebpf4jnsgd1na2vs0mg"},{"bike_id":"d53356ed-34e7-4ce0-8d94-e073954cdd85","system_id":"levelo_inurba_marseille","lat":43.27056,"lon":5.40256,"is_reserved":false,"is_disabled":true,"rental_uris":{"android":"levelo://app?vid=d53356ed-34e7-4ce0-8d94-e073954cdd85","ios":"levelo://app?vid=d53356ed-34e7-4ce0-8d94-e073954cdd85"},"vehicle_type_id":"4","last_reported":1744535400,"current_range_meters":8000,"station_id":"ce4bhk92rcd13ifvqgc0","pricing_plan_id":"cebpf4jnsgd1na2vs0mg"},{"bike_id":"8207ea29-fd0c-4c7e-a5fa-88a3cf6888d1","system_id":"levelo_inurba_marseille","lat":43.24179,"lon":5.39712,"is_reserved":false,"is_disabled":false,"rental_uris":{"android":"levelo://app?vid=8207ea29-fd0c-4c7e-a5fa-88a3cf6888d1","ios":"levelo://app?vid=8207ea29-fd0c-4c7e-a5fa-88a3cf6888d1"},"vehicle_type_id":"4","last_reported":1744535400,"current_range_meters":8000,"station_id":"ce4bhn12rcd13ifvqgpg","pricing_plan_id":"cebpf4jnsgd1na2vs0mg"},{"bike_id":"c013d600-5e08-48f0-830e-8c965978436b","system_id":"levelo_inurba_marseille","lat":43.3043,"lon":5.38889,"is_reserved":false,"is_disabled":true,"rental_uris":{"android":"levelo://app?vid=c013d600-5e08-48f0-830e-8c965978436b","ios":"levelo://app?vid=c013d600-5e08-48f0-830e-8c965978436b"},"vehicle_type_id":"4","last_reported":1744535400,"current_range_meters":8000,"station_id":"ce4bgk12rcd13ifvqbi0","pricing_plan_id":"cebpf4jnsgd1na2vs0mg"},{"bike_id":"cda00ca5-b429-4ad4-8d45-efc9549291c5","system_id":"levelo_inurba_marseille","lat":43.28722,"lon":5.39994,"is_reserved":false,"is_disabled":false,"rental_uris":{"android":"levelo://app?vid=cda00ca5-b429-4ad4-8d45-efc9549291c5","ios":"levelo://app?vid=cda00ca5-b429-4ad4-8d45-efc9549291c5"},"vehicle_type_id":"4","last_reported":1744535400,"current_range_meters":8000,"station_id":"ce4bho92rcd13ifvqh3g","pricing_plan_id":"cebpf4jnsgd1na2vs0mg"},{"bike_id":"826c0beb-b859-44fc-9e3b-2569fdc20685","system_id":"levelo_inurba_marseille","lat":43.30368,"lon":5.42477,"is_reserved":false,"is_disabled":false,"rental_uris":{"android":"levelo://app?vid=826c0beb-b859-44fc-9e3b-2569fdc20685","ios":"levelo://app?vid=826c0beb-b859-44fc-9e3b-2569fdc20685"},"vehicle_type_id":"4","last_reported":1744535400,"current_range_meters":8000,"station_id":"ce4bhoh2rcd13ifvqh6g","pricing_plan_id":"cebpf4jnsgd1na2vs0mg"},{"bike_id":"4a0973b0-92a0-41e8-9b0d-a99e944bafe0","system_id":"levelo_inurba_marseille","lat":43.34481,"lon":5.41277,"is_reserved":false,"is_disabled":false,"rental_uris":{"android":"levelo://app?vid=4a0973b0-92a0-41e8-9b0d-a99e944bafe0","ios":"levelo://app?vid=4a0973b0-92a0-41e8-9b0d-a99e944bafe0"},"vehicle_type_id":"4","last_reported":1744535400,"current_range_meters":8000,"station_id":"","pricing_plan_id":"cebpf4jnsgd1na2vs0mg"},{"bike_id":"567c63e9-654d-4442-97e1-fed44a144ffa","system_id":"levelo_inurba_marseille","lat":43.28457,"lon":5.35891,"is_reserved":false,"is_disabled":false,"rental_uris":{"android":"levelo://app?vid=567c63e9-654d-4442-97e1-fed44a144ffa","ios":"levelo://app?vid=567c63e9-654d-4442-97e1-fed44a144ffa"},"vehicle_type_id":"4","last_reported":1744535400,"current_range_meters":8000,"station_id":"ce4bhah2rcd13ifvqei0","pricing_plan_id":"cebpf4jnsgd1na2vs0mg"},{"bike_id":"ec8be3ba-966d-4f71-bd9f-1e7f316362f5","system_id":"levelo_inurba_marseille","lat":43.33002,"lon":5.43836,"is_reserved":false,"is_disabled":false,"rental_uris":{"android":"levelo://app?vid=ec8be3ba-966d-4f71-bd9f-1e7f316362f5","ios":"levelo://app?vid=ec8be3ba-966d-4f71-bd9f-1e7f316362f5"},"vehicle_type_id":"4","last_reported":1744535400,"current_range_meters":8000,"station_id":"","pricing_plan_id":"cebpf4jnsgd1na2vs0mg"},{"bike_id":"e643793d-238f-4c32-a599-a7376b883569","system_id":"levelo_inurba_marseille","lat":43.25003,"lon":5.38885,"is_reserved":false,"is_disabled":false,"rental_uris":{"android":"levelo://app?vid=e643793d-238f-4c32-a599-a7376b883569","ios":"levelo://app?vid=e643793d-238f-4c32-a599-a7376b883569"},"vehicle_type_id":"4","last_reported":1744535400,"current_range_meters":8400,"station_id":"ce4bhgp2rcd13ifvqfd0","pricing_plan_id":"cebpf4jnsgd1na2vs0mg"},{"bike_id":"fba14dc4-f065-46f4-a67b-b47ee9a5123b","system_id":"levelo_inurba_marseille","lat":43.29313,"lon":5.37164,"is_reserved":false,"is_disabled":true,"rental_uris":{"android":"levelo://app?vid=fba14dc4-f065-46f4-a67b-b47ee9a5123b","ios":"levelo://app?vid=fba14dc4-f065-46f4-a67b-b47ee9a5123b"},"vehicle_type_id":"4","last_reported":1744535400,"current_range_meters":8400,"station_id":"ce4bgh92rcd13ifvqb40","pricing_plan_id":"cebpf4jnsgd1na2vs0mg"},{"bike_id":"019576dd-4d5b-449f-bee3-6016e550c1da","system_id":"levelo_inurba_marseille","lat":43.30377,"lon":5.42478,"is_reserved":false,"is_disabled":false,"rental_uris":{"android":"levelo://app?vid=019576dd-4d5b-449f-bee3-6016e550c1da","ios":"levelo://app?vid=019576dd-4d5b-449f-bee3-6016e550c1da"},"vehicle_type_id":"4","last_reported":1744535400,"current_range_meters":8400,"station_id":"ce4bhoh2rcd13ifvqh6g","pricing_plan_id":"cebpf4jnsgd1na2vs0mg"},{"bike_id":"e937c320-8c50-493e-a3c2-da5e3d583dd1","system_id":"levelo_inurba_marseille","lat":43.27568,"lon":5.38425,"is_reserved":false,"is_disabled":false,"rental_uris":{"android":"levelo://app?vid=e937c320-8c50-493e-a3c2-da5e3d583dd1","ios":"levelo://app?vid=e937c320-8c50-493e-a3c2-da5e3d583dd1"},"vehicle_type_id":"4","last_reported":1744535400,"current_range_meters":8000,"station_id":"ce4bhh92rcd13ifvqfi0","pricing_plan_id":"cebpf4jnsgd1na2vs0mg"},{"bike_id":"86e3fd62-ce53-4f21-93c1-2fb7456de3cf","system_id":"levelo_inurba_marseille","lat":43.23059,"lon":5.35492,"is_reserved":false,"is_disabled":false,"rental_uris":{"android":"levelo://app?vid=86e3fd62-ce53-4f21-93c1-2fb7456de3cf","ios":"levelo://app?vid=86e3fd62-ce53-4f21-93c1-2fb7456de3cf"},"vehicle_type_id":"4","last_reported":1744535400,"current_range_meters":8400,"station_id":"cpo3342slgdg3j2ifvpg","pricing_plan_id":"cebpf4jnsgd1na2vs0mg"},{"bike_id":"894db133-1314-46ab-858c-7a96bf454400","system_id":"levelo_inurba_marseille","lat":43.2871,"lon":5.39971,"is_reserved":false,"is_disabled":false,"rental_uris":{"android":"levelo://app?vid=894db133-1314-46ab-858c-7a96bf454400","ios":"levelo://app?vid=894db133-1314-46ab-858c-7a96bf454400"},"vehicle_type_id":"4","last_reported":1744535400,"current_range_meters":8400,"station_id":"ce4bho92rcd13ifvqh3g","pricing_plan_id":"cebpf4jnsgd1na2vs0mg"},{"bike_id":"211990ef-4669-4091-86ec-137c884b610d","system_id":"levelo_inurba_marseille","lat":43.29259,"lon":5.38442,"is_reserved":false,"is_disabled":true,"rental_uris":{"android":"levelo://app?vid=211990ef-4669-4091-86ec-137c884b610d","ios":"levelo://app?vid=211990ef-4669-4091-86ec-137c884b610d"},"vehicle_type_id":"4","last_reported":1744535400,"current_range_meters":8400,"station_id":"ce4bh692rcd13ifvqea0","pricing_plan_id":"cebpf4jnsgd1na2vs0mg"},{"bike_id":"e67afdfc-9350-498f-8b78-93ca3802c2a4","system_id":"levelo_inurba_marseille","lat":43.29903,"lon":5.3813,"is_reserved":false,"is_disabled":false,"rental_uris":{"android":"levelo://app?vid=e67afdfc-9350-498f-8b78-93ca3802c2a4","ios":"levelo://app?vid=e67afdfc-9350-498f-8b78-93ca3802c2a4"},"vehicle_type_id":"4","last_reported":1744535400,"current_range_meters":8400,"station_id":"ce4bgj12rcd13ifvqbc0","pricing_plan_id":"cebpf4jnsgd1na2vs0mg"},{"bike_id":"94153f5e-7b0b-4b1a-87eb-86b9257d88a7","system_id":"levelo_inurba_marseille","lat":43.29279,"lon":5.36847,"is_reserved":false,"is_disabled":false,"rental_uris":{"android":"levelo://app?vid=94153f5e-7b0b-4b1a-87eb-86b9257d88a7","ios":"levelo://app?vid=94153f5e-7b0b-4b1a-87eb-86b9257d88a7"},"vehicle_type_id":"4","last_reported":1744535400,"current_range_meters":8400,"station_id":"ce4bhbp2rcd13ifvqesg","pricing_plan_id":"cebpf4jnsgd1na2vs0mg"},{"bike_id":"25965b25-f0de-41db-ac4c-4f5e82c417f4","system_id":"levelo_inurba_marseille","lat":43.30617,"lon":5.37223,"is_reserved":false,"is_disabled":false,"rental_uris":{"android":"levelo://app?vid=25965b25-f0de-41db-ac4c-4f5e82c417f4","ios":"levelo://app?vid=25965b25-f0de-41db-ac4c-4f5e82c417f4"},"vehicle_type_id":"4","last_reported":1744535400,"current_range_meters":8400,"station_id":"ce4bgqh2rcd13ifvqc4g","pricing_plan_id":"cebpf4jnsgd1na2vs0mg"},{"bike_id":"5b77a833-8185-45c2-9fe3-07eb40df54ca","system_id":"levelo_inurba_marseille","lat":43.33995,"lon":5.38057,"is_reserved":false,"is_disabled":false,"rental_uris":{"android":"levelo://app?vid=5b77a833-8185-45c2-9fe3-07eb40df54ca","ios":"levelo://app?vid=5b77a833-8185-45c2-9fe3-07eb40df54ca"},"vehicle_type_id":"4","last_reported":1744535400,"current_range_meters":8400,"station_id":"","pricing_plan_id":"cebpf4jnsgd1na2vs0mg"},{"bike_id":"d8f603cd-3b83-4148-bab8-3a185ad2a59f","system_id":"levelo_inurba_marseille","lat":43.32416,"lon":5.3913,"is_reserved":false,"is_disabled":false,"rental_uris":{"android":"levelo://app?vid=d8f603cd-3b83-4148-bab8-3a185ad2a59f","ios":"levelo://app?vid=d8f603cd-3b83-4148-bab8-3a185ad2a59f"},"vehicle_type_id":"4","last_reported":1744535400,"current_range_meters":8800,"station_id":"","pricing_plan_id":"cebpf4jnsgd1na2vs0mg"},{"bike_id":"8d7af1b9-8e4e-438e-a4d9-249701554749","system_id":"levelo_inurba_marseille","lat":43.313301,"lon":5.39715,"is_reserved":false,"is_disabled":false,"rental_uris":{"android":"levelo://app?vid=8d7af1b9-8e4e-438e-a4d9-249701554749","ios":"levelo://app?vid=8d7af1b9-8e4e-438e-a4d9-249701554749"},"vehicle_type_id":"4","last_reported":1744535400,"current_range_meters":8800,"station_id":"ce4bgvp2rcd13ifvqcu0","pricing_plan_id":"cebpf4jnsgd1na2vs0mg"},{"bike_id":"f7d1eee0-1715-419d-beac-1b98ec9e62ed","system_id":"levelo_inurba_marseille","lat":43.30958,"lon":5.39032,"is_reserved":false,"is_disabled":true,"rental_uris":{"android":"levelo://app?vid=f7d1eee0-1715-419d-beac-1b98ec9e62ed","ios":"levelo://app?vid=f7d1eee0-1715-419d-beac-1b98ec9e62ed"},"vehicle_type_id":"4","last_reported":1744535400,"current_range_meters":8800,"station_id":"ce4bgup2rcd13ifvqco0","pricing_plan_id":"cebpf4jnsgd1na2vs0mg"},{"bike_id":"2d1ead79-f201-4cec-a76d-238b76cb4dcb","system_id":"levelo_inurba_marseille","lat":43.30332,"lon":5.40439,"is_reserved":false,"is_disabled":false,"rental_uris":{"android":"levelo://app?vid=2d1ead79-f201-4cec-a76d-238b76cb4dcb","ios":"levelo://app?vid=2d1ead79-f201-4cec-a76d-238b76cb4dcb"},"vehicle_type_id":"4","last_reported":1744535400,"current_range_meters":8800,"station_id":"ce4bh012rcd13ifvqd10","pricing_plan_id":"cebpf4jnsgd1na2vs0mg"},{"bike_id":"3a8eb72c-53ad-4f36-8afb-69614fb363cd","system_id":"levelo_inurba_marseille","lat":43.284532,"lon":5.358966,"is_reserved":false,"is_disabled":false,"rental_uris":{"android":"levelo://app?vid=3a8eb72c-53ad-4f36-8afb-69614fb363cd","ios":"levelo://app?vid=3a8eb72c-53ad-4f36-8afb-69614fb363cd"},"vehicle_type_id":"4","last_reported":1744535400,"current_range_meters":8800,"station_id":"ce4bhah2rcd13ifvqei0","pricing_plan_id":"cebpf4jnsgd1na2vs0mg"},{"bike_id":"97c5290c-6dcd-4f81-953a-f5953018fa5b","system_id":"levelo_inurba_marseille","lat":43.31058,"lon":5.37523,"is_reserved":false,"is_disabled":false,"rental_uris":{"android":"levelo://app?vid=97c5290c-6dcd-4f81-953a-f5953018fa5b","ios":"levelo://app?vid=97c5290c-6dcd-4f81-953a-f5953018fa5b"},"vehicle_type_id":"4","last_reported":1744535400,"current_range_meters":8800,"station_id":"","pricing_plan_id":"cebpf4jnsgd1na2vs0mg"},{"bike_id":"12995a58-d943-4084-bd4e-dfca89bd59c0","system_id":"levelo_inurba_marseille","lat":43.32345,"lon":5.40647,"is_reserved":false,"is_disabled":false,"rental_uris":{"android":"levelo://app?vid=12995a58-d943-4084-bd4e-dfca89bd59c0","ios":"levelo://app?vid=12995a58-d943-4084-bd4e-dfca89bd59c0"},"vehicle_type_id":"4","last_reported":1744535400,"current_range_meters":8800,"station_id":"ce4bhq92rcd13ifvqhjg","pricing_plan_id":"cebpf4jnsgd1na2vs0mg"},{"bike_id":"d3f929ac-f8b8-4200-a9a3-3b8c9249ebce","system_id":"levelo_inurba_marseille","lat":43.27946,"lon":5.41044,"is_reserved":false,"is_disabled":false,"rental_uris":{"android":"levelo://app?vid=d3f929ac-f8b8-4200-a9a3-3b8c9249ebce","ios":"levelo://app?vid=d3f929ac-f8b8-4200-a9a3-3b8c9249ebce"},"vehicle_type_id":"4","last_reported":1744535400,"current_range_meters":8800,"station_id":"ce4bhnp2rcd13ifvqh0g","pricing_plan_id":"cebpf4jnsgd1na2vs0mg"},{"bike_id":"c1888c01-968b-4041-97df-b7303b3635f6","system_id":"levelo_inurba_marseille","lat":43.31087,"lon":5.42443,"is_reserved":false,"is_disabled":false,"rental_uris":{"android":"levelo://app?vid=c1888c01-968b-4041-97df-b7303b3635f6","ios":"levelo://app?vid=c1888c01-968b-4041-97df-b7303b3635f6"},"vehicle_type_id":"4","last_reported":1744535400,"current_range_meters":8800,"station_id":"ce4bhp92rcd13ifvqhag","pricing_plan_id":"cebpf4jnsgd1na2vs0mg"},{"bike_id":"0e7bf4ae-5aed-4055-a1f8-96debbb9847e","system_id":"levelo_inurba_marseille","lat":43.24166,"lon":5.36398,"is_reserved":false,"is_disabled":false,"rental_uris":{"android":"levelo://app?vid=0e7bf4ae-5aed-4055-a1f8-96debbb9847e","ios":"levelo://app?vid=0e7bf4ae-5aed-4055-a1f8-96debbb9847e"},"vehicle_type_id":"4","last_reported":1744535400,"current_range_meters":8800,"station_id":"cpo36qri1sfpv3e86is0","pricing_plan_id":"cebpf4jnsgd1na2vs0mg"},{"bike_id":"8609ec5b-db31-4682-89f6-95794d251c5e","system_id":"levelo_inurba_marseille","lat":43.23154,"lon":5.43698,"is_reserved":false,"is_disabled":false,"rental_uris":{"android":"levelo://app?vid=8609ec5b-db31-4682-89f6-95794d251c5e","ios":"levelo://app?vid=8609ec5b-db31-4682-89f6-95794d251c5e"},"vehicle_type_id":"4","last_reported":1744535400,"current_range_meters":8800,"station_id":"ce4bhmp2rcd13ifvqgog","pricing_plan_id":"cebpf4jnsgd1na2vs0mg"},{"bike_id":"0e28dec3-f76d-48a9-b282-944b4e9f06dd","system_id":"levelo_inurba_marseille","lat":43.24802,"lon":5.37467,"is_reserved":false,"is_disabled":false,"rental_uris":{"android":"levelo://app?vid=0e28dec3-f76d-48a9-b282-944b4e9f06dd","ios":"levelo://app?vid=0e28dec3-f76d-48a9-b282-944b4e9f06dd"},"vehicle_type_id":"4","last_reported":1744535400,"current_range_meters":9200,"station_id":"ce4bhgh2rcd13ifvqfb0","pricing_plan_id":"cebpf4jnsgd1na2vs0mg"},{"bike_id":"06d46355-2a8c-4e60-9069-0c42c08eb629","system_id":"levelo_inurba_marseille","lat":43.29609,"lon":5.37705,"is_reserved":false,"is_disabled":false,"rental_uris":{"android":"levelo://app?vid=06d46355-2a8c-4e60-9069-0c42c08eb629","ios":"levelo://app?vid=06d46355-2a8c-4e60-9069-0c42c08eb629"},"vehicle_type_id":"4","last_reported":1744535400,"current_range_meters":9200,"station_id":"ce4bgi92rcd13ifvqb90","pricing_plan_id":"cebpf4jnsgd1na2vs0mg"},{"bike_id":"4f38e127-be9f-468e-8871-e9cd4f365dca","system_id":"levelo_inurba_marseille","lat":43.24676,"lon":5.41171,"is_reserved":false,"is_disabled":false,"rental_uris":{"android":"levelo://app?vid=4f38e127-be9f-468e-8871-e9cd4f365dca","ios":"levelo://app?vid=4f38e127-be9f-468e-8871-e9cd4f365dca"},"vehicle_type_id":"4","last_reported":1744535400,"current_range_meters":9200,"station_id":"","pricing_plan_id":"cebpf4jnsgd1na2vs0mg"},{"bike_id":"ca877ed7-a4ce-471f-af2b-4e439dc8118c","system_id":"levelo_inurba_marseille","lat":43.260609,"lon":5.394009,"is_reserved":false,"is_disabled":false,"rental_uris":{"android":"levelo://app?vid=ca877ed7-a4ce-471f-af2b-4e439dc8118c","ios":"levelo://app?vid=ca877ed7-a4ce-471f-af2b-4e439dc8118c"},"vehicle_type_id":"4","last_reported":1744535400,"current_range_meters":9200,"station_id":"ce4bhh12rcd13ifvqfg0","pricing_plan_id":"cebpf4jnsgd1na2vs0mg"},{"bike_id":"493cde9e-7859-4c26-a2e6-f744ee5d8553","system_id":"levelo_inurba_marseille","lat":43.31815,"lon":5.36809,"is_reserved":false,"is_disabled":false,"rental_uris":{"android":"levelo://app?vid=493cde9e-7859-4c26-a2e6-f744ee5d8553","ios":"levelo://app?vid=493cde9e-7859-4c26-a2e6-f744ee5d8553"},"vehicle_type_id":"4","last_reported":1744535400,"current_range_meters":9200,"station_id":"","pricing_plan_id":"cebpf4jnsgd1na2vs0mg"},{"bike_id":"a2ff1fd3-15da-4d5f-b61b-e4b6df7fc149","system_id":"levelo_inurba_marseille","lat":43.3066,"lon":5.40059,"is_reserved":false,"is_disabled":false,"rental_uris":{"android":"levelo://app?vid=a2ff1fd3-15da-4d5f-b61b-e4b6df7fc149","ios":"levelo://app?vid=a2ff1fd3-15da-4d5f-b61b-e4b6df7fc149"},"vehicle_type_id":"4","last_reported":1744535400,"current_range_meters":9200,"station_id":"ce4bh112rcd13ifvqda0","pricing_plan_id":"cebpf4jnsgd1na2vs0mg"},{"bike_id":"f7843f46-58aa-4cf6-a1d0-1b94b16f71c2","system_id":"levelo_inurba_marseille","lat":43.29835,"lon":5.39643,"is_reserved":false,"is_disabled":false,"rental_uris":{"android":"levelo://app?vid=f7843f46-58aa-4cf6-a1d0-1b94b16f71c2","ios":"levelo://app?vid=f7843f46-58aa-4cf6-a1d0-1b94b16f71c2"},"vehicle_type_id":"4","last_reported":1744535400,"current_range_meters":9600,"station_id":"","pricing_plan_id":"cebpf4jnsgd1na2vs0mg"},{"bike_id":"588bdaaa-5a98-49b3-86d6-816d5cdac55b","system_id":"levelo_inurba_marseille","lat":43.30152,"lon":5.38077,"is_reserved":false,"is_disabled":false,"rental_uris":{"android":"levelo://app?vid=588bdaaa-5a98-49b3-86d6-816d5cdac55b","ios":"levelo://app?vid=588bdaaa-5a98-49b3-86d6-816d5cdac55b"},"vehicle_type_id":"4","last_reported":1744535400,"current_range_meters":9600,"station_id":"ce4bgjp2rcd13ifvqbh0","pricing_plan_id":"cebpf4jnsgd1na2vs0mg"},{"bike_id":"5c05218a-2f8c-4ccb-969a-803820ad166e","system_id":"levelo_inurba_marseille","lat":43.31888,"lon":5.40728,"is_reserved":false,"is_disabled":false,"rental_uris":{"android":"levelo://app?vid=5c05218a-2f8c-4ccb-969a-803820ad166e","ios":"levelo://app?vid=5c05218a-2f8c-4ccb-969a-803820ad166e"},"vehicle_type_id":"4","last_reported":1744535400,"current_range_meters":9600,"station_id":"ce4bhq12rcd13ifvqhig","pricing_plan_id":"cebpf4jnsgd1na2vs0mg"},{"bike_id":"019d7eed-2c75-42b9-91be-50f10456668c","system_id":"levelo_inurba_marseille","lat":43.23194,"lon":5.35551,"is_reserved":false,"is_disabled":false,"rental_uris":{"android":"levelo://app?vid=019d7eed-2c75-42b9-91be-50f10456668c","ios":"levelo://app?vid=019d7eed-2c75-42b9-91be-50f10456668c"},"vehicle_type_id":"4","last_reported":1744535400,"current_range_meters":9600,"station_id":"ce4bhu92rcd13ifvqi70","pricing_plan_id":"cebpf4jnsgd1na2vs0mg"},{"bike_id":"2f5bc015-0a98-4a0d-a50f-f7181e1d6abe","system_id":"levelo_inurba_marseille","lat":43.23436,"lon":5.41228,"is_reserved":false,"is_disabled":false,"rental_uris":{"android":"levelo://app?vid=2f5bc015-0a98-4a0d-a50f-f7181e1d6abe","ios":"levelo://app?vid=2f5bc015-0a98-4a0d-a50f-f7181e1d6abe"},"vehicle_type_id":"4","last_reported":1744535400,"current_range_meters":9600,"station_id":"","pricing_plan_id":"cebpf4jnsgd1na2vs0mg"},{"bike_id":"1bdd6146-09e5-4301-9c8a-af9980521802","system_id":"levelo_inurba_marseille","lat":43.28601,"lon":5.3975,"is_reserved":false,"is_disabled":false,"rental_uris":{"android":"levelo://app?vid=1bdd6146-09e5-4301-9c8a-af9980521802","ios":"levelo://app?vid=1bdd6146-09e5-4301-9c8a-af9980521802"},"vehicle_type_id":"4","last_reported":1744535400,"current_range_meters":9600,"station_id":"","pricing_plan_id":"cebpf4jnsgd1na2vs0mg"},{"bike_id":"b7e965ff-4854-44fc-8e2a-103893462049","system_id":"levelo_inurba_marseille","lat":43.337444,"lon":5.374475,"is_reserved":false,"is_disabled":true,"rental_uris":{"android":"levelo://app?vid=b7e965ff-4854-44fc-8e2a-103893462049","ios":"levelo://app?vid=b7e965ff-4854-44fc-8e2a-103893462049"},"vehicle_type_id":"4","last_reported":1744535400,"current_range_meters":9600,"station_id":"","pricing_plan_id":"cebpf4jnsgd1na2vs0mg"},{"bike_id":"fb501f50-392f-4559-8563-4e861a0fef86","system_id":"levelo_inurba_marseille","lat":43.301418,"lon":5.380906,"is_reserved":false,"is_disabled":false,"rental_uris":{"android":"levelo://app?vid=fb501f50-392f-4559-8563-4e861a0fef86","ios":"levelo://app?vid=fb501f50-392f-4559-8563-4e861a0fef86"},"vehicle_type_id":"4","last_reported":1744535400,"current_range_meters":9600,"station_id":"ce4bgjp2rcd13ifvqbh0","pricing_plan_id":"cebpf4jnsgd1na2vs0mg"},{"bike_id":"30cc8b33-f5d2-402b-bc22-73b6e88b3714","system_id":"levelo_inurba_marseille","lat":43.24682,"lon":5.38136,"is_reserved":false,"is_disabled":false,"rental_uris":{"android":"levelo://app?vid=30cc8b33-f5d2-402b-bc22-73b6e88b3714","ios":"levelo://app?vid=30cc8b33-f5d2-402b-bc22-73b6e88b3714"},"vehicle_type_id":"4","last_reported":1744535400,"current_range_meters":9600,"station_id":"ce4bhih2rcd13ifvqfr0","pricing_plan_id":"cebpf4jnsgd1na2vs0mg"},{"bike_id":"0a050c7a-f0f5-47ba-9b87-b807d64924bd","system_id":"levelo_inurba_marseille","lat":43.26811,"lon":5.40258,"is_reserved":false,"is_disabled":false,"rental_uris":{"android":"levelo://app?vid=0a050c7a-f0f5-47ba-9b87-b807d64924bd","ios":"levelo://app?vid=0a050c7a-f0f5-47ba-9b87-b807d64924bd"},"vehicle_type_id":"4","last_reported":1744535400,"current_range_meters":10000,"station_id":"ce501612rcd8frsf0b60","pricing_plan_id":"cebpf4jnsgd1na2vs0mg"},{"bike_id":"76450c2c-888f-4d08-a5c0-d825237615aa","system_id":"levelo_inurba_marseille","lat":43.27081,"lon":5.42277,"is_reserved":false,"is_disabled":false,"rental_uris":{"android":"levelo://app?vid=76450c2c-888f-4d08-a5c0-d825237615aa","ios":"levelo://app?vid=76450c2c-888f-4d08-a5c0-d825237615aa"},"vehicle_type_id":"4","last_reported":1744535400,"current_range_meters":10000,"station_id":"ce4bhk92rcd13ifvqgb0","pricing_plan_id":"cebpf4jnsgd1na2vs0mg"},{"bike_id":"cbe38776-6e0f-4adb-854c-25e7db7e42d0","system_id":"levelo_inurba_marseille","lat":43.24072,"lon":5.37736,"is_reserved":false,"is_disabled":false,"rental_uris":{"android":"levelo://app?vid=cbe38776-6e0f-4adb-854c-25e7db7e42d0","ios":"levelo://app?vid=cbe38776-6e0f-4adb-854c-25e7db7e42d0"},"vehicle_type_id":"4","last_reported":1744535400,"current_range_meters":10000,"station_id":"ce4bhnp2rcd13ifvqgvg","pricing_plan_id":"cebpf4jnsgd1na2vs0mg"},{"bike_id":"91c64572-a5c3-4f8f-a72c-cbfe64ccb754","system_id":"levelo_inurba_marseille","lat":43.29905,"lon":5.38143,"is_reserved":false,"is_disabled":false,"rental_uris":{"android":"levelo://app?vid=91c64572-a5c3-4f8f-a72c-cbfe64ccb754","ios":"levelo://app?vid=91c64572-a5c3-4f8f-a72c-cbfe64ccb754"},"vehicle_type_id":"4","last_reported":1744535400,"current_range_meters":10000,"station_id":"ce4bgj12rcd13ifvqbc0","pricing_plan_id":"cebpf4jnsgd1na2vs0mg"},{"bike_id":"6e2ac28e-dfb7-46b8-8016-b7ae92b2a4f0","system_id":"levelo_inurba_marseille","lat":43.27987,"lon":5.40009,"is_reserved":false,"is_disabled":false,"rental_uris":{"android":"levelo://app?vid=6e2ac28e-dfb7-46b8-8016-b7ae92b2a4f0","ios":"levelo://app?vid=6e2ac28e-dfb7-46b8-8016-b7ae92b2a4f0"},"vehicle_type_id":"4","last_reported":1744535400,"current_range_meters":10000,"station_id":"ce4bho92rcd13ifvqh4g","pricing_plan_id":"cebpf4jnsgd1na2vs0mg"},{"bike_id":"59218caf-4d91-41fa-a37e-bf7c3bc19c6a","system_id":"levelo_inurba_marseille","lat":43.28629,"lon":5.35084,"is_reserved":false,"is_disabled":false,"rental_uris":{"android":"levelo://app?vid=59218caf-4d91-41fa-a37e-bf7c3bc19c6a","ios":"levelo://app?vid=59218caf-4d91-41fa-a37e-bf7c3bc19c6a"},"vehicle_type_id":"4","last_reported":1744535400,"current_range_meters":10000,"station_id":"ce4bhch2rcd13ifvqeug","pricing_plan_id":"cebpf4jnsgd1na2vs0mg"},{"bike_id":"e0e59bfb-5088-41a2-835c-398ab715e8d6","system_id":"levelo_inurba_marseille","lat":43.24177,"lon":5.39713,"is_reserved":false,"is_disabled":false,"rental_uris":{"android":"levelo://app?vid=e0e59bfb-5088-41a2-835c-398ab715e8d6","ios":"levelo://app?vid=e0e59bfb-5088-41a2-835c-398ab715e8d6"},"vehicle_type_id":"4","last_reported":1744535400,"current_range_meters":10000,"station_id":"ce4bhn12rcd13ifvqgpg","pricing_plan_id":"cebpf4jnsgd1na2vs0mg"},{"bike_id":"c14a3d0e-03f7-430a-80a8-18644645ea89","system_id":"levelo_inurba_marseille","lat":43.32336,"lon":5.40631,"is_reserved":false,"is_disabled":false,"rental_uris":{"android":"levelo://app?vid=c14a3d0e-03f7-430a-80a8-18644645ea89","ios":"levelo://app?vid=c14a3d0e-03f7-430a-80a8-18644645ea89"},"vehicle_type_id":"4","last_reported":1744535400,"current_range_meters":10000,"station_id":"ce4bhq92rcd13ifvqhjg","pricing_plan_id":"cebpf4jnsgd1na2vs0mg"},{"bike_id":"72c6aab6-3a44-430e-a84d-843d2a93e616","system_id":"levelo_inurba_marseille","lat":43.21213,"lon":5.35072,"is_reserved":false,"is_disabled":true,"rental_uris":{"android":"levelo://app?vid=72c6aab6-3a44-430e-a84d-843d2a93e616","ios":"levelo://app?vid=72c6aab6-3a44-430e-a84d-843d2a93e616"},"vehicle_type_id":"4","last_reported":1744535400,"current_range_meters":10800,"station_id":"st_cvj6sg6p6f1abm77japg","pricing_plan_id":"cebpf4jnsgd1na2vs0mg"},{"bike_id":"f7cd819f-b752-47cc-848d-ff43c669ccb8","system_id":"levelo_inurba_marseille","lat":43.30988,"lon":5.41722,"is_reserved":false,"is_disabled":false,"rental_uris":{"android":"levelo://app?vid=f7cd819f-b752-47cc-848d-ff43c669ccb8","ios":"levelo://app?vid=f7cd819f-b752-47cc-848d-ff43c669ccb8"},"vehicle_type_id":"4","last_reported":1744535400,"current_range_meters":10800,"station_id":"","pricing_plan_id":"cebpf4jnsgd1na2vs0mg"},{"bike_id":"0c30a5d7-82b9-4bb2-9032-224893c69d2f","system_id":"levelo_inurba_marseille","lat":43.264801,"lon":5.395542,"is_reserved":false,"is_disabled":true,"rental_uris":{"android":"levelo://app?vid=0c30a5d7-82b9-4bb2-9032-224893c69d2f","ios":"levelo://app?vid=0c30a5d7-82b9-4bb2-9032-224893c69d2f"},"vehicle_type_id":"4","last_reported":1744535400,"current_range_meters":10800,"station_id":"ce4bhi12rcd13ifvqfq0","pricing_plan_id":"cebpf4jnsgd1na2vs0mg"},{"bike_id":"e48f952f-c6be-4ef7-9295-13bfba252544","system_id":"levelo_inurba_marseille","lat":43.30918,"lon":5.40138,"is_reserved":false,"is_disabled":false,"rental_uris":{"android":"levelo://app?vid=e48f952f-c6be-4ef7-9295-13bfba252544","ios":"levelo://app?vid=e48f952f-c6be-4ef7-9295-13bfba252544"},"vehicle_type_id":"4","last_reported":1744535400,"current_range_meters":10800,"station_id":"ce4bgvp2rcd13ifvqct0","pricing_plan_id":"cebpf4jnsgd1na2vs0mg"},{"bike_id":"91fffdcd-2fa7-4f34-b242-95e7e93ac05b","system_id":"levelo_inurba_marseille","lat":43.26275,"lon":5.39705,"is_reserved":false,"is_disabled":false,"rental_uris":{"android":"levelo://app?vid=91fffdcd-2fa7-4f34-b242-95e7e93ac05b","ios":"levelo://app?vid=91fffdcd-2fa7-4f34-b242-95e7e93ac05b"},"vehicle_type_id":"4","last_reported":1744535400,"current_range_meters":10800,"station_id":"","pricing_plan_id":"cebpf4jnsgd1na2vs0mg"},{"bike_id":"8043ed93-c0e0-4b20-a22a-1ce703744524","system_id":"levelo_inurba_marseille","lat":43.289381,"lon":5.366359,"is_reserved":false,"is_disabled":true,"rental_uris":{"android":"levelo://app?vid=8043ed93-c0e0-4b20-a22a-1ce703744524","ios":"levelo://app?vid=8043ed93-c0e0-4b20-a22a-1ce703744524"},"vehicle_type_id":"4","last_reported":1744535400,"current_range_meters":10800,"station_id":"ce4bhap2rcd13ifvqek0","pricing_plan_id":"cebpf4jnsgd1na2vs0mg"},{"bike_id":"82d38bd3-c046-4f55-aec8-4eb686f05e29","system_id":"levelo_inurba_marseille","lat":43.229301,"lon":5.353727,"is_reserved":false,"is_disabled":true,"rental_uris":{"android":"levelo://app?vid=82d38bd3-c046-4f55-aec8-4eb686f05e29","ios":"levelo://app?vid=82d38bd3-c046-4f55-aec8-4eb686f05e29"},"vehicle_type_id":"4","last_reported":1744535400,"current_range_meters":11200,"station_id":"cpo3532slgdg3j2ikp40","pricing_plan_id":"cebpf4jnsgd1na2vs0mg"},{"bike_id":"c21b93f5-7db2-4b47-9873-cc836a08f1d9","system_id":"levelo_inurba_marseille","lat":43.29446,"lon":5.39751,"is_reserved":false,"is_disabled":false,"rental_uris":{"android":"levelo://app?vid=c21b93f5-7db2-4b47-9873-cc836a08f1d9","ios":"levelo://app?vid=c21b93f5-7db2-4b47-9873-cc836a08f1d9"},"vehicle_type_id":"4","last_reported":1744535400,"current_range_meters":11200,"station_id":"ce4bh3h2rcd13ifvqdo0","pricing_plan_id":"cebpf4jnsgd1na2vs0mg"},{"bike_id":"948e92e0-c15a-46ac-9a07-c72aa6f342f2","system_id":"levelo_inurba_marseille","lat":43.29536,"lon":5.38542,"is_reserved":false,"is_disabled":false,"rental_uris":{"android":"levelo://app?vid=948e92e0-c15a-46ac-9a07-c72aa6f342f2","ios":"levelo://app?vid=948e92e0-c15a-46ac-9a07-c72aa6f342f2"},"vehicle_type_id":"4","last_reported":1744535400,"current_range_meters":11200,"station_id":"ce4bgih2rcd13ifvqba0","pricing_plan_id":"cebpf4jnsgd1na2vs0mg"},{"bike_id":"efd328ca-f8bf-4550-bd94-c2fd75978f3c","system_id":"levelo_inurba_marseille","lat":43.330464,"lon":5.380898,"is_reserved":false,"is_disabled":false,"rental_uris":{"android":"levelo://app?vid=efd328ca-f8bf-4550-bd94-c2fd75978f3c","ios":"levelo://app?vid=efd328ca-f8bf-4550-bd94-c2fd75978f3c"},"vehicle_type_id":"4","last_reported":1744535400,"current_range_meters":11200,"station_id":"","pricing_plan_id":"cebpf4jnsgd1na2vs0mg"},{"bike_id":"12aec038-db5e-4d5d-a5cf-e01dc2e28ea3","system_id":"levelo_inurba_marseille","lat":43.30124,"lon":5.405,"is_reserved":false,"is_disabled":true,"rental_uris":{"android":"levelo://app?vid=12aec038-db5e-4d5d-a5cf-e01dc2e28ea3","ios":"levelo://app?vid=12aec038-db5e-4d5d-a5cf-e01dc2e28ea3"},"vehicle_type_id":"4","last_reported":1744535400,"current_range_meters":11600,"station_id":"","pricing_plan_id":"cebpf4jnsgd1na2vs0mg"},{"bike_id":"2eea1de6-53e8-46de-b4f0-e8d0fadefe0c","system_id":"levelo_inurba_marseille","lat":43.25109,"lon":5.40311,"is_reserved":false,"is_disabled":false,"rental_uris":{"android":"levelo://app?vid=2eea1de6-53e8-46de-b4f0-e8d0fadefe0c","ios":"levelo://app?vid=2eea1de6-53e8-46de-b4f0-e8d0fadefe0c"},"vehicle_type_id":"4","last_reported":1744535400,"current_range_meters":11600,"station_id":"ce4bhlh2rcd13ifvqgig","pricing_plan_id":"cebpf4jnsgd1na2vs0mg"},{"bike_id":"7a16e283-b53b-4b88-854c-640e282c52b2","system_id":"levelo_inurba_marseille","lat":43.33601,"lon":5.41012,"is_reserved":false,"is_disabled":false,"rental_uris":{"android":"levelo://app?vid=7a16e283-b53b-4b88-854c-640e282c52b2","ios":"levelo://app?vid=7a16e283-b53b-4b88-854c-640e282c52b2"},"vehicle_type_id":"4","last_reported":1744535400,"current_range_meters":11600,"station_id":"ce4bhqh2rcd13ifvqhmg","pricing_plan_id":"cebpf4jnsgd1na2vs0mg"},{"bike_id":"020e9999-d552-48d0-ae5f-b725af0dbea2","system_id":"levelo_inurba_marseille","lat":43.2991,"lon":5.43766,"is_reserved":false,"is_disabled":false,"rental_uris":{"android":"levelo://app?vid=020e9999-d552-48d0-ae5f-b725af0dbea2","ios":"levelo://app?vid=020e9999-d552-48d0-ae5f-b725af0dbea2"},"vehicle_type_id":"4","last_reported":1744535400,"current_range_meters":11600,"station_id":"","pricing_plan_id":"cebpf4jnsgd1na2vs0mg"},{"bike_id":"a3bf51d9-08b7-458c-9b6d-ef5680cc95d6","system_id":"levelo_inurba_marseille","lat":43.21744,"lon":5.34606,"is_reserved":false,"is_disabled":true,"rental_uris":{"android":"levelo://app?vid=a3bf51d9-08b7-458c-9b6d-ef5680cc95d6","ios":"levelo://app?vid=a3bf51d9-08b7-458c-9b6d-ef5680cc95d6"},"vehicle_type_id":"4","last_reported":1744535400,"current_range_meters":11600,"station_id":"st_cvj6r9ubvosntc0bgbag","pricing_plan_id":"cebpf4jnsgd1na2vs0mg"},{"bike_id":"5bd83869-317c-4f7d-93ed-182a084c5a24","system_id":"levelo_inurba_marseille","lat":43.25737,"lon":5.41105,"is_reserved":false,"is_disabled":false,"rental_uris":{"android":"levelo://app?vid=5bd83869-317c-4f7d-93ed-182a084c5a24","ios":"levelo://app?vid=5bd83869-317c-4f7d-93ed-182a084c5a24"},"vehicle_type_id":"4","last_reported":1744535400,"current_range_meters":12000,"station_id":"ce4bhkp2rcd13ifvqgd0","pricing_plan_id":"cebpf4jnsgd1na2vs0mg"},{"bike_id":"b55dd5e7-54b2-4035-b945-7b626dd7afc7","system_id":"levelo_inurba_marseille","lat":43.27542,"lon":5.40936,"is_reserved":false,"is_disabled":false,"rental_uris":{"android":"levelo://app?vid=b55dd5e7-54b2-4035-b945-7b626dd7afc7","ios":"levelo://app?vid=b55dd5e7-54b2-4035-b945-7b626dd7afc7"},"vehicle_type_id":"4","last_reported":1744535400,"current_range_meters":12000,"station_id":"","pricing_plan_id":"cebpf4jnsgd1na2vs0mg"},{"bike_id":"982bb1bc-457f-43d7-ae21-85035c856353","system_id":"levelo_inurba_marseille","lat":43.22521,"lon":5.34773,"is_reserved":false,"is_disabled":true,"rental_uris":{"android":"levelo://app?vid=982bb1bc-457f-43d7-ae21-85035c856353","ios":"levelo://app?vid=982bb1bc-457f-43d7-ae21-85035c856353"},"vehicle_type_id":"4","last_reported":1744535400,"current_range_meters":12000,"station_id":"st_cvj5dfep6f1abm77gieg","pricing_plan_id":"cebpf4jnsgd1na2vs0mg"},{"bike_id":"ec5529ba-a86c-439a-9c90-c79bfd022883","system_id":"levelo_inurba_marseille","lat":43.265632,"lon":5.390196,"is_reserved":false,"is_disabled":false,"rental_uris":{"android":"levelo://app?vid=ec5529ba-a86c-439a-9c90-c79bfd022883","ios":"levelo://app?vid=ec5529ba-a86c-439a-9c90-c79bfd022883"},"vehicle_type_id":"4","last_reported":1744535400,"current_range_meters":12000,"station_id":"ce4bhe12rcd13ifvqf30","pricing_plan_id":"cebpf4jnsgd1na2vs0mg"},{"bike_id":"73bbc97d-2b39-4276-bc22-fd7aa78f429c","system_id":"levelo_inurba_marseille","lat":43.29892,"lon":5.43674,"is_reserved":false,"is_disabled":false,"rental_uris":{"android":"levelo://app?vid=73bbc97d-2b39-4276-bc22-fd7aa78f429c","ios":"levelo://app?vid=73bbc97d-2b39-4276-bc22-fd7aa78f429c"},"vehicle_type_id":"4","last_reported":1744535400,"current_range_meters":12000,"station_id":"ce4bhpp2rcd13ifvqhfg","pricing_plan_id":"cebpf4jnsgd1na2vs0mg"},{"bike_id":"93315c12-bc0b-4f12-b059-3e0b577d6c66","system_id":"levelo_inurba_marseille","lat":43.30551,"lon":5.36542,"is_reserved":false,"is_disabled":false,"rental_uris":{"android":"levelo://app?vid=93315c12-bc0b-4f12-b059-3e0b577d6c66","ios":"levelo://app?vid=93315c12-bc0b-4f12-b059-3e0b577d6c66"},"vehicle_type_id":"4","last_reported":1744535400,"current_range_meters":12400,"station_id":"ce4bgs12rcd13ifvqcag","pricing_plan_id":"cebpf4jnsgd1na2vs0mg"},{"bike_id":"4bbe6e48-9bfa-4dec-aab0-5597477f7da1","system_id":"levelo_inurba_marseille","lat":43.32412,"lon":5.39141,"is_reserved":false,"is_disabled":false,"rental_uris":{"android":"levelo://app?vid=4bbe6e48-9bfa-4dec-aab0-5597477f7da1","ios":"levelo://app?vid=4bbe6e48-9bfa-4dec-aab0-5597477f7da1"},"vehicle_type_id":"4","last_reported":1744535400,"current_range_meters":12400,"station_id":"","pricing_plan_id":"cebpf4jnsgd1na2vs0mg"},{"bike_id":"02b805ba-1cc8-4000-965d-aed67ae6d510","system_id":"levelo_inurba_marseille","lat":43.25493,"lon":5.37651,"is_reserved":false,"is_disabled":false,"rental_uris":{"android":"levelo://app?vid=02b805ba-1cc8-4000-965d-aed67ae6d510","ios":"levelo://app?vid=02b805ba-1cc8-4000-965d-aed67ae6d510"},"vehicle_type_id":"4","last_reported":1744535400,"current_range_meters":12800,"station_id":"ce4bhh12rcd13ifvqff0","pricing_plan_id":"cebpf4jnsgd1na2vs0mg"},{"bike_id":"c70dc66c-d4a1-4e50-81d7-22e212eff3e3","system_id":"levelo_inurba_marseille","lat":43.24675,"lon":5.38155,"is_reserved":false,"is_disabled":false,"rental_uris":{"android":"levelo://app?vid=c70dc66c-d4a1-4e50-81d7-22e212eff3e3","ios":"levelo://app?vid=c70dc66c-d4a1-4e50-81d7-22e212eff3e3"},"vehicle_type_id":"4","last_reported":1744535400,"current_range_meters":12800,"station_id":"ce4bhih2rcd13ifvqfr0","pricing_plan_id":"cebpf4jnsgd1na2vs0mg"},{"bike_id":"81021094-e41d-4417-832b-a2a1919061e2","system_id":"levelo_inurba_marseille","lat":43.28278,"lon":5.35077,"is_reserved":false,"is_disabled":false,"rental_uris":{"android":"levelo://app?vid=81021094-e41d-4417-832b-a2a1919061e2","ios":"levelo://app?vid=81021094-e41d-4417-832b-a2a1919061e2"},"vehicle_type_id":"4","last_reported":1744535400,"current_range_meters":12400,"station_id":"ce4bhbp2rcd13ifvqerg","pricing_plan_id":"cebpf4jnsgd1na2vs0mg"},{"bike_id":"1578cdda-fa32-4486-ac62-617f457b0927","system_id":"levelo_inurba_marseille","lat":43.29005,"lon":5.35599,"is_reserved":false,"is_disabled":true,"rental_uris":{"android":"levelo://app?vid=1578cdda-fa32-4486-ac62-617f457b0927","ios":"levelo://app?vid=1578cdda-fa32-4486-ac62-617f457b0927"},"vehicle_type_id":"4","last_reported":1744535400,"current_range_meters":12800,"station_id":"ce4bhb92rcd13ifvqen0","pricing_plan_id":"cebpf4jnsgd1na2vs0mg"},{"bike_id":"c5de9f04-a68c-4314-9995-789e3d717983","system_id":"levelo_inurba_marseille","lat":43.24421,"lon":5.37073,"is_reserved":false,"is_disabled":true,"rental_uris":{"android":"levelo://app?vid=c5de9f04-a68c-4314-9995-789e3d717983","ios":"levelo://app?vid=c5de9f04-a68c-4314-9995-789e3d717983"},"vehicle_type_id":"4","last_reported":1744535400,"current_range_meters":12800,"station_id":"ce4bhhh2rcd13ifvqfk0","pricing_plan_id":"cebpf4jnsgd1na2vs0mg"},{"bike_id":"0a2d0b32-b994-4651-a040-74b4685da1bf","system_id":"levelo_inurba_marseille","lat":43.298644,"lon":5.397261,"is_reserved":false,"is_disabled":false,"rental_uris":{"android":"levelo://app?vid=0a2d0b32-b994-4651-a040-74b4685da1bf","ios":"levelo://app?vid=0a2d0b32-b994-4651-a040-74b4685da1bf"},"vehicle_type_id":"4","last_reported":1744535400,"current_range_meters":12400,"station_id":"ce4bhmp2rcd13ifvqgog","pricing_plan_id":"cebpf4jnsgd1na2vs0mg"},{"bike_id":"d8b9884b-4022-4710-9f87-50e0dbfd421d","system_id":"levelo_inurba_marseille","lat":43.24147,"lon":5.36411,"is_reserved":false,"is_disabled":false,"rental_uris":{"android":"levelo://app?vid=d8b9884b-4022-4710-9f87-50e0dbfd421d","ios":"levelo://app?vid=d8b9884b-4022-4710-9f87-50e0dbfd421d"},"vehicle_type_id":"4","last_reported":1744535400,"current_range_meters":12800,"station_id":"cpo36qri1sfpv3e86is0","pricing_plan_id":"cebpf4jnsgd1na2vs0mg"},{"bike_id":"0ec2ec42-7e77-461a-9cca-c87111e6f33f","system_id":"levelo_inurba_marseille","lat":43.28505,"lon":5.38595,"is_reserved":false,"is_disabled":false,"rental_uris":{"android":"levelo://app?vid=0ec2ec42-7e77-461a-9cca-c87111e6f33f","ios":"levelo://app?vid=0ec2ec42-7e77-461a-9cca-c87111e6f33f"},"vehicle_type_id":"4","last_reported":1744535400,"current_range_meters":12800,"station_id":"ce4bh8p2rcd13ifvqeb0","pricing_plan_id":"cebpf4jnsgd1na2vs0mg"},{"bike_id":"d49ed5f3-63dd-41d8-a7c3-7b7860b035b1","system_id":"levelo_inurba_marseille","lat":43.24812,"lon":5.37459,"is_reserved":false,"is_disabled":true,"rental_uris":{"android":"levelo://app?vid=d49ed5f3-63dd-41d8-a7c3-7b7860b035b1","ios":"levelo://app?vid=d49ed5f3-63dd-41d8-a7c3-7b7860b035b1"},"vehicle_type_id":"4","last_reported":1744535400,"current_range_meters":12800,"station_id":"ce4bhgh2rcd13ifvqfb0","pricing_plan_id":"cebpf4jnsgd1na2vs0mg"},{"bike_id":"5591936e-ca63-41c7-89f3-9c9493c86f89","system_id":"levelo_inurba_marseille","lat":43.24171,"lon":5.36402,"is_reserved":false,"is_disabled":false,"rental_uris":{"android":"levelo://app?vid=5591936e-ca63-41c7-89f3-9c9493c86f89","ios":"levelo://app?vid=5591936e-ca63-41c7-89f3-9c9493c86f89"},"vehicle_type_id":"4","last_reported":1744535400,"current_range_meters":12800,"station_id":"cpo36qri1sfpv3e86is0","pricing_plan_id":"cebpf4jnsgd1na2vs0mg"},{"bike_id":"c5668a5c-eabb-4363-a042-b20f82d9a571","system_id":"levelo_inurba_marseille","lat":43.260586,"lon":5.393916,"is_reserved":false,"is_disabled":false,"rental_uris":{"android":"levelo://app?vid=c5668a5c-eabb-4363-a042-b20f82d9a571","ios":"levelo://app?vid=c5668a5c-eabb-4363-a042-b20f82d9a571"},"vehicle_type_id":"4","last_reported":1744535400,"current_range_meters":12800,"station_id":"ce4bhh92rcd13ifvqfj0","pricing_plan_id":"cebpf4jnsgd1na2vs0mg"},{"bike_id":"fd79c122-f31b-4d6a-85e9-68b551d3094d","system_id":"levelo_inurba_marseille","lat":43.25002,"lon":5.38922,"is_reserved":false,"is_disabled":false,"rental_uris":{"android":"levelo://app?vid=fd79c122-f31b-4d6a-85e9-68b551d3094d","ios":"levelo://app?vid=fd79c122-f31b-4d6a-85e9-68b551d3094d"},"vehicle_type_id":"4","last_reported":1744535400,"current_range_meters":12800,"station_id":"ce4bhgp2rcd13ifvqfd0","pricing_plan_id":"cebpf4jnsgd1na2vs0mg"},{"bike_id":"670350e7-8b16-4095-8222-1a9ab089eb5a","system_id":"levelo_inurba_marseille","lat":43.27944,"lon":5.41034,"is_reserved":false,"is_disabled":false,"rental_uris":{"android":"levelo://app?vid=670350e7-8b16-4095-8222-1a9ab089eb5a","ios":"levelo://app?vid=670350e7-8b16-4095-8222-1a9ab089eb5a"},"vehicle_type_id":"4","last_reported":1744535400,"current_range_meters":13600,"station_id":"ce4bhnp2rcd13ifvqh0g","pricing_plan_id":"cebpf4jnsgd1na2vs0mg"},{"bike_id":"e38924e4-2ebb-4694-855f-14049a67b9dd","system_id":"levelo_inurba_marseille","lat":43.29944,"lon":5.36526,"is_reserved":false,"is_disabled":false,"rental_uris":{"android":"levelo://app?vid=e38924e4-2ebb-4694-855f-14049a67b9dd","ios":"levelo://app?vid=e38924e4-2ebb-4694-855f-14049a67b9dd"},"vehicle_type_id":"4","last_reported":1744535400,"current_range_meters":13600,"station_id":"ce4bgm92rcd13ifvqbr0","pricing_plan_id":"cebpf4jnsgd1na2vs0mg"},{"bike_id":"2fc88268-9338-4674-a8f4-36dfb8363ca0","system_id":"levelo_inurba_marseille","lat":43.211984,"lon":5.350875,"is_reserved":false,"is_disabled":true,"rental_uris":{"android":"levelo://app?vid=2fc88268-9338-4674-a8f4-36dfb8363ca0","ios":"levelo://app?vid=2fc88268-9338-4674-a8f4-36dfb8363ca0"},"vehicle_type_id":"4","last_reported":1744535400,"current_range_meters":13600,"station_id":"st_cvj6sg6p6f1abm77japg","pricing_plan_id":"cebpf4jnsgd1na2vs0mg"},{"bike_id":"ad16bf93-0d9a-44a4-9c15-562c7fd0cde4","system_id":"levelo_inurba_marseille","lat":43.25581,"lon":5.3824,"is_reserved":false,"is_disabled":false,"rental_uris":{"android":"levelo://app?vid=ad16bf93-0d9a-44a4-9c15-562c7fd0cde4","ios":"levelo://app?vid=ad16bf93-0d9a-44a4-9c15-562c7fd0cde4"},"vehicle_type_id":"4","last_reported":1744535400,"current_range_meters":13600,"station_id":"ce4bhih2rcd13ifvqfs0","pricing_plan_id":"cebpf4jnsgd1na2vs0mg"},{"bike_id":"2a51123b-0ea2-40c6-97d0-0bd0e1bca448","system_id":"levelo_inurba_marseille","lat":43.23155,"lon":5.43704,"is_reserved":false,"is_disabled":false,"rental_uris":{"android":"levelo://app?vid=2a51123b-0ea2-40c6-97d0-0bd0e1bca448","ios":"levelo://app?vid=2a51123b-0ea2-40c6-97d0-0bd0e1bca448"},"vehicle_type_id":"4","last_reported":1744535400,"current_range_meters":13600,"station_id":"ce4bhmp2rcd13ifvqgog","pricing_plan_id":"cebpf4jnsgd1na2vs0mg"},{"bike_id":"c7fd73f0-8404-463d-9047-7442c4d6fe95","system_id":"levelo_inurba_marseille","lat":43.2813,"lon":5.42616,"is_reserved":false,"is_disabled":false,"rental_uris":{"android":"levelo://app?vid=c7fd73f0-8404-463d-9047-7442c4d6fe95","ios":"levelo://app?vid=c7fd73f0-8404-463d-9047-7442c4d6fe95"},"vehicle_type_id":"4","last_reported":1744535400,"current_range_meters":14000,"station_id":"ce4bhnh2rcd13ifvqgug","pricing_plan_id":"cebpf4jnsgd1na2vs0mg"},{"bike_id":"eeecd2fe-6254-4002-abf4-dbb4c5b284dc","system_id":"levelo_inurba_marseille","lat":43.27973,"lon":5.41651,"is_reserved":false,"is_disabled":true,"rental_uris":{"android":"levelo://app?vid=eeecd2fe-6254-4002-abf4-dbb4c5b284dc","ios":"levelo://app?vid=eeecd2fe-6254-4002-abf4-dbb4c5b284dc"},"vehicle_type_id":"4","last_reported":1744535400,"current_range_meters":14000,"station_id":"ce4bho12rcd13ifvqh1g","pricing_plan_id":"cebpf4jnsgd1na2vs0mg"},{"bike_id":"4d874086-2615-45ee-92bb-518b7ad00a4d","system_id":"levelo_inurba_marseille","lat":43.30962,"lon":5.39037,"is_reserved":false,"is_disabled":true,"rental_uris":{"android":"levelo://app?vid=4d874086-2615-45ee-92bb-518b7ad00a4d","ios":"levelo://app?vid=4d874086-2615-45ee-92bb-518b7ad00a4d"},"vehicle_type_id":"4","last_reported":1744535400,"current_range_meters":14000,"station_id":"ce4bgup2rcd13ifvqco0","pricing_plan_id":"cebpf4jnsgd1na2vs0mg"},{"bike_id":"3507dfca-319b-4174-9d98-ddf67a8f0f8e","system_id":"levelo_inurba_marseille","lat":43.29729,"lon":5.36581,"is_reserved":false,"is_disabled":false,"rental_uris":{"android":"levelo://app?vid=3507dfca-319b-4174-9d98-ddf67a8f0f8e","ios":"levelo://app?vid=3507dfca-319b-4174-9d98-ddf67a8f0f8e"},"vehicle_type_id":"4","last_reported":1744535400,"current_range_meters":14000,"station_id":"ce4bgn12rcd13ifvqbt0","pricing_plan_id":"cebpf4jnsgd1na2vs0mg"},{"bike_id":"94c5bfb1-356f-45dd-b1e3-92e67beafaf7","system_id":"levelo_inurba_marseille","lat":43.31483,"lon":5.37278,"is_reserved":false,"is_disabled":false,"rental_uris":{"android":"levelo://app?vid=94c5bfb1-356f-45dd-b1e3-92e67beafaf7","ios":"levelo://app?vid=94c5bfb1-356f-45dd-b1e3-92e67beafaf7"},"vehicle_type_id":"4","last_reported":1744535400,"current_range_meters":14000,"station_id":"ce4bgt12rcd13ifvqcd0","pricing_plan_id":"cebpf4jnsgd1na2vs0mg"},{"bike_id":"3e873818-9d26-4ed9-bd39-2a826330a5fd","system_id":"levelo_inurba_marseille","lat":43.29775,"lon":5.371,"is_reserved":false,"is_disabled":false,"rental_uris":{"android":"levelo://app?vid=3e873818-9d26-4ed9-bd39-2a826330a5fd","ios":"levelo://app?vid=3e873818-9d26-4ed9-bd39-2a826330a5fd"},"vehicle_type_id":"4","last_reported":1744535400,"current_range_meters":13600,"station_id":"ce4bgop2rcd13ifvqc1g","pricing_plan_id":"cebpf4jnsgd1na2vs0mg"},{"bike_id":"239b457a-7da8-49b2-9197-3c47133b2b7d","system_id":"levelo_inurba_marseille","lat":43.29028,"lon":5.39953,"is_reserved":false,"is_disabled":true,"rental_uris":{"android":"levelo://app?vid=239b457a-7da8-49b2-9197-3c47133b2b7d","ios":"levelo://app?vid=239b457a-7da8-49b2-9197-3c47133b2b7d"},"vehicle_type_id":"4","last_reported":1744535400,"current_range_meters":14000,"station_id":"ce4bh392rcd13ifvqdm0","pricing_plan_id":"cebpf4jnsgd1na2vs0mg"},{"bike_id":"e09b0a72-9049-4f0a-8c1e-9c77d8777c41","system_id":"levelo_inurba_marseille","lat":43.284605,"lon":5.358975,"is_reserved":false,"is_disabled":false,"rental_uris":{"android":"levelo://app?vid=e09b0a72-9049-4f0a-8c1e-9c77d8777c41","ios":"levelo://app?vid=e09b0a72-9049-4f0a-8c1e-9c77d8777c41"},"vehicle_type_id":"4","last_reported":1744535400,"current_range_meters":14400,"station_id":"ce4bhah2rcd13ifvqei0","pricing_plan_id":"cebpf4jnsgd1na2vs0mg"},{"bike_id":"7de63893-3069-498b-8a09-2d3c997c6a4e","system_id":"levelo_inurba_marseille","lat":43.30132,"lon":5.38082,"is_reserved":false,"is_disabled":false,"rental_uris":{"android":"levelo://app?vid=7de63893-3069-498b-8a09-2d3c997c6a4e","ios":"levelo://app?vid=7de63893-3069-498b-8a09-2d3c997c6a4e"},"vehicle_type_id":"4","last_reported":1744535400,"current_range_meters":14400,"station_id":"ce4bgjp2rcd13ifvqbh0","pricing_plan_id":"cebpf4jnsgd1na2vs0mg"},{"bike_id":"211eb830-0957-42fb-82e1-b26412a4110a","system_id":"levelo_inurba_marseille","lat":43.303,"lon":5.36888,"is_reserved":false,"is_disabled":false,"rental_uris":{"android":"levelo://app?vid=211eb830-0957-42fb-82e1-b26412a4110a","ios":"levelo://app?vid=211eb830-0957-42fb-82e1-b26412a4110a"},"vehicle_type_id":"4","last_reported":1744535400,"current_range_meters":14400,"station_id":"ce4bgqh2rcd13ifvqc5g","pricing_plan_id":"cebpf4jnsgd1na2vs0mg"},{"bike_id":"a2102330-3796-4d99-b9ec-cf4584452039","system_id":"levelo_inurba_marseille","lat":43.29929,"lon":5.36554,"is_reserved":false,"is_disabled":false,"rental_uris":{"android":"levelo://app?vid=a2102330-3796-4d99-b9ec-cf4584452039","ios":"levelo://app?vid=a2102330-3796-4d99-b9ec-cf4584452039"},"vehicle_type_id":"4","last_reported":1744535400,"current_range_meters":14800,"station_id":"ce4bgm92rcd13ifvqbr0","pricing_plan_id":"cebpf4jnsgd1na2vs0mg"},{"bike_id":"54f95021-ece3-4c1e-a98d-33e005a5619a","system_id":"levelo_inurba_marseille","lat":43.21204,"lon":5.35073,"is_reserved":false,"is_disabled":false,"rental_uris":{"android":"levelo://app?vid=54f95021-ece3-4c1e-a98d-33e005a5619a","ios":"levelo://app?vid=54f95021-ece3-4c1e-a98d-33e005a5619a"},"vehicle_type_id":"4","last_reported":1744535400,"current_range_meters":14800,"station_id":"st_cvj6sg6p6f1abm77japg","pricing_plan_id":"cebpf4jnsgd1na2vs0mg"},{"bike_id":"6a003e47-a1cc-4c38-b762-6e37af426d05","system_id":"levelo_inurba_marseille","lat":43.32333,"lon":5.36665,"is_reserved":false,"is_disabled":false,"rental_uris":{"android":"levelo://app?vid=6a003e47-a1cc-4c38-b762-6e37af426d05","ios":"levelo://app?vid=6a003e47-a1cc-4c38-b762-6e37af426d05"},"vehicle_type_id":"4","last_reported":1744535400,"current_range_meters":14800,"station_id":"ce4bhsh2rcd13ifvqi2g","pricing_plan_id":"cebpf4jnsgd1na2vs0mg"},{"bike_id":"dad3079b-1cdd-49e8-84cd-51e9f9f50304","system_id":"levelo_inurba_marseille","lat":43.3042,"lon":5.39745,"is_reserved":false,"is_disabled":false,"rental_uris":{"android":"levelo://app?vid=dad3079b-1cdd-49e8-84cd-51e9f9f50304","ios":"levelo://app?vid=dad3079b-1cdd-49e8-84cd-51e9f9f50304"},"vehicle_type_id":"4","last_reported":1744535400,"current_range_meters":14400,"station_id":"ce4bh092rcd13ifvqd20","pricing_plan_id":"cebpf4jnsgd1na2vs0mg"},{"bike_id":"3dfd87a1-3cd0-40c0-81cd-65464712a522","system_id":"levelo_inurba_marseille","lat":43.24154,"lon":5.39645,"is_reserved":false,"is_disabled":false,"rental_uris":{"android":"levelo://app?vid=3dfd87a1-3cd0-40c0-81cd-65464712a522","ios":"levelo://app?vid=3dfd87a1-3cd0-40c0-81cd-65464712a522"},"vehicle_type_id":"4","last_reported":1744535400,"current_range_meters":14800,"station_id":"","pricing_plan_id":"cebpf4jnsgd1na2vs0mg"},{"bike_id":"ef688a51-dfec-4f9f-98e4-b3bfa57977e8","system_id":"levelo_inurba_marseille","lat":43.292448,"lon":5.366258,"is_reserved":false,"is_disabled":false,"rental_uris":{"android":"levelo://app?vid=ef688a51-dfec-4f9f-98e4-b3bfa57977e8","ios":"levelo://app?vid=ef688a51-dfec-4f9f-98e4-b3bfa57977e8"},"vehicle_type_id":"4","last_reported":1744535400,"current_range_meters":15200,"station_id":"ce4bhch2rcd13ifvqeug","pricing_plan_id":"cebpf4jnsgd1na2vs0mg"},{"bike_id":"7ef9770c-0ddf-4364-9468-d08aac718b60","system_id":"levelo_inurba_marseille","lat":43.25484,"lon":5.37639,"is_reserved":false,"is_disabled":false,"rental_uris":{"android":"levelo://app?vid=7ef9770c-0ddf-4364-9468-d08aac718b60","ios":"levelo://app?vid=7ef9770c-0ddf-4364-9468-d08aac718b60"},"vehicle_type_id":"4","last_reported":1744535400,"current_range_meters":15200,"station_id":"ce4bhh12rcd13ifvqff0","pricing_plan_id":"cebpf4jnsgd1na2vs0mg"},{"bike_id":"51ca3998-1d52-48da-b48d-af2858da5929","system_id":"levelo_inurba_marseille","lat":43.31485,"lon":5.37304,"is_reserved":false,"is_disabled":false,"rental_uris":{"android":"levelo://app?vid=51ca3998-1d52-48da-b48d-af2858da5929","ios":"levelo://app?vid=51ca3998-1d52-48da-b48d-af2858da5929"},"vehicle_type_id":"4","last_reported":1744535400,"current_range_meters":15200,"station_id":"ce4bgt12rcd13ifvqcd0","pricing_plan_id":"cebpf4jnsgd1na2vs0mg"},{"bike_id":"fbcffd98-9af3-437e-a238-670cf1dcb555","system_id":"levelo_inurba_marseille","lat":43.28954,"lon":5.36644,"is_reserved":false,"is_disabled":true,"rental_uris":{"android":"levelo://app?vid=fbcffd98-9af3-437e-a238-670cf1dcb555","ios":"levelo://app?vid=fbcffd98-9af3-437e-a238-670cf1dcb555"},"vehicle_type_id":"4","last_reported":1744535400,"current_range_meters":15200,"station_id":"ce4bhap2rcd13ifvqek0","pricing_plan_id":"cebpf4jnsgd1na2vs0mg"},{"bike_id":"e5773f43-8f28-4d81-b94d-55ad617eff4c","system_id":"levelo_inurba_marseille","lat":43.29056,"lon":5.40035,"is_reserved":false,"is_disabled":false,"rental_uris":{"android":"levelo://app?vid=e5773f43-8f28-4d81-b94d-55ad617eff4c","ios":"levelo://app?vid=e5773f43-8f28-4d81-b94d-55ad617eff4c"},"vehicle_type_id":"4","last_reported":1744535400,"current_range_meters":15200,"station_id":"","pricing_plan_id":"cebpf4jnsgd1na2vs0mg"},{"bike_id":"d9214e74-30ad-45b9-bf16-f3f0709b1cbf","system_id":"levelo_inurba_marseille","lat":43.23201,"lon":5.35554,"is_reserved":false,"is_disabled":false,"rental_uris":{"android":"levelo://app?vid=d9214e74-30ad-45b9-bf16-f3f0709b1cbf","ios":"levelo://app?vid=d9214e74-30ad-45b9-bf16-f3f0709b1cbf"},"vehicle_type_id":"4","last_reported":1744535400,"current_range_meters":16000,"station_id":"ce4bhu92rcd13ifvqi70","pricing_plan_id":"cebpf4jnsgd1na2vs0mg"},{"bike_id":"3b120f28-3bf5-46fd-b11c-c4932d000639","system_id":"levelo_inurba_marseille","lat":43.27961,"lon":5.3873,"is_reserved":false,"is_disabled":false,"rental_uris":{"android":"levelo://app?vid=3b120f28-3bf5-46fd-b11c-c4932d000639","ios":"levelo://app?vid=3b120f28-3bf5-46fd-b11c-c4932d000639"},"vehicle_type_id":"4","last_reported":1744535400,"current_range_meters":16000,"station_id":"ce4bhg12rcd13ifvqf80","pricing_plan_id":"cebpf4jnsgd1na2vs0mg"},{"bike_id":"59790fdf-1ea1-455c-92c2-962c077501dc","system_id":"levelo_inurba_marseille","lat":43.24179,"lon":5.39693,"is_reserved":false,"is_disabled":false,"rental_uris":{"android":"levelo://app?vid=59790fdf-1ea1-455c-92c2-962c077501dc","ios":"levelo://app?vid=59790fdf-1ea1-455c-92c2-962c077501dc"},"vehicle_type_id":"4","last_reported":1744535400,"current_range_meters":16000,"station_id":"ce4bhn12rcd13ifvqgpg","pricing_plan_id":"cebpf4jnsgd1na2vs0mg"},{"bike_id":"fc717318-eb74-48d7-a733-c38b2c4b8364","system_id":"levelo_inurba_marseille","lat":43.26563,"lon":5.38998,"is_reserved":false,"is_disabled":false,"rental_uris":{"android":"levelo://app?vid=fc717318-eb74-48d7-a733-c38b2c4b8364","ios":"levelo://app?vid=fc717318-eb74-48d7-a733-c38b2c4b8364"},"vehicle_type_id":"4","last_reported":1744535400,"current_range_meters":16000,"station_id":"ce4bhe12rcd13ifvqf30","pricing_plan_id":"cebpf4jnsgd1na2vs0mg"},{"bike_id":"148d6d37-7a05-470b-b2d0-5de114ced696","system_id":"levelo_inurba_marseille","lat":43.24808,"lon":5.37448,"is_reserved":false,"is_disabled":false,"rental_uris":{"android":"levelo://app?vid=148d6d37-7a05-470b-b2d0-5de114ced696","ios":"levelo://app?vid=148d6d37-7a05-470b-b2d0-5de114ced696"},"vehicle_type_id":"4","last_reported":1744535400,"current_range_meters":16400,"station_id":"ce4bhgh2rcd13ifvqfb0","pricing_plan_id":"cebpf4jnsgd1na2vs0mg"},{"bike_id":"13ebbf62-4a0d-4e17-8618-3d6be87a58c1","system_id":"levelo_inurba_marseille","lat":43.29908,"lon":5.38902,"is_reserved":false,"is_disabled":false,"rental_uris":{"android":"levelo://app?vid=13ebbf62-4a0d-4e17-8618-3d6be87a58c1","ios":"levelo://app?vid=13ebbf62-4a0d-4e17-8618-3d6be87a58c1"},"vehicle_type_id":"4","last_reported":1744535400,"current_range_meters":16400,"station_id":"ce4bh392rcd13ifvqdl0","pricing_plan_id":"cebpf4jnsgd1na2vs0mg"},{"bike_id":"bb85c426-a606-4370-976e-4496fe44ea60","system_id":"levelo_inurba_marseille","lat":43.26193,"lon":5.37447,"is_reserved":false,"is_disabled":false,"rental_uris":{"android":"levelo://app?vid=bb85c426-a606-4370-976e-4496fe44ea60","ios":"levelo://app?vid=bb85c426-a606-4370-976e-4496fe44ea60"},"vehicle_type_id":"4","last_reported":1744535400,"current_range_meters":16400,"station_id":"ce4bhgp2rcd13ifvqfc0","pricing_plan_id":"cebpf4jnsgd1na2vs0mg"},{"bike_id":"9454fe28-34af-4e17-8552-691f506701e9","system_id":"levelo_inurba_marseille","lat":43.28613,"lon":5.35103,"is_reserved":false,"is_disabled":false,"rental_uris":{"android":"levelo://app?vid=9454fe28-34af-4e17-8552-691f506701e9","ios":"levelo://app?vid=9454fe28-34af-4e17-8552-691f506701e9"},"vehicle_type_id":"4","last_reported":1744535400,"current_range_meters":16400,"station_id":"ce4bhch2rcd13ifvqeug","pricing_plan_id":"cebpf4jnsgd1na2vs0mg"},{"bike_id":"5cbd00d3-63ef-4001-a6ef-32961037302c","system_id":"levelo_inurba_marseille","lat":43.27375,"lon":5.36249,"is_reserved":false,"is_disabled":false,"rental_uris":{"android":"levelo://app?vid=5cbd00d3-63ef-4001-a6ef-32961037302c","ios":"levelo://app?vid=5cbd00d3-63ef-4001-a6ef-32961037302c"},"vehicle_type_id":"4","last_reported":1744535400,"current_range_meters":16400,"station_id":"ce4bhbh2rcd13ifvqeo0","pricing_plan_id":"cebpf4jnsgd1na2vs0mg"},{"bike_id":"6ab70739-368b-4f85-95fe-a55665347ff5","system_id":"levelo_inurba_marseille","lat":43.25579,"lon":5.38234,"is_reserved":false,"is_disabled":false,"rental_uris":{"android":"levelo://app?vid=6ab70739-368b-4f85-95fe-a55665347ff5","ios":"levelo://app?vid=6ab70739-368b-4f85-95fe-a55665347ff5"},"vehicle_type_id":"4","last_reported":1744535400,"current_range_meters":16800,"station_id":"ce4bhih2rcd13ifvqfs0","pricing_plan_id":"cebpf4jnsgd1na2vs0mg"},{"bike_id":"518e8220-89de-4d51-804e-5c8337c2e983","system_id":"levelo_inurba_marseille","lat":43.25585,"lon":5.38237,"is_reserved":false,"is_disabled":false,"rental_uris":{"android":"levelo://app?vid=518e8220-89de-4d51-804e-5c8337c2e983","ios":"levelo://app?vid=518e8220-89de-4d51-804e-5c8337c2e983"},"vehicle_type_id":"4","last_reported":1744535400,"current_range_meters":16800,"station_id":"ce4bhih2rcd13ifvqfs0","pricing_plan_id":"cebpf4jnsgd1na2vs0mg"},{"bike_id":"2c07848e-dddd-42da-95fc-91d988086886","system_id":"levelo_inurba_marseille","lat":43.24996,"lon":5.38934,"is_reserved":false,"is_disabled":false,"rental_uris":{"android":"levelo://app?vid=2c07848e-dddd-42da-95fc-91d988086886","ios":"levelo://app?vid=2c07848e-dddd-42da-95fc-91d988086886"},"vehicle_type_id":"4","last_reported":1744535400,"current_range_meters":16800,"station_id":"ce4bhgp2rcd13ifvqfd0","pricing_plan_id":"cebpf4jnsgd1na2vs0mg"},{"bike_id":"e617923d-5e38-4ab5-9f0a-d006b9dcc88d","system_id":"levelo_inurba_marseille","lat":43.2953,"lon":5.38537,"is_reserved":false,"is_disabled":true,"rental_uris":{"android":"levelo://app?vid=e617923d-5e38-4ab5-9f0a-d006b9dcc88d","ios":"levelo://app?vid=e617923d-5e38-4ab5-9f0a-d006b9dcc88d"},"vehicle_type_id":"4","last_reported":1744535400,"current_range_meters":16800,"station_id":"ce4bgih2rcd13ifvqba0","pricing_plan_id":"cebpf4jnsgd1na2vs0mg"},{"bike_id":"d3011942-4a55-4c85-a64a-c177afbd3491","system_id":"levelo_inurba_marseille","lat":43.31701,"lon":5.37735,"is_reserved":false,"is_disabled":false,"rental_uris":{"android":"levelo://app?vid=d3011942-4a55-4c85-a64a-c177afbd3491","ios":"levelo://app?vid=d3011942-4a55-4c85-a64a-c177afbd3491"},"vehicle_type_id":"4","last_reported":1744535400,"current_range_meters":16800,"station_id":"ce4bgth2rcd13ifvqch0","pricing_plan_id":"cebpf4jnsgd1na2vs0mg"},{"bike_id":"ebfe90c3-9223-4301-8889-57ddac517533","system_id":"levelo_inurba_marseille","lat":43.28463,"lon":5.359,"is_reserved":false,"is_disabled":false,"rental_uris":{"android":"levelo://app?vid=ebfe90c3-9223-4301-8889-57ddac517533","ios":"levelo://app?vid=ebfe90c3-9223-4301-8889-57ddac517533"},"vehicle_type_id":"4","last_reported":1744535400,"current_range_meters":16800,"station_id":"ce4bhah2rcd13ifvqei0","pricing_plan_id":"cebpf4jnsgd1na2vs0mg"},{"bike_id":"8eaed4ed-e8c2-480f-b49b-7829f95ec9fc","system_id":"levelo_inurba_marseille","lat":43.28693,"lon":5.39978,"is_reserved":false,"is_disabled":false,"rental_uris":{"android":"levelo://app?vid=8eaed4ed-e8c2-480f-b49b-7829f95ec9fc","ios":"levelo://app?vid=8eaed4ed-e8c2-480f-b49b-7829f95ec9fc"},"vehicle_type_id":"4","last_reported":1744535400,"current_range_meters":16800,"station_id":"ce4bho92rcd13ifvqh3g","pricing_plan_id":"cebpf4jnsgd1na2vs0mg"},{"bike_id":"1accc1aa-a277-48f3-9da3-98151bc48e3d","system_id":"levelo_inurba_marseille","lat":43.31082,"lon":5.42453,"is_reserved":false,"is_disabled":false,"rental_uris":{"android":"levelo://app?vid=1accc1aa-a277-48f3-9da3-98151bc48e3d","ios":"levelo://app?vid=1accc1aa-a277-48f3-9da3-98151bc48e3d"},"vehicle_type_id":"4","last_reported":1744535400,"current_range_meters":17200,"station_id":"ce4bhp92rcd13ifvqhag","pricing_plan_id":"cebpf4jnsgd1na2vs0mg"},{"bike_id":"a2213ab8-ff9d-4aff-85fc-3e8a3d89954c","system_id":"levelo_inurba_marseille","lat":43.32663,"lon":5.40988,"is_reserved":false,"is_disabled":false,"rental_uris":{"android":"levelo://app?vid=a2213ab8-ff9d-4aff-85fc-3e8a3d89954c","ios":"levelo://app?vid=a2213ab8-ff9d-4aff-85fc-3e8a3d89954c"},"vehicle_type_id":"4","last_reported":1744535400,"current_range_meters":17200,"station_id":"ce4bhpp2rcd13ifvqhgg","pricing_plan_id":"cebpf4jnsgd1na2vs0mg"},{"bike_id":"70adfe44-94a3-4906-8210-6c716d244a4c","system_id":"levelo_inurba_marseille","lat":43.25812,"lon":5.41237,"is_reserved":false,"is_disabled":false,"rental_uris":{"android":"levelo://app?vid=70adfe44-94a3-4906-8210-6c716d244a4c","ios":"levelo://app?vid=70adfe44-94a3-4906-8210-6c716d244a4c"},"vehicle_type_id":"4","last_reported":1744535400,"current_range_meters":17200,"station_id":"","pricing_plan_id":"cebpf4jnsgd1na2vs0mg"},{"bike_id":"48aab2a1-babe-45be-a8c2-730a9253a339","system_id":"levelo_inurba_marseille","lat":43.30619,"lon":5.37194,"is_reserved":false,"is_disabled":false,"rental_uris":{"android":"levelo://app?vid=48aab2a1-babe-45be-a8c2-730a9253a339","ios":"levelo://app?vid=48aab2a1-babe-45be-a8c2-730a9253a339"},"vehicle_type_id":"4","last_reported":1744535400,"current_range_meters":17200,"station_id":"ce4bgqh2rcd13ifvqc4g","pricing_plan_id":"cebpf4jnsgd1na2vs0mg"},{"bike_id":"a6ecdfb6-884d-4710-af03-e9f966cbe87a","system_id":"levelo_inurba_marseille","lat":43.307922,"lon":5.435286,"is_reserved":false,"is_disabled":false,"rental_uris":{"android":"levelo://app?vid=a6ecdfb6-884d-4710-af03-e9f966cbe87a","ios":"levelo://app?vid=a6ecdfb6-884d-4710-af03-e9f966cbe87a"},"vehicle_type_id":"4","last_reported":1744535400,"current_range_meters":17200,"station_id":"ce4bhph2rcd13ifvqheg","pricing_plan_id":"cebpf4jnsgd1na2vs0mg"},{"bike_id":"2551df23-46eb-4dc9-b328-33c9a95ff7ca","system_id":"levelo_inurba_marseille","lat":43.29226,"lon":5.36072,"is_reserved":false,"is_disabled":true,"rental_uris":{"android":"levelo://app?vid=2551df23-46eb-4dc9-b328-33c9a95ff7ca","ios":"levelo://app?vid=2551df23-46eb-4dc9-b328-33c9a95ff7ca"},"vehicle_type_id":"4","last_reported":1744535400,"current_range_meters":17200,"station_id":"ce4bhbh2rcd13ifvqeqg","pricing_plan_id":"cebpf4jnsgd1na2vs0mg"},{"bike_id":"a6535ba8-9ced-4cad-b71b-a79f16af244f","system_id":"levelo_inurba_marseille","lat":43.2466,"lon":5.38163,"is_reserved":false,"is_disabled":false,"rental_uris":{"android":"levelo://app?vid=a6535ba8-9ced-4cad-b71b-a79f16af244f","ios":"levelo://app?vid=a6535ba8-9ced-4cad-b71b-a79f16af244f"},"vehicle_type_id":"4","last_reported":1744535400,"current_range_meters":17600,"station_id":"ce4bhih2rcd13ifvqfr0","pricing_plan_id":"cebpf4jnsgd1na2vs0mg"},{"bike_id":"09c67ae9-22fd-4afa-9c57-cdf4c3e5d0a1","system_id":"levelo_inurba_marseille","lat":43.21747,"lon":5.34592,"is_reserved":false,"is_disabled":false,"rental_uris":{"android":"levelo://app?vid=09c67ae9-22fd-4afa-9c57-cdf4c3e5d0a1","ios":"levelo://app?vid=09c67ae9-22fd-4afa-9c57-cdf4c3e5d0a1"},"vehicle_type_id":"4","last_reported":1744535400,"current_range_meters":17600,"station_id":"st_cvj6r9ubvosntc0bgbag","pricing_plan_id":"cebpf4jnsgd1na2vs0mg"},{"bike_id":"50f3a6ca-1b32-4e17-a21b-a50e16960e96","system_id":"levelo_inurba_marseille","lat":43.337766,"lon":5.374441,"is_reserved":false,"is_disabled":false,"rental_uris":{"android":"levelo://app?vid=50f3a6ca-1b32-4e17-a21b-a50e16960e96","ios":"levelo://app?vid=50f3a6ca-1b32-4e17-a21b-a50e16960e96"},"vehicle_type_id":"4","last_reported":1744535400,"current_range_meters":17600,"station_id":"","pricing_plan_id":"cebpf4jnsgd1na2vs0mg"},{"bike_id":"604b4e29-58a6-4cad-8fac-5599fbdb6f4c","system_id":"levelo_inurba_marseille","lat":43.29929,"lon":5.40422,"is_reserved":false,"is_disabled":false,"rental_uris":{"android":"levelo://app?vid=604b4e29-58a6-4cad-8fac-5599fbdb6f4c","ios":"levelo://app?vid=604b4e29-58a6-4cad-8fac-5599fbdb6f4c"},"vehicle_type_id":"4","last_reported":1744535400,"current_range_meters":17600,"station_id":"","pricing_plan_id":"cebpf4jnsgd1na2vs0mg"},{"bike_id":"2dc2bc24-48cd-4b57-94ad-34f70ce6d08e","system_id":"levelo_inurba_marseille","lat":43.27374,"lon":5.36256,"is_reserved":false,"is_disabled":false,"rental_uris":{"android":"levelo://app?vid=2dc2bc24-48cd-4b57-94ad-34f70ce6d08e","ios":"levelo://app?vid=2dc2bc24-48cd-4b57-94ad-34f70ce6d08e"},"vehicle_type_id":"4","last_reported":1744535400,"current_range_meters":17600,"station_id":"ce4bhbh2rcd13ifvqeo0","pricing_plan_id":"cebpf4jnsgd1na2vs0mg"},{"bike_id":"d06291ab-e60c-4ee9-a2f8-f55c784c28fe","system_id":"levelo_inurba_marseille","lat":43.21228,"lon":5.35082,"is_reserved":false,"is_disabled":false,"rental_uris":{"android":"levelo://app?vid=d06291ab-e60c-4ee9-a2f8-f55c784c28fe","ios":"levelo://app?vid=d06291ab-e60c-4ee9-a2f8-f55c784c28fe"},"vehicle_type_id":"4","last_reported":1744535400,"current_range_meters":17600,"station_id":"","pricing_plan_id":"cebpf4jnsgd1na2vs0mg"},{"bike_id":"b37e3cf1-8912-4521-bd5d-d3d48c62823c","system_id":"levelo_inurba_marseille","lat":43.29115,"lon":5.35918,"is_reserved":false,"is_disabled":false,"rental_uris":{"android":"levelo://app?vid=b37e3cf1-8912-4521-bd5d-d3d48c62823c","ios":"levelo://app?vid=b37e3cf1-8912-4521-bd5d-d3d48c62823c"},"vehicle_type_id":"4","last_reported":1744535400,"current_range_meters":18000,"station_id":"ce4bhbh2rcd13ifvqeqg","pricing_plan_id":"cebpf4jnsgd1na2vs0mg"},{"bike_id":"da48e56b-5b98-4592-a2ea-cf5907cac18b","system_id":"levelo_inurba_marseille","lat":43.337652,"lon":5.374374,"is_reserved":false,"is_disabled":false,"rental_uris":{"android":"levelo://app?vid=da48e56b-5b98-4592-a2ea-cf5907cac18b","ios":"levelo://app?vid=da48e56b-5b98-4592-a2ea-cf5907cac18b"},"vehicle_type_id":"4","last_reported":1744535400,"current_range_meters":18000,"station_id":"","pricing_plan_id":"cebpf4jnsgd1na2vs0mg"},{"bike_id":"5dc881cf-5022-40fe-88b2-d5a793e088c9","system_id":"levelo_inurba_marseille","lat":43.21753,"lon":5.34599,"is_reserved":false,"is_disabled":false,"rental_uris":{"android":"levelo://app?vid=5dc881cf-5022-40fe-88b2-d5a793e088c9","ios":"levelo://app?vid=5dc881cf-5022-40fe-88b2-d5a793e088c9"},"vehicle_type_id":"4","last_reported":1744535400,"current_range_meters":18000,"station_id":"st_cvj6r9ubvosntc0bgbag","pricing_plan_id":"cebpf4jnsgd1na2vs0mg"},{"bike_id":"e52e6673-d506-4da4-8bcb-b7cdcaf5a9ed","system_id":"levelo_inurba_marseille","lat":43.31118,"lon":5.37777,"is_reserved":false,"is_disabled":false,"rental_uris":{"android":"levelo://app?vid=e52e6673-d506-4da4-8bcb-b7cdcaf5a9ed","ios":"levelo://app?vid=e52e6673-d506-4da4-8bcb-b7cdcaf5a9ed"},"vehicle_type_id":"4","last_reported":1744535400,"current_range_meters":18000,"station_id":"ce4bgt92rcd13ifvqcg0","pricing_plan_id":"cebpf4jnsgd1na2vs0mg"},{"bike_id":"e23a2fbf-390c-4634-8902-fbe9c490d2fe","system_id":"levelo_inurba_marseille","lat":43.25934,"lon":5.40829,"is_reserved":false,"is_disabled":false,"rental_uris":{"android":"levelo://app?vid=e23a2fbf-390c-4634-8902-fbe9c490d2fe","ios":"levelo://app?vid=e23a2fbf-390c-4634-8902-fbe9c490d2fe"},"vehicle_type_id":"4","last_reported":1744535400,"current_range_meters":18000,"station_id":"ce4bhm92rcd13ifvqglg","pricing_plan_id":"cebpf4jnsgd1na2vs0mg"},{"bike_id":"11a43c94-a38d-41e0-a080-ed73cc7e38ee","system_id":"levelo_inurba_marseille","lat":43.28153,"lon":5.42636,"is_reserved":false,"is_disabled":false,"rental_uris":{"android":"levelo://app?vid=11a43c94-a38d-41e0-a080-ed73cc7e38ee","ios":"levelo://app?vid=11a43c94-a38d-41e0-a080-ed73cc7e38ee"},"vehicle_type_id":"4","last_reported":1744535400,"current_range_meters":18000,"station_id":"ce4bhnh2rcd13ifvqgug","pricing_plan_id":"cebpf4jnsgd1na2vs0mg"},{"bike_id":"ee3d94e1-9536-48aa-8307-1c3318b457b7","system_id":"levelo_inurba_marseille","lat":43.28478,"lon":5.35896,"is_reserved":false,"is_disabled":false,"rental_uris":{"android":"levelo://app?vid=ee3d94e1-9536-48aa-8307-1c3318b457b7","ios":"levelo://app?vid=ee3d94e1-9536-48aa-8307-1c3318b457b7"},"vehicle_type_id":"4","last_reported":1744535400,"current_range_meters":18000,"station_id":"ce4bhah2rcd13ifvqei0","pricing_plan_id":"cebpf4jnsgd1na2vs0mg"},{"bike_id":"ee15dba1-48b6-4320-b777-387318503dee","system_id":"levelo_inurba_marseille","lat":43.28617,"lon":5.35108,"is_reserved":false,"is_disabled":false,"rental_uris":{"android":"levelo://app?vid=ee15dba1-48b6-4320-b777-387318503dee","ios":"levelo://app?vid=ee15dba1-48b6-4320-b777-387318503dee"},"vehicle_type_id":"4","last_reported":1744535400,"current_range_meters":18000,"station_id":"ce4bhch2rcd13ifvqeug","pricing_plan_id":"cebpf4jnsgd1na2vs0mg"},{"bike_id":"935a7e55-4cea-4394-8ed2-15f7e1ee706c","system_id":"levelo_inurba_marseille","lat":43.27254,"lon":5.43172,"is_reserved":false,"is_disabled":false,"rental_uris":{"android":"levelo://app?vid=935a7e55-4cea-4394-8ed2-15f7e1ee706c","ios":"levelo://app?vid=935a7e55-4cea-4394-8ed2-15f7e1ee706c"},"vehicle_type_id":"4","last_reported":1744535400,"current_range_meters":18800,"station_id":"","pricing_plan_id":"cebpf4jnsgd1na2vs0mg"},{"bike_id":"222afb02-f392-4a69-bc2f-9147c8062699","system_id":"levelo_inurba_marseille","lat":43.30582,"lon":5.39355,"is_reserved":false,"is_disabled":false,"rental_uris":{"android":"levelo://app?vid=222afb02-f392-4a69-bc2f-9147c8062699","ios":"levelo://app?vid=222afb02-f392-4a69-bc2f-9147c8062699"},"vehicle_type_id":"4","last_reported":1744535400,"current_range_meters":18800,"station_id":"ce4bh0p2rcd13ifvqd80","pricing_plan_id":"cebpf4jnsgd1na2vs0mg"},{"bike_id":"09709ab1-f07e-44a0-a688-4913db45bc89","system_id":"levelo_inurba_marseille","lat":43.298103,"lon":5.403249,"is_reserved":false,"is_disabled":false,"rental_uris":{"android":"levelo://app?vid=09709ab1-f07e-44a0-a688-4913db45bc89","ios":"levelo://app?vid=09709ab1-f07e-44a0-a688-4913db45bc89"},"vehicle_type_id":"4","last_reported":1744535400,"current_range_meters":18800,"station_id":"","pricing_plan_id":"cebpf4jnsgd1na2vs0mg"},{"bike_id":"2658fbd7-070b-4d30-ad7f-7115bcfb6c61","system_id":"levelo_inurba_marseille","lat":43.2679,"lon":5.39408,"is_reserved":false,"is_disabled":false,"rental_uris":{"android":"levelo://app?vid=2658fbd7-070b-4d30-ad7f-7115bcfb6c61","ios":"levelo://app?vid=2658fbd7-070b-4d30-ad7f-7115bcfb6c61"},"vehicle_type_id":"4","last_reported":1744535400,"current_range_meters":19200,"station_id":"ce4bhh12rcd13ifvqfg0","pricing_plan_id":"cebpf4jnsgd1na2vs0mg"},{"bike_id":"9e335b17-0bd3-425d-86cc-4e0f6cccf8c1","system_id":"levelo_inurba_marseille","lat":43.34153,"lon":5.40946,"is_reserved":false,"is_disabled":false,"rental_uris":{"android":"levelo://app?vid=9e335b17-0bd3-425d-86cc-4e0f6cccf8c1","ios":"levelo://app?vid=9e335b17-0bd3-425d-86cc-4e0f6cccf8c1"},"vehicle_type_id":"4","last_reported":1744535400,"current_range_meters":19600,"station_id":"ce4bhqh2rcd13ifvqhlg","pricing_plan_id":"cebpf4jnsgd1na2vs0mg"},{"bike_id":"36fba903-b172-4d89-b99d-9805fe3291d5","system_id":"levelo_inurba_marseille","lat":43.30487,"lon":5.37873,"is_reserved":false,"is_disabled":false,"rental_uris":{"android":"levelo://app?vid=36fba903-b172-4d89-b99d-9805fe3291d5","ios":"levelo://app?vid=36fba903-b172-4d89-b99d-9805fe3291d5"},"vehicle_type_id":"4","last_reported":1744535400,"current_range_meters":19600,"station_id":"ce4bgup2rcd13ifvqcn0","pricing_plan_id":"cebpf4jnsgd1na2vs0mg"},{"bike_id":"59c7d7f9-492d-4240-b3d4-e8d1015f1ebd","system_id":"levelo_inurba_marseille","lat":43.21741,"lon":5.34593,"is_reserved":false,"is_disabled":true,"rental_uris":{"android":"levelo://app?vid=59c7d7f9-492d-4240-b3d4-e8d1015f1ebd","ios":"levelo://app?vid=59c7d7f9-492d-4240-b3d4-e8d1015f1ebd"},"vehicle_type_id":"4","last_reported":1744535400,"current_range_meters":20000,"station_id":"st_cvj6r9ubvosntc0bgbag","pricing_plan_id":"cebpf4jnsgd1na2vs0mg"},{"bike_id":"4edaa12a-299e-4fd4-b2e6-5e6d5aa33c82","system_id":"levelo_inurba_marseille","lat":43.29391,"lon":5.38567,"is_reserved":false,"is_disabled":false,"rental_uris":{"android":"levelo://app?vid=4edaa12a-299e-4fd4-b2e6-5e6d5aa33c82","ios":"levelo://app?vid=4edaa12a-299e-4fd4-b2e6-5e6d5aa33c82"},"vehicle_type_id":"4","last_reported":1744535400,"current_range_meters":20000,"station_id":"ce4bh2h2rcd13ifvqdh0","pricing_plan_id":"cebpf4jnsgd1na2vs0mg"},{"bike_id":"bf292281-e0e3-4a7a-8b38-3f1f596f1b40","system_id":"levelo_inurba_marseille","lat":43.24168,"lon":5.36437,"is_reserved":false,"is_disabled":false,"rental_uris":{"android":"levelo://app?vid=bf292281-e0e3-4a7a-8b38-3f1f596f1b40","ios":"levelo://app?vid=bf292281-e0e3-4a7a-8b38-3f1f596f1b40"},"vehicle_type_id":"4","last_reported":1744535400,"current_range_meters":20000,"station_id":"cpo36qri1sfpv3e86is0","pricing_plan_id":"cebpf4jnsgd1na2vs0mg"},{"bike_id":"4368f51c-3416-46d8-b798-da1711131458","system_id":"levelo_inurba_marseille","lat":43.30137,"lon":5.38053,"is_reserved":false,"is_disabled":false,"rental_uris":{"android":"levelo://app?vid=4368f51c-3416-46d8-b798-da1711131458","ios":"levelo://app?vid=4368f51c-3416-46d8-b798-da1711131458"},"vehicle_type_id":"4","last_reported":1744535400,"current_range_meters":20000,"station_id":"ce4bgjp2rcd13ifvqbh0","pricing_plan_id":"cebpf4jnsgd1na2vs0mg"},{"bike_id":"7a4d8550-4fc4-4934-b8e1-6821bf65a225","system_id":"levelo_inurba_marseille","lat":43.25585,"lon":5.38242,"is_reserved":false,"is_disabled":false,"rental_uris":{"android":"levelo://app?vid=7a4d8550-4fc4-4934-b8e1-6821bf65a225","ios":"levelo://app?vid=7a4d8550-4fc4-4934-b8e1-6821bf65a225"},"vehicle_type_id":"4","last_reported":1744535400,"current_range_meters":20000,"station_id":"ce4bhih2rcd13ifvqfs0","pricing_plan_id":"cebpf4jnsgd1na2vs0mg"},{"bike_id":"bced71b4-58b7-462c-8aec-3aa148639c87","system_id":"levelo_inurba_marseille","lat":43.24184,"lon":5.39738,"is_reserved":false,"is_disabled":false,"rental_uris":{"android":"levelo://app?vid=bced71b4-58b7-462c-8aec-3aa148639c87","ios":"levelo://app?vid=bced71b4-58b7-462c-8aec-3aa148639c87"},"vehicle_type_id":"4","last_reported":1744535400,"current_range_meters":20000,"station_id":"ce4bhn12rcd13ifvqgpg","pricing_plan_id":"cebpf4jnsgd1na2vs0mg"},{"bike_id":"a07ec593-602c-4b1b-8a91-69ccfeb8a222","system_id":"levelo_inurba_marseille","lat":43.29633,"lon":5.40597,"is_reserved":false,"is_disabled":false,"rental_uris":{"android":"levelo://app?vid=a07ec593-602c-4b1b-8a91-69ccfeb8a222","ios":"levelo://app?vid=a07ec593-602c-4b1b-8a91-69ccfeb8a222"},"vehicle_type_id":"4","last_reported":1744535400,"current_range_meters":20000,"station_id":"ce4bh0h2rcd13ifvqd60","pricing_plan_id":"cebpf4jnsgd1na2vs0mg"},{"bike_id":"2e000ed3-e5cd-4a3a-b790-02375ea3ee2f","system_id":"levelo_inurba_marseille","lat":43.27943,"lon":5.41042,"is_reserved":false,"is_disabled":false,"rental_uris":{"android":"levelo://app?vid=2e000ed3-e5cd-4a3a-b790-02375ea3ee2f","ios":"levelo://app?vid=2e000ed3-e5cd-4a3a-b790-02375ea3ee2f"},"vehicle_type_id":"4","last_reported":1744535400,"current_range_meters":20000,"station_id":"ce4bhnp2rcd13ifvqh0g","pricing_plan_id":"cebpf4jnsgd1na2vs0mg"},{"bike_id":"6127eec7-b05c-4b35-a7f7-cfc48beea6c2","system_id":"levelo_inurba_marseille","lat":43.2649,"lon":5.39545,"is_reserved":false,"is_disabled":false,"rental_uris":{"android":"levelo://app?vid=6127eec7-b05c-4b35-a7f7-cfc48beea6c2","ios":"levelo://app?vid=6127eec7-b05c-4b35-a7f7-cfc48beea6c2"},"vehicle_type_id":"4","last_reported":1744535400,"current_range_meters":20000,"station_id":"ce4bhi12rcd13ifvqfq0","pricing_plan_id":"cebpf4jnsgd1na2vs0mg"},{"bike_id":"b72c6d84-2480-4efc-9e0a-4bb9ddedaa45","system_id":"levelo_inurba_marseille","lat":43.3017,"lon":5.38066,"is_reserved":false,"is_disabled":false,"rental_uris":{"android":"levelo://app?vid=b72c6d84-2480-4efc-9e0a-4bb9ddedaa45","ios":"levelo://app?vid=b72c6d84-2480-4efc-9e0a-4bb9ddedaa45"},"vehicle_type_id":"4","last_reported":1744535400,"current_range_meters":20000,"station_id":"ce4bgjp2rcd13ifvqbh0","pricing_plan_id":"cebpf4jnsgd1na2vs0mg"},{"bike_id":"27a55245-8dd2-4f1a-af63-95a9d7b71690","system_id":"levelo_inurba_marseille","lat":43.31067,"lon":5.37857,"is_reserved":false,"is_disabled":true,"rental_uris":{"android":"levelo://app?vid=27a55245-8dd2-4f1a-af63-95a9d7b71690","ios":"levelo://app?vid=27a55245-8dd2-4f1a-af63-95a9d7b71690"},"vehicle_type_id":"4","last_reported":1744535400,"current_range_meters":20000,"station_id":"","pricing_plan_id":"cebpf4jnsgd1na2vs0mg"},{"bike_id":"0ef4d4f2-5710-4f6a-aa1e-992943d6ada5","system_id":"levelo_inurba_marseille","lat":43.29691,"lon":5.37266,"is_reserved":false,"is_disabled":false,"rental_uris":{"android":"levelo://app?vid=0ef4d4f2-5710-4f6a-aa1e-992943d6ada5","ios":"levelo://app?vid=0ef4d4f2-5710-4f6a-aa1e-992943d6ada5"},"vehicle_type_id":"4","last_reported":1744535400,"current_range_meters":20000,"station_id":"ce4bgk12rcd13ifvqbj0","pricing_plan_id":"cebpf4jnsgd1na2vs0mg"},{"bike_id":"81eae6f7-3a30-449a-8cdc-6c50a84974cc","system_id":"levelo_inurba_marseille","lat":43.24156,"lon":5.36428,"is_reserved":false,"is_disabled":false,"rental_uris":{"android":"levelo://app?vid=81eae6f7-3a30-449a-8cdc-6c50a84974cc","ios":"levelo://app?vid=81eae6f7-3a30-449a-8cdc-6c50a84974cc"},"vehicle_type_id":"4","last_reported":1744535400,"current_range_meters":20000,"station_id":"cpo36qri1sfpv3e86is0","pricing_plan_id":"cebpf4jnsgd1na2vs0mg"},{"bike_id":"8e84781a-82c3-4b14-a541-78f95f1999c0","system_id":"levelo_inurba_marseille","lat":43.27424,"lon":5.39377,"is_reserved":false,"is_disabled":true,"rental_uris":{"android":"levelo://app?vid=8e84781a-82c3-4b14-a541-78f95f1999c0","ios":"levelo://app?vid=8e84781a-82c3-4b14-a541-78f95f1999c0"},"vehicle_type_id":"4","last_reported":1744535400,"current_range_meters":20400,"station_id":"ce4bhdp2rcd13ifvqf20","pricing_plan_id":"cebpf4jnsgd1na2vs0mg"},{"bike_id":"f7778b35-580b-4ffc-8894-0cc2c856c361","system_id":"levelo_inurba_marseille","lat":43.23963,"lon":5.3663,"is_reserved":false,"is_disabled":false,"rental_uris":{"android":"levelo://app?vid=f7778b35-580b-4ffc-8894-0cc2c856c361","ios":"levelo://app?vid=f7778b35-580b-4ffc-8894-0cc2c856c361"},"vehicle_type_id":"4","last_reported":1744535400,"current_range_meters":20400,"station_id":"ce4bhi12rcd13ifvqfp0","pricing_plan_id":"cebpf4jnsgd1na2vs0mg"},{"bike_id":"cfd83540-c302-4d53-a981-fe5c5d843662","system_id":"levelo_inurba_marseille","lat":43.29885,"lon":5.38906,"is_reserved":false,"is_disabled":true,"rental_uris":{"android":"levelo://app?vid=cfd83540-c302-4d53-a981-fe5c5d843662","ios":"levelo://app?vid=cfd83540-c302-4d53-a981-fe5c5d843662"},"vehicle_type_id":"4","last_reported":1744535400,"current_range_meters":20400,"station_id":"ce4bh392rcd13ifvqdl0","pricing_plan_id":"cebpf4jnsgd1na2vs0mg"},{"bike_id":"48304a08-5a69-4a32-a932-369007df2aca","system_id":"levelo_inurba_marseille","lat":43.3147,"lon":5.37297,"is_reserved":false,"is_disabled":false,"rental_uris":{"android":"levelo://app?vid=48304a08-5a69-4a32-a932-369007df2aca","ios":"levelo://app?vid=48304a08-5a69-4a32-a932-369007df2aca"},"vehicle_type_id":"4","last_reported":1744535400,"current_range_meters":20400,"station_id":"ce4bgt12rcd13ifvqcd0","pricing_plan_id":"cebpf4jnsgd1na2vs0mg"},{"bike_id":"df49f249-4aa5-4aa6-9193-27ea889ed0d0","system_id":"levelo_inurba_marseille","lat":43.304389,"lon":5.388954,"is_reserved":false,"is_disabled":true,"rental_uris":{"android":"levelo://app?vid=df49f249-4aa5-4aa6-9193-27ea889ed0d0","ios":"levelo://app?vid=df49f249-4aa5-4aa6-9193-27ea889ed0d0"},"vehicle_type_id":"4","last_reported":1744535400,"current_range_meters":20400,"station_id":"ce4bgk12rcd13ifvqbi0","pricing_plan_id":"cebpf4jnsgd1na2vs0mg"},{"bike_id":"bb11e686-d1c7-4add-bedf-0cbfbae91323","system_id":"levelo_inurba_marseille","lat":43.28151,"lon":5.42643,"is_reserved":false,"is_disabled":false,"rental_uris":{"android":"levelo://app?vid=bb11e686-d1c7-4add-bedf-0cbfbae91323","ios":"levelo://app?vid=bb11e686-d1c7-4add-bedf-0cbfbae91323"},"vehicle_type_id":"4","last_reported":1744535400,"current_range_meters":20400,"station_id":"ce4bhnh2rcd13ifvqgug","pricing_plan_id":"cebpf4jnsgd1na2vs0mg"},{"bike_id":"b8f7eba9-af11-4a32-acfe-4e98451861c3","system_id":"levelo_inurba_marseille","lat":43.27945,"lon":5.41054,"is_reserved":false,"is_disabled":false,"rental_uris":{"android":"levelo://app?vid=b8f7eba9-af11-4a32-acfe-4e98451861c3","ios":"levelo://app?vid=b8f7eba9-af11-4a32-acfe-4e98451861c3"},"vehicle_type_id":"4","last_reported":1744535400,"current_range_meters":20400,"station_id":"ce4bhnp2rcd13ifvqh0g","pricing_plan_id":"cebpf4jnsgd1na2vs0mg"},{"bike_id":"baa5412e-1e74-4d91-beac-c00d6c735f6c","system_id":"levelo_inurba_marseille","lat":43.255798,"lon":5.382265,"is_reserved":false,"is_disabled":false,"rental_uris":{"android":"levelo://app?vid=baa5412e-1e74-4d91-beac-c00d6c735f6c","ios":"levelo://app?vid=baa5412e-1e74-4d91-beac-c00d6c735f6c"},"vehicle_type_id":"4","last_reported":1744535400,"current_range_meters":20000,"station_id":"ce4bh5p2rcd13ifvqe4g","pricing_plan_id":"cebpf4jnsgd1na2vs0mg"},{"bike_id":"d0e78fc7-70d8-4830-aa71-36ee4f5580bc","system_id":"levelo_inurba_marseille","lat":43.268002,"lon":5.402624,"is_reserved":false,"is_disabled":false,"rental_uris":{"android":"levelo://app?vid=d0e78fc7-70d8-4830-aa71-36ee4f5580bc","ios":"levelo://app?vid=d0e78fc7-70d8-4830-aa71-36ee4f5580bc"},"vehicle_type_id":"4","last_reported":1744535400,"current_range_meters":20800,"station_id":"ce501612rcd8frsf0b60","pricing_plan_id":"cebpf4jnsgd1na2vs0mg"},{"bike_id":"b01cfc93-b544-4ec8-94c2-4dc0f4a8e379","system_id":"levelo_inurba_marseille","lat":43.30374,"lon":5.4249,"is_reserved":false,"is_disabled":false,"rental_uris":{"android":"levelo://app?vid=b01cfc93-b544-4ec8-94c2-4dc0f4a8e379","ios":"levelo://app?vid=b01cfc93-b544-4ec8-94c2-4dc0f4a8e379"},"vehicle_type_id":"4","last_reported":1744535400,"current_range_meters":20800,"station_id":"ce4bhoh2rcd13ifvqh6g","pricing_plan_id":"cebpf4jnsgd1na2vs0mg"},{"bike_id":"1deb9350-7de0-498c-8c7a-806a1e9db2ca","system_id":"levelo_inurba_marseille","lat":43.25722,"lon":5.41044,"is_reserved":false,"is_disabled":false,"rental_uris":{"android":"levelo://app?vid=1deb9350-7de0-498c-8c7a-806a1e9db2ca","ios":"levelo://app?vid=1deb9350-7de0-498c-8c7a-806a1e9db2ca"},"vehicle_type_id":"4","last_reported":1744535400,"current_range_meters":20800,"station_id":"ce4bhkp2rcd13ifvqgd0","pricing_plan_id":"cebpf4jnsgd1na2vs0mg"},{"bike_id":"8c53ce99-3b20-47ba-8b2a-03d03138914a","system_id":"levelo_inurba_marseille","lat":43.295624,"lon":5.385576,"is_reserved":false,"is_disabled":false,"rental_uris":{"android":"levelo://app?vid=8c53ce99-3b20-47ba-8b2a-03d03138914a","ios":"levelo://app?vid=8c53ce99-3b20-47ba-8b2a-03d03138914a"},"vehicle_type_id":"4","last_reported":1744535400,"current_range_meters":20800,"station_id":"ce4bgih2rcd13ifvqba0","pricing_plan_id":"cebpf4jnsgd1na2vs0mg"},{"bike_id":"205a676e-388e-4b5d-b5d4-92bca6b76c07","system_id":"levelo_inurba_marseille","lat":43.31596,"lon":5.37343,"is_reserved":false,"is_disabled":false,"rental_uris":{"android":"levelo://app?vid=205a676e-388e-4b5d-b5d4-92bca6b76c07","ios":"levelo://app?vid=205a676e-388e-4b5d-b5d4-92bca6b76c07"},"vehicle_type_id":"4","last_reported":1744535400,"current_range_meters":20800,"station_id":"","pricing_plan_id":"cebpf4jnsgd1na2vs0mg"},{"bike_id":"407a54c4-ce42-4e1a-bc9b-9b8f2ef8a27a","system_id":"levelo_inurba_marseille","lat":43.32413,"lon":5.39122,"is_reserved":false,"is_disabled":false,"rental_uris":{"android":"levelo://app?vid=407a54c4-ce42-4e1a-bc9b-9b8f2ef8a27a","ios":"levelo://app?vid=407a54c4-ce42-4e1a-bc9b-9b8f2ef8a27a"},"vehicle_type_id":"4","last_reported":1744535400,"current_range_meters":21600,"station_id":"","pricing_plan_id":"cebpf4jnsgd1na2vs0mg"},{"bike_id":"73ccdade-5f51-429b-8271-14485eccf201","system_id":"levelo_inurba_marseille","lat":43.30468,"lon":5.37909,"is_reserved":false,"is_disabled":false,"rental_uris":{"android":"levelo://app?vid=73ccdade-5f51-429b-8271-14485eccf201","ios":"levelo://app?vid=73ccdade-5f51-429b-8271-14485eccf201"},"vehicle_type_id":"4","last_reported":1744535400,"current_range_meters":20800,"station_id":"ce4bgup2rcd13ifvqcn0","pricing_plan_id":"cebpf4jnsgd1na2vs0mg"},{"bike_id":"010f5620-d4cc-4cd5-aacd-af01d4159f38","system_id":"levelo_inurba_marseille","lat":43.25001,"lon":5.38923,"is_reserved":false,"is_disabled":false,"rental_uris":{"android":"levelo://app?vid=010f5620-d4cc-4cd5-aacd-af01d4159f38","ios":"levelo://app?vid=010f5620-d4cc-4cd5-aacd-af01d4159f38"},"vehicle_type_id":"4","last_reported":1744535400,"current_range_meters":21600,"station_id":"ce4bhgp2rcd13ifvqfd0","pricing_plan_id":"cebpf4jnsgd1na2vs0mg"},