{"last_updated":1719137313,"ttl":30,"version":"2.2","data":{"bikes":[{"bike_id":"97cf4a2c-28a5-41be-842a-87bec56e1e6e","system_id":"levelo_inurba_marseille","lat":43.31341,"lon":5.367098,"is_reserved":false,"is_disabled":false,"rental_uris":{"android":"levelo://app?vid=97cf4a2c-28a5-41be-842a-87bec56e1e6e","ios":"levelo://app?vid=97cf4a2c-28a5-41be-842a-87bec56e1e6e"},"vehicle_type_id":"4","last_reported":1719137313,"current_range_meters":30800,"station_id":"ce4bgr92rcd13ifvqc6g","pricing_plan_id":"cebpf4jnsgd1na2vs0mg"},{"bike_id":"586c221d-f169-457c-bfb9-3fe670888331","system_id":"levelo_inurba_marseille","lat":43.312239,"lon":5.368562,"is_reserved":false,"is_disabled":false,"rental_uris":{"android":"levelo://app?vid=586c221d-f169-457c-bfb9-3fe670888331","ios":"levelo://app?vid=586c221d-f169-457c-bfb9-3fe670888331"},"vehicle_type_id":"4","last_reported":1719137313,"current_range_meters":28000,"station_id":"ce4bgl92rcd13ifvqbq0","pricing_plan_id":"cebpf4jnsgd1na2vs0mg"},{"bike_id":"61eb1055-856c-40f9-85e0-9309d26cfbbc","system_id":"levelo_inurba_marseille","lat":43.317519,"lon":5.368577,"is_reserved":false,"is_disabled":false,"rental_uris":{"android":"levelo://app?vid=61eb1055-856c-40f9-85e0-9309d26cfbbc","ios":"levelo://app?vid=61eb1055-856c-40f9-85e0-9309d26cfbbc"},"vehicle_type_id":"4","last_reported":1719137313,"current_range_meters":400,"station_id":"","pricing_plan_id":"cebpf4jnsgd1na2vs0mg"},{"bike_id":"3e6229a9-daa1-4e8e-b7ec-60b28f97252f","system_id":"levelo_inurba_marseille","lat":43.314543,"lon":5.373587,"is_reserved":false,"is_disabled":false,"rental_uris":{"android":"levelo://app?vid=3e6229a9-daa1-4e8e-b7ec-60b28f97252f","ios":"levelo://app?vid=3e6229a9-daa1-4e8e-b7ec-60b28f97252f"},"vehicle_type_id":"4","last_reported":1719137313,"current_range_meters":1600,"station_id":"ce4bgt12rcd13ifvqcd0","pricing_plan_id":"cebpf4jnsgd1na2vs0mg"},{"bike_id":"77460ccb-960a-4153-8783-e0a172f31a95","system_id":"levelo_inurba_marseille","lat":43.3145,"lon":5.373637,"is_reserved":false,"is_disabled":false,"rental_uris":{"android":"levelo://app?vid=77460ccb-960a-4153-8783-e0a172f31a95","ios":"levelo://app?vid=77460ccb-960a-4153-8783-e0a172f31a95"},"vehicle_type_id":"4","last_reported":1719137313,"current_range_meters":6000,"station_id":"","pricing_plan_id":"cebpf4jnsgd1na2vs0mg"},{"bike_id":"20f31c62-307b-4c16-93b6-6fcc5accd677","system_id":"levelo_inurba_marseille","lat":43.31458,"lon":5.373641,"is_reserved":false,"is_disabled":false,"rental_uris":{"android":"levelo://app?vid=20f31c62-307b-4c16-93b6-6fcc5accd677","ios":"levelo://app?vid=20f31c62-307b-4c16-93b6-6fcc5accd677"},"vehicle_type_id":"4","last_reported":1719137313,"current_range_meters":12800,"station_id":"","pricing_plan_id":"cebpf4jnsgd1na2vs0mg"},{"bike_id":"24d509b5-ef37-465b-b8cc-6a71986a5c4f","system_id":"levelo_inurba_marseille","lat":43.314587,"lon":5.3737,"is_reserved":false,"is_disabled":false,"rental_uris":{"android":"levelo://app?vid=24d509b5-ef37-465b-b8cc-6a71986a5c4f","ios":"levelo://app?vid=24d509b5-ef37-465b-b8cc-6a71986a5c4f"},"vehicle_type_id":"4","last_reported":1719137313,"current_range_meters":23600,"station_id":"","pricing_plan_id":"cebpf4jnsgd1na2vs0mg"},{"bike_id":"6e4af195-c622-412d-9a61-12eed532d596","system_id":"levelo_inurba_marseille","lat":43.30888,"lon":5.37189,"is_reserved":false,"is_disabled":false,"rental_uris":{"android":"levelo://app?vid=6e4af195-c622-412d-9a61-12eed532d596","ios":"levelo://app?vid=6e4af195-c622-412d-9a61-12eed532d596"},"vehicle_type_id":"4","last_reported":1719137313,"current_range_meters":5600,"station_id":"ce4bguh2rcd13ifvqckg","pricing_plan_id":"cebpf4jnsgd1na2vs0mg"},{"bike_id":"d5d614cf-d607-48fc-916b-f54d4af77cab","system_id":"levelo_inurba_marseille","lat":43.305368,"lon":5.367343,"is_reserved":false,"is_disabled":false,"rental_uris":{"android":"levelo://app?vid=d5d614cf-d607-48fc-916b-f54d4af77cab","ios":"levelo://app?vid=d5d614cf-d607-48fc-916b-f54d4af77cab"},"vehicle_type_id":"4","last_reported":1719137313,"current_range_meters":29600,"station_id":"ce4bgrp2rcd13ifvqc9g","pricing_plan_id":"cebpf4jnsgd1na2vs0mg"},{"bike_id":"a43e7e1e-e283-47ba-bb74-77104a25b45c","system_id":"levelo_inurba_marseille","lat":43.30532,"lon":5.36661,"is_reserved":false,"is_disabled":false,"rental_uris":{"android":"levelo://app?vid=a43e7e1e-e283-47ba-bb74-77104a25b45c","ios":"levelo://app?vid=a43e7e1e-e283-47ba-bb74-77104a25b45c"},"vehicle_type_id":"4","last_reported":1719137313,"current_range_meters":18800,"station_id":"","pricing_plan_id":"cebpf4jnsgd1na2vs0mg"},{"bike_id":"07818f00-2d91-41fb-9635-8827b83edbc4","system_id":"levelo_inurba_marseille","lat":43.305714,"lon":5.365633,"is_reserved":false,"is_disabled":false,"rental_uris":{"android":"levelo://app?vid=07818f00-2d91-41fb-9635-8827b83edbc4","ios":"levelo://app?vid=07818f00-2d91-41fb-9635-8827b83edbc4"},"vehicle_type_id":"4","last_reported":1719137313,"current_range_meters":0,"station_id":"ce4bgs12rcd13ifvqcag","pricing_plan_id":"cebpf4jnsgd1na2vs0mg"},{"bike_id":"8a004d65-9389-481a-8844-17e9a787a861","system_id":"levelo_inurba_marseille","lat":43.305706,"lon":5.365654,"is_reserved":false,"is_disabled":false,"rental_uris":{"android":"levelo://app?vid=8a004d65-9389-481a-8844-17e9a787a861","ios":"levelo://app?vid=8a004d65-9389-481a-8844-17e9a787a861"},"vehicle_type_id":"4","last_reported":1719137313,"current_range_meters":31200,"station_id":"ce4bgs12rcd13ifvqcag","pricing_plan_id":"cebpf4jnsgd1na2vs0mg"},{"bike_id":"49d75848-049f-405b-a637-03e79c96081c","system_id":"levelo_inurba_marseille","lat":43.30537,"lon":5.367345,"is_reserved":false,"is_disabled":false,"rental_uris":{"android":"levelo://app?vid=49d75848-049f-405b-a637-03e79c96081c","ios":"levelo://app?vid=49d75848-049f-405b-a637-03e79c96081c"},"vehicle_type_id":"4","last_reported":1719137313,"current_range_meters":11600,"station_id":"ce4bgrp2rcd13ifvqc9g","pricing_plan_id":"cebpf4jnsgd1na2vs0mg"},{"bike_id":"5391e7d1-3033-4fbe-8e5c-6b2143fb4cd2","system_id":"levelo_inurba_marseille","lat":43.305714,"lon":5.365633,"is_reserved":false,"is_disabled":false,"rental_uris":{"android":"levelo://app?vid=5391e7d1-3033-4fbe-8e5c-6b2143fb4cd2","ios":"levelo://app?vid=5391e7d1-3033-4fbe-8e5c-6b2143fb4cd2"},"vehicle_type_id":"4","last_reported":1719137313,"current_range_meters":30400,"station_id":"ce4bgs12rcd13ifvqcag","pricing_plan_id":"cebpf4jnsgd1na2vs0mg"},{"bike_id":"59d91bcf-d01f-4acf-9f7e-764ea4daa906","system_id":"levelo_inurba_marseille","lat":43.305989,"lon":5.37225,"is_reserved":false,"is_disabled":false,"rental_uris":{"android":"levelo://app?vid=59d91bcf-d01f-4acf-9f7e-764ea4daa906","ios":"levelo://app?vid=59d91bcf-d01f-4acf-9f7e-764ea4daa906"},"vehicle_type_id":"4","last_reported":1719137313,"current_range_meters":8400,"station_id":"ce4bgqh2rcd13ifvqc4g","pricing_plan_id":"cebpf4jnsgd1na2vs0mg"},{"bike_id":"d1d4ca09-8bc4-480a-a69e-5df0524f0d22","system_id":"levelo_inurba_marseille","lat":43.3191,"lon":5.37329,"is_reserved":false,"is_disabled":false,"rental_uris":{"android":"levelo://app?vid=d1d4ca09-8bc4-480a-a69e-5df0524f0d22","ios":"levelo://app?vid=d1d4ca09-8bc4-480a-a69e-5df0524f0d22"},"vehicle_type_id":"4","last_reported":1719137313,"current_range_meters":12400,"station_id":"","pricing_plan_id":"cebpf4jnsgd1na2vs0mg"},{"bike_id":"c59ec325-4259-4d2e-80f4-3200105c2cc9","system_id":"levelo_inurba_marseille","lat":43.307945,"lon":5.376487,"is_reserved":false,"is_disabled":false,"rental_uris":{"android":"levelo://app?vid=c59ec325-4259-4d2e-80f4-3200105c2cc9","ios":"levelo://app?vid=c59ec325-4259-4d2e-80f4-3200105c2cc9"},"vehicle_type_id":"4","last_reported":1719137313,"current_range_meters":28400,"station_id":"ce4bgv92rcd13ifvqcq0","pricing_plan_id":"cebpf4jnsgd1na2vs0mg"},{"bike_id":"b2e9bdbc-c22e-4547-a476-36a413c5f1c5","system_id":"levelo_inurba_marseille","lat":43.307945,"lon":5.376487,"is_reserved":false,"is_disabled":false,"rental_uris":{"android":"levelo://app?vid=b2e9bdbc-c22e-4547-a476-36a413c5f1c5","ios":"levelo://app?vid=b2e9bdbc-c22e-4547-a476-36a413c5f1c5"},"vehicle_type_id":"4","last_reported":1719137313,"current_range_meters":11600,"station_id":"ce4bgv92rcd13ifvqcq0","pricing_plan_id":"cebpf4jnsgd1na2vs0mg"},{"bike_id":"d0f8d5b0-e68f-462f-89b4-24cacac89f3b","system_id":"levelo_inurba_marseille","lat":43.307945,"lon":5.376487,"is_reserved":false,"is_disabled":false,"rental_uris":{"android":"levelo://app?vid=d0f8d5b0-e68f-462f-89b4-24cacac89f3b","ios":"levelo://app?vid=d0f8d5b0-e68f-462f-89b4-24cacac89f3b"},"vehicle_type_id":"4","last_reported":1719137313,"current_range_meters":20000,"station_id":"ce4bgv92rcd13ifvqcq0","pricing_plan_id":"cebpf4jnsgd1na2vs0mg"},{"bike_id":"9b5e505a-964a-4350-b42f-ff4fca1f6990","system_id":"levelo_inurba_marseille","lat":43.307945,"lon":5.376487,"is_reserved":false,"is_disabled":false,"rental_uris":{"android":"levelo://app?vid=9b5e505a-964a-4350-b42f-ff4fca1f6990","ios":"levelo://app?vid=9b5e505a-964a-4350-b42f-ff4fca1f6990"},"vehicle_type_id":"4","last_reported":1719137313,"current_range_meters":20800,"station_id":"ce4bgv92rcd13ifvqcq0","pricing_plan_id":"cebpf4jnsgd1na2vs0mg"},{"bike_id":"65c13f8e-7ead-46bc-8495-0c2fd199e1ee","system_id":"levelo_inurba_marseille","lat":43.307945,"lon":5.376487,"is_reserved":false,"is_disabled":false,"rental_uris":{"android":"levelo://app?vid=65c13f8e-7ead-46bc-8495-0c2fd199e1ee","ios":"levelo://app?vid=65c13f8e-7ead-46bc-8495-0c2fd199e1ee"},"vehicle_type_id":"4","last_reported":1719137313,"current_range_meters":11600,"station_id":"ce4bgv92rcd13ifvqcq0","pricing_plan_id":"cebpf4jnsgd1na2vs0mg"},{"bike_id":"c39a8233-2cb7-4ac1-a55e-53eb1bf7d3ee","system_id":"levelo_inurba_marseille","lat":43.307945,"lon":5.376487,"is_reserved":false,"is_disabled":false,"rental_uris":{"android":"levelo://app?vid=c39a8233-2cb7-4ac1-a55e-53eb1bf7d3ee","ios":"levelo://app?vid=c39a8233-2cb7-4ac1-a55e-53eb1bf7d3ee"},"vehicle_type_id":"4","last_reported":1719137313,"current_range_meters":31200,"station_id":"ce4bgv92rcd13ifvqcq0","pricing_plan_id":"cebpf4jnsgd1na2vs0mg"},{"bike_id":"0fcf154c-7b04-405a-9c5c-fb3c99113c78","system_id":"levelo_inurba_marseille","lat":43.307945,"lon":5.376487,"is_reserved":false,"is_disabled":false,"rental_uris":{"android":"levelo://app?vid=0fcf154c-7b04-405a-9c5c-fb3c99113c78","ios":"levelo://app?vid=0fcf154c-7b04-405a-9c5c-fb3c99113c78"},"vehicle_type_id":"4","last_reported":1719137313,"current_range_meters":30800,"station_id":"ce4bgv92rcd13ifvqcq0","pricing_plan_id":"cebpf4jnsgd1na2vs0mg"},{"bike_id":"2fcecd20-15cd-4749-a390-6f6b397e0de8","system_id":"levelo_inurba_marseille","lat":43.32085,"lon":5.37139,"is_reserved":false,"is_disabled":false,"rental_uris":{"android":"levelo://app?vid=2fcecd20-15cd-4749-a390-6f6b397e0de8","ios":"levelo://app?vid=2fcecd20-15cd-4749-a390-6f6b397e0de8"},"vehicle_type_id":"4","last_reported":1719137313,"current_range_meters":18800,"station_id":"","pricing_plan_id":"cebpf4jnsgd1na2vs0mg"},{"bike_id":"3c59dc8d-91fd-42ee-af13-3a3dac867c77","system_id":"levelo_inurba_marseille","lat":43.303046,"lon":5.368981,"is_reserved":false,"is_disabled":false,"rental_uris":{"android":"levelo://app?vid=3c59dc8d-91fd-42ee-af13-3a3dac867c77","ios":"levelo://app?vid=3c59dc8d-91fd-42ee-af13-3a3dac867c77"},"vehicle_type_id":"4","last_reported":1719137313,"current_range_meters":23600,"station_id":"ce4bgqh2rcd13ifvqc5g","pricing_plan_id":"cebpf4jnsgd1na2vs0mg"},{"bike_id":"5b8007bb-0dd8-4352-b213-d088b8c4b4e0","system_id":"levelo_inurba_marseille","lat":43.315512,"lon":5.380086,"is_reserved":false,"is_disabled":false,"rental_uris":{"android":"levelo://app?vid=5b8007bb-0dd8-4352-b213-d088b8c4b4e0","ios":"levelo://app?vid=5b8007bb-0dd8-4352-b213-d088b8c4b4e0"},"vehicle_type_id":"4","last_reported":1719137313,"current_range_meters":5200,"station_id":"ce4bhsp2rcd13ifvqi50","pricing_plan_id":"cebpf4jnsgd1na2vs0mg"},{"bike_id":"c01c3a71-c2d0-405a-b644-7c95713d1c1d","system_id":"levelo_inurba_marseille","lat":43.31531,"lon":5.38027,"is_reserved":false,"is_disabled":false,"rental_uris":{"android":"levelo://app?vid=c01c3a71-c2d0-405a-b644-7c95713d1c1d","ios":"levelo://app?vid=c01c3a71-c2d0-405a-b644-7c95713d1c1d"},"vehicle_type_id":"4","last_reported":1719137313,"current_range_meters":21600,"station_id":"ce4bhsp2rcd13ifvqi50","pricing_plan_id":"cebpf4jnsgd1na2vs0mg"},{"bike_id":"1aa9382d-bd55-4aff-8971-b23615fccdae","system_id":"levelo_inurba_marseille","lat":43.311,"lon":5.38145,"is_reserved":false,"is_disabled":false,"rental_uris":{"android":"levelo://app?vid=1aa9382d-bd55-4aff-8971-b23615fccdae","ios":"levelo://app?vid=1aa9382d-bd55-4aff-8971-b23615fccdae"},"vehicle_type_id":"4","last_reported":1719137313,"current_range_meters":2400,"station_id":"","pricing_plan_id":"cebpf4jnsgd1na2vs0mg"},{"bike_id":"c8d74784-cfa3-4dc0-a55e-c53d6b6b7590","system_id":"levelo_inurba_marseille","lat":43.31294,"lon":5.38177,"is_reserved":false,"is_disabled":false,"rental_uris":{"android":"levelo://app?vid=c8d74784-cfa3-4dc0-a55e-c53d6b6b7590","ios":"levelo://app?vid=c8d74784-cfa3-4dc0-a55e-c53d6b6b7590"},"vehicle_type_id":"4","last_reported":1719137313,"current_range_meters":18000,"station_id":"","pricing_plan_id":"cebpf4jnsgd1na2vs0mg"},{"bike_id":"d7c21ce2-a776-470c-b443-51e8cb8311e6","system_id":"levelo_inurba_marseille","lat":43.30192,"lon":5.36628,"is_reserved":false,"is_disabled":false,"rental_uris":{"android":"levelo://app?vid=d7c21ce2-a776-470c-b443-51e8cb8311e6","ios":"levelo://app?vid=d7c21ce2-a776-470c-b443-51e8cb8311e6"},"vehicle_type_id":"4","last_reported":1719137313,"current_range_meters":14400,"station_id":"","pricing_plan_id":"cebpf4jnsgd1na2vs0mg"},{"bike_id":"2b58e165-8fd8-4981-9d5b-b2b0237f1fe6","system_id":"levelo_inurba_marseille","lat":43.301939,"lon":5.366286,"is_reserved":false,"is_disabled":false,"rental_uris":{"android":"levelo://app?vid=2b58e165-8fd8-4981-9d5b-b2b0237f1fe6","ios":"levelo://app?vid=2b58e165-8fd8-4981-9d5b-b2b0237f1fe6"},"vehicle_type_id":"4","last_reported":1719137313,"current_range_meters":20000,"station_id":"ce4bgrh2rcd13ifvqc8g","pricing_plan_id":"cebpf4jnsgd1na2vs0mg"},{"bike_id":"30e4c0bc-f412-4208-875d-cb57ee9e0385","system_id":"levelo_inurba_marseille","lat":43.301939,"lon":5.366286,"is_reserved":false,"is_disabled":false,"rental_uris":{"android":"levelo://app?vid=30e4c0bc-f412-4208-875d-cb57ee9e0385","ios":"levelo://app?vid=30e4c0bc-f412-4208-875d-cb57ee9e0385"},"vehicle_type_id":"4","last_reported":1719137313,"current_range_meters":18800,"station_id":"ce4bgrh2rcd13ifvqc8g","pricing_plan_id":"cebpf4jnsgd1na2vs0mg"},{"bike_id":"03b09f55-3d67-4ffb-a102-f0386d0f9524","system_id":"levelo_inurba_marseille","lat":43.301939,"lon":5.366286,"is_reserved":false,"is_disabled":false,"rental_uris":{"android":"levelo://app?vid=03b09f55-3d67-4ffb-a102-f0386d0f9524","ios":"levelo://app?vid=03b09f55-3d67-4ffb-a102-f0386d0f9524"},"vehicle_type_id":"4","last_reported":1719137313,"current_range_meters":30400,"station_id":"ce4bgrh2rcd13ifvqc8g","pricing_plan_id":"cebpf4jnsgd1na2vs0mg"},{"bike_id":"91518529-7eb2-4758-9c0a-b09d3788b851","system_id":"levelo_inurba_marseille","lat":43.301939,"lon":5.366286,"is_reserved":false,"is_disabled":false,"rental_uris":{"android":"levelo://app?vid=91518529-7eb2-4758-9c0a-b09d3788b851","ios":"levelo://app?vid=91518529-7eb2-4758-9c0a-b09d3788b851"},"vehicle_type_id":"4","last_reported":1719137313,"current_range_meters":31200,"station_id":"ce4bgrh2rcd13ifvqc8g","pricing_plan_id":"cebpf4jnsgd1na2vs0mg"},{"bike_id":"170bd5b4-0c70-4476-932d-2461212abe01","system_id":"levelo_inurba_marseille","lat":43.308012,"lon":5.381511,"is_reserved":false,"is_disabled":false,"rental_uris":{"android":"levelo://app?vid=170bd5b4-0c70-4476-932d-2461212abe01","ios":"levelo://app?vid=170bd5b4-0c70-4476-932d-2461212abe01"},"vehicle_type_id":"4","last_reported":1719137313,"current_range_meters":25600,"station_id":"ce4bgt12rcd13ifvqce0","pricing_plan_id":"cebpf4jnsgd1na2vs0mg"},{"bike_id":"43908f67-8111-455b-be36-d76228047291","system_id":"levelo_inurba_marseille","lat":43.308012,"lon":5.381511,"is_reserved":false,"is_disabled":false,"rental_uris":{"android":"levelo://app?vid=43908f67-8111-455b-be36-d76228047291","ios":"levelo://app?vid=43908f67-8111-455b-be36-d76228047291"},"vehicle_type_id":"4","last_reported":1719137313,"current_range_meters":28800,"station_id":"ce4bgt12rcd13ifvqce0","pricing_plan_id":"cebpf4jnsgd1na2vs0mg"},{"bike_id":"1eaa03c8-0241-43d5-add2-015acd1e0fbf","system_id":"levelo_inurba_marseille","lat":43.31288,"lon":5.38319,"is_reserved":false,"is_disabled":false,"rental_uris":{"android":"levelo://app?vid=1eaa03c8-0241-43d5-add2-015acd1e0fbf","ios":"levelo://app?vid=1eaa03c8-0241-43d5-add2-015acd1e0fbf"},"vehicle_type_id":"4","last_reported":1719137313,"current_range_meters":24800,"station_id":"","pricing_plan_id":"cebpf4jnsgd1na2vs0mg"},{"bike_id":"a2534639-9169-405e-a8ae-c02ed1871ea7","system_id":"levelo_inurba_marseille","lat":43.30466,"lon":5.37905,"is_reserved":false,"is_disabled":false,"rental_uris":{"android":"levelo://app?vid=a2534639-9169-405e-a8ae-c02ed1871ea7","ios":"levelo://app?vid=a2534639-9169-405e-a8ae-c02ed1871ea7"},"vehicle_type_id":"4","last_reported":1719137313,"current_range_meters":29200,"station_id":"ce4bgup2rcd13ifvqcn0","pricing_plan_id":"cebpf4jnsgd1na2vs0mg"},{"bike_id":"cab0a1d6-8bb5-4ee1-8a2f-f4bacf497025","system_id":"levelo_inurba_marseille","lat":43.304606,"lon":5.379026,"is_reserved":false,"is_disabled":false,"rental_uris":{"android":"levelo://app?vid=cab0a1d6-8bb5-4ee1-8a2f-f4bacf497025","ios":"levelo://app?vid=cab0a1d6-8bb5-4ee1-8a2f-f4bacf497025"},"vehicle_type_id":"4","last_reported":1719137313,"current_range_meters":26800,"station_id":"ce4bgup2rcd13ifvqcn0","pricing_plan_id":"cebpf4jnsgd1na2vs0mg"},{"bike_id":"85824163-7de5-4bff-b4d1-c55e58cfc685","system_id":"levelo_inurba_marseille","lat":43.324771,"lon":5.36557,"is_reserved":false,"is_disabled":false,"rental_uris":{"android":"levelo://app?vid=85824163-7de5-4bff-b4d1-c55e58cfc685","ios":"levelo://app?vid=85824163-7de5-4bff-b4d1-c55e58cfc685"},"vehicle_type_id":"4","last_reported":1719137313,"current_range_meters":17600,"station_id":"ce4bhs12rcd13ifvqhvg","pricing_plan_id":"cebpf4jnsgd1na2vs0mg"},{"bike_id":"b17aa781-db8e-4ac0-8387-32572d5ec369","system_id":"levelo_inurba_marseille","lat":43.30285,"lon":5.37706,"is_reserved":false,"is_disabled":false,"rental_uris":{"android":"levelo://app?vid=b17aa781-db8e-4ac0-8387-32572d5ec369","ios":"levelo://app?vid=b17aa781-db8e-4ac0-8387-32572d5ec369"},"vehicle_type_id":"4","last_reported":1719137313,"current_range_meters":21600,"station_id":"ce4bguh2rcd13ifvqcj0","pricing_plan_id":"cebpf4jnsgd1na2vs0mg"},{"bike_id":"c317a959-28de-4240-8af8-3d97f3d5a44f","system_id":"levelo_inurba_marseille","lat":43.319935,"lon":5.381699,"is_reserved":false,"is_disabled":false,"rental_uris":{"android":"levelo://app?vid=c317a959-28de-4240-8af8-3d97f3d5a44f","ios":"levelo://app?vid=c317a959-28de-4240-8af8-3d97f3d5a44f"},"vehicle_type_id":"4","last_reported":1719137313,"current_range_meters":16000,"station_id":"ce4bhr12rcd13ifvqhpg","pricing_plan_id":"cebpf4jnsgd1na2vs0mg"},{"bike_id":"e3bdd770-0a5c-4444-8425-2fc432e50efe","system_id":"levelo_inurba_marseille","lat":43.319935,"lon":5.381699,"is_reserved":false,"is_disabled":false,"rental_uris":{"android":"levelo://app?vid=e3bdd770-0a5c-4444-8425-2fc432e50efe","ios":"levelo://app?vid=e3bdd770-0a5c-4444-8425-2fc432e50efe"},"vehicle_type_id":"4","last_reported":1719137313,"current_range_meters":0,"station_id":"ce4bhr12rcd13ifvqhpg","pricing_plan_id":"cebpf4jnsgd1na2vs0mg"},{"bike_id":"cefe9064-7d05-4b92-87b0-7b4484fc3c23","system_id":"levelo_inurba_marseille","lat":43.319935,"lon":5.381699,"is_reserved":false,"is_disabled":false,"rental_uris":{"android":"levelo://app?vid=cefe9064-7d05-4b92-87b0-7b4484fc3c23","ios":"levelo://app?vid=cefe9064-7d05-4b92-87b0-7b4484fc3c23"},"vehicle_type_id":"4","last_reported":1719137313,"current_range_meters":15200,"station_id":"ce4bhr12rcd13ifvqhpg","pricing_plan_id":"cebpf4jnsgd1na2vs0mg"},{"bike_id":"206b24a4-c48a-4c53-a132-8312e88aec3b","system_id":"levelo_inurba_marseille","lat":43.319935,"lon":5.381699,"is_reserved":false,"is_disabled":false,"rental_uris":{"android":"levelo://app?vid=206b24a4-c48a-4c53-a132-8312e88aec3b","ios":"levelo://app?vid=206b24a4-c48a-4c53-a132-8312e88aec3b"},"vehicle_type_id":"4","last_reported":1719137313,"current_range_meters":24800,"station_id":"ce4bhr12rcd13ifvqhpg","pricing_plan_id":"cebpf4jnsgd1na2vs0mg"},{"bike_id":"b99af058-29be-4854-b164-af6d6c55b673","system_id":"levelo_inurba_marseille","lat":43.30334,"lon":5.37922,"is_reserved":false,"is_disabled":false,"rental_uris":{"android":"levelo://app?vid=b99af058-29be-4854-b164-af6d6c55b673","ios":"levelo://app?vid=b99af058-29be-4854-b164-af6d6c55b673"},"vehicle_type_id":"4","last_reported":1719137313,"current_range_meters":22400,"station_id":"","pricing_plan_id":"cebpf4jnsgd1na2vs0mg"},{"bike_id":"ebf730dc-1c60-45ea-8139-e1b67bd35d04","system_id":"levelo_inurba_marseille","lat":43.297794,"lon":5.370888,"is_reserved":false,"is_disabled":false,"rental_uris":{"android":"levelo://app?vid=ebf730dc-1c60-45ea-8139-e1b67bd35d04","ios":"levelo://app?vid=ebf730dc-1c60-45ea-8139-e1b67bd35d04"},"vehicle_type_id":"4","last_reported":1719137313,"current_range_meters":10400,"station_id":"ce4bgop2rcd13ifvqc1g","pricing_plan_id":"cebpf4jnsgd1na2vs0mg"},{"bike_id":"e41af807-8b11-44e6-8c58-fcd669406949","system_id":"levelo_inurba_marseille","lat":43.313571,"lon":5.384829,"is_reserved":false,"is_disabled":false,"rental_uris":{"android":"levelo://app?vid=e41af807-8b11-44e6-8c58-fcd669406949","ios":"levelo://app?vid=e41af807-8b11-44e6-8c58-fcd669406949"},"vehicle_type_id":"4","last_reported":1719137313,"current_range_meters":27200,"station_id":"ce4bgt92rcd13ifvqcf0","pricing_plan_id":"cebpf4jnsgd1na2vs0mg"},{"bike_id":"f6bc19c5-a1ae-4625-86ef-f5a5901e1dae","system_id":"levelo_inurba_marseille","lat":43.313571,"lon":5.384829,"is_reserved":false,"is_disabled":false,"rental_uris":{"android":"levelo://app?vid=f6bc19c5-a1ae-4625-86ef-f5a5901e1dae","ios":"levelo://app?vid=f6bc19c5-a1ae-4625-86ef-f5a5901e1dae"},"vehicle_type_id":"4","last_reported":1719137313,"current_range_meters":32000,"station_id":"ce4bgt92rcd13ifvqcf0","pricing_plan_id":"cebpf4jnsgd1na2vs0mg"},{"bike_id":"17e9de12-b92e-488b-b119-26e5873faeb7","system_id":"levelo_inurba_marseille","lat":43.313571,"lon":5.384829,"is_reserved":false,"is_disabled":false,"rental_uris":{"android":"levelo://app?vid=17e9de12-b92e-488b-b119-26e5873faeb7","ios":"levelo://app?vid=17e9de12-b92e-488b-b119-26e5873faeb7"},"vehicle_type_id":"4","last_reported":1719137313,"current_range_meters":12400,"station_id":"ce4bgt92rcd13ifvqcf0","pricing_plan_id":"cebpf4jnsgd1na2vs0mg"},{"bike_id":"b3ccc040-ba63-424c-a724-7d71ff6c4f29","system_id":"levelo_inurba_marseille","lat":43.313571,"lon":5.384829,"is_reserved":false,"is_disabled":false,"rental_uris":{"android":"levelo://app?vid=b3ccc040-ba63-424c-a724-7d71ff6c4f29","ios":"levelo://app?vid=b3ccc040-ba63-424c-a724-7d71ff6c4f29"},"vehicle_type_id":"4","last_reported":1719137313,"current_range_meters":6800,"station_id":"ce4bgt92rcd13ifvqcf0","pricing_plan_id":"cebpf4jnsgd1na2vs0mg"},{"bike_id":"014ab7bf-0c23-4c99-a5a7-ecb3d1e9c784","system_id":"levelo_inurba_marseille","lat":43.31355,"lon":5.385013,"is_reserved":false,"is_disabled":false,"rental_uris":{"android":"levelo://app?vid=014ab7bf-0c23-4c99-a5a7-ecb3d1e9c784","ios":"levelo://app?vid=014ab7bf-0c23-4c99-a5a7-ecb3d1e9c784"},"vehicle_type_id":"4","last_reported":1719137313,"current_range_meters":23200,"station_id":"ce4bgt92rcd13ifvqcf0","pricing_plan_id":"cebpf4jnsgd1na2vs0mg"},{"bike_id":"2c11953b-8021-4c8d-806e-23e18c047212","system_id":"levelo_inurba_marseille","lat":43.313571,"lon":5.384829,"is_reserved":false,"is_disabled":false,"rental_uris":{"android":"levelo://app?vid=2c11953b-8021-4c8d-806e-23e18c047212","ios":"levelo://app?vid=2c11953b-8021-4c8d-806e-23e18c047212"},"vehicle_type_id":"4","last_reported":1719137313,"current_range_meters":27200,"station_id":"ce4bgt92rcd13ifvqcf0","pricing_plan_id":"cebpf4jnsgd1na2vs0mg"},{"bike_id":"1bf95ea3-229f-4ec9-add7-98d66a32e7ac","system_id":"levelo_inurba_marseille","lat":43.313571,"lon":5.384829,"is_reserved":false,"is_disabled":false,"rental_uris":{"android":"levelo://app?vid=1bf95ea3-229f-4ec9-add7-98d66a32e7ac","ios":"levelo://app?vid=1bf95ea3-229f-4ec9-add7-98d66a32e7ac"},"vehicle_type_id":"4","last_reported":1719137313,"current_range_meters":19200,"station_id":"ce4bgt92rcd13ifvqcf0","pricing_plan_id":"cebpf4jnsgd1na2vs0mg"},{"bike_id":"e8669eee-68e3-4c90-ab45-ebb1fb87e2e8","system_id":"levelo_inurba_marseille","lat":43.299724,"lon":5.371829,"is_reserved":false,"is_disabled":false,"rental_uris":{"android":"levelo://app?vid=e8669eee-68e3-4c90-ab45-ebb1fb87e2e8","ios":"levelo://app?vid=e8669eee-68e3-4c90-ab45-ebb1fb87e2e8"},"vehicle_type_id":"4","last_reported":1719137313,"current_range_meters":2400,"station_id":"ce4bgr92rcd13ifvqc7g","pricing_plan_id":"cebpf4jnsgd1na2vs0mg"},{"bike_id":"2c59fd9c-c649-4889-93ac-650ba5031262","system_id":"levelo_inurba_marseille","lat":43.299724,"lon":5.371829,"is_reserved":false,"is_disabled":false,"rental_uris":{"android":"levelo://app?vid=2c59fd9c-c649-4889-93ac-650ba5031262","ios":"levelo://app?vid=2c59fd9c-c649-4889-93ac-650ba5031262"},"vehicle_type_id":"4","last_reported":1719137313,"current_range_meters":20400,"station_id":"ce4bgr92rcd13ifvqc7g","pricing_plan_id":"cebpf4jnsgd1na2vs0mg"},{"bike_id":"02b07f22-c834-4d89-87af-f8becb4ceea5","system_id":"levelo_inurba_marseille","lat":43.299243,"lon":5.37481,"is_reserved":false,"is_disabled":false,"rental_uris":{"android":"levelo://app?vid=02b07f22-c834-4d89-87af-f8becb4ceea5","ios":"levelo://app?vid=02b07f22-c834-4d89-87af-f8becb4ceea5"},"vehicle_type_id":"4","last_reported":1719137313,"current_range_meters":24400,"station_id":"ce4bgjh2rcd13ifvqbg0","pricing_plan_id":"cebpf4jnsgd1na2vs0mg"},{"bike_id":"8beb68f9-313f-4157-8312-9a0a30951286","system_id":"levelo_inurba_marseille","lat":43.298433,"lon":5.362774,"is_reserved":false,"is_disabled":false,"rental_uris":{"android":"levelo://app?vid=8beb68f9-313f-4157-8312-9a0a30951286","ios":"levelo://app?vid=8beb68f9-313f-4157-8312-9a0a30951286"},"vehicle_type_id":"4","last_reported":1719137313,"current_range_meters":27600,"station_id":"ce4bgpp2rcd13ifvqc3g","pricing_plan_id":"cebpf4jnsgd1na2vs0mg"},{"bike_id":"a5b61e10-06fd-41db-af14-2875a6348f70","system_id":"levelo_inurba_marseille","lat":43.299243,"lon":5.374807,"is_reserved":false,"is_disabled":false,"rental_uris":{"android":"levelo://app?vid=a5b61e10-06fd-41db-af14-2875a6348f70","ios":"levelo://app?vid=a5b61e10-06fd-41db-af14-2875a6348f70"},"vehicle_type_id":"4","last_reported":1719137313,"current_range_meters":22400,"station_id":"ce4bgjh2rcd13ifvqbg0","pricing_plan_id":"cebpf4jnsgd1na2vs0mg"},{"bike_id":"d1a1c2ef-4d82-4159-b15a-eea2368811de","system_id":"levelo_inurba_marseille","lat":43.311722,"lon":5.387247,"is_reserved":false,"is_disabled":false,"rental_uris":{"android":"levelo://app?vid=d1a1c2ef-4d82-4159-b15a-eea2368811de","ios":"levelo://app?vid=d1a1c2ef-4d82-4159-b15a-eea2368811de"},"vehicle_type_id":"4","last_reported":1719137313,"current_range_meters":14000,"station_id":"ce4bgv12rcd13ifvqcp0","pricing_plan_id":"cebpf4jnsgd1na2vs0mg"},{"bike_id":"d8b0d15f-a293-4017-9879-7e150fa95674","system_id":"levelo_inurba_marseille","lat":43.297794,"lon":5.370888,"is_reserved":false,"is_disabled":false,"rental_uris":{"android":"levelo://app?vid=d8b0d15f-a293-4017-9879-7e150fa95674","ios":"levelo://app?vid=d8b0d15f-a293-4017-9879-7e150fa95674"},"vehicle_type_id":"4","last_reported":1719137313,"current_range_meters":6000,"station_id":"ce4bgop2rcd13ifvqc1g","pricing_plan_id":"cebpf4jnsgd1na2vs0mg"},{"bike_id":"8be10d32-00e7-4e5e-8f4c-584f3edd3f96","system_id":"levelo_inurba_marseille","lat":43.322872,"lon":5.382756,"is_reserved":false,"is_disabled":false,"rental_uris":{"android":"levelo://app?vid=8be10d32-00e7-4e5e-8f4c-584f3edd3f96","ios":"levelo://app?vid=8be10d32-00e7-4e5e-8f4c-584f3edd3f96"},"vehicle_type_id":"4","last_reported":1719137313,"current_range_meters":8400,"station_id":"ce4bhr12rcd13ifvqhqg","pricing_plan_id":"cebpf4jnsgd1na2vs0mg"},{"bike_id":"8194fd9a-9aa8-4812-a8b4-1fd34f643f17","system_id":"levelo_inurba_marseille","lat":43.322872,"lon":5.382756,"is_reserved":false,"is_disabled":false,"rental_uris":{"android":"levelo://app?vid=8194fd9a-9aa8-4812-a8b4-1fd34f643f17","ios":"levelo://app?vid=8194fd9a-9aa8-4812-a8b4-1fd34f643f17"},"vehicle_type_id":"4","last_reported":1719137313,"current_range_meters":26800,"station_id":"ce4bhr12rcd13ifvqhqg","pricing_plan_id":"cebpf4jnsgd1na2vs0mg"},{"bike_id":"4aba6f14-868b-46d1-9dae-c655a7457a26","system_id":"levelo_inurba_marseille","lat":43.322872,"lon":5.382756,"is_reserved":false,"is_disabled":false,"rental_uris":{"android":"levelo://app?vid=4aba6f14-868b-46d1-9dae-c655a7457a26","ios":"levelo://app?vid=4aba6f14-868b-46d1-9dae-c655a7457a26"},"vehicle_type_id":"4","last_reported":1719137313,"current_range_meters":32000,"station_id":"ce4bhr12rcd13ifvqhqg","pricing_plan_id":"cebpf4jnsgd1na2vs0mg"},{"bike_id":"590ad355-aa8e-4341-83f6-e28149bc89c0","system_id":"levelo_inurba_marseille","lat":43.296131,"lon":5.370791,"is_reserved":false,"is_disabled":false,"rental_uris":{"android":"levelo://app?vid=590ad355-aa8e-4341-83f6-e28149bc89c0","ios":"levelo://app?vid=590ad355-aa8e-4341-83f6-e28149bc89c0"},"vehicle_type_id":"4","last_reported":1719137313,"current_range_meters":27600,"station_id":"ce4bgnh2rcd13ifvqc0g","pricing_plan_id":"cebpf4jnsgd1na2vs0mg"},{"bike_id":"3de2979e-8f79-412e-9bc2-e334eb6af378","system_id":"levelo_inurba_marseille","lat":43.29573,"lon":5.367355,"is_reserved":false,"is_disabled":false,"rental_uris":{"android":"levelo://app?vid=3de2979e-8f79-412e-9bc2-e334eb6af378","ios":"levelo://app?vid=3de2979e-8f79-412e-9bc2-e334eb6af378"},"vehicle_type_id":"4","last_reported":1719137313,"current_range_meters":27600,"station_id":"ce4bgph2rcd13ifvqc2g","pricing_plan_id":"cebpf4jnsgd1na2vs0mg"},{"bike_id":"67c50b47-d298-4df4-a432-7ac168bf6b78","system_id":"levelo_inurba_marseille","lat":43.29573,"lon":5.367355,"is_reserved":false,"is_disabled":false,"rental_uris":{"android":"levelo://app?vid=67c50b47-d298-4df4-a432-7ac168bf6b78","ios":"levelo://app?vid=67c50b47-d298-4df4-a432-7ac168bf6b78"},"vehicle_type_id":"4","last_reported":1719137313,"current_range_meters":32000,"station_id":"ce4bgph2rcd13ifvqc2g","pricing_plan_id":"cebpf4jnsgd1na2vs0mg"},{"bike_id":"0d64cfb7-a8a8-479c-a677-41ccf0ffd0f7","system_id":"levelo_inurba_marseille","lat":43.29579,"lon":5.3674,"is_reserved":false,"is_disabled":false,"rental_uris":{"android":"levelo://app?vid=0d64cfb7-a8a8-479c-a677-41ccf0ffd0f7","ios":"levelo://app?vid=0d64cfb7-a8a8-479c-a677-41ccf0ffd0f7"},"vehicle_type_id":"4","last_reported":1719137313,"current_range_meters":8400,"station_id":"ce4bgph2rcd13ifvqc2g","pricing_plan_id":"cebpf4jnsgd1na2vs0mg"},{"bike_id":"3d5c00e9-a3d5-4e17-9a4b-b8c92198fc28","system_id":"levelo_inurba_marseille","lat":43.296921,"lon":5.376579,"is_reserved":false,"is_disabled":false,"rental_uris":{"android":"levelo://app?vid=3d5c00e9-a3d5-4e17-9a4b-b8c92198fc28","ios":"levelo://app?vid=3d5c00e9-a3d5-4e17-9a4b-b8c92198fc28"},"vehicle_type_id":"4","last_reported":1719137313,"current_range_meters":15200,"station_id":"ce4bgkh2rcd13ifvqbl0","pricing_plan_id":"cebpf4jnsgd1na2vs0mg"},{"bike_id":"aa8b3871-6630-4c20-a99c-ea1d7fd559f4","system_id":"levelo_inurba_marseille","lat":43.309589,"lon":5.390258,"is_reserved":false,"is_disabled":false,"rental_uris":{"android":"levelo://app?vid=aa8b3871-6630-4c20-a99c-ea1d7fd559f4","ios":"levelo://app?vid=aa8b3871-6630-4c20-a99c-ea1d7fd559f4"},"vehicle_type_id":"4","last_reported":1719137313,"current_range_meters":8000,"station_id":"ce4bgup2rcd13ifvqco0","pricing_plan_id":"cebpf4jnsgd1na2vs0mg"},{"bike_id":"b2f8c189-9044-422e-b64d-4a088a546d2e","system_id":"levelo_inurba_marseille","lat":43.295598,"lon":5.362633,"is_reserved":false,"is_disabled":false,"rental_uris":{"android":"levelo://app?vid=b2f8c189-9044-422e-b64d-4a088a546d2e","ios":"levelo://app?vid=b2f8c189-9044-422e-b64d-4a088a546d2e"},"vehicle_type_id":"4","last_reported":1719137313,"current_range_meters":19200,"station_id":"","pricing_plan_id":"cebpf4jnsgd1na2vs0mg"},{"bike_id":"25fda79c-2038-4263-b559-e74998596f8a","system_id":"levelo_inurba_marseille","lat":43.299019,"lon":5.381848,"is_reserved":false,"is_disabled":false,"rental_uris":{"android":"levelo://app?vid=25fda79c-2038-4263-b559-e74998596f8a","ios":"levelo://app?vid=25fda79c-2038-4263-b559-e74998596f8a"},"vehicle_type_id":"4","last_reported":1719137313,"current_range_meters":1200,"station_id":"ce4bgj92rcd13ifvqbd0","pricing_plan_id":"cebpf4jnsgd1na2vs0mg"},{"bike_id":"746b5317-8a61-4026-a357-1d8cb5dbc75a","system_id":"levelo_inurba_marseille","lat":43.317557,"lon":5.390173,"is_reserved":false,"is_disabled":false,"rental_uris":{"android":"levelo://app?vid=746b5317-8a61-4026-a357-1d8cb5dbc75a","ios":"levelo://app?vid=746b5317-8a61-4026-a357-1d8cb5dbc75a"},"vehicle_type_id":"4","last_reported":1719137313,"current_range_meters":4400,"station_id":"ce4bhqp2rcd13ifvqhng","pricing_plan_id":"cebpf4jnsgd1na2vs0mg"},{"bike_id":"c16e1185-fad0-484d-9b2d-c8d9c42122c3","system_id":"levelo_inurba_marseille","lat":43.317557,"lon":5.390173,"is_reserved":false,"is_disabled":false,"rental_uris":{"android":"levelo://app?vid=c16e1185-fad0-484d-9b2d-c8d9c42122c3","ios":"levelo://app?vid=c16e1185-fad0-484d-9b2d-c8d9c42122c3"},"vehicle_type_id":"4","last_reported":1719137313,"current_range_meters":23200,"station_id":"ce4bhqp2rcd13ifvqhng","pricing_plan_id":"cebpf4jnsgd1na2vs0mg"},{"bike_id":"6df7f36f-0782-4333-a349-80b916d1d92a","system_id":"levelo_inurba_marseille","lat":43.295748,"lon":5.37522,"is_reserved":false,"is_disabled":false,"rental_uris":{"android":"levelo://app?vid=6df7f36f-0782-4333-a349-80b916d1d92a","ios":"levelo://app?vid=6df7f36f-0782-4333-a349-80b916d1d92a"},"vehicle_type_id":"4","last_reported":1719137313,"current_range_meters":19600,"station_id":"ce4bgh92rcd13ifvqb50","pricing_plan_id":"cebpf4jnsgd1na2vs0mg"},{"bike_id":"46fe12d7-1cb0-425d-91c1-9e0bc0126c70","system_id":"levelo_inurba_marseille","lat":43.304274,"lon":5.388873,"is_reserved":false,"is_disabled":false,"rental_uris":{"android":"levelo://app?vid=46fe12d7-1cb0-425d-91c1-9e0bc0126c70","ios":"levelo://app?vid=46fe12d7-1cb0-425d-91c1-9e0bc0126c70"},"vehicle_type_id":"4","last_reported":1719137313,"current_range_meters":12400,"station_id":"ce4bgk12rcd13ifvqbi0","pricing_plan_id":"cebpf4jnsgd1na2vs0mg"},{"bike_id":"dc91b126-4910-465f-b910-f2b2fbbb6bbb","system_id":"levelo_inurba_marseille","lat":43.295748,"lon":5.37522,"is_reserved":false,"is_disabled":false,"rental_uris":{"android":"levelo://app?vid=dc91b126-4910-465f-b910-f2b2fbbb6bbb","ios":"levelo://app?vid=dc91b126-4910-465f-b910-f2b2fbbb6bbb"},"vehicle_type_id":"4","last_reported":1719137313,"current_range_meters":17200,"station_id":"ce4bgh92rcd13ifvqb50","pricing_plan_id":"cebpf4jnsgd1na2vs0mg"},{"bike_id":"f222e57a-4d34-471d-9fd2-9078bb6fe77c","system_id":"levelo_inurba_marseille","lat":43.32367,"lon":5.388836,"is_reserved":false,"is_disabled":false,"rental_uris":{"android":"levelo://app?vid=f222e57a-4d34-471d-9fd2-9078bb6fe77c","ios":"levelo://app?vid=f222e57a-4d34-471d-9fd2-9078bb6fe77c"},"vehicle_type_id":"4","last_reported":1719137313,"current_range_meters":12800,"station_id":"ce4bhqp2rcd13ifvqhog","pricing_plan_id":"cebpf4jnsgd1na2vs0mg"},{"bike_id":"0cd10e21-afa9-43a3-b8a6-6827d7365746","system_id":"levelo_inurba_marseille","lat":43.32367,"lon":5.388836,"is_reserved":false,"is_disabled":false,"rental_uris":{"android":"levelo://app?vid=0cd10e21-afa9-43a3-b8a6-6827d7365746","ios":"levelo://app?vid=0cd10e21-afa9-43a3-b8a6-6827d7365746"},"vehicle_type_id":"4","last_reported":1719137313,"current_range_meters":9600,"station_id":"ce4bhqp2rcd13ifvqhog","pricing_plan_id":"cebpf4jnsgd1na2vs0mg"},{"bike_id":"50cb55ce-0b43-47ec-b511-401ce12b9da8","system_id":"levelo_inurba_marseille","lat":43.29298,"lon":5.37175,"is_reserved":false,"is_disabled":false,"rental_uris":{"android":"levelo://app?vid=50cb55ce-0b43-47ec-b511-401ce12b9da8","ios":"levelo://app?vid=50cb55ce-0b43-47ec-b511-401ce12b9da8"},"vehicle_type_id":"4","last_reported":1719137313,"current_range_meters":20000,"station_id":"ce4bgh92rcd13ifvqb40","pricing_plan_id":"cebpf4jnsgd1na2vs0mg"},{"bike_id":"8f6f9704-04bb-489e-8fbc-8772cac98081","system_id":"levelo_inurba_marseille","lat":43.293009,"lon":5.374584,"is_reserved":false,"is_disabled":false,"rental_uris":{"android":"levelo://app?vid=8f6f9704-04bb-489e-8fbc-8772cac98081","ios":"levelo://app?vid=8f6f9704-04bb-489e-8fbc-8772cac98081"},"vehicle_type_id":"4","last_reported":1719137313,"current_range_meters":16800,"station_id":"ce4bgi12rcd13ifvqb70","pricing_plan_id":"cebpf4jnsgd1na2vs0mg"},{"bike_id":"c0580613-0461-4c84-a5c4-bd5211cd5f0e","system_id":"levelo_inurba_marseille","lat":43.303002,"lon":5.392142,"is_reserved":false,"is_disabled":false,"rental_uris":{"android":"levelo://app?vid=c0580613-0461-4c84-a5c4-bd5211cd5f0e","ios":"levelo://app?vid=c0580613-0461-4c84-a5c4-bd5211cd5f0e"},"vehicle_type_id":"4","last_reported":1719137313,"current_range_meters":400,"station_id":"ce4bgkh2rcd13ifvqbk0","pricing_plan_id":"cebpf4jnsgd1na2vs0mg"},{"bike_id":"329766df-436a-4824-81e3-f5b05ed2a336","system_id":"levelo_inurba_marseille","lat":43.2936,"lon":5.37835,"is_reserved":false,"is_disabled":false,"rental_uris":{"android":"levelo://app?vid=329766df-436a-4824-81e3-f5b05ed2a336","ios":"levelo://app?vid=329766df-436a-4824-81e3-f5b05ed2a336"},"vehicle_type_id":"4","last_reported":1719137313,"current_range_meters":29200,"station_id":"ce4bgjh2rcd13ifvqbf0","pricing_plan_id":"cebpf4jnsgd1na2vs0mg"},{"bike_id":"16630eb6-e7f5-4d39-ba6f-f124eb1d4bc7","system_id":"levelo_inurba_marseille","lat":43.292311,"lon":5.360731,"is_reserved":false,"is_disabled":false,"rental_uris":{"android":"levelo://app?vid=16630eb6-e7f5-4d39-ba6f-f124eb1d4bc7","ios":"levelo://app?vid=16630eb6-e7f5-4d39-ba6f-f124eb1d4bc7"},"vehicle_type_id":"4","last_reported":1719137313,"current_range_meters":18000,"station_id":"ce4bhbh2rcd13ifvqeqg","pricing_plan_id":"cebpf4jnsgd1na2vs0mg"},{"bike_id":"078447aa-12e6-48fb-8899-a1b4b0149098","system_id":"levelo_inurba_marseille","lat":43.292311,"lon":5.360731,"is_reserved":false,"is_disabled":false,"rental_uris":{"android":"levelo://app?vid=078447aa-12e6-48fb-8899-a1b4b0149098","ios":"levelo://app?vid=078447aa-12e6-48fb-8899-a1b4b0149098"},"vehicle_type_id":"4","last_reported":1719137313,"current_range_meters":16000,"station_id":"ce4bhbh2rcd13ifvqeqg","pricing_plan_id":"cebpf4jnsgd1na2vs0mg"},{"bike_id":"169eb781-19f2-4f6f-a97e-928bed76c8da","system_id":"levelo_inurba_marseille","lat":43.298764,"lon":5.388973,"is_reserved":false,"is_disabled":false,"rental_uris":{"android":"levelo://app?vid=169eb781-19f2-4f6f-a97e-928bed76c8da","ios":"levelo://app?vid=169eb781-19f2-4f6f-a97e-928bed76c8da"},"vehicle_type_id":"4","last_reported":1719137313,"current_range_meters":8000,"station_id":"ce4bh392rcd13ifvqdl0","pricing_plan_id":"cebpf4jnsgd1na2vs0mg"},{"bike_id":"31440928-f2df-4913-b77a-70842cc24dce","system_id":"levelo_inurba_marseille","lat":43.291675,"lon":5.371583,"is_reserved":false,"is_disabled":false,"rental_uris":{"android":"levelo://app?vid=31440928-f2df-4913-b77a-70842cc24dce","ios":"levelo://app?vid=31440928-f2df-4913-b77a-70842cc24dce"},"vehicle_type_id":"4","last_reported":1719137313,"current_range_meters":16400,"station_id":"ce4bha92rcd13ifvqeh0","pricing_plan_id":"cebpf4jnsgd1na2vs0mg"},{"bike_id":"623d428e-5853-4287-b172-81b151e3fcdc","system_id":"levelo_inurba_marseille","lat":43.291675,"lon":5.371583,"is_reserved":false,"is_disabled":false,"rental_uris":{"android":"levelo://app?vid=623d428e-5853-4287-b172-81b151e3fcdc","ios":"levelo://app?vid=623d428e-5853-4287-b172-81b151e3fcdc"},"vehicle_type_id":"4","last_reported":1719137313,"current_range_meters":16800,"station_id":"ce4bha92rcd13ifvqeh0","pricing_plan_id":"cebpf4jnsgd1na2vs0mg"},{"bike_id":"3c265124-c061-4ff8-b3ef-c4a4558ff606","system_id":"levelo_inurba_marseille","lat":43.291675,"lon":5.371583,"is_reserved":false,"is_disabled":false,"rental_uris":{"android":"levelo://app?vid=3c265124-c061-4ff8-b3ef-c4a4558ff606","ios":"levelo://app?vid=3c265124-c061-4ff8-b3ef-c4a4558ff606"},"vehicle_type_id":"4","last_reported":1719137313,"current_range_meters":27200,"station_id":"ce4bha92rcd13ifvqeh0","pricing_plan_id":"cebpf4jnsgd1na2vs0mg"},{"bike_id":"a2124d0a-f212-4898-81c9-aa74f00c6965","system_id":"levelo_inurba_marseille","lat":43.292005,"lon":5.357875,"is_reserved":false,"is_disabled":false,"rental_uris":{"android":"levelo://app?vid=a2124d0a-f212-4898-81c9-aa74f00c6965","ios":"levelo://app?vid=a2124d0a-f212-4898-81c9-aa74f00c6965"},"vehicle_type_id":"4","last_reported":1719137313,"current_range_meters":15200,"station_id":"ce4bhb12rcd13ifvqel0","pricing_plan_id":"cebpf4jnsgd1na2vs0mg"},{"bike_id":"2cbc8eaf-0057-43c8-a291-23cc835f7b37","system_id":"levelo_inurba_marseille","lat":43.292005,"lon":5.357875,"is_reserved":false,"is_disabled":false,"rental_uris":{"android":"levelo://app?vid=2cbc8eaf-0057-43c8-a291-23cc835f7b37","ios":"levelo://app?vid=2cbc8eaf-0057-43c8-a291-23cc835f7b37"},"vehicle_type_id":"4","last_reported":1719137313,"current_range_meters":14400,"station_id":"ce4bhb12rcd13ifvqel0","pricing_plan_id":"cebpf4jnsgd1na2vs0mg"},{"bike_id":"9b00c639-6a5e-499f-acfe-4d903f37cbe3","system_id":"levelo_inurba_marseille","lat":43.313291,"lon":5.396838,"is_reserved":false,"is_disabled":false,"rental_uris":{"android":"levelo://app?vid=9b00c639-6a5e-499f-acfe-4d903f37cbe3","ios":"levelo://app?vid=9b00c639-6a5e-499f-acfe-4d903f37cbe3"},"vehicle_type_id":"4","last_reported":1719137313,"current_range_meters":10400,"station_id":"ce4bgvp2rcd13ifvqcu0","pricing_plan_id":"cebpf4jnsgd1na2vs0mg"},{"bike_id":"2cda695a-2370-476c-b903-1b6129e160a5","system_id":"levelo_inurba_marseille","lat":43.313291,"lon":5.396838,"is_reserved":false,"is_disabled":false,"rental_uris":{"android":"levelo://app?vid=2cda695a-2370-476c-b903-1b6129e160a5","ios":"levelo://app?vid=2cda695a-2370-476c-b903-1b6129e160a5"},"vehicle_type_id":"4","last_reported":1719137313,"current_range_meters":23600,"station_id":"ce4bgvp2rcd13ifvqcu0","pricing_plan_id":"cebpf4jnsgd1na2vs0mg"},{"bike_id":"e9f8c0c0-ac3d-46e8-9470-e1799570f886","system_id":"levelo_inurba_marseille","lat":43.33209,"lon":5.38078,"is_reserved":false,"is_disabled":false,"rental_uris":{"android":"levelo://app?vid=e9f8c0c0-ac3d-46e8-9470-e1799570f886","ios":"levelo://app?vid=e9f8c0c0-ac3d-46e8-9470-e1799570f886"},"vehicle_type_id":"4","last_reported":1719137313,"current_range_meters":0,"station_id":"","pricing_plan_id":"cebpf4jnsgd1na2vs0mg"},{"bike_id":"de04f267-44ee-4cc0-b8e1-66a1c83dc957","system_id":"levelo_inurba_marseille","lat":43.313291,"lon":5.396838,"is_reserved":false,"is_disabled":false,"rental_uris":{"android":"levelo://app?vid=de04f267-44ee-4cc0-b8e1-66a1c83dc957","ios":"levelo://app?vid=de04f267-44ee-4cc0-b8e1-66a1c83dc957"},"vehicle_type_id":"4","last_reported":1719137313,"current_range_meters":31200,"station_id":"ce4bgvp2rcd13ifvqcu0","pricing_plan_id":"cebpf4jnsgd1na2vs0mg"},{"bike_id":"d5c80acf-60e9-428d-a3c9-217d5f1ddf36","system_id":"levelo_inurba_marseille","lat":43.309038,"lon":5.396546,"is_reserved":false,"is_disabled":false,"rental_uris":{"android":"levelo://app?vid=d5c80acf-60e9-428d-a3c9-217d5f1ddf36","ios":"levelo://app?vid=d5c80acf-60e9-428d-a3c9-217d5f1ddf36"},"vehicle_type_id":"4","last_reported":1719137313,"current_range_meters":21600,"station_id":"ce4bh012rcd13ifvqcv0","pricing_plan_id":"cebpf4jnsgd1na2vs0mg"},{"bike_id":"053779b3-be51-45a3-b981-23f428af8aab","system_id":"levelo_inurba_marseille","lat":43.313291,"lon":5.396838,"is_reserved":false,"is_disabled":false,"rental_uris":{"android":"levelo://app?vid=053779b3-be51-45a3-b981-23f428af8aab","ios":"levelo://app?vid=053779b3-be51-45a3-b981-23f428af8aab"},"vehicle_type_id":"4","last_reported":1719137313,"current_range_meters":27200,"station_id":"ce4bgvp2rcd13ifvqcu0","pricing_plan_id":"cebpf4jnsgd1na2vs0mg"},{"bike_id":"7c7f9797-0843-48c9-be34-667a0b6a31a7","system_id":"levelo_inurba_marseille","lat":43.291878,"lon":5.356976,"is_reserved":false,"is_disabled":false,"rental_uris":{"android":"levelo://app?vid=7c7f9797-0843-48c9-be34-667a0b6a31a7","ios":"levelo://app?vid=7c7f9797-0843-48c9-be34-667a0b6a31a7"},"vehicle_type_id":"4","last_reported":1719137313,"current_range_meters":18800,"station_id":"","pricing_plan_id":"cebpf4jnsgd1na2vs0mg"},{"bike_id":"07169470-caad-451a-8018-b2ea81844e3e","system_id":"levelo_inurba_marseille","lat":43.290631,"lon":5.359244,"is_reserved":false,"is_disabled":false,"rental_uris":{"android":"levelo://app?vid=07169470-caad-451a-8018-b2ea81844e3e","ios":"levelo://app?vid=07169470-caad-451a-8018-b2ea81844e3e"},"vehicle_type_id":"4","last_reported":1719137313,"current_range_meters":6800,"station_id":"ce4bha92rcd13ifvqeg0","pricing_plan_id":"cebpf4jnsgd1na2vs0mg"},{"bike_id":"82b11d07-6bd6-443e-9624-2e2df4f3b4d1","system_id":"levelo_inurba_marseille","lat":43.289468,"lon":5.363719,"is_reserved":false,"is_disabled":false,"rental_uris":{"android":"levelo://app?vid=82b11d07-6bd6-443e-9624-2e2df4f3b4d1","ios":"levelo://app?vid=82b11d07-6bd6-443e-9624-2e2df4f3b4d1"},"vehicle_type_id":"4","last_reported":1719137313,"current_range_meters":0,"station_id":"ce4bhc92rcd13ifvqetg","pricing_plan_id":"cebpf4jnsgd1na2vs0mg"},{"bike_id":"51ceacd7-ec38-4dd6-9ec5-acfc3dc15b13","system_id":"levelo_inurba_marseille","lat":43.294162,"lon":5.386292,"is_reserved":false,"is_disabled":false,"rental_uris":{"android":"levelo://app?vid=51ceacd7-ec38-4dd6-9ec5-acfc3dc15b13","ios":"levelo://app?vid=51ceacd7-ec38-4dd6-9ec5-acfc3dc15b13"},"vehicle_type_id":"4","last_reported":1719137313,"current_range_meters":30400,"station_id":"ce4bh2h2rcd13ifvqdh0","pricing_plan_id":"cebpf4jnsgd1na2vs0mg"},{"bike_id":"d3139aff-1540-41eb-b1f8-665551d37ffa","system_id":"levelo_inurba_marseille","lat":43.289468,"lon":5.363719,"is_reserved":false,"is_disabled":false,"rental_uris":{"android":"levelo://app?vid=d3139aff-1540-41eb-b1f8-665551d37ffa","ios":"levelo://app?vid=d3139aff-1540-41eb-b1f8-665551d37ffa"},"vehicle_type_id":"4","last_reported":1719137313,"current_range_meters":19200,"station_id":"ce4bhc92rcd13ifvqetg","pricing_plan_id":"cebpf4jnsgd1na2vs0mg"},{"bike_id":"c3e3ba05-2e89-4cef-82ee-bfce70cc326d","system_id":"levelo_inurba_marseille","lat":43.292644,"lon":5.384257,"is_reserved":false,"is_disabled":false,"rental_uris":{"android":"levelo://app?vid=c3e3ba05-2e89-4cef-82ee-bfce70cc326d","ios":"levelo://app?vid=c3e3ba05-2e89-4cef-82ee-bfce70cc326d"},"vehicle_type_id":"4","last_reported":1719137313,"current_range_meters":21200,"station_id":"ce4bh692rcd13ifvqea0","pricing_plan_id":"cebpf4jnsgd1na2vs0mg"},{"bike_id":"1e9ed690-0998-47ff-a178-34323647519f","system_id":"levelo_inurba_marseille","lat":43.290104,"lon":5.356111,"is_reserved":false,"is_disabled":false,"rental_uris":{"android":"levelo://app?vid=1e9ed690-0998-47ff-a178-34323647519f","ios":"levelo://app?vid=1e9ed690-0998-47ff-a178-34323647519f"},"vehicle_type_id":"4","last_reported":1719137313,"current_range_meters":2400,"station_id":"ce4bhb92rcd13ifvqen0","pricing_plan_id":"cebpf4jnsgd1na2vs0mg"},{"bike_id":"b938ef1f-50b8-4f37-937a-7e39fda0e847","system_id":"levelo_inurba_marseille","lat":43.295169,"lon":5.390426,"is_reserved":false,"is_disabled":false,"rental_uris":{"android":"levelo://app?vid=b938ef1f-50b8-4f37-937a-7e39fda0e847","ios":"levelo://app?vid=b938ef1f-50b8-4f37-937a-7e39fda0e847"},"vehicle_type_id":"4","last_reported":1719137313,"current_range_meters":18400,"station_id":"ce4bh3p2rcd13ifvqdp0","pricing_plan_id":"cebpf4jnsgd1na2vs0mg"},{"bike_id":"bc980625-d0a8-42d3-849a-4b688ac51b1b","system_id":"levelo_inurba_marseille","lat":43.330442,"lon":5.389148,"is_reserved":false,"is_disabled":false,"rental_uris":{"android":"levelo://app?vid=bc980625-d0a8-42d3-849a-4b688ac51b1b","ios":"levelo://app?vid=bc980625-d0a8-42d3-849a-4b688ac51b1b"},"vehicle_type_id":"4","last_reported":1719137313,"current_range_meters":29200,"station_id":"ce4bhr92rcd13ifvqhrg","pricing_plan_id":"cebpf4jnsgd1na2vs0mg"},{"bike_id":"5bda5fc4-57a9-4169-9872-74bf4395e70c","system_id":"levelo_inurba_marseille","lat":43.330442,"lon":5.389148,"is_reserved":false,"is_disabled":false,"rental_uris":{"android":"levelo://app?vid=5bda5fc4-57a9-4169-9872-74bf4395e70c","ios":"levelo://app?vid=5bda5fc4-57a9-4169-9872-74bf4395e70c"},"vehicle_type_id":"4","last_reported":1719137313,"current_range_meters":28000,"station_id":"ce4bhr92rcd13ifvqhrg","pricing_plan_id":"cebpf4jnsgd1na2vs0mg"},{"bike_id":"78fa3392-cece-477f-a1b6-5eae50444971","system_id":"levelo_inurba_marseille","lat":43.330442,"lon":5.389148,"is_reserved":false,"is_disabled":false,"rental_uris":{"android":"levelo://app?vid=78fa3392-cece-477f-a1b6-5eae50444971","ios":"levelo://app?vid=78fa3392-cece-477f-a1b6-5eae50444971"},"vehicle_type_id":"4","last_reported":1719137313,"current_range_meters":20400,"station_id":"ce4bhr92rcd13ifvqhrg","pricing_plan_id":"cebpf4jnsgd1na2vs0mg"},{"bike_id":"23d93152-4183-40b9-b6ef-ae6a911a269a","system_id":"levelo_inurba_marseille","lat":43.330442,"lon":5.389148,"is_reserved":false,"is_disabled":false,"rental_uris":{"android":"levelo://app?vid=23d93152-4183-40b9-b6ef-ae6a911a269a","ios":"levelo://app?vid=23d93152-4183-40b9-b6ef-ae6a911a269a"},"vehicle_type_id":"4","last_reported":1719137313,"current_range_meters":400,"station_id":"ce4bhr92rcd13ifvqhrg","pricing_plan_id":"cebpf4jnsgd1na2vs0mg"},{"bike_id":"88e2f51e-e62f-4278-ad1f-4f1a615dea1a","system_id":"levelo_inurba_marseille","lat":43.330442,"lon":5.389148,"is_reserved":false,"is_disabled":false,"rental_uris":{"android":"levelo://app?vid=88e2f51e-e62f-4278-ad1f-4f1a615dea1a","ios":"levelo://app?vid=88e2f51e-e62f-4278-ad1f-4f1a615dea1a"},"vehicle_type_id":"4","last_reported":1719137313,"current_range_meters":32000,"station_id":"ce4bhr92rcd13ifvqhrg","pricing_plan_id":"cebpf4jnsgd1na2vs0mg"},{"bike_id":"68b0fbd6-3f2f-46a0-ae3c-936e3608113e","system_id":"levelo_inurba_marseille","lat":43.330442,"lon":5.389148,"is_reserved":false,"is_disabled":false,"rental_uris":{"android":"levelo://app?vid=68b0fbd6-3f2f-46a0-ae3c-936e3608113e","ios":"levelo://app?vid=68b0fbd6-3f2f-46a0-ae3c-936e3608113e"},"vehicle_type_id":"4","last_reported":1719137313,"current_range_meters":32000,"station_id":"ce4bhr92rcd13ifvqhrg","pricing_plan_id":"cebpf4jnsgd1na2vs0mg"},{"bike_id":"be076d99-1803-4d9b-88b9-d7e25b30ff0a","system_id":"levelo_inurba_marseille","lat":43.33027,"lon":5.39049,"is_reserved":false,"is_disabled":false,"rental_uris":{"android":"levelo://app?vid=be076d99-1803-4d9b-88b9-d7e25b30ff0a","ios":"levelo://app?vid=be076d99-1803-4d9b-88b9-d7e25b30ff0a"},"vehicle_type_id":"4","last_reported":1719137313,"current_range_meters":7200,"station_id":"ce4bhr92rcd13ifvqhrg","pricing_plan_id":"cebpf4jnsgd1na2vs0mg"},{"bike_id":"fc08141c-3f3f-4718-be92-27dbd078ce1c","system_id":"levelo_inurba_marseille","lat":43.290094,"lon":5.381264,"is_reserved":false,"is_disabled":false,"rental_uris":{"android":"levelo://app?vid=fc08141c-3f3f-4718-be92-27dbd078ce1c","ios":"levelo://app?vid=fc08141c-3f3f-4718-be92-27dbd078ce1c"},"vehicle_type_id":"4","last_reported":1719137313,"current_range_meters":26800,"station_id":"ce4bh4p2rcd13ifvqe1g","pricing_plan_id":"cebpf4jnsgd1na2vs0mg"},{"bike_id":"96ecd03b-2a73-4a72-8ea7-de356970d8c4","system_id":"levelo_inurba_marseille","lat":43.291676,"lon":5.386018,"is_reserved":false,"is_disabled":false,"rental_uris":{"android":"levelo://app?vid=96ecd03b-2a73-4a72-8ea7-de356970d8c4","ios":"levelo://app?vid=96ecd03b-2a73-4a72-8ea7-de356970d8c4"},"vehicle_type_id":"4","last_reported":1719137313,"current_range_meters":3200,"station_id":"","pricing_plan_id":"cebpf4jnsgd1na2vs0mg"},{"bike_id":"540875af-109d-4de0-a9de-bbdcc76969a5","system_id":"levelo_inurba_marseille","lat":43.312609,"lon":5.401662,"is_reserved":false,"is_disabled":false,"rental_uris":{"android":"levelo://app?vid=540875af-109d-4de0-a9de-bbdcc76969a5","ios":"levelo://app?vid=540875af-109d-4de0-a9de-bbdcc76969a5"},"vehicle_type_id":"4","last_reported":1719137313,"current_range_meters":27200,"station_id":"ce4bh092rcd13ifvqd30","pricing_plan_id":"cebpf4jnsgd1na2vs0mg"},{"bike_id":"05092e03-5cef-41c3-9575-df5db7507ebd","system_id":"levelo_inurba_marseille","lat":43.33739,"lon":5.37464,"is_reserved":false,"is_disabled":false,"rental_uris":{"android":"levelo://app?vid=05092e03-5cef-41c3-9575-df5db7507ebd","ios":"levelo://app?vid=05092e03-5cef-41c3-9575-df5db7507ebd"},"vehicle_type_id":"4","last_reported":1719137313,"current_range_meters":16400,"station_id":"","pricing_plan_id":"cebpf4jnsgd1na2vs0mg"},{"bike_id":"a36911bb-d94d-4d47-8606-4d7b6abb2010","system_id":"levelo_inurba_marseille","lat":43.309371,"lon":5.401449,"is_reserved":false,"is_disabled":false,"rental_uris":{"android":"levelo://app?vid=a36911bb-d94d-4d47-8606-4d7b6abb2010","ios":"levelo://app?vid=a36911bb-d94d-4d47-8606-4d7b6abb2010"},"vehicle_type_id":"4","last_reported":1719137313,"current_range_meters":24800,"station_id":"ce4bgvp2rcd13ifvqct0","pricing_plan_id":"cebpf4jnsgd1na2vs0mg"},{"bike_id":"5b5cae36-09e1-4bd0-aeb4-83d37c064d16","system_id":"levelo_inurba_marseille","lat":43.33753,"lon":5.37452,"is_reserved":false,"is_disabled":false,"rental_uris":{"android":"levelo://app?vid=5b5cae36-09e1-4bd0-aeb4-83d37c064d16","ios":"levelo://app?vid=5b5cae36-09e1-4bd0-aeb4-83d37c064d16"},"vehicle_type_id":"4","last_reported":1719137313,"current_range_meters":19600,"station_id":"","pricing_plan_id":"cebpf4jnsgd1na2vs0mg"},{"bike_id":"a00c218c-138a-4388-aca4-2952a6961815","system_id":"levelo_inurba_marseille","lat":43.337479,"lon":5.37488,"is_reserved":false,"is_disabled":false,"rental_uris":{"android":"levelo://app?vid=a00c218c-138a-4388-aca4-2952a6961815","ios":"levelo://app?vid=a00c218c-138a-4388-aca4-2952a6961815"},"vehicle_type_id":"4","last_reported":1719137313,"current_range_meters":30000,"station_id":"","pricing_plan_id":"cebpf4jnsgd1na2vs0mg"},{"bike_id":"0e11bbab-a5d9-4098-a6f1-624d89f27c59","system_id":"levelo_inurba_marseille","lat":43.337572,"lon":5.374546,"is_reserved":false,"is_disabled":false,"rental_uris":{"android":"levelo://app?vid=0e11bbab-a5d9-4098-a6f1-624d89f27c59","ios":"levelo://app?vid=0e11bbab-a5d9-4098-a6f1-624d89f27c59"},"vehicle_type_id":"4","last_reported":1719137313,"current_range_meters":20800,"station_id":"","pricing_plan_id":"cebpf4jnsgd1na2vs0mg"},{"bike_id":"db534928-e6a2-47cc-a852-558fe66ed50c","system_id":"levelo_inurba_marseille","lat":43.337583,"lon":5.374633,"is_reserved":false,"is_disabled":false,"rental_uris":{"android":"levelo://app?vid=db534928-e6a2-47cc-a852-558fe66ed50c","ios":"levelo://app?vid=db534928-e6a2-47cc-a852-558fe66ed50c"},"vehicle_type_id":"4","last_reported":1719137313,"current_range_meters":19200,"station_id":"","pricing_plan_id":"cebpf4jnsgd1na2vs0mg"},{"bike_id":"e7be790b-07e4-40f3-b60f-da683b157943","system_id":"levelo_inurba_marseille","lat":43.33033,"lon":5.39238,"is_reserved":false,"is_disabled":false,"rental_uris":{"android":"levelo://app?vid=e7be790b-07e4-40f3-b60f-da683b157943","ios":"levelo://app?vid=e7be790b-07e4-40f3-b60f-da683b157943"},"vehicle_type_id":"4","last_reported":1719137313,"current_range_meters":15600,"station_id":"","pricing_plan_id":"cebpf4jnsgd1na2vs0mg"},{"bike_id":"a77bf3f1-dc55-4e35-8fe0-6292cee970ef","system_id":"levelo_inurba_marseille","lat":43.33035,"lon":5.39239,"is_reserved":false,"is_disabled":false,"rental_uris":{"android":"levelo://app?vid=a77bf3f1-dc55-4e35-8fe0-6292cee970ef","ios":"levelo://app?vid=a77bf3f1-dc55-4e35-8fe0-6292cee970ef"},"vehicle_type_id":"4","last_reported":1719137313,"current_range_meters":18400,"station_id":"","pricing_plan_id":"cebpf4jnsgd1na2vs0mg"},{"bike_id":"c7243950-7858-4483-af2e-a51805da3814","system_id":"levelo_inurba_marseille","lat":43.301117,"lon":5.398795,"is_reserved":false,"is_disabled":false,"rental_uris":{"android":"levelo://app?vid=c7243950-7858-4483-af2e-a51805da3814","ios":"levelo://app?vid=c7243950-7858-4483-af2e-a51805da3814"},"vehicle_type_id":"4","last_reported":1719137313,"current_range_meters":26800,"station_id":"ce4bh0h2rcd13ifvqd40","pricing_plan_id":"cebpf4jnsgd1na2vs0mg"},{"bike_id":"d5513a81-134e-42d7-9de6-e16014810c67","system_id":"levelo_inurba_marseille","lat":43.301117,"lon":5.398795,"is_reserved":false,"is_disabled":false,"rental_uris":{"android":"levelo://app?vid=d5513a81-134e-42d7-9de6-e16014810c67","ios":"levelo://app?vid=d5513a81-134e-42d7-9de6-e16014810c67"},"vehicle_type_id":"4","last_reported":1719137313,"current_range_meters":4000,"station_id":"ce4bh0h2rcd13ifvqd40","pricing_plan_id":"cebpf4jnsgd1na2vs0mg"},{"bike_id":"1529575d-3c24-4053-9dc4-3fc753c20a3e","system_id":"levelo_inurba_marseille","lat":43.3304,"lon":5.39281,"is_reserved":false,"is_disabled":false,"rental_uris":{"android":"levelo://app?vid=1529575d-3c24-4053-9dc4-3fc753c20a3e","ios":"levelo://app?vid=1529575d-3c24-4053-9dc4-3fc753c20a3e"},"vehicle_type_id":"4","last_reported":1719137313,"current_range_meters":0,"station_id":"","pricing_plan_id":"cebpf4jnsgd1na2vs0mg"},{"bike_id":"5f9f91a7-01d0-461e-ae82-c2044e5254dd","system_id":"levelo_inurba_marseille","lat":43.286961,"lon":5.373785,"is_reserved":false,"is_disabled":false,"rental_uris":{"android":"levelo://app?vid=5f9f91a7-01d0-461e-ae82-c2044e5254dd","ios":"levelo://app?vid=5f9f91a7-01d0-461e-ae82-c2044e5254dd"},"vehicle_type_id":"4","last_reported":1719137313,"current_range_meters":0,"station_id":"ce4bh3p2rcd13ifvqdq0","pricing_plan_id":"cebpf4jnsgd1na2vs0mg"},{"bike_id":"fcb9a5cf-abc2-417e-8d21-6071d13e79a8","system_id":"levelo_inurba_marseille","lat":43.286961,"lon":5.373785,"is_reserved":false,"is_disabled":false,"rental_uris":{"android":"levelo://app?vid=fcb9a5cf-abc2-417e-8d21-6071d13e79a8","ios":"levelo://app?vid=fcb9a5cf-abc2-417e-8d21-6071d13e79a8"},"vehicle_type_id":"4","last_reported":1719137313,"current_range_meters":23600,"station_id":"ce4bh3p2rcd13ifvqdq0","pricing_plan_id":"cebpf4jnsgd1na2vs0mg"},{"bike_id":"4d3856a2-7810-47bd-a7b4-6b41688d79c3","system_id":"levelo_inurba_marseille","lat":43.286591,"lon":5.363346,"is_reserved":false,"is_disabled":false,"rental_uris":{"android":"levelo://app?vid=4d3856a2-7810-47bd-a7b4-6b41688d79c3","ios":"levelo://app?vid=4d3856a2-7810-47bd-a7b4-6b41688d79c3"},"vehicle_type_id":"4","last_reported":1719137313,"current_range_meters":9200,"station_id":"ce4bhah2rcd13ifvqej0","pricing_plan_id":"cebpf4jnsgd1na2vs0mg"},{"bike_id":"86408423-757d-4676-9798-de3108121dd2","system_id":"levelo_inurba_marseille","lat":43.286961,"lon":5.373785,"is_reserved":false,"is_disabled":false,"rental_uris":{"android":"levelo://app?vid=86408423-757d-4676-9798-de3108121dd2","ios":"levelo://app?vid=86408423-757d-4676-9798-de3108121dd2"},"vehicle_type_id":"4","last_reported":1719137313,"current_range_meters":7200,"station_id":"ce4bh3p2rcd13ifvqdq0","pricing_plan_id":"cebpf4jnsgd1na2vs0mg"},{"bike_id":"26c4f680-099f-4f85-8e60-6b168c4d28dc","system_id":"levelo_inurba_marseille","lat":43.286189,"lon":5.370311,"is_reserved":false,"is_disabled":false,"rental_uris":{"android":"levelo://app?vid=26c4f680-099f-4f85-8e60-6b168c4d28dc","ios":"levelo://app?vid=26c4f680-099f-4f85-8e60-6b168c4d28dc"},"vehicle_type_id":"4","last_reported":1719137313,"current_range_meters":12000,"station_id":"","pricing_plan_id":"cebpf4jnsgd1na2vs0mg"},{"bike_id":"9c082f3f-fc27-4a74-a347-626fb17deb50","system_id":"levelo_inurba_marseille","lat":43.31694,"lon":5.404634,"is_reserved":false,"is_disabled":false,"rental_uris":{"android":"levelo://app?vid=9c082f3f-fc27-4a74-a347-626fb17deb50","ios":"levelo://app?vid=9c082f3f-fc27-4a74-a347-626fb17deb50"},"vehicle_type_id":"4","last_reported":1719137313,"current_range_meters":10000,"station_id":"ce4bh012rcd13ifvqd00","pricing_plan_id":"cebpf4jnsgd1na2vs0mg"},{"bike_id":"8d5f3e54-9fbf-474b-a062-c218c9300309","system_id":"levelo_inurba_marseille","lat":43.31698,"lon":5.404685,"is_reserved":false,"is_disabled":false,"rental_uris":{"android":"levelo://app?vid=8d5f3e54-9fbf-474b-a062-c218c9300309","ios":"levelo://app?vid=8d5f3e54-9fbf-474b-a062-c218c9300309"},"vehicle_type_id":"4","last_reported":1719137313,"current_range_meters":4400,"station_id":"ce4bh012rcd13ifvqd00","pricing_plan_id":"cebpf4jnsgd1na2vs0mg"},{"bike_id":"41ec33a5-b1bb-49bf-b807-32af0030cd8e","system_id":"levelo_inurba_marseille","lat":43.316821,"lon":5.404737,"is_reserved":false,"is_disabled":false,"rental_uris":{"android":"levelo://app?vid=41ec33a5-b1bb-49bf-b807-32af0030cd8e","ios":"levelo://app?vid=41ec33a5-b1bb-49bf-b807-32af0030cd8e"},"vehicle_type_id":"4","last_reported":1719137313,"current_range_meters":31200,"station_id":"ce4bh012rcd13ifvqd00","pricing_plan_id":"cebpf4jnsgd1na2vs0mg"},{"bike_id":"967a5647-d275-467b-8b3f-119579d4ca37","system_id":"levelo_inurba_marseille","lat":43.291994,"lon":5.392907,"is_reserved":false,"is_disabled":false,"rental_uris":{"android":"levelo://app?vid=967a5647-d275-467b-8b3f-119579d4ca37","ios":"levelo://app?vid=967a5647-d275-467b-8b3f-119579d4ca37"},"vehicle_type_id":"4","last_reported":1719137313,"current_range_meters":17200,"station_id":"ce4bh192rcd13ifvqdd0","pricing_plan_id":"cebpf4jnsgd1na2vs0mg"},{"bike_id":"4a9a1c82-e87a-4e06-950b-b2ca09d4c1e8","system_id":"levelo_inurba_marseille","lat":43.291994,"lon":5.392907,"is_reserved":false,"is_disabled":false,"rental_uris":{"android":"levelo://app?vid=4a9a1c82-e87a-4e06-950b-b2ca09d4c1e8","ios":"levelo://app?vid=4a9a1c82-e87a-4e06-950b-b2ca09d4c1e8"},"vehicle_type_id":"4","last_reported":1719137313,"current_range_meters":0,"station_id":"ce4bh192rcd13ifvqdd0","pricing_plan_id":"cebpf4jnsgd1na2vs0mg"},{"bike_id":"6ba2f68c-5b25-4dff-ad0d-4214d5eba34e","system_id":"levelo_inurba_marseille","lat":43.304948,"lon":5.404718,"is_reserved":false,"is_disabled":false,"rental_uris":{"android":"levelo://app?vid=6ba2f68c-5b25-4dff-ad0d-4214d5eba34e","ios":"levelo://app?vid=6ba2f68c-5b25-4dff-ad0d-4214d5eba34e"},"vehicle_type_id":"4","last_reported":1719137313,"current_range_meters":25600,"station_id":"","pricing_plan_id":"cebpf4jnsgd1na2vs0mg"},{"bike_id":"69bf03a2-a17e-420e-8420-fa20f4b1c8fe","system_id":"levelo_inurba_marseille","lat":43.30498,"lon":5.40477,"is_reserved":false,"is_disabled":false,"rental_uris":{"android":"levelo://app?vid=69bf03a2-a17e-420e-8420-fa20f4b1c8fe","ios":"levelo://app?vid=69bf03a2-a17e-420e-8420-fa20f4b1c8fe"},"vehicle_type_id":"4","last_reported":1719137313,"current_range_meters":25200,"station_id":"","pricing_plan_id":"cebpf4jnsgd1na2vs0mg"},{"bike_id":"c00b63ec-bf85-4722-98da-5c16ad685589","system_id":"levelo_inurba_marseille","lat":43.285856,"lon":5.350771,"is_reserved":false,"is_disabled":false,"rental_uris":{"android":"levelo://app?vid=c00b63ec-bf85-4722-98da-5c16ad685589","ios":"levelo://app?vid=c00b63ec-bf85-4722-98da-5c16ad685589"},"vehicle_type_id":"4","last_reported":1719137313,"current_range_meters":8000,"station_id":"ce4bhch2rcd13ifvqeug","pricing_plan_id":"cebpf4jnsgd1na2vs0mg"},{"bike_id":"890319be-e155-4820-af61-f67f299e402a","system_id":"levelo_inurba_marseille","lat":43.285856,"lon":5.350771,"is_reserved":false,"is_disabled":false,"rental_uris":{"android":"levelo://app?vid=890319be-e155-4820-af61-f67f299e402a","ios":"levelo://app?vid=890319be-e155-4820-af61-f67f299e402a"},"vehicle_type_id":"4","last_reported":1719137313,"current_range_meters":14800,"station_id":"ce4bhch2rcd13ifvqeug","pricing_plan_id":"cebpf4jnsgd1na2vs0mg"},{"bike_id":"793cb1a8-bf72-46aa-8118-4f1e53584e37","system_id":"levelo_inurba_marseille","lat":43.285856,"lon":5.350771,"is_reserved":false,"is_disabled":false,"rental_uris":{"android":"levelo://app?vid=793cb1a8-bf72-46aa-8118-4f1e53584e37","ios":"levelo://app?vid=793cb1a8-bf72-46aa-8118-4f1e53584e37"},"vehicle_type_id":"4","last_reported":1719137313,"current_range_meters":8000,"station_id":"ce4bhch2rcd13ifvqeug","pricing_plan_id":"cebpf4jnsgd1na2vs0mg"},{"bike_id":"ce98da4c-2b1b-48f7-9158-a1134cce1ce2","system_id":"levelo_inurba_marseille","lat":43.285848,"lon":5.350787,"is_reserved":false,"is_disabled":false,"rental_uris":{"android":"levelo://app?vid=ce98da4c-2b1b-48f7-9158-a1134cce1ce2","ios":"levelo://app?vid=ce98da4c-2b1b-48f7-9158-a1134cce1ce2"},"vehicle_type_id":"4","last_reported":1719137313,"current_range_meters":31200,"station_id":"ce4bhch2rcd13ifvqeug","pricing_plan_id":"cebpf4jnsgd1na2vs0mg"},{"bike_id":"01301b76-ae5d-4a44-bf2c-e71d8ea80bd2","system_id":"levelo_inurba_marseille","lat":43.285848,"lon":5.350787,"is_reserved":false,"is_disabled":false,"rental_uris":{"android":"levelo://app?vid=01301b76-ae5d-4a44-bf2c-e71d8ea80bd2","ios":"levelo://app?vid=01301b76-ae5d-4a44-bf2c-e71d8ea80bd2"},"vehicle_type_id":"4","last_reported":1719137313,"current_range_meters":24800,"station_id":"ce4bhch2rcd13ifvqeug","pricing_plan_id":"cebpf4jnsgd1na2vs0mg"},{"bike_id":"698d39f0-5c0c-4105-a104-3e070e223ef9","system_id":"levelo_inurba_marseille","lat":43.285848,"lon":5.350787,"is_reserved":false,"is_disabled":false,"rental_uris":{"android":"levelo://app?vid=698d39f0-5c0c-4105-a104-3e070e223ef9","ios":"levelo://app?vid=698d39f0-5c0c-4105-a104-3e070e223ef9"},"vehicle_type_id":"4","last_reported":1719137313,"current_range_meters":27200,"station_id":"ce4bhch2rcd13ifvqeug","pricing_plan_id":"cebpf4jnsgd1na2vs0mg"},{"bike_id":"caa83ad5-2e94-452c-be02-9cf626deff88","system_id":"levelo_inurba_marseille","lat":43.285848,"lon":5.350787,"is_reserved":false,"is_disabled":false,"rental_uris":{"android":"levelo://app?vid=caa83ad5-2e94-452c-be02-9cf626deff88","ios":"levelo://app?vid=caa83ad5-2e94-452c-be02-9cf626deff88"},"vehicle_type_id":"4","last_reported":1719137313,"current_range_meters":22800,"station_id":"ce4bhch2rcd13ifvqeug","pricing_plan_id":"cebpf4jnsgd1na2vs0mg"},{"bike_id":"a4223ea3-efde-4c1a-b5b4-64b28a8c5c53","system_id":"levelo_inurba_marseille","lat":43.285856,"lon":5.350771,"is_reserved":false,"is_disabled":false,"rental_uris":{"android":"levelo://app?vid=a4223ea3-efde-4c1a-b5b4-64b28a8c5c53","ios":"levelo://app?vid=a4223ea3-efde-4c1a-b5b4-64b28a8c5c53"},"vehicle_type_id":"4","last_reported":1719137313,"current_range_meters":22800,"station_id":"ce4bhch2rcd13ifvqeug","pricing_plan_id":"cebpf4jnsgd1na2vs0mg"},{"bike_id":"8f9286fe-c252-4625-a10b-fc819d9149d2","system_id":"levelo_inurba_marseille","lat":43.285848,"lon":5.350787,"is_reserved":false,"is_disabled":false,"rental_uris":{"android":"levelo://app?vid=8f9286fe-c252-4625-a10b-fc819d9149d2","ios":"levelo://app?vid=8f9286fe-c252-4625-a10b-fc819d9149d2"},"vehicle_type_id":"4","last_reported":1719137313,"current_range_meters":27600,"station_id":"ce4bhch2rcd13ifvqeug","pricing_plan_id":"cebpf4jnsgd1na2vs0mg"},{"bike_id":"67082bbf-0a42-4807-84d1-7fb860ca9cae","system_id":"levelo_inurba_marseille","lat":43.285848,"lon":5.350787,"is_reserved":false,"is_disabled":false,"rental_uris":{"android":"levelo://app?vid=67082bbf-0a42-4807-84d1-7fb860ca9cae","ios":"levelo://app?vid=67082bbf-0a42-4807-84d1-7fb860ca9cae"},"vehicle_type_id":"4","last_reported":1719137313,"current_range_meters":10800,"station_id":"ce4bhch2rcd13ifvqeug","pricing_plan_id":"cebpf4jnsgd1na2vs0mg"},{"bike_id":"8afe39b8-470f-49a1-bf1a-e11515760e0e","system_id":"levelo_inurba_marseille","lat":43.285848,"lon":5.350787,"is_reserved":false,"is_disabled":false,"rental_uris":{"android":"levelo://app?vid=8afe39b8-470f-49a1-bf1a-e11515760e0e","ios":"levelo://app?vid=8afe39b8-470f-49a1-bf1a-e11515760e0e"},"vehicle_type_id":"4","last_reported":1719137313,"current_range_meters":26800,"station_id":"ce4bhch2rcd13ifvqeug","pricing_plan_id":"cebpf4jnsgd1na2vs0mg"},{"bike_id":"a8ab37d9-2a08-4c10-a6ec-dc23454449f5","system_id":"levelo_inurba_marseille","lat":43.285856,"lon":5.350771,"is_reserved":false,"is_disabled":false,"rental_uris":{"android":"levelo://app?vid=a8ab37d9-2a08-4c10-a6ec-dc23454449f5","ios":"levelo://app?vid=a8ab37d9-2a08-4c10-a6ec-dc23454449f5"},"vehicle_type_id":"4","last_reported":1719137313,"current_range_meters":0,"station_id":"ce4bhch2rcd13ifvqeug","pricing_plan_id":"cebpf4jnsgd1na2vs0mg"},{"bike_id":"6189457d-1db1-424b-9703-f01a8349da9f","system_id":"levelo_inurba_marseille","lat":43.285848,"lon":5.350787,"is_reserved":false,"is_disabled":false,"rental_uris":{"android":"levelo://app?vid=6189457d-1db1-424b-9703-f01a8349da9f","ios":"levelo://app?vid=6189457d-1db1-424b-9703-f01a8349da9f"},"vehicle_type_id":"4","last_reported":1719137313,"current_range_meters":16400,"station_id":"ce4bhch2rcd13ifvqeug","pricing_plan_id":"cebpf4jnsgd1na2vs0mg"},{"bike_id":"6ddb8e77-ca44-49ef-b268-2d9035cbb8e5","system_id":"levelo_inurba_marseille","lat":43.285848,"lon":5.350787,"is_reserved":false,"is_disabled":false,"rental_uris":{"android":"levelo://app?vid=6ddb8e77-ca44-49ef-b268-2d9035cbb8e5","ios":"levelo://app?vid=6ddb8e77-ca44-49ef-b268-2d9035cbb8e5"},"vehicle_type_id":"4","last_reported":1719137313,"current_range_meters":14800,"station_id":"ce4bhch2rcd13ifvqeug","pricing_plan_id":"cebpf4jnsgd1na2vs0mg"},{"bike_id":"afcaaf35-c6d7-4123-a8b1-802797e2538a","system_id":"levelo_inurba_marseille","lat":43.285848,"lon":5.350787,"is_reserved":false,"is_disabled":false,"rental_uris":{"android":"levelo://app?vid=afcaaf35-c6d7-4123-a8b1-802797e2538a","ios":"levelo://app?vid=afcaaf35-c6d7-4123-a8b1-802797e2538a"},"vehicle_type_id":"4","last_reported":1719137313,"current_range_meters":6000,"station_id":"ce4bhch2rcd13ifvqeug","pricing_plan_id":"cebpf4jnsgd1na2vs0mg"},{"bike_id":"28bd3bf6-886d-4869-be62-78cd1f35ce51","system_id":"levelo_inurba_marseille","lat":43.28418,"lon":5.37504,"is_reserved":false,"is_disabled":false,"rental_uris":{"android":"levelo://app?vid=28bd3bf6-886d-4869-be62-78cd1f35ce51","ios":"levelo://app?vid=28bd3bf6-886d-4869-be62-78cd1f35ce51"},"vehicle_type_id":"4","last_reported":1719137313,"current_range_meters":24800,"station_id":"ce4bh412rcd13ifvqds0","pricing_plan_id":"cebpf4jnsgd1na2vs0mg"},{"bike_id":"29e6d129-3267-4a70-b39c-e93f83afef25","system_id":"levelo_inurba_marseille","lat":43.295713,"lon":5.399639,"is_reserved":false,"is_disabled":false,"rental_uris":{"android":"levelo://app?vid=29e6d129-3267-4a70-b39c-e93f83afef25","ios":"levelo://app?vid=29e6d129-3267-4a70-b39c-e93f83afef25"},"vehicle_type_id":"4","last_reported":1719137313,"current_range_meters":13600,"station_id":"ce4bh312rcd13ifvqdj0","pricing_plan_id":"cebpf4jnsgd1na2vs0mg"},{"bike_id":"2ae28f1e-1634-4f1a-8bbf-cd1cebe7fdaf","system_id":"levelo_inurba_marseille","lat":43.319179,"lon":5.407725,"is_reserved":false,"is_disabled":false,"rental_uris":{"android":"levelo://app?vid=2ae28f1e-1634-4f1a-8bbf-cd1cebe7fdaf","ios":"levelo://app?vid=2ae28f1e-1634-4f1a-8bbf-cd1cebe7fdaf"},"vehicle_type_id":"4","last_reported":1719137313,"current_range_meters":30400,"station_id":"ce4bhq12rcd13ifvqhig","pricing_plan_id":"cebpf4jnsgd1na2vs0mg"},{"bike_id":"4c64c572-d00f-41d5-9a30-af239fedcdf8","system_id":"levelo_inurba_marseille","lat":43.319179,"lon":5.407725,"is_reserved":false,"is_disabled":false,"rental_uris":{"android":"levelo://app?vid=4c64c572-d00f-41d5-9a30-af239fedcdf8","ios":"levelo://app?vid=4c64c572-d00f-41d5-9a30-af239fedcdf8"},"vehicle_type_id":"4","last_reported":1719137313,"current_range_meters":29600,"station_id":"ce4bhq12rcd13ifvqhig","pricing_plan_id":"cebpf4jnsgd1na2vs0mg"},{"bike_id":"15865b33-4082-4bf0-beae-4b842a63a0d0","system_id":"levelo_inurba_marseille","lat":43.319179,"lon":5.407725,"is_reserved":false,"is_disabled":false,"rental_uris":{"android":"levelo://app?vid=15865b33-4082-4bf0-beae-4b842a63a0d0","ios":"levelo://app?vid=15865b33-4082-4bf0-beae-4b842a63a0d0"},"vehicle_type_id":"4","last_reported":1719137313,"current_range_meters":26400,"station_id":"ce4bhq12rcd13ifvqhig","pricing_plan_id":"cebpf4jnsgd1na2vs0mg"},{"bike_id":"ada07312-6d89-4269-9d43-04fd7be8912e","system_id":"levelo_inurba_marseille","lat":43.319179,"lon":5.407725,"is_reserved":false,"is_disabled":false,"rental_uris":{"android":"levelo://app?vid=ada07312-6d89-4269-9d43-04fd7be8912e","ios":"levelo://app?vid=ada07312-6d89-4269-9d43-04fd7be8912e"},"vehicle_type_id":"4","last_reported":1719137313,"current_range_meters":24800,"station_id":"ce4bhq12rcd13ifvqhig","pricing_plan_id":"cebpf4jnsgd1na2vs0mg"},{"bike_id":"767b65fd-938d-443b-8d89-f2d3eb508665","system_id":"levelo_inurba_marseille","lat":43.337155,"lon":5.391818,"is_reserved":false,"is_disabled":false,"rental_uris":{"android":"levelo://app?vid=767b65fd-938d-443b-8d89-f2d3eb508665","ios":"levelo://app?vid=767b65fd-938d-443b-8d89-f2d3eb508665"},"vehicle_type_id":"4","last_reported":1719137313,"current_range_meters":16400,"station_id":"ce4bhr92rcd13ifvqhsg","pricing_plan_id":"cebpf4jnsgd1na2vs0mg"},{"bike_id":"7c936375-8047-451b-9f95-3c06bd01c0f6","system_id":"levelo_inurba_marseille","lat":43.33716,"lon":5.39181,"is_reserved":false,"is_disabled":false,"rental_uris":{"android":"levelo://app?vid=7c936375-8047-451b-9f95-3c06bd01c0f6","ios":"levelo://app?vid=7c936375-8047-451b-9f95-3c06bd01c0f6"},"vehicle_type_id":"4","last_reported":1719137313,"current_range_meters":31200,"station_id":"ce4bhr92rcd13ifvqhsg","pricing_plan_id":"cebpf4jnsgd1na2vs0mg"},{"bike_id":"2afdc852-be28-4270-bbce-a91db1d281ca","system_id":"levelo_inurba_marseille","lat":43.33715,"lon":5.39183,"is_reserved":false,"is_disabled":false,"rental_uris":{"android":"levelo://app?vid=2afdc852-be28-4270-bbce-a91db1d281ca","ios":"levelo://app?vid=2afdc852-be28-4270-bbce-a91db1d281ca"},"vehicle_type_id":"4","last_reported":1719137313,"current_range_meters":5200,"station_id":"ce4bhr92rcd13ifvqhsg","pricing_plan_id":"cebpf4jnsgd1na2vs0mg"},{"bike_id":"f3afbcfa-fef5-4566-b335-b95d65d96a32","system_id":"levelo_inurba_marseille","lat":43.33717,"lon":5.39185,"is_reserved":false,"is_disabled":false,"rental_uris":{"android":"levelo://app?vid=f3afbcfa-fef5-4566-b335-b95d65d96a32","ios":"levelo://app?vid=f3afbcfa-fef5-4566-b335-b95d65d96a32"},"vehicle_type_id":"4","last_reported":1719137313,"current_range_meters":400,"station_id":"ce4bhr92rcd13ifvqhsg","pricing_plan_id":"cebpf4jnsgd1na2vs0mg"},{"bike_id":"2f372673-34b6-4d76-8bf4-1257331c3399","system_id":"levelo_inurba_marseille","lat":43.3234,"lon":5.40619,"is_reserved":false,"is_disabled":false,"rental_uris":{"android":"levelo://app?vid=2f372673-34b6-4d76-8bf4-1257331c3399","ios":"levelo://app?vid=2f372673-34b6-4d76-8bf4-1257331c3399"},"vehicle_type_id":"4","last_reported":1719137313,"current_range_meters":0,"station_id":"ce4bhq92rcd13ifvqhjg","pricing_plan_id":"cebpf4jnsgd1na2vs0mg"},{"bike_id":"3720418d-da95-43ab-883e-5ec4534758a0","system_id":"levelo_inurba_marseille","lat":43.337257,"lon":5.391864,"is_reserved":false,"is_disabled":false,"rental_uris":{"android":"levelo://app?vid=3720418d-da95-43ab-883e-5ec4534758a0","ios":"levelo://app?vid=3720418d-da95-43ab-883e-5ec4534758a0"},"vehicle_type_id":"4","last_reported":1719137313,"current_range_meters":6800,"station_id":"ce4bhr92rcd13ifvqhsg","pricing_plan_id":"cebpf4jnsgd1na2vs0mg"},{"bike_id":"77368b7a-bce0-4818-98f2-e0d1bb1fb594","system_id":"levelo_inurba_marseille","lat":43.32337,"lon":5.40625,"is_reserved":false,"is_disabled":false,"rental_uris":{"android":"levelo://app?vid=77368b7a-bce0-4818-98f2-e0d1bb1fb594","ios":"levelo://app?vid=77368b7a-bce0-4818-98f2-e0d1bb1fb594"},"vehicle_type_id":"4","last_reported":1719137313,"current_range_meters":13600,"station_id":"ce4bhq92rcd13ifvqhjg","pricing_plan_id":"cebpf4jnsgd1na2vs0mg"},{"bike_id":"09e48d16-4f46-4490-bd94-128c552ee215","system_id":"levelo_inurba_marseille","lat":43.284787,"lon":5.384116,"is_reserved":false,"is_disabled":false,"rental_uris":{"android":"levelo://app?vid=09e48d16-4f46-4490-bd94-128c552ee215","ios":"levelo://app?vid=09e48d16-4f46-4490-bd94-128c552ee215"},"vehicle_type_id":"4","last_reported":1719137313,"current_range_meters":20400,"station_id":"ce4bh512rcd13ifvqe3g","pricing_plan_id":"cebpf4jnsgd1na2vs0mg"},{"bike_id":"34db2abd-d6dd-423a-aa5d-62c7c4dbed56","system_id":"levelo_inurba_marseille","lat":43.284787,"lon":5.384116,"is_reserved":false,"is_disabled":false,"rental_uris":{"android":"levelo://app?vid=34db2abd-d6dd-423a-aa5d-62c7c4dbed56","ios":"levelo://app?vid=34db2abd-d6dd-423a-aa5d-62c7c4dbed56"},"vehicle_type_id":"4","last_reported":1719137313,"current_range_meters":29200,"station_id":"ce4bh512rcd13ifvqe3g","pricing_plan_id":"cebpf4jnsgd1na2vs0mg"},{"bike_id":"38c64b5d-7fd8-49b6-85b6-b122f2a6a823","system_id":"levelo_inurba_marseille","lat":43.284793,"lon":5.384113,"is_reserved":false,"is_disabled":false,"rental_uris":{"android":"levelo://app?vid=38c64b5d-7fd8-49b6-85b6-b122f2a6a823","ios":"levelo://app?vid=38c64b5d-7fd8-49b6-85b6-b122f2a6a823"},"vehicle_type_id":"4","last_reported":1719137313,"current_range_meters":18800,"station_id":"ce4bh512rcd13ifvqe3g","pricing_plan_id":"cebpf4jnsgd1na2vs0mg"},{"bike_id":"14fab620-0c8f-4eec-abab-201941bb0e63","system_id":"levelo_inurba_marseille","lat":43.284793,"lon":5.384119,"is_reserved":false,"is_disabled":false,"rental_uris":{"android":"levelo://app?vid=14fab620-0c8f-4eec-abab-201941bb0e63","ios":"levelo://app?vid=14fab620-0c8f-4eec-abab-201941bb0e63"},"vehicle_type_id":"4","last_reported":1719137313,"current_range_meters":19200,"station_id":"ce4bh512rcd13ifvqe3g","pricing_plan_id":"cebpf4jnsgd1na2vs0mg"},{"bike_id":"d416fc70-8dfc-4e61-95a9-ab2fa7e89d4e","system_id":"levelo_inurba_marseille","lat":43.288497,"lon":5.393089,"is_reserved":false,"is_disabled":false,"rental_uris":{"android":"levelo://app?vid=d416fc70-8dfc-4e61-95a9-ab2fa7e89d4e","ios":"levelo://app?vid=d416fc70-8dfc-4e61-95a9-ab2fa7e89d4e"},"vehicle_type_id":"4","last_reported":1719137313,"current_range_meters":7200,"station_id":"ce4bh2p2rcd13ifvqdi0","pricing_plan_id":"cebpf4jnsgd1na2vs0mg"},{"bike_id":"e7f81104-0093-47eb-879a-339c8d65b7aa","system_id":"levelo_inurba_marseille","lat":43.288497,"lon":5.393089,"is_reserved":false,"is_disabled":false,"rental_uris":{"android":"levelo://app?vid=e7f81104-0093-47eb-879a-339c8d65b7aa","ios":"levelo://app?vid=e7f81104-0093-47eb-879a-339c8d65b7aa"},"vehicle_type_id":"4","last_reported":1719137313,"current_range_meters":10000,"station_id":"ce4bh2p2rcd13ifvqdi0","pricing_plan_id":"cebpf4jnsgd1na2vs0mg"},{"bike_id":"226053d6-6280-4c40-9ebc-664e91382ad1","system_id":"levelo_inurba_marseille","lat":43.28426,"lon":5.34982,"is_reserved":false,"is_disabled":false,"rental_uris":{"android":"levelo://app?vid=226053d6-6280-4c40-9ebc-664e91382ad1","ios":"levelo://app?vid=226053d6-6280-4c40-9ebc-664e91382ad1"},"vehicle_type_id":"4","last_reported":1719137313,"current_range_meters":25600,"station_id":"ce4bhbh2rcd13ifvqepg","pricing_plan_id":"cebpf4jnsgd1na2vs0mg"},{"bike_id":"9a3b38d2-e258-4431-9e64-3806520cfeb1","system_id":"levelo_inurba_marseille","lat":43.28424,"lon":5.34987,"is_reserved":false,"is_disabled":false,"rental_uris":{"android":"levelo://app?vid=9a3b38d2-e258-4431-9e64-3806520cfeb1","ios":"levelo://app?vid=9a3b38d2-e258-4431-9e64-3806520cfeb1"},"vehicle_type_id":"4","last_reported":1719137313,"current_range_meters":26800,"station_id":"ce4bhbh2rcd13ifvqepg","pricing_plan_id":"cebpf4jnsgd1na2vs0mg"},{"bike_id":"7d519584-725d-4c17-b282-9a9dc3533303","system_id":"levelo_inurba_marseille","lat":43.284217,"lon":5.349697,"is_reserved":false,"is_disabled":false,"rental_uris":{"android":"levelo://app?vid=7d519584-725d-4c17-b282-9a9dc3533303","ios":"levelo://app?vid=7d519584-725d-4c17-b282-9a9dc3533303"},"vehicle_type_id":"4","last_reported":1719137313,"current_range_meters":32000,"station_id":"ce4bhbh2rcd13ifvqepg","pricing_plan_id":"cebpf4jnsgd1na2vs0mg"},{"bike_id":"dc2d463f-1b27-4101-b4a9-3d5ab9dc7d10","system_id":"levelo_inurba_marseille","lat":43.284214,"lon":5.349706,"is_reserved":false,"is_disabled":false,"rental_uris":{"android":"levelo://app?vid=dc2d463f-1b27-4101-b4a9-3d5ab9dc7d10","ios":"levelo://app?vid=dc2d463f-1b27-4101-b4a9-3d5ab9dc7d10"},"vehicle_type_id":"4","last_reported":1719137313,"current_range_meters":30400,"station_id":"ce4bhbh2rcd13ifvqepg","pricing_plan_id":"cebpf4jnsgd1na2vs0mg"},{"bike_id":"c320cd45-492c-4cf8-982a-e946d37b3e21","system_id":"levelo_inurba_marseille","lat":43.284217,"lon":5.349697,"is_reserved":false,"is_disabled":false,"rental_uris":{"android":"levelo://app?vid=c320cd45-492c-4cf8-982a-e946d37b3e21","ios":"levelo://app?vid=c320cd45-492c-4cf8-982a-e946d37b3e21"},"vehicle_type_id":"4","last_reported":1719137313,"current_range_meters":4000,"station_id":"ce4bhbh2rcd13ifvqepg","pricing_plan_id":"cebpf4jnsgd1na2vs0mg"},{"bike_id":"9664aec4-2609-4311-8815-d85b847650c4","system_id":"levelo_inurba_marseille","lat":43.284217,"lon":5.349697,"is_reserved":false,"is_disabled":false,"rental_uris":{"android":"levelo://app?vid=9664aec4-2609-4311-8815-d85b847650c4","ios":"levelo://app?vid=9664aec4-2609-4311-8815-d85b847650c4"},"vehicle_type_id":"4","last_reported":1719137313,"current_range_meters":11200,"station_id":"ce4bhbh2rcd13ifvqepg","pricing_plan_id":"cebpf4jnsgd1na2vs0mg"},{"bike_id":"d93f52e9-f3d4-4524-811d-8d86437e5038","system_id":"levelo_inurba_marseille","lat":43.284219,"lon":5.3497,"is_reserved":false,"is_disabled":false,"rental_uris":{"android":"levelo://app?vid=d93f52e9-f3d4-4524-811d-8d86437e5038","ios":"levelo://app?vid=d93f52e9-f3d4-4524-811d-8d86437e5038"},"vehicle_type_id":"4","last_reported":1719137313,"current_range_meters":24400,"station_id":"ce4bhbh2rcd13ifvqepg","pricing_plan_id":"cebpf4jnsgd1na2vs0mg"},{"bike_id":"89d2d7b2-ec79-4f98-a943-34670f05e315","system_id":"levelo_inurba_marseille","lat":43.284219,"lon":5.3497,"is_reserved":false,"is_disabled":false,"rental_uris":{"android":"levelo://app?vid=89d2d7b2-ec79-4f98-a943-34670f05e315","ios":"levelo://app?vid=89d2d7b2-ec79-4f98-a943-34670f05e315"},"vehicle_type_id":"4","last_reported":1719137313,"current_range_meters":10000,"station_id":"ce4bhbh2rcd13ifvqepg","pricing_plan_id":"cebpf4jnsgd1na2vs0mg"},{"bike_id":"3227355a-3326-4911-95e0-d8a33f8bfba4","system_id":"levelo_inurba_marseille","lat":43.284217,"lon":5.349697,"is_reserved":false,"is_disabled":false,"rental_uris":{"android":"levelo://app?vid=3227355a-3326-4911-95e0-d8a33f8bfba4","ios":"levelo://app?vid=3227355a-3326-4911-95e0-d8a33f8bfba4"},"vehicle_type_id":"4","last_reported":1719137313,"current_range_meters":14800,"station_id":"ce4bhbh2rcd13ifvqepg","pricing_plan_id":"cebpf4jnsgd1na2vs0mg"},{"bike_id":"5ed26713-616a-46f2-a972-55a221a97768","system_id":"levelo_inurba_marseille","lat":43.284217,"lon":5.349697,"is_reserved":false,"is_disabled":false,"rental_uris":{"android":"levelo://app?vid=5ed26713-616a-46f2-a972-55a221a97768","ios":"levelo://app?vid=5ed26713-616a-46f2-a972-55a221a97768"},"vehicle_type_id":"4","last_reported":1719137313,"current_range_meters":7200,"station_id":"ce4bhbh2rcd13ifvqepg","pricing_plan_id":"cebpf4jnsgd1na2vs0mg"},{"bike_id":"4a07e63a-1fdb-48d5-8675-eb51b34185e6","system_id":"levelo_inurba_marseille","lat":43.284219,"lon":5.3497,"is_reserved":false,"is_disabled":false,"rental_uris":{"android":"levelo://app?vid=4a07e63a-1fdb-48d5-8675-eb51b34185e6","ios":"levelo://app?vid=4a07e63a-1fdb-48d5-8675-eb51b34185e6"},"vehicle_type_id":"4","last_reported":1719137313,"current_range_meters":20000,"station_id":"ce4bhbh2rcd13ifvqepg","pricing_plan_id":"cebpf4jnsgd1na2vs0mg"},{"bike_id":"85a7aa0c-a71a-4254-9918-b7497f342de7","system_id":"levelo_inurba_marseille","lat":43.284217,"lon":5.349697,"is_reserved":false,"is_disabled":false,"rental_uris":{"android":"levelo://app?vid=85a7aa0c-a71a-4254-9918-b7497f342de7","ios":"levelo://app?vid=85a7aa0c-a71a-4254-9918-b7497f342de7"},"vehicle_type_id":"4","last_reported":1719137313,"current_range_meters":22000,"station_id":"ce4bhbh2rcd13ifvqepg","pricing_plan_id":"cebpf4jnsgd1na2vs0mg"},{"bike_id":"b3937e56-f839-4f16-a32e-114c687ced4a","system_id":"levelo_inurba_marseille","lat":43.284217,"lon":5.349697,"is_reserved":false,"is_disabled":false,"rental_uris":{"android":"levelo://app?vid=b3937e56-f839-4f16-a32e-114c687ced4a","ios":"levelo://app?vid=b3937e56-f839-4f16-a32e-114c687ced4a"},"vehicle_type_id":"4","last_reported":1719137313,"current_range_meters":800,"station_id":"ce4bhbh2rcd13ifvqepg","pricing_plan_id":"cebpf4jnsgd1na2vs0mg"},{"bike_id":"84e91ba7-cbe3-4c83-81bb-1cad647d8d43","system_id":"levelo_inurba_marseille","lat":43.28415,"lon":5.3498,"is_reserved":false,"is_disabled":false,"rental_uris":{"android":"levelo://app?vid=84e91ba7-cbe3-4c83-81bb-1cad647d8d43","ios":"levelo://app?vid=84e91ba7-cbe3-4c83-81bb-1cad647d8d43"},"vehicle_type_id":"4","last_reported":1719137313,"current_range_meters":14800,"station_id":"ce4bhbh2rcd13ifvqepg","pricing_plan_id":"cebpf4jnsgd1na2vs0mg"},{"bike_id":"3a0d0980-fb5d-4d32-b92c-d91bf0423260","system_id":"levelo_inurba_marseille","lat":43.28417,"lon":5.34973,"is_reserved":false,"is_disabled":false,"rental_uris":{"android":"levelo://app?vid=3a0d0980-fb5d-4d32-b92c-d91bf0423260","ios":"levelo://app?vid=3a0d0980-fb5d-4d32-b92c-d91bf0423260"},"vehicle_type_id":"4","last_reported":1719137313,"current_range_meters":18000,"station_id":"ce4bhbh2rcd13ifvqepg","pricing_plan_id":"cebpf4jnsgd1na2vs0mg"},{"bike_id":"b14f6c9f-1d9e-4637-a061-5a16c35d1b57","system_id":"levelo_inurba_marseille","lat":43.28412,"lon":5.34985,"is_reserved":false,"is_disabled":false,"rental_uris":{"android":"levelo://app?vid=b14f6c9f-1d9e-4637-a061-5a16c35d1b57","ios":"levelo://app?vid=b14f6c9f-1d9e-4637-a061-5a16c35d1b57"},"vehicle_type_id":"4","last_reported":1719137313,"current_range_meters":8000,"station_id":"ce4bhbh2rcd13ifvqepg","pricing_plan_id":"cebpf4jnsgd1na2vs0mg"},{"bike_id":"46923caa-5270-4bdc-b3ab-40f95ed8e29f","system_id":"levelo_inurba_marseille","lat":43.28412,"lon":5.34985,"is_reserved":false,"is_disabled":false,"rental_uris":{"android":"levelo://app?vid=46923caa-5270-4bdc-b3ab-40f95ed8e29f","ios":"levelo://app?vid=46923caa-5270-4bdc-b3ab-40f95ed8e29f"},"vehicle_type_id":"4","last_reported":1719137313,"current_range_meters":0,"station_id":"ce4bhbh2rcd13ifvqepg","pricing_plan_id":"cebpf4jnsgd1na2vs0mg"},{"bike_id":"4be157d7-d01f-454a-a69b-bacc592334e6","system_id":"levelo_inurba_marseille","lat":43.28415,"lon":5.34974,"is_reserved":false,"is_disabled":false,"rental_uris":{"android":"levelo://app?vid=4be157d7-d01f-454a-a69b-bacc592334e6","ios":"levelo://app?vid=4be157d7-d01f-454a-a69b-bacc592334e6"},"vehicle_type_id":"4","last_reported":1719137313,"current_range_meters":22800,"station_id":"ce4bhbh2rcd13ifvqepg","pricing_plan_id":"cebpf4jnsgd1na2vs0mg"},{"bike_id":"4031632d-8c38-476f-bb4d-7b07422fbae7","system_id":"levelo_inurba_marseille","lat":43.284219,"lon":5.3497,"is_reserved":false,"is_disabled":false,"rental_uris":{"android":"levelo://app?vid=4031632d-8c38-476f-bb4d-7b07422fbae7","ios":"levelo://app?vid=4031632d-8c38-476f-bb4d-7b07422fbae7"},"vehicle_type_id":"4","last_reported":1719137313,"current_range_meters":21200,"station_id":"ce4bhbh2rcd13ifvqepg","pricing_plan_id":"cebpf4jnsgd1na2vs0mg"},{"bike_id":"9deaf663-f83a-40c0-88b9-45376bf5cd72","system_id":"levelo_inurba_marseille","lat":43.284217,"lon":5.349697,"is_reserved":false,"is_disabled":false,"rental_uris":{"android":"levelo://app?vid=9deaf663-f83a-40c0-88b9-45376bf5cd72","ios":"levelo://app?vid=9deaf663-f83a-40c0-88b9-45376bf5cd72"},"vehicle_type_id":"4","last_reported":1719137313,"current_range_meters":21200,"station_id":"ce4bhbh2rcd13ifvqepg","pricing_plan_id":"cebpf4jnsgd1na2vs0mg"},{"bike_id":"ddcd7f24-60e6-4508-970a-9e77d7f08de2","system_id":"levelo_inurba_marseille","lat":43.28412,"lon":5.34978,"is_reserved":false,"is_disabled":false,"rental_uris":{"android":"levelo://app?vid=ddcd7f24-60e6-4508-970a-9e77d7f08de2","ios":"levelo://app?vid=ddcd7f24-60e6-4508-970a-9e77d7f08de2"},"vehicle_type_id":"4","last_reported":1719137313,"current_range_meters":4000,"station_id":"ce4bhbh2rcd13ifvqepg","pricing_plan_id":"cebpf4jnsgd1na2vs0mg"},{"bike_id":"7e8affc1-d43b-44e1-85e5-c26242b1e511","system_id":"levelo_inurba_marseille","lat":43.28408,"lon":5.34986,"is_reserved":false,"is_disabled":false,"rental_uris":{"android":"levelo://app?vid=7e8affc1-d43b-44e1-85e5-c26242b1e511","ios":"levelo://app?vid=7e8affc1-d43b-44e1-85e5-c26242b1e511"},"vehicle_type_id":"4","last_reported":1719137313,"current_range_meters":29600,"station_id":"ce4bhbh2rcd13ifvqepg","pricing_plan_id":"cebpf4jnsgd1na2vs0mg"},{"bike_id":"cc682662-7c71-4cda-ac92-b1f3ddeb9387","system_id":"levelo_inurba_marseille","lat":43.284219,"lon":5.3497,"is_reserved":false,"is_disabled":false,"rental_uris":{"android":"levelo://app?vid=cc682662-7c71-4cda-ac92-b1f3ddeb9387","ios":"levelo://app?vid=cc682662-7c71-4cda-ac92-b1f3ddeb9387"},"vehicle_type_id":"4","last_reported":1719137313,"current_range_meters":1200,"station_id":"ce4bhbh2rcd13ifvqepg","pricing_plan_id":"cebpf4jnsgd1na2vs0mg"},{"bike_id":"9b219efc-6a0e-4f26-be97-ede93225b821","system_id":"levelo_inurba_marseille","lat":43.284219,"lon":5.3497,"is_reserved":false,"is_disabled":false,"rental_uris":{"android":"levelo://app?vid=9b219efc-6a0e-4f26-be97-ede93225b821","ios":"levelo://app?vid=9b219efc-6a0e-4f26-be97-ede93225b821"},"vehicle_type_id":"4","last_reported":1719137313,"current_range_meters":25200,"station_id":"ce4bhbh2rcd13ifvqepg","pricing_plan_id":"cebpf4jnsgd1na2vs0mg"},{"bike_id":"c17f5b1e-30ed-4877-b501-b594f427db71","system_id":"levelo_inurba_marseille","lat":43.28277,"lon":5.35067,"is_reserved":false,"is_disabled":false,"rental_uris":{"android":"levelo://app?vid=c17f5b1e-30ed-4877-b501-b594f427db71","ios":"levelo://app?vid=c17f5b1e-30ed-4877-b501-b594f427db71"},"vehicle_type_id":"4","last_reported":1719137313,"current_range_meters":3600,"station_id":"ce4bhbp2rcd13ifvqerg","pricing_plan_id":"cebpf4jnsgd1na2vs0mg"},{"bike_id":"7f10e06c-7721-49d7-a647-033ee33e71a8","system_id":"levelo_inurba_marseille","lat":43.282715,"lon":5.350628,"is_reserved":false,"is_disabled":false,"rental_uris":{"android":"levelo://app?vid=7f10e06c-7721-49d7-a647-033ee33e71a8","ios":"levelo://app?vid=7f10e06c-7721-49d7-a647-033ee33e71a8"},"vehicle_type_id":"4","last_reported":1719137313,"current_range_meters":24800,"station_id":"ce4bhbp2rcd13ifvqerg","pricing_plan_id":"cebpf4jnsgd1na2vs0mg"},{"bike_id":"56995fd1-eae6-413f-9f4e-8b82035eabc9","system_id":"levelo_inurba_marseille","lat":43.282699,"lon":5.350673,"is_reserved":false,"is_disabled":false,"rental_uris":{"android":"levelo://app?vid=56995fd1-eae6-413f-9f4e-8b82035eabc9","ios":"levelo://app?vid=56995fd1-eae6-413f-9f4e-8b82035eabc9"},"vehicle_type_id":"4","last_reported":1719137313,"current_range_meters":26800,"station_id":"ce4bhbp2rcd13ifvqerg","pricing_plan_id":"cebpf4jnsgd1na2vs0mg"},{"bike_id":"854b3e10-c834-4a44-84c4-c460d0e05553","system_id":"levelo_inurba_marseille","lat":43.28271,"lon":5.35061,"is_reserved":false,"is_disabled":false,"rental_uris":{"android":"levelo://app?vid=854b3e10-c834-4a44-84c4-c460d0e05553","ios":"levelo://app?vid=854b3e10-c834-4a44-84c4-c460d0e05553"},"vehicle_type_id":"4","last_reported":1719137313,"current_range_meters":20800,"station_id":"ce4bhbp2rcd13ifvqerg","pricing_plan_id":"cebpf4jnsgd1na2vs0mg"},{"bike_id":"dc92a623-8543-456f-ba77-eb35095aa2ee","system_id":"levelo_inurba_marseille","lat":43.282684,"lon":5.350697,"is_reserved":false,"is_disabled":false,"rental_uris":{"android":"levelo://app?vid=dc92a623-8543-456f-ba77-eb35095aa2ee","ios":"levelo://app?vid=dc92a623-8543-456f-ba77-eb35095aa2ee"},"vehicle_type_id":"4","last_reported":1719137313,"current_range_meters":8800,"station_id":"ce4bhbp2rcd13ifvqerg","pricing_plan_id":"cebpf4jnsgd1na2vs0mg"},{"bike_id":"ee0f2bf9-9b18-423b-969f-4dd2190fd593","system_id":"levelo_inurba_marseille","lat":43.2827,"lon":5.35062,"is_reserved":false,"is_disabled":false,"rental_uris":{"android":"levelo://app?vid=ee0f2bf9-9b18-423b-969f-4dd2190fd593","ios":"levelo://app?vid=ee0f2bf9-9b18-423b-969f-4dd2190fd593"},"vehicle_type_id":"4","last_reported":1719137313,"current_range_meters":11600,"station_id":"ce4bhbp2rcd13ifvqerg","pricing_plan_id":"cebpf4jnsgd1na2vs0mg"},{"bike_id":"9093ad8b-a087-40d9-ba6b-fc7ba6bc917d","system_id":"levelo_inurba_marseille","lat":43.282744,"lon":5.350533,"is_reserved":false,"is_disabled":false,"rental_uris":{"android":"levelo://app?vid=9093ad8b-a087-40d9-ba6b-fc7ba6bc917d","ios":"levelo://app?vid=9093ad8b-a087-40d9-ba6b-fc7ba6bc917d"},"vehicle_type_id":"4","last_reported":1719137313,"current_range_meters":28400,"station_id":"ce4bhbp2rcd13ifvqerg","pricing_plan_id":"cebpf4jnsgd1na2vs0mg"},{"bike_id":"5ae0e3b3-06dd-4452-83da-d07b19da03e5","system_id":"levelo_inurba_marseille","lat":43.28269,"lon":5.35063,"is_reserved":false,"is_disabled":false,"rental_uris":{"android":"levelo://app?vid=5ae0e3b3-06dd-4452-83da-d07b19da03e5","ios":"levelo://app?vid=5ae0e3b3-06dd-4452-83da-d07b19da03e5"},"vehicle_type_id":"4","last_reported":1719137313,"current_range_meters":11200,"station_id":"ce4bhbp2rcd13ifvqerg","pricing_plan_id":"cebpf4jnsgd1na2vs0mg"},{"bike_id":"a9114239-0eb3-4508-8794-0cd637cc5c5a","system_id":"levelo_inurba_marseille","lat":43.282744,"lon":5.350533,"is_reserved":false,"is_disabled":false,"rental_uris":{"android":"levelo://app?vid=a9114239-0eb3-4508-8794-0cd637cc5c5a","ios":"levelo://app?vid=a9114239-0eb3-4508-8794-0cd637cc5c5a"},"vehicle_type_id":"4","last_reported":1719137313,"current_range_meters":7200,"station_id":"ce4bhbp2rcd13ifvqerg","pricing_plan_id":"cebpf4jnsgd1na2vs0mg"},{"bike_id":"3131563f-2081-4bfb-abaa-c69441f9db3d","system_id":"levelo_inurba_marseille","lat":43.282744,"lon":5.350533,"is_reserved":false,"is_disabled":false,"rental_uris":{"android":"levelo://app?vid=3131563f-2081-4bfb-abaa-c69441f9db3d","ios":"levelo://app?vid=3131563f-2081-4bfb-abaa-c69441f9db3d"},"vehicle_type_id":"4","last_reported":1719137313,"current_range_meters":1600,"station_id":"ce4bhbp2rcd13ifvqerg","pricing_plan_id":"cebpf4jnsgd1na2vs0mg"},{"bike_id":"a68828ae-cd8b-4c38-9bf7-4efdfd72ee01","system_id":"levelo_inurba_marseille","lat":43.282744,"lon":5.350533,"is_reserved":false,"is_disabled":false,"rental_uris":{"android":"levelo://app?vid=a68828ae-cd8b-4c38-9bf7-4efdfd72ee01","ios":"levelo://app?vid=a68828ae-cd8b-4c38-9bf7-4efdfd72ee01"},"vehicle_type_id":"4","last_reported":1719137313,"current_range_meters":28000,"station_id":"ce4bhbp2rcd13ifvqerg","pricing_plan_id":"cebpf4jnsgd1na2vs0mg"},{"bike_id":"8f0a88da-c711-4b4a-aa1b-d466962daaf1","system_id":"levelo_inurba_marseille","lat":43.282744,"lon":5.350533,"is_reserved":false,"is_disabled":false,"rental_uris":{"android":"levelo://app?vid=8f0a88da-c711-4b4a-aa1b-d466962daaf1","ios":"levelo://app?vid=8f0a88da-c711-4b4a-aa1b-d466962daaf1"},"vehicle_type_id":"4","last_reported":1719137313,"current_range_meters":25200,"station_id":"ce4bhbp2rcd13ifvqerg","pricing_plan_id":"cebpf4jnsgd1na2vs0mg"},{"bike_id":"d9e0c6dc-7b79-4b04-bd2e-1d8b70e28386","system_id":"levelo_inurba_marseille","lat":43.282683,"lon":5.3506,"is_reserved":false,"is_disabled":false,"rental_uris":{"android":"levelo://app?vid=d9e0c6dc-7b79-4b04-bd2e-1d8b70e28386","ios":"levelo://app?vid=d9e0c6dc-7b79-4b04-bd2e-1d8b70e28386"},"vehicle_type_id":"4","last_reported":1719137313,"current_range_meters":20800,"station_id":"ce4bhbp2rcd13ifvqerg","pricing_plan_id":"cebpf4jnsgd1na2vs0mg"},{"bike_id":"87efef77-0337-4307-a6f9-46c67dfbe10e","system_id":"levelo_inurba_marseille","lat":43.282659,"lon":5.350656,"is_reserved":false,"is_disabled":false,"rental_uris":{"android":"levelo://app?vid=87efef77-0337-4307-a6f9-46c67dfbe10e","ios":"levelo://app?vid=87efef77-0337-4307-a6f9-46c67dfbe10e"},"vehicle_type_id":"4","last_reported":1719137313,"current_range_meters":26400,"station_id":"ce4bhbp2rcd13ifvqerg","pricing_plan_id":"cebpf4jnsgd1na2vs0mg"},{"bike_id":"768e5469-a0e1-44f5-9670-5daf2643b561","system_id":"levelo_inurba_marseille","lat":43.282744,"lon":5.350533,"is_reserved":false,"is_disabled":false,"rental_uris":{"android":"levelo://app?vid=768e5469-a0e1-44f5-9670-5daf2643b561","ios":"levelo://app?vid=768e5469-a0e1-44f5-9670-5daf2643b561"},"vehicle_type_id":"4","last_reported":1719137313,"current_range_meters":2800,"station_id":"ce4bhbp2rcd13ifvqerg","pricing_plan_id":"cebpf4jnsgd1na2vs0mg"},{"bike_id":"6dc16145-0659-414f-a40d-40bc745b0c02","system_id":"levelo_inurba_marseille","lat":43.282744,"lon":5.350533,"is_reserved":false,"is_disabled":false,"rental_uris":{"android":"levelo://app?vid=6dc16145-0659-414f-a40d-40bc745b0c02","ios":"levelo://app?vid=6dc16145-0659-414f-a40d-40bc745b0c02"},"vehicle_type_id":"4","last_reported":1719137313,"current_range_meters":28400,"station_id":"ce4bhbp2rcd13ifvqerg","pricing_plan_id":"cebpf4jnsgd1na2vs0mg"},{"bike_id":"c5992670-c545-4c23-9824-8d9629be40a1","system_id":"levelo_inurba_marseille","lat":43.282744,"lon":5.350533,"is_reserved":false,"is_disabled":false,"rental_uris":{"android":"levelo://app?vid=c5992670-c545-4c23-9824-8d9629be40a1","ios":"levelo://app?vid=c5992670-c545-4c23-9824-8d9629be40a1"},"vehicle_type_id":"4","last_reported":1719137313,"current_range_meters":29600,"station_id":"ce4bhbp2rcd13ifvqerg","pricing_plan_id":"cebpf4jnsgd1na2vs0mg"},{"bike_id":"4fd4fdd8-95a8-40e9-bba6-3952051b9aa2","system_id":"levelo_inurba_marseille","lat":43.282744,"lon":5.350533,"is_reserved":false,"is_disabled":false,"rental_uris":{"android":"levelo://app?vid=4fd4fdd8-95a8-40e9-bba6-3952051b9aa2","ios":"levelo://app?vid=4fd4fdd8-95a8-40e9-bba6-3952051b9aa2"},"vehicle_type_id":"4","last_reported":1719137313,"current_range_meters":2000,"station_id":"ce4bhbp2rcd13ifvqerg","pricing_plan_id":"cebpf4jnsgd1na2vs0mg"},{"bike_id":"e67310d7-ff66-429e-a9c0-0ca47e41cadf","system_id":"levelo_inurba_marseille","lat":43.282744,"lon":5.350533,"is_reserved":false,"is_disabled":false,"rental_uris":{"android":"levelo://app?vid=e67310d7-ff66-429e-a9c0-0ca47e41cadf","ios":"levelo://app?vid=e67310d7-ff66-429e-a9c0-0ca47e41cadf"},"vehicle_type_id":"4","last_reported":1719137313,"current_range_meters":14800,"station_id":"ce4bhbp2rcd13ifvqerg","pricing_plan_id":"cebpf4jnsgd1na2vs0mg"},{"bike_id":"e5bf21e8-0027-4953-9030-b23eb55b1407","system_id":"levelo_inurba_marseille","lat":43.283502,"lon":5.386471,"is_reserved":false,"is_disabled":false,"rental_uris":{"android":"levelo://app?vid=e5bf21e8-0027-4953-9030-b23eb55b1407","ios":"levelo://app?vid=e5bf21e8-0027-4953-9030-b23eb55b1407"},"vehicle_type_id":"4","last_reported":1719137313,"current_range_meters":19200,"station_id":"ce4bh492rcd13ifvqdvg","pricing_plan_id":"cebpf4jnsgd1na2vs0mg"},{"bike_id":"20b34d35-1853-4c50-a2c9-b5c8bf8743cc","system_id":"levelo_inurba_marseille","lat":43.28266,"lon":5.3506,"is_reserved":false,"is_disabled":false,"rental_uris":{"android":"levelo://app?vid=20b34d35-1853-4c50-a2c9-b5c8bf8743cc","ios":"levelo://app?vid=20b34d35-1853-4c50-a2c9-b5c8bf8743cc"},"vehicle_type_id":"4","last_reported":1719137313,"current_range_meters":25600,"station_id":"ce4bhbp2rcd13ifvqerg","pricing_plan_id":"cebpf4jnsgd1na2vs0mg"},{"bike_id":"b1793149-3a8a-4fd4-b687-8878db876a5d","system_id":"levelo_inurba_marseille","lat":43.283638,"lon":5.386313,"is_reserved":false,"is_disabled":false,"rental_uris":{"android":"levelo://app?vid=b1793149-3a8a-4fd4-b687-8878db876a5d","ios":"levelo://app?vid=b1793149-3a8a-4fd4-b687-8878db876a5d"},"vehicle_type_id":"4","last_reported":1719137313,"current_range_meters":0,"station_id":"ce4bh492rcd13ifvqdvg","pricing_plan_id":"cebpf4jnsgd1na2vs0mg"},{"bike_id":"4b3c1605-f112-4453-925a-09d7c585454e","system_id":"levelo_inurba_marseille","lat":43.28265,"lon":5.35061,"is_reserved":false,"is_disabled":false,"rental_uris":{"android":"levelo://app?vid=4b3c1605-f112-4453-925a-09d7c585454e","ios":"levelo://app?vid=4b3c1605-f112-4453-925a-09d7c585454e"},"vehicle_type_id":"4","last_reported":1719137313,"current_range_meters":8800,"station_id":"ce4bhbp2rcd13ifvqerg","pricing_plan_id":"cebpf4jnsgd1na2vs0mg"},