{"last_updated":1750273662,"ttl":60,"version":"2.2","data":{"bikes":[{"bike_id":"3da29fb8-fc97-44c6-b9ac-31dd456b2fd4","system_id":"levelo_inurba_marseille","lat":43.33771,"lon":5.37424,"is_reserved":false,"is_disabled":true,"rental_uris":{"android":"levelo://app?vid=3da29fb8-fc97-44c6-b9ac-31dd456b2fd4","ios":"levelo://app?vid=3da29fb8-fc97-44c6-b9ac-31dd456b2fd4"},"vehicle_type_id":"4","last_reported":1750273662,"current_range_meters":0,"station_id":"","pricing_plan_id":"cebpf4jnsgd1na2vs0mg"},{"bike_id":"01861ad8-a8d7-4be6-816e-651927c87584","system_id":"levelo_inurba_marseille","lat":43.33751,"lon":5.37456,"is_reserved":false,"is_disabled":true,"rental_uris":{"android":"levelo://app?vid=01861ad8-a8d7-4be6-816e-651927c87584","ios":"levelo://app?vid=01861ad8-a8d7-4be6-816e-651927c87584"},"vehicle_type_id":"4","last_reported":1750273662,"current_range_meters":0,"station_id":"","pricing_plan_id":"cebpf4jnsgd1na2vs0mg"},{"bike_id":"dbfce7a3-3423-4296-b193-a177dea644ac","system_id":"levelo_inurba_marseille","lat":43.27296,"lon":5.41625,"is_reserved":false,"is_disabled":true,"rental_uris":{"android":"levelo://app?vid=dbfce7a3-3423-4296-b193-a177dea644ac","ios":"levelo://app?vid=dbfce7a3-3423-4296-b193-a177dea644ac"},"vehicle_type_id":"4","last_reported":1750273662,"current_range_meters":0,"station_id":"","pricing_plan_id":"cebpf4jnsgd1na2vs0mg"},{"bike_id":"eff675e9-75ca-47c9-bd95-5090bc060d4f","system_id":"levelo_inurba_marseille","lat":43.3406,"lon":5.36162,"is_reserved":false,"is_disabled":true,"rental_uris":{"android":"levelo://app?vid=eff675e9-75ca-47c9-bd95-5090bc060d4f","ios":"levelo://app?vid=eff675e9-75ca-47c9-bd95-5090bc060d4f"},"vehicle_type_id":"4","last_reported":1750273662,"current_range_meters":0,"station_id":"","pricing_plan_id":"cebpf4jnsgd1na2vs0mg"},{"bike_id":"d2bd57c8-6b64-48db-ad24-5398eb3fd9d6","system_id":"levelo_inurba_marseille","lat":43.337444,"lon":5.374475,"is_reserved":false,"is_disabled":true,"rental_uris":{"android":"levelo://app?vid=d2bd57c8-6b64-48db-ad24-5398eb3fd9d6","ios":"levelo://app?vid=d2bd57c8-6b64-48db-ad24-5398eb3fd9d6"},"vehicle_type_id":"4","last_reported":1750273662,"current_range_meters":0,"station_id":"","pricing_plan_id":"cebpf4jnsgd1na2vs0mg"},{"bike_id":"62a493c7-4534-4419-ad43-0582de34a72a","system_id":"levelo_inurba_marseille","lat":43.21366,"lon":5.355183,"is_reserved":false,"is_disabled":true,"rental_uris":{"android":"levelo://app?vid=62a493c7-4534-4419-ad43-0582de34a72a","ios":"levelo://app?vid=62a493c7-4534-4419-ad43-0582de34a72a"},"vehicle_type_id":"4","last_reported":1750273662,"current_range_meters":0,"station_id":"","pricing_plan_id":"cebpf4jnsgd1na2vs0mg"},{"bike_id":"b9e37238-9abe-4b8b-b932-edaee33a7e59","system_id":"levelo_inurba_marseille","lat":43.274955,"lon":5.390048,"is_reserved":false,"is_disabled":true,"rental_uris":{"android":"levelo://app?vid=b9e37238-9abe-4b8b-b932-edaee33a7e59","ios":"levelo://app?vid=b9e37238-9abe-4b8b-b932-edaee33a7e59"},"vehicle_type_id":"4","last_reported":1750273662,"current_range_meters":0,"station_id":"","pricing_plan_id":"cebpf4jnsgd1na2vs0mg"},{"bike_id":"8ad9234e-001a-4549-8bba-9baf2ef98804","system_id":"levelo_inurba_marseille","lat":43.27429,"lon":5.3977,"is_reserved":false,"is_disabled":true,"rental_uris":{"android":"levelo://app?vid=8ad9234e-001a-4549-8bba-9baf2ef98804","ios":"levelo://app?vid=8ad9234e-001a-4549-8bba-9baf2ef98804"},"vehicle_type_id":"4","last_reported":1750273662,"current_range_meters":0,"station_id":"","pricing_plan_id":"cebpf4jnsgd1na2vs0mg"},{"bike_id":"ddf470bc-7dc9-4a99-a339-d9ae733e34d6","system_id":"levelo_inurba_marseille","lat":43.33394,"lon":5.40078,"is_reserved":false,"is_disabled":true,"rental_uris":{"android":"levelo://app?vid=ddf470bc-7dc9-4a99-a339-d9ae733e34d6","ios":"levelo://app?vid=ddf470bc-7dc9-4a99-a339-d9ae733e34d6"},"vehicle_type_id":"4","last_reported":1750273662,"current_range_meters":0,"station_id":"","pricing_plan_id":"cebpf4jnsgd1na2vs0mg"},{"bike_id":"93af304b-67b5-47b8-a3fd-e0775f7cde8c","system_id":"levelo_inurba_marseille","lat":43.215301,"lon":5.347406,"is_reserved":false,"is_disabled":true,"rental_uris":{"android":"levelo://app?vid=93af304b-67b5-47b8-a3fd-e0775f7cde8c","ios":"levelo://app?vid=93af304b-67b5-47b8-a3fd-e0775f7cde8c"},"vehicle_type_id":"4","last_reported":1750273662,"current_range_meters":0,"station_id":"","pricing_plan_id":"cebpf4jnsgd1na2vs0mg"},{"bike_id":"d6609b4f-333b-43c1-9ebe-8726f5e76e88","system_id":"levelo_inurba_marseille","lat":43.337444,"lon":5.374475,"is_reserved":false,"is_disabled":true,"rental_uris":{"android":"levelo://app?vid=d6609b4f-333b-43c1-9ebe-8726f5e76e88","ios":"levelo://app?vid=d6609b4f-333b-43c1-9ebe-8726f5e76e88"},"vehicle_type_id":"4","last_reported":1750273662,"current_range_meters":0,"station_id":"","pricing_plan_id":"cebpf4jnsgd1na2vs0mg"},{"bike_id":"57c83ce1-960e-466a-b6c5-d93bc130c53a","system_id":"levelo_inurba_marseille","lat":43.24917,"lon":5.38956,"is_reserved":false,"is_disabled":true,"rental_uris":{"android":"levelo://app?vid=57c83ce1-960e-466a-b6c5-d93bc130c53a","ios":"levelo://app?vid=57c83ce1-960e-466a-b6c5-d93bc130c53a"},"vehicle_type_id":"4","last_reported":1750273662,"current_range_meters":0,"station_id":"","pricing_plan_id":"cebpf4jnsgd1na2vs0mg"},{"bike_id":"41e07387-4a2e-4dd8-8f58-a7a708e5f066","system_id":"levelo_inurba_marseille","lat":43.26227,"lon":5.37218,"is_reserved":false,"is_disabled":true,"rental_uris":{"android":"levelo://app?vid=41e07387-4a2e-4dd8-8f58-a7a708e5f066","ios":"levelo://app?vid=41e07387-4a2e-4dd8-8f58-a7a708e5f066"},"vehicle_type_id":"4","last_reported":1750273662,"current_range_meters":0,"station_id":"","pricing_plan_id":"cebpf4jnsgd1na2vs0mg"},{"bike_id":"3be6ec2c-b237-4609-a310-1af1f9123fba","system_id":"levelo_inurba_marseille","lat":43.299225,"lon":5.381426,"is_reserved":false,"is_disabled":true,"rental_uris":{"android":"levelo://app?vid=3be6ec2c-b237-4609-a310-1af1f9123fba","ios":"levelo://app?vid=3be6ec2c-b237-4609-a310-1af1f9123fba"},"vehicle_type_id":"4","last_reported":1750273662,"current_range_meters":0,"station_id":"ce4bgj12rcd13ifvqbc0","pricing_plan_id":"cebpf4jnsgd1na2vs0mg"},{"bike_id":"a287bc8f-b3de-40d8-8473-26b6ebe2aa90","system_id":"levelo_inurba_marseille","lat":43.30119,"lon":5.39875,"is_reserved":false,"is_disabled":true,"rental_uris":{"android":"levelo://app?vid=a287bc8f-b3de-40d8-8473-26b6ebe2aa90","ios":"levelo://app?vid=a287bc8f-b3de-40d8-8473-26b6ebe2aa90"},"vehicle_type_id":"4","last_reported":1750273662,"current_range_meters":0,"station_id":"ce4bh0h2rcd13ifvqd40","pricing_plan_id":"cebpf4jnsgd1na2vs0mg"},{"bike_id":"50f278b2-92c8-4e51-83df-4752c9be8f18","system_id":"levelo_inurba_marseille","lat":43.30183,"lon":5.39471,"is_reserved":false,"is_disabled":true,"rental_uris":{"android":"levelo://app?vid=50f278b2-92c8-4e51-83df-4752c9be8f18","ios":"levelo://app?vid=50f278b2-92c8-4e51-83df-4752c9be8f18"},"vehicle_type_id":"4","last_reported":1750273662,"current_range_meters":0,"station_id":"ce4bh0p2rcd13ifvqd70","pricing_plan_id":"cebpf4jnsgd1na2vs0mg"},{"bike_id":"82f118f6-1edc-4b82-ac27-54e06a9cbfcf","system_id":"levelo_inurba_marseille","lat":43.29283,"lon":5.40107,"is_reserved":false,"is_disabled":true,"rental_uris":{"android":"levelo://app?vid=82f118f6-1edc-4b82-ac27-54e06a9cbfcf","ios":"levelo://app?vid=82f118f6-1edc-4b82-ac27-54e06a9cbfcf"},"vehicle_type_id":"4","last_reported":1750273662,"current_range_meters":0,"station_id":"ce4bh312rcd13ifvqdk0","pricing_plan_id":"cebpf4jnsgd1na2vs0mg"},{"bike_id":"1bffe2a4-8600-43e1-b27b-86c9b7c226b5","system_id":"levelo_inurba_marseille","lat":43.28671,"lon":5.38665,"is_reserved":false,"is_disabled":true,"rental_uris":{"android":"levelo://app?vid=1bffe2a4-8600-43e1-b27b-86c9b7c226b5","ios":"levelo://app?vid=1bffe2a4-8600-43e1-b27b-86c9b7c226b5"},"vehicle_type_id":"4","last_reported":1750273662,"current_range_meters":0,"station_id":"ce4bh492rcd13ifvqdug","pricing_plan_id":"cebpf4jnsgd1na2vs0mg"},{"bike_id":"a3b17036-a6e2-45bc-bc77-3669d5bb2182","system_id":"levelo_inurba_marseille","lat":43.2926,"lon":5.38444,"is_reserved":false,"is_disabled":true,"rental_uris":{"android":"levelo://app?vid=a3b17036-a6e2-45bc-bc77-3669d5bb2182","ios":"levelo://app?vid=a3b17036-a6e2-45bc-bc77-3669d5bb2182"},"vehicle_type_id":"4","last_reported":1750273662,"current_range_meters":0,"station_id":"ce4bh692rcd13ifvqea0","pricing_plan_id":"cebpf4jnsgd1na2vs0mg"},{"bike_id":"74bb4c35-f204-4a3f-a299-95aee8073f9c","system_id":"levelo_inurba_marseille","lat":43.2737,"lon":5.36251,"is_reserved":false,"is_disabled":true,"rental_uris":{"android":"levelo://app?vid=74bb4c35-f204-4a3f-a299-95aee8073f9c","ios":"levelo://app?vid=74bb4c35-f204-4a3f-a299-95aee8073f9c"},"vehicle_type_id":"4","last_reported":1750273662,"current_range_meters":0,"station_id":"ce4bhbh2rcd13ifvqeo0","pricing_plan_id":"cebpf4jnsgd1na2vs0mg"},{"bike_id":"41c6f079-7db0-4283-b81d-af95025c7640","system_id":"levelo_inurba_marseille","lat":43.28615,"lon":5.35103,"is_reserved":false,"is_disabled":true,"rental_uris":{"android":"levelo://app?vid=41c6f079-7db0-4283-b81d-af95025c7640","ios":"levelo://app?vid=41c6f079-7db0-4283-b81d-af95025c7640"},"vehicle_type_id":"4","last_reported":1750273662,"current_range_meters":0,"station_id":"ce4bhch2rcd13ifvqeug","pricing_plan_id":"cebpf4jnsgd1na2vs0mg"},{"bike_id":"baba326e-bbc3-4f92-8f27-a56988c917a8","system_id":"levelo_inurba_marseille","lat":43.27949,"lon":5.38697,"is_reserved":false,"is_disabled":true,"rental_uris":{"android":"levelo://app?vid=baba326e-bbc3-4f92-8f27-a56988c917a8","ios":"levelo://app?vid=baba326e-bbc3-4f92-8f27-a56988c917a8"},"vehicle_type_id":"4","last_reported":1750273662,"current_range_meters":0,"station_id":"ce4bhg12rcd13ifvqf80","pricing_plan_id":"cebpf4jnsgd1na2vs0mg"},{"bike_id":"1aa50db2-107c-4ae5-8d79-4bdf1f7e7160","system_id":"levelo_inurba_marseille","lat":43.27065,"lon":5.40253,"is_reserved":false,"is_disabled":true,"rental_uris":{"android":"levelo://app?vid=1aa50db2-107c-4ae5-8d79-4bdf1f7e7160","ios":"levelo://app?vid=1aa50db2-107c-4ae5-8d79-4bdf1f7e7160"},"vehicle_type_id":"4","last_reported":1750273662,"current_range_meters":0,"station_id":"ce4bhk92rcd13ifvqgc0","pricing_plan_id":"cebpf4jnsgd1na2vs0mg"},{"bike_id":"680c3dde-28b4-4208-b4bc-6ea67eeb57c5","system_id":"levelo_inurba_marseille","lat":43.28702,"lon":5.39989,"is_reserved":false,"is_disabled":true,"rental_uris":{"android":"levelo://app?vid=680c3dde-28b4-4208-b4bc-6ea67eeb57c5","ios":"levelo://app?vid=680c3dde-28b4-4208-b4bc-6ea67eeb57c5"},"vehicle_type_id":"4","last_reported":1750273662,"current_range_meters":0,"station_id":"ce4bho92rcd13ifvqh3g","pricing_plan_id":"cebpf4jnsgd1na2vs0mg"},{"bike_id":"9f66fae9-2f11-4e29-abc6-b15e8f8524ed","system_id":"levelo_inurba_marseille","lat":43.31714,"lon":5.43709,"is_reserved":false,"is_disabled":true,"rental_uris":{"android":"levelo://app?vid=9f66fae9-2f11-4e29-abc6-b15e8f8524ed","ios":"levelo://app?vid=9f66fae9-2f11-4e29-abc6-b15e8f8524ed"},"vehicle_type_id":"4","last_reported":1750273662,"current_range_meters":0,"station_id":"ce4bhp92rcd13ifvqhcg","pricing_plan_id":"cebpf4jnsgd1na2vs0mg"},{"bike_id":"11679121-5457-4472-94b6-eb0c28ce7faa","system_id":"levelo_inurba_marseille","lat":43.32106,"lon":5.36762,"is_reserved":false,"is_disabled":true,"rental_uris":{"android":"levelo://app?vid=11679121-5457-4472-94b6-eb0c28ce7faa","ios":"levelo://app?vid=11679121-5457-4472-94b6-eb0c28ce7faa"},"vehicle_type_id":"4","last_reported":1750273662,"current_range_meters":0,"station_id":"ce4bhrh2rcd13ifvqhug","pricing_plan_id":"cebpf4jnsgd1na2vs0mg"},{"bike_id":"d5a29cea-7ed8-4f49-8d6c-ab65fb9b9ffc","system_id":"levelo_inurba_marseille","lat":43.23197,"lon":5.35556,"is_reserved":false,"is_disabled":true,"rental_uris":{"android":"levelo://app?vid=d5a29cea-7ed8-4f49-8d6c-ab65fb9b9ffc","ios":"levelo://app?vid=d5a29cea-7ed8-4f49-8d6c-ab65fb9b9ffc"},"vehicle_type_id":"4","last_reported":1750273662,"current_range_meters":0,"station_id":"ce4bhu92rcd13ifvqi70","pricing_plan_id":"cebpf4jnsgd1na2vs0mg"},{"bike_id":"9833b7eb-4521-451c-9c4f-e9e19f02b941","system_id":"levelo_inurba_marseille","lat":43.216858,"lon":5.346171,"is_reserved":false,"is_disabled":true,"rental_uris":{"android":"levelo://app?vid=9833b7eb-4521-451c-9c4f-e9e19f02b941","ios":"levelo://app?vid=9833b7eb-4521-451c-9c4f-e9e19f02b941"},"vehicle_type_id":"4","last_reported":1750273662,"current_range_meters":0,"station_id":"st_cvj6r9ubvosntc0bgbag","pricing_plan_id":"cebpf4jnsgd1na2vs0mg"},{"bike_id":"b6d27190-b949-4a3d-816f-d496cdfa6600","system_id":"levelo_inurba_marseille","lat":43.21179,"lon":5.3508,"is_reserved":false,"is_disabled":true,"rental_uris":{"android":"levelo://app?vid=b6d27190-b949-4a3d-816f-d496cdfa6600","ios":"levelo://app?vid=b6d27190-b949-4a3d-816f-d496cdfa6600"},"vehicle_type_id":"4","last_reported":1750273662,"current_range_meters":0,"station_id":"st_cvj6sg6p6f1abm77japg","pricing_plan_id":"cebpf4jnsgd1na2vs0mg"},{"bike_id":"bc81a397-aae3-4e78-aa3e-c9b45e8bd116","system_id":"levelo_inurba_marseille","lat":43.33965,"lon":5.40623,"is_reserved":false,"is_disabled":true,"rental_uris":{"android":"levelo://app?vid=bc81a397-aae3-4e78-aa3e-c9b45e8bd116","ios":"levelo://app?vid=bc81a397-aae3-4e78-aa3e-c9b45e8bd116"},"vehicle_type_id":"4","last_reported":1750273662,"current_range_meters":400,"station_id":"","pricing_plan_id":"cebpf4jnsgd1na2vs0mg"},{"bike_id":"63284ad7-d47d-486d-8732-68a46419d0eb","system_id":"levelo_inurba_marseille","lat":43.292685,"lon":5.376237,"is_reserved":false,"is_disabled":true,"rental_uris":{"android":"levelo://app?vid=63284ad7-d47d-486d-8732-68a46419d0eb","ios":"levelo://app?vid=63284ad7-d47d-486d-8732-68a46419d0eb"},"vehicle_type_id":"4","last_reported":1750273662,"current_range_meters":400,"station_id":"ce4bgi12rcd13ifvqb80","pricing_plan_id":"cebpf4jnsgd1na2vs0mg"},{"bike_id":"6e65133f-50e3-4ff7-ab61-8624a09ec0fb","system_id":"levelo_inurba_marseille","lat":43.29266,"lon":5.37615,"is_reserved":false,"is_disabled":true,"rental_uris":{"android":"levelo://app?vid=6e65133f-50e3-4ff7-ab61-8624a09ec0fb","ios":"levelo://app?vid=6e65133f-50e3-4ff7-ab61-8624a09ec0fb"},"vehicle_type_id":"4","last_reported":1750273662,"current_range_meters":400,"station_id":"ce4bgi12rcd13ifvqb80","pricing_plan_id":"cebpf4jnsgd1na2vs0mg"},{"bike_id":"816321d6-9676-4270-a365-a18dfb165edf","system_id":"levelo_inurba_marseille","lat":43.3093,"lon":5.40151,"is_reserved":false,"is_disabled":true,"rental_uris":{"android":"levelo://app?vid=816321d6-9676-4270-a365-a18dfb165edf","ios":"levelo://app?vid=816321d6-9676-4270-a365-a18dfb165edf"},"vehicle_type_id":"4","last_reported":1750273662,"current_range_meters":400,"station_id":"ce4bgvp2rcd13ifvqct0","pricing_plan_id":"cebpf4jnsgd1na2vs0mg"},{"bike_id":"5cc1aeee-8840-49db-9acd-07aea0caf071","system_id":"levelo_inurba_marseille","lat":43.29036,"lon":5.39962,"is_reserved":false,"is_disabled":true,"rental_uris":{"android":"levelo://app?vid=5cc1aeee-8840-49db-9acd-07aea0caf071","ios":"levelo://app?vid=5cc1aeee-8840-49db-9acd-07aea0caf071"},"vehicle_type_id":"4","last_reported":1750273662,"current_range_meters":400,"station_id":"ce4bh392rcd13ifvqdm0","pricing_plan_id":"cebpf4jnsgd1na2vs0mg"},{"bike_id":"035230ce-4449-49e2-a0f9-fca287057158","system_id":"levelo_inurba_marseille","lat":43.28433,"lon":5.37507,"is_reserved":false,"is_disabled":true,"rental_uris":{"android":"levelo://app?vid=035230ce-4449-49e2-a0f9-fca287057158","ios":"levelo://app?vid=035230ce-4449-49e2-a0f9-fca287057158"},"vehicle_type_id":"4","last_reported":1750273662,"current_range_meters":400,"station_id":"ce4bh412rcd13ifvqds0","pricing_plan_id":"cebpf4jnsgd1na2vs0mg"},{"bike_id":"ad3cabc1-faf6-4bf0-9d4b-ba2848dcced4","system_id":"levelo_inurba_marseille","lat":43.28411,"lon":5.37496,"is_reserved":false,"is_disabled":true,"rental_uris":{"android":"levelo://app?vid=ad3cabc1-faf6-4bf0-9d4b-ba2848dcced4","ios":"levelo://app?vid=ad3cabc1-faf6-4bf0-9d4b-ba2848dcced4"},"vehicle_type_id":"4","last_reported":1750273662,"current_range_meters":400,"station_id":"ce4bh412rcd13ifvqds0","pricing_plan_id":"cebpf4jnsgd1na2vs0mg"},{"bike_id":"75e73764-2fe7-44d0-bb78-2d1c10ccb6f8","system_id":"levelo_inurba_marseille","lat":43.28727,"lon":5.37941,"is_reserved":false,"is_disabled":true,"rental_uris":{"android":"levelo://app?vid=75e73764-2fe7-44d0-bb78-2d1c10ccb6f8","ios":"levelo://app?vid=75e73764-2fe7-44d0-bb78-2d1c10ccb6f8"},"vehicle_type_id":"4","last_reported":1750273662,"current_range_meters":400,"station_id":"ce4bh9p2rcd13ifvqec0","pricing_plan_id":"cebpf4jnsgd1na2vs0mg"},{"bike_id":"e08f840e-6e1c-4da1-a3ac-d9a759df5570","system_id":"levelo_inurba_marseille","lat":43.25714,"lon":5.41113,"is_reserved":false,"is_disabled":true,"rental_uris":{"android":"levelo://app?vid=e08f840e-6e1c-4da1-a3ac-d9a759df5570","ios":"levelo://app?vid=e08f840e-6e1c-4da1-a3ac-d9a759df5570"},"vehicle_type_id":"4","last_reported":1750273662,"current_range_meters":400,"station_id":"ce4bhkp2rcd13ifvqgd0","pricing_plan_id":"cebpf4jnsgd1na2vs0mg"},{"bike_id":"5fc94fdb-ea47-40ee-9edf-0727106500f0","system_id":"levelo_inurba_marseille","lat":43.30255,"lon":5.40078,"is_reserved":false,"is_disabled":true,"rental_uris":{"android":"levelo://app?vid=5fc94fdb-ea47-40ee-9edf-0727106500f0","ios":"levelo://app?vid=5fc94fdb-ea47-40ee-9edf-0727106500f0"},"vehicle_type_id":"4","last_reported":1750273662,"current_range_meters":800,"station_id":"ce4bgvh2rcd13ifvqcs0","pricing_plan_id":"cebpf4jnsgd1na2vs0mg"},{"bike_id":"ede40f08-7e33-4b60-aac5-2ad570402ec8","system_id":"levelo_inurba_marseille","lat":43.3372,"lon":5.39176,"is_reserved":false,"is_disabled":true,"rental_uris":{"android":"levelo://app?vid=ede40f08-7e33-4b60-aac5-2ad570402ec8","ios":"levelo://app?vid=ede40f08-7e33-4b60-aac5-2ad570402ec8"},"vehicle_type_id":"4","last_reported":1750273662,"current_range_meters":800,"station_id":"ce4bhr92rcd13ifvqhsg","pricing_plan_id":"cebpf4jnsgd1na2vs0mg"},{"bike_id":"5eba18e5-8ee1-4b39-8442-d5f63ccaf14d","system_id":"levelo_inurba_marseille","lat":43.30734,"lon":5.42443,"is_reserved":false,"is_disabled":true,"rental_uris":{"android":"levelo://app?vid=5eba18e5-8ee1-4b39-8442-d5f63ccaf14d","ios":"levelo://app?vid=5eba18e5-8ee1-4b39-8442-d5f63ccaf14d"},"vehicle_type_id":"4","last_reported":1750273662,"current_range_meters":800,"station_id":"st_cvj6ca6bvosntc0bfgr0","pricing_plan_id":"cebpf4jnsgd1na2vs0mg"},{"bike_id":"8a01827e-4ab0-423c-bbd7-2e679b8a29c1","system_id":"levelo_inurba_marseille","lat":43.29279,"lon":5.4012,"is_reserved":false,"is_disabled":true,"rental_uris":{"android":"levelo://app?vid=8a01827e-4ab0-423c-bbd7-2e679b8a29c1","ios":"levelo://app?vid=8a01827e-4ab0-423c-bbd7-2e679b8a29c1"},"vehicle_type_id":"4","last_reported":1750273662,"current_range_meters":1200,"station_id":"ce4bh312rcd13ifvqdk0","pricing_plan_id":"cebpf4jnsgd1na2vs0mg"},{"bike_id":"9194615b-327c-4a27-a99f-fa2a57f5c704","system_id":"levelo_inurba_marseille","lat":43.255015,"lon":5.376502,"is_reserved":false,"is_disabled":true,"rental_uris":{"android":"levelo://app?vid=9194615b-327c-4a27-a99f-fa2a57f5c704","ios":"levelo://app?vid=9194615b-327c-4a27-a99f-fa2a57f5c704"},"vehicle_type_id":"4","last_reported":1750273662,"current_range_meters":1200,"station_id":"ce4bhh12rcd13ifvqff0","pricing_plan_id":"cebpf4jnsgd1na2vs0mg"},{"bike_id":"aae2a8fa-3912-4d1d-bd0e-f8182b3351af","system_id":"levelo_inurba_marseille","lat":43.22931,"lon":5.3538,"is_reserved":false,"is_disabled":true,"rental_uris":{"android":"levelo://app?vid=aae2a8fa-3912-4d1d-bd0e-f8182b3351af","ios":"levelo://app?vid=aae2a8fa-3912-4d1d-bd0e-f8182b3351af"},"vehicle_type_id":"4","last_reported":1750273662,"current_range_meters":1200,"station_id":"cpo3532slgdg3j2ikp40","pricing_plan_id":"cebpf4jnsgd1na2vs0mg"},{"bike_id":"f6856bde-c087-417e-98d5-459a2a731cea","system_id":"levelo_inurba_marseille","lat":43.21758,"lon":5.346,"is_reserved":false,"is_disabled":true,"rental_uris":{"android":"levelo://app?vid=f6856bde-c087-417e-98d5-459a2a731cea","ios":"levelo://app?vid=f6856bde-c087-417e-98d5-459a2a731cea"},"vehicle_type_id":"4","last_reported":1750273662,"current_range_meters":1200,"station_id":"st_cvj6r9ubvosntc0bgbag","pricing_plan_id":"cebpf4jnsgd1na2vs0mg"},{"bike_id":"47196f00-388f-4b3b-a4de-3dba126cd107","system_id":"levelo_inurba_marseille","lat":43.243738,"lon":5.411628,"is_reserved":false,"is_disabled":true,"rental_uris":{"android":"levelo://app?vid=47196f00-388f-4b3b-a4de-3dba126cd107","ios":"levelo://app?vid=47196f00-388f-4b3b-a4de-3dba126cd107"},"vehicle_type_id":"4","last_reported":1750273662,"current_range_meters":1600,"station_id":"","pricing_plan_id":"cebpf4jnsgd1na2vs0mg"},{"bike_id":"b1a9b3fc-57ad-4966-bb75-ec9461932677","system_id":"levelo_inurba_marseille","lat":43.30425,"lon":5.38879,"is_reserved":false,"is_disabled":true,"rental_uris":{"android":"levelo://app?vid=b1a9b3fc-57ad-4966-bb75-ec9461932677","ios":"levelo://app?vid=b1a9b3fc-57ad-4966-bb75-ec9461932677"},"vehicle_type_id":"4","last_reported":1750273662,"current_range_meters":1600,"station_id":"ce4bgk12rcd13ifvqbi0","pricing_plan_id":"cebpf4jnsgd1na2vs0mg"},{"bike_id":"1ce45ec3-f114-4ed1-892a-45d07f397fcb","system_id":"levelo_inurba_marseille","lat":43.29003,"lon":5.35596,"is_reserved":false,"is_disabled":true,"rental_uris":{"android":"levelo://app?vid=1ce45ec3-f114-4ed1-892a-45d07f397fcb","ios":"levelo://app?vid=1ce45ec3-f114-4ed1-892a-45d07f397fcb"},"vehicle_type_id":"4","last_reported":1750273662,"current_range_meters":1600,"station_id":"ce4bhb92rcd13ifvqen0","pricing_plan_id":"cebpf4jnsgd1na2vs0mg"},{"bike_id":"86e093fc-1723-40ce-9960-e588d4e8d4d8","system_id":"levelo_inurba_marseille","lat":43.26578,"lon":5.39021,"is_reserved":false,"is_disabled":true,"rental_uris":{"android":"levelo://app?vid=86e093fc-1723-40ce-9960-e588d4e8d4d8","ios":"levelo://app?vid=86e093fc-1723-40ce-9960-e588d4e8d4d8"},"vehicle_type_id":"4","last_reported":1750273662,"current_range_meters":1600,"station_id":"ce4bhe12rcd13ifvqf30","pricing_plan_id":"cebpf4jnsgd1na2vs0mg"},{"bike_id":"e67ed47d-eac3-4b86-a619-37f5a064f1e1","system_id":"levelo_inurba_marseille","lat":43.28446,"lon":5.39192,"is_reserved":false,"is_disabled":true,"rental_uris":{"android":"levelo://app?vid=e67ed47d-eac3-4b86-a619-37f5a064f1e1","ios":"levelo://app?vid=e67ed47d-eac3-4b86-a619-37f5a064f1e1"},"vehicle_type_id":"4","last_reported":1750273662,"current_range_meters":1600,"station_id":"ce4bhoh2rcd13ifvqh5g","pricing_plan_id":"cebpf4jnsgd1na2vs0mg"},{"bike_id":"ac1c17be-32dc-4449-8610-ca5bfe2cd501","system_id":"levelo_inurba_marseille","lat":43.33801,"lon":5.37458,"is_reserved":false,"is_disabled":true,"rental_uris":{"android":"levelo://app?vid=ac1c17be-32dc-4449-8610-ca5bfe2cd501","ios":"levelo://app?vid=ac1c17be-32dc-4449-8610-ca5bfe2cd501"},"vehicle_type_id":"4","last_reported":1750273662,"current_range_meters":2000,"station_id":"","pricing_plan_id":"cebpf4jnsgd1na2vs0mg"},{"bike_id":"33e9c9da-1cc0-4262-ad00-281d3e3f35fc","system_id":"levelo_inurba_marseille","lat":43.33817,"lon":5.37451,"is_reserved":false,"is_disabled":true,"rental_uris":{"android":"levelo://app?vid=33e9c9da-1cc0-4262-ad00-281d3e3f35fc","ios":"levelo://app?vid=33e9c9da-1cc0-4262-ad00-281d3e3f35fc"},"vehicle_type_id":"4","last_reported":1750273662,"current_range_meters":2000,"station_id":"","pricing_plan_id":"cebpf4jnsgd1na2vs0mg"},{"bike_id":"b2a92dae-8506-4bec-be6c-3b7313213eb9","system_id":"levelo_inurba_marseille","lat":43.23161,"lon":5.43694,"is_reserved":false,"is_disabled":false,"rental_uris":{"android":"levelo://app?vid=b2a92dae-8506-4bec-be6c-3b7313213eb9","ios":"levelo://app?vid=b2a92dae-8506-4bec-be6c-3b7313213eb9"},"vehicle_type_id":"4","last_reported":1750273662,"current_range_meters":2000,"station_id":"ce4bhmp2rcd13ifvqgog","pricing_plan_id":"cebpf4jnsgd1na2vs0mg"},{"bike_id":"789f5f67-7bf7-4660-bd23-3df588faf928","system_id":"levelo_inurba_marseille","lat":43.26938,"lon":5.40237,"is_reserved":false,"is_disabled":true,"rental_uris":{"android":"levelo://app?vid=789f5f67-7bf7-4660-bd23-3df588faf928","ios":"levelo://app?vid=789f5f67-7bf7-4660-bd23-3df588faf928"},"vehicle_type_id":"4","last_reported":1750273662,"current_range_meters":2000,"station_id":"cjm6bp8fraef2m0cb0m0","pricing_plan_id":"cebpf4jnsgd1na2vs0mg"},{"bike_id":"f7edec4e-4d5f-4000-93be-ac25b000e2f6","system_id":"levelo_inurba_marseille","lat":43.273787,"lon":5.362588,"is_reserved":false,"is_disabled":false,"rental_uris":{"android":"levelo://app?vid=f7edec4e-4d5f-4000-93be-ac25b000e2f6","ios":"levelo://app?vid=f7edec4e-4d5f-4000-93be-ac25b000e2f6"},"vehicle_type_id":"4","last_reported":1750273662,"current_range_meters":2800,"station_id":"","pricing_plan_id":"cebpf4jnsgd1na2vs0mg"},{"bike_id":"084f82a6-1eca-4985-a6bb-ea29e2a327b4","system_id":"levelo_inurba_marseille","lat":43.30939,"lon":5.40576,"is_reserved":false,"is_disabled":false,"rental_uris":{"android":"levelo://app?vid=084f82a6-1eca-4985-a6bb-ea29e2a327b4","ios":"levelo://app?vid=084f82a6-1eca-4985-a6bb-ea29e2a327b4"},"vehicle_type_id":"4","last_reported":1750273662,"current_range_meters":2800,"station_id":"","pricing_plan_id":"cebpf4jnsgd1na2vs0mg"},{"bike_id":"7a27e70e-c4f0-4156-af2b-047778cc6f84","system_id":"levelo_inurba_marseille","lat":43.299728,"lon":5.384985,"is_reserved":false,"is_disabled":false,"rental_uris":{"android":"levelo://app?vid=7a27e70e-c4f0-4156-af2b-047778cc6f84","ios":"levelo://app?vid=7a27e70e-c4f0-4156-af2b-047778cc6f84"},"vehicle_type_id":"4","last_reported":1750273662,"current_range_meters":2800,"station_id":"ce4bgj92rcd13ifvqbd0","pricing_plan_id":"cebpf4jnsgd1na2vs0mg"},{"bike_id":"08f317fc-dad6-4573-9c54-d06ea19ac1cf","system_id":"levelo_inurba_marseille","lat":43.30582,"lon":5.39347,"is_reserved":false,"is_disabled":true,"rental_uris":{"android":"levelo://app?vid=08f317fc-dad6-4573-9c54-d06ea19ac1cf","ios":"levelo://app?vid=08f317fc-dad6-4573-9c54-d06ea19ac1cf"},"vehicle_type_id":"4","last_reported":1750273662,"current_range_meters":2800,"station_id":"ce4bh0p2rcd13ifvqd80","pricing_plan_id":"cebpf4jnsgd1na2vs0mg"},{"bike_id":"ec66c7f3-2806-44f1-9ab3-324e57926596","system_id":"levelo_inurba_marseille","lat":43.28466,"lon":5.35877,"is_reserved":false,"is_disabled":false,"rental_uris":{"android":"levelo://app?vid=ec66c7f3-2806-44f1-9ab3-324e57926596","ios":"levelo://app?vid=ec66c7f3-2806-44f1-9ab3-324e57926596"},"vehicle_type_id":"4","last_reported":1750273662,"current_range_meters":2800,"station_id":"ce4bhah2rcd13ifvqei0","pricing_plan_id":"cebpf4jnsgd1na2vs0mg"},{"bike_id":"8e434a88-4a79-444b-abf0-3e6f7c087e8c","system_id":"levelo_inurba_marseille","lat":43.23996,"lon":5.36613,"is_reserved":false,"is_disabled":false,"rental_uris":{"android":"levelo://app?vid=8e434a88-4a79-444b-abf0-3e6f7c087e8c","ios":"levelo://app?vid=8e434a88-4a79-444b-abf0-3e6f7c087e8c"},"vehicle_type_id":"4","last_reported":1750273662,"current_range_meters":2800,"station_id":"ce4bhi12rcd13ifvqfp0","pricing_plan_id":"cebpf4jnsgd1na2vs0mg"},{"bike_id":"f6e3b5b3-8de8-4b90-99e8-7b6f99007197","system_id":"levelo_inurba_marseille","lat":43.26809,"lon":5.40264,"is_reserved":false,"is_disabled":false,"rental_uris":{"android":"levelo://app?vid=f6e3b5b3-8de8-4b90-99e8-7b6f99007197","ios":"levelo://app?vid=f6e3b5b3-8de8-4b90-99e8-7b6f99007197"},"vehicle_type_id":"4","last_reported":1750273662,"current_range_meters":2800,"station_id":"ce501612rcd8frsf0b60","pricing_plan_id":"cebpf4jnsgd1na2vs0mg"},{"bike_id":"fe753a6d-0961-441e-b4a4-a4fa5974f5cc","system_id":"levelo_inurba_marseille","lat":43.21187,"lon":5.35069,"is_reserved":false,"is_disabled":false,"rental_uris":{"android":"levelo://app?vid=fe753a6d-0961-441e-b4a4-a4fa5974f5cc","ios":"levelo://app?vid=fe753a6d-0961-441e-b4a4-a4fa5974f5cc"},"vehicle_type_id":"4","last_reported":1750273662,"current_range_meters":2800,"station_id":"st_cvj6sg6p6f1abm77japg","pricing_plan_id":"cebpf4jnsgd1na2vs0mg"},{"bike_id":"e81bcb79-c867-4994-86e6-7a3c7028fcad","system_id":"levelo_inurba_marseille","lat":43.30213,"lon":5.39457,"is_reserved":false,"is_disabled":false,"rental_uris":{"android":"levelo://app?vid=e81bcb79-c867-4994-86e6-7a3c7028fcad","ios":"levelo://app?vid=e81bcb79-c867-4994-86e6-7a3c7028fcad"},"vehicle_type_id":"4","last_reported":1750273662,"current_range_meters":3200,"station_id":"ce4bh0p2rcd13ifvqd70","pricing_plan_id":"cebpf4jnsgd1na2vs0mg"},{"bike_id":"4da18f54-bebe-42fd-aa95-762309ab4b0b","system_id":"levelo_inurba_marseille","lat":43.29882,"lon":5.389,"is_reserved":false,"is_disabled":false,"rental_uris":{"android":"levelo://app?vid=4da18f54-bebe-42fd-aa95-762309ab4b0b","ios":"levelo://app?vid=4da18f54-bebe-42fd-aa95-762309ab4b0b"},"vehicle_type_id":"4","last_reported":1750273662,"current_range_meters":3200,"station_id":"ce4bh392rcd13ifvqdl0","pricing_plan_id":"cebpf4jnsgd1na2vs0mg"},{"bike_id":"791d19bb-2b16-43ec-8d34-97ce77fedd71","system_id":"levelo_inurba_marseille","lat":43.29438,"lon":5.39752,"is_reserved":false,"is_disabled":false,"rental_uris":{"android":"levelo://app?vid=791d19bb-2b16-43ec-8d34-97ce77fedd71","ios":"levelo://app?vid=791d19bb-2b16-43ec-8d34-97ce77fedd71"},"vehicle_type_id":"4","last_reported":1750273662,"current_range_meters":3200,"station_id":"ce4bh3h2rcd13ifvqdo0","pricing_plan_id":"cebpf4jnsgd1na2vs0mg"},{"bike_id":"c6c75262-4b2e-4261-be60-3ec9bd760c14","system_id":"levelo_inurba_marseille","lat":43.29091,"lon":5.38154,"is_reserved":false,"is_disabled":false,"rental_uris":{"android":"levelo://app?vid=c6c75262-4b2e-4261-be60-3ec9bd760c14","ios":"levelo://app?vid=c6c75262-4b2e-4261-be60-3ec9bd760c14"},"vehicle_type_id":"4","last_reported":1750273662,"current_range_meters":3200,"station_id":"ce4bh512rcd13ifvqe2g","pricing_plan_id":"cebpf4jnsgd1na2vs0mg"},{"bike_id":"e2e9c1c8-07b8-4c4b-b0fa-d6c72576b016","system_id":"levelo_inurba_marseille","lat":43.24807,"lon":5.37456,"is_reserved":false,"is_disabled":false,"rental_uris":{"android":"levelo://app?vid=e2e9c1c8-07b8-4c4b-b0fa-d6c72576b016","ios":"levelo://app?vid=e2e9c1c8-07b8-4c4b-b0fa-d6c72576b016"},"vehicle_type_id":"4","last_reported":1750273662,"current_range_meters":3200,"station_id":"ce4bhgh2rcd13ifvqfb0","pricing_plan_id":"cebpf4jnsgd1na2vs0mg"},{"bike_id":"dcf38cf0-7284-4775-add2-8c5f9927b31c","system_id":"levelo_inurba_marseille","lat":43.25463,"lon":5.37842,"is_reserved":false,"is_disabled":false,"rental_uris":{"android":"levelo://app?vid=dcf38cf0-7284-4775-add2-8c5f9927b31c","ios":"levelo://app?vid=dcf38cf0-7284-4775-add2-8c5f9927b31c"},"vehicle_type_id":"4","last_reported":1750273662,"current_range_meters":3600,"station_id":"","pricing_plan_id":"cebpf4jnsgd1na2vs0mg"},{"bike_id":"8cca891e-672a-4c29-a1af-efea00cf5a89","system_id":"levelo_inurba_marseille","lat":43.2985,"lon":5.36285,"is_reserved":false,"is_disabled":false,"rental_uris":{"android":"levelo://app?vid=8cca891e-672a-4c29-a1af-efea00cf5a89","ios":"levelo://app?vid=8cca891e-672a-4c29-a1af-efea00cf5a89"},"vehicle_type_id":"4","last_reported":1750273662,"current_range_meters":3600,"station_id":"ce4bgpp2rcd13ifvqc3g","pricing_plan_id":"cebpf4jnsgd1na2vs0mg"},{"bike_id":"fc74b586-aa01-4ea0-88ce-ab7565e5cf8d","system_id":"levelo_inurba_marseille","lat":43.27422,"lon":5.39415,"is_reserved":false,"is_disabled":false,"rental_uris":{"android":"levelo://app?vid=fc74b586-aa01-4ea0-88ce-ab7565e5cf8d","ios":"levelo://app?vid=fc74b586-aa01-4ea0-88ce-ab7565e5cf8d"},"vehicle_type_id":"4","last_reported":1750273662,"current_range_meters":3600,"station_id":"ce4bhdp2rcd13ifvqf20","pricing_plan_id":"cebpf4jnsgd1na2vs0mg"},{"bike_id":"e3069638-33e4-414c-883a-0825b9ab329b","system_id":"levelo_inurba_marseille","lat":43.27912,"lon":5.39577,"is_reserved":false,"is_disabled":false,"rental_uris":{"android":"levelo://app?vid=e3069638-33e4-414c-883a-0825b9ab329b","ios":"levelo://app?vid=e3069638-33e4-414c-883a-0825b9ab329b"},"vehicle_type_id":"4","last_reported":1750273662,"current_range_meters":3600,"station_id":"ce4bhf92rcd13ifvqf40","pricing_plan_id":"cebpf4jnsgd1na2vs0mg"},{"bike_id":"5359548c-ee46-4299-81ec-8c3ae0bae14a","system_id":"levelo_inurba_marseille","lat":43.24802,"lon":5.37463,"is_reserved":false,"is_disabled":false,"rental_uris":{"android":"levelo://app?vid=5359548c-ee46-4299-81ec-8c3ae0bae14a","ios":"levelo://app?vid=5359548c-ee46-4299-81ec-8c3ae0bae14a"},"vehicle_type_id":"4","last_reported":1750273662,"current_range_meters":3600,"station_id":"ce4bhgh2rcd13ifvqfb0","pricing_plan_id":"cebpf4jnsgd1na2vs0mg"},{"bike_id":"5bf0724d-8269-4006-b2db-d121b6323343","system_id":"levelo_inurba_marseille","lat":43.33729,"lon":5.39188,"is_reserved":false,"is_disabled":false,"rental_uris":{"android":"levelo://app?vid=5bf0724d-8269-4006-b2db-d121b6323343","ios":"levelo://app?vid=5bf0724d-8269-4006-b2db-d121b6323343"},"vehicle_type_id":"4","last_reported":1750273662,"current_range_meters":3600,"station_id":"ce4bhr92rcd13ifvqhsg","pricing_plan_id":"cebpf4jnsgd1na2vs0mg"},{"bike_id":"ac518878-96fe-4939-aad5-8fd3b76bf4cb","system_id":"levelo_inurba_marseille","lat":43.29037,"lon":5.39965,"is_reserved":false,"is_disabled":false,"rental_uris":{"android":"levelo://app?vid=ac518878-96fe-4939-aad5-8fd3b76bf4cb","ios":"levelo://app?vid=ac518878-96fe-4939-aad5-8fd3b76bf4cb"},"vehicle_type_id":"4","last_reported":1750273662,"current_range_meters":4000,"station_id":"ce4bh392rcd13ifvqdm0","pricing_plan_id":"cebpf4jnsgd1na2vs0mg"},{"bike_id":"7144d01a-118b-4255-8940-6f5421f910bd","system_id":"levelo_inurba_marseille","lat":43.2904,"lon":5.38642,"is_reserved":false,"is_disabled":false,"rental_uris":{"android":"levelo://app?vid=7144d01a-118b-4255-8940-6f5421f910bd","ios":"levelo://app?vid=7144d01a-118b-4255-8940-6f5421f910bd"},"vehicle_type_id":"4","last_reported":1750273662,"current_range_meters":4000,"station_id":"ce4bh4p2rcd13ifvqe0g","pricing_plan_id":"cebpf4jnsgd1na2vs0mg"},{"bike_id":"05b23115-21b0-4fff-ae4e-a19a6e938363","system_id":"levelo_inurba_marseille","lat":43.29269,"lon":5.38445,"is_reserved":false,"is_disabled":false,"rental_uris":{"android":"levelo://app?vid=05b23115-21b0-4fff-ae4e-a19a6e938363","ios":"levelo://app?vid=05b23115-21b0-4fff-ae4e-a19a6e938363"},"vehicle_type_id":"4","last_reported":1750273662,"current_range_meters":4000,"station_id":"ce4bh692rcd13ifvqea0","pricing_plan_id":"cebpf4jnsgd1na2vs0mg"},{"bike_id":"7f4ac5c4-49bc-47ca-be83-b1a3d33101be","system_id":"levelo_inurba_marseille","lat":43.28459,"lon":5.35878,"is_reserved":false,"is_disabled":false,"rental_uris":{"android":"levelo://app?vid=7f4ac5c4-49bc-47ca-be83-b1a3d33101be","ios":"levelo://app?vid=7f4ac5c4-49bc-47ca-be83-b1a3d33101be"},"vehicle_type_id":"4","last_reported":1750273662,"current_range_meters":4000,"station_id":"ce4bhah2rcd13ifvqei0","pricing_plan_id":"cebpf4jnsgd1na2vs0mg"},{"bike_id":"a8c68751-df9c-4d80-8c89-21978314f706","system_id":"levelo_inurba_marseille","lat":43.28939,"lon":5.36638,"is_reserved":false,"is_disabled":false,"rental_uris":{"android":"levelo://app?vid=a8c68751-df9c-4d80-8c89-21978314f706","ios":"levelo://app?vid=a8c68751-df9c-4d80-8c89-21978314f706"},"vehicle_type_id":"4","last_reported":1750273662,"current_range_meters":4000,"station_id":"ce4bhap2rcd13ifvqek0","pricing_plan_id":"cebpf4jnsgd1na2vs0mg"},{"bike_id":"f7dcb202-b96a-4808-9b37-e49ad161e560","system_id":"levelo_inurba_marseille","lat":43.32368,"lon":5.38888,"is_reserved":false,"is_disabled":false,"rental_uris":{"android":"levelo://app?vid=f7dcb202-b96a-4808-9b37-e49ad161e560","ios":"levelo://app?vid=f7dcb202-b96a-4808-9b37-e49ad161e560"},"vehicle_type_id":"4","last_reported":1750273662,"current_range_meters":4000,"station_id":"ce4bhqp2rcd13ifvqhog","pricing_plan_id":"cebpf4jnsgd1na2vs0mg"},{"bike_id":"ff3dce38-8d71-4825-9d9c-a2833001bc0a","system_id":"levelo_inurba_marseille","lat":43.26805,"lon":5.40268,"is_reserved":false,"is_disabled":false,"rental_uris":{"android":"levelo://app?vid=ff3dce38-8d71-4825-9d9c-a2833001bc0a","ios":"levelo://app?vid=ff3dce38-8d71-4825-9d9c-a2833001bc0a"},"vehicle_type_id":"4","last_reported":1750273662,"current_range_meters":4000,"station_id":"ce501612rcd8frsf0b60","pricing_plan_id":"cebpf4jnsgd1na2vs0mg"},{"bike_id":"5c1d248c-e413-4efe-90d2-dc03def6d8bc","system_id":"levelo_inurba_marseille","lat":43.24808,"lon":5.37455,"is_reserved":false,"is_disabled":false,"rental_uris":{"android":"levelo://app?vid=5c1d248c-e413-4efe-90d2-dc03def6d8bc","ios":"levelo://app?vid=5c1d248c-e413-4efe-90d2-dc03def6d8bc"},"vehicle_type_id":"4","last_reported":1750273662,"current_range_meters":4400,"station_id":"ce4bhgh2rcd13ifvqfb0","pricing_plan_id":"cebpf4jnsgd1na2vs0mg"},{"bike_id":"612db5ef-c9ef-43ac-bba9-cb32e4e98d3e","system_id":"levelo_inurba_marseille","lat":43.25504,"lon":5.37644,"is_reserved":false,"is_disabled":false,"rental_uris":{"android":"levelo://app?vid=612db5ef-c9ef-43ac-bba9-cb32e4e98d3e","ios":"levelo://app?vid=612db5ef-c9ef-43ac-bba9-cb32e4e98d3e"},"vehicle_type_id":"4","last_reported":1750273662,"current_range_meters":4400,"station_id":"ce4bhh12rcd13ifvqff0","pricing_plan_id":"cebpf4jnsgd1na2vs0mg"},{"bike_id":"fb7f0fca-328c-4590-8315-5fcf92aa068d","system_id":"levelo_inurba_marseille","lat":43.33784,"lon":5.37472,"is_reserved":false,"is_disabled":false,"rental_uris":{"android":"levelo://app?vid=fb7f0fca-328c-4590-8315-5fcf92aa068d","ios":"levelo://app?vid=fb7f0fca-328c-4590-8315-5fcf92aa068d"},"vehicle_type_id":"4","last_reported":1750273662,"current_range_meters":4800,"station_id":"","pricing_plan_id":"cebpf4jnsgd1na2vs0mg"},{"bike_id":"0fc9b764-75dc-45f5-8c19-f1c1ca9d3db4","system_id":"levelo_inurba_marseille","lat":43.30802,"lon":5.38143,"is_reserved":false,"is_disabled":false,"rental_uris":{"android":"levelo://app?vid=0fc9b764-75dc-45f5-8c19-f1c1ca9d3db4","ios":"levelo://app?vid=0fc9b764-75dc-45f5-8c19-f1c1ca9d3db4"},"vehicle_type_id":"4","last_reported":1750273662,"current_range_meters":4800,"station_id":"ce4bgt12rcd13ifvqce0","pricing_plan_id":"cebpf4jnsgd1na2vs0mg"},{"bike_id":"a64f4a8e-e951-491f-8f14-0ead365ab4f2","system_id":"levelo_inurba_marseille","lat":43.30369,"lon":5.418868,"is_reserved":false,"is_disabled":false,"rental_uris":{"android":"levelo://app?vid=a64f4a8e-e951-491f-8f14-0ead365ab4f2","ios":"levelo://app?vid=a64f4a8e-e951-491f-8f14-0ead365ab4f2"},"vehicle_type_id":"4","last_reported":1750273662,"current_range_meters":4800,"station_id":"ce4bhop2rcd13ifvqh7g","pricing_plan_id":"cebpf4jnsgd1na2vs0mg"},{"bike_id":"c26d0fd9-20be-41d2-b222-9b6270abc926","system_id":"levelo_inurba_marseille","lat":43.21749,"lon":5.34599,"is_reserved":false,"is_disabled":false,"rental_uris":{"android":"levelo://app?vid=c26d0fd9-20be-41d2-b222-9b6270abc926","ios":"levelo://app?vid=c26d0fd9-20be-41d2-b222-9b6270abc926"},"vehicle_type_id":"4","last_reported":1750273662,"current_range_meters":4800,"station_id":"st_cvj6r9ubvosntc0bgbag","pricing_plan_id":"cebpf4jnsgd1na2vs0mg"},{"bike_id":"0c2732ce-a727-46b0-af5a-af7ba2098b27","system_id":"levelo_inurba_marseille","lat":43.33801,"lon":5.37446,"is_reserved":false,"is_disabled":false,"rental_uris":{"android":"levelo://app?vid=0c2732ce-a727-46b0-af5a-af7ba2098b27","ios":"levelo://app?vid=0c2732ce-a727-46b0-af5a-af7ba2098b27"},"vehicle_type_id":"4","last_reported":1750273662,"current_range_meters":5600,"station_id":"","pricing_plan_id":"cebpf4jnsgd1na2vs0mg"},{"bike_id":"63ad1586-730c-492e-b18f-5688e04f1d4d","system_id":"levelo_inurba_marseille","lat":43.30648,"lon":5.40082,"is_reserved":false,"is_disabled":false,"rental_uris":{"android":"levelo://app?vid=63ad1586-730c-492e-b18f-5688e04f1d4d","ios":"levelo://app?vid=63ad1586-730c-492e-b18f-5688e04f1d4d"},"vehicle_type_id":"4","last_reported":1750273662,"current_range_meters":5600,"station_id":"ce4bh112rcd13ifvqda0","pricing_plan_id":"cebpf4jnsgd1na2vs0mg"},{"bike_id":"c53f5cdb-aaa9-4344-991b-b831c32e3a6b","system_id":"levelo_inurba_marseille","lat":43.31087,"lon":5.42424,"is_reserved":false,"is_disabled":false,"rental_uris":{"android":"levelo://app?vid=c53f5cdb-aaa9-4344-991b-b831c32e3a6b","ios":"levelo://app?vid=c53f5cdb-aaa9-4344-991b-b831c32e3a6b"},"vehicle_type_id":"4","last_reported":1750273662,"current_range_meters":5600,"station_id":"ce4bhp92rcd13ifvqhag","pricing_plan_id":"cebpf4jnsgd1na2vs0mg"},{"bike_id":"e5083488-b5be-411c-823a-f40808a61bdd","system_id":"levelo_inurba_marseille","lat":43.26063,"lon":5.39396,"is_reserved":false,"is_disabled":false,"rental_uris":{"android":"levelo://app?vid=e5083488-b5be-411c-823a-f40808a61bdd","ios":"levelo://app?vid=e5083488-b5be-411c-823a-f40808a61bdd"},"vehicle_type_id":"4","last_reported":1750273662,"current_range_meters":6000,"station_id":"ce4bhh92rcd13ifvqfj0","pricing_plan_id":"cebpf4jnsgd1na2vs0mg"},{"bike_id":"51a3b53b-b946-471e-bbaf-ebc45a129390","system_id":"levelo_inurba_marseille","lat":43.27815,"lon":5.40712,"is_reserved":false,"is_disabled":false,"rental_uris":{"android":"levelo://app?vid=51a3b53b-b946-471e-bbaf-ebc45a129390","ios":"levelo://app?vid=51a3b53b-b946-471e-bbaf-ebc45a129390"},"vehicle_type_id":"4","last_reported":1750273662,"current_range_meters":6000,"station_id":"ce4bhnh2rcd13ifvqgtg","pricing_plan_id":"cebpf4jnsgd1na2vs0mg"},{"bike_id":"64b8b83e-503a-4015-b7c1-3bd9b6c0bb97","system_id":"levelo_inurba_marseille","lat":43.30372,"lon":5.45133,"is_reserved":false,"is_disabled":false,"rental_uris":{"android":"levelo://app?vid=64b8b83e-503a-4015-b7c1-3bd9b6c0bb97","ios":"levelo://app?vid=64b8b83e-503a-4015-b7c1-3bd9b6c0bb97"},"vehicle_type_id":"4","last_reported":1750273662,"current_range_meters":6400,"station_id":"","pricing_plan_id":"cebpf4jnsgd1na2vs0mg"},{"bike_id":"8f8b86bc-f416-460b-8125-82f6aa6a6104","system_id":"levelo_inurba_marseille","lat":43.2954,"lon":5.39393,"is_reserved":false,"is_disabled":false,"rental_uris":{"android":"levelo://app?vid=8f8b86bc-f416-460b-8125-82f6aa6a6104","ios":"levelo://app?vid=8f8b86bc-f416-460b-8125-82f6aa6a6104"},"vehicle_type_id":"4","last_reported":1750273662,"current_range_meters":6400,"station_id":"ce4bh292rcd13ifvqdf0","pricing_plan_id":"cebpf4jnsgd1na2vs0mg"},{"bike_id":"c59680a8-733c-497b-b298-e7af61e5d03f","system_id":"levelo_inurba_marseille","lat":43.26231,"lon":5.40451,"is_reserved":false,"is_disabled":false,"rental_uris":{"android":"levelo://app?vid=c59680a8-733c-497b-b298-e7af61e5d03f","ios":"levelo://app?vid=c59680a8-733c-497b-b298-e7af61e5d03f"},"vehicle_type_id":"4","last_reported":1750273662,"current_range_meters":6400,"station_id":"ce4bhmh2rcd13ifvqgmg","pricing_plan_id":"cebpf4jnsgd1na2vs0mg"},{"bike_id":"13603010-4ba6-45d8-8742-faf7a41367fa","system_id":"levelo_inurba_marseille","lat":43.29207,"lon":5.38291,"is_reserved":false,"is_disabled":false,"rental_uris":{"android":"levelo://app?vid=13603010-4ba6-45d8-8742-faf7a41367fa","ios":"levelo://app?vid=13603010-4ba6-45d8-8742-faf7a41367fa"},"vehicle_type_id":"4","last_reported":1750273662,"current_range_meters":6800,"station_id":"","pricing_plan_id":"cebpf4jnsgd1na2vs0mg"},{"bike_id":"bc7800b9-b828-43f6-a2e7-5b8f8517c70f","system_id":"levelo_inurba_marseille","lat":43.29308,"lon":5.37168,"is_reserved":false,"is_disabled":false,"rental_uris":{"android":"levelo://app?vid=bc7800b9-b828-43f6-a2e7-5b8f8517c70f","ios":"levelo://app?vid=bc7800b9-b828-43f6-a2e7-5b8f8517c70f"},"vehicle_type_id":"4","last_reported":1750273662,"current_range_meters":6800,"station_id":"ce4bgh92rcd13ifvqb40","pricing_plan_id":"cebpf4jnsgd1na2vs0mg"},{"bike_id":"8927ae60-7756-411a-96e3-b7dbabf74c00","system_id":"levelo_inurba_marseille","lat":43.29923,"lon":5.37462,"is_reserved":false,"is_disabled":false,"rental_uris":{"android":"levelo://app?vid=8927ae60-7756-411a-96e3-b7dbabf74c00","ios":"levelo://app?vid=8927ae60-7756-411a-96e3-b7dbabf74c00"},"vehicle_type_id":"4","last_reported":1750273662,"current_range_meters":6800,"station_id":"ce4bgjh2rcd13ifvqbg0","pricing_plan_id":"cebpf4jnsgd1na2vs0mg"},{"bike_id":"820df921-69fc-426c-b325-82acf4918bb0","system_id":"levelo_inurba_marseille","lat":43.30604,"lon":5.372023,"is_reserved":false,"is_disabled":false,"rental_uris":{"android":"levelo://app?vid=820df921-69fc-426c-b325-82acf4918bb0","ios":"levelo://app?vid=820df921-69fc-426c-b325-82acf4918bb0"},"vehicle_type_id":"4","last_reported":1750273662,"current_range_meters":6800,"station_id":"ce4bgqh2rcd13ifvqc4g","pricing_plan_id":"cebpf4jnsgd1na2vs0mg"},{"bike_id":"3626154c-464e-4c64-806e-d4c9af0493fc","system_id":"levelo_inurba_marseille","lat":43.27423,"lon":5.39418,"is_reserved":false,"is_disabled":false,"rental_uris":{"android":"levelo://app?vid=3626154c-464e-4c64-806e-d4c9af0493fc","ios":"levelo://app?vid=3626154c-464e-4c64-806e-d4c9af0493fc"},"vehicle_type_id":"4","last_reported":1750273662,"current_range_meters":6800,"station_id":"ce4bhdp2rcd13ifvqf20","pricing_plan_id":"cebpf4jnsgd1na2vs0mg"},{"bike_id":"b00e7495-5f96-44ba-a5de-147bb3cfba3a","system_id":"levelo_inurba_marseille","lat":43.25502,"lon":5.3765,"is_reserved":false,"is_disabled":false,"rental_uris":{"android":"levelo://app?vid=b00e7495-5f96-44ba-a5de-147bb3cfba3a","ios":"levelo://app?vid=b00e7495-5f96-44ba-a5de-147bb3cfba3a"},"vehicle_type_id":"4","last_reported":1750273662,"current_range_meters":6800,"station_id":"ce4bhh12rcd13ifvqff0","pricing_plan_id":"cebpf4jnsgd1na2vs0mg"},{"bike_id":"eedc6fe3-43fd-40b5-a76e-31fb24643e78","system_id":"levelo_inurba_marseille","lat":43.275635,"lon":5.384207,"is_reserved":false,"is_disabled":false,"rental_uris":{"android":"levelo://app?vid=eedc6fe3-43fd-40b5-a76e-31fb24643e78","ios":"levelo://app?vid=eedc6fe3-43fd-40b5-a76e-31fb24643e78"},"vehicle_type_id":"4","last_reported":1750273662,"current_range_meters":6800,"station_id":"ce4bhh92rcd13ifvqfi0","pricing_plan_id":"cebpf4jnsgd1na2vs0mg"},{"bike_id":"753e4ae6-5ce5-455c-869e-b2594a9e0a04","system_id":"levelo_inurba_marseille","lat":43.21763,"lon":5.34591,"is_reserved":false,"is_disabled":false,"rental_uris":{"android":"levelo://app?vid=753e4ae6-5ce5-455c-869e-b2594a9e0a04","ios":"levelo://app?vid=753e4ae6-5ce5-455c-869e-b2594a9e0a04"},"vehicle_type_id":"4","last_reported":1750273662,"current_range_meters":6800,"station_id":"st_cvj6r9ubvosntc0bgbag","pricing_plan_id":"cebpf4jnsgd1na2vs0mg"},{"bike_id":"94bcc58f-7023-41cb-871b-3595da7eac8b","system_id":"levelo_inurba_marseille","lat":43.33142,"lon":5.3817,"is_reserved":false,"is_disabled":false,"rental_uris":{"android":"levelo://app?vid=94bcc58f-7023-41cb-871b-3595da7eac8b","ios":"levelo://app?vid=94bcc58f-7023-41cb-871b-3595da7eac8b"},"vehicle_type_id":"4","last_reported":1750273662,"current_range_meters":7200,"station_id":"","pricing_plan_id":"cebpf4jnsgd1na2vs0mg"},{"bike_id":"641c5c57-edd1-4e50-a345-96d6a654372e","system_id":"levelo_inurba_marseille","lat":43.23178,"lon":5.39986,"is_reserved":false,"is_disabled":false,"rental_uris":{"android":"levelo://app?vid=641c5c57-edd1-4e50-a345-96d6a654372e","ios":"levelo://app?vid=641c5c57-edd1-4e50-a345-96d6a654372e"},"vehicle_type_id":"4","last_reported":1750273662,"current_range_meters":7200,"station_id":"ce4bhn12rcd13ifvqgqg","pricing_plan_id":"cebpf4jnsgd1na2vs0mg"},{"bike_id":"884efa12-ce77-4eba-9082-28398d130c75","system_id":"levelo_inurba_marseille","lat":43.30773,"lon":5.41041,"is_reserved":false,"is_disabled":false,"rental_uris":{"android":"levelo://app?vid=884efa12-ce77-4eba-9082-28398d130c75","ios":"levelo://app?vid=884efa12-ce77-4eba-9082-28398d130c75"},"vehicle_type_id":"4","last_reported":1750273662,"current_range_meters":8000,"station_id":"","pricing_plan_id":"cebpf4jnsgd1na2vs0mg"},{"bike_id":"b5002037-f4b0-4634-8bc4-796d0c74810e","system_id":"levelo_inurba_marseille","lat":43.24387,"lon":5.41154,"is_reserved":false,"is_disabled":false,"rental_uris":{"android":"levelo://app?vid=b5002037-f4b0-4634-8bc4-796d0c74810e","ios":"levelo://app?vid=b5002037-f4b0-4634-8bc4-796d0c74810e"},"vehicle_type_id":"4","last_reported":1750273662,"current_range_meters":8000,"station_id":"","pricing_plan_id":"cebpf4jnsgd1na2vs0mg"},{"bike_id":"6f3a0055-18ce-456d-886f-5dd53c809fc5","system_id":"levelo_inurba_marseille","lat":43.26779,"lon":5.42547,"is_reserved":false,"is_disabled":false,"rental_uris":{"android":"levelo://app?vid=6f3a0055-18ce-456d-886f-5dd53c809fc5","ios":"levelo://app?vid=6f3a0055-18ce-456d-886f-5dd53c809fc5"},"vehicle_type_id":"4","last_reported":1750273662,"current_range_meters":8000,"station_id":"","pricing_plan_id":"cebpf4jnsgd1na2vs0mg"},{"bike_id":"efa6d7e8-4e4a-464a-8279-584d4bdf0722","system_id":"levelo_inurba_marseille","lat":43.29533,"lon":5.38539,"is_reserved":false,"is_disabled":false,"rental_uris":{"android":"levelo://app?vid=efa6d7e8-4e4a-464a-8279-584d4bdf0722","ios":"levelo://app?vid=efa6d7e8-4e4a-464a-8279-584d4bdf0722"},"vehicle_type_id":"4","last_reported":1750273662,"current_range_meters":8000,"station_id":"ce4bgih2rcd13ifvqba0","pricing_plan_id":"cebpf4jnsgd1na2vs0mg"},{"bike_id":"2bff7311-bdc0-4fb4-9492-4eff81344bc1","system_id":"levelo_inurba_marseille","lat":43.2174,"lon":5.34604,"is_reserved":false,"is_disabled":false,"rental_uris":{"android":"levelo://app?vid=2bff7311-bdc0-4fb4-9492-4eff81344bc1","ios":"levelo://app?vid=2bff7311-bdc0-4fb4-9492-4eff81344bc1"},"vehicle_type_id":"4","last_reported":1750273662,"current_range_meters":8000,"station_id":"st_cvj6r9ubvosntc0bgbag","pricing_plan_id":"cebpf4jnsgd1na2vs0mg"},{"bike_id":"75fd588d-acfb-46e9-8dd8-1fb428c7a2d5","system_id":"levelo_inurba_marseille","lat":43.33763,"lon":5.37451,"is_reserved":false,"is_disabled":false,"rental_uris":{"android":"levelo://app?vid=75fd588d-acfb-46e9-8dd8-1fb428c7a2d5","ios":"levelo://app?vid=75fd588d-acfb-46e9-8dd8-1fb428c7a2d5"},"vehicle_type_id":"4","last_reported":1750273662,"current_range_meters":8400,"station_id":"","pricing_plan_id":"cebpf4jnsgd1na2vs0mg"},{"bike_id":"3d1f4d7c-30e0-483f-a58a-852f29c86fa7","system_id":"levelo_inurba_marseille","lat":43.26805,"lon":5.40269,"is_reserved":false,"is_disabled":false,"rental_uris":{"android":"levelo://app?vid=3d1f4d7c-30e0-483f-a58a-852f29c86fa7","ios":"levelo://app?vid=3d1f4d7c-30e0-483f-a58a-852f29c86fa7"},"vehicle_type_id":"4","last_reported":1750273662,"current_range_meters":8400,"station_id":"ce501612rcd8frsf0b60","pricing_plan_id":"cebpf4jnsgd1na2vs0mg"},{"bike_id":"c5bb9805-0536-42fe-a40a-cf74ed321208","system_id":"levelo_inurba_marseille","lat":43.21762,"lon":5.34585,"is_reserved":false,"is_disabled":false,"rental_uris":{"android":"levelo://app?vid=c5bb9805-0536-42fe-a40a-cf74ed321208","ios":"levelo://app?vid=c5bb9805-0536-42fe-a40a-cf74ed321208"},"vehicle_type_id":"4","last_reported":1750273662,"current_range_meters":8400,"station_id":"st_cvj6r9ubvosntc0bgbag","pricing_plan_id":"cebpf4jnsgd1na2vs0mg"},{"bike_id":"afedbc8d-e6c7-4ef0-97f9-dd4cdd6dcce8","system_id":"levelo_inurba_marseille","lat":43.29968,"lon":5.38493,"is_reserved":false,"is_disabled":false,"rental_uris":{"android":"levelo://app?vid=afedbc8d-e6c7-4ef0-97f9-dd4cdd6dcce8","ios":"levelo://app?vid=afedbc8d-e6c7-4ef0-97f9-dd4cdd6dcce8"},"vehicle_type_id":"4","last_reported":1750273662,"current_range_meters":8800,"station_id":"ce4bgj92rcd13ifvqbd0","pricing_plan_id":"cebpf4jnsgd1na2vs0mg"},{"bike_id":"83cfee7d-980d-496a-98c8-745c7e44c68d","system_id":"levelo_inurba_marseille","lat":43.32881,"lon":5.39085,"is_reserved":false,"is_disabled":false,"rental_uris":{"android":"levelo://app?vid=83cfee7d-980d-496a-98c8-745c7e44c68d","ios":"levelo://app?vid=83cfee7d-980d-496a-98c8-745c7e44c68d"},"vehicle_type_id":"4","last_reported":1750273662,"current_range_meters":9200,"station_id":"","pricing_plan_id":"cebpf4jnsgd1na2vs0mg"},{"bike_id":"179deb9f-d586-4176-97e0-533afe3b5e8d","system_id":"levelo_inurba_marseille","lat":43.31075,"lon":5.38351,"is_reserved":false,"is_disabled":false,"rental_uris":{"android":"levelo://app?vid=179deb9f-d586-4176-97e0-533afe3b5e8d","ios":"levelo://app?vid=179deb9f-d586-4176-97e0-533afe3b5e8d"},"vehicle_type_id":"4","last_reported":1750273662,"current_range_meters":9200,"station_id":"ce4bgv92rcd13ifvqcr0","pricing_plan_id":"cebpf4jnsgd1na2vs0mg"},{"bike_id":"6d995fa1-e6d1-4995-a7fd-8fe0491d9479","system_id":"levelo_inurba_marseille","lat":43.28411,"lon":5.37512,"is_reserved":false,"is_disabled":false,"rental_uris":{"android":"levelo://app?vid=6d995fa1-e6d1-4995-a7fd-8fe0491d9479","ios":"levelo://app?vid=6d995fa1-e6d1-4995-a7fd-8fe0491d9479"},"vehicle_type_id":"4","last_reported":1750273662,"current_range_meters":9200,"station_id":"ce4bh412rcd13ifvqds0","pricing_plan_id":"cebpf4jnsgd1na2vs0mg"},{"bike_id":"f23876d6-a9f0-4c75-a97c-f15eb06b5682","system_id":"levelo_inurba_marseille","lat":43.2922,"lon":5.3604,"is_reserved":false,"is_disabled":false,"rental_uris":{"android":"levelo://app?vid=f23876d6-a9f0-4c75-a97c-f15eb06b5682","ios":"levelo://app?vid=f23876d6-a9f0-4c75-a97c-f15eb06b5682"},"vehicle_type_id":"4","last_reported":1750273662,"current_range_meters":9200,"station_id":"ce4bhbh2rcd13ifvqeqg","pricing_plan_id":"cebpf4jnsgd1na2vs0mg"},{"bike_id":"34f9f1d8-47f4-4fbd-902e-af77f2ec2fef","system_id":"levelo_inurba_marseille","lat":43.2551,"lon":5.37645,"is_reserved":false,"is_disabled":false,"rental_uris":{"android":"levelo://app?vid=34f9f1d8-47f4-4fbd-902e-af77f2ec2fef","ios":"levelo://app?vid=34f9f1d8-47f4-4fbd-902e-af77f2ec2fef"},"vehicle_type_id":"4","last_reported":1750273662,"current_range_meters":9200,"station_id":"ce4bhh12rcd13ifvqff0","pricing_plan_id":"cebpf4jnsgd1na2vs0mg"},{"bike_id":"ea95cab7-20c2-489a-b7e8-d87a7f3a38bc","system_id":"levelo_inurba_marseille","lat":43.23067,"lon":5.35489,"is_reserved":false,"is_disabled":false,"rental_uris":{"android":"levelo://app?vid=ea95cab7-20c2-489a-b7e8-d87a7f3a38bc","ios":"levelo://app?vid=ea95cab7-20c2-489a-b7e8-d87a7f3a38bc"},"vehicle_type_id":"4","last_reported":1750273662,"current_range_meters":9200,"station_id":"cpo3342slgdg3j2ifvpg","pricing_plan_id":"cebpf4jnsgd1na2vs0mg"},{"bike_id":"49d12d32-410f-44e4-a5a5-f785950cd9be","system_id":"levelo_inurba_marseille","lat":43.28269,"lon":5.3506,"is_reserved":false,"is_disabled":false,"rental_uris":{"android":"levelo://app?vid=49d12d32-410f-44e4-a5a5-f785950cd9be","ios":"levelo://app?vid=49d12d32-410f-44e4-a5a5-f785950cd9be"},"vehicle_type_id":"4","last_reported":1750273662,"current_range_meters":9600,"station_id":"","pricing_plan_id":"cebpf4jnsgd1na2vs0mg"},{"bike_id":"5aecca16-6760-4746-a370-b8dd0fd49b7b","system_id":"levelo_inurba_marseille","lat":43.30934,"lon":5.4014,"is_reserved":false,"is_disabled":false,"rental_uris":{"android":"levelo://app?vid=5aecca16-6760-4746-a370-b8dd0fd49b7b","ios":"levelo://app?vid=5aecca16-6760-4746-a370-b8dd0fd49b7b"},"vehicle_type_id":"4","last_reported":1750273662,"current_range_meters":9600,"station_id":"ce4bgvp2rcd13ifvqct0","pricing_plan_id":"cebpf4jnsgd1na2vs0mg"},{"bike_id":"98eb95c7-b152-4dce-afaf-162425caeb5a","system_id":"levelo_inurba_marseille","lat":43.2957,"lon":5.39962,"is_reserved":false,"is_disabled":false,"rental_uris":{"android":"levelo://app?vid=98eb95c7-b152-4dce-afaf-162425caeb5a","ios":"levelo://app?vid=98eb95c7-b152-4dce-afaf-162425caeb5a"},"vehicle_type_id":"4","last_reported":1750273662,"current_range_meters":9600,"station_id":"ce4bh312rcd13ifvqdj0","pricing_plan_id":"cebpf4jnsgd1na2vs0mg"},{"bike_id":"7f8f8b60-50f4-4653-b174-23ecb5e4115e","system_id":"levelo_inurba_marseille","lat":43.23198,"lon":5.39977,"is_reserved":false,"is_disabled":false,"rental_uris":{"android":"levelo://app?vid=7f8f8b60-50f4-4653-b174-23ecb5e4115e","ios":"levelo://app?vid=7f8f8b60-50f4-4653-b174-23ecb5e4115e"},"vehicle_type_id":"4","last_reported":1750273662,"current_range_meters":9600,"station_id":"ce4bhn12rcd13ifvqgqg","pricing_plan_id":"cebpf4jnsgd1na2vs0mg"},{"bike_id":"9f4dff6d-cab4-4140-a241-b5ee36f8059b","system_id":"levelo_inurba_marseille","lat":43.28444,"lon":5.39207,"is_reserved":false,"is_disabled":false,"rental_uris":{"android":"levelo://app?vid=9f4dff6d-cab4-4140-a241-b5ee36f8059b","ios":"levelo://app?vid=9f4dff6d-cab4-4140-a241-b5ee36f8059b"},"vehicle_type_id":"4","last_reported":1750273662,"current_range_meters":9600,"station_id":"ce4bhoh2rcd13ifvqh5g","pricing_plan_id":"cebpf4jnsgd1na2vs0mg"},{"bike_id":"09422bcc-671a-436f-b69f-25df465ecb21","system_id":"levelo_inurba_marseille","lat":43.21753,"lon":5.34599,"is_reserved":false,"is_disabled":false,"rental_uris":{"android":"levelo://app?vid=09422bcc-671a-436f-b69f-25df465ecb21","ios":"levelo://app?vid=09422bcc-671a-436f-b69f-25df465ecb21"},"vehicle_type_id":"4","last_reported":1750273662,"current_range_meters":9600,"station_id":"st_cvj6r9ubvosntc0bgbag","pricing_plan_id":"cebpf4jnsgd1na2vs0mg"},{"bike_id":"de0f7c2b-5974-4035-a240-8ed367c0e3f3","system_id":"levelo_inurba_marseille","lat":43.3196,"lon":5.37624,"is_reserved":false,"is_disabled":false,"rental_uris":{"android":"levelo://app?vid=de0f7c2b-5974-4035-a240-8ed367c0e3f3","ios":"levelo://app?vid=de0f7c2b-5974-4035-a240-8ed367c0e3f3"},"vehicle_type_id":"4","last_reported":1750273662,"current_range_meters":10000,"station_id":"","pricing_plan_id":"cebpf4jnsgd1na2vs0mg"},{"bike_id":"103096e4-ad17-4db0-a09f-c27dd36f1567","system_id":"levelo_inurba_marseille","lat":43.286161,"lon":5.350949,"is_reserved":false,"is_disabled":false,"rental_uris":{"android":"levelo://app?vid=103096e4-ad17-4db0-a09f-c27dd36f1567","ios":"levelo://app?vid=103096e4-ad17-4db0-a09f-c27dd36f1567"},"vehicle_type_id":"4","last_reported":1750273662,"current_range_meters":10000,"station_id":"ce4bhch2rcd13ifvqeug","pricing_plan_id":"cebpf4jnsgd1na2vs0mg"},{"bike_id":"0699c293-73c5-48a3-b557-26fcc4e821f2","system_id":"levelo_inurba_marseille","lat":43.32297,"lon":5.38263,"is_reserved":false,"is_disabled":false,"rental_uris":{"android":"levelo://app?vid=0699c293-73c5-48a3-b557-26fcc4e821f2","ios":"levelo://app?vid=0699c293-73c5-48a3-b557-26fcc4e821f2"},"vehicle_type_id":"4","last_reported":1750273662,"current_range_meters":10000,"station_id":"ce4bhr12rcd13ifvqhqg","pricing_plan_id":"cebpf4jnsgd1na2vs0mg"},{"bike_id":"fb194f5a-53fc-4e36-912a-90412b0ae45f","system_id":"levelo_inurba_marseille","lat":43.293102,"lon":5.371803,"is_reserved":false,"is_disabled":false,"rental_uris":{"android":"levelo://app?vid=fb194f5a-53fc-4e36-912a-90412b0ae45f","ios":"levelo://app?vid=fb194f5a-53fc-4e36-912a-90412b0ae45f"},"vehicle_type_id":"4","last_reported":1750273662,"current_range_meters":10800,"station_id":"ce4bgh92rcd13ifvqb40","pricing_plan_id":"cebpf4jnsgd1na2vs0mg"},{"bike_id":"1ba4a26e-5e50-42cb-b466-ef85b3c21096","system_id":"levelo_inurba_marseille","lat":43.29287,"lon":5.40113,"is_reserved":false,"is_disabled":false,"rental_uris":{"android":"levelo://app?vid=1ba4a26e-5e50-42cb-b466-ef85b3c21096","ios":"levelo://app?vid=1ba4a26e-5e50-42cb-b466-ef85b3c21096"},"vehicle_type_id":"4","last_reported":1750273662,"current_range_meters":10800,"station_id":"ce4bh312rcd13ifvqdk0","pricing_plan_id":"cebpf4jnsgd1na2vs0mg"},{"bike_id":"472de50e-6323-41ae-ae7f-5810264b6fbc","system_id":"levelo_inurba_marseille","lat":43.29885,"lon":5.38906,"is_reserved":false,"is_disabled":false,"rental_uris":{"android":"levelo://app?vid=472de50e-6323-41ae-ae7f-5810264b6fbc","ios":"levelo://app?vid=472de50e-6323-41ae-ae7f-5810264b6fbc"},"vehicle_type_id":"4","last_reported":1750273662,"current_range_meters":10800,"station_id":"ce4bh392rcd13ifvqdl0","pricing_plan_id":"cebpf4jnsgd1na2vs0mg"},{"bike_id":"87205fcf-db75-4851-a304-bb967d2ec912","system_id":"levelo_inurba_marseille","lat":43.29264,"lon":5.38427,"is_reserved":false,"is_disabled":false,"rental_uris":{"android":"levelo://app?vid=87205fcf-db75-4851-a304-bb967d2ec912","ios":"levelo://app?vid=87205fcf-db75-4851-a304-bb967d2ec912"},"vehicle_type_id":"4","last_reported":1750273662,"current_range_meters":10800,"station_id":"ce4bh692rcd13ifvqea0","pricing_plan_id":"cebpf4jnsgd1na2vs0mg"},{"bike_id":"2c853b6d-254e-442b-80eb-aeb8b48ea442","system_id":"levelo_inurba_marseille","lat":43.28432,"lon":5.34977,"is_reserved":false,"is_disabled":false,"rental_uris":{"android":"levelo://app?vid=2c853b6d-254e-442b-80eb-aeb8b48ea442","ios":"levelo://app?vid=2c853b6d-254e-442b-80eb-aeb8b48ea442"},"vehicle_type_id":"4","last_reported":1750273662,"current_range_meters":10800,"station_id":"ce4bhbh2rcd13ifvqepg","pricing_plan_id":"cebpf4jnsgd1na2vs0mg"},{"bike_id":"3518210a-6d90-482f-a11b-11cb7c94acd1","system_id":"levelo_inurba_marseille","lat":43.26475,"lon":5.39219,"is_reserved":false,"is_disabled":false,"rental_uris":{"android":"levelo://app?vid=3518210a-6d90-482f-a11b-11cb7c94acd1","ios":"levelo://app?vid=3518210a-6d90-482f-a11b-11cb7c94acd1"},"vehicle_type_id":"4","last_reported":1750273662,"current_range_meters":11200,"station_id":"","pricing_plan_id":"cebpf4jnsgd1na2vs0mg"},{"bike_id":"4204648f-cd82-4f58-a31a-4a1ea84fbd9f","system_id":"levelo_inurba_marseille","lat":43.28582,"lon":5.39496,"is_reserved":false,"is_disabled":false,"rental_uris":{"android":"levelo://app?vid=4204648f-cd82-4f58-a31a-4a1ea84fbd9f","ios":"levelo://app?vid=4204648f-cd82-4f58-a31a-4a1ea84fbd9f"},"vehicle_type_id":"4","last_reported":1750273662,"current_range_meters":11200,"station_id":"ce4bh292rcd13ifvqdg0","pricing_plan_id":"cebpf4jnsgd1na2vs0mg"},{"bike_id":"2fac188a-650f-45e7-a484-02b3ec4625f8","system_id":"levelo_inurba_marseille","lat":43.28941,"lon":5.36631,"is_reserved":false,"is_disabled":false,"rental_uris":{"android":"levelo://app?vid=2fac188a-650f-45e7-a484-02b3ec4625f8","ios":"levelo://app?vid=2fac188a-650f-45e7-a484-02b3ec4625f8"},"vehicle_type_id":"4","last_reported":1750273662,"current_range_meters":11200,"station_id":"ce4bhap2rcd13ifvqek0","pricing_plan_id":"cebpf4jnsgd1na2vs0mg"},{"bike_id":"cb3521a8-4c25-4dbd-ad3f-1f02c341b2e1","system_id":"levelo_inurba_marseille","lat":43.26032,"lon":5.37542,"is_reserved":false,"is_disabled":false,"rental_uris":{"android":"levelo://app?vid=cb3521a8-4c25-4dbd-ad3f-1f02c341b2e1","ios":"levelo://app?vid=cb3521a8-4c25-4dbd-ad3f-1f02c341b2e1"},"vehicle_type_id":"4","last_reported":1750273662,"current_range_meters":11200,"station_id":"ce4bhgh2rcd13ifvqfa0","pricing_plan_id":"cebpf4jnsgd1na2vs0mg"},{"bike_id":"d6902531-592f-460a-8728-1edfd7579642","system_id":"levelo_inurba_marseille","lat":43.31881,"lon":5.40736,"is_reserved":false,"is_disabled":false,"rental_uris":{"android":"levelo://app?vid=d6902531-592f-460a-8728-1edfd7579642","ios":"levelo://app?vid=d6902531-592f-460a-8728-1edfd7579642"},"vehicle_type_id":"4","last_reported":1750273662,"current_range_meters":11200,"station_id":"ce4bhq12rcd13ifvqhig","pricing_plan_id":"cebpf4jnsgd1na2vs0mg"},{"bike_id":"4b8da722-ee9e-48a4-a5e5-3a8a10364708","system_id":"levelo_inurba_marseille","lat":43.312216,"lon":5.378055,"is_reserved":false,"is_disabled":false,"rental_uris":{"android":"levelo://app?vid=4b8da722-ee9e-48a4-a5e5-3a8a10364708","ios":"levelo://app?vid=4b8da722-ee9e-48a4-a5e5-3a8a10364708"},"vehicle_type_id":"4","last_reported":1750273662,"current_range_meters":11600,"station_id":"","pricing_plan_id":"cebpf4jnsgd1na2vs0mg"},{"bike_id":"a5c0eca6-0a75-4353-941c-2563cb6f5966","system_id":"levelo_inurba_marseille","lat":43.273747,"lon":5.362564,"is_reserved":false,"is_disabled":false,"rental_uris":{"android":"levelo://app?vid=a5c0eca6-0a75-4353-941c-2563cb6f5966","ios":"levelo://app?vid=a5c0eca6-0a75-4353-941c-2563cb6f5966"},"vehicle_type_id":"4","last_reported":1750273662,"current_range_meters":11600,"station_id":"ce4bhbh2rcd13ifvqeo0","pricing_plan_id":"cebpf4jnsgd1na2vs0mg"},{"bike_id":"f96fac91-fcd6-4cf6-94db-3fb959156263","system_id":"levelo_inurba_marseille","lat":43.28291,"lon":5.35055,"is_reserved":false,"is_disabled":false,"rental_uris":{"android":"levelo://app?vid=f96fac91-fcd6-4cf6-94db-3fb959156263","ios":"levelo://app?vid=f96fac91-fcd6-4cf6-94db-3fb959156263"},"vehicle_type_id":"4","last_reported":1750273662,"current_range_meters":11600,"station_id":"ce4bhbp2rcd13ifvqerg","pricing_plan_id":"cebpf4jnsgd1na2vs0mg"},{"bike_id":"db7f4301-ec7a-415a-85e1-a69a362e6ae6","system_id":"levelo_inurba_marseille","lat":43.2861,"lon":5.35102,"is_reserved":false,"is_disabled":false,"rental_uris":{"android":"levelo://app?vid=db7f4301-ec7a-415a-85e1-a69a362e6ae6","ios":"levelo://app?vid=db7f4301-ec7a-415a-85e1-a69a362e6ae6"},"vehicle_type_id":"4","last_reported":1750273662,"current_range_meters":11600,"station_id":"ce4bhch2rcd13ifvqeug","pricing_plan_id":"cebpf4jnsgd1na2vs0mg"},{"bike_id":"ff9b23f9-dc25-4f0d-b063-3aed8c0ddb7f","system_id":"levelo_inurba_marseille","lat":43.31894,"lon":5.40727,"is_reserved":false,"is_disabled":false,"rental_uris":{"android":"levelo://app?vid=ff9b23f9-dc25-4f0d-b063-3aed8c0ddb7f","ios":"levelo://app?vid=ff9b23f9-dc25-4f0d-b063-3aed8c0ddb7f"},"vehicle_type_id":"4","last_reported":1750273662,"current_range_meters":11600,"station_id":"ce4bhq12rcd13ifvqhig","pricing_plan_id":"cebpf4jnsgd1na2vs0mg"},{"bike_id":"865cb0a2-d3d5-4fd6-954d-b115565b53fc","system_id":"levelo_inurba_marseille","lat":43.29511,"lon":5.39021,"is_reserved":false,"is_disabled":false,"rental_uris":{"android":"levelo://app?vid=865cb0a2-d3d5-4fd6-954d-b115565b53fc","ios":"levelo://app?vid=865cb0a2-d3d5-4fd6-954d-b115565b53fc"},"vehicle_type_id":"4","last_reported":1750273662,"current_range_meters":12000,"station_id":"ce4bh3p2rcd13ifvqdp0","pricing_plan_id":"cebpf4jnsgd1na2vs0mg"},{"bike_id":"6f2dde84-5fd5-4f0d-aceb-4d52d56d7de1","system_id":"levelo_inurba_marseille","lat":43.273785,"lon":5.362562,"is_reserved":false,"is_disabled":false,"rental_uris":{"android":"levelo://app?vid=6f2dde84-5fd5-4f0d-aceb-4d52d56d7de1","ios":"levelo://app?vid=6f2dde84-5fd5-4f0d-aceb-4d52d56d7de1"},"vehicle_type_id":"4","last_reported":1750273662,"current_range_meters":12000,"station_id":"ce4bhbh2rcd13ifvqeo0","pricing_plan_id":"cebpf4jnsgd1na2vs0mg"},{"bike_id":"38839dac-7d92-4e04-9910-541f5d360938","system_id":"levelo_inurba_marseille","lat":43.27072,"lon":5.42279,"is_reserved":false,"is_disabled":false,"rental_uris":{"android":"levelo://app?vid=38839dac-7d92-4e04-9910-541f5d360938","ios":"levelo://app?vid=38839dac-7d92-4e04-9910-541f5d360938"},"vehicle_type_id":"4","last_reported":1750273662,"current_range_meters":12000,"station_id":"ce4bhk92rcd13ifvqgb0","pricing_plan_id":"cebpf4jnsgd1na2vs0mg"},{"bike_id":"afd32feb-85c3-4629-9049-28b88f65377e","system_id":"levelo_inurba_marseille","lat":43.217175,"lon":5.345717,"is_reserved":false,"is_disabled":false,"rental_uris":{"android":"levelo://app?vid=afd32feb-85c3-4629-9049-28b88f65377e","ios":"levelo://app?vid=afd32feb-85c3-4629-9049-28b88f65377e"},"vehicle_type_id":"4","last_reported":1750273662,"current_range_meters":12000,"station_id":"cpo3532slgdg3j2ikp40","pricing_plan_id":"cebpf4jnsgd1na2vs0mg"},{"bike_id":"b9740617-416c-49ef-a593-d345aa13726b","system_id":"levelo_inurba_marseille","lat":43.27027,"lon":5.43138,"is_reserved":false,"is_disabled":false,"rental_uris":{"android":"levelo://app?vid=b9740617-416c-49ef-a593-d345aa13726b","ios":"levelo://app?vid=b9740617-416c-49ef-a593-d345aa13726b"},"vehicle_type_id":"4","last_reported":1750273662,"current_range_meters":12400,"station_id":"","pricing_plan_id":"cebpf4jnsgd1na2vs0mg"},{"bike_id":"72a93840-ce06-492f-9c60-a46270f3b67c","system_id":"levelo_inurba_marseille","lat":43.25379,"lon":5.39474,"is_reserved":false,"is_disabled":false,"rental_uris":{"android":"levelo://app?vid=72a93840-ce06-492f-9c60-a46270f3b67c","ios":"levelo://app?vid=72a93840-ce06-492f-9c60-a46270f3b67c"},"vehicle_type_id":"4","last_reported":1750273662,"current_range_meters":12400,"station_id":"","pricing_plan_id":"cebpf4jnsgd1na2vs0mg"},{"bike_id":"0dedb6f6-6801-483b-bfb8-9cd4533d158f","system_id":"levelo_inurba_marseille","lat":43.31168,"lon":5.38091,"is_reserved":false,"is_disabled":false,"rental_uris":{"android":"levelo://app?vid=0dedb6f6-6801-483b-bfb8-9cd4533d158f","ios":"levelo://app?vid=0dedb6f6-6801-483b-bfb8-9cd4533d158f"},"vehicle_type_id":"4","last_reported":1750273662,"current_range_meters":12400,"station_id":"","pricing_plan_id":"cebpf4jnsgd1na2vs0mg"},{"bike_id":"03a381ac-afca-4890-9b42-924d8701879e","system_id":"levelo_inurba_marseille","lat":43.29305,"lon":5.37168,"is_reserved":false,"is_disabled":false,"rental_uris":{"android":"levelo://app?vid=03a381ac-afca-4890-9b42-924d8701879e","ios":"levelo://app?vid=03a381ac-afca-4890-9b42-924d8701879e"},"vehicle_type_id":"4","last_reported":1750273662,"current_range_meters":12400,"station_id":"ce4bgh92rcd13ifvqb40","pricing_plan_id":"cebpf4jnsgd1na2vs0mg"},{"bike_id":"bd2f6331-d43b-4dac-bebb-70140684452d","system_id":"levelo_inurba_marseille","lat":43.30125,"lon":5.38764,"is_reserved":false,"is_disabled":false,"rental_uris":{"android":"levelo://app?vid=bd2f6331-d43b-4dac-bebb-70140684452d","ios":"levelo://app?vid=bd2f6331-d43b-4dac-bebb-70140684452d"},"vehicle_type_id":"4","last_reported":1750273662,"current_range_meters":12400,"station_id":"ce4bghh2rcd13ifvqb60","pricing_plan_id":"cebpf4jnsgd1na2vs0mg"},{"bike_id":"ea14dd31-82bd-448f-8f90-bcb71e739c56","system_id":"levelo_inurba_marseille","lat":43.29441,"lon":5.39748,"is_reserved":false,"is_disabled":false,"rental_uris":{"android":"levelo://app?vid=ea14dd31-82bd-448f-8f90-bcb71e739c56","ios":"levelo://app?vid=ea14dd31-82bd-448f-8f90-bcb71e739c56"},"vehicle_type_id":"4","last_reported":1750273662,"current_range_meters":12400,"station_id":"ce4bh3h2rcd13ifvqdo0","pricing_plan_id":"cebpf4jnsgd1na2vs0mg"},{"bike_id":"72945425-1aaa-4e75-9ae2-476e905a3c78","system_id":"levelo_inurba_marseille","lat":43.28032,"lon":5.36942,"is_reserved":false,"is_disabled":false,"rental_uris":{"android":"levelo://app?vid=72945425-1aaa-4e75-9ae2-476e905a3c78","ios":"levelo://app?vid=72945425-1aaa-4e75-9ae2-476e905a3c78"},"vehicle_type_id":"4","last_reported":1750273662,"current_range_meters":12400,"station_id":"ce4bha12rcd13ifvqef0","pricing_plan_id":"cebpf4jnsgd1na2vs0mg"},{"bike_id":"090d8134-33c4-46ee-b3a3-bf74142ea81d","system_id":"levelo_inurba_marseille","lat":43.286601,"lon":5.367546,"is_reserved":false,"is_disabled":false,"rental_uris":{"android":"levelo://app?vid=090d8134-33c4-46ee-b3a3-bf74142ea81d","ios":"levelo://app?vid=090d8134-33c4-46ee-b3a3-bf74142ea81d"},"vehicle_type_id":"4","last_reported":1750273662,"current_range_meters":12800,"station_id":"ce4bgj92rcd13ifvqbd0","pricing_plan_id":"cebpf4jnsgd1na2vs0mg"},{"bike_id":"a1f638ce-8b8c-4679-af23-b1fb5380917b","system_id":"levelo_inurba_marseille","lat":43.28937,"lon":5.39626,"is_reserved":false,"is_disabled":false,"rental_uris":{"android":"levelo://app?vid=a1f638ce-8b8c-4679-af23-b1fb5380917b","ios":"levelo://app?vid=a1f638ce-8b8c-4679-af23-b1fb5380917b"},"vehicle_type_id":"4","last_reported":1750273662,"current_range_meters":12800,"station_id":"ce4bh3h2rcd13ifvqdn0","pricing_plan_id":"cebpf4jnsgd1na2vs0mg"},{"bike_id":"72144463-cc6c-4fcb-9cad-42a0453375c2","system_id":"levelo_inurba_marseille","lat":43.28361,"lon":5.381,"is_reserved":false,"is_disabled":false,"rental_uris":{"android":"levelo://app?vid=72144463-cc6c-4fcb-9cad-42a0453375c2","ios":"levelo://app?vid=72144463-cc6c-4fcb-9cad-42a0453375c2"},"vehicle_type_id":"4","last_reported":1750273662,"current_range_meters":12800,"station_id":"ce4bh412rcd13ifvqdr0","pricing_plan_id":"cebpf4jnsgd1na2vs0mg"},{"bike_id":"2a98b236-cdc9-4b58-8c20-3ba23def1ca4","system_id":"levelo_inurba_marseille","lat":43.29261,"lon":5.38443,"is_reserved":false,"is_disabled":false,"rental_uris":{"android":"levelo://app?vid=2a98b236-cdc9-4b58-8c20-3ba23def1ca4","ios":"levelo://app?vid=2a98b236-cdc9-4b58-8c20-3ba23def1ca4"},"vehicle_type_id":"4","last_reported":1750273662,"current_range_meters":12800,"station_id":"ce4bh692rcd13ifvqea0","pricing_plan_id":"cebpf4jnsgd1na2vs0mg"},{"bike_id":"c17c9dea-dcf8-4eac-8070-af3d79cb96f7","system_id":"levelo_inurba_marseille","lat":43.29007,"lon":5.35609,"is_reserved":false,"is_disabled":false,"rental_uris":{"android":"levelo://app?vid=c17c9dea-dcf8-4eac-8070-af3d79cb96f7","ios":"levelo://app?vid=c17c9dea-dcf8-4eac-8070-af3d79cb96f7"},"vehicle_type_id":"4","last_reported":1750273662,"current_range_meters":12800,"station_id":"ce4bhb92rcd13ifvqen0","pricing_plan_id":"cebpf4jnsgd1na2vs0mg"},{"bike_id":"1a8ca3ad-9ea3-498f-9008-81b738d413f5","system_id":"levelo_inurba_marseille","lat":43.28411,"lon":5.34989,"is_reserved":false,"is_disabled":false,"rental_uris":{"android":"levelo://app?vid=1a8ca3ad-9ea3-498f-9008-81b738d413f5","ios":"levelo://app?vid=1a8ca3ad-9ea3-498f-9008-81b738d413f5"},"vehicle_type_id":"4","last_reported":1750273662,"current_range_meters":12800,"station_id":"ce4bhbh2rcd13ifvqepg","pricing_plan_id":"cebpf4jnsgd1na2vs0mg"},{"bike_id":"ad80457c-fff7-48f6-93a6-4763a8e3601a","system_id":"levelo_inurba_marseille","lat":43.24388,"lon":5.37054,"is_reserved":false,"is_disabled":false,"rental_uris":{"android":"levelo://app?vid=ad80457c-fff7-48f6-93a6-4763a8e3601a","ios":"levelo://app?vid=ad80457c-fff7-48f6-93a6-4763a8e3601a"},"vehicle_type_id":"4","last_reported":1750273662,"current_range_meters":12800,"station_id":"ce4bhhh2rcd13ifvqfk0","pricing_plan_id":"cebpf4jnsgd1na2vs0mg"},{"bike_id":"77dcc992-90ab-4944-aae2-b4e6e003f690","system_id":"levelo_inurba_marseille","lat":43.29745,"lon":5.36585,"is_reserved":false,"is_disabled":false,"rental_uris":{"android":"levelo://app?vid=77dcc992-90ab-4944-aae2-b4e6e003f690","ios":"levelo://app?vid=77dcc992-90ab-4944-aae2-b4e6e003f690"},"vehicle_type_id":"4","last_reported":1750273662,"current_range_meters":13600,"station_id":"ce4bgn12rcd13ifvqbt0","pricing_plan_id":"cebpf4jnsgd1na2vs0mg"},{"bike_id":"62eaeb11-b664-44cc-87d3-e1eba931c6ba","system_id":"levelo_inurba_marseille","lat":43.28621,"lon":5.35106,"is_reserved":false,"is_disabled":false,"rental_uris":{"android":"levelo://app?vid=62eaeb11-b664-44cc-87d3-e1eba931c6ba","ios":"levelo://app?vid=62eaeb11-b664-44cc-87d3-e1eba931c6ba"},"vehicle_type_id":"4","last_reported":1750273662,"current_range_meters":13600,"station_id":"ce4bhch2rcd13ifvqeug","pricing_plan_id":"cebpf4jnsgd1na2vs0mg"},{"bike_id":"14cfff0b-42a0-4a66-a9bc-4e17a362a100","system_id":"levelo_inurba_marseille","lat":43.25493,"lon":5.37648,"is_reserved":false,"is_disabled":false,"rental_uris":{"android":"levelo://app?vid=14cfff0b-42a0-4a66-a9bc-4e17a362a100","ios":"levelo://app?vid=14cfff0b-42a0-4a66-a9bc-4e17a362a100"},"vehicle_type_id":"4","last_reported":1750273662,"current_range_meters":13600,"station_id":"ce4bhh12rcd13ifvqff0","pricing_plan_id":"cebpf4jnsgd1na2vs0mg"},{"bike_id":"c92ca84b-163a-47d3-8793-4d9a9b2eaeab","system_id":"levelo_inurba_marseille","lat":43.28082,"lon":5.3966,"is_reserved":false,"is_disabled":false,"rental_uris":{"android":"levelo://app?vid=c92ca84b-163a-47d3-8793-4d9a9b2eaeab","ios":"levelo://app?vid=c92ca84b-163a-47d3-8793-4d9a9b2eaeab"},"vehicle_type_id":"4","last_reported":1750273662,"current_range_meters":13600,"station_id":"ce4bho12rcd13ifvqh2g","pricing_plan_id":"cebpf4jnsgd1na2vs0mg"},{"bike_id":"ff899b15-fdd1-4c2d-9023-b38ebd1a6335","system_id":"levelo_inurba_marseille","lat":43.23205,"lon":5.35543,"is_reserved":false,"is_disabled":false,"rental_uris":{"android":"levelo://app?vid=ff899b15-fdd1-4c2d-9023-b38ebd1a6335","ios":"levelo://app?vid=ff899b15-fdd1-4c2d-9023-b38ebd1a6335"},"vehicle_type_id":"4","last_reported":1750273662,"current_range_meters":13600,"station_id":"ce4bhu92rcd13ifvqi70","pricing_plan_id":"cebpf4jnsgd1na2vs0mg"},{"bike_id":"268aafb4-1331-426c-97bc-a7d6564caeb6","system_id":"levelo_inurba_marseille","lat":43.32933,"lon":5.37919,"is_reserved":false,"is_disabled":false,"rental_uris":{"android":"levelo://app?vid=268aafb4-1331-426c-97bc-a7d6564caeb6","ios":"levelo://app?vid=268aafb4-1331-426c-97bc-a7d6564caeb6"},"vehicle_type_id":"4","last_reported":1750273662,"current_range_meters":14000,"station_id":"","pricing_plan_id":"cebpf4jnsgd1na2vs0mg"},{"bike_id":"6a7f5603-e42b-4cf2-8a1b-ed23825980dd","system_id":"levelo_inurba_marseille","lat":43.29312,"lon":5.37173,"is_reserved":false,"is_disabled":false,"rental_uris":{"android":"levelo://app?vid=6a7f5603-e42b-4cf2-8a1b-ed23825980dd","ios":"levelo://app?vid=6a7f5603-e42b-4cf2-8a1b-ed23825980dd"},"vehicle_type_id":"4","last_reported":1750273662,"current_range_meters":14000,"station_id":"ce4bgh92rcd13ifvqb40","pricing_plan_id":"cebpf4jnsgd1na2vs0mg"},{"bike_id":"afe2b747-cb78-48f7-9e22-ba136b5ac22d","system_id":"levelo_inurba_marseille","lat":43.26559,"lon":5.37281,"is_reserved":false,"is_disabled":false,"rental_uris":{"android":"levelo://app?vid=afe2b747-cb78-48f7-9e22-ba136b5ac22d","ios":"levelo://app?vid=afe2b747-cb78-48f7-9e22-ba136b5ac22d"},"vehicle_type_id":"4","last_reported":1750273662,"current_range_meters":14000,"station_id":"ce4bhg12rcd13ifvqf70","pricing_plan_id":"cebpf4jnsgd1na2vs0mg"},{"bike_id":"6017268b-7338-4176-ac31-d04e6ac7cc02","system_id":"levelo_inurba_marseille","lat":43.26213,"lon":5.37442,"is_reserved":false,"is_disabled":false,"rental_uris":{"android":"levelo://app?vid=6017268b-7338-4176-ac31-d04e6ac7cc02","ios":"levelo://app?vid=6017268b-7338-4176-ac31-d04e6ac7cc02"},"vehicle_type_id":"4","last_reported":1750273662,"current_range_meters":14000,"station_id":"ce4bhgp2rcd13ifvqfc0","pricing_plan_id":"cebpf4jnsgd1na2vs0mg"},{"bike_id":"56084ee7-25d3-4876-8fe0-e631097d5df1","system_id":"levelo_inurba_marseille","lat":43.2559,"lon":5.38226,"is_reserved":false,"is_disabled":false,"rental_uris":{"android":"levelo://app?vid=56084ee7-25d3-4876-8fe0-e631097d5df1","ios":"levelo://app?vid=56084ee7-25d3-4876-8fe0-e631097d5df1"},"vehicle_type_id":"4","last_reported":1750273662,"current_range_meters":14000,"station_id":"ce4bhih2rcd13ifvqfs0","pricing_plan_id":"cebpf4jnsgd1na2vs0mg"},{"bike_id":"991d1c88-d029-4ea8-bf0f-c6693362fb4b","system_id":"levelo_inurba_marseille","lat":43.24073,"lon":5.3776,"is_reserved":false,"is_disabled":false,"rental_uris":{"android":"levelo://app?vid=991d1c88-d029-4ea8-bf0f-c6693362fb4b","ios":"levelo://app?vid=991d1c88-d029-4ea8-bf0f-c6693362fb4b"},"vehicle_type_id":"4","last_reported":1750273662,"current_range_meters":14000,"station_id":"ce4bhnp2rcd13ifvqgvg","pricing_plan_id":"cebpf4jnsgd1na2vs0mg"},{"bike_id":"3c47cf7f-e310-44eb-9cb5-8450655ff402","system_id":"levelo_inurba_marseille","lat":43.28937,"lon":5.36638,"is_reserved":false,"is_disabled":false,"rental_uris":{"android":"levelo://app?vid=3c47cf7f-e310-44eb-9cb5-8450655ff402","ios":"levelo://app?vid=3c47cf7f-e310-44eb-9cb5-8450655ff402"},"vehicle_type_id":"4","last_reported":1750273662,"current_range_meters":14400,"station_id":"ce4bhap2rcd13ifvqek0","pricing_plan_id":"cebpf4jnsgd1na2vs0mg"},{"bike_id":"9637a346-4b0e-40cd-9fce-b2ca02d9432c","system_id":"levelo_inurba_marseille","lat":43.28621,"lon":5.351,"is_reserved":false,"is_disabled":false,"rental_uris":{"android":"levelo://app?vid=9637a346-4b0e-40cd-9fce-b2ca02d9432c","ios":"levelo://app?vid=9637a346-4b0e-40cd-9fce-b2ca02d9432c"},"vehicle_type_id":"4","last_reported":1750273662,"current_range_meters":14400,"station_id":"ce4bhch2rcd13ifvqeug","pricing_plan_id":"cebpf4jnsgd1na2vs0mg"},{"bike_id":"dc0ac854-59c2-4773-9a3a-1829c1d34c28","system_id":"levelo_inurba_marseille","lat":43.27913,"lon":5.39576,"is_reserved":false,"is_disabled":false,"rental_uris":{"android":"levelo://app?vid=dc0ac854-59c2-4773-9a3a-1829c1d34c28","ios":"levelo://app?vid=dc0ac854-59c2-4773-9a3a-1829c1d34c28"},"vehicle_type_id":"4","last_reported":1750273662,"current_range_meters":14400,"station_id":"ce4bhf92rcd13ifvqf40","pricing_plan_id":"cebpf4jnsgd1na2vs0mg"},{"bike_id":"9e8a753e-1a3a-4387-a9be-de6f77f12b9d","system_id":"levelo_inurba_marseille","lat":43.2482,"lon":5.37451,"is_reserved":false,"is_disabled":false,"rental_uris":{"android":"levelo://app?vid=9e8a753e-1a3a-4387-a9be-de6f77f12b9d","ios":"levelo://app?vid=9e8a753e-1a3a-4387-a9be-de6f77f12b9d"},"vehicle_type_id":"4","last_reported":1750273662,"current_range_meters":14400,"station_id":"ce4bhgh2rcd13ifvqfb0","pricing_plan_id":"cebpf4jnsgd1na2vs0mg"},{"bike_id":"9d2a90e7-394f-41d8-ae49-77712a22ee78","system_id":"levelo_inurba_marseille","lat":43.25488,"lon":5.376396,"is_reserved":false,"is_disabled":false,"rental_uris":{"android":"levelo://app?vid=9d2a90e7-394f-41d8-ae49-77712a22ee78","ios":"levelo://app?vid=9d2a90e7-394f-41d8-ae49-77712a22ee78"},"vehicle_type_id":"4","last_reported":1750273662,"current_range_meters":14400,"station_id":"ce4bhh12rcd13ifvqff0","pricing_plan_id":"cebpf4jnsgd1na2vs0mg"},{"bike_id":"d131648c-62dd-4350-a484-bb7b469ec4d5","system_id":"levelo_inurba_marseille","lat":43.23193,"lon":5.39983,"is_reserved":false,"is_disabled":false,"rental_uris":{"android":"levelo://app?vid=d131648c-62dd-4350-a484-bb7b469ec4d5","ios":"levelo://app?vid=d131648c-62dd-4350-a484-bb7b469ec4d5"},"vehicle_type_id":"4","last_reported":1750273662,"current_range_meters":14400,"station_id":"ce4bhn12rcd13ifvqgqg","pricing_plan_id":"cebpf4jnsgd1na2vs0mg"},{"bike_id":"2bd1a77f-6c62-40e5-a236-93cfdbb76e02","system_id":"levelo_inurba_marseille","lat":43.30426,"lon":5.41276,"is_reserved":false,"is_disabled":false,"rental_uris":{"android":"levelo://app?vid=2bd1a77f-6c62-40e5-a236-93cfdbb76e02","ios":"levelo://app?vid=2bd1a77f-6c62-40e5-a236-93cfdbb76e02"},"vehicle_type_id":"4","last_reported":1750273662,"current_range_meters":14400,"station_id":"ce4bhop2rcd13ifvqh8g","pricing_plan_id":"cebpf4jnsgd1na2vs0mg"},{"bike_id":"486f1277-e71a-4b2b-9e0e-1c0a1063e6be","system_id":"levelo_inurba_marseille","lat":43.28613,"lon":5.3705,"is_reserved":false,"is_disabled":false,"rental_uris":{"android":"levelo://app?vid=486f1277-e71a-4b2b-9e0e-1c0a1063e6be","ios":"levelo://app?vid=486f1277-e71a-4b2b-9e0e-1c0a1063e6be"},"vehicle_type_id":"4","last_reported":1750273662,"current_range_meters":14400,"station_id":"ce4bht12rcd13ifvqi60","pricing_plan_id":"cebpf4jnsgd1na2vs0mg"},{"bike_id":"975d7472-abaa-40d3-8524-613626275fdc","system_id":"levelo_inurba_marseille","lat":43.231911,"lon":5.355524,"is_reserved":false,"is_disabled":false,"rental_uris":{"android":"levelo://app?vid=975d7472-abaa-40d3-8524-613626275fdc","ios":"levelo://app?vid=975d7472-abaa-40d3-8524-613626275fdc"},"vehicle_type_id":"4","last_reported":1750273662,"current_range_meters":14400,"station_id":"ce4bhu92rcd13ifvqi70","pricing_plan_id":"cebpf4jnsgd1na2vs0mg"},{"bike_id":"2d436c77-2599-42be-ae7a-ea700afefca6","system_id":"levelo_inurba_marseille","lat":43.24174,"lon":5.36385,"is_reserved":false,"is_disabled":false,"rental_uris":{"android":"levelo://app?vid=2d436c77-2599-42be-ae7a-ea700afefca6","ios":"levelo://app?vid=2d436c77-2599-42be-ae7a-ea700afefca6"},"vehicle_type_id":"4","last_reported":1750273662,"current_range_meters":14400,"station_id":"cpo36qri1sfpv3e86is0","pricing_plan_id":"cebpf4jnsgd1na2vs0mg"},{"bike_id":"de1e0e0c-c0e4-4f12-934d-e677600d025e","system_id":"levelo_inurba_marseille","lat":43.29693,"lon":5.37288,"is_reserved":false,"is_disabled":false,"rental_uris":{"android":"levelo://app?vid=de1e0e0c-c0e4-4f12-934d-e677600d025e","ios":"levelo://app?vid=de1e0e0c-c0e4-4f12-934d-e677600d025e"},"vehicle_type_id":"4","last_reported":1750273662,"current_range_meters":14800,"station_id":"ce4bgk12rcd13ifvqbj0","pricing_plan_id":"cebpf4jnsgd1na2vs0mg"},{"bike_id":"eaaa9fcd-34d4-4d0b-8f90-fbf605a0610f","system_id":"levelo_inurba_marseille","lat":43.21199,"lon":5.35046,"is_reserved":false,"is_disabled":false,"rental_uris":{"android":"levelo://app?vid=eaaa9fcd-34d4-4d0b-8f90-fbf605a0610f","ios":"levelo://app?vid=eaaa9fcd-34d4-4d0b-8f90-fbf605a0610f"},"vehicle_type_id":"4","last_reported":1750273662,"current_range_meters":14800,"station_id":"st_cvj6sg6p6f1abm77japg","pricing_plan_id":"cebpf4jnsgd1na2vs0mg"},{"bike_id":"f025e0b0-8595-426c-b214-cb9b74c5fcfd","system_id":"levelo_inurba_marseille","lat":43.32214,"lon":5.40578,"is_reserved":false,"is_disabled":false,"rental_uris":{"android":"levelo://app?vid=f025e0b0-8595-426c-b214-cb9b74c5fcfd","ios":"levelo://app?vid=f025e0b0-8595-426c-b214-cb9b74c5fcfd"},"vehicle_type_id":"4","last_reported":1750273662,"current_range_meters":15200,"station_id":"","pricing_plan_id":"cebpf4jnsgd1na2vs0mg"},{"bike_id":"56fdfc4e-979c-4ed5-9885-57018d76de79","system_id":"levelo_inurba_marseille","lat":43.29363,"lon":5.42839,"is_reserved":false,"is_disabled":false,"rental_uris":{"android":"levelo://app?vid=56fdfc4e-979c-4ed5-9885-57018d76de79","ios":"levelo://app?vid=56fdfc4e-979c-4ed5-9885-57018d76de79"},"vehicle_type_id":"4","last_reported":1750273662,"current_range_meters":15200,"station_id":"","pricing_plan_id":"cebpf4jnsgd1na2vs0mg"},{"bike_id":"8f2f110d-3523-4ef9-bc08-ec6dd9603c94","system_id":"levelo_inurba_marseille","lat":43.29714,"lon":5.36629,"is_reserved":false,"is_disabled":false,"rental_uris":{"android":"levelo://app?vid=8f2f110d-3523-4ef9-bc08-ec6dd9603c94","ios":"levelo://app?vid=8f2f110d-3523-4ef9-bc08-ec6dd9603c94"},"vehicle_type_id":"4","last_reported":1750273662,"current_range_meters":15200,"station_id":"ce4bgn12rcd13ifvqbt0","pricing_plan_id":"cebpf4jnsgd1na2vs0mg"},{"bike_id":"87a7e052-ec35-4146-8d00-dc2cb30af42c","system_id":"levelo_inurba_marseille","lat":43.286138,"lon":5.350985,"is_reserved":false,"is_disabled":false,"rental_uris":{"android":"levelo://app?vid=87a7e052-ec35-4146-8d00-dc2cb30af42c","ios":"levelo://app?vid=87a7e052-ec35-4146-8d00-dc2cb30af42c"},"vehicle_type_id":"4","last_reported":1750273662,"current_range_meters":15200,"station_id":"ce4bhch2rcd13ifvqeug","pricing_plan_id":"cebpf4jnsgd1na2vs0mg"},{"bike_id":"8e4977f6-8ed1-489f-b52b-8d344f24a262","system_id":"levelo_inurba_marseille","lat":43.24803,"lon":5.37454,"is_reserved":false,"is_disabled":false,"rental_uris":{"android":"levelo://app?vid=8e4977f6-8ed1-489f-b52b-8d344f24a262","ios":"levelo://app?vid=8e4977f6-8ed1-489f-b52b-8d344f24a262"},"vehicle_type_id":"4","last_reported":1750273662,"current_range_meters":15200,"station_id":"ce4bhgh2rcd13ifvqfb0","pricing_plan_id":"cebpf4jnsgd1na2vs0mg"},{"bike_id":"4104a466-9655-4d89-b0d8-97e6f7d4999f","system_id":"levelo_inurba_marseille","lat":43.25131,"lon":5.40346,"is_reserved":false,"is_disabled":false,"rental_uris":{"android":"levelo://app?vid=4104a466-9655-4d89-b0d8-97e6f7d4999f","ios":"levelo://app?vid=4104a466-9655-4d89-b0d8-97e6f7d4999f"},"vehicle_type_id":"4","last_reported":1750273662,"current_range_meters":15200,"station_id":"ce4bhlh2rcd13ifvqgig","pricing_plan_id":"cebpf4jnsgd1na2vs0mg"},{"bike_id":"65be88d8-1132-4ab5-8053-668d0c8dc5a6","system_id":"levelo_inurba_marseille","lat":43.229316,"lon":5.353696,"is_reserved":false,"is_disabled":false,"rental_uris":{"android":"levelo://app?vid=65be88d8-1132-4ab5-8053-668d0c8dc5a6","ios":"levelo://app?vid=65be88d8-1132-4ab5-8053-668d0c8dc5a6"},"vehicle_type_id":"4","last_reported":1750273662,"current_range_meters":15200,"station_id":"cpo3532slgdg3j2ikp40","pricing_plan_id":"cebpf4jnsgd1na2vs0mg"},{"bike_id":"e921cee3-b8ce-4c00-b7eb-8ab335b5e125","system_id":"levelo_inurba_marseille","lat":43.302022,"lon":5.42267,"is_reserved":false,"is_disabled":false,"rental_uris":{"android":"levelo://app?vid=e921cee3-b8ce-4c00-b7eb-8ab335b5e125","ios":"levelo://app?vid=e921cee3-b8ce-4c00-b7eb-8ab335b5e125"},"vehicle_type_id":"4","last_reported":1750273662,"current_range_meters":16000,"station_id":"","pricing_plan_id":"cebpf4jnsgd1na2vs0mg"},{"bike_id":"3eb9992a-e24a-4ed3-bd44-5e035e6e973e","system_id":"levelo_inurba_marseille","lat":43.31316,"lon":5.37879,"is_reserved":false,"is_disabled":false,"rental_uris":{"android":"levelo://app?vid=3eb9992a-e24a-4ed3-bd44-5e035e6e973e","ios":"levelo://app?vid=3eb9992a-e24a-4ed3-bd44-5e035e6e973e"},"vehicle_type_id":"4","last_reported":1750273662,"current_range_meters":16000,"station_id":"","pricing_plan_id":"cebpf4jnsgd1na2vs0mg"},{"bike_id":"ddabd6d0-d2bb-43d8-bb91-9b39a9fa3b49","system_id":"levelo_inurba_marseille","lat":43.30147,"lon":5.3878,"is_reserved":false,"is_disabled":false,"rental_uris":{"android":"levelo://app?vid=ddabd6d0-d2bb-43d8-bb91-9b39a9fa3b49","ios":"levelo://app?vid=ddabd6d0-d2bb-43d8-bb91-9b39a9fa3b49"},"vehicle_type_id":"4","last_reported":1750273662,"current_range_meters":16000,"station_id":"ce4bghh2rcd13ifvqb60","pricing_plan_id":"cebpf4jnsgd1na2vs0mg"},{"bike_id":"82beebf5-5299-4c80-8cf2-c269feb74888","system_id":"levelo_inurba_marseille","lat":43.29964,"lon":5.37135,"is_reserved":false,"is_disabled":false,"rental_uris":{"android":"levelo://app?vid=82beebf5-5299-4c80-8cf2-c269feb74888","ios":"levelo://app?vid=82beebf5-5299-4c80-8cf2-c269feb74888"},"vehicle_type_id":"4","last_reported":1750273662,"current_range_meters":16000,"station_id":"ce4bgr92rcd13ifvqc7g","pricing_plan_id":"cebpf4jnsgd1na2vs0mg"},{"bike_id":"29ea011c-1ea3-4e46-bcb7-f65d38fe452d","system_id":"levelo_inurba_marseille","lat":43.28418,"lon":5.34986,"is_reserved":false,"is_disabled":false,"rental_uris":{"android":"levelo://app?vid=29ea011c-1ea3-4e46-bcb7-f65d38fe452d","ios":"levelo://app?vid=29ea011c-1ea3-4e46-bcb7-f65d38fe452d"},"vehicle_type_id":"4","last_reported":1750273662,"current_range_meters":16000,"station_id":"ce4bhbh2rcd13ifvqepg","pricing_plan_id":"cebpf4jnsgd1na2vs0mg"},{"bike_id":"1ca258ed-119b-4b22-9d64-f1c44ade5669","system_id":"levelo_inurba_marseille","lat":43.28415,"lon":5.34986,"is_reserved":false,"is_disabled":false,"rental_uris":{"android":"levelo://app?vid=1ca258ed-119b-4b22-9d64-f1c44ade5669","ios":"levelo://app?vid=1ca258ed-119b-4b22-9d64-f1c44ade5669"},"vehicle_type_id":"4","last_reported":1750273662,"current_range_meters":16000,"station_id":"ce4bhbh2rcd13ifvqepg","pricing_plan_id":"cebpf4jnsgd1na2vs0mg"},{"bike_id":"b5e801da-6f42-404a-8dec-f6fc0337070f","system_id":"levelo_inurba_marseille","lat":43.28416,"lon":5.34984,"is_reserved":false,"is_disabled":false,"rental_uris":{"android":"levelo://app?vid=b5e801da-6f42-404a-8dec-f6fc0337070f","ios":"levelo://app?vid=b5e801da-6f42-404a-8dec-f6fc0337070f"},"vehicle_type_id":"4","last_reported":1750273662,"current_range_meters":16000,"station_id":"ce4bhbh2rcd13ifvqepg","pricing_plan_id":"cebpf4jnsgd1na2vs0mg"},{"bike_id":"e7dad37e-e27e-45a3-98af-53555fde6281","system_id":"levelo_inurba_marseille","lat":43.28293,"lon":5.35054,"is_reserved":false,"is_disabled":false,"rental_uris":{"android":"levelo://app?vid=e7dad37e-e27e-45a3-98af-53555fde6281","ios":"levelo://app?vid=e7dad37e-e27e-45a3-98af-53555fde6281"},"vehicle_type_id":"4","last_reported":1750273662,"current_range_meters":16000,"station_id":"ce4bhbp2rcd13ifvqerg","pricing_plan_id":"cebpf4jnsgd1na2vs0mg"},{"bike_id":"6f1dceb1-8ee7-4aa1-8525-8a8cd6521b00","system_id":"levelo_inurba_marseille","lat":43.24805,"lon":5.37453,"is_reserved":false,"is_disabled":false,"rental_uris":{"android":"levelo://app?vid=6f1dceb1-8ee7-4aa1-8525-8a8cd6521b00","ios":"levelo://app?vid=6f1dceb1-8ee7-4aa1-8525-8a8cd6521b00"},"vehicle_type_id":"4","last_reported":1750273662,"current_range_meters":16000,"station_id":"ce4bhgh2rcd13ifvqfb0","pricing_plan_id":"cebpf4jnsgd1na2vs0mg"},{"bike_id":"fa0ae0ed-102b-4234-907a-cfcb22a16335","system_id":"levelo_inurba_marseille","lat":43.31766,"lon":5.39006,"is_reserved":false,"is_disabled":false,"rental_uris":{"android":"levelo://app?vid=fa0ae0ed-102b-4234-907a-cfcb22a16335","ios":"levelo://app?vid=fa0ae0ed-102b-4234-907a-cfcb22a16335"},"vehicle_type_id":"4","last_reported":1750273662,"current_range_meters":16000,"station_id":"ce4bhqp2rcd13ifvqhng","pricing_plan_id":"cebpf4jnsgd1na2vs0mg"},{"bike_id":"5960303c-6ba2-4b42-b233-edc7bfea1825","system_id":"levelo_inurba_marseille","lat":43.23081,"lon":5.35476,"is_reserved":false,"is_disabled":false,"rental_uris":{"android":"levelo://app?vid=5960303c-6ba2-4b42-b233-edc7bfea1825","ios":"levelo://app?vid=5960303c-6ba2-4b42-b233-edc7bfea1825"},"vehicle_type_id":"4","last_reported":1750273662,"current_range_meters":16000,"station_id":"cpo3342slgdg3j2ifvpg","pricing_plan_id":"cebpf4jnsgd1na2vs0mg"},{"bike_id":"a698d91f-655d-4164-a932-a635f904b56f","system_id":"levelo_inurba_marseille","lat":43.28053,"lon":5.35181,"is_reserved":false,"is_disabled":false,"rental_uris":{"android":"levelo://app?vid=a698d91f-655d-4164-a932-a635f904b56f","ios":"levelo://app?vid=a698d91f-655d-4164-a932-a635f904b56f"},"vehicle_type_id":"4","last_reported":1750273662,"current_range_meters":16400,"station_id":"","pricing_plan_id":"cebpf4jnsgd1na2vs0mg"},{"bike_id":"95e19484-78f7-46e1-b2ec-da5ef0365555","system_id":"levelo_inurba_marseille","lat":43.29274,"lon":5.40112,"is_reserved":false,"is_disabled":false,"rental_uris":{"android":"levelo://app?vid=95e19484-78f7-46e1-b2ec-da5ef0365555","ios":"levelo://app?vid=95e19484-78f7-46e1-b2ec-da5ef0365555"},"vehicle_type_id":"4","last_reported":1750273662,"current_range_meters":16400,"station_id":"ce4bh312rcd13ifvqdk0","pricing_plan_id":"cebpf4jnsgd1na2vs0mg"},{"bike_id":"84477149-bd76-4be7-bc10-38d04717ae3f","system_id":"levelo_inurba_marseille","lat":43.28353,"lon":5.38109,"is_reserved":false,"is_disabled":false,"rental_uris":{"android":"levelo://app?vid=84477149-bd76-4be7-bc10-38d04717ae3f","ios":"levelo://app?vid=84477149-bd76-4be7-bc10-38d04717ae3f"},"vehicle_type_id":"4","last_reported":1750273662,"current_range_meters":16400,"station_id":"ce4bh412rcd13ifvqdr0","pricing_plan_id":"cebpf4jnsgd1na2vs0mg"},{"bike_id":"0064309f-17b8-49d0-8e3a-89d6a365bc79","system_id":"levelo_inurba_marseille","lat":43.283984,"lon":5.375201,"is_reserved":false,"is_disabled":false,"rental_uris":{"android":"levelo://app?vid=0064309f-17b8-49d0-8e3a-89d6a365bc79","ios":"levelo://app?vid=0064309f-17b8-49d0-8e3a-89d6a365bc79"},"vehicle_type_id":"4","last_reported":1750273662,"current_range_meters":16400,"station_id":"ce4bh412rcd13ifvqds0","pricing_plan_id":"cebpf4jnsgd1na2vs0mg"},{"bike_id":"a8459e07-8177-4816-9bef-bb09439746f6","system_id":"levelo_inurba_marseille","lat":43.27389,"lon":5.36281,"is_reserved":false,"is_disabled":false,"rental_uris":{"android":"levelo://app?vid=a8459e07-8177-4816-9bef-bb09439746f6","ios":"levelo://app?vid=a8459e07-8177-4816-9bef-bb09439746f6"},"vehicle_type_id":"4","last_reported":1750273662,"current_range_meters":16400,"station_id":"ce4bhbh2rcd13ifvqeo0","pricing_plan_id":"cebpf4jnsgd1na2vs0mg"},{"bike_id":"f57c3844-b35c-4829-beb0-bce318ebc4f4","system_id":"levelo_inurba_marseille","lat":43.28613,"lon":5.35097,"is_reserved":false,"is_disabled":false,"rental_uris":{"android":"levelo://app?vid=f57c3844-b35c-4829-beb0-bce318ebc4f4","ios":"levelo://app?vid=f57c3844-b35c-4829-beb0-bce318ebc4f4"},"vehicle_type_id":"4","last_reported":1750273662,"current_range_meters":16400,"station_id":"ce4bhch2rcd13ifvqeug","pricing_plan_id":"cebpf4jnsgd1na2vs0mg"},{"bike_id":"a004d7f2-75e1-49e9-b073-ad13bcf23d1e","system_id":"levelo_inurba_marseille","lat":43.231887,"lon":5.35539,"is_reserved":false,"is_disabled":false,"rental_uris":{"android":"levelo://app?vid=a004d7f2-75e1-49e9-b073-ad13bcf23d1e","ios":"levelo://app?vid=a004d7f2-75e1-49e9-b073-ad13bcf23d1e"},"vehicle_type_id":"4","last_reported":1750273662,"current_range_meters":16400,"station_id":"ce4bhu92rcd13ifvqi70","pricing_plan_id":"cebpf4jnsgd1na2vs0mg"},{"bike_id":"2c555767-5c9b-4c10-a745-6bbf5ccfa066","system_id":"levelo_inurba_marseille","lat":43.25417,"lon":5.37596,"is_reserved":false,"is_disabled":false,"rental_uris":{"android":"levelo://app?vid=2c555767-5c9b-4c10-a745-6bbf5ccfa066","ios":"levelo://app?vid=2c555767-5c9b-4c10-a745-6bbf5ccfa066"},"vehicle_type_id":"4","last_reported":1750273662,"current_range_meters":16800,"station_id":"","pricing_plan_id":"cebpf4jnsgd1na2vs0mg"},{"bike_id":"77ac8037-3c3c-493a-82c2-904a9ad6c7d0","system_id":"levelo_inurba_marseille","lat":43.26823,"lon":5.39052,"is_reserved":false,"is_disabled":false,"rental_uris":{"android":"levelo://app?vid=77ac8037-3c3c-493a-82c2-904a9ad6c7d0","ios":"levelo://app?vid=77ac8037-3c3c-493a-82c2-904a9ad6c7d0"},"vehicle_type_id":"4","last_reported":1750273662,"current_range_meters":16800,"station_id":"","pricing_plan_id":"cebpf4jnsgd1na2vs0mg"},{"bike_id":"c349eeeb-9f8c-4f08-9207-0f872260792b","system_id":"levelo_inurba_marseille","lat":43.29523,"lon":5.3743,"is_reserved":false,"is_disabled":false,"rental_uris":{"android":"levelo://app?vid=c349eeeb-9f8c-4f08-9207-0f872260792b","ios":"levelo://app?vid=c349eeeb-9f8c-4f08-9207-0f872260792b"},"vehicle_type_id":"4","last_reported":1750273662,"current_range_meters":16800,"station_id":"","pricing_plan_id":"cebpf4jnsgd1na2vs0mg"},{"bike_id":"d3317fa9-b165-4d7d-9c42-73b13b051c0b","system_id":"levelo_inurba_marseille","lat":43.29612,"lon":5.37726,"is_reserved":false,"is_disabled":false,"rental_uris":{"android":"levelo://app?vid=d3317fa9-b165-4d7d-9c42-73b13b051c0b","ios":"levelo://app?vid=d3317fa9-b165-4d7d-9c42-73b13b051c0b"},"vehicle_type_id":"4","last_reported":1750273662,"current_range_meters":16800,"station_id":"ce4bgi92rcd13ifvqb90","pricing_plan_id":"cebpf4jnsgd1na2vs0mg"},{"bike_id":"feebef12-2874-475f-8b26-bf85b1fc8ddc","system_id":"levelo_inurba_marseille","lat":43.30015,"lon":5.38545,"is_reserved":false,"is_disabled":false,"rental_uris":{"android":"levelo://app?vid=feebef12-2874-475f-8b26-bf85b1fc8ddc","ios":"levelo://app?vid=feebef12-2874-475f-8b26-bf85b1fc8ddc"},"vehicle_type_id":"4","last_reported":1750273662,"current_range_meters":16800,"station_id":"ce4bgj92rcd13ifvqbd0","pricing_plan_id":"cebpf4jnsgd1na2vs0mg"},{"bike_id":"4aea18a3-a407-47ed-b4b4-4943f115b27a","system_id":"levelo_inurba_marseille","lat":43.292629,"lon":5.384339,"is_reserved":false,"is_disabled":false,"rental_uris":{"android":"levelo://app?vid=4aea18a3-a407-47ed-b4b4-4943f115b27a","ios":"levelo://app?vid=4aea18a3-a407-47ed-b4b4-4943f115b27a"},"vehicle_type_id":"4","last_reported":1750273662,"current_range_meters":16800,"station_id":"ce4bh2h2rcd13ifvqdh0","pricing_plan_id":"cebpf4jnsgd1na2vs0mg"},{"bike_id":"03a12467-8104-4d4a-a746-b3641ca99d30","system_id":"levelo_inurba_marseille","lat":43.27376,"lon":5.36255,"is_reserved":false,"is_disabled":false,"rental_uris":{"android":"levelo://app?vid=03a12467-8104-4d4a-a746-b3641ca99d30","ios":"levelo://app?vid=03a12467-8104-4d4a-a746-b3641ca99d30"},"vehicle_type_id":"4","last_reported":1750273662,"current_range_meters":16800,"station_id":"ce4bhbh2rcd13ifvqeo0","pricing_plan_id":"cebpf4jnsgd1na2vs0mg"},{"bike_id":"a4a1f81d-f1d3-4a18-91ac-e86adf4b0027","system_id":"levelo_inurba_marseille","lat":43.28284,"lon":5.35068,"is_reserved":false,"is_disabled":false,"rental_uris":{"android":"levelo://app?vid=a4a1f81d-f1d3-4a18-91ac-e86adf4b0027","ios":"levelo://app?vid=a4a1f81d-f1d3-4a18-91ac-e86adf4b0027"},"vehicle_type_id":"4","last_reported":1750273662,"current_range_meters":16800,"station_id":"ce4bhbp2rcd13ifvqerg","pricing_plan_id":"cebpf4jnsgd1na2vs0mg"},{"bike_id":"57a60a9f-7b48-4dd5-8684-2d26bf0bad59","system_id":"levelo_inurba_marseille","lat":43.282562,"lon":5.350575,"is_reserved":false,"is_disabled":false,"rental_uris":{"android":"levelo://app?vid=57a60a9f-7b48-4dd5-8684-2d26bf0bad59","ios":"levelo://app?vid=57a60a9f-7b48-4dd5-8684-2d26bf0bad59"},"vehicle_type_id":"4","last_reported":1750273662,"current_range_meters":16800,"station_id":"ce4bhbp2rcd13ifvqerg","pricing_plan_id":"cebpf4jnsgd1na2vs0mg"},{"bike_id":"d3eccb2b-8808-4f8a-b2e4-99ca1d6549a8","system_id":"levelo_inurba_marseille","lat":43.28612,"lon":5.35107,"is_reserved":false,"is_disabled":false,"rental_uris":{"android":"levelo://app?vid=d3eccb2b-8808-4f8a-b2e4-99ca1d6549a8","ios":"levelo://app?vid=d3eccb2b-8808-4f8a-b2e4-99ca1d6549a8"},"vehicle_type_id":"4","last_reported":1750273662,"current_range_meters":16800,"station_id":"ce4bhch2rcd13ifvqeug","pricing_plan_id":"cebpf4jnsgd1na2vs0mg"},{"bike_id":"7b90eff6-3832-438a-b1db-b4c9ff5fc565","system_id":"levelo_inurba_marseille","lat":43.27092,"lon":5.42258,"is_reserved":false,"is_disabled":false,"rental_uris":{"android":"levelo://app?vid=7b90eff6-3832-438a-b1db-b4c9ff5fc565","ios":"levelo://app?vid=7b90eff6-3832-438a-b1db-b4c9ff5fc565"},"vehicle_type_id":"4","last_reported":1750273662,"current_range_meters":16800,"station_id":"ce4bhk92rcd13ifvqgb0","pricing_plan_id":"cebpf4jnsgd1na2vs0mg"},{"bike_id":"057d6aa2-fcb5-4be1-9b5d-f16bb5bc60ca","system_id":"levelo_inurba_marseille","lat":43.32288,"lon":5.38266,"is_reserved":false,"is_disabled":false,"rental_uris":{"android":"levelo://app?vid=057d6aa2-fcb5-4be1-9b5d-f16bb5bc60ca","ios":"levelo://app?vid=057d6aa2-fcb5-4be1-9b5d-f16bb5bc60ca"},"vehicle_type_id":"4","last_reported":1750273662,"current_range_meters":16800,"station_id":"ce4bhr12rcd13ifvqhqg","pricing_plan_id":"cebpf4jnsgd1na2vs0mg"},