{"last_updated":1700838398,"ttl":30,"version":"2.2","data":{"bikes":[{"bike_id":"1b0b724f-cca4-41a6-abf0-3a56c440daa9","system_id":"levelo_inurba_marseille","lat":43.312239,"lon":5.368562,"is_reserved":false,"is_disabled":false,"rental_uris":{"android":"levelo://app?vid=1b0b724f-cca4-41a6-abf0-3a56c440daa9","ios":"levelo://app?vid=1b0b724f-cca4-41a6-abf0-3a56c440daa9"},"vehicle_type_id":"4","last_reported":1700838398,"current_range_meters":30000,"station_id":"ce4bgl92rcd13ifvqbq0","pricing_plan_id":"free"},{"bike_id":"7d3ec960-d008-4cc7-8175-c6de82a9ae7c","system_id":"levelo_inurba_marseille","lat":43.312239,"lon":5.368562,"is_reserved":false,"is_disabled":false,"rental_uris":{"android":"levelo://app?vid=7d3ec960-d008-4cc7-8175-c6de82a9ae7c","ios":"levelo://app?vid=7d3ec960-d008-4cc7-8175-c6de82a9ae7c"},"vehicle_type_id":"4","last_reported":1700838398,"current_range_meters":20800,"station_id":"ce4bgl92rcd13ifvqbq0","pricing_plan_id":"free"},{"bike_id":"6c6ef7ca-217d-4fc6-9842-88c0764b51c1","system_id":"levelo_inurba_marseille","lat":43.314811,"lon":5.373103,"is_reserved":false,"is_disabled":false,"rental_uris":{"android":"levelo://app?vid=6c6ef7ca-217d-4fc6-9842-88c0764b51c1","ios":"levelo://app?vid=6c6ef7ca-217d-4fc6-9842-88c0764b51c1"},"vehicle_type_id":"4","last_reported":1700838398,"current_range_meters":29600,"station_id":"ce4bgt12rcd13ifvqcd0","pricing_plan_id":"free"},{"bike_id":"096bee21-796e-44ec-b6ed-7f2b47240567","system_id":"levelo_inurba_marseille","lat":43.309039,"lon":5.371797,"is_reserved":false,"is_disabled":false,"rental_uris":{"android":"levelo://app?vid=096bee21-796e-44ec-b6ed-7f2b47240567","ios":"levelo://app?vid=096bee21-796e-44ec-b6ed-7f2b47240567"},"vehicle_type_id":"4","last_reported":1700838398,"current_range_meters":21600,"station_id":"ce4bguh2rcd13ifvqckg","pricing_plan_id":"free"},{"bike_id":"b796d2e4-ede5-4f2c-977a-d2bf01c7e6d9","system_id":"levelo_inurba_marseille","lat":43.309039,"lon":5.371797,"is_reserved":false,"is_disabled":false,"rental_uris":{"android":"levelo://app?vid=b796d2e4-ede5-4f2c-977a-d2bf01c7e6d9","ios":"levelo://app?vid=b796d2e4-ede5-4f2c-977a-d2bf01c7e6d9"},"vehicle_type_id":"4","last_reported":1700838398,"current_range_meters":16000,"station_id":"ce4bguh2rcd13ifvqckg","pricing_plan_id":"free"},{"bike_id":"e67c81e8-0f86-46b0-97dc-1944b3e2fa68","system_id":"levelo_inurba_marseille","lat":43.305712,"lon":5.365641,"is_reserved":false,"is_disabled":false,"rental_uris":{"android":"levelo://app?vid=e67c81e8-0f86-46b0-97dc-1944b3e2fa68","ios":"levelo://app?vid=e67c81e8-0f86-46b0-97dc-1944b3e2fa68"},"vehicle_type_id":"4","last_reported":1700838398,"current_range_meters":0,"station_id":"ce4bgs12rcd13ifvqcag","pricing_plan_id":"free"},{"bike_id":"a3e03786-397e-4aba-97ac-a73c05f39fd6","system_id":"levelo_inurba_marseille","lat":43.305714,"lon":5.365633,"is_reserved":false,"is_disabled":false,"rental_uris":{"android":"levelo://app?vid=a3e03786-397e-4aba-97ac-a73c05f39fd6","ios":"levelo://app?vid=a3e03786-397e-4aba-97ac-a73c05f39fd6"},"vehicle_type_id":"4","last_reported":1700838398,"current_range_meters":0,"station_id":"ce4bgs12rcd13ifvqcag","pricing_plan_id":"free"},{"bike_id":"37a55dc9-7cb5-443d-8940-dfe7077d7fe9","system_id":"levelo_inurba_marseille","lat":43.305368,"lon":5.367343,"is_reserved":false,"is_disabled":false,"rental_uris":{"android":"levelo://app?vid=37a55dc9-7cb5-443d-8940-dfe7077d7fe9","ios":"levelo://app?vid=37a55dc9-7cb5-443d-8940-dfe7077d7fe9"},"vehicle_type_id":"4","last_reported":1700838398,"current_range_meters":22000,"station_id":"ce4bgrp2rcd13ifvqc9g","pricing_plan_id":"free"},{"bike_id":"af317098-9bba-4323-b69d-490a5e5a3e36","system_id":"levelo_inurba_marseille","lat":43.305302,"lon":5.365444,"is_reserved":false,"is_disabled":false,"rental_uris":{"android":"levelo://app?vid=af317098-9bba-4323-b69d-490a5e5a3e36","ios":"levelo://app?vid=af317098-9bba-4323-b69d-490a5e5a3e36"},"vehicle_type_id":"4","last_reported":1700838398,"current_range_meters":18800,"station_id":"ce4bgs12rcd13ifvqcag","pricing_plan_id":"free"},{"bike_id":"215765c0-01cb-43f0-9e9c-01a9988592ba","system_id":"levelo_inurba_marseille","lat":43.305989,"lon":5.37225,"is_reserved":false,"is_disabled":false,"rental_uris":{"android":"levelo://app?vid=215765c0-01cb-43f0-9e9c-01a9988592ba","ios":"levelo://app?vid=215765c0-01cb-43f0-9e9c-01a9988592ba"},"vehicle_type_id":"4","last_reported":1700838398,"current_range_meters":29600,"station_id":"ce4bgqh2rcd13ifvqc4g","pricing_plan_id":"free"},{"bike_id":"e6249e31-b6f8-4aff-825d-27eb01be37e5","system_id":"levelo_inurba_marseille","lat":43.311131,"lon":5.377651,"is_reserved":false,"is_disabled":false,"rental_uris":{"android":"levelo://app?vid=e6249e31-b6f8-4aff-825d-27eb01be37e5","ios":"levelo://app?vid=e6249e31-b6f8-4aff-825d-27eb01be37e5"},"vehicle_type_id":"4","last_reported":1700838398,"current_range_meters":0,"station_id":"ce4bgt92rcd13ifvqcg0","pricing_plan_id":"free"},{"bike_id":"b0e16e85-4d29-4860-aa4f-4f011ad8d1ff","system_id":"levelo_inurba_marseille","lat":43.311125,"lon":5.377624,"is_reserved":false,"is_disabled":false,"rental_uris":{"android":"levelo://app?vid=b0e16e85-4d29-4860-aa4f-4f011ad8d1ff","ios":"levelo://app?vid=b0e16e85-4d29-4860-aa4f-4f011ad8d1ff"},"vehicle_type_id":"4","last_reported":1700838398,"current_range_meters":8000,"station_id":"ce4bgt92rcd13ifvqcg0","pricing_plan_id":"free"},{"bike_id":"b898b018-f57d-4901-bab2-fdd15d391de9","system_id":"levelo_inurba_marseille","lat":43.317075,"lon":5.377367,"is_reserved":false,"is_disabled":false,"rental_uris":{"android":"levelo://app?vid=b898b018-f57d-4901-bab2-fdd15d391de9","ios":"levelo://app?vid=b898b018-f57d-4901-bab2-fdd15d391de9"},"vehicle_type_id":"4","last_reported":1700838398,"current_range_meters":23600,"station_id":"ce4bgth2rcd13ifvqch0","pricing_plan_id":"free"},{"bike_id":"d2a90279-e389-4999-9ad5-4b2565e55b8b","system_id":"levelo_inurba_marseille","lat":43.317075,"lon":5.377367,"is_reserved":false,"is_disabled":false,"rental_uris":{"android":"levelo://app?vid=d2a90279-e389-4999-9ad5-4b2565e55b8b","ios":"levelo://app?vid=d2a90279-e389-4999-9ad5-4b2565e55b8b"},"vehicle_type_id":"4","last_reported":1700838398,"current_range_meters":16800,"station_id":"ce4bgth2rcd13ifvqch0","pricing_plan_id":"free"},{"bike_id":"36936cce-0914-4407-85d5-38af094e5d31","system_id":"levelo_inurba_marseille","lat":43.303046,"lon":5.368981,"is_reserved":false,"is_disabled":false,"rental_uris":{"android":"levelo://app?vid=36936cce-0914-4407-85d5-38af094e5d31","ios":"levelo://app?vid=36936cce-0914-4407-85d5-38af094e5d31"},"vehicle_type_id":"4","last_reported":1700838398,"current_range_meters":25200,"station_id":"ce4bgqh2rcd13ifvqc5g","pricing_plan_id":"free"},{"bike_id":"a2efd98c-7de0-4fe2-9e63-24b257ff27e1","system_id":"levelo_inurba_marseille","lat":43.30304,"lon":5.368987,"is_reserved":false,"is_disabled":false,"rental_uris":{"android":"levelo://app?vid=a2efd98c-7de0-4fe2-9e63-24b257ff27e1","ios":"levelo://app?vid=a2efd98c-7de0-4fe2-9e63-24b257ff27e1"},"vehicle_type_id":"4","last_reported":1700838398,"current_range_meters":22400,"station_id":"ce4bgqh2rcd13ifvqc5g","pricing_plan_id":"free"},{"bike_id":"efc64901-81d6-4d75-b5e3-326c92799b90","system_id":"levelo_inurba_marseille","lat":43.303046,"lon":5.368981,"is_reserved":false,"is_disabled":false,"rental_uris":{"android":"levelo://app?vid=efc64901-81d6-4d75-b5e3-326c92799b90","ios":"levelo://app?vid=efc64901-81d6-4d75-b5e3-326c92799b90"},"vehicle_type_id":"4","last_reported":1700838398,"current_range_meters":30800,"station_id":"ce4bgqh2rcd13ifvqc5g","pricing_plan_id":"free"},{"bike_id":"288ca1ae-7003-4cf6-9973-f941b6aae48d","system_id":"levelo_inurba_marseille","lat":43.30304,"lon":5.368987,"is_reserved":false,"is_disabled":false,"rental_uris":{"android":"levelo://app?vid=288ca1ae-7003-4cf6-9973-f941b6aae48d","ios":"levelo://app?vid=288ca1ae-7003-4cf6-9973-f941b6aae48d"},"vehicle_type_id":"4","last_reported":1700838398,"current_range_meters":8400,"station_id":"ce4bgqh2rcd13ifvqc5g","pricing_plan_id":"free"},{"bike_id":"5432ebe5-659a-45a0-a8e1-89d3238e7a59","system_id":"levelo_inurba_marseille","lat":43.30305,"lon":5.36911,"is_reserved":false,"is_disabled":false,"rental_uris":{"android":"levelo://app?vid=5432ebe5-659a-45a0-a8e1-89d3238e7a59","ios":"levelo://app?vid=5432ebe5-659a-45a0-a8e1-89d3238e7a59"},"vehicle_type_id":"4","last_reported":1700838398,"current_range_meters":12400,"station_id":"ce4bgqh2rcd13ifvqc5g","pricing_plan_id":"free"},{"bike_id":"5b011fba-aa78-4550-9ca6-4a9f636f0f9b","system_id":"levelo_inurba_marseille","lat":43.301939,"lon":5.366286,"is_reserved":false,"is_disabled":false,"rental_uris":{"android":"levelo://app?vid=5b011fba-aa78-4550-9ca6-4a9f636f0f9b","ios":"levelo://app?vid=5b011fba-aa78-4550-9ca6-4a9f636f0f9b"},"vehicle_type_id":"4","last_reported":1700838398,"current_range_meters":0,"station_id":"ce4bgrh2rcd13ifvqc8g","pricing_plan_id":"free"},{"bike_id":"ff4dae9e-ace3-4f8f-ae86-316bffd9f4fb","system_id":"levelo_inurba_marseille","lat":43.308012,"lon":5.381511,"is_reserved":false,"is_disabled":false,"rental_uris":{"android":"levelo://app?vid=ff4dae9e-ace3-4f8f-ae86-316bffd9f4fb","ios":"levelo://app?vid=ff4dae9e-ace3-4f8f-ae86-316bffd9f4fb"},"vehicle_type_id":"4","last_reported":1700838398,"current_range_meters":22800,"station_id":"ce4bgt12rcd13ifvqce0","pricing_plan_id":"free"},{"bike_id":"ddf5403b-3261-4063-ac88-9ebdaa9088d2","system_id":"levelo_inurba_marseille","lat":43.302784,"lon":5.377158,"is_reserved":false,"is_disabled":false,"rental_uris":{"android":"levelo://app?vid=ddf5403b-3261-4063-ac88-9ebdaa9088d2","ios":"levelo://app?vid=ddf5403b-3261-4063-ac88-9ebdaa9088d2"},"vehicle_type_id":"4","last_reported":1700838398,"current_range_meters":14000,"station_id":"ce4bguh2rcd13ifvqcj0","pricing_plan_id":"free"},{"bike_id":"e0deb09f-2f3e-42da-b72b-eecee5990b95","system_id":"levelo_inurba_marseille","lat":43.302784,"lon":5.377158,"is_reserved":false,"is_disabled":false,"rental_uris":{"android":"levelo://app?vid=e0deb09f-2f3e-42da-b72b-eecee5990b95","ios":"levelo://app?vid=e0deb09f-2f3e-42da-b72b-eecee5990b95"},"vehicle_type_id":"4","last_reported":1700838398,"current_range_meters":26800,"station_id":"ce4bguh2rcd13ifvqcj0","pricing_plan_id":"free"},{"bike_id":"37c013b3-596b-4fae-b0db-4841c23bfc94","system_id":"levelo_inurba_marseille","lat":43.301429,"lon":5.37413,"is_reserved":false,"is_disabled":false,"rental_uris":{"android":"levelo://app?vid=37c013b3-596b-4fae-b0db-4841c23bfc94","ios":"levelo://app?vid=37c013b3-596b-4fae-b0db-4841c23bfc94"},"vehicle_type_id":"4","last_reported":1700838398,"current_range_meters":20400,"station_id":"ce4bgs92rcd13ifvqcc0","pricing_plan_id":"free"},{"bike_id":"1cbb04f6-b30a-49c8-952f-1af978cf2aab","system_id":"levelo_inurba_marseille","lat":43.319933,"lon":5.381647,"is_reserved":false,"is_disabled":false,"rental_uris":{"android":"levelo://app?vid=1cbb04f6-b30a-49c8-952f-1af978cf2aab","ios":"levelo://app?vid=1cbb04f6-b30a-49c8-952f-1af978cf2aab"},"vehicle_type_id":"4","last_reported":1700838398,"current_range_meters":21200,"station_id":"ce4bhr12rcd13ifvqhpg","pricing_plan_id":"free"},{"bike_id":"c3045614-1eb8-488d-add5-337dc82beb2c","system_id":"levelo_inurba_marseille","lat":43.298433,"lon":5.362774,"is_reserved":false,"is_disabled":false,"rental_uris":{"android":"levelo://app?vid=c3045614-1eb8-488d-add5-337dc82beb2c","ios":"levelo://app?vid=c3045614-1eb8-488d-add5-337dc82beb2c"},"vehicle_type_id":"4","last_reported":1700838398,"current_range_meters":31200,"station_id":"ce4bgpp2rcd13ifvqc3g","pricing_plan_id":"free"},{"bike_id":"f968ea18-311d-4a1d-9334-d0bab2e8687a","system_id":"levelo_inurba_marseille","lat":43.305364,"lon":5.384119,"is_reserved":false,"is_disabled":false,"rental_uris":{"android":"levelo://app?vid=f968ea18-311d-4a1d-9334-d0bab2e8687a","ios":"levelo://app?vid=f968ea18-311d-4a1d-9334-d0bab2e8687a"},"vehicle_type_id":"4","last_reported":1700838398,"current_range_meters":30000,"station_id":"ce4bgg92rcd13ifvqb30","pricing_plan_id":"free"},{"bike_id":"ac4a3fd3-6d38-49cc-9468-09e90c0a704e","system_id":"levelo_inurba_marseille","lat":43.298433,"lon":5.362774,"is_reserved":false,"is_disabled":false,"rental_uris":{"android":"levelo://app?vid=ac4a3fd3-6d38-49cc-9468-09e90c0a704e","ios":"levelo://app?vid=ac4a3fd3-6d38-49cc-9468-09e90c0a704e"},"vehicle_type_id":"4","last_reported":1700838398,"current_range_meters":24400,"station_id":"ce4bgpp2rcd13ifvqc3g","pricing_plan_id":"free"},{"bike_id":"bbae10b4-7f5d-41f6-89ab-7cb8740e24f3","system_id":"levelo_inurba_marseille","lat":43.298433,"lon":5.362774,"is_reserved":false,"is_disabled":false,"rental_uris":{"android":"levelo://app?vid=bbae10b4-7f5d-41f6-89ab-7cb8740e24f3","ios":"levelo://app?vid=bbae10b4-7f5d-41f6-89ab-7cb8740e24f3"},"vehicle_type_id":"4","last_reported":1700838398,"current_range_meters":27600,"station_id":"ce4bgpp2rcd13ifvqc3g","pricing_plan_id":"free"},{"bike_id":"8eccf735-9f13-4d66-89ee-04a7bf59eec2","system_id":"levelo_inurba_marseille","lat":43.322872,"lon":5.382756,"is_reserved":false,"is_disabled":false,"rental_uris":{"android":"levelo://app?vid=8eccf735-9f13-4d66-89ee-04a7bf59eec2","ios":"levelo://app?vid=8eccf735-9f13-4d66-89ee-04a7bf59eec2"},"vehicle_type_id":"4","last_reported":1700838398,"current_range_meters":31200,"station_id":"ce4bhr12rcd13ifvqhqg","pricing_plan_id":"free"},{"bike_id":"57f07daa-f979-41b2-bf81-49ff7a829b2a","system_id":"levelo_inurba_marseille","lat":43.32292,"lon":5.38273,"is_reserved":false,"is_disabled":false,"rental_uris":{"android":"levelo://app?vid=57f07daa-f979-41b2-bf81-49ff7a829b2a","ios":"levelo://app?vid=57f07daa-f979-41b2-bf81-49ff7a829b2a"},"vehicle_type_id":"4","last_reported":1700838398,"current_range_meters":6400,"station_id":"ce4bhr12rcd13ifvqhqg","pricing_plan_id":"free"},{"bike_id":"487f708b-82ea-4eaf-b232-fbc4b24ddab5","system_id":"levelo_inurba_marseille","lat":43.322872,"lon":5.382756,"is_reserved":false,"is_disabled":false,"rental_uris":{"android":"levelo://app?vid=487f708b-82ea-4eaf-b232-fbc4b24ddab5","ios":"levelo://app?vid=487f708b-82ea-4eaf-b232-fbc4b24ddab5"},"vehicle_type_id":"4","last_reported":1700838398,"current_range_meters":28000,"station_id":"ce4bhr12rcd13ifvqhqg","pricing_plan_id":"free"},{"bike_id":"d3044786-2431-4822-96f8-37c5954b4b4c","system_id":"levelo_inurba_marseille","lat":43.322872,"lon":5.382756,"is_reserved":false,"is_disabled":false,"rental_uris":{"android":"levelo://app?vid=d3044786-2431-4822-96f8-37c5954b4b4c","ios":"levelo://app?vid=d3044786-2431-4822-96f8-37c5954b4b4c"},"vehicle_type_id":"4","last_reported":1700838398,"current_range_meters":20400,"station_id":"ce4bhr12rcd13ifvqhqg","pricing_plan_id":"free"},{"bike_id":"46b91408-aab4-4790-adbd-344365fec5bd","system_id":"levelo_inurba_marseille","lat":43.328371,"lon":5.366909,"is_reserved":false,"is_disabled":false,"rental_uris":{"android":"levelo://app?vid=46b91408-aab4-4790-adbd-344365fec5bd","ios":"levelo://app?vid=46b91408-aab4-4790-adbd-344365fec5bd"},"vehicle_type_id":"4","last_reported":1700838398,"current_range_meters":0,"station_id":"ce4bhs92rcd13ifvqi0g","pricing_plan_id":"free"},{"bike_id":"c68ff2e2-e4b1-48b3-8d4e-a14d8b8f04d2","system_id":"levelo_inurba_marseille","lat":43.297163,"lon":5.365866,"is_reserved":false,"is_disabled":false,"rental_uris":{"android":"levelo://app?vid=c68ff2e2-e4b1-48b3-8d4e-a14d8b8f04d2","ios":"levelo://app?vid=c68ff2e2-e4b1-48b3-8d4e-a14d8b8f04d2"},"vehicle_type_id":"4","last_reported":1700838398,"current_range_meters":26400,"station_id":"ce4bgn12rcd13ifvqbt0","pricing_plan_id":"free"},{"bike_id":"4d7509f5-9559-42ca-a60d-bef9e80f0981","system_id":"levelo_inurba_marseille","lat":43.2996,"lon":5.37923,"is_reserved":false,"is_disabled":false,"rental_uris":{"android":"levelo://app?vid=4d7509f5-9559-42ca-a60d-bef9e80f0981","ios":"levelo://app?vid=4d7509f5-9559-42ca-a60d-bef9e80f0981"},"vehicle_type_id":"4","last_reported":1700838398,"current_range_meters":0,"station_id":"","pricing_plan_id":"free"},{"bike_id":"bc4eb699-0fc2-4170-98f4-fedd2186b807","system_id":"levelo_inurba_marseille","lat":43.29626,"lon":5.37147,"is_reserved":false,"is_disabled":false,"rental_uris":{"android":"levelo://app?vid=bc4eb699-0fc2-4170-98f4-fedd2186b807","ios":"levelo://app?vid=bc4eb699-0fc2-4170-98f4-fedd2186b807"},"vehicle_type_id":"4","last_reported":1700838398,"current_range_meters":15200,"station_id":"ce4bgnh2rcd13ifvqc0g","pricing_plan_id":"free"},{"bike_id":"8fe48089-ada0-488a-9851-688a40cd6f27","system_id":"levelo_inurba_marseille","lat":43.296303,"lon":5.374099,"is_reserved":false,"is_disabled":false,"rental_uris":{"android":"levelo://app?vid=8fe48089-ada0-488a-9851-688a40cd6f27","ios":"levelo://app?vid=8fe48089-ada0-488a-9851-688a40cd6f27"},"vehicle_type_id":"4","last_reported":1700838398,"current_range_meters":20800,"station_id":"","pricing_plan_id":"free"},{"bike_id":"33a23488-ee35-4028-84b7-39bfdb1f2ca6","system_id":"levelo_inurba_marseille","lat":43.309589,"lon":5.390258,"is_reserved":false,"is_disabled":false,"rental_uris":{"android":"levelo://app?vid=33a23488-ee35-4028-84b7-39bfdb1f2ca6","ios":"levelo://app?vid=33a23488-ee35-4028-84b7-39bfdb1f2ca6"},"vehicle_type_id":"4","last_reported":1700838398,"current_range_meters":400,"station_id":"ce4bgup2rcd13ifvqco0","pricing_plan_id":"free"},{"bike_id":"40f6c656-4875-452a-98e7-58c9fb386300","system_id":"levelo_inurba_marseille","lat":43.309589,"lon":5.390258,"is_reserved":false,"is_disabled":false,"rental_uris":{"android":"levelo://app?vid=40f6c656-4875-452a-98e7-58c9fb386300","ios":"levelo://app?vid=40f6c656-4875-452a-98e7-58c9fb386300"},"vehicle_type_id":"4","last_reported":1700838398,"current_range_meters":20000,"station_id":"ce4bgup2rcd13ifvqco0","pricing_plan_id":"free"},{"bike_id":"897f4992-2d5c-4a5c-b601-c7923f0394ae","system_id":"levelo_inurba_marseille","lat":43.298037,"lon":5.381066,"is_reserved":false,"is_disabled":false,"rental_uris":{"android":"levelo://app?vid=897f4992-2d5c-4a5c-b601-c7923f0394ae","ios":"levelo://app?vid=897f4992-2d5c-4a5c-b601-c7923f0394ae"},"vehicle_type_id":"4","last_reported":1700838398,"current_range_meters":16800,"station_id":"ce4bgip2rcd13ifvqbb0","pricing_plan_id":"free"},{"bike_id":"ebdd0442-3380-409f-9fb0-224101058913","system_id":"levelo_inurba_marseille","lat":43.298037,"lon":5.381066,"is_reserved":false,"is_disabled":false,"rental_uris":{"android":"levelo://app?vid=ebdd0442-3380-409f-9fb0-224101058913","ios":"levelo://app?vid=ebdd0442-3380-409f-9fb0-224101058913"},"vehicle_type_id":"4","last_reported":1700838398,"current_range_meters":4400,"station_id":"ce4bgip2rcd13ifvqbb0","pricing_plan_id":"free"},{"bike_id":"6b621983-5e9e-42f7-990d-ad5a093820d2","system_id":"levelo_inurba_marseille","lat":43.293801,"lon":5.363066,"is_reserved":false,"is_disabled":false,"rental_uris":{"android":"levelo://app?vid=6b621983-5e9e-42f7-990d-ad5a093820d2","ios":"levelo://app?vid=6b621983-5e9e-42f7-990d-ad5a093820d2"},"vehicle_type_id":"4","last_reported":1700838398,"current_range_meters":4000,"station_id":"","pricing_plan_id":"free"},{"bike_id":"ff822368-00cb-4dfa-8697-959628b6f270","system_id":"levelo_inurba_marseille","lat":43.331245,"lon":5.359555,"is_reserved":false,"is_disabled":false,"rental_uris":{"android":"levelo://app?vid=ff822368-00cb-4dfa-8697-959628b6f270","ios":"levelo://app?vid=ff822368-00cb-4dfa-8697-959628b6f270"},"vehicle_type_id":"4","last_reported":1700838398,"current_range_meters":21200,"station_id":"","pricing_plan_id":"free"},{"bike_id":"0875af97-efe0-49f8-96f2-ca0fb696b606","system_id":"levelo_inurba_marseille","lat":43.32369,"lon":5.38888,"is_reserved":false,"is_disabled":false,"rental_uris":{"android":"levelo://app?vid=0875af97-efe0-49f8-96f2-ca0fb696b606","ios":"levelo://app?vid=0875af97-efe0-49f8-96f2-ca0fb696b606"},"vehicle_type_id":"4","last_reported":1700838398,"current_range_meters":0,"station_id":"ce4bhqp2rcd13ifvqhog","pricing_plan_id":"free"},{"bike_id":"1a40b385-68ba-48d5-a1cb-20965b2f9dc5","system_id":"levelo_inurba_marseille","lat":43.323573,"lon":5.38936,"is_reserved":false,"is_disabled":false,"rental_uris":{"android":"levelo://app?vid=1a40b385-68ba-48d5-a1cb-20965b2f9dc5","ios":"levelo://app?vid=1a40b385-68ba-48d5-a1cb-20965b2f9dc5"},"vehicle_type_id":"4","last_reported":1700838398,"current_range_meters":1200,"station_id":"","pricing_plan_id":"free"},{"bike_id":"a7759880-bdab-4726-a502-640f512e58c0","system_id":"levelo_inurba_marseille","lat":43.29602,"lon":5.381084,"is_reserved":false,"is_disabled":false,"rental_uris":{"android":"levelo://app?vid=a7759880-bdab-4726-a502-640f512e58c0","ios":"levelo://app?vid=a7759880-bdab-4726-a502-640f512e58c0"},"vehicle_type_id":"4","last_reported":1700838398,"current_range_meters":7200,"station_id":"ce4bgl12rcd13ifvqbo0","pricing_plan_id":"free"},{"bike_id":"40651570-2caa-481e-83f2-ed9b577fc84a","system_id":"levelo_inurba_marseille","lat":43.32932,"lon":5.38304,"is_reserved":false,"is_disabled":false,"rental_uris":{"android":"levelo://app?vid=40651570-2caa-481e-83f2-ed9b577fc84a","ios":"levelo://app?vid=40651570-2caa-481e-83f2-ed9b577fc84a"},"vehicle_type_id":"4","last_reported":1700838398,"current_range_meters":13200,"station_id":"","pricing_plan_id":"free"},{"bike_id":"3514ebf1-1f37-432d-8a72-f622617d6489","system_id":"levelo_inurba_marseille","lat":43.305994,"lon":5.393687,"is_reserved":false,"is_disabled":false,"rental_uris":{"android":"levelo://app?vid=3514ebf1-1f37-432d-8a72-f622617d6489","ios":"levelo://app?vid=3514ebf1-1f37-432d-8a72-f622617d6489"},"vehicle_type_id":"4","last_reported":1700838398,"current_range_meters":0,"station_id":"ce4bh0p2rcd13ifvqd80","pricing_plan_id":"free"},{"bike_id":"4ea354b0-cd95-42fb-9024-1c1f97cefbe5","system_id":"levelo_inurba_marseille","lat":43.298764,"lon":5.388973,"is_reserved":false,"is_disabled":false,"rental_uris":{"android":"levelo://app?vid=4ea354b0-cd95-42fb-9024-1c1f97cefbe5","ios":"levelo://app?vid=4ea354b0-cd95-42fb-9024-1c1f97cefbe5"},"vehicle_type_id":"4","last_reported":1700838398,"current_range_meters":7200,"station_id":"ce4bh392rcd13ifvqdl0","pricing_plan_id":"free"},{"bike_id":"a58d73d1-92bc-46bf-bec9-1a4050978bcf","system_id":"levelo_inurba_marseille","lat":43.292073,"lon":5.35789,"is_reserved":false,"is_disabled":false,"rental_uris":{"android":"levelo://app?vid=a58d73d1-92bc-46bf-bec9-1a4050978bcf","ios":"levelo://app?vid=a58d73d1-92bc-46bf-bec9-1a4050978bcf"},"vehicle_type_id":"4","last_reported":1700838398,"current_range_meters":26400,"station_id":"ce4bhb12rcd13ifvqel0","pricing_plan_id":"free"},{"bike_id":"be69c321-21be-4222-bd17-8970584b8b5f","system_id":"levelo_inurba_marseille","lat":43.31323,"lon":5.39695,"is_reserved":false,"is_disabled":false,"rental_uris":{"android":"levelo://app?vid=be69c321-21be-4222-bd17-8970584b8b5f","ios":"levelo://app?vid=be69c321-21be-4222-bd17-8970584b8b5f"},"vehicle_type_id":"4","last_reported":1700838398,"current_range_meters":18400,"station_id":"ce4bgvp2rcd13ifvqcu0","pricing_plan_id":"free"},{"bike_id":"156ac968-13b8-432b-8216-d5575b476b70","system_id":"levelo_inurba_marseille","lat":43.313291,"lon":5.396838,"is_reserved":false,"is_disabled":false,"rental_uris":{"android":"levelo://app?vid=156ac968-13b8-432b-8216-d5575b476b70","ios":"levelo://app?vid=156ac968-13b8-432b-8216-d5575b476b70"},"vehicle_type_id":"4","last_reported":1700838398,"current_range_meters":20400,"station_id":"ce4bgvp2rcd13ifvqcu0","pricing_plan_id":"free"},{"bike_id":"bf87fb97-4555-4d79-988f-dda578e62a9a","system_id":"levelo_inurba_marseille","lat":43.313309,"lon":5.396977,"is_reserved":false,"is_disabled":false,"rental_uris":{"android":"levelo://app?vid=bf87fb97-4555-4d79-988f-dda578e62a9a","ios":"levelo://app?vid=bf87fb97-4555-4d79-988f-dda578e62a9a"},"vehicle_type_id":"4","last_reported":1700838398,"current_range_meters":12400,"station_id":"ce4bgvp2rcd13ifvqcu0","pricing_plan_id":"free"},{"bike_id":"60e69679-d525-4410-b323-969f6b149068","system_id":"levelo_inurba_marseille","lat":43.313291,"lon":5.396838,"is_reserved":false,"is_disabled":false,"rental_uris":{"android":"levelo://app?vid=60e69679-d525-4410-b323-969f6b149068","ios":"levelo://app?vid=60e69679-d525-4410-b323-969f6b149068"},"vehicle_type_id":"4","last_reported":1700838398,"current_range_meters":21600,"station_id":"ce4bgvp2rcd13ifvqcu0","pricing_plan_id":"free"},{"bike_id":"1d10a1b1-d55f-4279-928a-9c6858f32ca9","system_id":"levelo_inurba_marseille","lat":43.33211,"lon":5.38112,"is_reserved":false,"is_disabled":false,"rental_uris":{"android":"levelo://app?vid=1d10a1b1-d55f-4279-928a-9c6858f32ca9","ios":"levelo://app?vid=1d10a1b1-d55f-4279-928a-9c6858f32ca9"},"vehicle_type_id":"4","last_reported":1700838398,"current_range_meters":0,"station_id":"","pricing_plan_id":"free"},{"bike_id":"178eb7c0-6a62-4bf1-a56f-a82d0e477eba","system_id":"levelo_inurba_marseille","lat":43.333953,"lon":5.358134,"is_reserved":false,"is_disabled":false,"rental_uris":{"android":"levelo://app?vid=178eb7c0-6a62-4bf1-a56f-a82d0e477eba","ios":"levelo://app?vid=178eb7c0-6a62-4bf1-a56f-a82d0e477eba"},"vehicle_type_id":"4","last_reported":1700838398,"current_range_meters":4400,"station_id":"","pricing_plan_id":"free"},{"bike_id":"7d4a2619-1f68-42ab-ace2-0eb97cdd725d","system_id":"levelo_inurba_marseille","lat":43.302163,"lon":5.394631,"is_reserved":false,"is_disabled":false,"rental_uris":{"android":"levelo://app?vid=7d4a2619-1f68-42ab-ace2-0eb97cdd725d","ios":"levelo://app?vid=7d4a2619-1f68-42ab-ace2-0eb97cdd725d"},"vehicle_type_id":"4","last_reported":1700838398,"current_range_meters":18400,"station_id":"ce4bh0p2rcd13ifvqd70","pricing_plan_id":"free"},{"bike_id":"2172368f-8e47-4976-a3e5-53e291f6fafe","system_id":"levelo_inurba_marseille","lat":43.29417,"lon":5.38628,"is_reserved":false,"is_disabled":false,"rental_uris":{"android":"levelo://app?vid=2172368f-8e47-4976-a3e5-53e291f6fafe","ios":"levelo://app?vid=2172368f-8e47-4976-a3e5-53e291f6fafe"},"vehicle_type_id":"4","last_reported":1700838398,"current_range_meters":0,"station_id":"ce4bh2h2rcd13ifvqdh0","pricing_plan_id":"free"},{"bike_id":"3c58dff2-06d9-46fb-a5b3-c2cd1fe74d72","system_id":"levelo_inurba_marseille","lat":43.294162,"lon":5.386292,"is_reserved":false,"is_disabled":false,"rental_uris":{"android":"levelo://app?vid=3c58dff2-06d9-46fb-a5b3-c2cd1fe74d72","ios":"levelo://app?vid=3c58dff2-06d9-46fb-a5b3-c2cd1fe74d72"},"vehicle_type_id":"4","last_reported":1700838398,"current_range_meters":1200,"station_id":"ce4bh2h2rcd13ifvqdh0","pricing_plan_id":"free"},{"bike_id":"8be5e448-10b3-4a83-9945-19c04afe2f09","system_id":"levelo_inurba_marseille","lat":43.292644,"lon":5.384257,"is_reserved":false,"is_disabled":false,"rental_uris":{"android":"levelo://app?vid=8be5e448-10b3-4a83-9945-19c04afe2f09","ios":"levelo://app?vid=8be5e448-10b3-4a83-9945-19c04afe2f09"},"vehicle_type_id":"4","last_reported":1700838398,"current_range_meters":0,"station_id":"ce4bh692rcd13ifvqea0","pricing_plan_id":"free"},{"bike_id":"a082eca7-e101-4071-b55a-6f1a15661e5e","system_id":"levelo_inurba_marseille","lat":43.30422,"lon":5.39741,"is_reserved":false,"is_disabled":false,"rental_uris":{"android":"levelo://app?vid=a082eca7-e101-4071-b55a-6f1a15661e5e","ios":"levelo://app?vid=a082eca7-e101-4071-b55a-6f1a15661e5e"},"vehicle_type_id":"4","last_reported":1700838398,"current_range_meters":23200,"station_id":"ce4bh092rcd13ifvqd20","pricing_plan_id":"free"},{"bike_id":"3e94a216-4057-4264-a8e3-6932144fc2b3","system_id":"levelo_inurba_marseille","lat":43.312609,"lon":5.401662,"is_reserved":false,"is_disabled":false,"rental_uris":{"android":"levelo://app?vid=3e94a216-4057-4264-a8e3-6932144fc2b3","ios":"levelo://app?vid=3e94a216-4057-4264-a8e3-6932144fc2b3"},"vehicle_type_id":"4","last_reported":1700838398,"current_range_meters":10000,"station_id":"ce4bh092rcd13ifvqd30","pricing_plan_id":"free"},{"bike_id":"4f080e12-3419-4997-bd7e-b716121d92a2","system_id":"levelo_inurba_marseille","lat":43.330391,"lon":5.3892,"is_reserved":false,"is_disabled":false,"rental_uris":{"android":"levelo://app?vid=4f080e12-3419-4997-bd7e-b716121d92a2","ios":"levelo://app?vid=4f080e12-3419-4997-bd7e-b716121d92a2"},"vehicle_type_id":"4","last_reported":1700838398,"current_range_meters":0,"station_id":"ce4bhr92rcd13ifvqhrg","pricing_plan_id":"free"},{"bike_id":"500ea6d6-e280-4ed9-af0c-dd5c0aaae053","system_id":"levelo_inurba_marseille","lat":43.330442,"lon":5.389148,"is_reserved":false,"is_disabled":false,"rental_uris":{"android":"levelo://app?vid=500ea6d6-e280-4ed9-af0c-dd5c0aaae053","ios":"levelo://app?vid=500ea6d6-e280-4ed9-af0c-dd5c0aaae053"},"vehicle_type_id":"4","last_reported":1700838398,"current_range_meters":22000,"station_id":"ce4bhr92rcd13ifvqhrg","pricing_plan_id":"free"},{"bike_id":"10663828-d104-4fc4-a0ea-c02d3a695470","system_id":"levelo_inurba_marseille","lat":43.290104,"lon":5.356111,"is_reserved":false,"is_disabled":false,"rental_uris":{"android":"levelo://app?vid=10663828-d104-4fc4-a0ea-c02d3a695470","ios":"levelo://app?vid=10663828-d104-4fc4-a0ea-c02d3a695470"},"vehicle_type_id":"4","last_reported":1700838398,"current_range_meters":21200,"station_id":"ce4bhb92rcd13ifvqen0","pricing_plan_id":"free"},{"bike_id":"f434cb97-83e8-4b55-867c-8862a9cf5450","system_id":"levelo_inurba_marseille","lat":43.330356,"lon":5.3895,"is_reserved":false,"is_disabled":false,"rental_uris":{"android":"levelo://app?vid=f434cb97-83e8-4b55-867c-8862a9cf5450","ios":"levelo://app?vid=f434cb97-83e8-4b55-867c-8862a9cf5450"},"vehicle_type_id":"4","last_reported":1700838398,"current_range_meters":5200,"station_id":"","pricing_plan_id":"free"},{"bike_id":"b05a85d9-8138-456f-95b2-3a67fdf2e49b","system_id":"levelo_inurba_marseille","lat":43.290995,"lon":5.381361,"is_reserved":false,"is_disabled":false,"rental_uris":{"android":"levelo://app?vid=b05a85d9-8138-456f-95b2-3a67fdf2e49b","ios":"levelo://app?vid=b05a85d9-8138-456f-95b2-3a67fdf2e49b"},"vehicle_type_id":"4","last_reported":1700838398,"current_range_meters":25200,"station_id":"ce4bh512rcd13ifvqe2g","pricing_plan_id":"free"},{"bike_id":"116fdfc8-fe00-422a-9181-6ac2e1c493a2","system_id":"levelo_inurba_marseille","lat":43.29792,"lon":5.39342,"is_reserved":false,"is_disabled":false,"rental_uris":{"android":"levelo://app?vid=116fdfc8-fe00-422a-9181-6ac2e1c493a2","ios":"levelo://app?vid=116fdfc8-fe00-422a-9181-6ac2e1c493a2"},"vehicle_type_id":"4","last_reported":1700838398,"current_range_meters":4000,"station_id":"chh1huq6cuj3fo74tm60","pricing_plan_id":"free"},{"bike_id":"875358a7-eb65-4d73-ba81-cfb242c7a408","system_id":"levelo_inurba_marseille","lat":43.283998,"lon":5.375062,"is_reserved":false,"is_disabled":false,"rental_uris":{"android":"levelo://app?vid=875358a7-eb65-4d73-ba81-cfb242c7a408","ios":"levelo://app?vid=875358a7-eb65-4d73-ba81-cfb242c7a408"},"vehicle_type_id":"4","last_reported":1700838398,"current_range_meters":800,"station_id":"ce4bh412rcd13ifvqds0","pricing_plan_id":"free"},{"bike_id":"05fa2e10-ed63-4dba-a932-7250285a6870","system_id":"levelo_inurba_marseille","lat":43.312609,"lon":5.401662,"is_reserved":false,"is_disabled":false,"rental_uris":{"android":"levelo://app?vid=05fa2e10-ed63-4dba-a932-7250285a6870","ios":"levelo://app?vid=05fa2e10-ed63-4dba-a932-7250285a6870"},"vehicle_type_id":"4","last_reported":1700838398,"current_range_meters":17600,"station_id":"ce4bh092rcd13ifvqd30","pricing_plan_id":"free"},{"bike_id":"91b385ef-54fa-46b8-87ba-5994f8e048e7","system_id":"levelo_inurba_marseille","lat":43.301117,"lon":5.398795,"is_reserved":false,"is_disabled":false,"rental_uris":{"android":"levelo://app?vid=91b385ef-54fa-46b8-87ba-5994f8e048e7","ios":"levelo://app?vid=91b385ef-54fa-46b8-87ba-5994f8e048e7"},"vehicle_type_id":"4","last_reported":1700838398,"current_range_meters":10000,"station_id":"ce4bh0h2rcd13ifvqd40","pricing_plan_id":"free"},{"bike_id":"a49ab3af-82e1-4ccb-b9a5-b66d6d1dc1da","system_id":"levelo_inurba_marseille","lat":43.30926,"lon":5.40149,"is_reserved":false,"is_disabled":false,"rental_uris":{"android":"levelo://app?vid=a49ab3af-82e1-4ccb-b9a5-b66d6d1dc1da","ios":"levelo://app?vid=a49ab3af-82e1-4ccb-b9a5-b66d6d1dc1da"},"vehicle_type_id":"4","last_reported":1700838398,"current_range_meters":19200,"station_id":"ce4bgvp2rcd13ifvqct0","pricing_plan_id":"free"},{"bike_id":"cd74e997-2363-4869-ab32-e67b78519fab","system_id":"levelo_inurba_marseille","lat":43.33756,"lon":5.3746,"is_reserved":false,"is_disabled":false,"rental_uris":{"android":"levelo://app?vid=cd74e997-2363-4869-ab32-e67b78519fab","ios":"levelo://app?vid=cd74e997-2363-4869-ab32-e67b78519fab"},"vehicle_type_id":"4","last_reported":1700838398,"current_range_meters":28000,"station_id":"","pricing_plan_id":"free"},{"bike_id":"bf1bc5f3-b01d-4664-8428-678a47cdc34e","system_id":"levelo_inurba_marseille","lat":43.33768,"lon":5.37443,"is_reserved":false,"is_disabled":false,"rental_uris":{"android":"levelo://app?vid=bf1bc5f3-b01d-4664-8428-678a47cdc34e","ios":"levelo://app?vid=bf1bc5f3-b01d-4664-8428-678a47cdc34e"},"vehicle_type_id":"4","last_reported":1700838398,"current_range_meters":30800,"station_id":"","pricing_plan_id":"free"},{"bike_id":"2d4da201-44ef-4368-a1c4-26ee0a02648f","system_id":"levelo_inurba_marseille","lat":43.28724,"lon":5.36087,"is_reserved":false,"is_disabled":false,"rental_uris":{"android":"levelo://app?vid=2d4da201-44ef-4368-a1c4-26ee0a02648f","ios":"levelo://app?vid=2d4da201-44ef-4368-a1c4-26ee0a02648f"},"vehicle_type_id":"4","last_reported":1700838398,"current_range_meters":0,"station_id":"cki0cbj6b192h4jlfktg","pricing_plan_id":"free"},{"bike_id":"b927ea59-9fb7-4bcc-8b2f-90f4e8705b70","system_id":"levelo_inurba_marseille","lat":43.286591,"lon":5.363346,"is_reserved":false,"is_disabled":false,"rental_uris":{"android":"levelo://app?vid=b927ea59-9fb7-4bcc-8b2f-90f4e8705b70","ios":"levelo://app?vid=b927ea59-9fb7-4bcc-8b2f-90f4e8705b70"},"vehicle_type_id":"4","last_reported":1700838398,"current_range_meters":25600,"station_id":"ce4bhah2rcd13ifvqej0","pricing_plan_id":"free"},{"bike_id":"3a5590b0-6ed4-4601-acd3-dbefa7e03125","system_id":"levelo_inurba_marseille","lat":43.298681,"lon":5.397225,"is_reserved":false,"is_disabled":false,"rental_uris":{"android":"levelo://app?vid=3a5590b0-6ed4-4601-acd3-dbefa7e03125","ios":"levelo://app?vid=3a5590b0-6ed4-4601-acd3-dbefa7e03125"},"vehicle_type_id":"4","last_reported":1700838398,"current_range_meters":29600,"station_id":"ce4bh0h2rcd13ifvqd50","pricing_plan_id":"free"},{"bike_id":"47f14bd2-df41-43a4-8195-1cd78c1d7898","system_id":"levelo_inurba_marseille","lat":43.286591,"lon":5.363346,"is_reserved":false,"is_disabled":false,"rental_uris":{"android":"levelo://app?vid=47f14bd2-df41-43a4-8195-1cd78c1d7898","ios":"levelo://app?vid=47f14bd2-df41-43a4-8195-1cd78c1d7898"},"vehicle_type_id":"4","last_reported":1700838398,"current_range_meters":20000,"station_id":"ce4bhah2rcd13ifvqej0","pricing_plan_id":"free"},{"bike_id":"ce4b9969-0cc0-4b91-9104-00675c8086c9","system_id":"levelo_inurba_marseille","lat":43.298681,"lon":5.397225,"is_reserved":false,"is_disabled":false,"rental_uris":{"android":"levelo://app?vid=ce4b9969-0cc0-4b91-9104-00675c8086c9","ios":"levelo://app?vid=ce4b9969-0cc0-4b91-9104-00675c8086c9"},"vehicle_type_id":"4","last_reported":1700838398,"current_range_meters":3200,"station_id":"ce4bh0h2rcd13ifvqd50","pricing_plan_id":"free"},{"bike_id":"cbb09a8c-37ff-4219-82d4-fe65537edd3d","system_id":"levelo_inurba_marseille","lat":43.302485,"lon":5.400585,"is_reserved":false,"is_disabled":false,"rental_uris":{"android":"levelo://app?vid=cbb09a8c-37ff-4219-82d4-fe65537edd3d","ios":"levelo://app?vid=cbb09a8c-37ff-4219-82d4-fe65537edd3d"},"vehicle_type_id":"4","last_reported":1700838398,"current_range_meters":13200,"station_id":"ce4bgvh2rcd13ifvqcs0","pricing_plan_id":"free"},{"bike_id":"5c9d7e61-5146-4344-9e59-0a911b9e1c1a","system_id":"levelo_inurba_marseille","lat":43.290271,"lon":5.386434,"is_reserved":false,"is_disabled":false,"rental_uris":{"android":"levelo://app?vid=5c9d7e61-5146-4344-9e59-0a911b9e1c1a","ios":"levelo://app?vid=5c9d7e61-5146-4344-9e59-0a911b9e1c1a"},"vehicle_type_id":"4","last_reported":1700838398,"current_range_meters":23200,"station_id":"","pricing_plan_id":"free"},{"bike_id":"15c7eade-046f-4a92-a3c0-c410a1647f2f","system_id":"levelo_inurba_marseille","lat":43.2903,"lon":5.38662,"is_reserved":false,"is_disabled":false,"rental_uris":{"android":"levelo://app?vid=15c7eade-046f-4a92-a3c0-c410a1647f2f","ios":"levelo://app?vid=15c7eade-046f-4a92-a3c0-c410a1647f2f"},"vehicle_type_id":"4","last_reported":1700838398,"current_range_meters":26400,"station_id":"","pricing_plan_id":"free"},{"bike_id":"42be588f-14a6-464f-8736-3a6cf090cc37","system_id":"levelo_inurba_marseille","lat":43.302759,"lon":5.400793,"is_reserved":false,"is_disabled":false,"rental_uris":{"android":"levelo://app?vid=42be588f-14a6-464f-8736-3a6cf090cc37","ios":"levelo://app?vid=42be588f-14a6-464f-8736-3a6cf090cc37"},"vehicle_type_id":"4","last_reported":1700838398,"current_range_meters":26400,"station_id":"ce4bgvh2rcd13ifvqcs0","pricing_plan_id":"free"},{"bike_id":"20a47214-2c4b-4449-b4cd-d3be5318ea47","system_id":"levelo_inurba_marseille","lat":43.302759,"lon":5.400793,"is_reserved":false,"is_disabled":false,"rental_uris":{"android":"levelo://app?vid=20a47214-2c4b-4449-b4cd-d3be5318ea47","ios":"levelo://app?vid=20a47214-2c4b-4449-b4cd-d3be5318ea47"},"vehicle_type_id":"4","last_reported":1700838398,"current_range_meters":13600,"station_id":"ce4bgvh2rcd13ifvqcs0","pricing_plan_id":"free"},{"bike_id":"1504c115-c61c-40a2-8b77-5e7beb1c12e9","system_id":"levelo_inurba_marseille","lat":43.286068,"lon":5.370703,"is_reserved":false,"is_disabled":false,"rental_uris":{"android":"levelo://app?vid=1504c115-c61c-40a2-8b77-5e7beb1c12e9","ios":"levelo://app?vid=1504c115-c61c-40a2-8b77-5e7beb1c12e9"},"vehicle_type_id":"4","last_reported":1700838398,"current_range_meters":10400,"station_id":"ce4bht12rcd13ifvqi60","pricing_plan_id":"free"},{"bike_id":"15ab28ef-2817-4161-abbf-f657ee8e65ed","system_id":"levelo_inurba_marseille","lat":43.287185,"lon":5.379373,"is_reserved":false,"is_disabled":false,"rental_uris":{"android":"levelo://app?vid=15ab28ef-2817-4161-abbf-f657ee8e65ed","ios":"levelo://app?vid=15ab28ef-2817-4161-abbf-f657ee8e65ed"},"vehicle_type_id":"4","last_reported":1700838398,"current_range_meters":28000,"station_id":"ce4bh9p2rcd13ifvqec0","pricing_plan_id":"free"},{"bike_id":"7cecc88d-0f09-4902-90bc-86402d88350b","system_id":"levelo_inurba_marseille","lat":43.287185,"lon":5.379373,"is_reserved":false,"is_disabled":false,"rental_uris":{"android":"levelo://app?vid=7cecc88d-0f09-4902-90bc-86402d88350b","ios":"levelo://app?vid=7cecc88d-0f09-4902-90bc-86402d88350b"},"vehicle_type_id":"4","last_reported":1700838398,"current_range_meters":4000,"station_id":"ce4bh9p2rcd13ifvqec0","pricing_plan_id":"free"},{"bike_id":"435879b4-61e7-4f5c-9620-785578e6e5dd","system_id":"levelo_inurba_marseille","lat":43.283998,"lon":5.375062,"is_reserved":false,"is_disabled":false,"rental_uris":{"android":"levelo://app?vid=435879b4-61e7-4f5c-9620-785578e6e5dd","ios":"levelo://app?vid=435879b4-61e7-4f5c-9620-785578e6e5dd"},"vehicle_type_id":"4","last_reported":1700838398,"current_range_meters":0,"station_id":"ce4bh412rcd13ifvqds0","pricing_plan_id":"free"},{"bike_id":"ed84d7cd-abc2-4ea8-8e53-c33cb2e05d43","system_id":"levelo_inurba_marseille","lat":43.286706,"lon":5.386659,"is_reserved":false,"is_disabled":false,"rental_uris":{"android":"levelo://app?vid=ed84d7cd-abc2-4ea8-8e53-c33cb2e05d43","ios":"levelo://app?vid=ed84d7cd-abc2-4ea8-8e53-c33cb2e05d43"},"vehicle_type_id":"4","last_reported":1700838398,"current_range_meters":21600,"station_id":"","pricing_plan_id":"free"},{"bike_id":"06d61e2b-08b4-46c4-9113-09014cf71077","system_id":"levelo_inurba_marseille","lat":43.337168,"lon":5.391825,"is_reserved":false,"is_disabled":false,"rental_uris":{"android":"levelo://app?vid=06d61e2b-08b4-46c4-9113-09014cf71077","ios":"levelo://app?vid=06d61e2b-08b4-46c4-9113-09014cf71077"},"vehicle_type_id":"4","last_reported":1700838398,"current_range_meters":14400,"station_id":"ce4bhr92rcd13ifvqhsg","pricing_plan_id":"free"},{"bike_id":"f45257ec-05f5-48a6-bd01-0ebbb5fcf70a","system_id":"levelo_inurba_marseille","lat":43.33717,"lon":5.391857,"is_reserved":false,"is_disabled":false,"rental_uris":{"android":"levelo://app?vid=f45257ec-05f5-48a6-bd01-0ebbb5fcf70a","ios":"levelo://app?vid=f45257ec-05f5-48a6-bd01-0ebbb5fcf70a"},"vehicle_type_id":"4","last_reported":1700838398,"current_range_meters":29200,"station_id":"ce4bhr92rcd13ifvqhsg","pricing_plan_id":"free"},{"bike_id":"7e67463f-b172-48d9-a212-5592ef400926","system_id":"levelo_inurba_marseille","lat":43.28481,"lon":5.38404,"is_reserved":false,"is_disabled":false,"rental_uris":{"android":"levelo://app?vid=7e67463f-b172-48d9-a212-5592ef400926","ios":"levelo://app?vid=7e67463f-b172-48d9-a212-5592ef400926"},"vehicle_type_id":"4","last_reported":1700838398,"current_range_meters":12800,"station_id":"ce4bh512rcd13ifvqe3g","pricing_plan_id":"free"},{"bike_id":"916730a2-11e5-4445-83e8-6ca57ad46579","system_id":"levelo_inurba_marseille","lat":43.28484,"lon":5.38429,"is_reserved":false,"is_disabled":false,"rental_uris":{"android":"levelo://app?vid=916730a2-11e5-4445-83e8-6ca57ad46579","ios":"levelo://app?vid=916730a2-11e5-4445-83e8-6ca57ad46579"},"vehicle_type_id":"4","last_reported":1700838398,"current_range_meters":26400,"station_id":"ce4bh512rcd13ifvqe3g","pricing_plan_id":"free"},{"bike_id":"ed6b5746-0a20-429c-9765-8f97b09949c1","system_id":"levelo_inurba_marseille","lat":43.28476,"lon":5.38417,"is_reserved":false,"is_disabled":false,"rental_uris":{"android":"levelo://app?vid=ed6b5746-0a20-429c-9765-8f97b09949c1","ios":"levelo://app?vid=ed6b5746-0a20-429c-9765-8f97b09949c1"},"vehicle_type_id":"4","last_reported":1700838398,"current_range_meters":0,"station_id":"ce4bh512rcd13ifvqe3g","pricing_plan_id":"free"},{"bike_id":"e8fa57f4-4a55-4a97-bfd3-a7586030325d","system_id":"levelo_inurba_marseille","lat":43.28474,"lon":5.38426,"is_reserved":false,"is_disabled":false,"rental_uris":{"android":"levelo://app?vid=e8fa57f4-4a55-4a97-bfd3-a7586030325d","ios":"levelo://app?vid=e8fa57f4-4a55-4a97-bfd3-a7586030325d"},"vehicle_type_id":"4","last_reported":1700838398,"current_range_meters":3600,"station_id":"ce4bh512rcd13ifvqe3g","pricing_plan_id":"free"},{"bike_id":"e2284003-4e46-4e0a-93e7-73d05c3666d9","system_id":"levelo_inurba_marseille","lat":43.33508,"lon":5.397755,"is_reserved":false,"is_disabled":false,"rental_uris":{"android":"levelo://app?vid=e2284003-4e46-4e0a-93e7-73d05c3666d9","ios":"levelo://app?vid=e2284003-4e46-4e0a-93e7-73d05c3666d9"},"vehicle_type_id":"4","last_reported":1700838398,"current_range_meters":26000,"station_id":"","pricing_plan_id":"free"},{"bike_id":"b4bc6c19-20e6-4b1e-b989-40d4ba171e93","system_id":"levelo_inurba_marseille","lat":43.335275,"lon":5.397575,"is_reserved":false,"is_disabled":false,"rental_uris":{"android":"levelo://app?vid=b4bc6c19-20e6-4b1e-b989-40d4ba171e93","ios":"levelo://app?vid=b4bc6c19-20e6-4b1e-b989-40d4ba171e93"},"vehicle_type_id":"4","last_reported":1700838398,"current_range_meters":5200,"station_id":"","pricing_plan_id":"free"},{"bike_id":"d819565d-1c57-445b-ab9c-a02c3024dbb2","system_id":"levelo_inurba_marseille","lat":43.283502,"lon":5.386471,"is_reserved":false,"is_disabled":false,"rental_uris":{"android":"levelo://app?vid=d819565d-1c57-445b-ab9c-a02c3024dbb2","ios":"levelo://app?vid=d819565d-1c57-445b-ab9c-a02c3024dbb2"},"vehicle_type_id":"4","last_reported":1700838398,"current_range_meters":10400,"station_id":"ce4bh492rcd13ifvqdvg","pricing_plan_id":"free"},{"bike_id":"2bc2d829-589f-4f5b-9c46-4dc389d5580f","system_id":"levelo_inurba_marseille","lat":43.282754,"lon":5.350519,"is_reserved":false,"is_disabled":false,"rental_uris":{"android":"levelo://app?vid=2bc2d829-589f-4f5b-9c46-4dc389d5580f","ios":"levelo://app?vid=2bc2d829-589f-4f5b-9c46-4dc389d5580f"},"vehicle_type_id":"4","last_reported":1700838398,"current_range_meters":16000,"station_id":"ce4bhbp2rcd13ifvqerg","pricing_plan_id":"free"},{"bike_id":"6f7e492a-c158-446f-87bf-32ce3e4eae22","system_id":"levelo_inurba_marseille","lat":43.28363,"lon":5.38625,"is_reserved":false,"is_disabled":false,"rental_uris":{"android":"levelo://app?vid=6f7e492a-c158-446f-87bf-32ce3e4eae22","ios":"levelo://app?vid=6f7e492a-c158-446f-87bf-32ce3e4eae22"},"vehicle_type_id":"4","last_reported":1700838398,"current_range_meters":22000,"station_id":"ce4bh492rcd13ifvqdvg","pricing_plan_id":"free"},{"bike_id":"eda90eae-5635-4953-a73a-4a71227f7397","system_id":"levelo_inurba_marseille","lat":43.282754,"lon":5.350519,"is_reserved":false,"is_disabled":false,"rental_uris":{"android":"levelo://app?vid=eda90eae-5635-4953-a73a-4a71227f7397","ios":"levelo://app?vid=eda90eae-5635-4953-a73a-4a71227f7397"},"vehicle_type_id":"4","last_reported":1700838398,"current_range_meters":22800,"station_id":"ce4bhbp2rcd13ifvqerg","pricing_plan_id":"free"},{"bike_id":"ec6a7c9a-d83c-4dce-8cea-1381c9653f25","system_id":"levelo_inurba_marseille","lat":43.29041,"lon":5.3997,"is_reserved":false,"is_disabled":false,"rental_uris":{"android":"levelo://app?vid=ec6a7c9a-d83c-4dce-8cea-1381c9653f25","ios":"levelo://app?vid=ec6a7c9a-d83c-4dce-8cea-1381c9653f25"},"vehicle_type_id":"4","last_reported":1700838398,"current_range_meters":0,"station_id":"ce4bh392rcd13ifvqdm0","pricing_plan_id":"free"},{"bike_id":"74b74fd6-a7d2-44db-8c16-0822e553808d","system_id":"levelo_inurba_marseille","lat":43.278128,"lon":5.407195,"is_reserved":false,"is_disabled":false,"rental_uris":{"android":"levelo://app?vid=74b74fd6-a7d2-44db-8c16-0822e553808d","ios":"levelo://app?vid=74b74fd6-a7d2-44db-8c16-0822e553808d"},"vehicle_type_id":"4","last_reported":1700838398,"current_range_meters":4800,"station_id":"ce4bhnh2rcd13ifvqgtg","pricing_plan_id":"free"},{"bike_id":"5b661200-b6c1-4f00-9eef-d6412c81c777","system_id":"levelo_inurba_marseille","lat":43.296333,"lon":5.406107,"is_reserved":false,"is_disabled":false,"rental_uris":{"android":"levelo://app?vid=5b661200-b6c1-4f00-9eef-d6412c81c777","ios":"levelo://app?vid=5b661200-b6c1-4f00-9eef-d6412c81c777"},"vehicle_type_id":"4","last_reported":1700838398,"current_range_meters":0,"station_id":"ce4bh0h2rcd13ifvqd60","pricing_plan_id":"free"},{"bike_id":"7eea117c-ca97-4acc-8aa8-52e70405a538","system_id":"levelo_inurba_marseille","lat":43.28573,"lon":5.394992,"is_reserved":false,"is_disabled":false,"rental_uris":{"android":"levelo://app?vid=7eea117c-ca97-4acc-8aa8-52e70405a538","ios":"levelo://app?vid=7eea117c-ca97-4acc-8aa8-52e70405a538"},"vehicle_type_id":"4","last_reported":1700838398,"current_range_meters":0,"station_id":"ce4bh292rcd13ifvqdg0","pricing_plan_id":"free"},{"bike_id":"f01c006a-745d-48ea-9083-569cd9bcf930","system_id":"levelo_inurba_marseille","lat":43.326605,"lon":5.409903,"is_reserved":false,"is_disabled":false,"rental_uris":{"android":"levelo://app?vid=f01c006a-745d-48ea-9083-569cd9bcf930","ios":"levelo://app?vid=f01c006a-745d-48ea-9083-569cd9bcf930"},"vehicle_type_id":"4","last_reported":1700838398,"current_range_meters":8000,"station_id":"ce4bhpp2rcd13ifvqhgg","pricing_plan_id":"free"},{"bike_id":"e8997d84-e9e0-4aaa-a76a-c6d2af7271c7","system_id":"levelo_inurba_marseille","lat":43.298818,"lon":5.410197,"is_reserved":false,"is_disabled":false,"rental_uris":{"android":"levelo://app?vid=e8997d84-e9e0-4aaa-a76a-c6d2af7271c7","ios":"levelo://app?vid=e8997d84-e9e0-4aaa-a76a-c6d2af7271c7"},"vehicle_type_id":"4","last_reported":1700838398,"current_range_meters":0,"station_id":"","pricing_plan_id":"free"},{"bike_id":"feb3c6d7-e3df-40b3-b402-1af366257697","system_id":"levelo_inurba_marseille","lat":43.304188,"lon":5.412904,"is_reserved":false,"is_disabled":false,"rental_uris":{"android":"levelo://app?vid=feb3c6d7-e3df-40b3-b402-1af366257697","ios":"levelo://app?vid=feb3c6d7-e3df-40b3-b402-1af366257697"},"vehicle_type_id":"4","last_reported":1700838398,"current_range_meters":15600,"station_id":"ce4bhop2rcd13ifvqh8g","pricing_plan_id":"free"},{"bike_id":"01d6bb3b-f722-4cf8-950f-e0d9817e2931","system_id":"levelo_inurba_marseille","lat":43.304188,"lon":5.412904,"is_reserved":false,"is_disabled":false,"rental_uris":{"android":"levelo://app?vid=01d6bb3b-f722-4cf8-950f-e0d9817e2931","ios":"levelo://app?vid=01d6bb3b-f722-4cf8-950f-e0d9817e2931"},"vehicle_type_id":"4","last_reported":1700838398,"current_range_meters":15200,"station_id":"ce4bhop2rcd13ifvqh8g","pricing_plan_id":"free"},{"bike_id":"0250a166-edf3-47f8-8a2d-9a7738f5766d","system_id":"levelo_inurba_marseille","lat":43.287154,"lon":5.399979,"is_reserved":false,"is_disabled":false,"rental_uris":{"android":"levelo://app?vid=0250a166-edf3-47f8-8a2d-9a7738f5766d","ios":"levelo://app?vid=0250a166-edf3-47f8-8a2d-9a7738f5766d"},"vehicle_type_id":"4","last_reported":1700838398,"current_range_meters":0,"station_id":"ce4bho92rcd13ifvqh3g","pricing_plan_id":"free"},{"bike_id":"9c36a0b0-9831-4b41-a621-4fe94a615b8d","system_id":"levelo_inurba_marseille","lat":43.342857,"lon":5.398915,"is_reserved":false,"is_disabled":false,"rental_uris":{"android":"levelo://app?vid=9c36a0b0-9831-4b41-a621-4fe94a615b8d","ios":"levelo://app?vid=9c36a0b0-9831-4b41-a621-4fe94a615b8d"},"vehicle_type_id":"4","last_reported":1700838398,"current_range_meters":6400,"station_id":"","pricing_plan_id":"free"},{"bike_id":"380bea03-66b9-494a-9d3c-ad0da1c35a22","system_id":"levelo_inurba_marseille","lat":43.293668,"lon":5.412633,"is_reserved":false,"is_disabled":false,"rental_uris":{"android":"levelo://app?vid=380bea03-66b9-494a-9d3c-ad0da1c35a22","ios":"levelo://app?vid=380bea03-66b9-494a-9d3c-ad0da1c35a22"},"vehicle_type_id":"4","last_reported":1700838398,"current_range_meters":0,"station_id":"","pricing_plan_id":"free"},{"bike_id":"6e08b097-a605-486a-99e8-d83df2752d47","system_id":"levelo_inurba_marseille","lat":43.273613,"lon":5.362705,"is_reserved":false,"is_disabled":false,"rental_uris":{"android":"levelo://app?vid=6e08b097-a605-486a-99e8-d83df2752d47","ios":"levelo://app?vid=6e08b097-a605-486a-99e8-d83df2752d47"},"vehicle_type_id":"4","last_reported":1700838398,"current_range_meters":13200,"station_id":"ce4bhbh2rcd13ifvqeo0","pricing_plan_id":"free"},{"bike_id":"889a09d4-b60d-4e43-9ed0-b9c1787c9e58","system_id":"levelo_inurba_marseille","lat":43.273609,"lon":5.362708,"is_reserved":false,"is_disabled":false,"rental_uris":{"android":"levelo://app?vid=889a09d4-b60d-4e43-9ed0-b9c1787c9e58","ios":"levelo://app?vid=889a09d4-b60d-4e43-9ed0-b9c1787c9e58"},"vehicle_type_id":"4","last_reported":1700838398,"current_range_meters":27200,"station_id":"ce4bhbh2rcd13ifvqeo0","pricing_plan_id":"free"},{"bike_id":"60c7cb22-9902-4568-88ce-18f6ecbac276","system_id":"levelo_inurba_marseille","lat":43.275625,"lon":5.384392,"is_reserved":false,"is_disabled":false,"rental_uris":{"android":"levelo://app?vid=60c7cb22-9902-4568-88ce-18f6ecbac276","ios":"levelo://app?vid=60c7cb22-9902-4568-88ce-18f6ecbac276"},"vehicle_type_id":"4","last_reported":1700838398,"current_range_meters":24800,"station_id":"ce4bhh92rcd13ifvqfi0","pricing_plan_id":"free"},{"bike_id":"43638b1c-7c88-416f-8f02-934bae62e84e","system_id":"levelo_inurba_marseille","lat":43.275625,"lon":5.384392,"is_reserved":false,"is_disabled":false,"rental_uris":{"android":"levelo://app?vid=43638b1c-7c88-416f-8f02-934bae62e84e","ios":"levelo://app?vid=43638b1c-7c88-416f-8f02-934bae62e84e"},"vehicle_type_id":"4","last_reported":1700838398,"current_range_meters":6400,"station_id":"ce4bhh92rcd13ifvqfi0","pricing_plan_id":"free"},{"bike_id":"74a042b4-b311-4bab-9353-9927977b6cc5","system_id":"levelo_inurba_marseille","lat":43.279952,"lon":5.400085,"is_reserved":false,"is_disabled":false,"rental_uris":{"android":"levelo://app?vid=74a042b4-b311-4bab-9353-9927977b6cc5","ios":"levelo://app?vid=74a042b4-b311-4bab-9353-9927977b6cc5"},"vehicle_type_id":"4","last_reported":1700838398,"current_range_meters":13600,"station_id":"ce4bho92rcd13ifvqh4g","pricing_plan_id":"free"},{"bike_id":"556e8001-ce9b-4c9f-8b34-0b14cf7aee11","system_id":"levelo_inurba_marseille","lat":43.279952,"lon":5.400085,"is_reserved":false,"is_disabled":false,"rental_uris":{"android":"levelo://app?vid=556e8001-ce9b-4c9f-8b34-0b14cf7aee11","ios":"levelo://app?vid=556e8001-ce9b-4c9f-8b34-0b14cf7aee11"},"vehicle_type_id":"4","last_reported":1700838398,"current_range_meters":23200,"station_id":"ce4bho92rcd13ifvqh4g","pricing_plan_id":"free"},{"bike_id":"fc8a50fc-7fb9-4b58-ae5e-3658ebaf4b71","system_id":"levelo_inurba_marseille","lat":43.34181,"lon":5.40612,"is_reserved":false,"is_disabled":false,"rental_uris":{"android":"levelo://app?vid=fc8a50fc-7fb9-4b58-ae5e-3658ebaf4b71","ios":"levelo://app?vid=fc8a50fc-7fb9-4b58-ae5e-3658ebaf4b71"},"vehicle_type_id":"4","last_reported":1700838398,"current_range_meters":2400,"station_id":"","pricing_plan_id":"free"},{"bike_id":"1eeed65d-b74a-4628-a1c3-f2c2b25a51cf","system_id":"levelo_inurba_marseille","lat":43.31718,"lon":5.42396,"is_reserved":false,"is_disabled":false,"rental_uris":{"android":"levelo://app?vid=1eeed65d-b74a-4628-a1c3-f2c2b25a51cf","ios":"levelo://app?vid=1eeed65d-b74a-4628-a1c3-f2c2b25a51cf"},"vehicle_type_id":"4","last_reported":1700838398,"current_range_meters":8000,"station_id":"ce4bhp92rcd13ifvqhbg","pricing_plan_id":"free"},{"bike_id":"fcf4be2d-3efd-4ab1-9815-ebd8fdbcc784","system_id":"levelo_inurba_marseille","lat":43.274103,"lon":5.394016,"is_reserved":false,"is_disabled":false,"rental_uris":{"android":"levelo://app?vid=fcf4be2d-3efd-4ab1-9815-ebd8fdbcc784","ios":"levelo://app?vid=fcf4be2d-3efd-4ab1-9815-ebd8fdbcc784"},"vehicle_type_id":"4","last_reported":1700838398,"current_range_meters":4800,"station_id":"ce4bhdp2rcd13ifvqf20","pricing_plan_id":"free"},{"bike_id":"8a3299e4-6327-4e50-9707-b72d805eb7aa","system_id":"levelo_inurba_marseille","lat":43.274099,"lon":5.394019,"is_reserved":false,"is_disabled":false,"rental_uris":{"android":"levelo://app?vid=8a3299e4-6327-4e50-9707-b72d805eb7aa","ios":"levelo://app?vid=8a3299e4-6327-4e50-9707-b72d805eb7aa"},"vehicle_type_id":"4","last_reported":1700838398,"current_range_meters":14800,"station_id":"ce4bhdp2rcd13ifvqf20","pricing_plan_id":"free"},{"bike_id":"fda90dc1-62ba-4cbb-a0cc-b0a1d058ac33","system_id":"levelo_inurba_marseille","lat":43.274099,"lon":5.394019,"is_reserved":false,"is_disabled":false,"rental_uris":{"android":"levelo://app?vid=fda90dc1-62ba-4cbb-a0cc-b0a1d058ac33","ios":"levelo://app?vid=fda90dc1-62ba-4cbb-a0cc-b0a1d058ac33"},"vehicle_type_id":"4","last_reported":1700838398,"current_range_meters":0,"station_id":"ce4bhdp2rcd13ifvqf20","pricing_plan_id":"free"},{"bike_id":"8b21f06f-480a-4fe5-bb53-d068af8c61e4","system_id":"levelo_inurba_marseille","lat":43.29553,"lon":5.42282,"is_reserved":false,"is_disabled":false,"rental_uris":{"android":"levelo://app?vid=8b21f06f-480a-4fe5-bb53-d068af8c61e4","ios":"levelo://app?vid=8b21f06f-480a-4fe5-bb53-d068af8c61e4"},"vehicle_type_id":"4","last_reported":1700838398,"current_range_meters":30000,"station_id":"ce4bhph2rcd13ifvqhdg","pricing_plan_id":"free"},{"bike_id":"6fec4adb-0f86-4394-9f7c-e218dbced8a7","system_id":"levelo_inurba_marseille","lat":43.279465,"lon":5.410561,"is_reserved":false,"is_disabled":false,"rental_uris":{"android":"levelo://app?vid=6fec4adb-0f86-4394-9f7c-e218dbced8a7","ios":"levelo://app?vid=6fec4adb-0f86-4394-9f7c-e218dbced8a7"},"vehicle_type_id":"4","last_reported":1700838398,"current_range_meters":20000,"station_id":"ce4bhnp2rcd13ifvqh0g","pricing_plan_id":"free"},{"bike_id":"5fcca4d5-1f7c-4367-ae47-5b0fa63ea891","system_id":"levelo_inurba_marseille","lat":43.27949,"lon":5.41053,"is_reserved":false,"is_disabled":false,"rental_uris":{"android":"levelo://app?vid=5fcca4d5-1f7c-4367-ae47-5b0fa63ea891","ios":"levelo://app?vid=5fcca4d5-1f7c-4367-ae47-5b0fa63ea891"},"vehicle_type_id":"4","last_reported":1700838398,"current_range_meters":28000,"station_id":"ce4bhnp2rcd13ifvqh0g","pricing_plan_id":"free"},{"bike_id":"f35d4ba1-249b-4a3c-8274-d206842a32b6","system_id":"levelo_inurba_marseille","lat":43.27948,"lon":5.41055,"is_reserved":false,"is_disabled":false,"rental_uris":{"android":"levelo://app?vid=f35d4ba1-249b-4a3c-8274-d206842a32b6","ios":"levelo://app?vid=f35d4ba1-249b-4a3c-8274-d206842a32b6"},"vehicle_type_id":"4","last_reported":1700838398,"current_range_meters":13600,"station_id":"ce4bhnp2rcd13ifvqh0g","pricing_plan_id":"free"},{"bike_id":"16207791-efb0-4647-be04-11df27cab8b1","system_id":"levelo_inurba_marseille","lat":43.26689,"lon":5.38278,"is_reserved":false,"is_disabled":false,"rental_uris":{"android":"levelo://app?vid=16207791-efb0-4647-be04-11df27cab8b1","ios":"levelo://app?vid=16207791-efb0-4647-be04-11df27cab8b1"},"vehicle_type_id":"4","last_reported":1700838398,"current_range_meters":26800,"station_id":"ce4bhg92rcd13ifvqf90","pricing_plan_id":"free"},{"bike_id":"7eb40523-e1ca-467d-b772-1353c294d8bc","system_id":"levelo_inurba_marseille","lat":43.26681,"lon":5.382694,"is_reserved":false,"is_disabled":false,"rental_uris":{"android":"levelo://app?vid=7eb40523-e1ca-467d-b772-1353c294d8bc","ios":"levelo://app?vid=7eb40523-e1ca-467d-b772-1353c294d8bc"},"vehicle_type_id":"4","last_reported":1700838398,"current_range_meters":27600,"station_id":"ce4bhg92rcd13ifvqf90","pricing_plan_id":"free"},{"bike_id":"510a2480-541a-47eb-8863-dea357589c1f","system_id":"levelo_inurba_marseille","lat":43.26681,"lon":5.382694,"is_reserved":false,"is_disabled":false,"rental_uris":{"android":"levelo://app?vid=510a2480-541a-47eb-8863-dea357589c1f","ios":"levelo://app?vid=510a2480-541a-47eb-8863-dea357589c1f"},"vehicle_type_id":"4","last_reported":1700838398,"current_range_meters":14000,"station_id":"ce4bhg92rcd13ifvqf90","pricing_plan_id":"free"},{"bike_id":"f7f35a36-44f2-46a0-9451-8c23aea6e965","system_id":"levelo_inurba_marseille","lat":43.26556,"lon":5.37295,"is_reserved":false,"is_disabled":false,"rental_uris":{"android":"levelo://app?vid=f7f35a36-44f2-46a0-9451-8c23aea6e965","ios":"levelo://app?vid=f7f35a36-44f2-46a0-9451-8c23aea6e965"},"vehicle_type_id":"4","last_reported":1700838398,"current_range_meters":25600,"station_id":"ce4bhg12rcd13ifvqf70","pricing_plan_id":"free"},{"bike_id":"397d4ed4-99c3-4430-9a76-f3efdaef409e","system_id":"levelo_inurba_marseille","lat":43.26554,"lon":5.37284,"is_reserved":false,"is_disabled":false,"rental_uris":{"android":"levelo://app?vid=397d4ed4-99c3-4430-9a76-f3efdaef409e","ios":"levelo://app?vid=397d4ed4-99c3-4430-9a76-f3efdaef409e"},"vehicle_type_id":"4","last_reported":1700838398,"current_range_meters":4000,"station_id":"ce4bhg12rcd13ifvqf70","pricing_plan_id":"free"},{"bike_id":"28e8ce00-6b21-4e06-9930-c7c4408cc650","system_id":"levelo_inurba_marseille","lat":43.326174,"lon":5.430584,"is_reserved":false,"is_disabled":false,"rental_uris":{"android":"levelo://app?vid=28e8ce00-6b21-4e06-9930-c7c4408cc650","ios":"levelo://app?vid=28e8ce00-6b21-4e06-9930-c7c4408cc650"},"vehicle_type_id":"4","last_reported":1700838398,"current_range_meters":0,"station_id":"","pricing_plan_id":"free"},{"bike_id":"174b4461-788c-4079-aa9e-152f5c8f3dae","system_id":"levelo_inurba_marseille","lat":43.27996,"lon":5.416624,"is_reserved":false,"is_disabled":false,"rental_uris":{"android":"levelo://app?vid=174b4461-788c-4079-aa9e-152f5c8f3dae","ios":"levelo://app?vid=174b4461-788c-4079-aa9e-152f5c8f3dae"},"vehicle_type_id":"4","last_reported":1700838398,"current_range_meters":24000,"station_id":"ce4bho12rcd13ifvqh1g","pricing_plan_id":"free"},{"bike_id":"96da08ff-02c5-45e9-9dbf-9c05e15530f7","system_id":"levelo_inurba_marseille","lat":43.265714,"lon":5.372891,"is_reserved":false,"is_disabled":false,"rental_uris":{"android":"levelo://app?vid=96da08ff-02c5-45e9-9dbf-9c05e15530f7","ios":"levelo://app?vid=96da08ff-02c5-45e9-9dbf-9c05e15530f7"},"vehicle_type_id":"4","last_reported":1700838398,"current_range_meters":31600,"station_id":"ce4bhg12rcd13ifvqf70","pricing_plan_id":"free"},{"bike_id":"e7a82c14-429d-4acb-a404-36b1f554beae","system_id":"levelo_inurba_marseille","lat":43.265714,"lon":5.372891,"is_reserved":false,"is_disabled":false,"rental_uris":{"android":"levelo://app?vid=e7a82c14-429d-4acb-a404-36b1f554beae","ios":"levelo://app?vid=e7a82c14-429d-4acb-a404-36b1f554beae"},"vehicle_type_id":"4","last_reported":1700838398,"current_range_meters":29200,"station_id":"ce4bhg12rcd13ifvqf70","pricing_plan_id":"free"},{"bike_id":"31751cb1-54bc-4aab-ba73-9aa7cb860d78","system_id":"levelo_inurba_marseille","lat":43.265714,"lon":5.372891,"is_reserved":false,"is_disabled":false,"rental_uris":{"android":"levelo://app?vid=31751cb1-54bc-4aab-ba73-9aa7cb860d78","ios":"levelo://app?vid=31751cb1-54bc-4aab-ba73-9aa7cb860d78"},"vehicle_type_id":"4","last_reported":1700838398,"current_range_meters":800,"station_id":"ce4bhg12rcd13ifvqf70","pricing_plan_id":"free"},{"bike_id":"73d2ba80-b432-4963-9555-0666c33dd200","system_id":"levelo_inurba_marseille","lat":43.265714,"lon":5.372891,"is_reserved":false,"is_disabled":false,"rental_uris":{"android":"levelo://app?vid=73d2ba80-b432-4963-9555-0666c33dd200","ios":"levelo://app?vid=73d2ba80-b432-4963-9555-0666c33dd200"},"vehicle_type_id":"4","last_reported":1700838398,"current_range_meters":19200,"station_id":"ce4bhg12rcd13ifvqf70","pricing_plan_id":"free"},{"bike_id":"4b53e0b6-b234-49c8-93de-94a030da3596","system_id":"levelo_inurba_marseille","lat":43.265714,"lon":5.372891,"is_reserved":false,"is_disabled":false,"rental_uris":{"android":"levelo://app?vid=4b53e0b6-b234-49c8-93de-94a030da3596","ios":"levelo://app?vid=4b53e0b6-b234-49c8-93de-94a030da3596"},"vehicle_type_id":"4","last_reported":1700838398,"current_range_meters":12800,"station_id":"ce4bhg12rcd13ifvqf70","pricing_plan_id":"free"},{"bike_id":"e36b6886-fa4d-4c48-9f38-f027ac9bcc3e","system_id":"levelo_inurba_marseille","lat":43.265714,"lon":5.372891,"is_reserved":false,"is_disabled":false,"rental_uris":{"android":"levelo://app?vid=e36b6886-fa4d-4c48-9f38-f027ac9bcc3e","ios":"levelo://app?vid=e36b6886-fa4d-4c48-9f38-f027ac9bcc3e"},"vehicle_type_id":"4","last_reported":1700838398,"current_range_meters":0,"station_id":"ce4bhg12rcd13ifvqf70","pricing_plan_id":"free"},{"bike_id":"2b5f0b27-ae58-4e9e-bd76-c585f78e8a73","system_id":"levelo_inurba_marseille","lat":43.26386,"lon":5.37454,"is_reserved":false,"is_disabled":false,"rental_uris":{"android":"levelo://app?vid=2b5f0b27-ae58-4e9e-bd76-c585f78e8a73","ios":"levelo://app?vid=2b5f0b27-ae58-4e9e-bd76-c585f78e8a73"},"vehicle_type_id":"4","last_reported":1700838398,"current_range_meters":14400,"station_id":"","pricing_plan_id":"free"},{"bike_id":"c85f7616-3a9e-47a4-ae16-28a03e51ab4f","system_id":"levelo_inurba_marseille","lat":43.295523,"lon":5.422926,"is_reserved":false,"is_disabled":false,"rental_uris":{"android":"levelo://app?vid=c85f7616-3a9e-47a4-ae16-28a03e51ab4f","ios":"levelo://app?vid=c85f7616-3a9e-47a4-ae16-28a03e51ab4f"},"vehicle_type_id":"4","last_reported":1700838398,"current_range_meters":20800,"station_id":"ce4bhph2rcd13ifvqhdg","pricing_plan_id":"free"},{"bike_id":"2619826a-63f0-4c7f-82be-43fccd19be8f","system_id":"levelo_inurba_marseille","lat":43.308051,"lon":5.43527,"is_reserved":false,"is_disabled":false,"rental_uris":{"android":"levelo://app?vid=2619826a-63f0-4c7f-82be-43fccd19be8f","ios":"levelo://app?vid=2619826a-63f0-4c7f-82be-43fccd19be8f"},"vehicle_type_id":"4","last_reported":1700838398,"current_range_meters":2400,"station_id":"ce4bhph2rcd13ifvqheg","pricing_plan_id":"free"},{"bike_id":"964e04ec-8059-4647-b061-895e9c0f4808","system_id":"levelo_inurba_marseille","lat":43.265569,"lon":5.390047,"is_reserved":false,"is_disabled":false,"rental_uris":{"android":"levelo://app?vid=964e04ec-8059-4647-b061-895e9c0f4808","ios":"levelo://app?vid=964e04ec-8059-4647-b061-895e9c0f4808"},"vehicle_type_id":"4","last_reported":1700838398,"current_range_meters":1600,"station_id":"ce4bhe12rcd13ifvqf30","pricing_plan_id":"free"},{"bike_id":"8bb5fb4c-f033-472d-9384-8c187d29c15f","system_id":"levelo_inurba_marseille","lat":43.308051,"lon":5.43527,"is_reserved":false,"is_disabled":false,"rental_uris":{"android":"levelo://app?vid=8bb5fb4c-f033-472d-9384-8c187d29c15f","ios":"levelo://app?vid=8bb5fb4c-f033-472d-9384-8c187d29c15f"},"vehicle_type_id":"4","last_reported":1700838398,"current_range_meters":31200,"station_id":"ce4bhph2rcd13ifvqheg","pricing_plan_id":"free"},{"bike_id":"483fb3c2-413c-4c58-ba67-0ae579e0dcad","system_id":"levelo_inurba_marseille","lat":43.265569,"lon":5.390047,"is_reserved":false,"is_disabled":false,"rental_uris":{"android":"levelo://app?vid=483fb3c2-413c-4c58-ba67-0ae579e0dcad","ios":"levelo://app?vid=483fb3c2-413c-4c58-ba67-0ae579e0dcad"},"vehicle_type_id":"4","last_reported":1700838398,"current_range_meters":16000,"station_id":"ce4bhe12rcd13ifvqf30","pricing_plan_id":"free"},{"bike_id":"ec96b777-4d02-464a-9d74-2d748569d183","system_id":"levelo_inurba_marseille","lat":43.26939,"lon":5.40262,"is_reserved":false,"is_disabled":false,"rental_uris":{"android":"levelo://app?vid=ec96b777-4d02-464a-9d74-2d748569d183","ios":"levelo://app?vid=ec96b777-4d02-464a-9d74-2d748569d183"},"vehicle_type_id":"4","last_reported":1700838398,"current_range_meters":26800,"station_id":"cjm6bp8fraef2m0cb0m0","pricing_plan_id":"free"},{"bike_id":"a6cf9b04-855d-4dc5-9c72-ce4a8e5bbb9c","system_id":"levelo_inurba_marseille","lat":43.31713,"lon":5.43706,"is_reserved":false,"is_disabled":false,"rental_uris":{"android":"levelo://app?vid=a6cf9b04-855d-4dc5-9c72-ce4a8e5bbb9c","ios":"levelo://app?vid=a6cf9b04-855d-4dc5-9c72-ce4a8e5bbb9c"},"vehicle_type_id":"4","last_reported":1700838398,"current_range_meters":2400,"station_id":"ce4bhp92rcd13ifvqhcg","pricing_plan_id":"free"},{"bike_id":"f23d8119-b478-4639-98c5-6883279f9f84","system_id":"levelo_inurba_marseille","lat":43.31711,"lon":5.43708,"is_reserved":false,"is_disabled":false,"rental_uris":{"android":"levelo://app?vid=f23d8119-b478-4639-98c5-6883279f9f84","ios":"levelo://app?vid=f23d8119-b478-4639-98c5-6883279f9f84"},"vehicle_type_id":"4","last_reported":1700838398,"current_range_meters":26000,"station_id":"ce4bhp92rcd13ifvqhcg","pricing_plan_id":"free"},{"bike_id":"ed30d6a1-b23a-49e5-9c83-5546be72a734","system_id":"levelo_inurba_marseille","lat":43.317104,"lon":5.436818,"is_reserved":false,"is_disabled":false,"rental_uris":{"android":"levelo://app?vid=ed30d6a1-b23a-49e5-9c83-5546be72a734","ios":"levelo://app?vid=ed30d6a1-b23a-49e5-9c83-5546be72a734"},"vehicle_type_id":"4","last_reported":1700838398,"current_range_meters":16400,"station_id":"ce4bhp92rcd13ifvqhcg","pricing_plan_id":"free"},{"bike_id":"c6caf463-1d1b-409b-ac7c-70c7ce57286e","system_id":"levelo_inurba_marseille","lat":43.262012,"lon":5.379307,"is_reserved":false,"is_disabled":false,"rental_uris":{"android":"levelo://app?vid=c6caf463-1d1b-409b-ac7c-70c7ce57286e","ios":"levelo://app?vid=c6caf463-1d1b-409b-ac7c-70c7ce57286e"},"vehicle_type_id":"4","last_reported":1700838398,"current_range_meters":10400,"station_id":"ce4bhjp2rcd13ifvqg90","pricing_plan_id":"free"},{"bike_id":"cdd6cd14-0b43-479a-9067-521b3ee15c2b","system_id":"levelo_inurba_marseille","lat":43.26202,"lon":5.379299,"is_reserved":false,"is_disabled":false,"rental_uris":{"android":"levelo://app?vid=cdd6cd14-0b43-479a-9067-521b3ee15c2b","ios":"levelo://app?vid=cdd6cd14-0b43-479a-9067-521b3ee15c2b"},"vehicle_type_id":"4","last_reported":1700838398,"current_range_meters":31200,"station_id":"ce4bhjp2rcd13ifvqg90","pricing_plan_id":"free"},{"bike_id":"28a661b1-5cf3-458c-a553-9585627c756e","system_id":"levelo_inurba_marseille","lat":43.271388,"lon":5.409269,"is_reserved":false,"is_disabled":false,"rental_uris":{"android":"levelo://app?vid=28a661b1-5cf3-458c-a553-9585627c756e","ios":"levelo://app?vid=28a661b1-5cf3-458c-a553-9585627c756e"},"vehicle_type_id":"4","last_reported":1700838398,"current_range_meters":14000,"station_id":"ce4bhl12rcd13ifvqgf0","pricing_plan_id":"free"},{"bike_id":"1051ecfc-4673-4fab-b1da-d59d25048807","system_id":"levelo_inurba_marseille","lat":43.271388,"lon":5.409269,"is_reserved":false,"is_disabled":false,"rental_uris":{"android":"levelo://app?vid=1051ecfc-4673-4fab-b1da-d59d25048807","ios":"levelo://app?vid=1051ecfc-4673-4fab-b1da-d59d25048807"},"vehicle_type_id":"4","last_reported":1700838398,"current_range_meters":18400,"station_id":"ce4bhl12rcd13ifvqgf0","pricing_plan_id":"free"},{"bike_id":"78979790-96a2-4aae-86d0-0fa8824d1e3a","system_id":"levelo_inurba_marseille","lat":43.271388,"lon":5.409269,"is_reserved":false,"is_disabled":false,"rental_uris":{"android":"levelo://app?vid=78979790-96a2-4aae-86d0-0fa8824d1e3a","ios":"levelo://app?vid=78979790-96a2-4aae-86d0-0fa8824d1e3a"},"vehicle_type_id":"4","last_reported":1700838398,"current_range_meters":10000,"station_id":"ce4bhl12rcd13ifvqgf0","pricing_plan_id":"free"},{"bike_id":"e927cc78-55fc-4406-a26c-5d780237e426","system_id":"levelo_inurba_marseille","lat":43.267959,"lon":5.402687,"is_reserved":false,"is_disabled":false,"rental_uris":{"android":"levelo://app?vid=e927cc78-55fc-4406-a26c-5d780237e426","ios":"levelo://app?vid=e927cc78-55fc-4406-a26c-5d780237e426"},"vehicle_type_id":"4","last_reported":1700838398,"current_range_meters":31200,"station_id":"ce501612rcd8frsf0b60","pricing_plan_id":"free"},{"bike_id":"0548e2f0-1363-49ba-8a37-e9539009eddd","system_id":"levelo_inurba_marseille","lat":43.267959,"lon":5.402685,"is_reserved":false,"is_disabled":false,"rental_uris":{"android":"levelo://app?vid=0548e2f0-1363-49ba-8a37-e9539009eddd","ios":"levelo://app?vid=0548e2f0-1363-49ba-8a37-e9539009eddd"},"vehicle_type_id":"4","last_reported":1700838398,"current_range_meters":16400,"station_id":"ce501612rcd8frsf0b60","pricing_plan_id":"free"},{"bike_id":"3d8a704b-6502-444f-8a83-e3084e7c4e14","system_id":"levelo_inurba_marseille","lat":43.267959,"lon":5.402687,"is_reserved":false,"is_disabled":false,"rental_uris":{"android":"levelo://app?vid=3d8a704b-6502-444f-8a83-e3084e7c4e14","ios":"levelo://app?vid=3d8a704b-6502-444f-8a83-e3084e7c4e14"},"vehicle_type_id":"4","last_reported":1700838398,"current_range_meters":27200,"station_id":"ce501612rcd8frsf0b60","pricing_plan_id":"free"},{"bike_id":"d0bb53f7-f1b8-4609-a668-27efdac67f66","system_id":"levelo_inurba_marseille","lat":43.26301,"lon":5.38842,"is_reserved":false,"is_disabled":false,"rental_uris":{"android":"levelo://app?vid=d0bb53f7-f1b8-4609-a668-27efdac67f66","ios":"levelo://app?vid=d0bb53f7-f1b8-4609-a668-27efdac67f66"},"vehicle_type_id":"4","last_reported":1700838398,"current_range_meters":0,"station_id":"","pricing_plan_id":"free"},{"bike_id":"348f4a0c-22dd-4442-86a7-1693c803c8cc","system_id":"levelo_inurba_marseille","lat":43.260219,"lon":5.37546,"is_reserved":false,"is_disabled":false,"rental_uris":{"android":"levelo://app?vid=348f4a0c-22dd-4442-86a7-1693c803c8cc","ios":"levelo://app?vid=348f4a0c-22dd-4442-86a7-1693c803c8cc"},"vehicle_type_id":"4","last_reported":1700838398,"current_range_meters":16000,"station_id":"ce4bhgh2rcd13ifvqfa0","pricing_plan_id":"free"},{"bike_id":"77aeb639-9c5a-4e72-9652-24a60e344a90","system_id":"levelo_inurba_marseille","lat":43.260219,"lon":5.37546,"is_reserved":false,"is_disabled":false,"rental_uris":{"android":"levelo://app?vid=77aeb639-9c5a-4e72-9652-24a60e344a90","ios":"levelo://app?vid=77aeb639-9c5a-4e72-9652-24a60e344a90"},"vehicle_type_id":"4","last_reported":1700838398,"current_range_meters":20000,"station_id":"ce4bhgh2rcd13ifvqfa0","pricing_plan_id":"free"},{"bike_id":"5ac38179-4d98-4b89-80f2-dc6cd474e479","system_id":"levelo_inurba_marseille","lat":43.28155,"lon":5.42647,"is_reserved":false,"is_disabled":false,"rental_uris":{"android":"levelo://app?vid=5ac38179-4d98-4b89-80f2-dc6cd474e479","ios":"levelo://app?vid=5ac38179-4d98-4b89-80f2-dc6cd474e479"},"vehicle_type_id":"4","last_reported":1700838398,"current_range_meters":21600,"station_id":"ce4bhnh2rcd13ifvqgug","pricing_plan_id":"free"},{"bike_id":"37556fee-84a0-49a0-9773-ff7ecad18ef3","system_id":"levelo_inurba_marseille","lat":43.281548,"lon":5.42643,"is_reserved":false,"is_disabled":false,"rental_uris":{"android":"levelo://app?vid=37556fee-84a0-49a0-9773-ff7ecad18ef3","ios":"levelo://app?vid=37556fee-84a0-49a0-9773-ff7ecad18ef3"},"vehicle_type_id":"4","last_reported":1700838398,"current_range_meters":2000,"station_id":"ce4bhnh2rcd13ifvqgug","pricing_plan_id":"free"},{"bike_id":"6181795c-d57f-4dce-a524-f46690bf06cb","system_id":"levelo_inurba_marseille","lat":43.281548,"lon":5.42643,"is_reserved":false,"is_disabled":false,"rental_uris":{"android":"levelo://app?vid=6181795c-d57f-4dce-a524-f46690bf06cb","ios":"levelo://app?vid=6181795c-d57f-4dce-a524-f46690bf06cb"},"vehicle_type_id":"4","last_reported":1700838398,"current_range_meters":27200,"station_id":"ce4bhnh2rcd13ifvqgug","pricing_plan_id":"free"},{"bike_id":"7ab154ba-0647-4039-bcc3-b26750074150","system_id":"levelo_inurba_marseille","lat":43.275028,"lon":5.424534,"is_reserved":false,"is_disabled":false,"rental_uris":{"android":"levelo://app?vid=7ab154ba-0647-4039-bcc3-b26750074150","ios":"levelo://app?vid=7ab154ba-0647-4039-bcc3-b26750074150"},"vehicle_type_id":"4","last_reported":1700838398,"current_range_meters":18800,"station_id":"ce4bhn92rcd13ifvqgrg","pricing_plan_id":"free"},{"bike_id":"b1cb8231-8d67-41a1-82ea-eeaf9eeb6e6b","system_id":"levelo_inurba_marseille","lat":43.2558,"lon":5.38229,"is_reserved":false,"is_disabled":false,"rental_uris":{"android":"levelo://app?vid=b1cb8231-8d67-41a1-82ea-eeaf9eeb6e6b","ios":"levelo://app?vid=b1cb8231-8d67-41a1-82ea-eeaf9eeb6e6b"},"vehicle_type_id":"4","last_reported":1700838398,"current_range_meters":28400,"station_id":"ce4bhih2rcd13ifvqfs0","pricing_plan_id":"free"},{"bike_id":"49d6c5a7-bac6-4189-91b9-9bbeaba86bf5","system_id":"levelo_inurba_marseille","lat":43.25577,"lon":5.38235,"is_reserved":false,"is_disabled":false,"rental_uris":{"android":"levelo://app?vid=49d6c5a7-bac6-4189-91b9-9bbeaba86bf5","ios":"levelo://app?vid=49d6c5a7-bac6-4189-91b9-9bbeaba86bf5"},"vehicle_type_id":"4","last_reported":1700838398,"current_range_meters":21600,"station_id":"ce4bhih2rcd13ifvqfs0","pricing_plan_id":"free"},{"bike_id":"ba373430-5d84-4d96-be3b-f6186e5e0a7f","system_id":"levelo_inurba_marseille","lat":43.258224,"lon":5.394369,"is_reserved":false,"is_disabled":false,"rental_uris":{"android":"levelo://app?vid=ba373430-5d84-4d96-be3b-f6186e5e0a7f","ios":"levelo://app?vid=ba373430-5d84-4d96-be3b-f6186e5e0a7f"},"vehicle_type_id":"4","last_reported":1700838398,"current_range_meters":25200,"station_id":"ce4bhip2rcd13ifvqft0","pricing_plan_id":"free"},{"bike_id":"80438f1e-5ce5-43bb-b8b0-62680314de25","system_id":"levelo_inurba_marseille","lat":43.25575,"lon":5.38235,"is_reserved":false,"is_disabled":false,"rental_uris":{"android":"levelo://app?vid=80438f1e-5ce5-43bb-b8b0-62680314de25","ios":"levelo://app?vid=80438f1e-5ce5-43bb-b8b0-62680314de25"},"vehicle_type_id":"4","last_reported":1700838398,"current_range_meters":11600,"station_id":"ce4bhih2rcd13ifvqfs0","pricing_plan_id":"free"},{"bike_id":"781c79ba-987b-41ea-bd7a-89cd886f675f","system_id":"levelo_inurba_marseille","lat":43.254947,"lon":5.376454,"is_reserved":false,"is_disabled":false,"rental_uris":{"android":"levelo://app?vid=781c79ba-987b-41ea-bd7a-89cd886f675f","ios":"levelo://app?vid=781c79ba-987b-41ea-bd7a-89cd886f675f"},"vehicle_type_id":"4","last_reported":1700838398,"current_range_meters":18000,"station_id":"ce4bhh12rcd13ifvqff0","pricing_plan_id":"free"},{"bike_id":"761c0585-d314-4547-9fd3-be1703132e70","system_id":"levelo_inurba_marseille","lat":43.254947,"lon":5.376454,"is_reserved":false,"is_disabled":false,"rental_uris":{"android":"levelo://app?vid=761c0585-d314-4547-9fd3-be1703132e70","ios":"levelo://app?vid=761c0585-d314-4547-9fd3-be1703132e70"},"vehicle_type_id":"4","last_reported":1700838398,"current_range_meters":28000,"station_id":"ce4bhh12rcd13ifvqff0","pricing_plan_id":"free"},{"bike_id":"2d65c7e7-8aaf-4ae4-92d0-613f5dce94da","system_id":"levelo_inurba_marseille","lat":43.254947,"lon":5.376454,"is_reserved":false,"is_disabled":false,"rental_uris":{"android":"levelo://app?vid=2d65c7e7-8aaf-4ae4-92d0-613f5dce94da","ios":"levelo://app?vid=2d65c7e7-8aaf-4ae4-92d0-613f5dce94da"},"vehicle_type_id":"4","last_reported":1700838398,"current_range_meters":23600,"station_id":"ce4bhh12rcd13ifvqff0","pricing_plan_id":"free"},{"bike_id":"49cf8f67-d996-4067-9019-a07117a861eb","system_id":"levelo_inurba_marseille","lat":43.254947,"lon":5.376454,"is_reserved":false,"is_disabled":false,"rental_uris":{"android":"levelo://app?vid=49cf8f67-d996-4067-9019-a07117a861eb","ios":"levelo://app?vid=49cf8f67-d996-4067-9019-a07117a861eb"},"vehicle_type_id":"4","last_reported":1700838398,"current_range_meters":31200,"station_id":"ce4bhh12rcd13ifvqff0","pricing_plan_id":"free"},{"bike_id":"f77c5a20-ba8a-4a60-9519-3569eebb96e4","system_id":"levelo_inurba_marseille","lat":43.254947,"lon":5.376454,"is_reserved":false,"is_disabled":false,"rental_uris":{"android":"levelo://app?vid=f77c5a20-ba8a-4a60-9519-3569eebb96e4","ios":"levelo://app?vid=f77c5a20-ba8a-4a60-9519-3569eebb96e4"},"vehicle_type_id":"4","last_reported":1700838398,"current_range_meters":31200,"station_id":"ce4bhh12rcd13ifvqff0","pricing_plan_id":"free"},{"bike_id":"34fb691b-6e49-4e52-a268-65363252d69e","system_id":"levelo_inurba_marseille","lat":43.25866,"lon":5.39897,"is_reserved":false,"is_disabled":false,"rental_uris":{"android":"levelo://app?vid=34fb691b-6e49-4e52-a268-65363252d69e","ios":"levelo://app?vid=34fb691b-6e49-4e52-a268-65363252d69e"},"vehicle_type_id":"4","last_reported":1700838398,"current_range_meters":26800,"station_id":"ce4bhl92rcd13ifvqghg","pricing_plan_id":"free"},{"bike_id":"839eee83-169b-4b70-8cc0-b997652540ce","system_id":"levelo_inurba_marseille","lat":43.25868,"lon":5.39904,"is_reserved":false,"is_disabled":false,"rental_uris":{"android":"levelo://app?vid=839eee83-169b-4b70-8cc0-b997652540ce","ios":"levelo://app?vid=839eee83-169b-4b70-8cc0-b997652540ce"},"vehicle_type_id":"4","last_reported":1700838398,"current_range_meters":30800,"station_id":"ce4bhl92rcd13ifvqghg","pricing_plan_id":"free"},{"bike_id":"416f017b-2a0f-453f-8655-0bf8992430a7","system_id":"levelo_inurba_marseille","lat":43.258658,"lon":5.398935,"is_reserved":false,"is_disabled":false,"rental_uris":{"android":"levelo://app?vid=416f017b-2a0f-453f-8655-0bf8992430a7","ios":"levelo://app?vid=416f017b-2a0f-453f-8655-0bf8992430a7"},"vehicle_type_id":"4","last_reported":1700838398,"current_range_meters":30800,"station_id":"ce4bhl92rcd13ifvqghg","pricing_plan_id":"free"},{"bike_id":"0283111f-e9f7-4261-be73-ba52da8fdb23","system_id":"levelo_inurba_marseille","lat":43.258658,"lon":5.398935,"is_reserved":false,"is_disabled":false,"rental_uris":{"android":"levelo://app?vid=0283111f-e9f7-4261-be73-ba52da8fdb23","ios":"levelo://app?vid=0283111f-e9f7-4261-be73-ba52da8fdb23"},"vehicle_type_id":"4","last_reported":1700838398,"current_range_meters":29600,"station_id":"ce4bhl92rcd13ifvqghg","pricing_plan_id":"free"},{"bike_id":"18abb82b-ec58-4052-9e14-3f109ee3c0b9","system_id":"levelo_inurba_marseille","lat":43.250023,"lon":5.38919,"is_reserved":false,"is_disabled":false,"rental_uris":{"android":"levelo://app?vid=18abb82b-ec58-4052-9e14-3f109ee3c0b9","ios":"levelo://app?vid=18abb82b-ec58-4052-9e14-3f109ee3c0b9"},"vehicle_type_id":"4","last_reported":1700838398,"current_range_meters":10000,"station_id":"ce4bhgp2rcd13ifvqfd0","pricing_plan_id":"free"},{"bike_id":"4fe7153f-b49a-46b1-a507-c6a1b37b66a5","system_id":"levelo_inurba_marseille","lat":43.257079,"lon":5.411051,"is_reserved":false,"is_disabled":false,"rental_uris":{"android":"levelo://app?vid=4fe7153f-b49a-46b1-a507-c6a1b37b66a5","ios":"levelo://app?vid=4fe7153f-b49a-46b1-a507-c6a1b37b66a5"},"vehicle_type_id":"4","last_reported":1700838398,"current_range_meters":18400,"station_id":"ce4bhkp2rcd13ifvqgd0","pricing_plan_id":"free"},{"bike_id":"e4f7aab8-1aae-4d6a-a0dc-8070d0c6ded1","system_id":"levelo_inurba_marseille","lat":43.257079,"lon":5.411051,"is_reserved":false,"is_disabled":false,"rental_uris":{"android":"levelo://app?vid=e4f7aab8-1aae-4d6a-a0dc-8070d0c6ded1","ios":"levelo://app?vid=e4f7aab8-1aae-4d6a-a0dc-8070d0c6ded1"},"vehicle_type_id":"4","last_reported":1700838398,"current_range_meters":26800,"station_id":"ce4bhkp2rcd13ifvqgd0","pricing_plan_id":"free"},{"bike_id":"c1c1beef-d0cc-442d-bcc2-81fc50813833","system_id":"levelo_inurba_marseille","lat":43.250009,"lon":5.389195,"is_reserved":false,"is_disabled":false,"rental_uris":{"android":"levelo://app?vid=c1c1beef-d0cc-442d-bcc2-81fc50813833","ios":"levelo://app?vid=c1c1beef-d0cc-442d-bcc2-81fc50813833"},"vehicle_type_id":"4","last_reported":1700838398,"current_range_meters":29600,"station_id":"ce4bhgp2rcd13ifvqfd0","pricing_plan_id":"free"},{"bike_id":"84899292-26b3-4e0a-92cb-c2b49ec02c85","system_id":"levelo_inurba_marseille","lat":43.250023,"lon":5.38919,"is_reserved":false,"is_disabled":false,"rental_uris":{"android":"levelo://app?vid=84899292-26b3-4e0a-92cb-c2b49ec02c85","ios":"levelo://app?vid=84899292-26b3-4e0a-92cb-c2b49ec02c85"},"vehicle_type_id":"4","last_reported":1700838398,"current_range_meters":31200,"station_id":"ce4bhgp2rcd13ifvqfd0","pricing_plan_id":"free"},{"bike_id":"4c38b2e2-ba04-4041-8d82-0bcc7b45d297","system_id":"levelo_inurba_marseille","lat":43.250023,"lon":5.38919,"is_reserved":false,"is_disabled":false,"rental_uris":{"android":"levelo://app?vid=4c38b2e2-ba04-4041-8d82-0bcc7b45d297","ios":"levelo://app?vid=4c38b2e2-ba04-4041-8d82-0bcc7b45d297"},"vehicle_type_id":"4","last_reported":1700838398,"current_range_meters":0,"station_id":"ce4bhgp2rcd13ifvqfd0","pricing_plan_id":"free"},{"bike_id":"fceb39cb-5ded-4b60-9b83-503bfc89a98e","system_id":"levelo_inurba_marseille","lat":43.2479,"lon":5.374457,"is_reserved":false,"is_disabled":false,"rental_uris":{"android":"levelo://app?vid=fceb39cb-5ded-4b60-9b83-503bfc89a98e","ios":"levelo://app?vid=fceb39cb-5ded-4b60-9b83-503bfc89a98e"},"vehicle_type_id":"4","last_reported":1700838398,"current_range_meters":1200,"station_id":"ce4bhgh2rcd13ifvqfb0","pricing_plan_id":"free"},{"bike_id":"fc2e3bb7-f156-42a4-8047-b06922895bd9","system_id":"levelo_inurba_marseille","lat":43.2479,"lon":5.374457,"is_reserved":false,"is_disabled":false,"rental_uris":{"android":"levelo://app?vid=fc2e3bb7-f156-42a4-8047-b06922895bd9","ios":"levelo://app?vid=fc2e3bb7-f156-42a4-8047-b06922895bd9"},"vehicle_type_id":"4","last_reported":1700838398,"current_range_meters":29600,"station_id":"ce4bhgh2rcd13ifvqfb0","pricing_plan_id":"free"},{"bike_id":"41b10a3f-26fe-4e2e-ba86-f4868bb51986","system_id":"levelo_inurba_marseille","lat":43.24806,"lon":5.37457,"is_reserved":false,"is_disabled":false,"rental_uris":{"android":"levelo://app?vid=41b10a3f-26fe-4e2e-ba86-f4868bb51986","ios":"levelo://app?vid=41b10a3f-26fe-4e2e-ba86-f4868bb51986"},"vehicle_type_id":"4","last_reported":1700838398,"current_range_meters":9200,"station_id":"ce4bhgh2rcd13ifvqfb0","pricing_plan_id":"free"},{"bike_id":"38e01a34-6515-4afd-bfe2-090b66e4a4cd","system_id":"levelo_inurba_marseille","lat":43.2479,"lon":5.374457,"is_reserved":false,"is_disabled":false,"rental_uris":{"android":"levelo://app?vid=38e01a34-6515-4afd-bfe2-090b66e4a4cd","ios":"levelo://app?vid=38e01a34-6515-4afd-bfe2-090b66e4a4cd"},"vehicle_type_id":"4","last_reported":1700838398,"current_range_meters":24800,"station_id":"ce4bhgh2rcd13ifvqfb0","pricing_plan_id":"free"},{"bike_id":"957b7262-74a7-4086-b66e-ee2415a42a5a","system_id":"levelo_inurba_marseille","lat":43.250863,"lon":5.395243,"is_reserved":false,"is_disabled":false,"rental_uris":{"android":"levelo://app?vid=957b7262-74a7-4086-b66e-ee2415a42a5a","ios":"levelo://app?vid=957b7262-74a7-4086-b66e-ee2415a42a5a"},"vehicle_type_id":"4","last_reported":1700838398,"current_range_meters":31200,"station_id":"ce4bhm12rcd13ifvqgkg","pricing_plan_id":"free"},{"bike_id":"eae92935-d2e4-436e-884b-389e9d56d41a","system_id":"levelo_inurba_marseille","lat":43.250966,"lon":5.395186,"is_reserved":false,"is_disabled":false,"rental_uris":{"android":"levelo://app?vid=eae92935-d2e4-436e-884b-389e9d56d41a","ios":"levelo://app?vid=eae92935-d2e4-436e-884b-389e9d56d41a"},"vehicle_type_id":"4","last_reported":1700838398,"current_range_meters":31200,"station_id":"ce4bhm12rcd13ifvqgkg","pricing_plan_id":"free"},{"bike_id":"42f49140-9965-47cd-8af7-3e161c2f7b46","system_id":"levelo_inurba_marseille","lat":43.250966,"lon":5.395186,"is_reserved":false,"is_disabled":false,"rental_uris":{"android":"levelo://app?vid=42f49140-9965-47cd-8af7-3e161c2f7b46","ios":"levelo://app?vid=42f49140-9965-47cd-8af7-3e161c2f7b46"},"vehicle_type_id":"4","last_reported":1700838398,"current_range_meters":18800,"station_id":"ce4bhm12rcd13ifvqgkg","pricing_plan_id":"free"},{"bike_id":"8b2f4673-8019-49f3-a802-e81090c5d1b9","system_id":"levelo_inurba_marseille","lat":43.24663,"lon":5.37665,"is_reserved":false,"is_disabled":false,"rental_uris":{"android":"levelo://app?vid=8b2f4673-8019-49f3-a802-e81090c5d1b9","ios":"levelo://app?vid=8b2f4673-8019-49f3-a802-e81090c5d1b9"},"vehicle_type_id":"4","last_reported":1700838398,"current_range_meters":16400,"station_id":"","pricing_plan_id":"free"},{"bike_id":"0d5ff200-b717-4d1b-a00b-caff37148102","system_id":"levelo_inurba_marseille","lat":43.251348,"lon":5.403106,"is_reserved":false,"is_disabled":false,"rental_uris":{"android":"levelo://app?vid=0d5ff200-b717-4d1b-a00b-caff37148102","ios":"levelo://app?vid=0d5ff200-b717-4d1b-a00b-caff37148102"},"vehicle_type_id":"4","last_reported":1700838398,"current_range_meters":4400,"station_id":"ce4bhlh2rcd13ifvqgig","pricing_plan_id":"free"},{"bike_id":"23b88d7a-cdc4-424f-a3ae-fe7015a02a94","system_id":"levelo_inurba_marseille","lat":43.25102,"lon":5.403214,"is_reserved":false,"is_disabled":false,"rental_uris":{"android":"levelo://app?vid=23b88d7a-cdc4-424f-a3ae-fe7015a02a94","ios":"levelo://app?vid=23b88d7a-cdc4-424f-a3ae-fe7015a02a94"},"vehicle_type_id":"4","last_reported":1700838398,"current_range_meters":22800,"station_id":"ce4bhlh2rcd13ifvqgig","pricing_plan_id":"free"},{"bike_id":"887523fb-0306-4ad2-a7c3-3096b8758c86","system_id":"levelo_inurba_marseille","lat":43.25102,"lon":5.403214,"is_reserved":false,"is_disabled":false,"rental_uris":{"android":"levelo://app?vid=887523fb-0306-4ad2-a7c3-3096b8758c86","ios":"levelo://app?vid=887523fb-0306-4ad2-a7c3-3096b8758c86"},"vehicle_type_id":"4","last_reported":1700838398,"current_range_meters":28800,"station_id":"ce4bhlh2rcd13ifvqgig","pricing_plan_id":"free"},{"bike_id":"2f45d430-e67b-4a35-b0cb-ce4d35216e38","system_id":"levelo_inurba_marseille","lat":43.251,"lon":5.4033,"is_reserved":false,"is_disabled":false,"rental_uris":{"android":"levelo://app?vid=2f45d430-e67b-4a35-b0cb-ce4d35216e38","ios":"levelo://app?vid=2f45d430-e67b-4a35-b0cb-ce4d35216e38"},"vehicle_type_id":"4","last_reported":1700838398,"current_range_meters":31200,"station_id":"ce4bhlh2rcd13ifvqgig","pricing_plan_id":"free"},{"bike_id":"0baf572b-b082-44f1-8682-93ae405e1656","system_id":"levelo_inurba_marseille","lat":43.243884,"lon":5.370737,"is_reserved":false,"is_disabled":false,"rental_uris":{"android":"levelo://app?vid=0baf572b-b082-44f1-8682-93ae405e1656","ios":"levelo://app?vid=0baf572b-b082-44f1-8682-93ae405e1656"},"vehicle_type_id":"4","last_reported":1700838398,"current_range_meters":29200,"station_id":"ce4bhhh2rcd13ifvqfk0","pricing_plan_id":"free"},{"bike_id":"e5734605-a64e-4a89-825d-d184fa7f79ab","system_id":"levelo_inurba_marseille","lat":43.243884,"lon":5.370736,"is_reserved":false,"is_disabled":false,"rental_uris":{"android":"levelo://app?vid=e5734605-a64e-4a89-825d-d184fa7f79ab","ios":"levelo://app?vid=e5734605-a64e-4a89-825d-d184fa7f79ab"},"vehicle_type_id":"4","last_reported":1700838398,"current_range_meters":29600,"station_id":"ce4bhhh2rcd13ifvqfk0","pricing_plan_id":"free"},{"bike_id":"f38a914a-1669-412f-a27f-d66e5a38000d","system_id":"levelo_inurba_marseille","lat":43.243884,"lon":5.370737,"is_reserved":false,"is_disabled":false,"rental_uris":{"android":"levelo://app?vid=f38a914a-1669-412f-a27f-d66e5a38000d","ios":"levelo://app?vid=f38a914a-1669-412f-a27f-d66e5a38000d"},"vehicle_type_id":"4","last_reported":1700838398,"current_range_meters":31200,"station_id":"ce4bhhh2rcd13ifvqfk0","pricing_plan_id":"free"},{"bike_id":"002f35b0-8653-40ae-b718-04602e09d7c3","system_id":"levelo_inurba_marseille","lat":43.243884,"lon":5.370736,"is_reserved":false,"is_disabled":false,"rental_uris":{"android":"levelo://app?vid=002f35b0-8653-40ae-b718-04602e09d7c3","ios":"levelo://app?vid=002f35b0-8653-40ae-b718-04602e09d7c3"},"vehicle_type_id":"4","last_reported":1700838398,"current_range_meters":31200,"station_id":"ce4bhhh2rcd13ifvqfk0","pricing_plan_id":"free"},{"bike_id":"c21e755a-7a65-4322-9deb-bc67939974fc","system_id":"levelo_inurba_marseille","lat":43.243884,"lon":5.370737,"is_reserved":false,"is_disabled":false,"rental_uris":{"android":"levelo://app?vid=c21e755a-7a65-4322-9deb-bc67939974fc","ios":"levelo://app?vid=c21e755a-7a65-4322-9deb-bc67939974fc"},"vehicle_type_id":"4","last_reported":1700838398,"current_range_meters":30800,"station_id":"ce4bhhh2rcd13ifvqfk0","pricing_plan_id":"free"},{"bike_id":"ca379cf0-2f2a-42c3-a395-30a654d81544","system_id":"levelo_inurba_marseille","lat":43.243884,"lon":5.370737,"is_reserved":false,"is_disabled":false,"rental_uris":{"android":"levelo://app?vid=ca379cf0-2f2a-42c3-a395-30a654d81544","ios":"levelo://app?vid=ca379cf0-2f2a-42c3-a395-30a654d81544"},"vehicle_type_id":"4","last_reported":1700838398,"current_range_meters":16800,"station_id":"ce4bhhh2rcd13ifvqfk0","pricing_plan_id":"free"},{"bike_id":"b6a3294a-d08b-4856-bc2d-cb266764db07","system_id":"levelo_inurba_marseille","lat":43.243884,"lon":5.370737,"is_reserved":false,"is_disabled":false,"rental_uris":{"android":"levelo://app?vid=b6a3294a-d08b-4856-bc2d-cb266764db07","ios":"levelo://app?vid=b6a3294a-d08b-4856-bc2d-cb266764db07"},"vehicle_type_id":"4","last_reported":1700838398,"current_range_meters":31200,"station_id":"ce4bhhh2rcd13ifvqfk0","pricing_plan_id":"free"},{"bike_id":"2b7297be-9a58-4ce9-9f65-ab39d74fd395","system_id":"levelo_inurba_marseille","lat":43.243884,"lon":5.370737,"is_reserved":false,"is_disabled":false,"rental_uris":{"android":"levelo://app?vid=2b7297be-9a58-4ce9-9f65-ab39d74fd395","ios":"levelo://app?vid=2b7297be-9a58-4ce9-9f65-ab39d74fd395"},"vehicle_type_id":"4","last_reported":1700838398,"current_range_meters":18800,"station_id":"ce4bhhh2rcd13ifvqfk0","pricing_plan_id":"free"},{"bike_id":"37a91800-392f-4ba8-a060-fafd20b8850e","system_id":"levelo_inurba_marseille","lat":43.243884,"lon":5.370736,"is_reserved":false,"is_disabled":false,"rental_uris":{"android":"levelo://app?vid=37a91800-392f-4ba8-a060-fafd20b8850e","ios":"levelo://app?vid=37a91800-392f-4ba8-a060-fafd20b8850e"},"vehicle_type_id":"4","last_reported":1700838398,"current_range_meters":31200,"station_id":"ce4bhhh2rcd13ifvqfk0","pricing_plan_id":"free"},{"bike_id":"28ea2975-b240-44c5-be70-a7ebd20cec89","system_id":"levelo_inurba_marseille","lat":43.240623,"lon":5.377642,"is_reserved":false,"is_disabled":false,"rental_uris":{"android":"levelo://app?vid=28ea2975-b240-44c5-be70-a7ebd20cec89","ios":"levelo://app?vid=28ea2975-b240-44c5-be70-a7ebd20cec89"},"vehicle_type_id":"4","last_reported":1700838398,"current_range_meters":21600,"station_id":"ce4bhnp2rcd13ifvqgvg","pricing_plan_id":"free"},{"bike_id":"56b0f98d-ecc1-47fa-bd3e-9dc560c42354","system_id":"levelo_inurba_marseille","lat":43.2397,"lon":5.36627,"is_reserved":false,"is_disabled":false,"rental_uris":{"android":"levelo://app?vid=56b0f98d-ecc1-47fa-bd3e-9dc560c42354","ios":"levelo://app?vid=56b0f98d-ecc1-47fa-bd3e-9dc560c42354"},"vehicle_type_id":"4","last_reported":1700838398,"current_range_meters":21200,"station_id":"ce4bhi12rcd13ifvqfp0","pricing_plan_id":"free"},{"bike_id":"faa5696c-5bf0-46dc-84ae-0a7bc1e2d5ef","system_id":"levelo_inurba_marseille","lat":43.239623,"lon":5.36645,"is_reserved":false,"is_disabled":false,"rental_uris":{"android":"levelo://app?vid=faa5696c-5bf0-46dc-84ae-0a7bc1e2d5ef","ios":"levelo://app?vid=faa5696c-5bf0-46dc-84ae-0a7bc1e2d5ef"},"vehicle_type_id":"4","last_reported":1700838398,"current_range_meters":25600,"station_id":"ce4bhi12rcd13ifvqfp0","pricing_plan_id":"free"},{"bike_id":"3ef70aed-f117-47c7-8cf5-f087e626237b","system_id":"levelo_inurba_marseille","lat":43.239615,"lon":5.366403,"is_reserved":false,"is_disabled":false,"rental_uris":{"android":"levelo://app?vid=3ef70aed-f117-47c7-8cf5-f087e626237b","ios":"levelo://app?vid=3ef70aed-f117-47c7-8cf5-f087e626237b"},"vehicle_type_id":"4","last_reported":1700838398,"current_range_meters":12000,"station_id":"ce4bhi12rcd13ifvqfp0","pricing_plan_id":"free"},{"bike_id":"124f1bf7-9af9-4782-a052-dd6aa38caf9d","system_id":"levelo_inurba_marseille","lat":43.23961,"lon":5.3664,"is_reserved":false,"is_disabled":false,"rental_uris":{"android":"levelo://app?vid=124f1bf7-9af9-4782-a052-dd6aa38caf9d","ios":"levelo://app?vid=124f1bf7-9af9-4782-a052-dd6aa38caf9d"},"vehicle_type_id":"4","last_reported":1700838398,"current_range_meters":30000,"station_id":"ce4bhi12rcd13ifvqfp0","pricing_plan_id":"free"},{"bike_id":"884cad8c-9715-4994-b1f8-a21278fa1a1d","system_id":"levelo_inurba_marseille","lat":43.23961,"lon":5.36637,"is_reserved":false,"is_disabled":false,"rental_uris":{"android":"levelo://app?vid=884cad8c-9715-4994-b1f8-a21278fa1a1d","ios":"levelo://app?vid=884cad8c-9715-4994-b1f8-a21278fa1a1d"},"vehicle_type_id":"4","last_reported":1700838398,"current_range_meters":28000,"station_id":"ce4bhi12rcd13ifvqfp0","pricing_plan_id":"free"},{"bike_id":"8904bfdf-f635-49c0-b8a9-6f183c7a093b","system_id":"levelo_inurba_marseille","lat":43.239587,"lon":5.3664,"is_reserved":false,"is_disabled":false,"rental_uris":{"android":"levelo://app?vid=8904bfdf-f635-49c0-b8a9-6f183c7a093b","ios":"levelo://app?vid=8904bfdf-f635-49c0-b8a9-6f183c7a093b"},"vehicle_type_id":"4","last_reported":1700838398,"current_range_meters":29600,"station_id":"ce4bhi12rcd13ifvqfp0","pricing_plan_id":"free"},{"bike_id":"6043056a-da83-4bf3-bffd-a77c21a9967d","system_id":"levelo_inurba_marseille","lat":43.241755,"lon":5.39729,"is_reserved":false,"is_disabled":false,"rental_uris":{"android":"levelo://app?vid=6043056a-da83-4bf3-bffd-a77c21a9967d","ios":"levelo://app?vid=6043056a-da83-4bf3-bffd-a77c21a9967d"},"vehicle_type_id":"4","last_reported":1700838398,"current_range_meters":5600,"station_id":"ce4bhn12rcd13ifvqgpg","pricing_plan_id":"free"},{"bike_id":"e93527fc-827d-468b-8e97-ad09e79c93af","system_id":"levelo_inurba_marseille","lat":43.241782,"lon":5.397261,"is_reserved":false,"is_disabled":false,"rental_uris":{"android":"levelo://app?vid=e93527fc-827d-468b-8e97-ad09e79c93af","ios":"levelo://app?vid=e93527fc-827d-468b-8e97-ad09e79c93af"},"vehicle_type_id":"4","last_reported":1700838398,"current_range_meters":29600,"station_id":"ce4bhn12rcd13ifvqgpg","pricing_plan_id":"free"},{"bike_id":"edd2b3c8-67fd-4064-8af7-f698e6d9963c","system_id":"levelo_inurba_marseille","lat":43.231919,"lon":5.355532,"is_reserved":false,"is_disabled":false,"rental_uris":{"android":"levelo://app?vid=edd2b3c8-67fd-4064-8af7-f698e6d9963c","ios":"levelo://app?vid=edd2b3c8-67fd-4064-8af7-f698e6d9963c"},"vehicle_type_id":"4","last_reported":1700838398,"current_range_meters":25600,"station_id":"ce4bhu92rcd13ifvqi70","pricing_plan_id":"free"},{"bike_id":"e5142140-e22b-48ab-87cb-62f0bb2d3ee6","system_id":"levelo_inurba_marseille","lat":43.231923,"lon":5.355545,"is_reserved":false,"is_disabled":false,"rental_uris":{"android":"levelo://app?vid=e5142140-e22b-48ab-87cb-62f0bb2d3ee6","ios":"levelo://app?vid=e5142140-e22b-48ab-87cb-62f0bb2d3ee6"},"vehicle_type_id":"4","last_reported":1700838398,"current_range_meters":29600,"station_id":"ce4bhu92rcd13ifvqi70","pricing_plan_id":"free"},{"bike_id":"aeb874ed-5a67-45f7-94cd-1c1e110219bc","system_id":"levelo_inurba_marseille","lat":43.231919,"lon":5.355532,"is_reserved":false,"is_disabled":false,"rental_uris":{"android":"levelo://app?vid=aeb874ed-5a67-45f7-94cd-1c1e110219bc","ios":"levelo://app?vid=aeb874ed-5a67-45f7-94cd-1c1e110219bc"},"vehicle_type_id":"4","last_reported":1700838398,"current_range_meters":31200,"station_id":"ce4bhu92rcd13ifvqi70","pricing_plan_id":"free"},{"bike_id":"0a349838-8936-442e-8a55-c173dbb54834","system_id":"levelo_inurba_marseille","lat":43.231919,"lon":5.355532,"is_reserved":false,"is_disabled":false,"rental_uris":{"android":"levelo://app?vid=0a349838-8936-442e-8a55-c173dbb54834","ios":"levelo://app?vid=0a349838-8936-442e-8a55-c173dbb54834"},"vehicle_type_id":"4","last_reported":1700838398,"current_range_meters":30000,"station_id":"ce4bhu92rcd13ifvqi70","pricing_plan_id":"free"},{"bike_id":"0d65e76d-9880-4e2c-a36d-b8425499c90e","system_id":"levelo_inurba_marseille","lat":43.231793,"lon":5.400044,"is_reserved":false,"is_disabled":false,"rental_uris":{"android":"levelo://app?vid=0d65e76d-9880-4e2c-a36d-b8425499c90e","ios":"levelo://app?vid=0d65e76d-9880-4e2c-a36d-b8425499c90e"},"vehicle_type_id":"4","last_reported":1700838398,"current_range_meters":17200,"station_id":"ce4bhn12rcd13ifvqgqg","pricing_plan_id":"free"},{"bike_id":"216d01e0-0894-4b88-9379-35377c1f196b","system_id":"levelo_inurba_marseille","lat":43.231794,"lon":5.400052,"is_reserved":false,"is_disabled":false,"rental_uris":{"android":"levelo://app?vid=216d01e0-0894-4b88-9379-35377c1f196b","ios":"levelo://app?vid=216d01e0-0894-4b88-9379-35377c1f196b"},"vehicle_type_id":"4","last_reported":1700838398,"current_range_meters":31600,"station_id":"ce4bhn12rcd13ifvqgqg","pricing_plan_id":"free"},{"bike_id":"df7e6c4d-a3bc-48a2-a471-a72390a84d34","system_id":"levelo_inurba_marseille","lat":43.231793,"lon":5.400044,"is_reserved":false,"is_disabled":false,"rental_uris":{"android":"levelo://app?vid=df7e6c4d-a3bc-48a2-a471-a72390a84d34","ios":"levelo://app?vid=df7e6c4d-a3bc-48a2-a471-a72390a84d34"},"vehicle_type_id":"4","last_reported":1700838398,"current_range_meters":22800,"station_id":"ce4bhn12rcd13ifvqgqg","pricing_plan_id":"free"},{"bike_id":"0945036d-9858-4086-b41b-ec6e60edb8ad","system_id":"levelo_inurba_marseille","lat":43.231794,"lon":5.400052,"is_reserved":false,"is_disabled":false,"rental_uris":{"android":"levelo://app?vid=0945036d-9858-4086-b41b-ec6e60edb8ad","ios":"levelo://app?vid=0945036d-9858-4086-b41b-ec6e60edb8ad"},"vehicle_type_id":"4","last_reported":1700838398,"current_range_meters":7600,"station_id":"ce4bhn12rcd13ifvqgqg","pricing_plan_id":"free"},{"bike_id":"42b71bb2-3e67-452d-bdb5-18d18eec3243","system_id":"levelo_inurba_marseille","lat":43.231794,"lon":5.400052,"is_reserved":false,"is_disabled":false,"rental_uris":{"android":"levelo://app?vid=42b71bb2-3e67-452d-bdb5-18d18eec3243","ios":"levelo://app?vid=42b71bb2-3e67-452d-bdb5-18d18eec3243"},"vehicle_type_id":"4","last_reported":1700838398,"current_range_meters":30400,"station_id":"ce4bhn12rcd13ifvqgqg","pricing_plan_id":"free"},{"bike_id":"330a00ea-2930-409e-9e01-e23d5e12ceb5","system_id":"levelo_inurba_marseille","lat":43.231794,"lon":5.400052,"is_reserved":false,"is_disabled":false,"rental_uris":{"android":"levelo://app?vid=330a00ea-2930-409e-9e01-e23d5e12ceb5","ios":"levelo://app?vid=330a00ea-2930-409e-9e01-e23d5e12ceb5"},"vehicle_type_id":"4","last_reported":1700838398,"current_range_meters":17600,"station_id":"ce4bhn12rcd13ifvqgqg","pricing_plan_id":"free"},{"bike_id":"a28db352-a418-47a5-a4b6-afa16a81082f","system_id":"levelo_inurba_marseille","lat":43.231794,"lon":5.400052,"is_reserved":false,"is_disabled":false,"rental_uris":{"android":"levelo://app?vid=a28db352-a418-47a5-a4b6-afa16a81082f","ios":"levelo://app?vid=a28db352-a418-47a5-a4b6-afa16a81082f"},"vehicle_type_id":"4","last_reported":1700838398,"current_range_meters":18800,"station_id":"ce4bhn12rcd13ifvqgqg","pricing_plan_id":"free"},{"bike_id":"9c2bf53e-bbf1-4349-bc38-b78a298e6986","system_id":"levelo_inurba_marseille","lat":43.231793,"lon":5.400044,"is_reserved":false,"is_disabled":false,"rental_uris":{"android":"levelo://app?vid=9c2bf53e-bbf1-4349-bc38-b78a298e6986","ios":"levelo://app?vid=9c2bf53e-bbf1-4349-bc38-b78a298e6986"},"vehicle_type_id":"4","last_reported":1700838398,"current_range_meters":31200,"station_id":"ce4bhn12rcd13ifvqgqg","pricing_plan_id":"free"},